time,header_stamp_secs,header_stamp_nsecs,header_frame_id,child_frame_id,pose_position_x,pose_position_y,pose_position_z,pose_orientation_x,pose_orientation_y,pose_orientation_z,pose_orientation_w,twist_linear_x,twist_linear_y,twist_linear_z,twist_angular_x,twist_angular_y,twist_angular_z,gps_status
2025/04/11 12:08:17.99684877,1744366097,22853079,piren,vessel_center,254.7267086549969,1038.744292499567,-41.51656791240186,0.0018550096593893184,-0.00892121637110893,-0.13327183501889417,0.9910376323976402,-0.023367415323741498,0.012850485925628145,0.000398007524813697,-0.0008096221718005836,0.006039280444383621,-0.004530957486434376,2
2025/04/11 12:08:17.454758782,1744366097,329177051,piren,vessel_center,254.7203110480962,1038.7487700288978,-41.51507085610961,0.0020629399083341004,-0.010362478967111862,-0.13389716955934297,0.9909389039151644,-0.02189974384004914,0.014352055803647071,0.0037137020478610378,0.005530715454369783,0.0038281194865703583,-0.0027016300213598553,2
2025/04/11 12:08:17.938193155,1744366097,823996877,piren,vessel_center,254.70747361730787,1038.7551068204941,-41.51283192862602,0.0010386368487627278,-0.00902725129528396,-0.1337314767507269,0.9909759442557715,-0.025999521086896366,0.012522738804364034,0.004543765940343295,0.006188815459609032,0.006052040960639715,-0.000469685527112154,2
2025/04/11 12:08:18.553765192,1744366098,296359420,piren,vessel_center,254.6991151337341,1038.7597245745196,-41.51230695221683,0.002141138114750761,-0.009741703753264898,-0.1325873815876255,0.9911211333531813,-0.02104381076189826,0.01155310622561954,0.001436849969212521,0.010285529308021069,0.010810868814587593,0.0010074002013235768,2
2025/04/11 12:08:19.154925770,1744366099,47118588,piren,vessel_center,254.68304856362468,1038.7640205493442,-41.51557497313753,0.0019434163579387723,-0.008572817288245667,-0.13021837109590537,0.9914463705948654,-0.017109326014656166,-0.0002886621172365454,-0.008172043408228542,0.007869185879826546,0.005429689772427082,0.0024803980271317677,2
2025/04/11 12:08:19.661467694,1744366099,586970361,piren,vessel_center,254.68280379225965,1038.7601789714424,-41.51899849395654,0.0017806950048633906,-0.008599877156860914,-0.1299015582726481,0.9914880011359313,-0.0053509995043894976,-0.009375879671642924,-0.01055694473380981,0.005206494592130184,0.008600794710218906,0.004666916231509376,2
2025/04/11 12:08:19.877997431,1744366099,872790989,piren,vessel_center,254.68281123101946,1038.7548549075611,-41.52166003535406,0.0024607746923995225,-0.00884249528732296,-0.1276393745188498,0.9917781732511781,-0.00016998884848350507,-0.011752020958556403,-0.0060789124815698835,0.00045637344010174274,0.006263402756303549,0.004952703839315114,2
2025/04/11 12:08:20.103253202,1744366100,81966433,piren,vessel_center,254.68434103162383,1038.7498230458987,-41.522501420170336,0.0015193747451823921,-0.007742081865853535,-0.1278514968532965,0.9917619403975623,0.003624796787221506,-0.016811282900380337,-0.004444559194115524,0.0025418084114789963,0.0025089625269174576,0.005264180267854356,2
2025/04/11 12:08:20.316602705,1744366100,305438410,piren,vessel_center,254.68452270599246,1038.74898046647,-41.52272418092985,0.001605529548020843,-0.009515396588131593,-0.1278415254428573,0.9917476613912858,0.003624796787221506,-0.016811282900380337,-0.004444559194115524,0.005656241439282894,0.0058006527833640575,0.0,2
2025/04/11 12:08:20.525042393,1744366100,517422296,piren,vessel_center,254.68442434200338,1038.7422114981514,-41.5235633888707,0.0014332643247645766,-0.009147639231056123,-0.12608766876197566,0.9919758899469504,0.0002993641797276116,-0.016896832138263578,-0.0024272620502131274,0.011476333253085613,0.0036636493168771267,0.007559662792202703,2
2025/04/11 12:08:20.729311712,1744366100,717641308,piren,vessel_center,254.68452570506105,1038.7380978097926,-41.5219671969586,0.0013692840108509763,-0.009388731787266423,-0.12519787678105798,0.9920864218535801,0.00038872355412434737,-0.018486027470498826,0.0020445581025683194,0.017896123230457306,0.011979485861957073,0.007694320652385323,2
2025/04/11 12:08:20.946714813,1744366100,940458272,piren,vessel_center,254.68410074677632,1038.733023769912,-41.52215331461605,0.0009024255450887005,-0.009128925292523671,-0.12384848904383801,0.9922587364758738,-0.0007276168400720659,-0.019381913024153635,0.0005480075330524441,-0.0015135913854464889,0.002293412573635578,0.009075245522381124,2
2025/04/11 12:08:21.149496390,1744366101,142330730,piren,vessel_center,254.68440494379595,1038.728926783849,-41.522898010857496,0.0005153511143627728,-0.007453863786183586,-0.12275995454674725,0.9924082667368137,0.0002359124958503647,-0.01989239076428932,-0.0012839307376793813,-8.998812700156122e-05,0.005795812699943781,0.012896958349611944,2
2025/04/11 12:08:21.354760045,1744366101,345219250,piren,vessel_center,254.6877490696261,1038.7244109698338,-41.52237355354172,0.0013573914767214773,-0.00953899112031427,-0.12117947144322648,0.9925838507841671,0.007306634820315715,-0.021086647991069202,0.00038872150474276437,0.006781859323382378,0.0025370686780661345,0.013904272490130843,2
2025/04/11 12:08:21.547007022,1744366101,539892393,piren,vessel_center,254.68711767039875,1038.7178634098063,-41.5230446289127,0.002094696698327419,-0.009584376326283048,-0.1197954447127349,0.9927501213307689,0.0027977914763597555,-0.026062964771699643,-0.0012212643464579258,0.009825282730162144,0.009345421567559242,0.014673671720420552,2
2025/04/11 12:08:21.737199271,1744366101,730988234,piren,vessel_center,254.68663381832172,1038.7122056842254,-41.52505794520459,0.0023514833157162974,-0.008238259105271073,-0.11878918501599581,0.9928825364243073,0.0006369504665827965,-0.030260757745963946,-0.005601797962839324,0.005313873291015625,0.0032594746444374323,0.015452722390454853,2
2025/04/11 12:08:21.935808125,1744366101,927237464,piren,vessel_center,254.68802673604364,1038.7047534488752,-41.525988723898344,0.002219931112275532,-0.008102229105282462,-0.11688515467552145,0.993109906508772,0.0036830726444578733,-0.033642268817675375,-0.005147696303464496,0.009116050787270069,0.003050500527024269,0.012637303295150929,2
2025/04/11 12:08:22.132067053,1744366102,122064909,piren,vessel_center,254.69139014859113,1038.697660030905,-41.52647259756055,0.0020033816310279966,-0.009284052439746265,-0.11569522997966887,0.9932393501026267,0.009322849214004357,-0.03444465002776271,-0.003979498444732595,0.009221083484590054,0.006878812797367573,0.013310734713000507,2
2025/04/11 12:08:22.333863939,1744366102,326966977,piren,vessel_center,254.69176655950866,1038.692485307469,-41.526266857492146,0.0018679020390223056,-0.008358394122813473,-0.1138708539908037,0.9934586437296047,0.005748048924488224,-0.03031858303093033,-0.0015741966539167115,0.011562635190784931,0.001689855009317398,0.014896470741850628,2
2025/04/11 12:08:22.530129532,1744366102,525160103,piren,vessel_center,254.69348741632206,1038.6875349668273,-41.52365501127201,0.0018233742541371185,-0.008837333885607099,-0.11218978532820098,0.9936458266928594,0.007127793690551819,-0.027646008446390643,0.005482295549518315,0.006876988802105188,0.007893620058894157,0.014491226604673219,2
2025/04/11 12:08:22.733606044,1744366102,726509275,piren,vessel_center,254.6933714117054,1038.6827629506404,-41.51838945038171,0.0010815415418061218,-0.008510804720238302,-0.11043154141294295,0.9938467040404515,0.0034204550369396508,-0.025819498846976804,0.01550297863625474,0.014214572496712208,0.012299805879592896,0.01567487526477345,2
2025/04/11 12:08:22.945862700,1744366102,934980492,piren,vessel_center,254.6943329224202,1038.6784639838984,-41.5134397088243,0.0017417646788477033,-0.008643530558564556,-0.10854717888055009,0.9940521946016521,0.004079725609949613,-0.023711072676451315,0.01990795046901326,0.011396825313568115,0.004551696125417948,0.016039778430171597,2
2025/04/11 12:08:23.162481430,1744366103,154372896,piren,vessel_center,254.69519615871306,1038.6711627738075,-41.508778004389356,0.0023746370083863547,-0.009650259673758712,-0.10642626646104246,0.9942709305790202,0.0037449437538499596,-0.026693916430303964,0.019243875852055226,0.011567560955882072,0.006537932436913252,0.015873281242109405,2
2025/04/11 12:08:23.358055312,1744366103,349971702,piren,vessel_center,254.69517612087986,1038.663573615772,-41.50859341167976,0.0018994595473807842,-0.00976678814108826,-0.10496517610252876,0.9944261228007841,0.002091991728230035,-0.03153196706516612,0.01136809216517918,0.009967558085918427,0.002087056403979659,0.021169155627826914,2
2025/04/11 12:08:23.563700826,1744366103,557847680,piren,vessel_center,254.69534916481837,1038.654971472002,-41.5102855304702,0.00115245685313822,-0.00803706917854362,-0.10176076143567593,0.9947757660871381,0.001565603091467104,-0.03648043850116666,0.002849760337721821,0.006318308413028717,0.0011675296118482947,0.0210668780206752,2
2025/04/11 12:08:23.752923748,1744366103,743827899,piren,vessel_center,254.70016283319728,1038.6465146584753,-41.51282784278989,0.002134297525226805,-0.008759628918234941,-0.10123962652437467,0.9948212159461085,0.011263232393389564,-0.03899118359822752,-0.0038553904447041955,0.0044879550114274025,0.008038685657083988,0.0172795055718721,2
2025/04/11 12:08:23.972562861,1744366103,964667504,piren,vessel_center,254.7035316939859,1038.6366152356725,-41.51536022704931,0.002903531375064504,-0.008177991161361198,-0.098144262336808,0.9951343596401858,0.013652739599706485,-0.04348766163075199,-0.007627099426565561,0.009857896715402603,0.008686949498951435,0.022657116339842524,2
2025/04/11 12:08:24.190736740,1744366104,182660700,piren,vessel_center,254.70869877084152,1038.6276569189713,-41.5173554792982,0.0034783908820659832,-0.008118270141368058,-0.09601938224957568,0.9953402798637224,0.019500082103263712,-0.04410120824268235,-0.008753172203904565,0.002916368655860424,0.0028370318468660116,0.018346201368242974,2
2025/04/11 12:08:24.400202747,1744366104,395506445,piren,vessel_center,254.71482520868054,1038.6182498517342,-41.519258837436276,0.002926112876762889,-0.00957635233654153,-0.09395578490784366,0.9955260126293586,0.02215178923984252,-0.04052274467285317,-0.008120954404506615,0.013255232945084572,0.018330836668610573,0.018718315461424256,2
2025/04/11 12:08:24.601461260,1744366104,597088129,piren,vessel_center,254.7169976241981,1038.6141450604848,-41.516824628582405,0.0004639528740082314,-0.012640414713135633,-0.09213946334810884,0.9956657692004548,0.017372264078199015,-0.032059215412300564,0.0005439218415858732,0.012120365165174007,0.011248728260397911,0.025450380705780883,2
2025/04/11 12:08:24.811124608,1744366104,796798026,piren,vessel_center,254.7141254221919,1038.615769917297,-41.51529668897758,0.00332793756508269,-0.008940608756913746,-0.0895487044989325,0.9959367549544407,0.003753898971399515,-0.014815549146987926,0.0035895745235961867,0.004972770810127258,0.0027343195397406816,0.0248827479852365,2
2025/04/11 12:08:25.243096,1744366104,993437495,piren,vessel_center,254.71836104903355,1038.6103397537024,-41.51672498868013,0.005614867512173325,-0.005769746582914209,-0.08760150773331145,0.9961230642496138,0.011318282040065361,-0.020151023651851594,-0.0010786372162272045,0.0025055804289877415,0.00643946835771203,0.024580993678710174,2
2025/04/11 12:08:25.234558892,1744366105,221974523,piren,vessel_center,254.7285579351014,1038.5983342146287,-41.52002455262093,0.0025976159879615335,-0.0054427018980632005,-0.08474594274644107,0.9963843407918678,0.02835318979084616,-0.037288528096360116,-0.007695900921805783,0.011363893747329712,0.015260537154972553,0.023011741260891987,2
2025/04/11 12:08:25.438835868,1744366105,430415456,piren,vessel_center,254.73903142297544,1038.5897722858745,-41.52297614886518,0.0021937335298165004,-0.00672725738248697,-0.08336776641421385,0.9964937265554737,0.039975935306256476,-0.03996927869720823,-0.011113724537688082,0.008343144319951534,0.008280059322714806,0.01845118135839404,2
2025/04/11 12:08:25.645247436,1744366105,633729953,piren,vessel_center,254.74654001178928,1038.5817104732669,-41.525200229486664,0.0024550864065546346,-0.005409918713983227,-0.08204671176405508,0.9966107777959009,0.03879729192899515,-0.04012670985612206,-0.011115192171922668,0.0067034452222287655,0.01188138872385025,0.01759453769301971,2
2025/04/11 12:08:25.853160647,1744366105,847144766,piren,vessel_center,254.75548772767593,1038.5713034470407,-41.52835819854749,0.0034469358225330047,-0.007862073724134841,-0.07973462392856444,0.9967791611872523,0.037180432078685155,-0.04092198393027505,-0.01192458574569741,0.009179312735795975,-0.0010094661265611649,0.01791487992259185,2
2025/04/11 12:08:26.53623523,1744366106,44264537,piren,vessel_center,254.75745170749244,1038.5623302168885,-41.53100591310288,0.0029771465778798164,-0.005707135152268973,-0.07785735079133281,0.9969437286699601,0.025416703630867343,-0.042613443688242145,-0.0124882507263635,0.011385819874703884,0.00868473295122385,0.024906424678550573,2
2025/04/11 12:08:26.250224133,1744366106,246376846,piren,vessel_center,254.76213166404938,1038.5560045481939,-41.53035166791629,0.0034365615676137844,-0.005072630299852062,-0.0752618722281802,0.9971449789549873,0.024564032091621012,-0.037910893117441474,-0.0057121638412809235,0.013678926974534988,0.012847023084759712,0.02465387524890997,2
2025/04/11 12:08:26.454504107,1744366106,449599742,piren,vessel_center,254.76820572262866,1038.5508333368687,-41.52895543871045,0.002446278432335451,-0.004097538194183207,-0.07311862616160804,0.9973118330847267,0.027041352036303687,-0.032736622332777215,-0.0002757351020591138,0.008037337101995945,0.0030167640652507544,0.025431390079172597,2
2025/04/11 12:08:26.641876352,1744366106,633476276,piren,vessel_center,254.77444544857605,1038.5500430592576,-41.52681726208775,0.0038761664440891586,-0.00200410871089031,-0.07156883092573331,0.9974261182272582,0.032305244817621426,-0.022826792498563037,0.004971088867682739,0.008474132977426052,0.007898163050413132,0.02562149767313025,2
2025/04/11 12:08:26.844420521,1744366106,836724857,piren,vessel_center,254.78489704259806,1038.5457554880759,-41.524909729089615,0.0037983410353757416,-0.0028613508187302727,-0.06879900019735793,0.9976192073375068,0.04189728991407275,-0.022153868455279762,0.007166921466330224,0.004341635387390852,-0.004238138906657696,0.019409314883111328,2
2025/04/11 12:08:27.51538586,1744366107,42190487,piren,vessel_center,254.79550183493419,1038.5396651640554,-41.523729665669386,0.0033216310465564655,-0.00340608475990434,-0.06680446707446976,0.9977547436783726,0.04214774677639081,-0.023321862863667803,0.00585011918304872,0.008664367720484734,-0.0015608975663781166,0.019854011504143437,2
2025/04/11 12:08:27.254241149,1744366107,247100310,piren,vessel_center,254.801415079632,1038.534453376772,-41.52120549894449,0.003038237610715605,-0.0014143234573975203,-0.06508581992238044,0.9978740425757202,0.03678115175000596,-0.024518210618589394,0.008763482433732862,0.009165205992758274,-0.003296147333458066,0.025570198682122496,2
2025/04/11 12:08:27.470795848,1744366107,459496301,piren,vessel_center,254.80896937222363,1038.5277373061651,-41.51707360499385,0.0038507904707979915,-0.002608550868295129,-0.061421868128853585,0.9981010575040382,0.03720549110717013,-0.028430535193365386,0.013901437228258828,0.010227366350591183,0.002509088022634387,0.024523441265920255,2
2025/04/11 12:08:27.683241147,1744366107,671547916,piren,vessel_center,254.81434589890983,1038.5184308335831,-41.515931857070825,0.003370856684795195,-0.0028130944873652713,-0.06005284320117472,0.9981855437983816,0.032766184561319384,-0.03621111688971726,0.010378872379345693,0.005060912109911442,-0.003175831865519285,0.018904221016358434,2
2025/04/11 12:08:27.890245015,1744366107,881721166,piren,vessel_center,254.8178753289024,1038.5094596979877,-41.51567588202621,0.002914204958507499,-0.0037079236368468983,-0.05852940380738318,0.9982745452037308,0.025469461484795026,-0.04030854548782375,0.0060002105668843335,0.005246653687208891,0.0033076258841902018,0.019292636182005433,2
2025/04/11 12:08:28.95127473,1744366108,82367371,piren,vessel_center,254.81888091662492,1038.5011926993839,-41.514786817257786,0.0029260598512821042,-0.004774247403560482,-0.05635563639030569,0.9983950555679451,0.01567989404572938,-0.040857919682457604,0.005261213003785769,0.0024415759835392237,0.007379116024821997,0.01965958504596648,2
2025/04/11 12:08:28.305282161,1744366108,293187750,piren,vessel_center,254.81979029261885,1038.4910584983531,-41.51340178977617,0.0018775825542153657,-0.00531735961646782,-0.05360414073998559,0.9985463416717268,0.009213357287649267,-0.040680766257719395,0.00541031888730572,0.014605029486119747,0.0003844554303213954,0.02006482614774734,2
2025/04/11 12:08:28.528172493,1744366108,512436412,piren,vessel_center,254.82061757294434,1038.4856510153647,-41.514911386421204,0.0032990151924650285,-0.00684530020692421,-0.05073856332393751,0.998683061113815,0.0070343338416479296,-0.03482686348907012,-0.0001534249262419964,0.011135734617710114,-0.006571299862116575,0.025657700624665547,2
2025/04/11 12:08:28.736134761,1744366108,729205414,piren,vessel_center,254.82103400682328,1038.4780712469344,-41.51475006703673,0.0023820543591163315,-0.006706846448981491,-0.048383754682349914,0.9988034623040603,0.004657262187902342,-0.036307262195259704,0.0003075718990714902,0.010940399020910263,0.007215266581624746,0.020775029770624568,2
2025/04/11 12:08:28.944100715,1744366108,935638105,piren,vessel_center,254.82301123978158,1038.4723103210574,-41.51496534802609,0.002799068739653901,-0.007770777048624243,-0.04660850396864527,0.9988790855734523,0.007164376138507686,-0.032699750863866964,-0.00035637235044987407,0.006322821136564016,-0.003971602767705917,0.021044566417284097,2
2025/04/11 12:08:29.162554703,1744366109,153217722,piren,vessel_center,254.8246451960241,1038.4648995099158,-41.514096220216054,0.002440384078291436,-0.007670698849033269,-0.04391247494677989,0.9990029526726968,0.0068235855374042505,-0.031043545705688326,0.0017018095662763239,0.006819532718509436,-0.008495058864355087,0.020565198409449984,2
2025/04/11 12:08:29.375752354,1744366109,365485219,piren,vessel_center,254.8277459019645,1038.459565454222,-41.51484883128724,0.0020853000114690657,-0.00906791769701306,-0.041117439147158416,0.999110995130412,0.010549047553377131,-0.029180906041619915,-0.0006412276896469397,0.0076600718311965466,0.0049834297969937325,0.026072197384267033,2
2025/04/11 12:08:29.591637742,1744366109,576757300,piren,vessel_center,254.83015355167515,1038.4533016827168,-41.51737337011452,0.0019319558953264093,-0.008827010929680417,-0.038886953044496235,0.9992027603581672,0.011263940393200864,-0.030206579693185655,-0.006396862711665108,0.010204794816672802,-0.0004126771236769855,0.020381987281524596,2
2025/04/11 12:08:29.811577945,1744366109,803432005,piren,vessel_center,254.83508761108055,1038.4446880977182,-41.51858034788679,0.0022565596921384056,-0.008167285803309743,-0.036829834224490474,0.9992856281824329,0.015799821210430418,-0.032483619946833665,-0.0055578765294569624,0.011001541279256344,0.005797535181045532,0.020272099029757053,2
2025/04/11 12:08:30.38185300,1744366110,25786276,piren,vessel_center,254.8403045327737,1038.4366694786545,-41.51917177710832,0.002465443613607771,-0.008229651985825773,-0.033938107133641884,0.9993870117727995,0.020748843267051707,-0.03614216942332862,-0.004304977424038726,0.013371692039072514,0.0005797003395855427,0.02610393863274159,2
2025/04/11 12:08:30.256007436,1744366110,247155364,piren,vessel_center,254.84758766355333,1038.4256198375144,-41.51932122152607,0.0015379722645351736,-0.00909449625827681,-0.03112533265022697,0.9994729303220445,0.025246459554341634,-0.04046460423232931,-0.002316496555948789,0.012044298462569714,0.008566985838115215,0.020657816187443608,2
2025/04/11 12:08:30.460005428,1744366110,449278624,piren,vessel_center,254.85269672230763,1038.4193716122486,-41.51762199232926,0.0017321174994720165,-0.008999313760020862,-0.0298359660897745,0.999512794939768,0.025377969447913637,-0.03651035215916638,0.0023248235220080446,0.009275946766138077,0.011808713898062706,0.02717453839109595,2
2025/04/11 12:08:30.721543838,1744366110,709958953,piren,vessel_center,254.8580936163212,1038.4115401878757,-41.51749302392345,0.0015733098967354187,-0.008637172113834536,-0.02420463568003298,0.9996684748282512,0.023345742816604904,-0.033730970243050266,0.0013528794398780506,0.01617540419101715,0.008135943673551083,0.025056626701191468,2
2025/04/11 12:08:30.933003928,1744366110,922020609,piren,vessel_center,254.86526584411484,1038.4063534405493,-41.51781539875939,0.0011440931869687726,-0.011057916875079399,-0.024206718589935478,0.9996451611948468,0.028709975008473627,-0.030384990516540727,8.158378431062261e-05,0.014906692318618298,0.005864533595740795,0.01941929068939588,2
2025/04/11 12:08:31.155285053,1744366111,144971522,piren,vessel_center,254.86773490116343,1038.400493698835,-41.51799300224896,0.0031110600380861836,-0.006921784106524925,-0.02233561925059437,0.9997217264433711,0.018573251984321467,-0.026632407245233497,-0.0003438852629869882,0.01863766461610794,0.00908516813069582,0.018920340528936205,2
2025/04/11 12:08:31.368975538,1744366111,359090549,piren,vessel_center,254.87514899100242,1038.3923690928905,-41.518650148858015,0.0016129515278477727,-0.00574719493887821,-0.019930371338143408,0.999783550792884,0.026524791922065666,-0.032655315048214124,-0.0016067280275763108,0.008725259453058243,0.014791912399232388,0.023327360011547657,2
2025/04/11 12:08:31.605964300,1744366111,590668280,piren,vessel_center,254.88519537387543,1038.38409536174,-41.51699837343927,0.0020828920740449436,-0.009224440620571144,-0.017442033621204975,0.9998031539853244,0.03373052789690984,-0.03277742210630096,0.0027864840512904707,0.015979010611772537,0.007386636454612017,0.018417358204486402,2
2025/04/11 12:08:31.937993086,1744366111,904062951,piren,vessel_center,254.89026776732544,1038.3738372282066,-41.51638261081207,0.0027078145853716203,-0.008446681566779832,-0.013663722195812758,0.9998673031989977,0.023032924561062026,-0.03379959644335032,0.002324249497809204,0.015801431611180305,0.013914413750171661,0.02190061430758276,2
2025/04/11 12:08:32.188318164,1744366112,174272694,piren,vessel_center,254.89467727819175,1038.36427876466,-41.516186511278676,0.001860522153448319,-0.010943997425234338,-0.01094698707486868,0.9998784580396037,0.02012389264164096,-0.0361880923206627,0.0014941350255355686,0.014738638885319233,0.008386652916669846,0.021389183415798266,2
2025/04/11 12:08:32.407313594,1744366112,395480664,piren,vessel_center,254.89586074405634,1038.3562458676558,-41.51529460326045,0.002287032427488097,-0.008199529595431392,-0.010353411394806528,0.9999101679998955,0.011817462996236937,-0.03399042245873717,0.0026121345550393455,0.02316303923726082,0.008844240568578243,0.016681887576945335,2
2025/04/11 12:08:32.632587919,1744366112,622010579,piren,vessel_center,254.90045219998936,1038.3510200463681,-41.51482821713447,0.002491987242690859,-0.0060076387365484655,-0.008747926072783095,0.9999405842677948,0.016608341612118348,-0.030640603333449704,0.0024937640658322362,0.020247701555490494,0.010311144404113293,0.020269719040304286,2
2025/04/11 12:08:32.853768948,1744366112,838986209,piren,vessel_center,254.91031911858988,1038.3439420531984,-41.51715858068455,0.001900097128242996,-0.011516106615183049,-0.00661571810871645,0.9999099965463077,0.028849919984895785,-0.02938527161350068,-0.003836341789036625,0.018300820142030716,0.021690882742404938,0.01608834928577174,2
2025/04/11 12:08:33.51306370,1744366113,43569644,piren,vessel_center,254.9100525371476,1038.339690135443,-41.51964631166878,0.0021316344091073533,-0.01043360342274409,-0.005873137905830313,0.9999260484183329,0.015867846280389238,-0.025883969662936594,-0.00753279257693862,0.019038282334804535,-0.003546574618667364,0.019745944905283846,2
2025/04/11 12:08:33.270122127,1744366113,258571310,piren,vessel_center,254.91037468682504,1038.3351352999555,-41.52069396673385,0.0015755293980601703,-0.0056091325864452155,-0.003106360255405891,0.9999782026947923,0.009736980251409583,-0.024543872986760123,-0.006545473992474628,0.015570716001093388,0.005552473943680525,0.019085763047070523,2
2025/04/11 12:08:33.506353517,1744366113,487273877,piren,vessel_center,254.91928064616425,1038.3312739516646,-41.52001787461541,0.0018959467727665703,-0.004853821365167614,-0.0019210027511412317,0.9999845776572857,0.02644916296897019,-0.02203163197409596,-0.0017789019494159697,0.01414632797241211,0.011849511414766312,0.015235269122211789,2
2025/04/11 12:08:33.739181490,1744366113,722446297,piren,vessel_center,254.93199586253604,1038.3256586011203,-41.52024361894453,0.0023767704740324308,-0.006753594263929961,0.0003389594521471481,0.999974312186629,0.03942814396434652,-0.0221931354244589,-0.0013047246396013202,0.016989773139357567,0.005847891792654991,0.014736287228316101,2
2025/04/11 12:08:33.974553158,1744366113,946130705,piren,vessel_center,254.9404748300092,1038.3189794785553,-41.52031524361031,0.0018389494180570177,-0.009454093162128616,0.0013965472943992926,0.9999526429002396,0.03658214692120519,-0.024689001458500583,-0.0007614274369530017,0.01455758884549141,0.003823082195594907,0.014505912742298429,2
2025/04/11 12:08:34.190238927,1744366114,177705389,piren,vessel_center,254.94050642934798,1038.3140617345102,-41.518968137800634,0.0020958746556205173,-0.007303209285767761,0.003195456369827117,0.9999660291740639,0.019084051753679984,-0.024637684452682166,0.0028392318759529163,0.011068756692111492,0.010893072932958603,0.017421095261630583,2
2025/04/11 12:08:34.415180062,1744366114,405956567,piren,vessel_center,254.9438853831255,1038.3077650770977,-41.51789312980636,0.002066664943490596,-0.009599490584102663,0.005714496883214772,0.9999354595182176,0.016080719410138142,-0.024936061226617328,0.003627820050866146,0.022365225479006767,0.00096059066709131,0.0136163052874701,2
2025/04/11 12:08:34.651042728,1744366114,636908593,piren,vessel_center,254.94283218165725,1038.301200757805,-41.51994326883274,0.002277167781536031,-0.00885900834151109,0.0059463315716881725,0.9999404850384543,0.005813056441343277,-0.028665464059486126,-0.0030336325975611114,0.006164695601910353,0.002225852571427822,0.013324723288595307,2
2025/04/11 12:08:34.883001847,1744366114,873508830,piren,vessel_center,254.9424737859425,1038.2931079194025,-41.52200798959829,0.0018488838459394894,-0.009126286547667147,0.008168611373113829,0.9999232802123417,0.0014773174018501856,-0.030950446293900327,-0.006175416769144706,0.008514700457453728,0.0066196611151099205,0.012735356812500832,2
2025/04/11 12:08:35.103001059,1744366115,87923339,piren,vessel_center,254.94210451862094,1038.2877795626569,-41.52404745708351,0.001636198226299172,-0.00897384658163386,0.008745164305431716,0.9999201543294167,-0.00011782983885940779,-0.02888941512701423,-0.008107569679418704,0.018216300755739212,-0.0002916661323979497,0.012310095855610225,2
2025/04/11 12:08:35.310204858,1744366115,298744379,piren,vessel_center,254.94192193210722,1038.2821774626877,-41.52588128208069,0.001779032753195478,-0.008404326540484652,0.010237664422877345,0.9999106922945812,-0.00044625625610014247,-0.02541466891561869,-0.007693573352423756,0.018989231437444687,-7.347387872869149e-05,0.011919149249030044,2
2025/04/11 12:08:35.523062586,1744366115,507292131,piren,vessel_center,254.94433774191353,1038.2780236700057,-41.52792836490549,0.0019164532363270769,-0.008155174242839751,0.011656736971467114,0.999896965103525,0.00492160920362049,-0.023390611727882073,-0.008772708642879936,0.019653422757983208,0.0008442199323326349,0.01415752089260435,2
2025/04/11 12:08:35.744865058,1744366115,729272216,piren,vessel_center,254.94713740084882,1038.2736719040806,-41.528647573731675,0.001924478916993323,-0.0084224540549853,0.012693790003560478,0.9998821062224963,0.00930549582426475,-0.022623179427500886,-0.006282336486566466,0.010697045363485813,-0.002151201944798231,0.01072099482655654,2
2025/04/11 12:08:35.952750049,1744366115,942946307,piren,vessel_center,254.94991203692337,1038.2685586339037,-41.53125258955127,0.0018110545736348647,-0.008459956994875067,0.013667524845289962,0.9998691654279471,0.010271978785385823,-0.021472155054652844,-0.008504258784938658,0.010360831394791603,-0.0006043220055289567,0.010376694015382866,2
2025/04/11 12:08:36.172082686,1744366116,160073562,piren,vessel_center,254.9523452686839,1038.264184219721,-41.532530155144535,0.002293378156959749,-0.008776108303221253,0.014792268710395021,0.9998494432293688,0.011049273914341125,-0.021572170021863728,-0.007569415167876061,0.009419872425496578,0.005297883413732052,0.011747056353793039,2
2025/04/11 12:08:36.376499154,1744366116,365937199,piren,vessel_center,254.95300459373743,1038.259276184672,-41.53429240908685,0.0029182837049261364,-0.009550797869720419,0.01579012231889984,0.9998254537255108,0.007763414729015591,-0.022914323015174903,-0.00812623688730696,0.014302097260951996,-0.0013582260580733418,0.00985489151303242,2
2025/04/11 12:08:36.601863972,1744366116,577798648,piren,vessel_center,254.95224830456223,1038.2529040389588,-41.534474611485365,0.0027362688846890924,-0.008291426596069813,0.016441891070856748,0.9998266996312946,0.002226409691752548,-0.02720604486567028,-0.004665867057570951,0.018112147226929665,-3.0455030355369672e-05,0.008826628725657343,2
2025/04/11 12:08:36.849928567,1744366116,844302924,piren,vessel_center,254.9518637939229,1038.245243367646,-41.53052146789059,0.002364875127431559,-0.0085828819379118,0.017953973858077038,0.9997991779982494,-3.523441273491079e-05,-0.0261277570960374,0.006836998169609385,0.007843241095542908,0.0014215619303286076,0.008031317537443846,2
2025/04/11 12:08:37.71642595,1744366117,60847878,piren,vessel_center,254.9514476330712,1038.2409765467114,-41.52671343386299,0.003220211019361302,-0.008775599464752662,0.01832304039030542,0.999788420259947,-0.0009165234052487841,-0.02406268918257412,0.012094511260954729,0.007725175470113754,-0.006108487024903297,0.009058280703715206,2
2025/04/11 12:08:37.276729062,1744366117,265870611,piren,vessel_center,254.95034611100007,1038.2364273124356,-41.524637056526146,0.0038574293100505346,-0.008755168702175378,0.01867831857495303,0.999779769586946,-0.0029021656241410643,-0.023490019956261692,0.011352127301961442,0.003298734314739704,0.0027616028673946857,0.005496500514891107,2
2025/04/11 12:08:37.487702252,1744366117,475143256,piren,vessel_center,254.94855880017215,1038.2316590043133,-41.521589169499954,0.0027031170981367467,-0.009125581381564118,0.018818209866429257,0.9997776212237526,-0.0058098691878284555,-0.023665385908680052,0.013227681205376027,0.016948679462075233,0.008112429641187191,0.005183582479791474,2
2025/04/11 12:08:37.707706430,1744366117,697698010,piren,vessel_center,254.94517799577875,1038.2290526994905,-41.51859913745192,0.0023565991941511557,-0.00797958192967516,0.01900848925716567,0.9997847018476659,-0.0099377857194212,-0.016577647606209226,0.012548462120469136,0.012074735946953297,-0.00933048315346241,0.003231276812774606,2
2025/04/11 12:08:37.928295791,1744366117,917415892,piren,vessel_center,254.9448317784252,1038.2292384506666,-41.51620378158991,0.002034196389590408,-0.00747119881248257,0.018841573832200205,0.9997924976358238,-0.006390246377304622,-0.009021733311237783,0.01227147212175623,0.011566149070858955,0.0004519403155427426,0.0021825231942580268,2
2025/04/11 12:08:38.137570054,1744366118,129097888,piren,vessel_center,254.94447123235585,1038.2297083983972,-41.51397112253672,0.0026321492478876317,-0.009968104104107305,0.018658340842844734,0.9997727616853236,-0.0041984537698453025,-0.0035724734821997277,0.011767620512711116,0.011835508048534393,0.005167751107364893,0.0006522909748872812,2
2025/04/11 12:08:38.366371681,1744366118,347946502,piren,vessel_center,254.9396857193467,1038.228353241233,-41.51325506594124,0.002317133875506116,-0.00954169222102021,0.018159890903132917,0.999786879971201,-0.012093516569757313,-0.00452205976034749,0.006938314574409785,0.006713705137372017,-3.587193714338355e-05,-0.0011348340314673029,2
2025/04/11 12:08:38.568436763,1744366118,558171362,piren,vessel_center,254.93526775271545,1038.2269610284177,-41.511397672436736,0.0027400145324493475,-0.007642069480316649,0.017352285341420505,0.9998164778037267,-0.016515099331695537,-0.005611269080873187,0.00800425243459699,0.015721581876277924,-0.0012700798688456416,-0.0037088937808626306,2
2025/04/11 12:08:38.800048327,1744366118,791428634,piren,vessel_center,254.93299107969824,1038.2249801177102,-41.51009735473142,0.0027554871267717928,-0.00843187955256908,0.016126330683571333,0.999830611732102,-0.012587402162648587,-0.006864624032459703,0.006522672464689092,0.010061385110020638,0.006081432569772005,-0.005700168552039577,2
2025/04/11 12:08:39.19347734,1744366119,8542243,piren,vessel_center,254.92947300648936,1038.2232831861488,-41.50900554595906,0.0021831767242283073,-0.00823954883845914,0.014578520963771763,0.9998573949823236,-0.01473111887084987,-0.00755938846559731,0.006068888982542828,0.01022360660135746,-0.0004803668998647481,-0.009796276208620848,2
2025/04/11 12:08:39.255086341,1744366119,232321499,piren,vessel_center,254.92462593648457,1038.2227392482014,-41.50871447423884,0.002333551070605557,-0.00915655225516864,0.012910848474588637,0.9998720028492974,-0.01928307297318942,-0.005231466642908361,0.0038505103124236916,0.00726590259000659,0.000209730991628021,-0.010594426602318092,2
2025/04/11 12:08:39.512302915,1744366119,501493636,piren,vessel_center,254.91352595713855,1038.2218900646699,-41.51020064370376,0.0026030350102842215,-0.00829246665018059,0.010056151120861499,0.9999116626133657,-0.030710726017286916,-0.0036703263222080005,-0.0018499648677845941,-0.0005625086487270892,0.006163823418319225,-0.0125847340230211,2
2025/04/11 12:08:39.722304358,1744366119,713684684,piren,vessel_center,254.90380296341,1038.221477330282,-41.51345177604347,0.0021149868655115055,-0.007996007313831568,0.008208974683440255,0.9999320994108762,-0.03846129916071267,-0.00299020303682484,-0.008031333832303745,0.006093005649745464,0.014106088317930698,-0.01837039907869554,2
2025/04/11 12:08:39.944258225,1744366119,934917216,piren,vessel_center,254.8933234220908,1038.2231602903578,-41.51604986609934,0.0020642331867550615,-0.009377515860245223,0.005961837797409762,0.999936126773965,-0.04516592988015863,0.0024956760735221736,-0.010416950771849544,0.00033317322959192097,0.010223105549812317,-0.0165998975694126,2
2025/04/11 12:08:40.172976031,1744366120,156233660,piren,vessel_center,254.876983264979,1038.2251718408354,-41.51859761355216,0.0027673818037520555,-0.010042661790190791,0.003523108803491118,0.9999395352952491,-0.05601142154755497,0.00548073402787848,-0.010291009685892052,0.0072862873785197735,0.010643580928444862,-0.018463448386129313,2
2025/04/11 12:08:40.410300597,1744366120,405681881,piren,vessel_center,254.85778958257765,1038.2270546182945,-41.521465696651596,0.0021825241387596296,-0.007839166840444799,-0.0005254737422438607,0.9999667534118211,-0.06722837381093985,0.006588397431005415,-0.010930628432566893,0.009529002010822296,0.003236595308408141,-0.026401799276071135,2
2025/04/11 12:08:40.625220583,1744366120,615954480,piren,vessel_center,254.84435439412303,1038.230176794902,-41.52480055702769,0.003032812484481377,-0.008697549174508636,-0.00458783718968908,0.9999470518166009,-0.067209892207802,0.010467536010037274,-0.013400477152055147,0.008651088923215866,0.003352746134623885,-0.03137332055552925,2
2025/04/11 12:08:40.835836944,1744366120,818708957,piren,vessel_center,254.82731243308362,1038.2321168175847,-41.530581270665685,0.0021108665027152617,-0.009195372179913291,-0.007684507300129553,0.9999259661198098,-0.0745008192587419,0.010085249695475777,-0.019918419444098848,0.01661037839949131,0.003979794681072235,-0.0271599287513749,2
2025/04/11 12:08:41.39967028,1744366121,31442379,piren,vessel_center,254.80922239878902,1038.2368855518587,-41.53467191582949,0.0027896028130641706,-0.00904890891225514,-0.010290343567480433,0.9999022173157265,-0.0826136638517936,0.01676467012384817,-0.020293012826419956,0.008271221071481705,-0.001716918428428471,-0.028459737413367683,2
2025/04/11 12:08:41.256124164,1744366121,240834421,piren,vessel_center,254.78576889007505,1038.2425258217916,-41.53737157182913,0.0021800833387329074,-0.007714931156546621,-0.014537299981027235,0.9998621874954305,-0.08856926295800337,0.019858998922609297,-0.01520217277289362,0.010406852699816227,0.007096929010003805,-0.02957155084652993,2
2025/04/11 12:08:41.482967483,1744366121,464956537,piren,vessel_center,254.76830217242033,1038.248662228534,-41.5380274736583,0.0021902210823816805,-0.008111084174069597,-0.018929837283925048,0.9997855142506995,-0.0879917994862352,0.024510726532753303,-0.010058897275632719,0.008535588160157204,0.009329652413725853,-0.03830132351789556,2
2025/04/11 12:08:41.705900753,1744366121,686368442,piren,vessel_center,254.74816224244307,1038.255381484499,-41.53687786831295,0.0024242539068230974,-0.008698069840022622,-0.02244079146139062,0.9997073959177454,-0.09410414239205225,0.028872227510873906,-0.0024825577187584744,0.014048689976334572,-0.008275823667645454,-0.03084902591818315,2
2025/04/11 12:08:41.893662961,1744366121,881387918,piren,vessel_center,254.7261526329283,1038.261850544893,-41.534714577729034,0.0018006060849931082,-0.007509418672417248,-0.025004952747675075,0.9996575007406365,-0.10183003362221812,0.0305623294194447,0.0038924205369937643,0.024856973439455032,-0.001137665705755353,-0.03096609503790317,2
2025/04/11 12:08:42.112974010,1744366122,94773840,piren,vessel_center,254.70018132782505,1038.271296962821,-41.53200728882258,0.0016083100301085749,-0.008574933575325072,-0.0295501168546171,0.9995252245175729,-0.10294421974772364,0.034439674696477574,0.007612913247618276,0.011993507854640484,0.01087891310453415,-0.032411645053743846,2
2025/04/11 12:08:42.332098331,1744366122,323056367,piren,vessel_center,254.67574676494527,1038.2796458076382,-41.528759869723125,0.0017331963955078149,-0.009688090439935031,-0.034358878064088515,0.9993610981182225,-0.11123706904704692,0.03758784027486397,0.0113148237514963,0.0038341369945555925,0.008895931765437126,-0.04222170563093204,2
2025/04/11 12:08:42.609262553,1744366122,600905451,piren,vessel_center,254.63601394926673,1038.2915290055312,-41.52347218185221,0.0018127247697135133,-0.009275482343911224,-0.04195136436619881,0.9990749533863871,-0.12480973317522044,0.03886470846373411,0.015368455658801844,0.013202629052102566,0.01108209602534771,-0.03335274710958477,2
2025/04/11 12:08:42.833688861,1744366122,816325986,piren,vessel_center,254.60456184708667,1038.2995708678138,-41.51446901697681,0.00204192416121924,-0.009272920698406208,-0.043673462149084234,0.9990007368322376,-0.13879211645748896,0.039454198843850444,0.028113249812969338,0.022045304998755455,0.01402198150753975,-0.04274660797776446,2
2025/04/11 12:08:43.39527703,1744366123,31447812,piren,vessel_center,254.57568398634643,1038.3072065901497,-41.50696883739227,0.001219490650564779,-0.011233372444979238,-0.047457090647191516,0.9988093655615019,-0.14146374958675081,0.038830158566634035,0.03263784370679445,0.018908806145191193,0.008643566630780697,-0.03393649183170233,2
2025/04/11 12:08:43.263631844,1744366123,251096184,piren,vessel_center,254.53679075861805,1038.3186404939026,-41.49904845885783,0.002464584351953308,-0.009559397450520205,-0.05098714052772237,0.9986505170704922,-0.14897022667391852,0.0425144307380833,0.03211464520970252,0.01106506772339344,0.003570537082850933,-0.033826193572420164,2
2025/04/11 12:08:43.484735391,1744366123,468307511,piren,vessel_center,254.50909681982236,1038.3263845037645,-41.49675560824526,0.0020884936083191024,-0.009492505982427568,-0.05575198863921797,0.9983973388823681,-0.1445175399567232,0.040900996642267255,0.023255398559871306,0.013416684232652187,0.006787050049751997,-0.043408132827224576,2
2025/04/11 12:08:43.715243039,1744366123,704081021,piren,vessel_center,254.47507641532297,1038.3374558362789,-41.49512651372136,0.0009959333154717868,-0.008555849485651279,-0.06009127244200185,0.9981557215849194,-0.13999763172664628,0.04271930892009548,0.014273396698831672,0.014102554880082607,-0.0024983040057122707,-0.032684613410814196,2
2025/04/11 12:08:43.940271363,1744366123,931356095,piren,vessel_center,254.44999443716424,1038.3486960128469,-41.49476665105334,0.0013398491859930213,-0.009651996512877922,-0.06326904033168196,0.9979489327129832,-0.13296134361014522,0.04921026593383429,0.008263832512125188,0.011401207186281681,-0.0013183259870857,-0.04038850938701949,2
2025/04/11 12:08:44.170410289,1744366124,149723567,piren,vessel_center,254.41698567638014,1038.3623292742145,-41.49582763610327,0.002229039411833684,-0.007708085246123811,-0.06752796589028809,0.9976851159698932,-0.1324438025026437,0.052070970301974724,0.0015243341494624455,0.01690562814474106,0.0004466162936296314,-0.03226456845914746,2
2025/04/11 12:08:44.384457950,1744366124,371275491,piren,vessel_center,254.39332757730637,1038.3716112640705,-41.495931776688174,0.0014276075185615333,-0.008380192201666626,-0.07077919182746324,0.997455783641404,-0.1262376190044732,0.04958879264086134,0.000630775640962609,0.02002880722284317,-0.001133185694925487,-0.03919419628740699,2
2025/04/11 12:08:44.592353464,1744366124,584390846,piren,vessel_center,254.36832483429438,1038.3820612313825,-41.497302080737896,0.001987819005157476,-0.008940552499457334,-0.07385482604022382,0.9972269449664783,-0.1256603286455173,0.05086874033495404,-0.0029574542928799035,0.015237848274409771,0.007614658214151859,-0.030186886878222775,2
2025/04/11 12:08:44.798642577,1744366124,790208891,piren,vessel_center,254.33585655998553,1038.3948414256347,-41.50495692649564,0.001393169679776782,-0.00951723923364263,-0.07669523508752164,0.997008185598535,-0.12794795613101528,0.05101513871122732,-0.017797632568891684,0.016617923974990845,0.004704555030912161,-0.029366613521972944,2
2025/04/11 12:08:45.15041374,1744366125,988627,piren,vessel_center,254.30770832818078,1038.40613295257,-41.51050802640394,0.0012681480090758778,-0.009257041834105417,-0.07915327663337451,0.9968186684524469,-0.13344304114559677,0.05335261684813302,-0.02206896413311483,0.009202234447002411,-0.0024996038991957903,-0.03797165887351627,2
2025/04/11 12:08:45.232463806,1744366125,218792794,piren,vessel_center,254.28011529385142,1038.4175473506784,-41.51445608699444,0.0005963216268831233,-0.007993621803537805,-0.0844618254431703,0.9963944733155573,-0.1353198966831768,0.054922359110787494,-0.021060533085551468,0.008503899909555912,0.00568290613591671,-0.03580911226956162,2
2025/04/11 12:08:45.453366931,1744366125,443519589,piren,vessel_center,254.24660617342346,1038.4323849317063,-41.5187168231327,0.001733530552776286,-0.009344569465019084,-0.08725692253995522,0.9961405038257366,-0.13466791864545927,0.057342672379127164,-0.018887748906547583,0.011518414132297039,0.007338149007409811,-0.02863749522276176,2
2025/04/11 12:08:45.682582453,1744366125,675264934,piren,vessel_center,254.21739589063105,1038.4424449450985,-41.52058117783558,0.0016434753995575885,-0.00959472774018076,-0.08983719014149935,0.9959088911419975,-0.14009385173094402,0.05395236033637046,-0.014296721347699302,0.008961946703493595,0.0031476186122745275,-0.033411454005175034,2
2025/04/11 12:08:45.894019306,1744366125,885465286,piren,vessel_center,254.1873136310771,1038.4524098212871,-41.52123818308485,0.0021543075041039863,-0.010933901824894607,-0.09189374833539951,0.9957064566261141,-0.1450716455761493,0.051987514799111505,-0.009023820968809559,0.013724456541240215,-0.004077999386936426,-0.02357713600782926,2
2025/04/11 12:08:46.126829856,1744366126,110685342,piren,vessel_center,254.1485070198049,1038.464624987703,-41.51990561824781,0.0010009950636289398,-0.008497664294945372,-0.09564561153706183,0.9953786740251744,-0.1505456825412692,0.05031665694768888,-0.0013186793205647975,0.0048934416845440865,0.0060995821841061115,-0.02549504239965904,2
2025/04/11 12:08:46.333826426,1744366126,325516875,piren,vessel_center,254.12158935538898,1038.4760845420342,-41.51558193821534,0.002111813445551505,-0.008764988878877052,-0.09723570083546824,0.9952205452546484,-0.14370537310910536,0.05330384398948807,0.0085036650660129,0.010910962708294392,0.0021924893371760845,-0.024915309351633077,2
2025/04/11 12:08:46.562294305,1744366126,550710561,piren,vessel_center,254.08918006122454,1038.4879294525517,-41.51253877810423,0.0016386770485349522,-0.007166817240966049,-0.10003389654117496,0.9949568689199321,-0.13602428117451368,0.05007607024926982,0.010463655787765447,0.0062722512520849705,0.0016092050354927778,-0.02295054964691013,2
2025/04/11 12:08:46.784431643,1744366126,772021893,piren,vessel_center,254.0669308432022,1038.4973212114928,-41.51164694645915,0.0018421717847567753,-0.009474316527754663,-0.10318081164313443,0.9946157870444806,-0.12554927876894895,0.048792378272992196,0.007901947427211554,0.011768524535000324,0.006883138790726662,-0.03021173656094003,2
2025/04/11 12:08:47.546293,1744366126,991841028,piren,vessel_center,254.03400500260915,1038.5088506772229,-41.51045966432706,0.001044115057560152,-0.008529202059762608,-0.10653483816437484,0.9942718394851887,-0.12887511464284657,0.04737138743494141,0.006215121240654754,0.005184528883546591,0.0094076469540596,-0.024056419864325437,2
2025/04/11 12:08:47.238529649,1744366127,231025281,piren,vessel_center,254.00884509991985,1038.519157679029,-41.51025003098844,0.0010450693463155496,-0.009427387293955496,-0.10845985787190447,0.994055577636018,-0.12654851392583155,0.04903759683402312,0.0037127215997088577,0.007514598313719034,0.007092843763530254,-0.026802820737259963,2
2025/04/11 12:08:47.474225217,1744366127,457486821,piren,vessel_center,253.97785176406177,1038.5310713410604,-41.50786839086879,0.0013417663195296112,-0.010292626494163555,-0.11238329023160556,0.9936107173232956,-0.12583929271563635,0.048555164267418134,0.006867164158666129,0.00104046449996531,0.006773257628083229,-0.022527604572845125,2
2025/04/11 12:08:47.675661038,1744366127,666733750,piren,vessel_center,253.9503446009975,1038.540616500134,-41.50677661951024,0.0008291689366566227,-0.009613271588020434,-0.1130651261104638,0.9935407262643412,-0.13091134741814572,0.04821854631081804,0.006265290287296922,-0.000981501187197864,0.007683193776756525,-0.021963253264988863,2
2025/04/11 12:08:47.901716393,1744366127,895377819,piren,vessel_center,253.92050011780134,1038.5528731534664,-41.504781440406695,0.0005701498939187756,-0.010360095553763903,-0.11567395488720716,0.9932330439076057,-0.1247243823504276,0.04865246486588147,0.007185708050792529,0.01113022118806839,0.0112491799518466,-0.020950445186194752,2
2025/04/11 12:08:48.135298114,1744366128,114804020,piren,vessel_center,253.89776432441877,1038.5628041283778,-41.50240080690109,0.0008273714431286468,-0.011864173992925008,-0.11850091238485289,0.9928827174424572,-0.1199883603543411,0.04907899388163058,0.009205139156250654,0.009438916109502316,0.005812035873532295,-0.026862342617254543,2
2025/04/11 12:08:48.349301813,1744366128,344256237,piren,vessel_center,253.86844731458953,1038.573127526495,-41.500009638022895,0.00035495561062068976,-0.010057566338277925,-0.1216085410071173,0.9925271190854111,-0.11854278523696835,0.04490613553680304,0.009399236950429215,0.007540477905422449,-0.0007117538480088115,-0.022093871490904554,2
2025/04/11 12:08:48.633115879,1744366128,622710181,piren,vessel_center,253.8466073832176,1038.5798202275707,-41.49718598878849,0.0005626275100089597,-0.008827151248625698,-0.12609644017057559,0.9919785545199188,-0.101751603727689,0.03515383872399979,0.010410813069842107,0.005004447884857655,0.005480535794049501,-0.028127739888187033,2
2025/04/11 12:08:48.865659879,1744366128,851437038,piren,vessel_center,253.83076031617964,1038.5812053354862,-41.49826223567378,0.0012552885075079808,-0.008905107260069055,-0.12820947124916862,0.9917063349588215,-0.08114404472369174,0.019249928162389546,0.0025082411371158755,0.005886290222406387,0.0030581075698137283,-0.023875720093275838,2
2025/04/11 12:08:49.96303264,1744366129,79170169,piren,vessel_center,253.82377261529103,1038.575916180766,-41.5002098188646,-5.8113249006371773e-05,-0.00942002395983377,-0.13141916554938302,0.9912821307265406,-0.05883362369113443,-0.0027230633162616917,-0.0033764153779884494,0.008973103947937489,0.008232380263507366,-0.03206876859127741,2
2025/04/11 12:08:49.312558028,1744366129,305487179,piren,vessel_center,253.81672172206967,1038.5688886902897,-41.5024390007087,5.36719414766173e-05,-0.009601888665083188,-0.13691917636701637,0.9905356833533883,-0.0425277872284822,-0.01633493368426571,-0.0063522562460946105,0.013560795225203037,0.003661727998405695,-0.027618462098612958,2
2025/04/11 12:08:49.540858994,1744366129,526437179,piren,vessel_center,253.81361659204828,1038.5588251162442,-41.50742283442324,0.0008720459623287134,-0.008956876077772912,-0.13819463792083617,0.9903642036931142,-0.029547001504874833,-0.03269179964918294,-0.015288247759804106,-0.0027675980236381292,0.01251986064016819,-0.028856659566142244,2
2025/04/11 12:08:49.759818764,1744366129,751495105,piren,vessel_center,253.81337050941505,1038.5416874541888,-41.512170144172,0.0007857457768879032,-0.011368116153774905,-0.14238479196269718,0.9897457853188505,-0.014186748123415647,-0.05190683630353305,-0.01725966704773327,0.006228117272257805,0.0018677393672987819,-0.030048779163633157,2
2025/04/11 12:08:49.980724829,1744366129,971574823,piren,vessel_center,253.81274129767002,1038.5244967370775,-41.51522601507818,0.0002806591511607514,-0.011036227727921372,-0.14707389598678394,0.9890638968374323,-0.009458417009864072,-0.06651402461266115,-0.01641559875142775,0.01380384061485529,0.0013920862693339586,-0.04033716949372203,2
2025/04/11 12:08:50.228983878,1744366130,202034318,piren,vessel_center,253.8132166924593,1038.5034073411398,-41.51828757469029,-0.0002069728976503663,-0.01048908786413736,-0.1518555238531663,0.9883470220895485,-0.0033657365236193547,-0.07610183870492618,-0.014182290001724595,0.008535861037671566,0.006129194982349873,-0.033278267116116686,2
2025/04/11 12:08:50.428275881,1744366130,418286458,piren,vessel_center,253.81484644226407,1038.4868126960253,-41.52122838992874,-0.00032423300432744937,-0.009895929112366567,-0.1551245077878612,0.9878453080029969,0.0016041765710953287,-0.07908769539717467,-0.014411177041318978,0.01488088071346283,0.005214065779000521,-0.03961602256076042,2
2025/04/11 12:08:50.658420143,1744366130,650586395,piren,vessel_center,253.81788361718134,1038.4662238081996,-41.52342713566838,-0.0004954552027959126,-0.010342128548386115,-0.15902042364952212,0.9872209984413608,0.007247654520028979,-0.08082455232142818,-0.011403010566777994,0.012520033866167068,0.007533815689384937,-0.030974134323106417,2
2025/04/11 12:08:50.889235835,1744366130,877476696,piren,vessel_center,253.82066242060392,1038.45173058471,-41.52359583570633,0.00017384998840246709,-0.01127360863459414,-0.16227825228448162,0.9866806192279393,0.010439603494205718,-0.07682055433779167,-0.006334347339225134,0.00899567548185587,0.01022303942590952,-0.03909359432717268,2
2025/04/11 12:08:51.135722620,1744366131,123874457,piren,vessel_center,253.8240358729068,1038.4341704188912,-41.52255237834264,-0.0012926672513636612,-0.01157849308458471,-0.16841607878270412,0.985647143716617,0.012278946499327637,-0.07287046714791356,-1.1313024316452272e-05,-0.009453133679926395,0.0043932003900408745,-0.03206944148231906,2
2025/04/11 12:08:51.394082879,1744366131,380876187,piren,vessel_center,253.82783007709403,1038.4212801351946,-41.517394134911584,-7.585306721836767e-05,-0.008873561890289143,-0.17213396614562707,0.9850335790442211,0.014026861211618913,-0.05995751868049408,0.012472784671570022,0.011105233803391457,0.0041760546155273914,-0.033709879940833985,2
2025/04/11 12:08:51.621571332,1744366131,611806682,piren,vessel_center,253.83726799961468,1038.406837219101,-41.51044816538191,-0.0004910183473976395,-0.01008975393334778,-0.17659063727419438,0.9842325449778833,0.026762971073321883,-0.058801461337861814,0.02069315067285515,0.016907455399632454,0.002110416069626808,-0.0331445530705994,2
2025/04/11 12:08:51.860880051,1744366131,851728462,piren,vessel_center,253.8460052372365,1038.3937531646975,-41.50653981654633,-0.0008953089200655682,-0.008937039193231055,-0.17903794833893294,0.983801169346216,0.031148933726172022,-0.05533908461948156,0.017982947326788686,0.01627945341169834,0.004322174470871687,-0.03227508147864642,2
2025/04/11 12:08:52.107738797,1744366132,101337934,piren,vessel_center,253.85791327590206,1038.3789264847705,-41.50258085553384,-4.685482943598868e-05,-0.009762196891099287,-0.18399674517461762,0.9828783724762852,0.03998372729272445,-0.057467739651110586,0.016833073906911973,0.01876920461654663,0.0011145098833367229,-0.03919132433361903,2
2025/04/11 12:08:52.366232589,1744366132,350342251,piren,vessel_center,253.86702065295952,1038.361383664071,-41.5006883280039,-0.0014155712827442165,-0.010142258948812315,-0.18893960502602816,0.9819353117155769,0.03805511214459342,-0.06426838970182869,0.011847132107743616,0.006144136656075716,0.0020267292857170105,-0.03949654313231424,2
2025/04/11 12:08:52.605795352,1744366132,585003785,piren,vessel_center,253.8731290840877,1038.3485240747364,-41.50051573907694,-6.387449526660334e-05,-0.010129805033588207,-0.19196535668780468,0.9813494203400512,0.03445211207574643,-0.06429854505913679,0.006568565002282864,0.009461908601224422,0.0011249759700149298,-0.03856620764331134,2
2025/04/11 12:08:52.845584186,1744366132,836904429,piren,vessel_center,253.87986166565074,1038.3306695943584,-41.50236053153964,-0.00012744290867486882,-0.01064374355120796,-0.19655806117475422,0.9804344052861174,0.029923567750575007,-0.06859550802200827,-0.001835091218742947,0.015468736179172993,0.0014511412009596825,-0.029784699905951683,2
2025/04/11 12:08:53.90474950,1744366133,66214558,piren,vessel_center,253.88402787452245,1038.3138557626783,-41.506374567263805,-0.00022309675879395727,-0.010132085108856421,-0.19879165493667922,0.9799893718845728,0.022737976108101198,-0.06776961562845825,-0.009490684993278365,0.013489486649632454,-0.004063821397721767,-0.02774328872970469,2
2025/04/11 12:08:53.324547573,1744366133,316659362,piren,vessel_center,253.89002593710197,1038.2986845145697,-41.50926219548169,-3.784660752834384e-05,-0.010120147574467865,-0.20123115742279157,0.9794915019861015,0.02344785283073647,-0.06408829058873378,-0.010609871541828398,0.016728511080145836,0.0019587441347539425,-0.024340367765393667,2
2025/04/11 12:08:53.564068502,1744366133,543195087,piren,vessel_center,253.89772944399667,1038.2830769483771,-41.513268292915036,-0.0007710466654180029,-0.010813013584338631,-0.2020154365366786,0.9793223410221784,0.02739382701945501,-0.06317905326905018,-0.013512376798661309,0.012536250986158848,0.008951427415013313,-0.020968610459405984,2
2025/04/11 12:08:53.775933931,1744366133,764886987,piren,vessel_center,253.90498579946274,1038.273154299929,-41.51544475762432,-0.0004419849110541946,-0.00955393895879505,-0.20349058376964002,0.9790301881029008,0.031205875426781084,-0.05738461216224094,-0.012389275565988102,0.016173720359802246,0.009196805767714977,-0.021630427456486336,2
2025/04/11 12:08:54.17668485,1744366134,7388241,piren,vessel_center,253.91623511721323,1038.2592315994852,-41.51631649275117,-0.0007917045564900265,-0.010874348028470749,-0.20583293882494594,0.9785264038612025,0.03859220581964577,-0.056473258142977996,-0.007619177816582125,0.012145045213401318,0.008294988423585892,-0.015321526965910893,2
2025/04/11 12:08:54.260885704,1744366134,252589509,piren,vessel_center,253.92484686642263,1038.2459790479904,-41.51572519259988,-0.0005811325871910585,-0.0105915094689345,-0.20568061352870504,0.9785616829973168,0.03636318543328811,-0.05460532674878776,-0.002270415689696395,0.01264361571520567,0.007979935966432095,-0.01277472237448799,2
2025/04/11 12:08:54.495829514,1744366134,488332196,piren,vessel_center,253.93241601417816,1038.2309583620754,-41.51346149386833,-0.0007444727172323533,-0.010234338646145057,-0.20661921547393228,0.978367622046941,0.033109506484197616,-0.0575600302812745,0.0038036123311769613,0.015760226175189018,-0.0032923496328294277,-0.012122424906692575,2
2025/04/11 12:08:54.790438330,1744366134,775136249,piren,vessel_center,253.93865527553334,1038.2163221420292,-41.509128553263,-0.0010884729176914585,-0.009841869340234882,-0.20699695875845858,0.9782914759412689,0.028206841056589972,-0.05816498414951637,0.011951181001802522,0.00778368441388011,-0.0037817619740962982,-0.006429617902559088,2
2025/04/11 12:08:55.43583552,1744366135,28272378,piren,vessel_center,253.94387145005405,1038.2024733819562,-41.50436414538688,-0.0007103681806501207,-0.010337229910755743,-0.20549678439168406,0.9786029371811111,0.023779022926692185,-0.05649883813457562,0.016240429305310042,0.005516023840755224,-0.0028439383022487164,-0.00013120375705882707,2
2025/04/11 12:08:55.306823813,1744366135,296601966,piren,vessel_center,253.94849995924284,1038.18538270773,-41.50006162592748,0.00022942945615502365,-0.01054898434382205,-0.20306391433478432,0.979108631861896,0.018404380062520567,-0.05679290877305901,0.015016803050622227,0.008426878601312637,0.006280511151999235,0.005706478737535581,2
2025/04/11 12:08:55.543083795,1744366135,536899239,piren,vessel_center,253.95139448328175,1038.1735033560915,-41.50058087279549,-9.059714293245405e-05,-0.009958047025952337,-0.2006863363704852,0.9796049323506794,0.01651416164140769,-0.05804855477617819,0.00654548118156981,0.008703764528036118,0.0027382110711187124,0.012778871885849946,2
2025/04/11 12:08:55.774617100,1744366135,763909097,piren,vessel_center,253.95712613167112,1038.1589224381353,-41.50123066446992,-0.0005501555706089246,-0.009813102780323263,-0.19701642683839968,0.9803509207923969,0.01995047135797008,-0.05817343713570152,0.0016331901155467662,0.0017132923239842057,0.0024128644727170467,0.015296368420018061,2
2025/04/11 12:08:56.4610048,1744366135,992961812,piren,vessel_center,253.96284192025664,1038.1456194659315,-41.502804743086145,-5.948972205295977e-05,-0.011194074575262983,-0.19439953886747163,0.9808585567978142,0.021519670999850995,-0.055526507234389996,-0.002622969235000029,0.007515907287597656,0.012451537884771824,0.0197861337554705,2
2025/04/11 12:08:56.272186942,1744366136,250543356,piren,vessel_center,253.96502076788522,1038.132246386248,-41.50506435684486,-0.0007937573825064575,-0.011050032917229929,-0.1894575431025187,0.9818264134170068,0.014624299161164481,-0.05435529100195707,-0.006058351136414331,0.014910358004271984,0.013250975869596004,0.030084414812821498,2
2025/04/11 12:08:56.497369402,1744366136,490056017,piren,vessel_center,253.96545011712155,1038.1193816847324,-41.50719694784972,-0.00025105541623353335,-0.009744802255430667,-0.18367852421513053,0.9829380324020087,0.007709651610775974,-0.05280749061621463,-0.007383372474066619,0.008316370658576488,0.01119965873658657,0.03674810701278165,2
2025/04/11 12:08:56.744268760,1744366136,725529001,piren,vessel_center,253.96677085983478,1038.1078879062886,-41.51051155770156,-0.0006123426545200461,-0.009626706206531482,-0.17864147609951675,0.9838669496334718,0.007188189131829996,-0.055116368214294185,-0.011809356920582558,0.008651969023048878,0.0026994445361196995,0.04343023418965141,2
2025/04/11 12:08:56.956513185,1744366136,943205256,piren,vessel_center,253.96827446670298,1038.0938910428945,-41.51433319205863,1.5623839375982114e-05,-0.00982825553035755,-0.1731565923609714,0.9848452668673705,0.006558897208560803,-0.055589884217806675,-0.013677145638672526,0.017540814355015755,-4.4429016270441934e-06,0.03937155564898248,2
