time,header_stamp_secs,header_stamp_nsecs,header_frame_id,pose_position_x,pose_position_y,pose_position_z,pose_orientation_x,pose_orientation_y,pose_orientation_z,pose_orientation_w
2025/04/11 12:08:17.331439764,1744366097,329177051,piren,254.7203110480962,1038.7487700288978,-41.51507085610961,0.0020629399083341004,-0.010362478967111862,-0.13389716955934297,0.9909389039151644
2025/04/11 12:08:17.880042485,1744366097,823996877,piren,254.70747361730787,1038.7551068204941,-41.51283192862602,0.0010386368487627278,-0.00902725129528396,-0.1337314767507269,0.9909759442557715
2025/04/11 12:08:18.314480585,1744366098,296359420,piren,254.6991151337341,1038.7597245745196,-41.51230695221683,0.002141138114750761,-0.009741703753264898,-0.1325873815876255,0.9911211333531813
2025/04/11 12:08:19.73265798,1744366099,47118588,piren,254.68304856362468,1038.7640205493442,-41.51557497313753,0.0019434163579387723,-0.008572817288245667,-0.13021837109590537,0.9914463705948654
2025/04/11 12:08:19.646943044,1744366099,586970361,piren,254.68280379225965,1038.7601789714424,-41.51899849395654,0.0017806950048633906,-0.008599877156860914,-0.1299015582726481,0.9914880011359313
2025/04/11 12:08:19.875034625,1744366099,872790989,piren,254.68281123101946,1038.7548549075611,-41.52166003535406,0.0024607746923995225,-0.00884249528732296,-0.1276393745188498,0.9917781732511781
2025/04/11 12:08:20.85171639,1744366100,81966433,piren,254.68434103162383,1038.7498230458987,-41.522501420170336,0.0015193747451823921,-0.007742081865853535,-0.1278514968532965,0.9917619403975623
2025/04/11 12:08:20.309837723,1744366100,305438410,piren,254.68452270599246,1038.74898046647,-41.52272418092985,0.001605529548020843,-0.009515396588131593,-0.1278415254428573,0.9917476613912858
2025/04/11 12:08:20.518858554,1744366100,517422296,piren,254.68442434200338,1038.7422114981514,-41.5235633888707,0.0014332643247645766,-0.009147639231056123,-0.12608766876197566,0.9919758899469504
2025/04/11 12:08:20.720174638,1744366100,717641308,piren,254.68452570506105,1038.7380978097926,-41.5219671969586,0.0013692840108509763,-0.009388731787266423,-0.12519787678105798,0.9920864218535801
2025/04/11 12:08:20.942709305,1744366100,940458272,piren,254.68410074677632,1038.733023769912,-41.52215331461605,0.0009024255450887005,-0.009128925292523671,-0.12384848904383801,0.9922587364758738
2025/04/11 12:08:21.144866105,1744366101,142330730,piren,254.68440494379595,1038.728926783849,-41.522898010857496,0.0005153511143627728,-0.007453863786183586,-0.12275995454674725,0.9924082667368137
2025/04/11 12:08:21.345751274,1744366101,345219250,piren,254.6877490696261,1038.7244109698338,-41.52237355354172,0.0013573914767214773,-0.00953899112031427,-0.12117947144322648,0.9925838507841671
2025/04/11 12:08:21.543998478,1744366101,539892393,piren,254.68711767039875,1038.7178634098063,-41.5230446289127,0.002094696698327419,-0.009584376326283048,-0.1197954447127349,0.9927501213307689
2025/04/11 12:08:21.731371766,1744366101,730988234,piren,254.68663381832172,1038.7122056842254,-41.52505794520459,0.0023514833157162974,-0.008238259105271073,-0.11878918501599581,0.9928825364243073
2025/04/11 12:08:21.927784921,1744366101,927237464,piren,254.68802673604364,1038.7047534488752,-41.525988723898344,0.002219931112275532,-0.008102229105282462,-0.11688515467552145,0.993109906508772
2025/04/11 12:08:22.127943438,1744366102,122064909,piren,254.69139014859113,1038.697660030905,-41.52647259756055,0.0020033816310279966,-0.009284052439746265,-0.11569522997966887,0.9932393501026267
2025/04/11 12:08:22.328755842,1744366102,326966977,piren,254.69176655950866,1038.692485307469,-41.526266857492146,0.0018679020390223056,-0.008358394122813473,-0.1138708539908037,0.9934586437296047
2025/04/11 12:08:22.527660852,1744366102,525160103,piren,254.69348741632206,1038.6875349668273,-41.52365501127201,0.0018233742541371185,-0.008837333885607099,-0.11218978532820098,0.9936458266928594
2025/04/11 12:08:22.728597973,1744366102,726509275,piren,254.6933714117054,1038.6827629506404,-41.51838945038171,0.0010815415418061218,-0.008510804720238302,-0.11043154141294295,0.9938467040404515
2025/04/11 12:08:22.935707706,1744366102,934980492,piren,254.6943329224202,1038.6784639838984,-41.5134397088243,0.0017417646788477033,-0.008643530558564556,-0.10854717888055009,0.9940521946016521
2025/04/11 12:08:23.158219153,1744366103,154372896,piren,254.69519615871306,1038.6711627738075,-41.508778004389356,0.0023746370083863547,-0.009650259673758712,-0.10642626646104246,0.9942709305790202
2025/04/11 12:08:23.354333168,1744366103,349971702,piren,254.69517612087986,1038.663573615772,-41.50859341167976,0.0018994595473807842,-0.00976678814108826,-0.10496517610252876,0.9944261228007841
2025/04/11 12:08:23.560280398,1744366103,557847680,piren,254.69534916481837,1038.654971472002,-41.5102855304702,0.00115245685313822,-0.00803706917854362,-0.10176076143567593,0.9947757660871381
2025/04/11 12:08:23.746045639,1744366103,743827899,piren,254.70016283319728,1038.6465146584753,-41.51282784278989,0.002134297525226805,-0.008759628918234941,-0.10123962652437467,0.9948212159461085
2025/04/11 12:08:23.965250984,1744366103,964667504,piren,254.7035316939859,1038.6366152356725,-41.51536022704931,0.002903531375064504,-0.008177991161361198,-0.098144262336808,0.9951343596401858
2025/04/11 12:08:24.184826263,1744366104,182660700,piren,254.70869877084152,1038.6276569189713,-41.5173554792982,0.0034783908820659832,-0.008118270141368058,-0.09601938224957568,0.9953402798637224
2025/04/11 12:08:24.398801950,1744366104,395506445,piren,254.71482520868054,1038.6182498517342,-41.519258837436276,0.002926112876762889,-0.00957635233654153,-0.09395578490784366,0.9955260126293586
2025/04/11 12:08:24.597541755,1744366104,597088129,piren,254.7169976241981,1038.6141450604848,-41.516824628582405,0.0004639528740082314,-0.012640414713135633,-0.09213946334810884,0.9956657692004548
2025/04/11 12:08:24.797288138,1744366104,796798026,piren,254.7141254221919,1038.615769917297,-41.51529668897758,0.00332793756508269,-0.008940608756913746,-0.0895487044989325,0.9959367549544407
2025/04/11 12:08:24.996641922,1744366104,993437495,piren,254.71836104903355,1038.6103397537024,-41.51672498868013,0.005614867512173325,-0.005769746582914209,-0.08760150773331145,0.9961230642496138
2025/04/11 12:08:25.231331750,1744366105,221974523,piren,254.7285579351014,1038.5983342146287,-41.52002455262093,0.0025976159879615335,-0.0054427018980632005,-0.08474594274644107,0.9963843407918678
2025/04/11 12:08:25.431085417,1744366105,430415456,piren,254.73903142297544,1038.5897722858745,-41.52297614886518,0.0021937335298165004,-0.00672725738248697,-0.08336776641421385,0.9964937265554737
2025/04/11 12:08:25.641122313,1744366105,633729953,piren,254.74654001178928,1038.5817104732669,-41.525200229486664,0.0024550864065546346,-0.005409918713983227,-0.08204671176405508,0.9966107777959009
2025/04/11 12:08:25.852115144,1744366105,847144766,piren,254.75548772767593,1038.5713034470407,-41.52835819854749,0.0034469358225330047,-0.007862073724134841,-0.07973462392856444,0.9967791611872523
2025/04/11 12:08:26.48057173,1744366106,44264537,piren,254.75745170749244,1038.5623302168885,-41.53100591310288,0.0029771465778798164,-0.005707135152268973,-0.07785735079133281,0.9969437286699601
2025/04/11 12:08:26.246777732,1744366106,246376846,piren,254.76213166404938,1038.5560045481939,-41.53035166791629,0.0034365615676137844,-0.005072630299852062,-0.0752618722281802,0.9971449789549873
2025/04/11 12:08:26.450109915,1744366106,449599742,piren,254.76820572262866,1038.5508333368687,-41.52895543871045,0.002446278432335451,-0.004097538194183207,-0.07311862616160804,0.9973118330847267
2025/04/11 12:08:26.636712621,1744366106,633476276,piren,254.77444544857605,1038.5500430592576,-41.52681726208775,0.0038761664440891586,-0.00200410871089031,-0.07156883092573331,0.9974261182272582
2025/04/11 12:08:26.841798000,1744366106,836724857,piren,254.78489704259806,1038.5457554880759,-41.524909729089615,0.0037983410353757416,-0.0028613508187302727,-0.06879900019735793,0.9976192073375068
2025/04/11 12:08:27.43491507,1744366107,42190487,piren,254.79550183493419,1038.5396651640554,-41.523729665669386,0.0033216310465564655,-0.00340608475990434,-0.06680446707446976,0.9977547436783726
2025/04/11 12:08:27.248668028,1744366107,247100310,piren,254.801415079632,1038.534453376772,-41.52120549894449,0.003038237610715605,-0.0014143234573975203,-0.06508581992238044,0.9978740425757202
2025/04/11 12:08:27.469039066,1744366107,459496301,piren,254.80896937222363,1038.5277373061651,-41.51707360499385,0.0038507904707979915,-0.002608550868295129,-0.061421868128853585,0.9981010575040382
2025/04/11 12:08:27.677176070,1744366107,671547916,piren,254.81434589890983,1038.5184308335831,-41.515931857070825,0.003370856684795195,-0.0028130944873652713,-0.06005284320117472,0.9981855437983816
2025/04/11 12:08:27.885047159,1744366107,881721166,piren,254.8178753289024,1038.5094596979877,-41.51567588202621,0.002914204958507499,-0.0037079236368468983,-0.05852940380738318,0.9982745452037308
2025/04/11 12:08:28.87460182,1744366108,82367371,piren,254.81888091662492,1038.5011926993839,-41.514786817257786,0.0029260598512821042,-0.004774247403560482,-0.05635563639030569,0.9983950555679451
2025/04/11 12:08:28.295924704,1744366108,293187750,piren,254.81979029261885,1038.4910584983531,-41.51340178977617,0.0018775825542153657,-0.00531735961646782,-0.05360414073998559,0.9985463416717268
2025/04/11 12:08:28.516878287,1744366108,512436412,piren,254.82061757294434,1038.4856510153647,-41.514911386421204,0.0032990151924650285,-0.00684530020692421,-0.05073856332393751,0.998683061113815
2025/04/11 12:08:28.733045443,1744366108,729205414,piren,254.82103400682328,1038.4780712469344,-41.51475006703673,0.0023820543591163315,-0.006706846448981491,-0.048383754682349914,0.9988034623040603
2025/04/11 12:08:28.937888649,1744366108,935638105,piren,254.82301123978158,1038.4723103210574,-41.51496534802609,0.002799068739653901,-0.007770777048624243,-0.04660850396864527,0.9988790855734523
2025/04/11 12:08:29.161376007,1744366109,153217722,piren,254.8246451960241,1038.4648995099158,-41.514096220216054,0.002440384078291436,-0.007670698849033269,-0.04391247494677989,0.9990029526726968
2025/04/11 12:08:29.369599627,1744366109,365485219,piren,254.8277459019645,1038.459565454222,-41.51484883128724,0.0020853000114690657,-0.00906791769701306,-0.041117439147158416,0.999110995130412
2025/04/11 12:08:29.581197259,1744366109,576757300,piren,254.83015355167515,1038.4533016827168,-41.51737337011452,0.0019319558953264093,-0.008827010929680417,-0.038886953044496235,0.9992027603581672
2025/04/11 12:08:29.805401434,1744366109,803432005,piren,254.83508761108055,1038.4446880977182,-41.51858034788679,0.0022565596921384056,-0.008167285803309743,-0.036829834224490474,0.9992856281824329
2025/04/11 12:08:30.31088496,1744366110,25786276,piren,254.8403045327737,1038.4366694786545,-41.51917177710832,0.002465443613607771,-0.008229651985825773,-0.033938107133641884,0.9993870117727995
2025/04/11 12:08:30.251424166,1744366110,247155364,piren,254.84758766355333,1038.4256198375144,-41.51932122152607,0.0015379722645351736,-0.00909449625827681,-0.03112533265022697,0.9994729303220445
2025/04/11 12:08:30.453321504,1744366110,449278624,piren,254.85269672230763,1038.4193716122486,-41.51762199232926,0.0017321174994720165,-0.008999313760020862,-0.0298359660897745,0.999512794939768
2025/04/11 12:08:30.714082142,1744366110,709958953,piren,254.8580936163212,1038.4115401878757,-41.51749302392345,0.0015733098967354187,-0.008637172113834536,-0.02420463568003298,0.9996684748282512
2025/04/11 12:08:30.932994085,1744366110,922020609,piren,254.86526584411484,1038.4063534405493,-41.51781539875939,0.0011440931869687726,-0.011057916875079399,-0.024206718589935478,0.9996451611948468
2025/04/11 12:08:31.147233479,1744366111,144971522,piren,254.86773490116343,1038.400493698835,-41.51799300224896,0.0031110600380861836,-0.006921784106524925,-0.02233561925059437,0.9997217264433711
2025/04/11 12:08:31.361295809,1744366111,359090549,piren,254.87514899100242,1038.3923690928905,-41.518650148858015,0.0016129515278477727,-0.00574719493887821,-0.019930371338143408,0.999783550792884
2025/04/11 12:08:31.591523302,1744366111,590668280,piren,254.88519537387543,1038.38409536174,-41.51699837343927,0.0020828920740449436,-0.009224440620571144,-0.017442033621204975,0.9998031539853244
2025/04/11 12:08:31.907512341,1744366111,904062951,piren,254.89026776732544,1038.3738372282066,-41.51638261081207,0.0027078145853716203,-0.008446681566779832,-0.013663722195812758,0.9998673031989977
2025/04/11 12:08:32.177804349,1744366112,174272694,piren,254.89467727819175,1038.36427876466,-41.516186511278676,0.001860522153448319,-0.010943997425234338,-0.01094698707486868,0.9998784580396037
2025/04/11 12:08:32.397618316,1744366112,395480664,piren,254.89586074405634,1038.3562458676558,-41.51529460326045,0.002287032427488097,-0.008199529595431392,-0.010353411394806528,0.9999101679998955
2025/04/11 12:08:32.623552446,1744366112,622010579,piren,254.90045219998936,1038.3510200463681,-41.51482821713447,0.002491987242690859,-0.0060076387365484655,-0.008747926072783095,0.9999405842677948
2025/04/11 12:08:32.840722469,1744366112,838986209,piren,254.91031911858988,1038.3439420531984,-41.51715858068455,0.001900097128242996,-0.011516106615183049,-0.00661571810871645,0.9999099965463077
2025/04/11 12:08:33.45938968,1744366113,43569644,piren,254.9100525371476,1038.339690135443,-41.51964631166878,0.0021316344091073533,-0.01043360342274409,-0.005873137905830313,0.9999260484183329
2025/04/11 12:08:33.261136439,1744366113,258571310,piren,254.91037468682504,1038.3351352999555,-41.52069396673385,0.0015755293980601703,-0.0056091325864452155,-0.003106360255405891,0.9999782026947923
2025/04/11 12:08:33.495300712,1744366113,487273877,piren,254.91928064616425,1038.3312739516646,-41.52001787461541,0.0018959467727665703,-0.004853821365167614,-0.0019210027511412317,0.9999845776572857
2025/04/11 12:08:33.729508090,1744366113,722446297,piren,254.93199586253604,1038.3256586011203,-41.52024361894453,0.0023767704740324308,-0.006753594263929961,0.0003389594521471481,0.999974312186629
2025/04/11 12:08:33.948204036,1744366113,946130705,piren,254.9404748300092,1038.3189794785553,-41.52031524361031,0.0018389494180570177,-0.009454093162128616,0.0013965472943992926,0.9999526429002396
2025/04/11 12:08:34.184219270,1744366114,177705389,piren,254.94050642934798,1038.3140617345102,-41.518968137800634,0.0020958746556205173,-0.007303209285767761,0.003195456369827117,0.9999660291740639
2025/04/11 12:08:34.410483656,1744366114,405956567,piren,254.9438853831255,1038.3077650770977,-41.51789312980636,0.002066664943490596,-0.009599490584102663,0.005714496883214772,0.9999354595182176
2025/04/11 12:08:34.646784521,1744366114,636908593,piren,254.94283218165725,1038.301200757805,-41.51994326883274,0.002277167781536031,-0.00885900834151109,0.0059463315716881725,0.9999404850384543
2025/04/11 12:08:34.875683595,1744366114,873508830,piren,254.9424737859425,1038.2931079194025,-41.52200798959829,0.0018488838459394894,-0.009126286547667147,0.008168611373113829,0.9999232802123417
2025/04/11 12:08:35.100356524,1744366115,87923339,piren,254.94210451862094,1038.2877795626569,-41.52404745708351,0.001636198226299172,-0.00897384658163386,0.008745164305431716,0.9999201543294167
2025/04/11 12:08:35.300563881,1744366115,298744379,piren,254.94192193210722,1038.2821774626877,-41.52588128208069,0.001779032753195478,-0.008404326540484652,0.010237664422877345,0.9999106922945812
2025/04/11 12:08:35.508926120,1744366115,507292131,piren,254.94433774191353,1038.2780236700057,-41.52792836490549,0.0019164532363270769,-0.008155174242839751,0.011656736971467114,0.999896965103525
2025/04/11 12:08:35.740778864,1744366115,729272216,piren,254.94713740084882,1038.2736719040806,-41.528647573731675,0.001924478916993323,-0.0084224540549853,0.012693790003560478,0.9998821062224963
2025/04/11 12:08:35.947121780,1744366115,942946307,piren,254.94991203692337,1038.2685586339037,-41.53125258955127,0.0018110545736348647,-0.008459956994875067,0.013667524845289962,0.9998691654279471
2025/04/11 12:08:36.169127117,1744366116,160073562,piren,254.9523452686839,1038.264184219721,-41.532530155144535,0.002293378156959749,-0.008776108303221253,0.014792268710395021,0.9998494432293688
2025/04/11 12:08:36.375478022,1744366116,365937199,piren,254.95300459373743,1038.259276184672,-41.53429240908685,0.0029182837049261364,-0.009550797869720419,0.01579012231889984,0.9998254537255108
2025/04/11 12:08:36.596562320,1744366116,577798648,piren,254.95224830456223,1038.2529040389588,-41.534474611485365,0.0027362688846890924,-0.008291426596069813,0.016441891070856748,0.9998266996312946
2025/04/11 12:08:36.846670227,1744366116,844302924,piren,254.9518637939229,1038.245243367646,-41.53052146789059,0.002364875127431559,-0.0085828819379118,0.017953973858077038,0.9997991779982494
2025/04/11 12:08:37.71633628,1744366117,60847878,piren,254.9514476330712,1038.2409765467114,-41.52671343386299,0.003220211019361302,-0.008775599464752662,0.01832304039030542,0.999788420259947
2025/04/11 12:08:37.275390668,1744366117,265870611,piren,254.95034611100007,1038.2364273124356,-41.524637056526146,0.0038574293100505346,-0.008755168702175378,0.01867831857495303,0.999779769586946
2025/04/11 12:08:37.476589600,1744366117,475143256,piren,254.94855880017215,1038.2316590043133,-41.521589169499954,0.0027031170981367467,-0.009125581381564118,0.018818209866429257,0.9997776212237526
2025/04/11 12:08:37.698319294,1744366117,697698010,piren,254.94517799577875,1038.2290526994905,-41.51859913745192,0.0023565991941511557,-0.00797958192967516,0.01900848925716567,0.9997847018476659
2025/04/11 12:08:37.923656871,1744366117,917415892,piren,254.9448317784252,1038.2292384506666,-41.51620378158991,0.002034196389590408,-0.00747119881248257,0.018841573832200205,0.9997924976358238
2025/04/11 12:08:38.131182797,1744366118,129097888,piren,254.94447123235585,1038.2297083983972,-41.51397112253672,0.0026321492478876317,-0.009968104104107305,0.018658340842844734,0.9997727616853236
2025/04/11 12:08:38.349109087,1744366118,347946502,piren,254.9396857193467,1038.228353241233,-41.51325506594124,0.002317133875506116,-0.00954169222102021,0.018159890903132917,0.999786879971201
2025/04/11 12:08:38.560186846,1744366118,558171362,piren,254.93526775271545,1038.2269610284177,-41.511397672436736,0.0027400145324493475,-0.007642069480316649,0.017352285341420505,0.9998164778037267
2025/04/11 12:08:38.792063157,1744366118,791428634,piren,254.93299107969824,1038.2249801177102,-41.51009735473142,0.0027554871267717928,-0.00843187955256908,0.016126330683571333,0.999830611732102
2025/04/11 12:08:39.14596427,1744366119,8542243,piren,254.92947300648936,1038.2232831861488,-41.50900554595906,0.0021831767242283073,-0.00823954883845914,0.014578520963771763,0.9998573949823236
2025/04/11 12:08:39.240195071,1744366119,232321499,piren,254.92462593648457,1038.2227392482014,-41.50871447423884,0.002333551070605557,-0.00915655225516864,0.012910848474588637,0.9998720028492974
2025/04/11 12:08:39.507319895,1744366119,501493636,piren,254.91352595713855,1038.2218900646699,-41.51020064370376,0.0026030350102842215,-0.00829246665018059,0.010056151120861499,0.9999116626133657
2025/04/11 12:08:39.714235189,1744366119,713684684,piren,254.90380296341,1038.221477330282,-41.51345177604347,0.0021149868655115055,-0.007996007313831568,0.008208974683440255,0.9999320994108762
2025/04/11 12:08:39.935611005,1744366119,934917216,piren,254.8933234220908,1038.2231602903578,-41.51604986609934,0.0020642331867550615,-0.009377515860245223,0.005961837797409762,0.999936126773965
2025/04/11 12:08:40.172122607,1744366120,156233660,piren,254.876983264979,1038.2251718408354,-41.51859761355216,0.0027673818037520555,-0.010042661790190791,0.003523108803491118,0.9999395352952491
2025/04/11 12:08:40.409609407,1744366120,405681881,piren,254.85778958257765,1038.2270546182945,-41.521465696651596,0.0021825241387596296,-0.007839166840444799,-0.0005254737422438607,0.9999667534118211
2025/04/11 12:08:40.617910207,1744366120,615954480,piren,254.84435439412303,1038.230176794902,-41.52480055702769,0.003032812484481377,-0.008697549174508636,-0.00458783718968908,0.9999470518166009
2025/04/11 12:08:40.832072339,1744366120,818708957,piren,254.82731243308362,1038.2321168175847,-41.530581270665685,0.0021108665027152617,-0.009195372179913291,-0.007684507300129553,0.9999259661198098
2025/04/11 12:08:41.32481925,1744366121,31442379,piren,254.80922239878902,1038.2368855518587,-41.53467191582949,0.0027896028130641706,-0.00904890891225514,-0.010290343567480433,0.9999022173157265
2025/04/11 12:08:41.246128843,1744366121,240834421,piren,254.78576889007505,1038.2425258217916,-41.53737157182913,0.0021800833387329074,-0.007714931156546621,-0.014537299981027235,0.9998621874954305
2025/04/11 12:08:41.481550682,1744366121,464956537,piren,254.76830217242033,1038.248662228534,-41.5380274736583,0.0021902210823816805,-0.008111084174069597,-0.018929837283925048,0.9997855142506995
2025/04/11 12:08:41.688689275,1744366121,686368442,piren,254.74816224244307,1038.255381484499,-41.53687786831295,0.0024242539068230974,-0.008698069840022622,-0.02244079146139062,0.9997073959177454
2025/04/11 12:08:41.885779344,1744366121,881387918,piren,254.7261526329283,1038.261850544893,-41.534714577729034,0.0018006060849931082,-0.007509418672417248,-0.025004952747675075,0.9996575007406365
2025/04/11 12:08:42.98703105,1744366122,94773840,piren,254.70018132782505,1038.271296962821,-41.53200728882258,0.0016083100301085749,-0.008574933575325072,-0.0295501168546171,0.9995252245175729
2025/04/11 12:08:42.327556211,1744366122,323056367,piren,254.67574676494527,1038.2796458076382,-41.528759869723125,0.0017331963955078149,-0.009688090439935031,-0.034358878064088515,0.9993610981182225
2025/04/11 12:08:42.605171262,1744366122,600905451,piren,254.63601394926673,1038.2915290055312,-41.52347218185221,0.0018127247697135133,-0.009275482343911224,-0.04195136436619881,0.9990749533863871
2025/04/11 12:08:42.816841561,1744366122,816325986,piren,254.60456184708667,1038.2995708678138,-41.51446901697681,0.00204192416121924,-0.009272920698406208,-0.043673462149084234,0.9990007368322376
2025/04/11 12:08:43.33529234,1744366123,31447812,piren,254.57568398634643,1038.3072065901497,-41.50696883739227,0.001219490650564779,-0.011233372444979238,-0.047457090647191516,0.9988093655615019
2025/04/11 12:08:43.253887383,1744366123,251096184,piren,254.53679075861805,1038.3186404939026,-41.49904845885783,0.002464584351953308,-0.009559397450520205,-0.05098714052772237,0.9986505170704922
2025/04/11 12:08:43.471225244,1744366123,468307511,piren,254.50909681982236,1038.3263845037645,-41.49675560824526,0.0020884936083191024,-0.009492505982427568,-0.05575198863921797,0.9983973388823681
2025/04/11 12:08:43.707917037,1744366123,704081021,piren,254.47507641532297,1038.3374558362789,-41.49512651372136,0.0009959333154717868,-0.008555849485651279,-0.06009127244200185,0.9981557215849194
2025/04/11 12:08:43.931831204,1744366123,931356095,piren,254.44999443716424,1038.3486960128469,-41.49476665105334,0.0013398491859930213,-0.009651996512877922,-0.06326904033168196,0.9979489327129832
2025/04/11 12:08:44.158323636,1744366124,149723567,piren,254.41698567638014,1038.3623292742145,-41.49582763610327,0.002229039411833684,-0.007708085246123811,-0.06752796589028809,0.9976851159698932
2025/04/11 12:08:44.372001081,1744366124,371275491,piren,254.39332757730637,1038.3716112640705,-41.495931776688174,0.0014276075185615333,-0.008380192201666626,-0.07077919182746324,0.997455783641404
2025/04/11 12:08:44.586806431,1744366124,584390846,piren,254.36832483429438,1038.3820612313825,-41.497302080737896,0.001987819005157476,-0.008940552499457334,-0.07385482604022382,0.9972269449664783
2025/04/11 12:08:44.793635374,1744366124,790208891,piren,254.33585655998553,1038.3948414256347,-41.50495692649564,0.001393169679776782,-0.00951723923364263,-0.07669523508752164,0.997008185598535
2025/04/11 12:08:45.4634454,1744366125,988627,piren,254.30770832818078,1038.40613295257,-41.51050802640394,0.0012681480090758778,-0.009257041834105417,-0.07915327663337451,0.9968186684524469
2025/04/11 12:08:45.224470852,1744366125,218792794,piren,254.28011529385142,1038.4175473506784,-41.51445608699444,0.0005963216268831233,-0.007993621803537805,-0.0844618254431703,0.9963944733155573
2025/04/11 12:08:45.445554860,1744366125,443519589,piren,254.24660617342346,1038.4323849317063,-41.5187168231327,0.001733530552776286,-0.009344569465019084,-0.08725692253995522,0.9961405038257366
2025/04/11 12:08:45.676132904,1744366125,675264934,piren,254.21739589063105,1038.4424449450985,-41.52058117783558,0.0016434753995575885,-0.00959472774018076,-0.08983719014149935,0.9959088911419975
2025/04/11 12:08:45.891856349,1744366125,885465286,piren,254.1873136310771,1038.4524098212871,-41.52123818308485,0.0021543075041039863,-0.010933901824894607,-0.09189374833539951,0.9957064566261141
2025/04/11 12:08:46.111605856,1744366126,110685342,piren,254.1485070198049,1038.464624987703,-41.51990561824781,0.0010009950636289398,-0.008497664294945372,-0.09564561153706183,0.9953786740251744
2025/04/11 12:08:46.333295546,1744366126,325516875,piren,254.12158935538898,1038.4760845420342,-41.51558193821534,0.002111813445551505,-0.008764988878877052,-0.09723570083546824,0.9952205452546484
2025/04/11 12:08:46.552673835,1744366126,550710561,piren,254.08918006122454,1038.4879294525517,-41.51253877810423,0.0016386770485349522,-0.007166817240966049,-0.10003389654117496,0.9949568689199321
2025/04/11 12:08:46.782870384,1744366126,772021893,piren,254.0669308432022,1038.4973212114928,-41.51164694645915,0.0018421717847567753,-0.009474316527754663,-0.10318081164313443,0.9946157870444806
2025/04/11 12:08:46.996510865,1744366126,991841028,piren,254.03400500260915,1038.5088506772229,-41.51045966432706,0.001044115057560152,-0.008529202059762608,-0.10653483816437484,0.9942718394851887
2025/04/11 12:08:47.233176815,1744366127,231025281,piren,254.00884509991985,1038.519157679029,-41.51025003098844,0.0010450693463155496,-0.009427387293955496,-0.10845985787190447,0.994055577636018
2025/04/11 12:08:47.461185985,1744366127,457486821,piren,253.97785176406177,1038.5310713410604,-41.50786839086879,0.0013417663195296112,-0.010292626494163555,-0.11238329023160556,0.9936107173232956
2025/04/11 12:08:47.667850926,1744366127,666733750,piren,253.9503446009975,1038.540616500134,-41.50677661951024,0.0008291689366566227,-0.009613271588020434,-0.1130651261104638,0.9935407262643412
2025/04/11 12:08:47.897609966,1744366127,895377819,piren,253.92050011780134,1038.5528731534664,-41.504781440406695,0.0005701498939187756,-0.010360095553763903,-0.11567395488720716,0.9932330439076057
2025/04/11 12:08:48.117934145,1744366128,114804020,piren,253.89776432441877,1038.5628041283778,-41.50240080690109,0.0008273714431286468,-0.011864173992925008,-0.11850091238485289,0.9928827174424572
2025/04/11 12:08:48.348107791,1744366128,344256237,piren,253.86844731458953,1038.573127526495,-41.500009638022895,0.00035495561062068976,-0.010057566338277925,-0.1216085410071173,0.9925271190854111
2025/04/11 12:08:48.624807570,1744366128,622710181,piren,253.8466073832176,1038.5798202275707,-41.49718598878849,0.0005626275100089597,-0.008827151248625698,-0.12609644017057559,0.9919785545199188
2025/04/11 12:08:48.851990127,1744366128,851437038,piren,253.83076031617964,1038.5812053354862,-41.49826223567378,0.0012552885075079808,-0.008905107260069055,-0.12820947124916862,0.9917063349588215
2025/04/11 12:08:49.81798881,1744366129,79170169,piren,253.82377261529103,1038.575916180766,-41.5002098188646,-5.8113249006371773e-05,-0.00942002395983377,-0.13141916554938302,0.9912821307265406
2025/04/11 12:08:49.309032325,1744366129,305487179,piren,253.81672172206967,1038.5688886902897,-41.5024390007087,5.36719414766173e-05,-0.009601888665083188,-0.13691917636701637,0.9905356833533883
2025/04/11 12:08:49.528305629,1744366129,526437179,piren,253.81361659204828,1038.5588251162442,-41.50742283442324,0.0008720459623287134,-0.008956876077772912,-0.13819463792083617,0.9903642036931142
2025/04/11 12:08:49.752741755,1744366129,751495105,piren,253.81337050941505,1038.5416874541888,-41.512170144172,0.0007857457768879032,-0.011368116153774905,-0.14238479196269718,0.9897457853188505
2025/04/11 12:08:49.972036173,1744366129,971574823,piren,253.81274129767002,1038.5244967370775,-41.51522601507818,0.0002806591511607514,-0.011036227727921372,-0.14707389598678394,0.9890638968374323
2025/04/11 12:08:50.207068669,1744366130,202034318,piren,253.8132166924593,1038.5034073411398,-41.51828757469029,-0.0002069728976503663,-0.01048908786413736,-0.1518555238531663,0.9883470220895485
2025/04/11 12:08:50.420068233,1744366130,418286458,piren,253.81484644226407,1038.4868126960253,-41.52122838992874,-0.00032423300432744937,-0.009895929112366567,-0.1551245077878612,0.9878453080029969
2025/04/11 12:08:50.652528241,1744366130,650586395,piren,253.81788361718134,1038.4662238081996,-41.52342713566838,-0.0004954552027959126,-0.010342128548386115,-0.15902042364952212,0.9872209984413608
2025/04/11 12:08:50.881257615,1744366130,877476696,piren,253.82066242060392,1038.45173058471,-41.52359583570633,0.00017384998840246709,-0.01127360863459414,-0.16227825228448162,0.9866806192279393
2025/04/11 12:08:51.126831671,1744366131,123874457,piren,253.8240358729068,1038.4341704188912,-41.52255237834264,-0.0012926672513636612,-0.01157849308458471,-0.16841607878270412,0.985647143716617
2025/04/11 12:08:51.383527571,1744366131,380876187,piren,253.82783007709403,1038.4212801351946,-41.517394134911584,-7.585306721836767e-05,-0.008873561890289143,-0.17213396614562707,0.9850335790442211
2025/04/11 12:08:51.612801052,1744366131,611806682,piren,253.83726799961468,1038.406837219101,-41.51044816538191,-0.0004910183473976395,-0.01008975393334778,-0.17659063727419438,0.9842325449778833
2025/04/11 12:08:51.854547810,1744366131,851728462,piren,253.8460052372365,1038.3937531646975,-41.50653981654633,-0.0008953089200655682,-0.008937039193231055,-0.17903794833893294,0.983801169346216
2025/04/11 12:08:52.102116971,1744366132,101337934,piren,253.85791327590206,1038.3789264847705,-41.50258085553384,-4.685482943598868e-05,-0.009762196891099287,-0.18399674517461762,0.9828783724762852
2025/04/11 12:08:52.353705662,1744366132,350342251,piren,253.86702065295952,1038.361383664071,-41.5006883280039,-0.0014155712827442165,-0.010142258948812315,-0.18893960502602816,0.9819353117155769
2025/04/11 12:08:52.597513321,1744366132,585003785,piren,253.8731290840877,1038.3485240747364,-41.50051573907694,-6.387449526660334e-05,-0.010129805033588207,-0.19196535668780468,0.9813494203400512
2025/04/11 12:08:52.841156594,1744366132,836904429,piren,253.87986166565074,1038.3306695943584,-41.50236053153964,-0.00012744290867486882,-0.01064374355120796,-0.19655806117475422,0.9804344052861174
2025/04/11 12:08:53.72794046,1744366133,66214558,piren,253.88402787452245,1038.3138557626783,-41.506374567263805,-0.00022309675879395727,-0.010132085108856421,-0.19879165493667922,0.9799893718845728
2025/04/11 12:08:53.317481700,1744366133,316659362,piren,253.89002593710197,1038.2986845145697,-41.50926219548169,-3.784660752834384e-05,-0.010120147574467865,-0.20123115742279157,0.9794915019861015
2025/04/11 12:08:53.549394919,1744366133,543195087,piren,253.89772944399667,1038.2830769483771,-41.513268292915036,-0.0007710466654180029,-0.010813013584338631,-0.2020154365366786,0.9793223410221784
2025/04/11 12:08:53.773563693,1744366133,764886987,piren,253.90498579946274,1038.273154299929,-41.51544475762432,-0.0004419849110541946,-0.00955393895879505,-0.20349058376964002,0.9790301881029008
2025/04/11 12:08:54.16834430,1744366134,7388241,piren,253.91623511721323,1038.2592315994852,-41.51631649275117,-0.0007917045564900265,-0.010874348028470749,-0.20583293882494594,0.9785264038612025
2025/04/11 12:08:54.255214230,1744366134,252589509,piren,253.92484686642263,1038.2459790479904,-41.51572519259988,-0.0005811325871910585,-0.0105915094689345,-0.20568061352870504,0.9785616829973168
2025/04/11 12:08:54.491015849,1744366134,488332196,piren,253.93241601417816,1038.2309583620754,-41.51346149386833,-0.0007444727172323533,-0.010234338646145057,-0.20661921547393228,0.978367622046941
2025/04/11 12:08:54.779038099,1744366134,775136249,piren,253.93865527553334,1038.2163221420292,-41.509128553263,-0.0010884729176914585,-0.009841869340234882,-0.20699695875845858,0.9782914759412689
2025/04/11 12:08:55.33055514,1744366135,28272378,piren,253.94387145005405,1038.2024733819562,-41.50436414538688,-0.0007103681806501207,-0.010337229910755743,-0.20549678439168406,0.9786029371811111
2025/04/11 12:08:55.303616034,1744366135,296601966,piren,253.94849995924284,1038.18538270773,-41.50006162592748,0.00022942945615502365,-0.01054898434382205,-0.20306391433478432,0.979108631861896
2025/04/11 12:08:55.539930896,1744366135,536899239,piren,253.95139448328175,1038.1735033560915,-41.50058087279549,-9.059714293245405e-05,-0.009958047025952337,-0.2006863363704852,0.9796049323506794
2025/04/11 12:08:55.770220329,1744366135,763909097,piren,253.95712613167112,1038.1589224381353,-41.50123066446992,-0.0005501555706089246,-0.009813102780323263,-0.19701642683839968,0.9803509207923969
2025/04/11 12:08:55.996877364,1744366135,992961812,piren,253.96284192025664,1038.1456194659315,-41.502804743086145,-5.948972205295977e-05,-0.011194074575262983,-0.19439953886747163,0.9808585567978142
2025/04/11 12:08:56.259826711,1744366136,250543356,piren,253.96502076788522,1038.132246386248,-41.50506435684486,-0.0007937573825064575,-0.011050032917229929,-0.1894575431025187,0.9818264134170068
2025/04/11 12:08:56.491533122,1744366136,490056017,piren,253.96545011712155,1038.1193816847324,-41.50719694784972,-0.00025105541623353335,-0.009744802255430667,-0.18367852421513053,0.9829380324020087
2025/04/11 12:08:56.731342591,1744366136,725529001,piren,253.96677085983478,1038.1078879062886,-41.51051155770156,-0.0006123426545200461,-0.009626706206531482,-0.17864147609951675,0.9838669496334718
2025/04/11 12:08:56.946015072,1744366136,943205256,piren,253.96827446670298,1038.0938910428945,-41.51433319205863,1.5623839375982114e-05,-0.00982825553035755,-0.1731565923609714,0.9848452668673705
2025/04/11 12:08:57.189170231,1744366137,171994300,piren,253.96944290882772,1038.0815036139493,-41.51779219077583,0.0007341692346457451,-0.009722501128340033,-0.16722366039865458,0.9858707731595556
2025/04/11 12:08:57.410442609,1744366137,409882918,piren,253.96980858938065,1038.0651619751025,-41.52219220018739,4.140330564828031e-05,-0.011563488009176464,-0.15698320909886584,0.9875335721340565
2025/04/11 12:08:57.636644123,1744366137,633950749,piren,253.9685654925485,1038.0533173650745,-41.52256703714578,0.0011741349276626378,-0.00941069324121978,-0.15394902970180002,0.988033277027533
2025/04/11 12:08:57.877745888,1744366137,873964622,piren,253.96671912231045,1038.0378946118242,-41.521682840152195,-0.0004970178072224517,-0.01336518847431098,-0.1425572545662617,0.9896961927181874
2025/04/11 12:08:58.116206962,1744366138,113512978,piren,253.96066590828795,1038.0253208610143,-41.517816275306004,0.0005870132465773681,-0.00733272193135109,-0.13259526421973059,0.9911429677453327
2025/04/11 12:08:58.340218323,1744366138,338212282,piren,253.96420895340285,1038.0093473174438,-41.515649256887244,0.0002825722334049191,-0.010042514784438437,-0.1255398270953363,0.992037710907509
2025/04/11 12:08:58.569491067,1744366138,556336689,piren,253.96257046073117,1037.9970885707276,-41.51190202833958,0.001011848545522498,-0.008516121022831703,-0.11459378340427219,0.9933754157670402
2025/04/11 12:08:58.765788380,1744366138,763204670,piren,253.96538461398902,1037.9826480579868,-41.50778017684904,0.0014601827280260238,-0.009429315101186933,-0.10521604185174685,0.9944036104219326
2025/04/11 12:08:58.983755099,1744366138,980944831,piren,253.96422502161056,1037.9678967649631,-41.50494771679027,0.0003587514066625398,-0.009313858150811698,-0.09763862761322226,0.9951782864098179
2025/04/11 12:08:59.212023657,1744366139,209613110,piren,253.96088362493006,1037.9526364715828,-41.50393167173129,0.0004994443860942191,-0.012635581820420745,-0.08160683364978935,0.9965843754188706
2025/04/11 12:08:59.451958038,1744366139,449797630,piren,253.9543677372069,1037.9382035996448,-41.50458645893948,0.0017709488781920764,-0.011873171981693294,-0.07387725578169842,0.9971950875356985
2025/04/11 12:08:59.680718962,1744366139,680291279,piren,253.9456122523714,1037.9258584318277,-41.50531865200287,0.0018810089144688904,-0.012139968437640302,-0.06118598140618626,0.9980507795954866
2025/04/11 12:08:59.898494072,1744366139,896159537,piren,253.93681413648065,1037.9109662492253,-41.50629628149114,0.0019762949073212502,-0.01128293329672179,-0.04855922271195681,0.9987546202968333
2025/04/11 12:09:00.128821693,1744366140,127447311,piren,253.9330655154057,1037.9003132337768,-41.507311687649384,0.0021367410148329046,-0.012266181824424188,-0.0385552664351775,0.9991788961699493
2025/04/11 12:09:00.355763731,1744366140,354843400,piren,253.9284645378056,1037.8872972298313,-41.5099520245194,0.002794185631457426,-0.009886149262952207,-0.02634230300296594,0.9996001899018965
2025/04/11 12:09:00.589206498,1744366140,578767849,piren,253.93008602928404,1037.8746576835802,-41.51234230810782,0.002467402217614835,-0.010792267705090616,-0.01619393026757729,0.9998075792404093
2025/04/11 12:09:00.841915452,1744366140,825637966,piren,253.93192979347847,1037.8593892945494,-41.51441339653696,0.0021221450979126578,-0.011940346570101743,0.002378331694657883,0.9999236311650603
2025/04/11 12:09:01.113144359,1744366141,107454158,piren,253.93259391962408,1037.8417450086092,-41.515538477211685,0.0022871117970174213,-0.009579449913824098,0.014836024439063964,0.9998414352475197
2025/04/11 12:09:01.358535019,1744366141,356590966,piren,253.93502833466403,1037.8299730750816,-41.516091190735985,0.0023627876181989216,-0.01118077795536916,0.029693647509464797,0.9994937192081639
2025/04/11 12:09:01.594181289,1744366141,585451815,piren,253.93549226041137,1037.8223874313878,-41.51537944739775,0.0013951312660594056,-0.010524212374967713,0.03498122166044148,0.9993315809548802
2025/04/11 12:09:01.831092355,1744366141,829216881,piren,253.9307317061882,1037.8158426605032,-41.51382173059908,0.0016978963789251995,-0.011027657741615479,0.050492798782956566,0.9986620976004267
2025/04/11 12:09:02.67866713,1744366142,66293953,piren,253.9251735809147,1037.8103563890604,-41.51358603664955,0.0018420670337823254,-0.00862946949063283,0.06362427099427757,0.9979349133013636
2025/04/11 12:09:02.287954779,1744366142,285543702,piren,253.92346600205386,1037.8035383057543,-41.51541583103655,0.003036975215934048,-0.009719179055171667,0.06847422656090554,0.9976009195248956
2025/04/11 12:09:02.509885645,1744366142,507696472,piren,253.91398957831188,1037.7885615607358,-41.51694313844939,0.002106293933401864,-0.00972974127758872,0.0851533270657469,0.9963181251739683
2025/04/11 12:09:02.732668512,1744366142,731930516,piren,253.90629335347606,1037.7755394424805,-41.517858983178314,0.0027461277121464864,-0.0085981435127624,0.09002490534015747,0.9958986128764405
2025/04/11 12:09:02.965591240,1744366142,963580813,piren,253.89601159416716,1037.756893224351,-41.51800569906251,0.0036742635353527913,-0.009912410149889219,0.10642091754363732,0.9942649708310474
2025/04/11 12:09:03.205597661,1744366143,199541668,piren,253.88906056275738,1037.7375358406598,-41.51937218189626,0.003744044856240542,-0.012264552192871085,0.11313054477715742,0.9934973793252031
2025/04/11 12:09:03.435944199,1744366143,431925383,piren,253.88013061980544,1037.7217976656393,-41.519523484816595,0.004057967904729663,-0.011497826668607408,0.12384359825897302,0.9922268369927579
2025/04/11 12:09:03.658573801,1744366143,655169945,piren,253.87240953123427,1037.704355309837,-41.51927079928786,0.004587435482560424,-0.01151407066684039,0.13916285190771907,0.9901919421310611
2025/04/11 12:09:03.903052503,1744366143,900937639,piren,253.86898668091678,1037.6901449932711,-41.51832767431586,0.0025400674724555734,-0.009708142010718436,0.14291229406301004,0.98968448317713
2025/04/11 12:09:04.129237394,1744366144,128656194,piren,253.86607823775904,1037.6842540603568,-41.51623271833626,0.0039968695886754895,-0.010610283136885055,0.15230978031292267,0.9882677662183845
2025/04/11 12:09:04.377274128,1744366144,373657725,piren,253.86296291568098,1037.6762699737237,-41.51522635691104,0.0037983433187501587,-0.009768980877788828,0.16553875114753533,0.9861475860484356
2025/04/11 12:09:04.626516959,1744366144,617633476,piren,253.86426535338336,1037.6687551603086,-41.51421598529734,0.003222523108170848,-0.009556009190910151,0.17083750530385827,0.9852476058406409
2025/04/11 12:09:04.851351283,1744366144,848889508,piren,253.86560518286726,1037.6616821337502,-41.51171605248931,0.0030430926781515513,-0.009046434189168659,0.17503217935777585,0.9845164487222551
2025/04/11 12:09:05.101358706,1744366145,93972500,piren,253.86462070969145,1037.6523701831861,-41.5091993832989,0.003840790435820695,-0.008467797289027098,0.18352543296317705,0.9829709864454691
2025/04/11 12:09:05.334994196,1744366145,323766397,piren,253.86581934673055,1037.641837836738,-41.50897705450685,0.003157240851118574,-0.008844012450902706,0.18894376692386838,0.9819430066020102
2025/04/11 12:09:05.552142566,1744366145,550143916,piren,253.86509496126445,1037.6273990114094,-41.51076813887365,0.004296646136877114,-0.010542995295960231,0.19214585037138385,0.981300339481864
2025/04/11 12:09:05.793237419,1744366145,790961645,piren,253.85918516883714,1037.6083743420031,-41.51474785812904,0.00474039464577951,-0.01004740217682295,0.19570005619431238,0.9806008700657177
2025/04/11 12:09:06.32816974,1744366146,32096700,piren,253.85510916989557,1037.592551681491,-41.51920751445368,0.00458600003133924,-0.010291950160181376,0.1975324976122783,0.9802315832254479
2025/04/11 12:09:06.283450254,1744366146,280904311,piren,253.8496788987219,1037.573942229931,-41.52234198470887,0.005338648633835002,-0.00899718886023251,0.19874929032615027,0.9799945249940071
2025/04/11 12:09:06.515346740,1744366146,512633037,piren,253.8467994008552,1037.5554526389112,-41.523776354325236,0.003970538347276098,-0.008242209349410078,0.19671438458664803,0.9804181514573104
2025/04/11 12:09:06.741779965,1744366146,737497762,piren,253.84450784064654,1037.5434919946983,-41.52230041801596,0.00474177327853178,-0.007858103922291143,0.1942616931721634,0.9809068051322745
2025/04/11 12:09:06.963684069,1744366146,961166258,piren,253.84210685305246,1037.5273920948903,-41.52071176318653,0.003874086545864114,-0.008734861815449095,0.19158383074993224,0.9814297373921791
2025/04/11 12:09:07.249366002,1744366147,247046567,piren,253.83757479305646,1037.510646133792,-41.519049262307774,0.004521911366839291,-0.008798788352667529,0.18720253146065746,0.9822715234882038
2025/04/11 12:09:07.504410402,1744366147,498124980,piren,253.83306381459192,1037.4964297744207,-41.51824078051591,0.0031470166082542455,-0.007590354742338511,0.1823465773486319,0.9831999839964362
2025/04/11 12:09:07.732322214,1744366147,728136878,piren,253.83083091026518,1037.4886165190856,-41.518236355449396,0.0027118268601738506,-0.008037248214089137,0.1768664753819477,0.9841983024381786
2025/04/11 12:09:07.974773748,1744366147,969463251,piren,253.82592963027977,1037.4788957696685,-41.5177305829459,0.003172581116260049,-0.006250890286482106,0.16892554485864933,0.9856038866572593
2025/04/11 12:09:08.202326132,1744366148,200122323,piren,253.82287846215118,1037.4682360713616,-41.51797331942379,0.004520935150538859,-0.007666950198921402,0.16414931144765021,0.9863953480077217
2025/04/11 12:09:08.449958980,1744366148,449370720,piren,253.82077447965273,1037.4551626492998,-41.516656883174036,0.004412082422717085,-0.007324862080603505,0.15384057067902182,0.9880586818288417
2025/04/11 12:09:08.687187522,1744366148,685047718,piren,253.81879223896416,1037.4461103655876,-41.51694982793507,0.00395460946418444,-0.00679118342323131,0.14390097924350562,0.9895608869920325
2025/04/11 12:09:08.935049017,1744366148,932526283,piren,253.81669899114434,1037.4357129144646,-41.51683475309545,0.004273284588825711,-0.006217486868663338,0.13059001647229226,0.9914077513786279
2025/04/11 12:09:09.168191656,1744366149,166191613,piren,253.8111561627053,1037.4247371795957,-41.516403262674515,0.0036836821217933625,-0.0029808082111464486,0.12024943968211675,0.9927323997556295
2025/04/11 12:09:09.411781623,1744366149,405120337,piren,253.80998453479364,1037.4163927583652,-41.51515056840726,0.004689095911096389,-0.0030595502095167727,0.1073311071104285,0.9942075663454296
2025/04/11 12:09:09.640252768,1744366149,635420458,piren,253.80794094766324,1037.409135180744,-41.51456621245074,0.004578844345260723,-0.00265875084780313,0.10111881671886594,0.9948602666373644
2025/04/11 12:09:09.857069324,1744366149,854634466,piren,253.8090497183441,1037.4008978480679,-41.51440333411609,0.004672488765537227,-0.0024014478279750966,0.08300877802247668,0.9965349686128835
2025/04/11 12:09:10.95758762,1744366150,89156656,piren,253.80640214071235,1037.3919227726249,-41.51352039042571,0.003928718692666652,-0.0020432580944737726,0.0736306973107228,0.9972757445558025
2025/04/11 12:09:10.322276771,1744366150,321448137,piren,253.8044790529099,1037.3869284086577,-41.51500088822965,0.0030678420018971095,-0.004318207782057328,0.05959028430741779,0.9982088656404348
2025/04/11 12:09:10.544331707,1744366150,542154350,piren,253.7976459674346,1037.3822983530765,-41.515485860992776,0.004881399475405512,-0.0016000358001529908,0.04522647874338908,0.9989635516099041
2025/04/11 12:09:10.769827930,1744366150,767092050,piren,253.7938219892322,1037.3759095224304,-41.5175776537187,0.005222937816260429,-0.0014161985111034322,0.03284656394343983,0.999445755676342
2025/04/11 12:09:11.11562145,1744366151,8465751,piren,253.79073598886734,1037.3678646347619,-41.51834593955812,0.005416585089451287,-0.0025449335292015217,0.017712480272522174,0.9998252107052994
2025/04/11 12:09:11.256531173,1744366151,253045568,piren,253.78446806055098,1037.3589701045366,-41.517647730400526,0.0056123096685464155,-0.0015462642001989892,0.0020633478759215116,0.9999809266394787
2025/04/11 12:09:11.518459217,1744366151,510777550,piren,253.77838561500994,1037.350073256672,-41.51602369060066,0.005889786010451553,-0.0008433726513881241,-0.022276687460851142,0.9997341388284655
2025/04/11 12:09:11.753695936,1744366151,744253582,piren,253.76555930779972,1037.3415561987695,-41.51424338165764,0.005423283087554756,-0.0009367970026859228,-0.0275024262679841,0.9996065860934001
2025/04/11 12:09:12.886394,1744366151,996825831,piren,253.75879171597532,1037.3351890561983,-41.51319563369607,0.004293921438427278,-0.0029603264873423168,-0.04284151473457602,0.9990682675978735
2025/04/11 12:09:12.269664689,1744366152,264824454,piren,253.75027429037226,1037.3325160745667,-41.51300279233528,0.0058383115746103035,-0.0023535739721629533,-0.06812118032074811,0.9976571954329922
2025/04/11 12:09:12.552593880,1744366152,542822358,piren,253.73622976630338,1037.3272154466483,-41.514309966101614,0.004466445769585299,-0.0020210977843245844,-0.08346031313549203,0.9964990427277184
2025/04/11 12:09:12.784801044,1744366152,782168916,piren,253.72558795084316,1037.3245387194952,-41.51447471634702,0.0038399152011353503,-0.0034089430862811816,-0.08920012316775124,0.9960004880446298
2025/04/11 12:09:13.30016066,1744366153,22820588,piren,253.71512799759984,1037.3201800731727,-41.5142109919672,0.003652502756408456,-0.00424856045123865,-0.11000944818636778,0.9939147499999371
2025/04/11 12:09:13.308014526,1744366153,293831917,piren,253.69975622664842,1037.3162327870734,-41.513450831020215,0.00378788089001611,-0.006109480942258694,-0.12322078636318248,0.9923532455779133
2025/04/11 12:09:13.552871314,1744366153,545821230,piren,253.68528834320793,1037.3163546380003,-41.51229120253463,0.003029910379574419,-0.005660499556084203,-0.13412821962053956,0.9909431866102576
2025/04/11 12:09:13.801006204,1744366153,798607263,piren,253.67570369976568,1037.3198187921375,-41.51075180350178,0.003180575105269079,-0.0100123872326701,-0.1493030881579061,0.9887356693830841
2025/04/11 12:09:14.51830211,1744366154,49333805,piren,253.65973110730022,1037.3252488937344,-41.509523685881284,0.002659232338963318,-0.008199643472201722,-0.1622585398063215,0.9867106265720547
2025/04/11 12:09:14.316249157,1744366154,314105197,piren,253.64809463433147,1037.3290288163385,-41.50892895302144,0.00246326165624462,-0.00821488899501494,-0.17970364186487017,0.9836834089488931
2025/04/11 12:09:14.557801800,1744366154,555982277,piren,253.6336104750671,1037.3300844794308,-41.507240836205206,-0.0007319572212994348,-0.009174602416595273,-0.18833095355940416,0.9820624943660813
2025/04/11 12:09:14.798541669,1744366154,795784730,piren,253.6218653210902,1037.3320170482734,-41.50455968724072,0.0009821893529867519,-0.0035818717288503246,-0.19202208235247947,0.9813835770930807
2025/04/11 12:09:15.23662643,1744366155,20728325,piren,253.62574331556763,1037.3253589596306,-41.50524830380856,0.0015366097665878789,-0.008277391330073929,-0.2024073002171814,0.9792652390654872
2025/04/11 12:09:15.301104494,1744366155,286958904,piren,253.6202402011902,1037.3193819629741,-41.50717784383653,0.0018534686831558362,-0.007234689969266799,-0.21728335420341005,0.9760800007688942
2025/04/11 12:09:15.539103513,1744366155,533387279,piren,253.61114425771672,1037.314910244279,-41.510221804100745,0.00047507308677233987,-0.008336249544812034,-0.2232433586187048,0.9747269792520002
2025/04/11 12:09:15.787545877,1744366155,776477014,piren,253.60145388619205,1037.3144194702552,-41.50979338389059,4.6973072925147114e-05,-0.008517695162306806,-0.23133046567314858,0.9728379424724843
2025/04/11 12:09:16.7658701,1744366156,5736395,piren,253.59042725787796,1037.3178735296851,-41.50776639018676,0.0011052716472526555,-0.007134592244565349,-0.23875660847374514,0.9710526030438332
2025/04/11 12:09:16.282890962,1744366156,269453217,piren,253.58224993439634,1037.319784168994,-41.50570757203803,0.001649101010305008,-0.008569513304906982,-0.2454108798714819,0.9693798759765337
2025/04/11 12:09:16.541675364,1744366156,539345877,piren,253.57131191952033,1037.3190631665625,-41.504136164816316,0.0009079116340180641,-0.010266136867806936,-0.25254136188422016,0.9675312101777077
2025/04/11 12:09:16.787315863,1744366156,782294999,piren,253.56014323227333,1037.3183971406768,-41.50316919957465,0.00043477255903968953,-0.010988405081895672,-0.25492240983063064,0.9668989765703148
2025/04/11 12:09:17.28231464,1744366157,26180421,piren,253.54739577561284,1037.3161801598062,-41.50159762600401,0.0005108153308242773,-0.007750647770271742,-0.2622074423346232,0.9649802711512678
2025/04/11 12:09:17.289353152,1744366157,282951805,piren,253.5374505736883,1037.3123258744868,-41.49985073218389,0.00010545460865108401,-0.009146092240659747,-0.26445837006896517,0.9643537257544647
2025/04/11 12:09:17.527637573,1744366157,526063833,piren,253.52665604163906,1037.3090287350797,-41.498360875208114,0.0021493004930777247,-0.006692005488298412,-0.26674046695936254,0.9637427669540438
2025/04/11 12:09:17.777693533,1744366157,775438383,piren,253.51888527125703,1037.3013667729722,-41.49818487800365,0.001418349810109795,-0.008897661713608012,-0.26858621146224027,0.9632135105531936
2025/04/11 12:09:18.91805783,1744366158,69582813,piren,253.50704968825121,1037.2954099455617,-41.498929485463584,0.0006667262378966811,-0.0072624497981436525,-0.2704520331238113,0.9627058273835524
2025/04/11 12:09:18.331943930,1744366158,328763673,piren,253.49855931012326,1037.292729357045,-41.49914842798524,0.0004819623377894386,-0.009154872806578474,-0.2685985085009071,0.9632085948782271
2025/04/11 12:09:18.581766784,1744366158,579420554,piren,253.48816214420862,1037.291026295528,-41.50024708367001,0.00037674767034707714,-0.008845683373548583,-0.26688970975036685,0.9636864089402801
2025/04/11 12:09:18.815630506,1744366158,814438843,piren,253.47939810482202,1037.2885680813074,-41.505713105733165,0.000733143753300863,-0.009433046042333665,-0.26411794915894315,0.9644439792308697
2025/04/11 12:09:19.72018708,1744366159,64986218,piren,253.4685118087895,1037.2850908520224,-41.511562573224026,0.0013822509259898154,-0.008565765293152039,-0.2603273864916629,0.9654814182001332
2025/04/11 12:09:19.329185703,1744366159,327263609,piren,253.45735826954368,1037.279880315614,-41.51670671102616,0.0014159808595661442,-0.00843066476345512,-0.2553196236265211,0.9668189120414761
2025/04/11 12:09:19.566095041,1744366159,563544307,piren,253.4466169005673,1037.2724590137752,-41.519733408346774,0.000968383296093004,-0.008739657376251713,-0.2497401279353832,0.968272972421288
2025/04/11 12:09:19.807110124,1744366159,803953194,piren,253.4342496363488,1037.2654022518075,-41.519570853050155,0.0018467131040567043,-0.008639869828035879,-0.2449621422490012,0.9694923883996439
2025/04/11 12:09:20.46038191,1744366160,41708485,piren,253.41962593178158,1037.2570325915437,-41.515995975902406,0.000834985802268726,-0.007125394560727288,-0.2362206363507356,0.9716729606781891
2025/04/11 12:09:20.298362945,1744366160,297278528,piren,253.40901574680953,1037.2488209096985,-41.51306621201562,0.0006456801784180948,-0.007193675390613887,-0.2269058458333382,0.9738899174229803
2025/04/11 12:09:20.538123887,1744366160,535397017,piren,253.40240243534294,1037.2425783974338,-41.512239756441254,0.0013237268063488715,-0.007987171415119025,-0.21995489311213573,0.9754764465819544
2025/04/11 12:09:20.786769458,1744366160,785841173,piren,253.39121260828205,1037.235556563309,-41.510259266758744,0.000667554961482695,-0.008535670036104379,-0.2095404093997351,0.9777625036459516
2025/04/11 12:09:21.30970904,1744366161,29002029,piren,253.37952396243713,1037.2295709392065,-41.509071912675395,0.0012815987478104482,-0.009631951118412314,-0.2022338711456456,0.9792890504767979
2025/04/11 12:09:21.300712241,1744366161,298582207,piren,253.36144482156035,1037.2225657216725,-41.51117123209629,0.00162996099869524,-0.00921305326522431,-0.19092240122054208,0.9815605430073365
2025/04/11 12:09:21.558033827,1744366161,546182975,piren,253.34669081572537,1037.2161631830188,-41.51260220800526,0.0013272315960466351,-0.007616959561204554,-0.18216218750813928,0.9832380982374427
2025/04/11 12:09:21.797373597,1744366161,788771670,piren,253.33380620075135,1037.2098261365036,-41.51251255392282,0.0007404611902674626,-0.009145145152723867,-0.17044071536457694,0.9853252156437349
2025/04/11 12:09:22.54863344,1744366162,38134743,piren,253.3218417143382,1037.2053184013928,-41.510841978649836,0.001440930479287883,-0.00916211908735239,-0.16226652598637337,0.986703376824817
2025/04/11 12:09:22.301557498,1744366162,297544585,piren,253.30365087148093,1037.1979292760757,-41.508459303478446,0.0013976344850697828,-0.007942359089705212,-0.14802312112797797,0.988951020607931
2025/04/11 12:09:22.525559581,1744366162,520953792,piren,253.29811282509436,1037.1907722970925,-41.50682680166246,0.0014468930151382512,-0.009174556734144076,-0.14450895390895796,0.989459901284268
2025/04/11 12:09:22.759594631,1744366162,755209286,piren,253.2827732052569,1037.1842094153185,-41.50715448752383,0.0021673339274111535,-0.009650698870034707,-0.13092179788373742,0.9913433560143815
2025/04/11 12:09:22.982659508,1744366162,980273656,piren,253.2715860261483,1037.1784588126998,-41.508497205966236,0.0020484676110738504,-0.007346212891570585,-0.12942889257058152,0.9915593772964638
2025/04/11 12:09:23.225682578,1744366163,221248365,piren,253.25770129529363,1037.1723469740173,-41.50902286934617,0.0019022829679897955,-0.007889549864123551,-0.11621728843626475,0.9931906555092901
2025/04/11 12:09:23.467665282,1744366163,465332420,piren,253.24646173789844,1037.1665720517656,-41.51186681803793,0.0028186722589811893,-0.008255823664364212,-0.10696671449843169,0.9942243300441457
2025/04/11 12:09:23.745603814,1744366163,736595863,piren,253.23309505712092,1037.1617112615575,-41.51552054698751,0.004030962016362584,-0.008741048551078514,-0.0968258393736171,0.9952547926260114
2025/04/11 12:09:23.980136874,1744366163,979582479,piren,253.2188904392329,1037.1568264159775,-41.519107719300095,0.00394631579831351,-0.008752656306198777,-0.08697223252646091,0.9961644685334691
2025/04/11 12:09:24.257156425,1744366164,252729174,piren,253.20326189092887,1037.1524662411757,-41.52221133278889,0.0015640943532890465,-0.0071570774399147075,-0.07616441796044665,0.9970683583827739
2025/04/11 12:09:24.512669151,1744366164,512034755,piren,253.19408090694563,1037.1533803661875,-41.522621129168655,0.002198471504960561,-0.008817811952215343,-0.06543843495793762,0.9978152254529258
2025/04/11 12:09:24.758270891,1744366164,754239775,piren,253.18455109573233,1037.1533149152965,-41.52256962499103,0.003491657044525959,-0.008601184245382277,-0.060608358295886976,0.9981184573312618
2025/04/11 12:09:25.5126491,1744366165,719214,piren,253.17164892291743,1037.1507394113935,-41.52101203367717,0.0034656907175581743,-0.006481254669700477,-0.051533176065225415,0.9986442379998932
2025/04/11 12:09:25.297660055,1744366165,294309626,piren,253.15786068035294,1037.1463645367878,-41.51898463144703,0.0035057183754341244,-0.008000813902644597,-0.03573580412883818,0.9993230955095719
2025/04/11 12:09:25.540728486,1744366165,538711127,piren,253.14819618287558,1037.1396950419012,-41.51806531900907,0.002443648845361604,-0.009151403835160672,-0.031336875458283404,0.9994639966625504
2025/04/11 12:09:25.767760395,1744366165,764059774,piren,253.136615508486,1037.1361924921755,-41.51625053353924,0.004461477427720872,-0.008338145775521914,-0.025047680256891827,0.9996415278778371
2025/04/11 12:09:26.14345310,1744366166,13808208,piren,253.12259492432327,1037.1298758461307,-41.51419442161179,0.003928870351512596,-0.007000923475598711,-0.015732924028036506,0.9998440009070304
2025/04/11 12:09:26.272073063,1744366166,269737049,piren,253.11309013217223,1037.1260376376006,-41.51261339522122,0.0038577491287472908,-0.005604321382392534,-0.011220044758853643,0.9999139062684906
2025/04/11 12:09:26.526914266,1744366166,524994428,piren,253.10273762045574,1037.1237272673989,-41.512637194586944,0.004954452353859083,-0.006106488569584942,-0.005024463429207851,0.9999564585353061
2025/04/11 12:09:26.783687800,1744366166,781583682,piren,253.09044927426606,1037.12125530558,-41.51268094996052,0.0055414320540856715,-0.006218158105382201,0.0011965965564446656,0.9999645969719366
2025/04/11 12:09:27.18587189,1744366167,18155778,piren,253.07840491614027,1037.117832779493,-41.51492553164518,0.005330238712692584,-0.005698246446957093,0.0069459115151658465,0.9999454349392866
2025/04/11 12:09:27.263891723,1744366167,261620401,piren,253.066774389532,1037.1154437077869,-41.517009040835255,0.004284400051730327,-0.005140349559950155,0.012348502563397881,0.9999013627388654
2025/04/11 12:09:27.513396533,1744366167,508461088,piren,253.05493924479353,1037.116896917556,-41.51785203453256,0.004916742225482313,-0.0031155347471954918,0.01754771980516937,0.999829083703193
2025/04/11 12:09:27.746549863,1744366167,742539301,piren,253.0466982292696,1037.1197094069666,-41.517814537954415,0.004893462264331512,-0.0035801217225660746,0.020237629148361566,0.9997768126546908
2025/04/11 12:09:28.5513971,1744366167,996006466,piren,253.03575760133103,1037.123369018512,-41.51582980634939,0.005340183067410495,-0.0035358037760491565,0.026111369532514316,0.999638523126035
2025/04/11 12:09:28.253420928,1744366168,251958813,piren,253.02530690934424,1037.1259240407226,-41.514771365750875,0.005271634228638852,-0.004254653237422747,0.031760687352547966,0.9994725441638117
