time,header_stamp_secs,header_stamp_nsecs,header_frame_id,twist_linear_x,twist_linear_y,twist_linear_z,twist_angular_x,twist_angular_y,twist_angular_z
2025/04/11 12:08:20.316091061,1744366100,305438410,piren,0.007686998262718427,-0.01536761447982024,-0.004500996983319563,0.005656241439282894,0.0058006527833640575,0.0
2025/04/11 12:08:20.524810634,1744366100,517422296,piren,0.004473838593878097,-0.016297130217454672,-0.0024233182193881494,0.011476333253085613,0.0036636493168771267,0.007559662792202703
2025/04/11 12:08:20.729319523,1744366100,717641308,piren,0.005006523254324234,-0.017799523498940987,0.002043581070303887,0.017896123230457306,0.011979485861957073,0.007694320652385323
2025/04/11 12:08:20.946629379,1744366100,940458272,piren,0.004068627002767781,-0.0189639052504744,0.000552143968067488,-0.0015135913854464889,0.002293412573635578,0.009075245522381124
2025/04/11 12:08:21.149506727,1744366101,142330730,piren,0.005056996091424652,-0.01923900659383047,-0.0013033644839042149,-8.998812700156122e-05,0.005795812699943781,0.012896958349611944
2025/04/11 12:08:21.354338968,1744366101,345219250,piren,0.012171133503640436,-0.018707825539605694,0.0002559553109441358,0.006781859323382378,0.0025370686780661345,0.013904272490130843
2025/04/11 12:08:21.546854732,1744366101,539892393,piren,0.008894571976708886,-0.024657209978688397,-0.0012271274823715819,0.009825282730162144,0.009345421567559242,0.014673671720420552
2025/04/11 12:08:21.737208168,1744366101,730988234,piren,0.007669680809155641,-0.029293309485036032,-0.005529676425690383,0.005313873291015625,0.0032594746444374323,0.015452722390454853
2025/04/11 12:08:21.935821150,1744366101,927237464,piren,0.011313368527676657,-0.031900205920616286,-0.005123534650711584,0.009116050787270069,0.003050500527024269,0.012637303295150929
2025/04/11 12:08:22.131717469,1744366102,122064909,piren,0.016917675995093515,-0.03140436231253915,-0.004091956444239271,0.009221083484590054,0.006878812797367573,0.013310734713000507
2025/04/11 12:08:22.333876480,1744366102,326966977,piren,0.012433292886351489,-0.028240626414364253,-0.0016170609986772733,0.011562635190784931,0.001689855009317398,0.014896470741850628
2025/04/11 12:08:22.529859822,1744366102,525160103,piren,0.013205965067750316,-0.025330213392858403,0.005398663400033078,0.006876988802105188,0.007893620058894157,0.014491226604673219
2025/04/11 12:08:22.733615412,1744366102,726509275,piren,0.009263052224474936,-0.024376484456584,0.015448988607332905,0.014214572496712208,0.012299805879592896,0.01567487526477345
2025/04/11 12:08:22.945611218,1744366102,934980492,piren,0.009435190107767963,-0.022165589211291647,0.0198708193827952,0.011396825313568115,0.004551696125417948,0.016039778430171597
2025/04/11 12:08:23.162336051,1744366103,154372896,piren,0.009669513148535815,-0.025166133709186557,0.019237535328583633,0.011567560955882072,0.006537932436913252,0.015873281242109405
2025/04/11 12:08:23.358066372,1744366103,349971702,piren,0.00884557399596583,-0.03033401946417264,0.011378839118943562,0.009967558085918427,0.002087056403979659,0.021169155627826914
2025/04/11 12:08:23.563547224,1744366103,557847680,piren,0.008964318705411421,-0.03539667744721416,0.002847956478873607,0.006318308413028717,0.0011675296118482947,0.0210668780206752
2025/04/11 12:08:23.752376313,1744366103,743827899,piren,0.018820569743643743,-0.03594642187205639,-0.003959513472649326,0.0044879550114274025,0.008038685657083988,0.0172795055718721
2025/04/11 12:08:23.971969215,1744366103,964667504,piren,0.02176476459160582,-0.04003928678727183,-0.007674450741875323,0.009857896715402603,0.008686949498951435,0.022657116339842524
2025/04/11 12:08:24.190257254,1744366104,182660700,piren,0.027434497510935966,-0.03963497509773359,-0.008843352840080166,0.002916368655860424,0.0028370318468660116,0.018346201368242974
2025/04/11 12:08:24.400064046,1744366104,395506445,piren,0.029189146564167684,-0.03572582036144348,-0.00839070826242554,0.013255232945084572,0.018330836668610573,0.018718315461424256
2025/04/11 12:08:24.601482534,1744366104,597088129,piren,0.022967995237366715,-0.028325824032519667,5.992228099674247e-05,0.012120365165174007,0.011248728260397911,0.025450380705780883
2025/04/11 12:08:24.811135217,1744366104,796798026,piren,0.006398406293365817,-0.013878709204435452,0.0035943187113102785,0.004972770810127258,0.0027343195397406816,0.0248827479852365
2025/04/11 12:08:25.122680,1744366104,993437495,piren,0.014650615508050274,-0.017879054545834893,-0.0010146894019927282,0.0025055804289877415,0.00643946835771203,0.024580993678710174
2025/04/11 12:08:25.234570579,1744366105,221974523,piren,0.03416247604534139,-0.03201190030918474,-0.007856720623346986,0.011363893747329712,0.015260537154972553,0.023011741260891987
2025/04/11 12:08:25.438719552,1744366105,430415456,piren,0.045913808224272934,-0.032833504155475014,-0.011533288147870543,0.008343144319951534,0.008280059322714806,0.01845118135839404
2025/04/11 12:08:25.645274149,1744366105,633729953,piren,0.0447205799795626,-0.033306474234399995,-0.011387655697492834,0.0067034452222287655,0.01188138872385025,0.01759453769301971
2025/04/11 12:08:25.853168174,1744366105,847144766,piren,0.0430297303937686,-0.03458954824425834,-0.012296117194123171,0.009179312735795975,-0.0010094661265611649,0.01791487992259185
2025/04/11 12:08:26.53357259,1744366106,44264537,piren,0.031587296143966506,-0.03823649757273709,-0.012573137568573624,0.011385819874703884,0.00868473295122385,0.024906424678550573
2025/04/11 12:08:26.250108491,1744366106,246376846,piren,0.029921177496907023,-0.03383796910755588,-0.0057420631470382075,0.013678926974534988,0.012847023084759712,0.02465387524890997
2025/04/11 12:08:26.454065402,1744366106,449599742,piren,0.03152424575758674,-0.02844441868780701,-0.00036628743455257575,0.008037337101995945,0.0030167640652507544,0.025431390079172597
2025/04/11 12:08:26.641885148,1744366106,633476276,piren,0.03525047843595376,-0.017940706665874898,0.004993779870468858,0.008474132977426052,0.007898163050413132,0.02562149767313025
2025/04/11 12:08:26.844440554,1744366106,836724857,piren,0.04457870164684129,-0.01613602298436341,0.007064677962388198,0.004341635387390852,-0.004238138906657696,0.019409314883111328
2025/04/11 12:08:27.49652280,1744366107,42190487,piren,0.044917278758119274,-0.01745402791035004,0.005688648247562256,0.008664367720484734,-0.0015608975663781166,0.019854011504143437
2025/04/11 12:08:27.254049727,1744366107,247100310,piren,0.03967565407142082,-0.019477912430044375,0.008789072859710059,0.009165205992758274,-0.003296147333458066,0.025570198682122496
2025/04/11 12:08:27.470814892,1744366107,459496301,piren,0.040476522221723585,-0.023542825933132006,0.013898933514291239,0.010227366350591183,0.002509088022634387,0.024523441265920255
2025/04/11 12:08:27.683249168,1744366107,671547916,piren,0.03692537570446487,-0.03194812032050415,0.010412639725096656,0.005060912109911442,-0.003175831865519285,0.018904221016358434
2025/04/11 12:08:27.888471160,1744366107,881721166,piren,0.03004783300597091,-0.03701844583103701,0.0060197370720180615,0.005246653687208891,0.0033076258841902018,0.019292636182005433
2025/04/11 12:08:28.95155202,1744366108,82367371,piren,0.020226901448761984,-0.038800096732123784,0.005322968316134198,0.0024415759835392237,0.007379116024821997,0.01965958504596648
2025/04/11 12:08:28.305292338,1744366108,293187750,piren,0.01357204089176194,-0.03943719516198694,0.005439631428241574,0.014605029486119747,0.0003844554303213954,0.02006482614774734
2025/04/11 12:08:28.528249463,1744366108,512436412,piren,0.010526458632620521,-0.03393534006208647,-4.66456466316634e-05,0.011135734617710114,-0.006571299862116575,0.025657700624665547
2025/04/11 12:08:28.736143085,1744366108,729205414,piren,0.008149407415989306,-0.0356852136819278,0.0003932720669836374,0.010940399020910263,0.007215266581624746,0.020775029770624568
2025/04/11 12:08:28.944111686,1744366108,935638105,piren,0.010173123102739037,-0.03189263717235516,-0.0003102479559633146,0.006322821136564016,-0.003971602767705917,0.021044566417284097
2025/04/11 12:08:29.162388693,1744366109,153217722,piren,0.0095470257265522,-0.030315580662449222,0.0017259994908422336,0.006819532718509436,-0.008495058864355087,0.020565198409449984
2025/04/11 12:08:29.373524257,1744366109,365485219,piren,0.012898792957942587,-0.02821880383101546,-0.0007342378484046047,0.0076600718311965466,0.0049834297969937325,0.026072197384267033
2025/04/11 12:08:29.591387304,1744366109,576757300,piren,0.013464680400384696,-0.029269128393434155,-0.0065003205535121315,0.010204794816672802,-0.0004126771236769855,0.020381987281524596
2025/04/11 12:08:29.811484015,1744366109,803432005,piren,0.01805727431307054,-0.03126117842067881,-0.0056906480106921065,0.011001541279256344,0.005797535181045532,0.020272099029757053
2025/04/11 12:08:30.36360732,1744366110,25786276,piren,0.02308129931994454,-0.03467544474687598,-0.0044912015626365365,0.013371692039072514,0.0005797003395855427,0.02610393863274159
2025/04/11 12:08:30.256292489,1744366110,247155364,piren,0.027670228529112623,-0.03882436850403648,-0.002675992416139406,0.012044298462569714,0.008566985838115215,0.020657816187443608
2025/04/11 12:08:30.459522453,1744366110,449278624,piren,0.027548979679061416,-0.0349230094027796,0.0019720764158862075,0.009275946766138077,0.011808713898062706,0.02717453839109595
2025/04/11 12:08:30.721553126,1744366110,709958953,piren,0.02497143112061119,-0.03255731721731216,0.0010397438989132666,0.01617540419101715,0.008135943673551083,0.025056626701191468
2025/04/11 12:08:30.933013417,1744366110,922020609,piren,0.030142395544784307,-0.028960342659902893,-0.000501511150513077,0.014906692318618298,0.005864533595740795,0.01941929068939588
2025/04/11 12:08:31.154547947,1744366111,144971522,piren,0.019738747690220472,-0.025778905025327925,-0.00044604634300190576,0.01863766461610794,0.00908516813069582,0.018920340528936205
2025/04/11 12:08:31.368851159,1744366111,359090549,piren,0.027785595074203574,-0.031578175287225375,-0.0018153000477226316,0.008725259453058243,0.014791912399232388,0.023327360011547657
2025/04/11 12:08:31.604455424,1744366111,590668280,piren,0.03489990349547198,-0.03156956183188332,0.0022873362797312387,0.015979010611772537,0.007386636454612017,0.018417358204486402
2025/04/11 12:08:31.937581375,1744366111,904062951,piren,0.02398520490681435,-0.033145064279253414,0.002108347409529402,0.015801431611180305,0.013914413750171661,0.02190061430758276
2025/04/11 12:08:32.187600192,1744366112,174272694,piren,0.020940566299866643,-0.03573353247628944,0.0011784991058493455,0.014738638885319233,0.008386652916669846,0.021389183415798266
2025/04/11 12:08:32.407198181,1744366112,395480664,piren,0.012561094706813075,-0.033726152386483674,0.0025671078073658984,0.02316303923726082,0.008844240568578243,0.016681887576945335
2025/04/11 12:08:32.632265667,1744366112,622010579,piren,0.017171422630302833,-0.030332780385379083,0.00244276931013826,0.020247701555490494,0.010311144404113293,0.020269719040304286
2025/04/11 12:08:32.852698241,1744366112,838986209,piren,0.02914154771387587,-0.02901722032245203,-0.0043932574309480735,0.018300820142030716,0.021690882742404938,0.01608834928577174
2025/04/11 12:08:33.50882542,1744366113,43569644,piren,0.01601147785665333,-0.025729315406186063,-0.0077554046104612055,0.019038282334804535,-0.003546574618667364,0.019745944905283846
2025/04/11 12:08:33.269930027,1744366113,258571310,piren,0.009815731152982433,-0.02450381056592922,-0.006577872382019932,0.015570716001093388,0.005552473943680525,0.019085763047070523
2025/04/11 12:08:33.505238262,1744366113,487273877,piren,0.026515515619948273,-0.021936959994585992,-0.0019526236070989268,0.01414632797241211,0.011849511414766312,0.015235269122211789
2025/04/11 12:08:33.738093039,1744366113,722446297,piren,0.03939258109355206,-0.022227069692629848,-0.001731482166726095,0.016989773139357567,0.005847891792654991,0.014736287228316101
2025/04/11 12:08:33.974278961,1744366113,946130705,piren,0.036492967384483016,-0.024794962948018185,-0.0013613162768792916,0.01455758884549141,0.003823082195594907,0.014505912742298429
2025/04/11 12:08:34.189874810,1744366114,177705389,piren,0.018966436181456305,-0.02474774101873159,0.0026648409365353587,0.011068756692111492,0.010893072932958603,0.017421095261630583
2025/04/11 12:08:34.415075334,1744366114,405956567,piren,0.015862450836674046,-0.0251040362565693,0.00342458488719746,0.022365225479006767,0.00096059066709131,0.0136163052874701
2025/04/11 12:08:34.650384541,1744366114,636908593,piren,0.005418172148468761,-0.02874599850410034,-0.00300239275324488,0.006164695601910353,0.002225852571427822,0.013324723288595307
2025/04/11 12:08:34.882714429,1744366114,873508830,piren,0.0008594179696620202,-0.03099220030957976,-0.00608221057629196,0.008514700457453728,0.0066196611151099205,0.012735356812500832
2025/04/11 12:08:35.103018949,1744366115,87923339,piren,-0.0007679220653880352,-0.0289080339989591,-0.008005044807808939,0.018216300755739212,-0.0002916661323979497,0.012310095855610225
2025/04/11 12:08:35.309985067,1744366115,298744379,piren,-0.0010952542277001473,-0.02542607873228894,-0.007590161404205938,0.018989231437444687,-7.347387872869149e-05,0.011919149249030044
2025/04/11 12:08:35.522932614,1744366115,507292131,piren,0.004231624834312924,-0.023530918717657896,-0.008757430368273558,0.019653422757983208,0.0008442199323326349,0.01415752089260435
2025/04/11 12:08:35.744678299,1744366115,729272216,piren,0.008621510249609339,-0.022875073305034577,-0.006345772922184342,0.010697045363485813,-0.002151201944798231,0.01072099482655654
2025/04/11 12:08:35.952416824,1744366115,942946307,piren,0.009536169628751907,-0.021773887912948167,-0.008593525603948346,0.010360831394791603,-0.0006043220055289567,0.010376694015382866
2025/04/11 12:08:36.172090828,1744366116,160073562,piren,0.010272144664880349,-0.021922534388271225,-0.007656797597484409,0.009419872425496578,0.005297883413732052,0.011747056353793039
2025/04/11 12:08:36.376509647,1744366116,365937199,piren,0.006879944936231614,-0.023193036907024147,-0.008131539223968346,0.014302097260951996,-0.0013582260580733418,0.00985489151303242
2025/04/11 12:08:36.601725683,1744366116,577798648,piren,0.0012538718719395266,-0.027288486589343283,-0.0045455910220025845,0.018112147226929665,-3.0455030355369672e-05,0.008826628725657343
2025/04/11 12:08:36.849937670,1744366116,844302924,piren,-0.0008542322684528535,-0.026079130485160334,0.0069681214594846655,0.007843241095542908,0.0014215619303286076,0.008031317537443846
2025/04/11 12:08:37.71650980,1744366117,60847878,piren,-0.0015823680048158702,-0.02393841334618959,0.012271051562731143,0.007725175470113754,-0.006108487024903297,0.009058280703715206
2025/04/11 12:08:37.276764248,1744366117,265870611,piren,-0.003575052309352637,-0.023280495328301086,0.011589302627414665,0.003298734314739704,0.0027616028673946857,0.005496500514891107
2025/04/11 12:08:37.487535701,1744366117,475143256,piren,-0.006451388893309314,-0.023362425443171197,0.013466747157982933,0.016948679462075233,0.008112429641187191,0.005183582479791474
2025/04/11 12:08:37.707464878,1744366117,697698010,piren,-0.010357467510307129,-0.016132062755880233,0.012787544907561794,0.012074735946953297,-0.00933048315346241,0.003231276812774606
2025/04/11 12:08:37.928309458,1744366117,917415892,piren,-0.0065403505538493235,-0.008727844342522915,0.012404212852988547,0.011566149070858955,0.0004519403155427426,0.0021825231942580268
2025/04/11 12:08:38.137581486,1744366118,129097888,piren,-0.004092087002866563,-0.0033555225978376016,0.011868519934098763,0.011835508048534393,0.005167751107364893,0.0006522909748872812
2025/04/11 12:08:38.366000447,1744366118,347946502,piren,-0.012114381090645257,-0.004049610916345271,0.007189214063404268,0.006713705137372017,-3.587193714338355e-05,-0.0011348340314673029
2025/04/11 12:08:38.568447892,1744366118,558171362,piren,-0.016574614040717067,-0.00499233718044005,0.008286232108054077,0.015721581876277924,-0.0012700798688456416,-0.0037088937808626306
2025/04/11 12:08:38.799458839,1744366118,791428634,piren,-0.012689553477243837,-0.006420289673861247,0.006772453428763197,0.010061385110020638,0.006081432569772005,-0.005700168552039577
2025/04/11 12:08:39.19358727,1744366119,8542243,piren,-0.014842581113900518,-0.007101081444428855,0.006344608643582072,0.01022360660135746,-0.0004803668998647481,-0.009796276208620848
2025/04/11 12:08:39.255094527,1744366119,232321499,piren,-0.01933751760374908,-0.004713925594391398,0.004227398089431437,0.00726590259000659,0.000209730991628021,-0.010594426602318092
2025/04/11 12:08:39.511850531,1744366119,501493636,piren,-0.030804720478401746,-0.0030599212502843364,-0.00132228439527513,-0.0005625086487270892,0.006163823418319225,-0.0125847340230211
2025/04/11 12:08:39.722098907,1744366119,713684684,piren,-0.03862889332013433,-0.0023899753101454544,-0.007403498452472094,0.006093005649745464,0.014106088317930698,-0.01837039907869554
2025/04/11 12:08:39.944654673,1744366119,934917216,piren,-0.04532073062998579,0.002993896961934413,-0.009579688958002859,0.00033317322959192097,0.010223105549812317,-0.0165998975694126
2025/04/11 12:08:40.173000207,1744366120,156233660,piren,-0.05616730797892851,0.005822045508630533,-0.009195649520996477,0.0072862873785197735,0.010643580928444862,-0.018463448386129313
2025/04/11 12:08:40.410312358,1744366120,405681881,piren,-0.06739856652022476,0.006472179141124098,-0.009903736269066215,0.009529002010822296,0.003236595308408141,-0.026401799276071135
2025/04/11 12:08:40.625237600,1744366120,615954480,piren,-0.06752620561288997,0.009771437698547124,-0.012289925526123594,0.008651088923215866,0.003352746134623885,-0.03137332055552925
2025/04/11 12:08:40.835185437,1744366120,818708957,piren,-0.07500044328792528,0.008855042491389088,-0.018583581298696878,0.01661037839949131,0.003979794681072235,-0.0271599287513749
2025/04/11 12:08:41.39737171,1744366121,31442379,piren,-0.08329453781403634,0.014947962793385413,-0.018880052108653633,0.008271221071481705,-0.001716918428428471,-0.028459737413367683
2025/04/11 12:08:41.256135037,1744366121,240834421,piren,-0.08933283682995366,0.017208949896366763,-0.013910303502305942,0.010406852699816227,0.007096929010003805,-0.02957155084652993
2025/04/11 12:08:41.482886332,1744366121,464956537,piren,-0.08900810783426108,0.021118283196848765,-0.008722887192507878,0.008535588160157204,0.009329652413725853,-0.03830132351789556
2025/04/11 12:08:41.705777112,1744366121,686368442,piren,-0.09533469747981377,0.02461146791744413,-0.0009640191861598587,0.014048689976334572,-0.008275823667645454,-0.03084902591818315
2025/04/11 12:08:41.893670239,1744366121,881387918,piren,-0.10316184408899017,0.02545137521729145,0.005331424611590043,0.024856973439455032,-0.001137665705755353,-0.03096609503790317
2025/04/11 12:08:42.110059986,1744366122,94773840,piren,-0.1046548987039172,0.028329385272637904,0.009292907409947218,0.011993507854640484,0.01087891310453415,-0.032411645053743846
2025/04/11 12:08:42.331737065,1744366122,323056367,piren,-0.1133183635762529,0.029910254056529226,0.013374665674611595,0.0038341369945555925,0.008895931765437126,-0.04222170563093204
2025/04/11 12:08:42.609046804,1744366122,600905451,piren,-0.12732559479853028,0.028337288931320877,0.01758736631223226,0.013202629052102566,0.01108209602534771,-0.03335274710958477
2025/04/11 12:08:42.833497581,1744366122,816325986,piren,-0.14116719625133503,0.027335133976439517,0.03057537187399122,0.022045304998755455,0.01402198150753975,-0.04274660797776446
2025/04/11 12:08:43.38650944,1744366123,31447812,piren,-0.14374443810768972,0.025362391797559083,0.035767137133040056,0.018908806145191193,0.008643566630780697,-0.03393649183170233
2025/04/11 12:08:43.263331168,1744366123,251096184,piren,-0.1518948855968622,0.02731864421981548,0.03482227879841161,0.01106506772339344,0.003570537082850933,-0.033826193572420164
2025/04/11 12:08:43.483995305,1744366123,468307511,piren,-0.14771264806008777,0.024685247913260672,0.025896651949428202,0.013416684232652187,0.006787050049751997,-0.043408132827224576
2025/04/11 12:08:43.714780681,1744366123,704081021,piren,-0.14384937474411946,0.02566190842301701,0.01663820719960604,0.014102554880082607,-0.0024983040057122707,-0.032684613410814196
2025/04/11 12:08:43.940044902,1744366123,931356095,piren,-0.1379297658020535,0.032061581103701754,0.010774730558287489,0.011401207186281681,-0.0013183259870857,-0.04038850938701949
2025/04/11 12:08:44.169560994,1744366124,149723567,piren,-0.13821518713488884,0.033762566740634166,0.003423667112838,0.01690562814474106,0.0004466162936296314,-0.03226456845914746
2025/04/11 12:08:44.384311221,1744366124,371275491,piren,-0.13194768311161006,0.03127277820147622,0.0026842038755491727,0.02002880722284317,-0.001133185694925487,-0.03919419628740699
2025/04/11 12:08:44.592380521,1744366124,584390846,piren,-0.1318160456871465,0.031792471295992566,-0.0008138444301383519,0.015237848274409771,0.007614658214151859,-0.030186886878222775
2025/04/11 12:08:44.798383434,1744366124,790208891,piren,-0.13455668624320338,0.030775471683251735,-0.015406106283183403,0.016617923974990845,0.004704555030912161,-0.029366613521972944
2025/04/11 12:08:45.15049323,1744366125,988627,piren,-0.14057137334373276,0.031541205380717224,-0.01963230735359833,0.009202234447002411,-0.0024996038991957903,-0.03797165887351627
2025/04/11 12:08:45.231640520,1744366125,218792794,piren,-0.14295003568210146,0.03131022123464699,-0.018879707815825205,0.008503899909555912,0.00568290613591671,-0.03580911226956162
2025/04/11 12:08:45.452481005,1744366125,443519589,piren,-0.14290998379197095,0.03296675660393654,-0.016441013905235648,0.011518414132297039,0.007338149007409811,-0.02863749522276176
2025/04/11 12:08:45.682505749,1744366125,675264934,piren,-0.1477316433135259,0.02794587378448357,-0.011658920287828013,0.008961946703493595,0.0031476186122745275,-0.033411454005175034
2025/04/11 12:08:45.894030084,1744366125,885465286,piren,-0.15229584724102532,0.0245111281496023,-0.00592392606376039,0.013724456541240215,-0.004077999386936426,-0.02357713600782926
2025/04/11 12:08:46.126700859,1744366126,110685342,piren,-0.15737309712079808,0.020728761507502608,0.0012386130676846445,0.0048934416845440865,0.0060995821841061115,-0.02549504239965904
2025/04/11 12:08:46.333675245,1744366126,325516875,piren,-0.15113952510320772,0.02453795971266557,0.010935211417903358,0.010910962708294392,0.0021924893371760845,-0.024915309351633077
2025/04/11 12:08:46.562204891,1744366126,550710561,piren,-0.14311144216923619,0.022049085684655363,0.012355521591980593,0.0062722512520849705,0.0016092050354927778,-0.02295054964691013
2025/04/11 12:08:46.784440639,1744366126,772021893,piren,-0.1327239176009232,0.022032865291466232,0.010230977167010505,0.011768524535000324,0.006883138790726662,-0.03021173656094003
2025/04/11 12:08:47.555994,1744366126,991841028,piren,-0.13586338670823528,0.019020391995572924,0.008416418137038497,0.005184528883546591,0.0094076469540596,-0.024056419864325437
2025/04/11 12:08:47.238009399,1744366127,231025281,piren,-0.1340549135091945,0.020613890082338836,0.00611099676690837,0.007514598313719034,0.007092843763530254,-0.026802820737259963
2025/04/11 12:08:47.472925886,1744366127,457486821,piren,-0.13334073017117104,0.019262408586561225,0.009460380787947493,0.00104046449996531,0.006773257628083229,-0.022527604572845125
2025/04/11 12:08:47.675249316,1744366127,666733750,piren,-0.1382555862291106,0.01759988259063556,0.008814758237629533,-0.000981501187197864,0.007683193776756525,-0.021963253264988863
2025/04/11 12:08:47.901273405,1744366127,895377819,piren,-0.13239298889480527,0.01871781611209762,0.009828944089085821,0.01113022118806839,0.0112491799518466,-0.020950445186194752
2025/04/11 12:08:48.134816325,1744366128,114804020,piren,-0.12791964116481272,0.019508846196795732,0.012110291993903875,0.009438916109502316,0.005812035873532295,-0.026862342617254543
2025/04/11 12:08:48.349145698,1744366128,344256237,piren,-0.12566642938475572,0.014992209447416324,0.011852458707333336,0.007540477905422449,-0.0007117538480088115,-0.022093871490904554
2025/04/11 12:08:48.633128438,1744366128,622710181,piren,-0.10711392087648546,0.008616518479011006,0.012244583730438323,0.005004447884857655,0.005480535794049501,-0.028127739888187033
2025/04/11 12:08:48.865671634,1744366128,851437038,piren,-0.08331558152256534,-0.0020034988527930266,0.003963189357473684,0.005886290222406387,0.0030581075698137283,-0.023875720093275838
2025/04/11 12:08:49.95709660,1744366129,79170169,piren,-0.05614457758995043,-0.01796595915469782,-0.0022850055047781833,0.008973103947937489,0.008232380263507366,-0.03206876859127741
2025/04/11 12:08:49.312567222,1744366129,305487179,piren,-0.03661534679143276,-0.027275330360505615,-0.005582708796351073,0.013560795225203037,0.003661727998405695,-0.027618462098612958
2025/04/11 12:08:49.540871865,1744366129,526437179,piren,-0.019732136052269922,-0.03959464659656702,-0.014778915708001805,-0.0027675980236381292,0.01251986064016819,-0.028856659566142244
2025/04/11 12:08:49.759827602,1744366129,751495105,piren,0.0006384558142832398,-0.05388310734971191,-0.017020067581248192,0.006228117272257805,0.0018677393672987819,-0.030048779163633157
2025/04/11 12:08:49.980736272,1744366129,971574823,piren,0.009947458271960197,-0.06645061123183647,-0.016383325233816057,0.01380384061485529,0.0013920862693339586,-0.04033716949372203
2025/04/11 12:08:50.228080502,1744366130,202034318,piren,0.019338593248029477,-0.07364169186800523,-0.014383164335954848,0.008535861037671566,0.006129194982349873,-0.033278267116116686
2025/04/11 12:08:50.427798456,1744366130,418286458,piren,0.02548158489146914,-0.07482476587261137,-0.014733031356496814,0.01488088071346283,0.005214065779000521,-0.03961602256076042
2025/04/11 12:08:50.658431361,1744366130,650586395,piren,0.032021098571987774,-0.07448749550884813,-0.011892336315855003,0.012520033866167068,0.007533815689384937,-0.030974134323106417
2025/04/11 12:08:50.889243294,1744366130,877476696,piren,0.03434737459196075,-0.0694568082055923,-0.006820300479222005,0.00899567548185587,0.01022303942590952,-0.03909359432717268
2025/04/11 12:08:51.135594045,1744366131,123874457,piren,0.03576947442778845,-0.06465949761304168,-0.0007561118051350953,-0.009453133679926395,0.0043932003900408745,-0.03206944148231906
2025/04/11 12:08:51.392961147,1744366131,380876187,piren,0.03374422807416512,-0.05161143958518927,0.012033852868398132,0.011105233803391457,0.0041760546155273914,-0.033709879940833985
2025/04/11 12:08:51.621581142,1744366131,611806682,piren,0.04594247808922934,-0.04577692580259685,0.019895646056191083,0.016907455399632454,0.002110416069626808,-0.0331445530705994
2025/04/11 12:08:51.860772595,1744366131,851728462,piren,0.04896272985466284,-0.04079187972557675,0.017167713505037402,0.01627945341169834,0.004322174470871687,-0.03227508147864642
2025/04/11 12:08:52.107755948,1744366132,101337934,piren,0.05837776023677666,-0.03905583576595947,0.01585152132579605,0.01876920461654663,0.0011145098833367229,-0.03919132433361903
2025/04/11 12:08:52.365517279,1744366132,350342251,piren,0.0594177258920045,-0.04554558011364485,0.010682040831049493,0.006144136656075716,0.0020267292857170105,-0.03949654313231424
2025/04/11 12:08:52.605823385,1744366132,585003785,piren,0.056262319920291626,-0.046554356212345625,0.0056249661538225046,0.009461908601224422,0.0011249759700149298,-0.03856620764331134
2025/04/11 12:08:52.845413955,1744366132,836904429,piren,0.05400440545854172,-0.051768981480627016,-0.002761871653369478,0.015468736179172993,0.0014511412009596825,-0.029784699905951683
2025/04/11 12:08:53.90482465,1744366133,66214558,piren,0.04715146312626402,-0.05358799311416614,-0.01024089745148541,0.013489486649632454,-0.004063821397721767,-0.02774328872970469
2025/04/11 12:08:53.324571503,1744366133,316659362,piren,0.04659764629043354,-0.04969697888914831,-0.011337981150767156,0.016728511080145836,0.0019587441347539425,-0.024340367765393667
2025/04/11 12:08:53.563101821,1744366133,543195087,piren,0.04985854864846319,-0.04722135090253438,-0.014452266365620638,0.012536250986158848,0.008951427415013313,-0.020968610459405984
2025/04/11 12:08:53.775943211,1744366133,764886987,piren,0.05124604293644795,-0.04023548228258878,-0.013237959512545647,0.016173720359802246,0.009196805767714977,-0.021630427456486336
2025/04/11 12:08:54.16844657,1744366134,7388241,piren,0.05789627966021271,-0.03616365689981372,-0.008766403313162408,0.012145045213401318,0.008294988423585892,-0.015321526965910893
2025/04/11 12:08:54.260425145,1744366134,252589509,piren,0.05521105071408992,-0.035354326768679036,-0.0033149976442297794,0.01264361571520567,0.007979935966432095,-0.01277472237448799
2025/04/11 12:08:54.495840217,1744366134,488332196,piren,0.05362351385174562,-0.039248124684294984,0.0028226659972308745,0.015760226175189018,-0.0032923496328294277,-0.012122424906692575
2025/04/11 12:08:54.790447267,1744366134,775136249,piren,0.04957566372319423,-0.04173256295240431,0.011057519915037043,0.00778368441388011,-0.0037817619740962982,-0.006429617902559088
2025/04/11 12:08:55.43336915,1744366135,28272378,piren,0.044821910370355336,-0.0421163312824646,0.015444195543421097,0.005516023840755224,-0.0028439383022487164,-0.00013120375705882707
2025/04/11 12:08:55.306688221,1744366135,296601966,piren,0.03977487480920182,-0.04471982609218944,0.01441376267490693,0.008426878601312637,0.006280511151999235,0.005706478737535581
2025/04/11 12:08:55.542114435,1744366135,536899239,piren,0.03813242232852886,-0.046854564656196605,0.00598027662042398,0.008703764528036118,0.0027382110711187124,0.012778871885849946
2025/04/11 12:08:55.774199547,1744366135,763909097,piren,0.04090084892420348,-0.045945897314032896,0.0009656515043992413,0.0017132923239842057,0.0024128644727170467,0.015296368420018061
2025/04/11 12:08:56.4413622,1744366135,992961812,piren,0.0410054531002846,-0.04313408827253787,-0.003342522720584048,0.007515907287597656,0.012451537884771824,0.0197861337554705
2025/04/11 12:08:56.272009480,1744366136,250543356,piren,0.03365837743626722,-0.04502815334985066,-0.006682098369140945,0.014910358004271984,0.013250975869596004,0.030084414812821498
2025/04/11 12:08:56.497390402,1744366136,490056017,piren,0.026113806162235163,-0.04648314419178564,-0.007744056817896871,0.008316370658576488,0.01119965873658657,0.03674810701278165
2025/04/11 12:08:56.744277184,1744366136,725529001,piren,0.02587557546175736,-0.04909801351747729,-0.012197732665001591,0.008651969023048878,0.0026994445361196995,0.04343023418965141
2025/04/11 12:08:56.952834776,1744366136,943205256,piren,0.024859395307565205,-0.05006632391715766,-0.013989008082331297,0.017540814355015755,-4.4429016270441934e-06,0.03937155564898248
2025/04/11 12:08:57.193637018,1744366137,171994300,piren,0.02482794551439507,-0.05303944646990134,-0.015448400303334634,0.012213539332151413,0.007222976069897413,0.05465181962911321
2025/04/11 12:08:57.425796812,1744366137,409882918,piren,0.022374055227981807,-0.05801176251476462,-0.0168179611047001,0.005692078731954098,0.007717071566730738,0.04979798299460505
2025/04/11 12:08:57.644683786,1744366137,633950749,piren,0.017238435182283914,-0.058238844941820675,-0.009441275155384411,0.015151293948292732,0.0005637263529933989,0.05374530176906294
2025/04/11 12:08:57.887641117,1744366137,873964622,piren,0.01256526390809349,-0.060165006814684514,-0.0018044511816971013,0.008076115511357784,0.00027464606682769954,0.05870384243297801
2025/04/11 12:08:58.125961160,1744366138,113512978,piren,-5.570465193861888e-05,-0.0574088971691499,0.007722263137197244,0.009622515179216862,0.0028268410824239254,0.0650087152806782
2025/04/11 12:08:58.344123287,1744366138,338212282,piren,0.01563552880862553,-0.05795686005324293,0.00802498703146072,0.010406531393527985,0.000597320671658963,0.06901792210427567
2025/04/11 12:08:58.570866277,1744366138,556336689,piren,0.010831249930739403,-0.0594788135268154,0.012736546988601636,0.006434157490730286,0.00613418547436595,0.09206238641587637
2025/04/11 12:08:58.778363169,1744366138,763204670,piren,0.018198967241958595,-0.06317794341720126,0.01611120637451137,-0.0002906667650677264,0.008245653472840786,0.07863914475797285
2025/04/11 12:08:58.993419957,1744366138,980944831,piren,0.013260294024389323,-0.06832610558165603,0.015137576091334731,0.016106802970170975,0.008240886963903904,0.08125173917371704
2025/04/11 12:08:59.223677082,1744366139,209613110,piren,0.0034887528723078287,-0.06524468684469391,0.009343684972591883,0.00415967870503664,-0.004689485300332308,0.08430857254390774
2025/04/11 12:08:59.458417265,1744366139,449797630,piren,-0.008201890617999577,-0.06302096255948211,0.0033788532542596947,0.00870194099843502,0.0023930231109261513,0.08630047055811749
2025/04/11 12:08:59.689645648,1744366139,680291279,piren,-0.022348650403661956,-0.06461718268909739,0.0006051641604268632,0.010734688490629196,0.0068119727075099945,0.11163073104844914
2025/04/11 12:08:59.905353200,1744366139,896159537,piren,-0.0267849282741667,-0.06319903313216245,-0.00129787283256449,0.01717917062342167,0.004599727690219879,0.09055341153154298
2025/04/11 12:09:00.138428602,1744366140,127447311,piren,-0.02162575938380585,-0.05874074975794544,-0.002755080657620493,0.014590038917958736,0.007072643376886845,0.11421843086474151
2025/04/11 12:09:00.361312983,1744366140,354843400,piren,-0.01922132777384283,-0.05551162568534966,-0.006604733270115015,0.007597118616104126,0.008915320970118046,0.09109238704100069
2025/04/11 12:09:00.598035576,1744366140,578767849,piren,-0.005870814763169746,-0.05895850741175519,-0.009117313062078452,0.014345303177833557,0.006104813423007727,0.11549569682091423
2025/04/11 12:09:00.841940823,1744366140,825637966,piren,-5.970353751372244e-05,-0.06000874668237305,-0.008623301610103695,0.008977912366390228,0.001176386489532888,0.09527966063750654
2025/04/11 12:09:01.124399263,1744366141,107454158,piren,-0.00027554442093155547,-0.058901992376481076,-0.005269546101965881,0.006929138209670782,0.0023279725573956966,0.0950347235844604
2025/04/11 12:09:01.367442016,1744366141,356590966,piren,0.002720819745330389,-0.05318984797174197,-0.0036309072193372142,0.014275668188929558,-0.002159004332497716,0.11530937913567602
2025/04/11 12:09:01.602671502,1744366141,585451815,piren,0.0009975960515796738,-0.04589261111778081,-0.00018434862285917147,0.009622549638152122,0.01240177359431982,0.094669063092398
2025/04/11 12:09:01.837276281,1744366141,829216881,piren,-0.013195705355776473,-0.03268281200436493,0.0040530876703199735,0.01780451461672783,0.0011854927288368344,0.09655341443829385
2025/04/11 12:09:02.79201492,1744366142,66293953,piren,-0.019849965718587083,-0.02509108020630089,0.0026168023691801406,0.012985113076865673,0.002987904706969857,0.09634796987269312
2025/04/11 12:09:02.295330078,1744366142,285543702,piren,-0.016834504971188685,-0.028616016320740244,-0.002769870823127803,0.00813025701791048,0.001993760233744979,0.09357929802562216
2025/04/11 12:09:02.512533662,1744366142,507696472,piren,-0.033770153847246444,-0.04120253064518021,-0.00400528194266545,0.018980054184794426,0.003844981547445059,0.09288586911697981
2025/04/11 12:09:02.742693385,1744366142,731930516,piren,-0.0415688742421017,-0.04869176992522234,-0.003758504289324223,0.019355719909071922,0.006437031552195549,0.09060320770050233
2025/04/11 12:09:02.970848298,1744366142,963580813,piren,-0.04995200364709999,-0.05626759233311173,-0.0011642181458584476,0.003036648500710726,0.00777558283880353,0.09141486028117382
2025/04/11 12:09:03.215278317,1744366143,199541668,piren,-0.04754297245660131,-0.06299236566369946,-0.0025923768907981756,0.010281308554112911,0.006245307624340057,0.08774156320872996
2025/04/11 12:09:03.444054298,1744366143,431925383,piren,-0.05523663785799227,-0.06327663972444879,-0.0008283839629624264,0.011665504425764084,0.009477759711444378,0.10450508459153124
2025/04/11 12:09:03.662777604,1744366143,655169945,piren,-0.05294536558847785,-0.060195501163896596,0.0010246494218022972,0.0168254766613245,0.00596192991361022,0.08526142620354998
2025/04/11 12:09:03.909435860,1744366143,900937639,piren,-0.04020778848826614,-0.054786742346094604,0.0026943128078015972,0.01104362215846777,0.008952300995588303,0.08129442173573959
2025/04/11 12:09:04.135435265,1744366144,128656194,piren,-0.03221682056065351,-0.03939720644580898,0.006866135630435568,0.009883256629109383,0.0036450985353440046,0.09680329298443528
2025/04/11 12:09:04.384419943,1744366144,373657725,piren,-0.027263940632116634,-0.03182619228622392,0.005616545798379761,-0.0028135846368968487,0.003753844415768981,0.07307082182115812
2025/04/11 12:09:04.632031554,1744366144,617633476,piren,-0.015622321821311172,-0.030786785349241737,0.004864824256571535,0.00775268254801631,0.0034671854227781296,0.06900459765998794
2025/04/11 12:09:04.861833589,1744366144,848889508,piren,-0.009757553743912972,-0.029333885486930295,0.007677429662086463,0.005445372778922319,0.007554951589554548,0.06469642976304175
2025/04/11 12:09:05.101377331,1744366145,93972500,piren,-0.01387624272401793,-0.0314581406683516,0.009252013536944813,0.007592838257551193,-0.001870573847554624,0.07470894025630045
2025/04/11 12:09:05.335016767,1744366145,323766397,piren,-0.014087535167636257,-0.039749088261454436,0.005911075326091041,0.011973990127444267,0.0054738265462219715,0.0656852348845127
2025/04/11 12:09:05.559616511,1744366145,550143916,piren,-0.019868950051143457,-0.04655812938500535,-0.0006294240691696424,0.006081465166062117,-0.0038104020059108734,0.04659114656896843
2025/04/11 12:09:05.796932497,1744366145,790961645,piren,-0.036904553887122014,-0.05437577258227279,-0.00803901012304016,0.0051966141909360886,0.007749574724584818,0.04923922362940718
2025/04/11 12:09:06.39089061,1744366146,32096700,piren,-0.04326289940143911,-0.059482385047191604,-0.014219977426584377,-0.00012433399388100952,0.002479664981365204,0.037064180089882694
2025/04/11 12:09:06.293026585,1744366146,280904311,piren,-0.046862558432908076,-0.05981507822364156,-0.012354392221119715,0.01146868895739317,-0.003559396369382739,0.02075725886229563
2025/04/11 12:09:06.522342828,1744366146,512633037,piren,-0.04272167030921864,-0.062113411795725486,-0.008411728089242416,0.002730567706748843,-0.0018021210562437773,0.010530140025452496
2025/04/11 12:09:06.748970140,1744366146,737497762,piren,-0.03794568101957576,-0.056748671023914024,-0.00027871947317245426,0.003642147174105048,-0.00020243905601091683,0.0020265207575622594
2025/04/11 12:09:06.968048418,1744366146,961166258,piren,-0.035145123159000896,-0.05645150861213513,0.0036995480607800012,0.005256341770291328,0.008236137218773365,-0.006431277915910914
2025/04/11 12:09:07.258261953,1744366147,247046567,piren,-0.0345194479858624,-0.04976818640985731,0.005569820943171493,0.009281737729907036,-0.005446998402476311,-0.01465380192797238
2025/04/11 12:09:07.504418615,1744366147,498124980,piren,-0.035716494876290514,-0.04822202435274644,0.004622442112987485,0.006533145904541016,-0.0011988846817985177,-0.027391947083786537
2025/04/11 12:09:07.736431863,1744366147,728136878,piren,-0.029862326257032334,-0.041025294538059774,0.002635605202682752,0.0001832279667723924,0.010992980562150478,-0.03678585298834844
2025/04/11 12:09:07.980156927,1744366147,969463251,piren,-0.030379988709836315,-0.03539831364582036,0.0025806669407418166,0.018486112356185913,0.0035212396178394556,-0.03805216570128637
2025/04/11 12:09:08.210258009,1744366148,200122323,piren,-0.0275251275145082,-0.03606516652717223,0.001105728784896422,0.009258879348635674,0.010676438920199871,-0.04457327321910901
2025/04/11 12:09:08.457256060,1744366148,449370720,piren,-0.025179688409472333,-0.04233097731532769,0.003701481824516294,0.01010899804532528,0.0059103891253471375,-0.06578015702948425
2025/04/11 12:09:08.692496947,1744366148,685047718,piren,-0.023401809365166434,-0.041736762107413845,0.0014615122754593427,0.005494067445397377,0.005811513401567936,-0.07690423699550777
2025/04/11 12:09:08.940785521,1744366148,932526283,piren,-0.020199825387695467,-0.039709632309371815,0.001168601475340297,0.009831622242927551,0.00399426044896245,-0.06988755018297316
2025/04/11 12:09:09.181680259,1744366149,166191613,piren,-0.026203351488295844,-0.038640513933758655,0.0016530810976195087,0.01981784962117672,0.0008199365111067891,-0.07805438224399151
2025/04/11 12:09:09.427996976,1744366149,405120337,piren,-0.01783744952894192,-0.03509222807001246,0.003709846920450527,0.00548357330262661,0.003922175150364637,-0.08397420497945761
2025/04/11 12:09:09.645126972,1744366149,635420458,piren,-0.01735429818583782,-0.03443673403254339,0.0035117350841670602,0.012188486754894257,0.0022119672503322363,-0.08695476418285594
2025/04/11 12:09:09.866368425,1744366149,854634466,piren,-0.008041833960011853,-0.03401968697431333,0.0021389724565157526,0.009645029902458191,-0.00036193709820508957,-0.09442373405527084
2025/04/11 12:09:10.104859320,1744366150,89156656,piren,-0.011869479875520667,-0.034084904550917276,0.0030372083519361903,0.008509906008839607,0.004321040119975805,-0.09753236468996616
2025/04/11 12:09:10.328603441,1744366150,321448137,piren,-0.011616705524265417,-0.029828444533189825,-0.001335167870147027,0.008267761208117008,0.001262587495148182,-0.12447294170094002
2025/04/11 12:09:10.559038987,1744366150,542154350,piren,-0.020488714352508913,-0.022556593722970256,-0.0014944453070494484,0.009496786631643772,-0.0064107496291399,-0.10294792912045607
2025/04/11 12:09:10.776357128,1744366150,767092050,piren,-0.02047789271031881,-0.02636392175635417,-0.005186416148395527,0.013748163357377052,0.008024106733500957,-0.13287268782341166
2025/04/11 12:09:11.34427445,1744366151,8465751,piren,-0.016366303742601576,-0.029531312506169874,-0.003807857306399143,0.011689405888319016,0.005738555919378996,-0.10824683923582737
2025/04/11 12:09:11.261217623,1744366151,253045568,piren,-0.020663599527659896,-0.032925244390324744,-2.6917662072019123e-05,0.004791717045009136,0.0015589920803904533,-0.13686857093219243
2025/04/11 12:09:11.523763959,1744366151,510777550,piren,-0.02101192777946302,-0.035331167374429075,0.003714698877214469,0.009547630324959755,-0.006095916498452425,-0.13507776446405564
2025/04/11 12:09:11.775222563,1744366151,744253582,piren,-0.036000529887382254,-0.03618357342432409,0.0057806659771231375,0.01285611093044281,-0.006586760748177767,-0.10698638552361404
2025/04/11 12:09:12.8437951,1744366151,996825831,piren,-0.029459676604607667,-0.03213687545169876,0.005168826726145323,0.013989944942295551,-0.007284893654286861,-0.13846769482191199
2025/04/11 12:09:12.277128503,1744366152,264824454,piren,-0.030199860868931613,-0.023739859979392625,0.0030087054966023022,0.011456658132374287,-0.014320692978799343,-0.13836367036689157
2025/04/11 12:09:12.555770350,1744366152,542822358,piren,-0.03831108781793398,-0.025043833392947558,-0.0015081164404202696,0.01898937299847603,-0.0018256305484101176,-0.11581666553887472
2025/04/11 12:09:12.790965373,1744366152,782168916,piren,-0.04375787473263338,-0.02411043787874607,-0.0008991815251780264,0.013682466931641102,-0.0038363030180335045,-0.13974897293260266
2025/04/11 12:09:13.36964720,1744366153,22820588,piren,-0.03962933924039013,-0.02602404296827929,0.0004458195798604871,0.020066607743501663,-0.003945209551602602,-0.1117585507739428
2025/04/11 12:09:13.310555423,1744366153,293831917,piren,-0.0437827215924438,-0.025927214218944287,0.002329250403158783,0.013198568485677242,0.0030993064865469933,-0.10999021339335471
2025/04/11 12:09:13.559224865,1744366153,545821230,piren,-0.05000927552720098,-0.020443643513609708,0.003908448932992317,0.01644686423242092,-0.0036039003171026707,-0.13049318547258906
2025/04/11 12:09:13.806936917,1744366153,798607263,piren,-0.04457224399201492,-0.008940238348742519,0.00574767671810956,0.016359731554985046,0.006076113786548376,-0.1267839118723085
2025/04/11 12:09:14.56865513,1744366154,49333805,piren,-0.05672380463513983,-0.004601853908123241,0.0057780240503548935,0.009709748439490795,0.0002761582436505705,-0.12575552385402794
2025/04/11 12:09:14.322888284,1744366154,314105197,piren,-0.05238798394439431,-0.004293988662625499,0.004368445545921409,0.013555208221077919,0.004631496500223875,-0.11791704850957041
2025/04/11 12:09:14.562694907,1744366154,555982277,piren,-0.05389264887635321,-0.011808583626986589,0.006270877629340733,0.010179001837968826,0.010240879841148853,-0.0953717749391238
2025/04/11 12:09:14.804451614,1744366154,795784730,piren,-0.049846872065487706,-0.011298599509860313,0.00855247104822974,0.010967972688376904,0.015762709081172943,-0.09020030133694618
2025/04/11 12:09:15.30192743,1744366155,20728325,piren,-0.015067375061473558,-0.016855694757235952,0.003548078025462588,0.020717112347483635,0.005409024655818939,-0.10809737269423025
2025/04/11 12:09:15.307849304,1744366155,286958904,piren,-0.01175741799164734,-0.025543621916662818,-0.0030185823709011224,0.013350415974855423,0.007945356890559196,-0.08227121097286405
2025/04/11 12:09:15.541858098,1744366155,533387279,piren,-0.019792853780490623,-0.029532813589087478,-0.008261755964386393,0.018043387681245804,0.012580263428390026,-0.07737115016424322
2025/04/11 12:09:15.787564743,1744366155,776477014,piren,-0.027941477442844365,-0.02342347106378202,-0.00188404377254295,0.015526876784861088,0.014267513528466225,-0.07211629921150246
2025/04/11 12:09:16.12920493,1744366156,5736395,piren,-0.037146846685363076,-0.015399237204921376,0.0038197577468819344,0.018488232046365738,0.011107212863862514,-0.06738437670768156
2025/04/11 12:09:16.286924752,1744366156,269453217,piren,-0.03443189028856908,-0.012082467446469937,0.006554374610674099,0.005774514749646187,0.0040625594556331635,-0.06181500074272126
2025/04/11 12:09:16.562170182,1744366156,539345877,piren,-0.03184309027282107,-0.017286132479971923,0.00622004719464654,0.004986549727618694,0.011998430825769901,-0.05599536853368057
2025/04/11 12:09:16.791055179,1744366156,782294999,piren,-0.038883267586618635,-0.02359482951522668,0.006130983721961796,0.025218993425369263,0.008482434786856174,-0.0624858656871137
2025/04/11 12:09:17.35643146,1744366157,26180421,piren,-0.0391584807901893,-0.029799474290668565,0.006576692440211337,0.015657514333724976,0.004720833618193865,-0.04501472039411672
2025/04/11 12:09:17.306438850,1744366157,282951805,piren,-0.030848596667013766,-0.03162076674742156,0.007137986411611663,0.023308860138058662,0.011155682615935802,-0.039181667063109125
2025/04/11 12:09:17.536266703,1744366157,526063833,piren,-0.030872776267486055,-0.033261921918896244,0.006868287881481327,0.017067208886146545,0.005877575371414423,-0.0329693545117717
2025/04/11 12:09:17.783837014,1744366157,775438383,piren,-0.018718799696308727,-0.03868202638757521,0.0035217630989118963,0.009499786421656609,0.009502065367996693,-0.025680403688445264
2025/04/11 12:09:18.94585035,1744366158,69582813,piren,-0.02167278746217615,-0.03797667148536305,-6.017178536956145e-05,0.01623840257525444,0.005395040847361088,-0.017836590644966878
2025/04/11 12:09:18.337931496,1744366158,328763673,piren,-0.022856944281230845,-0.031215185214649416,-0.0001679676342550007,0.022661486640572548,0.01380901038646698,-0.009481217519925348
2025/04/11 12:09:18.590445042,1744366158,579420554,piren,-0.028513758441620803,-0.02880692723976929,-0.0022962372969022016,0.01902521774172783,0.002926511922851205,-0.001965891194025081
2025/04/11 12:09:18.823777485,1744366158,814438843,piren,-0.026979096555228014,-0.02745850912024906,-0.012469876477019585,0.017599867656826973,0.006399380974471569,0.006302773354773171
2025/04/11 12:09:19.75153745,1744366159,64986218,piren,-0.02923725569497719,-0.03091935289139341,-0.017949969689862712,0.018137507140636444,8.751228961045854e-06,0.01402904607087098
2025/04/11 12:09:19.335219925,1744366159,327263609,piren,-0.029108284471767443,-0.03642012201592611,-0.019088250144563442,0.016750292852520943,0.006073803640902042,0.02292443302599633
2025/04/11 12:09:19.572229314,1744366159,563544307,piren,-0.02625780366600104,-0.04188442423839935,-0.014962220966286771,0.008320973254740238,0.0008188084466382861,0.0289099056203502
2025/04/11 12:09:19.812097831,1744366159,803953194,piren,-0.028513656213346304,-0.04524444924812848,-0.00606014700218755,0.007087464910000563,-0.007433321326971054,0.03637610958476278
2025/04/11 12:09:20.49305917,1744366160,41708485,piren,-0.03310521109993674,-0.051034426742822665,0.005192930628731623,0.017936725169420242,0.005197073332965374,0.05463978281611983
2025/04/11 12:09:20.304511731,1744366160,297278528,piren,-0.028351306702301456,-0.0492066269361024,0.00897900872945562,0.015744436532258987,0.000931250920984894,0.06207385257887991
2025/04/11 12:09:20.544192330,1744366160,535397017,piren,-0.02296082241594583,-0.04569054149735887,0.0069532138153671754,0.020409241318702698,0.005537560675293207,0.06752601712057332
2025/04/11 12:09:20.793625068,1744366160,785841173,piren,-0.027081776420135366,-0.044434274966601614,0.007948498886392322,0.01907317154109478,-0.0007733149686828256,0.058699110251935076
2025/04/11 12:09:21.41326360,1744366161,29002029,piren,-0.031081282963750623,-0.04186534623361018,0.00660147888359069,0.020610569044947624,0.003942560404539108,0.06180131781761144
2025/04/11 12:09:21.308175387,1744366161,298582207,piren,-0.04182265236968248,-0.04318208243237307,-0.0014125338377486696,0.018301162868738174,0.005254499148577452,0.066842892352831
2025/04/11 12:09:21.560223215,1744366161,546182975,piren,-0.04441268965918471,-0.04384630986655087,-0.003324010508369418,0.00910532008856535,-0.0032269679941236973,0.0857032351094155
2025/04/11 12:09:21.797392790,1744366161,788771670,piren,-0.042538515253691754,-0.04191806407586197,-0.0008143614087868467,0.0121550178155303,0.005045154131948948,0.08854097665778952
2025/04/11 12:09:22.55735618,1744366162,38134743,piren,-0.04609093966317088,-0.04080180182505513,0.004143776974110151,0.007907466031610966,0.005114741623401642,0.09167304469163884
2025/04/11 12:09:22.305161246,1744366162,297544585,piren,-0.04948804806730135,-0.040665453786194385,0.007176980125855463,0.00472774775698781,-0.009379664435982704,0.07452811306245816
2025/04/11 12:09:22.529090076,1744366162,520953792,piren,-0.03531324541508448,-0.041043111744760975,0.007890599487301631,0.01957366243004799,0.00021557982836384326,0.09010390203311533
2025/04/11 12:09:22.765662769,1744366162,755209286,piren,-0.04484440236098583,-0.040578601664050695,0.003678179072898304,0.014735537581145763,-0.0014644451439380646,0.07300764290311078
2025/04/11 12:09:22.989216005,1744366162,980273656,piren,-0.04609890412342663,-0.041513634623103944,-0.0009753393807126688,0.006749823689460754,-0.0039034488145262003,0.07232263481281528
2025/04/11 12:09:23.240180542,1744366163,221248365,piren,-0.04778054368789002,-0.03826017050305958,-0.0010495413237436605,0.014076829887926579,0.004491105675697327,0.07093219416917511
2025/04/11 12:09:23.476632745,1744366163,465332420,piren,-0.04353641620129173,-0.03463232312554008,-0.006082067841340781,0.012040255591273308,-0.0001634111686144024,0.07201928630092957
2025/04/11 12:09:23.750600421,1744366163,736595863,piren,-0.04706224375937313,-0.03121703178196432,-0.010491009475560123,0.014420855790376663,-0.0018327924190089107,0.07363883787168649
2025/04/11 12:09:23.987653834,1744366163,979582479,piren,-0.05075228094145888,-0.029634682909595048,-0.01211698807795423,0.013753894716501236,-0.0019535862375050783,0.07328821010994743
2025/04/11 12:09:24.264558920,1744366164,252729174,piren,-0.050103518728101,-0.024470951574636243,-0.010554387377127664,0.015990540385246277,-0.0021194149740040302,0.07106407768123545
2025/04/11 12:09:24.525775895,1744366164,512034755,piren,-0.04329755380675539,-0.011504780643595948,-0.005342908239102795,0.012604856863617897,0.007900615222752094,0.08418269274383923
2025/04/11 12:09:24.766185387,1744366164,754239775,piren,-0.04037715346871181,-0.007738112241852276,-0.001986048874249061,0.011342381127178669,0.005216551944613457,0.0673816827348478
2025/04/11 12:09:25.8222850,1744366165,719214,piren,-0.045665657675088005,-0.011550697151046726,0.0027310429274717517,0.01209179311990738,0.0007860644836910069,0.08312312622562087
2025/04/11 12:09:25.302804543,1744366165,294309626,piren,-0.04519445399558619,-0.015045955973922588,0.0059137683700240164,0.012744268402457237,-0.0030232283752411604,0.07937574758771275
2025/04/11 12:09:25.545326839,1744366165,538711127,piren,-0.04074833007564802,-0.022343731767291306,0.00519155357737423,0.006307539995759726,2.130510620190762e-05,0.08056521149816398
2025/04/11 12:09:25.772426023,1744366165,764059774,piren,-0.0477824748303309,-0.021169342197696447,0.007343881542505614,0.011407137848436832,0.006280321627855301,0.0780491217738712
2025/04/11 12:09:26.18933739,1744366166,13808208,piren,-0.05191887246460035,-0.02385432407942801,0.008272941091946049,0.012233734130859375,0.006122560705989599,0.05988891542942101
2025/04/11 12:09:26.280862576,1744366166,269737049,piren,-0.04435237772707393,-0.019509947412701893,0.0074505331669620315,0.025169607251882553,-0.000668389955535531,0.05534432590761688
2025/04/11 12:09:26.529817412,1744366166,524994428,piren,-0.04259624629128386,-0.013365528639221335,0.0033172103088025965,0.010768494568765163,0.004490630701184273,0.05352560208580687
2025/04/11 12:09:26.786761706,1744366166,781583682,piren,-0.04661469856338526,-0.011003104530394202,0.0016691124622328281,0.0076936534605920315,0.0072026969864964485,0.05108978139410798
2025/04/11 12:09:27.23346814,1744366167,18155778,piren,-0.04768474494169986,-0.011888288895543603,-0.0036877804581043638,0.021721532568335533,0.004744436591863632,0.048376397094403806
2025/04/11 12:09:27.271152630,1744366167,261620401,piren,-0.047260068244407934,-0.009810816080760275,-0.005912716333997292,0.013132414780557156,0.0010080857900902629,0.04587278855255165
2025/04/11 12:09:27.515445354,1744366167,508461088,piren,-0.04723886151056438,-0.00035028372233584875,-0.004514417640062298,0.018416613340377808,-0.002652831608429551,0.043879678317982715
2025/04/11 12:09:27.749415508,1744366167,742539301,piren,-0.039253958394915335,0.0067631485768345325,-0.0019066488064576638,0.018629038706421852,-0.0007566484855487943,0.04094909572925111
2025/04/11 12:09:28.7457954,1744366167,996006466,piren,-0.04116929630148381,0.012454758253370527,0.003434811568011933,0.019107742235064507,0.007566987536847591,0.04856232043686864
2025/04/11 12:09:28.258848856,1744366168,251958813,piren,-0.041016597416114,0.01290485124033338,0.004012125913930769,0.011672388762235641,0.008720649406313896,0.04678525789162128
2025/04/11 12:09:28.489666109,1744366168,483081774,piren,-0.03830635370156891,0.007819017812037508,0.002978579479766533,0.020542602986097336,0.006273900158703327,0.04284637700091682
2025/04/11 12:09:28.709800839,1744366168,705304734,piren,-0.038906318541138116,0.001689477118084628,-0.004461494095820454,0.01885947398841381,0.004399042576551437,0.033123990729584815
2025/04/11 12:09:28.975933907,1744366168,964000740,piren,-0.03683979152992493,-0.0022539846957591357,-0.008157586522905878,0.018875611945986748,0.01150221936404705,0.03145741833661884
2025/04/11 12:09:29.218575519,1744366169,213843344,piren,-0.035783152291460105,-0.002015038929050958,-0.01190725787998698,0.01290937140583992,-0.006472484674304724,0.030220628813227558
2025/04/11 12:09:29.435097667,1744366169,428052733,piren,-0.03976458586694161,0.0009512707335608222,-0.011038883430522941,0.007420421577990055,0.0014103016583248973,0.02937083002242032
2025/04/11 12:09:29.670730258,1744366169,663968916,piren,-0.043612613381399115,0.004878274159578436,-0.01050917946457233,0.010793662630021572,-0.0012603608192875981,0.02678481558409841
2025/04/11 12:09:29.893566383,1744366169,884995162,piren,-0.04426240991769025,0.004473294125501646,-0.008024505722195445,0.013612668961286545,0.005566362291574478,0.023671308941690075
2025/04/11 12:09:30.138995073,1744366170,130723564,piren,-0.045829086926898716,0.003331204700274264,-0.00520927116231251,0.016439160332083702,-0.0005459691165015101,0.02139138547812108
2025/04/11 12:09:30.372767584,1744366170,367333173,piren,-0.04214789943042746,0.0006606901727890124,-0.0027544033035970298,0.01666840724647045,-0.0007445377996191382,0.018369627635750223
2025/04/11 12:09:30.598423740,1744366170,589964374,piren,-0.02404730405452789,0.0024462008651887196,-0.0031398109264223558,0.01774716004729271,-0.0035312676336616278,0.015312883554361008
2025/04/11 12:09:30.832212146,1744366170,822481072,piren,-0.021295181585551697,0.004752625285241756,-0.0031781502253538873,0.014865807257592678,0.005917379632592201,0.015556048500012815
2025/04/11 12:09:31.94485706,1744366171,73794655,piren,-0.02145516182270753,0.014470125534857851,-0.0033455738932475026,0.010011055506765842,0.006758765783160925,0.008677691594400058
2025/04/11 12:09:31.334009573,1744366171,330094544,piren,-0.020053160405610462,0.02279346532538695,-0.0022067589274932507,0.0078122313134372234,-4.521114897215739e-05,0.005000211665600665
2025/04/11 12:09:31.577375390,1744366171,571124207,piren,-0.027329860150417027,0.027871573028889332,-0.0011196163968686243,0.0072037759236991405,0.0019637178629636765,0.001184276623120787
2025/04/11 12:09:31.814481628,1744366171,807675761,piren,-0.02425419170643525,0.019688658905708898,0.0007160769389197991,0.013812833465635777,0.007097440771758556,-0.002567825125854544
2025/04/11 12:09:32.60601117,1744366172,54002282,piren,-0.024763502135046182,0.0013401912733665459,0.0005777622667326675,0.011688664555549622,-0.0002893412602134049,-0.006782271510929354
2025/04/11 12:09:32.331345206,1744366172,317268789,piren,-0.019132021373079015,-0.009694937111666859,0.002272510049907989,0.013172443956136703,0.005916337016969919,-0.009856675874444595
2025/04/11 12:09:32.569154454,1744366172,561492781,piren,-0.015638329441869037,-0.014460503113912532,0.0074527155052926935,0.0007261603022925556,0.007760907523334026,-0.012350407823857268
2025/04/11 12:09:32.811708587,1744366172,804199635,piren,-0.01737010296964644,-0.019636248327433055,0.013440957278177764,0.014444570988416672,0.0006339107058010995,-0.01492232990052204
2025/04/11 12:09:33.77270999,1744366173,71175984,piren,-0.028979181082942052,-0.007165987061984116,0.020031670903089847,0.0075316899456083775,0.0015975801507011056,-0.017274238829052123
2025/04/11 12:09:33.310044913,1744366173,305272503,piren,-0.02956766036425989,0.005435004795346255,0.019979516162703003,0.00884443148970604,0.00033373074256815016,-0.019209544046926368
2025/04/11 12:09:33.547877607,1744366173,540103303,piren,-0.029798938053194175,0.013880921123800306,0.01307634107969268,0.020508965477347374,0.007979679852724075,-0.020876671634032246
2025/04/11 12:09:33.785749910,1744366173,775722681,piren,-0.02708719550925079,0.020572863482073624,0.010387223093282003,0.010045689530670643,0.001769805559888482,-0.026400689392259865
2025/04/11 12:09:34.25799932,1744366174,16111093,piren,-0.021224716090100522,0.025088840607930606,0.010945897318601423,0.011010514572262764,0.002503493567928672,-0.02342248618655842
2025/04/11 12:09:34.282035217,1744366174,274261535,piren,-0.010056116875453915,0.01631868496553565,0.007934402546516294,0.006634775549173355,0.0013124076649546623,-0.024185445566081487
2025/04/11 12:09:34.569661278,1744366174,548216893,piren,-0.005003563003158318,0.006665413784695605,-0.0012256247469672786,0.008228839375078678,0.01049121469259262,-0.025907317961020256
2025/04/11 12:09:34.812813804,1744366174,806930139,piren,-0.006981691133825941,-0.0007244669082268198,-0.0018506572785958611,0.010947602801024914,0.007136914879083633,-0.0316188749972489
2025/04/11 12:09:35.74671669,1744366175,64150205,piren,-0.013518630828345776,-0.014335131972649922,-0.005680528438817545,0.007485614158213139,0.0006324168061837554,-0.027103266942788962
