time,header_stamp_secs,header_stamp_nsecs,header_frame_id,wrench_force_x,wrench_force_y,wrench_force_z,wrench_torque_x,wrench_torque_y,wrench_torque_z
2025/04/09 11:15:46.991579875,1744190146,991279386,,0.07896424735665963,2.072139173512496,0.0,0.0,0.0,-0.6127432857422515
2025/04/09 11:15:47.93264869,1744190147,93009479,,0.07817440795744646,2.0514126141558178,0.0,0.0,0.0,-0.6066143247898763
2025/04/09 11:15:47.191192106,1744190147,190894106,,0.0726445634599775,2.0308687216998242,0.0,0.0,0.0,-0.596741806598156
2025/04/09 11:15:47.295861768,1744190147,295504792,,-0.2151176586197583,2.0105304694240838,0.0,0.0,0.0,-0.36113792614351103
2025/04/09 11:15:47.420782179,1744190147,420485396,,-0.15718101464337297,0.00531539551166027,0.0,0.0,0.0,3.2603828552938183
2025/04/09 11:15:47.490451892,1744190147,490118924,,-0.1556096182195501,0.005262255547414441,0.0,0.0,0.0,3.227787608528639
2025/04/09 11:15:47.591766628,1744190147,591558821,,-0.15405190595159413,0.005209578340714671,0.0,0.0,0.0,3.1954762102121967
2025/04/09 11:15:47.692338831,1744190147,692059377,,-0.15251018732827704,0.005157441991619827,0.0,0.0,0.0,3.1634965657331597
2025/04/09 11:15:47.791360715,1744190147,791084765,,-0.15098298159236578,0.005105796425310949,0.0,0.0,0.0,3.1318179599602596
2025/04/09 11:15:47.893069660,1744190147,892777534,,-0.14947254846424274,0.0050547180588296214,0.0,0.0,0.0,3.1004872659437224
2025/04/09 11:15:47.993279742,1744190147,992985248,,-0.09826972986933513,-0.40677376230710127,0.0,0.0,0.0,2.368156485240064
2025/04/09 11:15:48.93381163,1744190148,93059152,,-0.09728885630963946,-0.40271357379579165,0.0,0.0,0.0,2.3445188698249986
2025/04/09 11:15:48.194265923,1744190148,193953176,,-0.09631510116375064,-0.39868285095992206,0.0,0.0,0.0,2.3210527977513484
2025/04/09 11:15:48.293655875,1744190148,293351615,,-0.09535152624941845,-0.3946942677645797,0.0,0.0,0.0,2.2978320543400823
2025/04/09 11:15:48.392716061,1744190148,392363824,,-0.09439716620726224,-0.39074382824002196,0.0,0.0,0.0,2.2748333758447696
2025/04/09 11:15:48.490262810,1744190148,490117723,,-0.1789807072860432,-0.3868426168113448,0.0,0.0,0.0,2.1837004868487666
2025/04/09 11:15:48.615891192,1744190148,615638574,,-0.17718635731736576,-1.7282434661609498,0.0,0.0,0.0,-0.25969431466887216
2025/04/09 11:15:48.692759637,1744190148,691453507,,-0.25412281973006645,-1.7109628609807013,0.0,0.0,0.0,-0.17068199470660206
2025/04/09 11:15:48.791113002,1744190148,790832989,,-0.251580006561108,-1.6938425610441508,0.0,0.0,0.0,-0.16897411021080933
2025/04/09 11:15:48.892469453,1744190148,892152453,,-0.13112731125493826,-1.6769146919037565,0.0,0.0,0.0,-0.07293465167717939
2025/04/09 11:15:48.994878031,1744190148,994536188,,3.8553534062263006,-1.6601237714618353,0.0,0.0,0.0,-0.0722043581567724
2025/04/09 11:15:49.93665548,1744190149,93472014,,7.789259606498344,-1.6435542930883207,0.0,0.0,0.0,-0.07148369589561021
2025/04/09 11:15:49.193372132,1744190149,193082812,,11.685139348594365,-1.6271449808561123,0.0,0.0,0.0,-0.07076999979783416
2025/04/09 11:15:49.292915438,1744190149,292635796,,15.557227631482576,-1.6108358774364069,0.0,0.0,0.0,-0.07006066211785189
2025/04/09 11:15:49.393127712,1744190149,392870236,,19.379645715736988,-1.5947359831945933,0.0,0.0,0.0,-0.06936042364762152
2025/04/09 11:15:49.526349287,1744190149,526066785,,23.157685228303926,-2.577829031062782,0.0,0.0,0.0,1.729542522950319
2025/04/09 11:15:49.706458969,1744190149,706174616,,26.906837630097016,-2.552045725597102,0.0,0.0,0.0,1.7122437329034357
2025/04/09 11:15:49.870802665,1744190149,870592171,,32.8421637632737,-2.8465382355362197,0.0,0.0,0.0,1.0812991787883641
2025/04/09 11:15:49.956413538,1744190149,956202198,,38.847147006892804,-2.799727205591255,0.0,0.0,0.0,1.0635173244623513
2025/04/09 11:15:50.5763358,1744190150,5457747,,41.924454565023,-2.775738473165303,0.0,0.0,0.0,1.0544048536202153
2025/04/09 11:15:50.91139488,1744190150,90867021,,45.14356357206809,-3.7363984112008577,0.0,0.0,0.0,1.070378646055313
2025/04/09 11:15:50.189973685,1744190150,189731839,,48.65411286703038,-3.699225188739833,0.0,0.0,0.0,1.0597295077278694
2025/04/09 11:15:50.291592941,1744190150,291304572,,52.15204943832943,-3.7795106516757793,0.0,0.0,0.0,1.2603038622674658
2025/04/09 11:15:50.392455685,1744190150,392140085,,55.614648474530966,-3.7416705259252803,0.0,0.0,0.0,1.247685811671178
2025/04/09 11:15:50.490929734,1744190150,490767949,,59.02960094238176,-2.8153446907521555,0.0,0.0,0.0,-0.3649701350662564
2025/04/09 11:15:50.592195370,1744190150,591872281,,62.42261519076125,-0.35137635587182636,0.0,0.0,0.0,1.9091495916526933
2025/04/09 11:15:50.691569900,1744190150,691335711,,65.78341033360734,-0.34785733461598056,0.0,0.0,0.0,1.8900295288444058
2025/04/09 11:15:50.794139858,1744190150,793602658,,69.09939494664052,-0.34438523356805817,0.0,0.0,0.0,1.871164399796764
2025/04/09 11:15:50.891582216,1744190150,891269465,,72.38702558027236,-0.37212195748917054,0.0,0.0,0.0,1.9085830257034262
2025/04/09 11:15:50.992208102,1744190150,991889308,,75.64263208355825,-0.36840133589239166,0.0,0.0,0.0,1.889500262427135
2025/04/09 11:15:51.119150811,1744190151,118011036,,78.88814507237821,-0.3646922495188871,0.0,0.0,0.0,1.8704766623657427
2025/04/09 11:15:51.195057807,1744190151,194785227,,82.05890859119708,-0.7864934251731821,0.0,0.0,0.0,2.6176559111829434
2025/04/09 11:15:51.293312765,1744190151,293073107,,85.21638814084808,-0.7895084992075212,0.0,0.0,0.0,2.6110707146778163
2025/04/09 11:15:51.396695408,1744190151,396435571,,88.34420636181777,-0.781613459391485,0.0,0.0,0.0,2.5849601569377025
2025/04/09 11:15:51.492751727,1744190151,492481226,,91.43980158506552,-0.6772786791115823,0.0,0.0,0.0,2.3853806556838384
2025/04/09 11:15:51.592558560,1744190151,592290405,,94.50854350044635,-0.6704989553192249,0.0,0.0,0.0,2.36150241695589
2025/04/09 11:15:51.690934312,1744190151,690671054,,97.5519210573357,-0.6637752686096476,0.0,0.0,0.0,2.337821541259432
2025/04/09 11:15:51.791697230,1744190151,791431382,,100.55992329574669,-0.6571297360410693,0.0,0.0,0.0,2.3144159250416108
2025/04/09 11:15:51.891816579,1744190151,891538484,,103.52784666472598,0.41294995209794294,0.0,0.0,0.0,0.37698130503278815
2025/04/09 11:15:51.990864461,1744190151,990377227,,106.46807912206415,0.40882674778587713,0.0,0.0,0.0,0.37321723886790625
2025/04/09 11:15:52.89762291,1744190152,89490939,,109.380177393779,0.4047429971555072,0.0,0.0,0.0,0.3694891899015822
2025/04/09 11:15:52.190997958,1744190152,190721169,,112.26517553284077,0.4006972501134385,0.0,0.0,0.0,0.3657958343460166
2025/04/09 11:15:52.318017638,1744190152,317737533,,115.14145966098883,0.3966637230736634,0.0,0.0,0.0,0.36211363440963673
2025/04/09 11:15:52.391877265,1744190152,391555356,,117.96656927216907,0.3927019600838708,0.0,0.0,0.0,0.35849694775177543
2025/04/09 11:15:52.491970791,1744190152,491724809,,120.77013234319696,0.38877041265987344,0.0,0.0,0.0,0.35490784483222626
2025/04/09 11:15:52.591883288,1744190152,591624145,,123.55496031990944,0.3848651381999293,0.0,0.0,0.0,0.35134272645664044
2025/04/09 11:15:52.691074834,1744190152,690819796,,126.27916319219173,0.3810448807227029,0.0,0.0,0.0,0.34785521993918866
2025/04/09 11:15:52.793148177,1744190152,792864138,,128.99409507525453,0.3772376243204878,0.0,0.0,0.0,0.3443795820808777
2025/04/09 11:15:52.895071718,1744190152,894748256,,127.70526251988453,0.3734684895314029,0.0,0.0,0.0,0.34093874537798374
2025/04/09 11:15:52.992552414,1744190152,992107892,,130.41329833664685,0.36972677389345954,0.0,0.0,0.0,0.33752293957129
2025/04/09 11:15:53.91729876,1744190153,91343803,,129.11135243161445,0.36603570660667994,0.0,0.0,0.0,0.3341533705577522
2025/04/09 11:15:53.193631995,1744190153,193361418,,131.6120241635321,0.3623630480018605,0.0,0.0,0.0,0.17299947528321447
2025/04/09 11:15:53.290872088,1744190153,290497556,,130.29901167347444,0.3587479739918251,0.0,0.0,0.0,0.17127356556286433
2025/04/09 11:15:53.392561240,1744190153,392279560,,132.97580838160957,0.35516077992939366,0.0,0.0,0.0,0.16956096629545492
2025/04/09 11:15:53.516536720,1744190153,516268810,,131.64408275355532,0.3516039170799168,0.0,0.0,0.0,0.1678628477648818
2025/04/09 11:15:53.591170454,1744190153,590904724,,132.6214625628877,0.34809700184728065,0.0,0.0,0.0,0.2605140625195759
2025/04/09 11:15:53.690653853,1744190153,690367377,,131.29508794299028,0.34461561188527945,0.0,0.0,0.0,0.25790860761073997
2025/04/09 11:15:53.790253223,1744190153,789971181,,133.96018238669464,0.34117198144980776,0.0,0.0,0.0,0.25533141174350416
2025/04/09 11:15:53.891199451,1744190153,890919278,,132.61788941670002,-2.2243474443678135,0.0,0.0,0.0,2.8193833010523717
2025/04/09 11:15:53.992523328,1744190153,992265000,,135.26416596618566,-2.202167205967413,0.0,0.0,0.0,2.791269620378176
2025/04/09 11:15:54.91714503,1744190154,91476144,,133.92031424419764,-2.1800851755879798,0.0,0.0,0.0,2.753282548123636
2025/04/09 11:15:54.191623757,1744190154,191336302,,136.56595032291065,-0.16459772854797272,0.0,0.0,0.0,-0.8628646928355108
2025/04/09 11:15:54.291207070,1744190154,290939914,,135.20177685168417,-0.16295354232016024,0.0,0.0,0.0,-0.854245435103695
2025/04/09 11:15:54.393731256,1744190154,393435326,,137.82517642486664,-0.1613268484702175,0.0,0.0,0.0,-0.8457178770289175
2025/04/09 11:15:54.490201675,1744190154,489905272,,136.4474221622705,-0.15971416232014946,0.0,0.0,0.0,-0.8372637510103242
2025/04/09 11:15:54.591344797,1744190154,591094801,,139.07498696802332,-0.15810966919925384,0.0,0.0,0.0,-0.8288525750109397
2025/04/09 11:15:54.718227280,1744190154,717943841,,137.68923202861924,-0.15653425107528385,0.0,0.0,0.0,-0.8205938178116776
2025/04/09 11:15:54.791771965,1744190154,790281459,,140.2953162461405,-0.1549671186650201,0.0,0.0,0.0,-0.812378496508356
2025/04/09 11:15:54.891525297,1744190154,891229930,,138.88946104757548,-0.15341424195316122,0.0,0.0,0.0,-0.8042379073349197
2025/04/09 11:15:54.991229918,1744190154,990933855,,141.47732686346302,-0.15188201762131115,0.0,0.0,0.0,-0.7962055833829602
2025/04/09 11:15:55.91288425,1744190155,90963047,,140.06742567493802,-0.15036842783341342,0.0,0.0,0.0,-0.7882709466237756
2025/04/09 11:15:55.192674453,1744190155,192351347,,142.64818796283018,0.11201131466969372,0.0,0.0,0.0,-0.31080844955818865
2025/04/09 11:15:55.291289260,1744190155,291011728,,141.59866966359323,0.11089170465609577,0.0,0.0,0.0,-0.5807448563862163
2025/04/09 11:15:55.391700458,1744190155,391433501,,144.1651135291898,0.10978173640910249,0.0,0.0,0.0,-0.5749319026383066
2025/04/09 11:15:55.492371763,1744190155,492002696,,142.7242989996526,1.0628151510266264,0.0,0.0,0.0,1.1482491508274082
2025/04/09 11:15:55.594246856,1744190155,591747755,,145.28041318349642,1.0521730222548786,0.0,0.0,0.0,1.1367515585006815
2025/04/09 11:15:55.690484849,1744190155,690232330,,145.31929894286932,1.0416544377865975,0.0,0.0,0.0,2.3183918706081252
2025/04/09 11:15:55.794588432,1744190155,794327041,,145.8560977624157,1.0312380523525846,0.0,0.0,0.0,0.703232597652744
2025/04/09 11:15:55.916796512,1744190155,916531096,,148.01686375757293,1.0208989805823183,0.0,0.0,0.0,0.9899414280861789
2025/04/09 11:15:55.993287318,1744190155,993032124,,146.90083165676862,1.0107350054100248,0.0,0.0,0.0,1.266173671148782
2025/04/09 11:15:56.92665333,1744190156,92408099,,149.41449698733243,1.0006168932782735,0.0,0.0,0.0,1.253498452506526
2025/04/09 11:15:56.192673384,1744190156,192361103,,148.20398415610592,0.9906034337789844,0.0,0.0,0.0,1.0131777081846103
2025/04/09 11:15:56.291531811,1744190156,291289201,,150.71110760242237,0.9806610610536293,0.0,0.0,0.0,1.0030087646212404
2025/04/09 11:15:56.393238440,1744190156,392635600,,151.72773874744206,0.9708637419657311,0.0,0.0,0.0,2.156120002197632
2025/04/09 11:15:56.492811675,1744190156,492582842,,152.19880300603793,0.9611891633293634,0.0,0.0,0.0,0.5482193216556812
2025/04/09 11:15:56.591523617,1744190156,591235946,,152.66884087236616,0.9515356644342958,0.0,0.0,0.0,2.1416047320510536
2025/04/09 11:15:56.691315955,1744190156,691033724,,153.1308408367707,0.942047245595317,0.0,0.0,0.0,0.5327562368550085
2025/04/09 11:15:56.791162147,1744190156,790894035,,155.57715397191907,0.9326359234071528,0.0,0.0,0.0,0.5274338492399053
2025/04/09 11:15:56.891833000,1744190156,891558761,,156.0114410291229,-1.4819427516179164,0.0,0.0,0.0,4.94988847364161
2025/04/09 11:15:56.997821245,1744190156,996975848,,156.44342525959183,-1.5102775360137635,0.0,0.0,0.0,3.2225682182103155
2025/04/09 11:15:57.120397068,1744190157,120103869,,158.16320754382497,-1.4952531640861597,0.0,0.0,0.0,3.7371046089027784
2025/04/09 11:15:57.190869303,1744190157,190625661,,159.08547559702373,0.5112510137676853,0.0,0.0,0.0,0.30284603929090803
2025/04/09 11:15:57.291344188,1744190157,290493247,,159.10386614323147,1.0371572429975338,0.0,0.0,0.0,0.020546384989245325
2025/04/09 11:15:57.392007454,1744190157,391755567,,159.99719398129955,1.0267887467003582,0.0,0.0,0.0,1.2162809436595232
2025/04/09 11:15:57.493213432,1744190157,492942002,,162.37807093607742,1.0165171969428641,0.0,0.0,0.0,1.2041137960626358
2025/04/09 11:15:57.590984436,1744190157,590746060,,161.94278815704814,1.0063598627854162,0.0,0.0,0.0,0.6764560497683352
2025/04/09 11:15:57.691466505,1744190157,691208767,,164.30927309693175,0.9962710565981716,0.0,0.0,0.0,0.6696745452263837
2025/04/09 11:15:57.792537499,1744190157,792280605,,164.5384844345072,0.9863345550405,0.0,0.0,0.0,2.157380670635513
2025/04/09 11:15:57.891163214,1744190157,890987683,,164.88412465145524,0.9764418708682197,0.0,0.0,0.0,0.5390072721941737
2025/04/09 11:15:57.994001702,1744190157,993808084,,167.2126578456223,0.9666884497205093,0.0,0.0,0.0,0.5336232702538268
2025/04/09 11:15:58.91283076,1744190158,90917626,,168.02991860049968,0.957033951029695,0.0,0.0,0.0,1.7184184166073377
2025/04/09 11:15:58.193242717,1744190158,191584222,,168.33960730499248,0.9474639857258644,0.0,0.0,0.0,0.10929715258393546
2025/04/09 11:15:58.318375954,1744190158,318097831,,170.64308083244538,0.9379610053306653,0.0,0.0,0.0,0.10820091176224444
2025/04/09 11:15:58.391681995,1744190158,391442745,,168.93373457422211,0.9285653701428807,0.0,0.0,0.0,0.10711705402388105
2025/04/09 11:15:58.499270428,1744190158,498077426,,167.24595352947858,0.9192882708442571,0.0,0.0,0.0,0.10604687029886595
2025/04/09 11:15:58.590289883,1744190158,590122520,,165.5806291448368,0.9101346073824814,0.0,0.0,0.0,0.10499092583324465
2025/04/09 11:15:58.690257112,1744190158,690050759,,163.92198994810843,-0.691266725304363,0.0,0.0,0.0,-2.263780779662179
2025/04/09 11:15:58.791883856,1744190158,791637918,,162.28551517167375,-0.6843656343640472,0.0,0.0,0.0,-2.2411808823179227
2025/04/09 11:15:58.905144769,1744190158,904122089,,160.65859118165264,-0.6775048195383082,0.0,0.0,0.0,-2.2187128823885196
2025/04/09 11:15:59.7827321,1744190159,6873121,,159.05433185437275,-0.6707395826591132,0.0,0.0,0.0,-2.19655788395396
2025/04/09 11:15:59.100022516,1744190159,99778701,,157.46623598994248,-0.6640425078613905,0.0,0.0,0.0,-2.1746261047259443
2025/04/09 11:15:59.194057633,1744190159,193882564,,155.889318804896,0.162406956988411,0.0,0.0,0.0,-3.628487860216337
2025/04/09 11:15:59.294383779,1744190159,293854426,,154.3330956876533,3.3654018988323244,0.0,0.0,0.0,-2.208844836350405
2025/04/09 11:15:59.394581578,1744190159,394365886,,152.78754005203024,3.331699368291476,0.0,0.0,0.0,-2.186724547958426
2025/04/09 11:15:59.519115824,1744190159,517108837,,151.26209945813747,3.298435468229286,0.0,0.0,0.0,-2.164892149897801
2025/04/09 11:15:59.591408760,1744190159,591078052,,149.7483691443033,3.1897964422526393,0.0,0.0,0.0,-2.0070924851339207
2025/04/09 11:15:59.691354673,1744190159,691125851,,148.25101898130754,3.944646359016824,0.0,0.0,0.0,-3.4031644163825527
2025/04/09 11:15:59.790725416,1744190159,790552809,,146.76667929302644,3.9051512163381723,0.0,0.0,0.0,-3.3690907753128796
2025/04/09 11:15:59.890829988,1744190159,890599159,,145.30140384675653,3.8661633328564804,0.0,0.0,0.0,-3.3354547619268695
2025/04/09 11:15:59.994654990,1744190159,994423867,,143.07427562651446,2.4644079495694964,0.0,0.0,0.0,-1.4600507797173377
2025/04/09 11:16:00.95296002,1744190160,95041373,,140.14961433089135,2.4398539666225965,0.0,0.0,0.0,-0.24618428462030817
2025/04/09 11:16:00.201126732,1744190160,200841860,,138.75179509406345,2.6544247524117566,0.0,0.0,0.0,-0.6737584666083887
2025/04/09 11:16:00.291918182,1744190160,291752405,,137.36469859513716,2.6278885675772656,0.0,0.0,0.0,-0.6670229284517877
2025/04/09 11:16:00.391665403,1744190160,391383049,,135.9912002955308,2.6016125263815546,0.0,0.0,0.0,-0.6603534211664508
2025/04/09 11:16:00.491937122,1744190160,491663693,,133.90106459147825,2.575457484829979,0.0,0.0,0.0,-1.232084454072215
2025/04/09 11:16:00.591534116,1744190160,591240648,,132.56800914208446,2.441443530873709,0.0,0.0,0.0,-1.0247453471998265
2025/04/09 11:16:00.717903879,1744190160,717420967,,131.24165709272393,2.4170167204272914,0.0,0.0,0.0,-1.0144926995201526
2025/04/09 11:16:00.791267648,1744190160,791003712,,129.31009782513183,2.3926800942706237,0.0,0.0,0.0,-1.0177269316248827
2025/04/09 11:16:00.891901784,1744190160,891658050,,128.02634879778208,2.0998673665238776,0.0,0.0,0.0,-0.5233171203268521
2025/04/09 11:16:01.894619,1744190160,999585122,,123.90447944883996,2.078863656345856,0.0,0.0,0.0,0.17104295990764218
2025/04/09 11:16:01.96420536,1744190161,94970932,,122.66620095126208,2.0580878766767103,0.0,0.0,0.0,0.16933358813708654
2025/04/09 11:16:01.192725215,1744190161,192445461,,121.43997295092527,2.0375142796959302,0.0,0.0,0.0,0.16764085138024942
2025/04/09 11:16:01.292172294,1744190161,291878814,,120.22584943824292,1.750070243832127,0.0,0.0,0.0,0.6466971735238927
2025/04/09 11:16:01.393923227,1744190161,393565069,,118.04508480987342,2.2870842867934726,0.0,0.0,0.0,-1.1404664496655181
2025/04/09 11:16:01.491289097,1744190161,491027193,,116.86487712715628,2.141904088356151,0.0,0.0,0.0,-0.9088988141852425
2025/04/09 11:16:01.592318646,1744190161,591974654,,115.69219494304366,2.1204111229225724,0.0,0.0,0.0,-0.8997784567882352
2025/04/09 11:16:01.692197009,1744190161,691971269,,112.62085872922539,2.0990042070978596,0.0,0.0,0.0,0.6319845865234504
2025/04/09 11:16:01.791585037,1744190161,791303430,,110.00392313159841,1.747298361443704,0.0,0.0,0.0,0.018487089385971878
2025/04/09 11:16:01.921299295,1744190161,921083468,,108.88688199884436,2.018860680403341,0.0,0.0,0.0,-0.5024502871190055
2025/04/09 11:16:01.994023236,1744190161,993740837,,107.81011967102992,1.99889653884782,0.0,0.0,0.0,-0.4974816487409299
2025/04/09 11:16:02.92474711,1744190162,92203789,,106.73755613019338,1.9790102465775359,0.0,0.0,0.0,-0.4925323853479995
2025/04/09 11:16:02.199479983,1744190162,199140646,,105.67125041191181,2.5047323464997326,0.0,0.0,0.0,-1.4694982579701543
2025/04/09 11:16:02.293751658,1744190162,291101071,,103.73302584529843,2.4796807472636893,0.0,0.0,0.0,-2.159866105668006
2025/04/09 11:16:02.392354997,1744190162,392085204,,100.70631197994445,2.1260428003048606,0.0,0.0,0.0,0.04532715045774793
2025/04/09 11:16:02.490783281,1744190162,490522374,,99.69766274264627,-0.40958151981542024,0.0,0.0,0.0,-2.604615352994654
2025/04/09 11:16:02.591512490,1744190162,591230587,,98.06426223744313,-0.4054889603297447,0.0,0.0,0.0,-3.0883629928902536
2025/04/09 11:16:02.691308313,1744190162,691026326,,97.08177350325937,-0.40142643718145266,0.0,0.0,0.0,-3.0574212228880686
2025/04/09 11:16:02.791289776,1744190162,791036362,,96.1123153700524,-0.018034733881417964,0.0,0.0,0.0,-3.7097793383669995
2025/04/09 11:16:02.890160068,1744190162,889971564,,93.16467786357808,-0.017854599555469974,0.0,0.0,0.0,-5.262845010118053
2025/04/09 11:16:02.995049513,1744190162,994530750,,92.20828537241867,0.005073749573130115,0.0,0.0,0.0,-5.249759791366086
2025/04/09 11:16:03.125642781,1744190163,125475850,,89.94291030228138,-0.039305176878142944,0.0,0.0,0.0,-4.025595670522821
2025/04/09 11:16:03.192069525,1744190163,191748645,,89.04360643257408,-0.038912179836493976,0.0,0.0,0.0,-3.985345318914109
2025/04/09 11:16:03.291529116,1744190163,291274970,,88.15376140170778,0.08147872569612957,0.0,0.0,0.0,-4.161521994376482
2025/04/09 11:16:03.393603033,1744190163,393343777,,87.26684625153877,0.08065896809205952,0.0,0.0,0.0,-4.119652914193331
2025/04/09 11:16:03.491826891,1744190163,491620795,,85.3861633868292,0.07985440993135917,0.0,0.0,0.0,-4.257389823205472
2025/04/09 11:16:03.592077917,1744190163,591862274,,84.53452562240106,1.0150272468071844,0.0,0.0,0.0,-5.899671550156793
2025/04/09 11:16:03.690230363,1744190163,689959227,,82.22657145986022,1.0048919397028389,0.0,0.0,0.0,-4.66967760476364
2025/04/09 11:16:03.790665471,1744190163,790378434,,81.4039810973526,2.744127689950357,0.0,0.0,0.0,-3.7048696936150733
2025/04/09 11:16:03.891229358,1744190163,890955898,,78.59997070192732,2.7166867009213043,0.0,0.0,0.0,-5.259804684590579
2025/04/09 11:16:03.994932976,1744190163,994653595,,77.81436153011708,2.333010912616487,0.0,0.0,0.0,-4.565492416660945
2025/04/09 11:16:04.97412797,1744190164,97136115,,77.02258636109975,2.309272105623368,0.0,0.0,0.0,-4.519037707545962
2025/04/09 11:16:04.191586849,1744190164,191393537,,74.6827459203993,2.387931134241084,0.0,0.0,0.0,-3.3907696253862145
2025/04/09 11:16:04.322423659,1744190164,322133959,,73.93367742897601,2.283376339101853,0.0,0.0,0.0,-3.211673290171948
2025/04/09 11:16:04.391535131,1744190164,391244291,,73.19614814391059,2.014110962195655,0.0,0.0,0.0,-2.7359576892610846
2025/04/09 11:16:04.493538607,1744190164,493282384,,70.5608729756832,1.4054529309133628,0.0,0.0,0.0,-3.170089161163105
2025/04/09 11:16:04.591897922,1744190164,591594899,,69.8584730693477,1.3914623159251835,0.0,0.0,0.0,-3.138532432398657
2025/04/09 11:16:04.691134387,1744190164,690911459,,68.69806136786787,1.3589414921709473,0.0,0.0,0.0,-2.7046417360742314
2025/04/09 11:16:04.790697777,1744190164,790452354,,68.01023462051592,1.1940819249047792,0.0,0.0,0.0,-2.405305860046031
2025/04/09 11:16:04.891005049,1744190164,890734247,,66.03609246371765,1.182135878723173,0.0,0.0,0.0,-1.3462485885717683
2025/04/09 11:16:04.992634713,1744190164,992201393,,65.37599667193614,1.1703192661746975,0.0,0.0,0.0,-1.3327915078322263
2025/04/09 11:16:05.93195675,1744190165,92991755,,64.72233708454516,1.285490611099977,0.0,0.0,0.0,-1.547836572331767
2025/04/09 11:16:05.193884253,1744190165,193636471,,64.07575626085799,1.3650270810747287,0.0,0.0,0.0,-1.6986550784446655
2025/04/09 11:16:05.292172526,1744190165,291890069,,61.44455587988451,1.3513745126023924,0.0,0.0,0.0,-3.2739336394630696
2025/04/09 11:16:05.390702099,1744190165,390418109,,60.83029988592243,-2.135568373173493,0.0,0.0,0.0,-4.150814254189399
2025/04/09 11:16:05.517102992,1744190165,516861076,,60.22080241391615,-2.1141707550919335,0.0,0.0,0.0,-4.109224605618859
2025/04/09 11:16:05.592715080,1744190165,592465233,,57.60684218640365,-2.092851639432549,0.0,0.0,0.0,-2.462428461444606
2025/04/09 11:16:05.692298430,1744190165,692079098,,57.03525177443743,-2.0720858087540215,0.0,0.0,0.0,-2.4379955912282414
2025/04/09 11:16:05.791492774,1744190165,791206377,,56.46684571215717,-2.05560192705671,0.0,0.0,0.0,-2.406199566071378
2025/04/09 11:16:05.891415883,1744190165,891137276,,54.836783064810135,-2.034994075477419,0.0,0.0,0.0,-3.2332531939714215
2025/04/09 11:16:05.990557693,1744190165,990286766,,54.28928257048018,-2.0146763215901142,0.0,0.0,0.0,-3.200971801390444
2025/04/09 11:16:06.93405890,1744190166,92959572,,53.74606279010597,-1.9945174250801347,0.0,0.0,0.0,-3.168942805673324
2025/04/09 11:16:06.193331489,1744190166,193079654,,52.33072957668999,-1.8064491120042945,0.0,0.0,0.0,-2.737079827352371
2025/04/09 11:16:06.292376693,1744190166,292114457,,51.80663301005646,-1.631016906878699,0.0,0.0,0.0,-2.9928805907411613
2025/04/09 11:16:06.392691377,1744190166,392431717,,49.29771397529102,-1.6147011925988135,0.0,0.0,0.0,-4.555482865442778
2025/04/09 11:16:06.490751233,1744190166,490477376,,48.72028119051578,-2.384051652875957,0.0,0.0,0.0,-3.028351885214395
2025/04/09 11:16:06.590260277,1744190166,590025841,,47.38806884503674,-2.360228438510397,0.0,0.0,0.0,-2.321799849196635
2025/04/09 11:16:06.716929992,1744190166,716709190,,46.91398750062469,-1.6304140255934847,0.0,0.0,0.0,-3.569735861725582
2025/04/09 11:16:06.791721886,1744190166,791429390,,46.44478319906091,-1.5002049323219833,0.0,0.0,0.0,-2.270211550049453
2025/04/09 11:16:06.890999112,1744190166,890773563,,45.97987405342493,-1.485187982186261,0.0,0.0,0.0,-2.2474868856318633
2025/04/09 11:16:06.992036563,1744190166,991772894,,45.519484874997644,-2.2476745655618995,0.0,0.0,0.0,-0.825739593597401
2025/04/09 11:16:07.92170286,1744190167,91912229,,43.07983649683993,-2.225248804231253,0.0,0.0,0.0,0.7708879155051669
2025/04/09 11:16:07.193649793,1744190167,193389102,,41.2333523431336,-3.092524115758513,0.0,0.0,0.0,1.2334006225298708
2025/04/09 11:16:07.293106102,1744190167,292830716,,40.821671977873365,-3.0616478618231824,0.0,0.0,0.0,1.2210861540246247
2025/04/09 11:16:07.391831382,1744190167,391601979,,40.41465957559059,-3.0311217076798638,0.0,0.0,0.0,1.2089113168642749
2025/04/09 11:16:07.490922025,1744190167,490635070,,40.00987259747913,-3.0007624615740074,0.0,0.0,0.0,1.1968030481346297
2025/04/09 11:16:07.591792450,1744190167,591515012,,39.610452482863124,-2.7474295415021057,0.0,0.0,0.0,1.586932461773423
2025/04/09 11:16:07.690637820,1744190167,690390397,,39.21409240697187,-2.719937520752108,0.0,0.0,0.0,1.5710528988915096
2025/04/09 11:16:07.791223447,1744190167,790991642,,38.82143577175266,-2.6927023751870642,0.0,0.0,0.0,1.5553217087206965
2025/04/09 11:16:07.916161584,1744190167,915977980,,35.44559045926003,-1.9604619304397755,0.0,0.0,0.0,-0.5172253210217086
2025/04/09 11:16:07.991243014,1744190167,990989051,,35.08715029933498,-1.9406369457584933,0.0,0.0,0.0,-0.5119949291906769
2025/04/09 11:16:08.91727677,1744190168,91431891,,34.73918946354057,-1.7261859878899255,0.0,0.0,0.0,-0.15554741825580543
2025/04/09 11:16:08.193655086,1744190168,193368488,,34.3896519126956,-1.7088175106218184,0.0,0.0,0.0,-0.15398233673095696
2025/04/09 11:16:08.296281393,1744190168,295965027,,34.04894436394726,-2.0509565248918413,0.0,0.0,0.0,0.4938669214790421
2025/04/09 11:16:08.393749086,1744190168,393508753,,32.64822936660448,-2.030435732521134,0.0,0.0,0.0,1.3369568821502478
2025/04/09 11:16:08.493307642,1744190168,492964529,,32.32209454821895,-1.8048450391524398,0.0,0.0,0.0,1.6931558453354256
2025/04/09 11:16:08.591902537,1744190168,591646447,,31.998921689348975,-1.7867992738865155,0.0,0.0,0.0,1.6762268058440952
2025/04/09 11:16:08.692141128,1744190168,691874700,,31.67891599351861,1.219765896545061,0.0,0.0,0.0,3.444179345651804
2025/04/09 11:16:08.791600188,1744190168,791335777,,31.36187260491704,1.2075584487516977,0.0,0.0,0.0,3.409709912072687
2025/04/09 11:16:08.894476075,1744190168,894221081,,31.047688897623296,1.1954611102100188,0.0,0.0,0.0,3.3755513873421386
2025/04/09 11:16:08.992019455,1744190168,991755871,,30.143832959912302,1.1835344709843874,0.0,0.0,0.0,2.8665904440012593
2025/04/09 11:16:09.117077029,1744190169,116822085,,27.852686365978503,1.1717006330976236,0.0,0.0,0.0,4.429725502865997
2025/04/09 11:16:09.194824781,1744190169,192775034,,27.57406746363172,1.1599797549035742,0.0,0.0,0.0,4.385413609891332
2025/04/09 11:16:09.294098275,1744190169,293629655,,27.298463137280883,1.1483856932239753,0.0,0.0,0.0,4.34158115879147
2025/04/09 11:16:09.390316840,1744190169,390057899,,26.33227130482124,1.136899684251361,0.0,0.0,0.0,3.743632375542573
2025/04/09 11:16:09.490265211,1744190169,490013421,,26.0690618487459,1.1255355772952989,0.0,0.0,0.0,3.7062121534164163
2025/04/09 11:16:09.593047787,1744190169,592811809,,29.80195273090485,1.1142391212518312,0.0,0.0,0.0,3.669014695136662
2025/04/09 11:16:09.694183966,1744190169,693956723,,29.50364856370647,1.1030860878876716,0.0,0.0,0.0,3.632289505248801
2025/04/09 11:16:09.792496981,1744190169,792238129,,29.208888100782502,0.6341165401064437,0.0,0.0,0.0,2.771692379871311
2025/04/09 11:16:09.892597764,1744190169,892425803,,32.88698308824668,2.6124954600331307,0.0,0.0,0.0,-0.8284165422810528
2025/04/09 11:16:09.990366283,1744190169,990094820,,30.569967555338977,2.586391396407258,0.0,0.0,0.0,-2.4108659491245437
2025/04/09 11:16:10.91699898,1744190170,91432027,,30.2627441567991,-1.4394392607841375,0.0,0.0,0.0,-2.3866371229416767
2025/04/09 11:16:10.192758110,1744190170,192477645,,33.16064412639537,-1.425114137456827,0.0,0.0,0.0,-2.560266806841854
2025/04/09 11:16:10.321642018,1744190170,321373539,,32.82909255356018,-1.4108653541116531,0.0,0.0,0.0,-2.5346683750547445
2025/04/09 11:16:10.395057302,1744190170,394764758,,33.0685834158663,-1.3961622021764644,0.0,0.0,0.0,-2.042961629990307
2025/04/09 11:16:10.490229597,1744190170,490006245,,35.83800855369187,-1.3827742633654836,0.0,0.0,0.0,-2.6073224001582247
2025/04/09 11:16:10.592347816,1744190170,592075828,,33.53167795189087,-1.3689598859215337,0.0,0.0,0.0,-1.0226368506842665
2025/04/09 11:16:10.692252447,1744190170,692036133,,35.10049838662779,-1.3552251610071195,0.0,0.0,0.0,0.5118172631284867
2025/04/09 11:16:10.791522368,1744190170,791298601,,36.737420775320686,-1.3416900471969146,0.0,0.0,0.0,-1.0832812383517254
2025/04/09 11:16:10.892483249,1744190170,892056056,,36.37081419613154,-1.3283011813442158,0.0,0.0,0.0,-1.0724710611343156
2025/04/09 11:16:10.993057650,1744190170,992877761,,37.99698430437731,-1.3150191639426492,0.0,0.0,0.0,0.5301336640016938
2025/04/09 11:16:11.93766312,1744190171,93478630,,39.61221808243675,-1.301826470854147,0.0,0.0,0.0,-1.072330154165531
2025/04/09 11:16:11.194796583,1744190171,194527470,,38.80956699377421,-1.288569722862766,0.0,0.0,0.0,-1.3808282463767068
2025/04/09 11:16:11.292239401,1744190171,291589783,,40.3781660447726,-1.27595193285811,0.0,0.0,0.0,0.1915935897388792
2025/04/09 11:16:11.392085426,1744190171,391351585,,41.96264322554494,-1.2632064193877088,0.0,0.0,0.0,-1.4005727378876607
2025/04/09 11:16:11.516426438,1744190171,516135558,,40.7734500622518,-1.2505372026307597,0.0,0.0,0.0,-2.001191861406353
2025/04/09 11:16:11.591587429,1744190171,591303926,,42.35123996856673,-1.2380672032750368,0.0,0.0,0.0,-0.39373967651746433
2025/04/09 11:16:11.690274832,1744190171,690056265,,43.55650269578769,-1.2256826762146886,0.0,0.0,0.0,-1.6929266520970199
2025/04/09 11:16:11.791435682,1744190171,791118377,,43.12111670070411,-1.213430887420543,0.0,0.0,0.0,-1.6760043440739363
2025/04/09 11:16:11.890678314,1744190171,890447678,,44.6793391479078,-1.201300987546432,0.0,0.0,0.0,-0.06782884345751938
2025/04/09 11:16:11.992983943,1744190171,991495247,,46.09502745907763,0.7932063571055892,0.0,0.0,0.0,-4.034795750449703
2025/04/09 11:16:12.91125349,1744190172,90618289,,43.5042939816485,-1.1977882306473475,0.0,0.0,0.0,-1.892862862137994
2025/04/09 11:16:12.191154100,1744190172,190858420,,45.04154812525496,-1.1858391457206476,0.0,0.0,0.0,-0.27463567405079914
2025/04/09 11:16:12.293765180,1744190172,293537851,,45.87987882610997,0.829748688926335,0.0,0.0,0.0,2.3012278928471606
2025/04/09 11:16:12.393963160,1744190172,393690780,,45.41679363197157,0.8213736813515808,0.0,0.0,0.0,2.2780006177805756
2025/04/09 11:16:12.490430706,1744190172,490168920,,46.932686225552494,0.8132665822125027,0.0,0.0,0.0,3.8268476711712722
2025/04/09 11:16:12.592512761,1744190172,592252194,,48.44987736847378,0.8051525383411366,0.0,0.0,0.0,2.2003121376249446
2025/04/09 11:16:12.717029622,1744190172,716598740,,47.965283180630436,0.14313945743431056,0.0,0.0,0.0,1.0011767372601206
2025/04/09 11:16:12.790634307,1744190172,790277224,,48.3659955667942,0.1417075386676192,0.0,0.0,0.0,3.4718946214271877
2025/04/09 11:16:12.890419673,1744190172,890139251,,49.87184574491234,0.14029092411802857,0.0,0.0,0.0,1.845704688999863
2025/04/09 11:16:12.990552455,1744190172,990269476,,49.37296010879635,0.1388875445984894,0.0,0.0,0.0,1.8272414550027936
2025/04/09 11:16:13.94887196,1744190173,94514913,,50.87652795378767,0.13749189548132712,0.0,0.0,0.0,3.4086442522371208
2025/04/09 11:16:13.194490679,1744190173,194194900,,52.349840020164905,0.13612433053133266,0.0,0.0,0.0,1.791255229656537
2025/04/09 11:16:13.293336402,1744190173,293096681,,51.826216059348056,0.13476276073305016,0.0,0.0,0.0,1.7733383810505998
2025/04/09 11:16:13.393718755,1744190173,393207843,,52.69159766982764,0.13340984260882394,0.0,0.0,0.0,2.864078071380817
2025/04/09 11:16:13.490807858,1744190173,490522594,,54.15361637726117,0.13207671558027556,0.0,0.0,0.0,1.2446173283906212
2025/04/09 11:16:13.592689783,1744190173,592394387,,52.44132078160604,0.13076048417822506,0.0,0.0,0.0,2.170309229683191
2025/04/09 11:16:13.692119452,1744190173,691861840,,53.71002543038488,0.12944720348325056,0.0,0.0,0.0,3.584827251950493
2025/04/09 11:16:13.795178543,1744190173,794834780,,54.88480344519138,0.1281443349644782,0.0,0.0,0.0,1.7163834042954669
2025/04/09 11:16:13.919402398,1744190173,918967270,,54.33921685492918,0.126870506392887,0.0,0.0,0.0,1.6993215636701677
2025/04/09 11:16:13.991450053,1744190173,991201296,,55.5849619056456,2.115064114673805,0.0,0.0,0.0,-0.467506360851905
2025/04/09 11:16:14.92049204,1744190174,91777878,,56.053926506896254,2.093918032133118,0.0,0.0,0.0,-1.2825878391167862
2025/04/09 11:16:14.193626240,1744190174,193361919,,54.43681032860062,2.073071628522081,0.0,0.0,0.0,-2.1170672166749114
2025/04/09 11:16:14.294583406,1744190174,294412870,,56.24470972434611,2.0523181961027763,0.0,0.0,0.0,-3.4010710818669914
2025/04/09 11:16:14.394014228,1744190174,393733619,,55.25303259825178,0.04346505588549299,0.0,0.0,0.0,3.04953341723947
2025/04/09 11:16:14.491838443,1744190174,491581450,,54.700285438936106,0.043030234753686614,0.0,0.0,0.0,3.0190261155701936
2025/04/09 11:16:14.591477291,1744190174,591182373,,54.86734634903249,-0.19817548814561192,0.0,0.0,0.0,1.9823957508920298
2025/04/09 11:16:14.693202242,1744190174,692914980,,56.308499691473635,-0.19619397139769568,0.0,0.0,0.0,3.554382876050129
2025/04/09 11:16:14.791702779,1744190174,791321393,,57.732848202768295,-0.1942355604868773,0.0,0.0,0.0,1.9297663960569515
2025/04/09 11:16:14.892082524,1744190174,891446285,,56.80207726581427,-0.19229831002655473,0.0,0.0,0.0,1.6265515625552265
2025/04/09 11:16:14.990750078,1744190174,990528627,,58.22461453039143,-0.32246442376905726,0.0,0.0,0.0,2.9651426907274807
2025/04/09 11:16:15.119494907,1744190175,119204858,,59.6322227196391,-2.3090342006070923,0.0,0.0,0.0,-2.2379702953039526
2025/04/09 11:16:15.190907672,1744190175,190640129,,57.045384992044575,-2.2859392562818,0.0,0.0,0.0,-3.8079034458227525
2025/04/09 11:16:15.293087667,1744190175,292147548,,56.71119882031528,-2.2629888142833288,0.0,0.0,0.0,-3.578840895594242
2025/04/09 11:16:15.390858297,1744190175,390562896,,59.1558315750662,-1.6965390770268591,0.0,0.0,0.0,-3.758990860413004
2025/04/09 11:16:15.491129666,1744190175,490877675,,58.5641863796038,-1.564565966370294,0.0,0.0,0.0,-3.514386020285455
2025/04/09 11:16:15.591601696,1744190175,591297362,,59.968442728986055,-1.5489214406922382,0.0,0.0,0.0,-5.07112932032028
2025/04/09 11:16:15.694508290,1744190175,694211819,,60.49887918799548,-1.3480187211232284,0.0,0.0,0.0,-3.770737679428535
2025/04/09 11:16:15.792911727,1744190175,792615759,,57.993076011383664,-1.3348006425211523,0.0,0.0,0.0,-2.2037012604260635
2025/04/09 11:16:15.891900455,1744190175,891639858,,58.54823997862239,-1.3215098049581453,0.0,0.0,0.0,-1.2756699015805992
2025/04/09 11:16:15.994673105,1744190175,991590477,,59.95863643525414,0.8399327846833664,0.0,0.0,0.0,-6.18879967179862
2025/04/09 11:16:16.90307251,1744190176,90041434,,60.07712999038321,0.8315718938927645,0.0,0.0,0.0,-5.554926016403957
2025/04/09 11:16:16.191266931,1744190176,190700144,,59.475913802446115,0.8232500169302348,0.0,0.0,0.0,-5.499335620451461
2025/04/09 11:16:16.325305781,1744190176,325075783,,62.86446056370093,1.7317722243108413,0.0,0.0,0.0,-3.79411561501599
2025/04/09 11:16:16.396981300,1744190176,396674473,,62.236654389880954,-0.27286831112410326,0.0,0.0,0.0,-0.17900242336898486
2025/04/09 11:16:16.490947467,1744190176,490735892,,61.587205679226635,-0.2701318953526979,0.0,0.0,0.0,-0.1974621085174455
2025/04/09 11:16:16.590656456,1744190176,590275501,,60.51581493995897,-0.2674373221225892,0.0,0.0,0.0,-0.5611377271155611
2025/04/09 11:16:16.693456790,1744190176,693209772,,61.90022294451683,-0.2647637867343917,0.0,0.0,0.0,-2.147029362823366
2025/04/09 11:16:16.793870541,1744190176,793595151,,62.79488959129209,-0.2621164354527572,0.0,0.0,0.0,-0.914679893855812
2025/04/09 11:16:16.894019454,1744190176,893711523,,62.16645322436965,-0.2594932363122098,0.0,0.0,0.0,-0.905525994340536
2025/04/09 11:16:16.990821791,1744190176,990579969,,60.919561455559815,-0.2569010657369972,0.0,0.0,0.0,-0.39576927234578463
2025/04/09 11:16:17.91875592,1744190177,91572766,,62.43974685036761,-0.2543198871571981,0.0,0.0,0.0,1.1014748038594444
2025/04/09 11:16:17.194328851,1744190177,194032696,,63.79956894550449,-0.2517874533500475,0.0,0.0,0.0,-0.4947545695766724
2025/04/09 11:16:17.292538392,1744190177,292305580,,63.161482598474095,-0.2492692210329377,0.0,0.0,0.0,-0.48980632084717257
2025/04/09 11:16:17.391048051,1744190177,390721126,,62.52980512758627,-0.24677628159208886,0.0,0.0,0.0,-0.48490777183836364
2025/04/09 11:16:17.520260589,1744190177,520026059,,63.87707279287068,-0.244308768241023,0.0,0.0,0.0,1.0979428200948522
2025/04/09 11:16:17.594463880,1744190177,593344762,,63.238454968930526,-0.24186626536601707,0.0,0.0,0.0,-2.0962718186807354
2025/04/09 11:16:17.692906972,1744190177,692678967,,62.60615394705431,-0.23944792217873534,0.0,0.0,0.0,-2.0753118693313652
2025/04/09 11:16:17.792229221,1744190177,792005110,,60.797682574698236,0.08915608950386478,0.0,0.0,0.0,-0.5217812596015001
2025/04/09 11:16:17.892671745,1744190177,892360189,,62.18506869097551,2.0859832654850443,0.0,0.0,0.0,-2.5142653958585495
2025/04/09 11:16:17.994667659,1744190177,993542404,,63.552916602458886,2.06512802822561,0.0,0.0,0.0,-4.080777565158433
2025/04/09 11:16:18.91592306,1744190178,91357620,,62.920085133423335,2.0445644085884,0.0,0.0,0.0,-4.040143010531764
2025/04/09 11:16:18.193270799,1744190178,193040415,,62.290721367783284,1.5602668299146565,0.0,0.0,0.0,-4.834655072932259
2025/04/09 11:16:18.293710775,1744190178,293501890,,63.65756187629806,-0.3531270523489596,0.0,0.0,0.0,0.5520373912833989
2025/04/09 11:16:18.391750506,1744190178,391463332,,65.0115561130957,-0.3495942949938673,0.0,0.0,0.0,-1.046155614126901
2025/04/09 11:16:18.491370287,1744190178,491048239,,64.3619681706996,0.10033610360321177,0.0,0.0,0.0,-0.23211542117007333
2025/04/09 11:16:18.590477320,1744190178,590232586,,63.30015284153225,0.09933243732256969,0.0,0.0,0.0,0.1046063144878282
2025/04/09 11:16:18.716331101,1744190178,716119865,,64.81274292488781,0.09833717191536806,0.0,0.0,0.0,1.5763171565055956
2025/04/09 11:16:18.791958240,1744190178,791723599,,66.15241631502367,0.09735541183361818,0.0,0.0,0.0,-0.02881106918015952
2025/04/09 11:16:18.894074323,1744190178,893914036,,62.794597634268484,0.09638138281128761,0.0,0.0,0.0,-1.0572985286380199
2025/04/09 11:16:18.993940986,1744190178,991205068,,62.16702205033071,-0.33850305658074475,0.0,0.0,0.0,-1.8277899291221456
2025/04/09 11:16:19.91126720,1744190179,90273554,,63.53518414491313,-0.3351184408407857,0.0,0.0,0.0,-0.2177093647976438
2025/04/09 11:16:19.190700880,1744190179,190454398,,64.755557424555,1.626641729939383,0.0,0.0,0.0,-5.199514739184604
2025/04/09 11:16:19.292511474,1744190179,292239314,,64.10761340688121,-1.220860214682201,0.0,0.0,0.0,-5.932682225428291
2025/04/09 11:16:19.392401966,1744190179,392006904,,62.55319390143325,-1.2086086905041498,0.0,0.0,0.0,-5.144275205090642
2025/04/09 11:16:19.491054232,1744190179,490791951,,62.698653155989916,-1.1965775662393057,0.0,0.0,0.0,-4.478549172259125
2025/04/09 11:16:19.591612959,1744190179,591356558,,63.31470827033028,-1.1845659564762379,0.0,0.0,0.0,-5.429946753302753
2025/04/09 11:16:19.689990651,1744190179,689688092,,64.60987532214335,-1.172760864084001,0.0,0.0,0.0,-3.83491657745234
2025/04/09 11:16:19.793136417,1744190179,792840374,,63.96394200997267,-1.0101490893025868,0.0,0.0,0.0,-3.524980326990322
2025/04/09 11:16:19.917921227,1744190179,917657883,,65.31442364346802,-1.0000466928575094,0.0,0.0,0.0,-5.08187007919231
2025/04/09 11:16:19.995221045,1744190179,994688755,,64.6581375655945,-0.9899981203503359,0.0,0.0,0.0,-5.030806923514149
2025/04/09 11:16:20.93303514,1744190180,93021927,,63.70890293851231,0.9693702327750806,0.0,0.0,0.0,0.8221359042055454
2025/04/09 11:16:20.191887473,1744190180,191661636,,62.900977646047465,0.9596813006789588,0.0,0.0,0.0,0.6769987732536507
2025/04/09 11:16:20.291424262,1744190180,291181401,,63.80247884881102,-1.039775350464737,0.0,0.0,0.0,3.02760466855516
2025/04/09 11:16:20.392772202,1744190180,392501990,,63.84718998721242,-1.0293544032712738,0.0,0.0,0.0,3.5445883933409164
2025/04/09 11:16:20.490563837,1744190180,490349475,,63.2097796944698,-1.0190779746350778,0.0,0.0,0.0,3.5092014463835888
2025/04/09 11:16:20.590341351,1744190180,590146847,,62.57773675372964,-1.0088880792890578,0.0,0.0,0.0,3.4741124773578704
2025/04/09 11:16:20.692248064,1744190180,691981530,,64.53186763471402,-0.9987754429966316,0.0,0.0,0.0,2.3128978083688754
2025/04/09 11:16:20.793435524,1744190180,793218136,,63.88499870569495,-0.9887636949282346,0.0,0.0,0.0,2.289713267411546
2025/04/09 11:16:20.892155568,1744190180,891877063,,64.43300134285266,-0.9789281894418842,0.0,0.0,0.0,3.213724344448549
2025/04/09 11:16:20.994289560,1744190180,993985955,,63.78611109439973,-0.9691000099921006,0.0,0.0,0.0,3.1814594041801687
2025/04/09 11:16:21.123707841,1744190181,120631073,,63.158096649702806,-0.9592638032995531,0.0,0.0,0.0,3.1336447861102315
2025/04/09 11:16:21.191197969,1744190181,190963911,,62.53811852357988,-0.9498473926289464,0.0,0.0,0.0,3.1028840234291977
2025/04/09 11:16:21.293590081,1744190181,293351763,,63.90325009069872,-0.940345349673116,0.0,0.0,0.0,1.4792453338725426
2025/04/09 11:16:21.393598647,1744190181,392012605,,65.10219498528534,1.057464035976249,0.0,0.0,0.0,-0.6447051681721785
2025/04/09 11:16:21.491987838,1744190181,490819540,,64.05115040268419,1.0468877417153664,0.0,0.0,0.0,-0.3217408642269035
2025/04/09 11:16:21.590686517,1744190181,590445963,,61.744775719037776,1.0364182752481454,0.0,0.0,0.0,-1.6511849866287562
2025/04/09 11:16:21.691695408,1744190181,691416144,,61.1269561068186,1.0260478507149955,0.0,0.0,0.0,-1.6346631925779835
2025/04/09 11:16:21.791981919,1744190181,791702771,,61.27864583710909,1.0157865747177226,0.0,0.0,0.0,-2.228720731681717
2025/04/09 11:16:21.896710643,1744190181,896415603,,62.66666745581974,1.0055489922144538,0.0,0.0,0.0,-0.6017649439005339
2025/04/09 11:16:21.992878089,1744190181,992245317,,62.04514553001408,0.9955760549017505,0.0,0.0,0.0,-0.595796697590341
2025/04/09 11:16:22.93597679,1744190182,91302789,,61.42276273778643,-1.010605153876515,0.0,0.0,0.0,3.0033298397173276
2025/04/09 11:16:22.193322598,1744190182,193054887,,60.81081142472435,-1.0005365551463967,0.0,0.0,0.0,2.9734078440750995
2025/04/09 11:16:22.320385839,1744190182,320138400,,61.546362998204664,-1.5577753063188524,0.0,0.0,0.0,0.844968650976492
2025/04/09 11:16:22.391486428,1744190182,391214806,,62.91804038249054,-1.5422299544163138,0.0,0.0,0.0,2.425225237322749
2025/04/09 11:16:22.491896443,1744190182,490247319,,62.290552672298894,-1.5268491457197513,0.0,0.0,0.0,2.401038231153846
2025/04/09 11:16:22.593167093,1744190182,592896280,,61.96647571084553,-1.5115796859448736,0.0,0.0,0.0,2.137931870497038
2025/04/09 11:16:22.691292125,1744190182,691033078,,58.17146501734503,-0.3323259158885037,0.0,0.0,0.0,3.568032316080302
2025/04/09 11:16:22.793316308,1744190182,792875754,,57.5881850939959,-0.32899371453018134,0.0,0.0,0.0,3.532255984588385
2025/04/09 11:16:22.892088703,1744190182,891828661,,59.08758925260551,-1.2869596136550534,0.0,0.0,0.0,3.2828512757795387
2025/04/09 11:16:22.990867635,1744190182,990579524,,60.28476611345631,-1.0745826912821386,0.0,0.0,0.0,1.4608438979209666
2025/04/09 11:16:23.96919115,1744190183,96173368,,59.681473463985455,-1.0638289324025045,0.0,0.0,0.0,1.4462246758113242
2025/04/09 11:16:23.191960367,1744190183,191356951,,59.082503578939026,-0.44526930730506464,0.0,0.0,0.0,0.3375209486524593
2025/04/09 11:16:23.293751482,1744190183,291479936,,58.49162276113809,-0.4408161938365289,0.0,0.0,0.0,0.33414542049971985
2025/04/09 11:16:23.393637983,1744190183,393345505,,57.90881425482305,-0.43642391652635126,0.0,0.0,0.0,0.3308160070859607
2025/04/09 11:16:23.518756226,1744190183,518539360,,61.32237198184669,-0.4320434494782184,0.0,0.0,0.0,0.32749554603156383
2025/04/09 11:16:23.590655744,1744190183,590347206,,60.71124687321003,-0.42773780063481937,0.0,0.0,0.0,0.3242317983212466
2025/04/09 11:16:23.692279248,1744190183,692019877,,60.104466453848524,-2.005774234062226,0.0,0.0,0.0,3.169151903262442
2025/04/09 11:16:23.790884865,1744190183,790625143,,59.50177297703745,-0.3192845488458076,0.0,0.0,0.0,0.13789499139108585
2025/04/09 11:16:23.896050492,1744190183,895817025,,58.906147221241824,-0.3160884407097768,0.0,0.0,0.0,0.13651463238061012
2025/04/09 11:16:23.993568830,1744190183,993273744,,56.01176929907781,-0.3129322618658037,0.0,0.0,0.0,0.47114359981041254
2025/04/09 11:16:24.92671703,1744190184,92363795,,55.452884737204165,-2.295428729882506,0.0,0.0,0.0,-3.107671485946982
2025/04/09 11:16:24.192864089,1744190184,192620855,,56.615220554161866,-2.2724537228333404,0.0,0.0,0.0,-3.081118474016918
2025/04/09 11:16:24.295005469,1744190184,294775720,,56.04952917445207,-2.2497476824927176,0.0,0.0,0.0,-3.050332368380394
2025/04/09 11:16:24.392542485,1744190184,392239729,,55.48901303603894,-1.619375304289452,0.0,0.0,0.0,-1.9256545938560237
2025/04/09 11:16:24.490502023,1744190184,490274534,,58.913376524295415,-1.603185080101472,0.0,0.0,0.0,-1.9064022441996062
2025/04/09 11:16:24.592347480,1744190184,592059087,,58.32397223225425,-1.5871458675678198,0.0,0.0,0.0,-1.8873294676694012
2025/04/09 11:16:24.716461625,1744190184,716289106,,57.73868061160898,-1.5712185714411113,0.0,0.0,0.0,-1.8683897747687652
2025/04/09 11:16:24.790493465,1744190184,790335687,,57.16354096311976,-1.5555675366875263,0.0,0.0,0.0,-1.849778593721343
2025/04/09 11:16:24.897598140,1744190184,897198660,,56.58855612726026,0.23414721359690915,0.0,0.0,0.0,-5.024494693407624
2025/04/09 11:16:24.992079868,1744190184,991684661,,56.025729688363214,0.23181839923186232,0.0,0.0,0.0,-4.974521365776008
2025/04/09 11:16:25.93945042,1744190185,92924380,,57.40037410027331,-1.7927032692007714,0.0,0.0,0.0,-2.964372788197787
2025/04/09 11:16:25.192567849,1744190185,191595191,,56.13898361915213,-1.5889024520473,0.0,0.0,0.0,-2.043089372527705
2025/04/09 11:16:25.293850851,1744190185,293663954,,55.578247485686965,-1.5730319292843902,0.0,0.0,0.0,-2.022682269277553
2025/04/09 11:16:25.396265747,1744190185,396066601,,55.022225699814584,-1.5572948367684738,0.0,0.0,0.0,-2.0024467372394827
2025/04/09 11:16:25.493820586,1744190185,493530859,,54.47238571068661,-1.2182184453396196,0.0,0.0,0.0,-1.4001105095911797
2025/04/09 11:16:25.590562983,1744190185,590139197,,53.92751561738345,-1.2060329904652676,0.0,0.0,0.0,-1.3861056457681098
2025/04/09 11:16:25.692564258,1744190185,692310259,,56.942548584046015,-1.1939409275720614,0.0,0.0,0.0,-1.6732188656396474
2025/04/09 11:16:25.790854047,1744190185,790581468,,54.38958160940123,-1.1820316464672551,0.0,0.0,0.0,-0.06854618756825559
2025/04/09 11:16:25.928545583,1744190185,928256806,,53.83655979482132,-1.1700129975518294,0.0,0.0,0.0,-0.06784922436483143
2025/04/09 11:16:25.992606193,1744190185,992293912,,53.30687930167704,-0.2437084409305328,0.0,0.0,0.0,1.5794460413286622
2025/04/09 11:16:26.93012734,1744190186,92753360,,52.7741173123794,-0.24127275916676183,0.0,0.0,0.0,1.5636606712978196
2025/04/09 11:16:26.191384916,1744190186,191105941,,53.9276010050762,-0.23886014317147186,0.0,0.0,0.0,2.892985152708226
2025/04/09 11:16:26.290988716,1744190186,290717777,,53.65365309781383,-0.2364719483534472,0.0,0.0,0.0,2.6518711848416316
2025/04/09 11:16:26.393337270,1744190186,392966640,,53.54213826253056,-0.23409770302238542,0.0,0.0,0.0,1.9616039648463968
2025/04/09 11:16:26.493399022,1744190186,493131908,,53.00674802758013,1.0583270017947726,0.0,0.0,0.0,-0.38016188880419755
2025/04/09 11:16:26.593894627,1744190186,593584888,,51.749963834520265,-1.8305828949845804,0.0,0.0,0.0,-0.37717232719279536
2025/04/09 11:16:26.692435280,1744190186,692184920,,51.23713714818395,-1.8124423652037152,0.0,0.0,0.0,-0.3734346620738336
2025/04/09 11:16:26.791543331,1744190186,791345415,,52.61279972392913,-1.7942486035871603,0.0,0.0,0.0,1.1423092574675575
2025/04/09 11:16:26.894339761,1744190186,894129847,,52.24469977285069,-1.7763138775204403,0.0,0.0,0.0,1.0046507049786353
2025/04/09 11:16:26.991735918,1744190186,991375521,,51.72549732264158,-1.7586131381532724,0.0,0.0,0.0,0.9935120781338753
2025/04/09 11:16:27.121588278,1744190187,121319252,,51.20623020815331,-1.740958596060544,0.0,0.0,0.0,0.9835383093597638
2025/04/09 11:16:27.192317743,1744190187,192013298,,50.69287429164782,-1.6149130644255045,0.0,0.0,0.0,1.1691436147342706
2025/04/09 11:16:27.290786314,1744190187,290530319,,50.353861895682485,-1.598867058951761,0.0,0.0,0.0,1.0257834779967805
2025/04/09 11:16:27.391545009,1744190187,391332575,,50.623830842484395,-0.9308641702316081,0.0,0.0,0.0,1.5696945439853085
2025/04/09 11:16:27.491179016,1744190187,490992712,,52.10354060877818,-0.921580949000024,0.0,0.0,0.0,3.1416929570156817
2025/04/09 11:16:27.591520561,1744190187,589811715,,51.58020630370143,-0.9123244777529322,0.0,0.0,0.0,3.1101374104786412
2025/04/09 11:16:27.691310901,1744190187,691029154,,48.87280552814956,1.0613088530879153,0.0,0.0,0.0,-1.0895678285786587
2025/04/09 11:16:27.793704892,1744190187,793481440,,48.38194675434626,0.2349146912913831,0.0,0.0,0.0,-2.546947293830595
2025/04/09 11:16:27.895855833,1744190187,895678481,,47.89929856644143,0.23257123143352132,0.0,0.0,0.0,-2.5215394799966813
2025/04/09 11:16:27.998946252,1744190187,997102759,,47.421205940097416,0.2302498907422006,0.0,0.0,0.0,-2.4963714823745633
2025/04/09 11:16:28.91983923,1744190188,91733922,,46.94494001519907,0.2279374194543422,0.0,0.0,0.0,-2.4712996469082693
2025/04/09 11:16:28.191105112,1744190188,190825108,,50.155161211002266,0.22565932996414872,0.0,0.0,0.0,-2.6852812049568
2025/04/09 11:16:28.322657667,1744190188,320822455,,49.65491946969776,0.3801191772531105,0.0,0.0,0.0,-2.3764195377734296
2025/04/09 11:16:28.395368361,1744190188,395074388,,49.14943137989571,-1.6495744898349862,0.0,0.0,0.0,1.2942557444821752
2025/04/09 11:16:28.491734567,1744190188,491576708,,48.6678581101087,-1.63341171930999,0.0,0.0,0.0,1.2815744386498977
2025/04/09 11:16:28.591354728,1744190188,591124791,,48.179750463922,0.3788137235922946,0.0,0.0,0.0,4.861239115637753
2025/04/09 11:16:28.691493031,1744190188,691187721,,47.406835097560396,0.3750312347333775,0.0,0.0,0.0,4.579230204606839
2025/04/09 11:16:28.791093475,1744190188,790815285,,48.26356669260919,0.3712844667734174,0.0,0.0,0.0,5.597762707004756
2025/04/09 11:16:28.893569327,1744190188,893366393,,48.44192066698293,2.3737562739145766,0.0,0.0,0.0,1.0317917348145969
2025/04/09 11:16:28.998941999,1744190188,998026780,,45.982040126782955,2.350158183301474,0.0,0.0,0.0,2.6041805060505627
2025/04/09 11:16:29.96740615,1744190189,96476749,,44.9624808152262,2.3266945576383833,0.0,0.0,0.0,2.1297955260949006
2025/04/09 11:16:29.191395824,1744190189,191186446,,44.51207817179831,0.309944730287782,0.0,0.0,0.0,-1.4797360092697733
2025/04/09 11:16:29.294582824,1744190189,294183579,,46.078668968943816,0.30684645350676476,0.0,0.0,0.0,-2.812951004026649
2025/04/09 11:16:29.393301466,1744190189,391529909,,46.24349720051903,-1.3877226887736533,0.0,0.0,0.0,0.7598489339406509
2025/04/09 11:16:29.519127442,1744190189,518856584,,45.27656568573701,-1.3737759947572243,0.0,0.0,0.0,0.35046707266911525
2025/04/09 11:16:29.591187747,1744190189,590892131,,44.972613501823886,-1.360115545869082,0.0,0.0,0.0,0.4639945044451128
2025/04/09 11:16:29.691519818,1744190189,689790226,,44.631631906496324,-1.3465081124112324,0.0,0.0,0.0,0.5465141165396936
2025/04/09 11:16:29.789950295,1744190189,789709959,,46.08774469329844,-1.3329719354183993,0.0,0.0,0.0,2.064848650531152
2025/04/09 11:16:29.892068188,1744190189,891847231,,44.50770850606945,-1.3197063618808862,0.0,0.0,0.0,1.1471982547445236
2025/04/09 11:16:29.995814777,1744190189,994066858,,45.258515811107614,-1.3064472948079455,0.0,0.0,0.0,0.17729198539716506
2025/04/09 11:16:30.94944010,1744190190,93910099,,44.80800501314772,-1.293442701026457,0.0,0.0,0.0,0.17552719147094464
2025/04/09 11:16:30.193769261,1744190190,193500192,,43.46575096701135,-1.280481303033973,0.0,0.0,0.0,0.8883599838473462
2025/04/09 11:16:30.293394318,1744190190,293100424,,43.03091459122622,0.7231476851413525,0.0,0.0,0.0,-2.704001302180137
2025/04/09 11:16:30.391573058,1744190190,391327641,,42.60220323952211,0.7159430597104581,0.0,0.0,0.0,-2.6770616922676
2025/04/09 11:16:30.490707154,1744190190,490542441,,44.30662094784669,0.7087781225208154,0.0,0.0,0.0,-4.132105493021987
2025/04/09 11:16:30.591255966,1744190190,591035934,,44.65896448388084,0.7016630906337475,0.0,0.0,0.0,-3.4529349942553065
2025/04/09 11:16:30.716887406,1744190190,716636480,,42.21739279844742,0.5389437059649147,0.0,0.0,0.0,-4.733351037248543
2025/04/09 11:16:30.792668561,1744190190,792382223,,40.77937980586212,0.5335208655549586,0.0,0.0,0.0,-3.875146188794856
2025/04/09 11:16:30.892657015,1744190190,892355474,,40.37672088158725,0.5282528369869617,0.0,0.0,0.0,-3.8368826790696904
2025/04/09 11:16:30.993500012,1744190190,993218376,,41.96517968362059,0.8823534249550136,0.0,0.0,0.0,-1.5573229508694642
2025/04/09 11:16:31.93946629,1744190191,93675993,,41.54607357467441,0.8735413642552565,0.0,0.0,0.0,-1.5417699717750804
2025/04/09 11:16:31.193065543,1744190191,192789186,,41.13088464189162,0.8648116655000955,0.0,0.0,0.0,-1.5263623586337882
2025/04/09 11:16:31.294830636,1744190191,294591194,,42.5813915559474,-3.13797353871513,0.0,0.0,0.0,-3.001663495722436
2025/04/09 11:16:31.396560329,1744190191,393795167,,42.156785142445884,-3.106682788430799,0.0,0.0,0.0,-2.9717319804551963
2025/04/09 11:16:31.492572847,1744190191,492287654,,40.68375649600753,-2.44925476781307,0.0,0.0,0.0,-0.9735003836029232
2025/04/09 11:16:31.590717072,1744190191,590449463,,40.27690379941653,-2.424761309176308,0.0,0.0,0.0,-0.9637650176899832
2025/04/09 11:16:31.692374983,1744190191,692097956,,39.87301738401574,-2.4004464274206754,0.0,0.0,0.0,-0.9541006303720803
2025/04/09 11:16:31.791082467,1744190191,790827308,,41.45977097196047,-2.3765100910510597,0.0,0.0,0.0,0.6428949867230802
2025/04/09 11:16:31.916916549,1744190191,916679439,,41.04421483400261,-3.3473928834265365,0.0,0.0,0.0,2.4269162712158465
2025/04/09 11:16:31.991353950,1744190191,990777874,,38.647586559544045,-3.3139721386871166,0.0,0.0,0.0,0.8132150715555593
2025/04/09 11:16:32.94043648,1744190192,93784012,,38.84080522747709,-3.2808563893143585,0.0,0.0,0.0,0.34155682606024307
2025/04/09 11:16:32.193577217,1744190192,192814755,,38.45245588594554,-1.2583535878622598,0.0,0.0,0.0,-3.243316780179894
2025/04/09 11:16:32.292747995,1744190192,292522383,,38.06607980225843,-0.8658468889550406,0.0,0.0,0.0,-2.526974813734956
2025/04/09 11:16:32.390857009,1744190192,390579469,,37.0526543229989,-0.8572284145857445,0.0,0.0,0.0,-1.9942033898494973
2025/04/09 11:16:32.513635779,1744190192,513351535,,37.9109641801447,-0.8485644745525711,0.0,0.0,0.0,-2.960286624931827
2025/04/09 11:16:32.591799002,1744190192,591554535,,37.55455088774989,-0.8401683616393996,0.0,0.0,0.0,-2.9160389996074123
2025/04/09 11:16:32.691565922,1744190192,691312775,,38.45329084564951,-0.831768969589394,0.0,0.0,0.0,-1.8675401339977018
2025/04/09 11:16:32.790436925,1744190192,790181195,,37.107011439327835,-0.17448222854565287,0.0,0.0,0.0,0.08748651639738902
2025/04/09 11:16:32.895448139,1744190192,895179424,,36.73474910308761,-3.3471422930410917,0.0,0.0,0.0,1.5596873750892666
2025/04/09 11:16:32.997538360,1744190192,997257184,,36.63872782401771,-3.3133198526333985,0.0,0.0,0.0,1.323784044203327
2025/04/09 11:16:33.118481766,1744190193,118192416,,36.27814116986778,-3.280711217160899,0.0,0.0,0.0,1.3107557845538906
2025/04/09 11:16:33.194231523,1744190193,193287824,,36.654888518751264,-1.260751455393617,0.0,0.0,0.0,-2.8705056969735274
2025/04/09 11:16:33.293077767,1744190193,292849894,,35.80064018437866,-1.248032615597392,0.0,0.0,0.0,-3.229117409678219
2025/04/09 11:16:33.391961624,1744190193,391718288,,35.44542695191266,-1.235649661065679,0.0,0.0,0.0,-3.197078171631164
2025/04/09 11:16:33.492761259,1744190193,492520515,,35.81187517607554,-1.2233137689074631,0.0,0.0,0.0,-3.7414098542586043
2025/04/09 11:16:33.591236385,1744190193,590368501,,33.46469358833305,-0.816789721161765,0.0,0.0,0.0,-1.4029136491555505
2025/04/09 11:16:33.691729944,1744190193,691510396,,33.93997526063904,-0.8086238375394608,0.0,0.0,0.0,-0.7410110836607977
2025/04/09 11:16:33.790712079,1744190193,790444356,,33.600849338628336,-0.800544123209697,0.0,0.0,0.0,-0.7336069513643899
2025/04/09 11:16:33.895128789,1744190193,894923774,,34.92468064797391,-0.7925205956488242,0.0,0.0,0.0,-2.05473345293713
2025/04/09 11:16:33.994937140,1744190193,994629788,,34.570414011511545,-0.7844814783100666,0.0,0.0,0.0,-2.033890785353826
2025/04/09 11:16:34.94258888,1744190194,93928159,,36.19259385247183,0.2720286099873377,0.0,0.0,0.0,1.4445493465860721
2025/04/09 11:16:34.191944596,1744190194,191679904,,35.831500093434144,0.2693145786651705,0.0,0.0,0.0,1.4301370677701168
2025/04/09 11:16:34.316005332,1744190194,315790138,,34.316570164331864,0.26662229585553376,0.0,0.0,0.0,0.4904564840009513
2025/04/09 11:16:34.392219413,1744190194,391477153,,33.96913557477557,0.26392290580916367,0.0,0.0,0.0,0.4854909077094334
2025/04/09 11:16:34.495076237,1744190194,492308722,,33.6305937730667,-3.705238620817905,0.0,0.0,0.0,0.4806524281947695
2025/04/09 11:16:34.589894683,1744190194,589654740,,33.45843746496308,-1.693962653795218,0.0,0.0,0.0,-3.207463955723222
2025/04/09 11:16:34.692125902,1744190194,691820472,,33.14677028767888,-1.6769702977068839,0.0,0.0,0.0,-3.1944564258569343
2025/04/09 11:16:34.792469462,1744190194,791587387,,33.91884448497547,-1.6602487491560716,0.0,0.0,0.0,-4.044675659828776
2025/04/09 11:16:34.896617885,1744190194,896335051,,32.02029863623575,-1.6433361810265446,0.0,0.0,0.0,-2.7610555181910463
2025/04/09 11:16:34.999184776,1744190194,998917727,,32.47046101603068,-1.6271516682606055,0.0,0.0,0.0,-2.1214498204048926
2025/04/09 11:16:35.97173105,1744190195,96590729,,30.16366689015622,-1.6109357593546711,0.0,0.0,0.0,-3.686867175451649
2025/04/09 11:16:35.194310580,1744190195,194002931,,29.8610387902288,-1.594773452903869,0.0,0.0,0.0,-3.6498773223262067
2025/04/09 11:16:35.292865102,1744190195,292597890,,30.146116112039696,-1.5352066541258687,0.0,0.0,0.0,-4.001830159096352
2025/04/09 11:16:35.393178317,1744190195,392956353,,31.08870115768852,-1.2384837640013515,0.0,0.0,0.0,-2.4609219381062157
2025/04/09 11:16:35.524632564,1744190195,524353126,,30.777962685075714,-1.226104843723224,0.0,0.0,0.0,-2.4363244767845753
2025/04/09 11:16:35.592852357,1744190195,592598726,,31.582430904349394,-1.2138421991850805,0.0,0.0,0.0,-3.3017883899438267
2025/04/09 11:16:35.691011539,1744190195,690721064,,31.266612920370072,-1.2017040202913591,0.0,0.0,0.0,-3.2687711672988566
2025/04/09 11:16:35.790096101,1744190195,789867980,,30.954497234505254,-0.3514412837978824,0.0,0.0,0.0,-1.7272606680302456
2025/04/09 11:16:35.895383829,1744190195,895215603,,30.203082652199388,1.6455123338023867,0.0,0.0,0.0,-3.943550214211923
2025/04/09 11:16:35.998799991,1744190195,996861098,,29.898251654130426,-0.3795449256531285,0.0,0.0,0.0,-0.28853985890315137
