time,header_stamp_secs,header_stamp_nsecs,header_frame_id,wrench_force_x,wrench_force_y,wrench_force_z,wrench_torque_x,wrench_torque_y,wrench_torque_z
2025/04/09 11:15:46.991597159,1744190146,991424558,,0.14896658157228782,-1.8496939239550008,0.0,0.0,0.0,0.9750967596440001
2025/04/09 11:15:47.93329723,1744190147,93167088,,0.4819099946037413,-1.9250575174580105,0.0,0.0,0.0,1.1769679519947713
2025/04/09 11:15:47.191208891,1744190147,191039311,,0.32935341999568046,-3.367527318692317,0.0,0.0,0.0,1.3701512924151116
2025/04/09 11:15:47.295881311,1744190147,295663892,,0.4937300338791577,-0.13308179140742116,0.0,0.0,0.0,1.1368308659018118
2025/04/09 11:15:47.420838873,1744190147,420638406,,0.382273217068376,-1.7272206269874903,0.0,0.0,0.0,-2.4722010735250195
2025/04/09 11:15:47.490500409,1744190147,490270566,,0.3789885596362905,0.3405787647982734,0.0,0.0,0.0,-2.421467596912886
2025/04/09 11:15:47.591928704,1744190147,591703451,,0.37763642378816487,0.1993100809400623,0.0,0.0,0.0,-2.369898474311318
2025/04/09 11:15:47.692581566,1744190147,692190929,,0.14201318167191546,0.10306446890229726,0.0,0.0,0.0,-2.651741933737005
2025/04/09 11:15:47.791378208,1744190147,791222660,,0.2220375668704,-1.3039930492329281,0.0,0.0,0.0,-2.6261817447502986
2025/04/09 11:15:47.893088503,1744190147,892919538,,0.30635417888492755,1.9666683616225669,0.0,0.0,0.0,-3.000066120385365
2025/04/09 11:15:47.993589825,1744190147,993139500,,0.25955726112601085,-1.2225163416052522,0.0,0.0,0.0,-2.4679092168613295
2025/04/09 11:15:48.93449442,1744190148,93211244,,0.25949441830514575,0.8175042339386902,0.0,0.0,0.0,-2.61851394147455
2025/04/09 11:15:48.194284925,1744190148,194102888,,0.2077334154418764,0.5852245274812233,0.0,0.0,0.0,-2.281600576506775
2025/04/09 11:15:48.293673907,1744190148,293495511,,0.3218206406722166,0.3677182989119405,0.0,0.0,0.0,-2.7756240491501867
2025/04/09 11:15:48.392733395,1744190148,392560938,,0.27774455530924436,-1.148645066794768,0.0,0.0,0.0,-2.4291549122665455
2025/04/09 11:15:48.490380992,1744190148,490258406,,0.33470866000477795,1.99125648380811,0.0,0.0,0.0,-2.8063302485446284
2025/04/09 11:15:48.615999123,1744190148,615788432,,0.29537275665799534,-0.22929406569177235,0.0,0.0,0.0,-0.3720458381669738
2025/04/09 11:15:48.692765861,1744190148,691623354,,0.3488258160436384,0.48987981597490293,0.0,0.0,0.0,-0.47638996288159374
2025/04/09 11:15:48.791131004,1744190148,790975831,,0.3397197119210438,0.84024354914611,0.0,0.0,0.0,-0.5289083036533264
2025/04/09 11:15:48.892491636,1744190148,892301786,,0.265051721002062,1.0944327711846098,0.0,0.0,0.0,-0.6111004707173824
2025/04/09 11:15:48.995174382,1744190148,994688325,,115.6904000727776,0.8066495120853094,0.0,0.0,0.0,-0.372576229993252
2025/04/09 11:15:49.93727482,1744190149,93612801,,111.95718509565009,0.09019001620233436,0.0,0.0,0.0,-0.3987899180341383
2025/04/09 11:15:49.193388545,1744190149,193228424,,108.2632401680072,0.2412103895627773,0.0,0.0,0.0,-0.4410934702796805
2025/04/09 11:15:49.292930596,1744190149,292778541,,104.66107986363461,-0.639936121922724,0.0,0.0,0.0,-0.44335485330496915
2025/04/09 11:15:49.393233651,1744190149,393019193,,101.0813375606302,0.8684262664930857,0.0,0.0,0.0,-0.46247042361571467
2025/04/09 11:15:49.526363181,1744190149,526214668,,97.5255499401531,-0.443218799518883,0.0,0.0,0.0,-2.271353452725557
2025/04/09 11:15:49.706476054,1744190149,706310239,,94.01148207205142,-0.45364937900189695,0.0,0.0,0.0,-2.247767385933831
2025/04/09 11:15:49.873026918,1744190149,870742761,,88.33183983780052,-0.8478298884719591,0.0,0.0,0.0,-1.6165643264743688
2025/04/09 11:15:49.956461964,1744190149,956331013,,82.9284648705486,-0.18747758452410146,0.0,0.0,0.0,-1.5680421514658303
2025/04/09 11:15:50.5891077,1744190150,5622505,,80.20024025919575,0.0902564480188186,0.0,0.0,0.0,-1.521346299686118
2025/04/09 11:15:50.91155603,1744190150,91009825,,77.36913936982644,-0.24300413091340012,0.0,0.0,0.0,-1.5681228188668213
2025/04/09 11:15:50.189988444,1744190150,189863596,,74.31652159341884,2.2610054030495252,0.0,0.0,0.0,-1.4732934446766457
2025/04/09 11:15:50.291613775,1744190150,291446218,,71.22010479751042,1.291212235538084,0.0,0.0,0.0,-1.628001250201197
2025/04/09 11:15:50.392472071,1744190150,392276929,,68.29055629841825,2.077137626068713,0.0,0.0,0.0,-1.52740871086971
2025/04/09 11:15:50.491064243,1744190150,490910819,,65.2564250585948,4.318776964616902,0.0,0.0,0.0,0.1876267218324994
2025/04/09 11:15:50.592203834,1744190150,592007084,,62.28592667935594,3.0194671761843264,0.0,0.0,0.0,-2.0672769144457
2025/04/09 11:15:50.691697979,1744190150,691477069,,59.34993622400985,-0.2861287212350021,0.0,0.0,0.0,-2.038612955915977
2025/04/09 11:15:50.794145974,1744190150,793765152,,56.4645241207423,-0.5284077852498434,0.0,0.0,0.0,-2.0039865706503788
2025/04/09 11:15:50.891600776,1744190150,891422019,,53.58823992265732,-1.683482261947475,0.0,0.0,0.0,-2.081494624981876
2025/04/09 11:15:50.992228469,1744190150,992052872,,50.789435787535496,-0.8754034765389438,0.0,0.0,0.0,-2.019545795607372
2025/04/09 11:15:51.119156940,1744190151,118165436,,47.936088936410854,-1.529881438988193,0.0,0.0,0.0,-1.8966061744820557
2025/04/09 11:15:51.195073740,1744190151,194920697,,45.125631203724794,-2.5052133752876333,0.0,0.0,0.0,-2.6165951723726053
2025/04/09 11:15:51.293474270,1744190151,293221656,,42.45496806032379,-3.1633900031423323,0.0,0.0,0.0,-2.608445657669699
2025/04/09 11:15:51.396755027,1744190151,396587816,,39.747483701658794,0.22682677726257872,0.0,0.0,0.0,-2.650611596068009
2025/04/09 11:15:51.492874184,1744190151,492633742,,37.1716791278251,1.8720616514473978,0.0,0.0,0.0,-2.392413934849464
2025/04/09 11:15:51.592575454,1744190151,592440647,,34.55250691459271,-0.7344099401733288,0.0,0.0,0.0,-2.393505618500175
2025/04/09 11:15:51.691050785,1744190151,690813951,,31.99846346414867,0.12811416726840008,0.0,0.0,0.0,-2.4092415030099392
2025/04/09 11:15:51.791806917,1744190151,791571078,,29.471525068511127,0.5671322954645159,0.0,0.0,0.0,-2.389580638007099
2025/04/09 11:15:51.891832612,1744190151,891684095,,26.98115602082089,1.9190708074845766,0.0,0.0,0.0,-0.4391879086194619
2025/04/09 11:15:51.991227235,1744190151,990525756,,24.49545237207647,0.7967501488816033,0.0,0.0,0.0,-0.44096486159625403
2025/04/09 11:15:52.89825903,1744190152,89640530,,22.04427634157257,-0.07498229669125855,0.0,0.0,0.0,-0.45694270423912187
2025/04/09 11:15:52.191057398,1744190152,190860170,,19.60634546325298,-1.0168531725263108,0.0,0.0,0.0,-0.4667462616993987
2025/04/09 11:15:52.318034115,1744190152,317893609,,17.17751006557367,-2.2278248644692322,0.0,0.0,0.0,-0.40918770274731564
2025/04/09 11:15:52.391895990,1744190152,391722549,,14.820662173143432,0.38659914684590824,0.0,0.0,0.0,-0.4293372692330033
2025/04/09 11:15:52.492028425,1744190152,491871758,,12.487786968326475,1.4724653251407247,0.0,0.0,0.0,-0.44593861388234757
2025/04/09 11:15:52.591897827,1744190152,591758066,,10.193773200598372,1.6852139500111303,0.0,0.0,0.0,-0.44308604668330975
2025/04/09 11:15:52.691129400,1744190152,690954708,,7.942501236519206,-0.030721203659714647,0.0,0.0,0.0,-0.44023947636170835
2025/04/09 11:15:52.793163991,1744190152,793005888,,5.714050066347028,-1.3848363820643232,0.0,0.0,0.0,-0.4378520405030617
2025/04/09 11:15:52.895091237,1744190152,894902540,,7.492827079724847,-0.6845633994377902,0.0,0.0,0.0,-0.42885958248230427
2025/04/09 11:15:52.992723676,1744190152,992262114,,5.272324832298466,0.4095796378497045,0.0,0.0,0.0,-0.4286290712441492
2025/04/09 11:15:53.91848041,1744190153,91507301,,7.133535874049613,0.8938033513156833,0.0,0.0,0.0,-0.42932158112379604
2025/04/09 11:15:53.193648013,1744190153,193499265,,5.038580084514763,-0.11165154735717664,0.0,0.0,0.0,-0.2700821348853797
2025/04/09 11:15:53.290886837,1744190153,290739070,,6.837371383166186,0.19542013113360213,0.0,0.0,0.0,-0.2701268928967915
2025/04/09 11:15:53.392676454,1744190153,392436092,,4.619955778546682,-0.6238355111839713,0.0,0.0,0.0,-0.26832790414736074
2025/04/09 11:15:53.516553115,1744190153,516407261,,6.420889170272801,-0.7817382134971531,0.0,0.0,0.0,-0.2811072844461524
2025/04/09 11:15:53.591187771,1744190153,591042799,,5.932400962502925,-0.5895017438497678,0.0,0.0,0.0,-0.3706442161159771
2025/04/09 11:15:53.690672588,1744190153,690514157,,7.753724923220659,0.26166841044595834,0.0,0.0,0.0,-0.3791033278789895
2025/04/09 11:15:53.790271049,1744190153,790115812,,5.591422837914735,-1.3988966957289826,0.0,0.0,0.0,-0.3818775413278166
2025/04/09 11:15:53.891216319,1744190153,891061493,,7.448547350878101,-0.3469294587846523,0.0,0.0,0.0,-2.950242080005924
2025/04/09 11:15:53.992873431,1744190153,992412879,,5.337091358033092,1.2716473867077696,0.0,0.0,0.0,-2.9273814460827507
2025/04/09 11:15:54.91876949,1744190154,91643938,,7.248371668888296,2.002129741861669,0.0,0.0,0.0,-2.885069371396341
2025/04/09 11:15:54.191640758,1744190154,191485117,,5.1514416448627856,2.193164804277343,0.0,0.0,0.0,0.6651500511452566
2025/04/09 11:15:54.291268516,1744190154,291077114,,7.07015002819864,2.472518371192841,0.0,0.0,0.0,0.6803887445776864
2025/04/09 11:15:54.393748543,1744190154,393582450,,5.0051458407583596,-0.8426801333794529,0.0,0.0,0.0,0.5871369539484732
2025/04/09 11:15:54.490219881,1744190154,490052899,,6.929439409995126,1.0841450094881182,0.0,0.0,0.0,0.632013800720598
2025/04/09 11:15:54.591471189,1744190154,591233853,,4.84063192846105,1.8284066958334702,0.0,0.0,0.0,0.6714162339636527
2025/04/09 11:15:54.718246313,1744190154,718084441,,6.811744533880756,0.6865989531092804,0.0,0.0,0.0,0.6583215284163453
2025/04/09 11:15:54.791777600,1744190154,790418247,,4.817186805617325,2.3297658457005426,0.0,0.0,0.0,0.6500676727101764
2025/04/09 11:15:54.891543114,1744190154,891372711,,6.77234315164327,-1.4223419502541752,0.0,0.0,0.0,0.6422880194631775
2025/04/09 11:15:54.991344384,1744190154,991089785,,4.824644572083855,-1.1575463166148339,0.0,0.0,0.0,0.6343215139402112
2025/04/09 11:15:55.91308303,1744190155,91124039,,6.8860807947885405,1.4395993705595487,0.0,0.0,0.0,0.6267131828088495
2025/04/09 11:15:55.192696265,1744190155,192511322,,5.080373438537009,2.265575288494979,0.0,0.0,0.0,0.1440639342583916
2025/04/09 11:15:55.291412310,1744190155,291144891,,6.696877821758335,-0.8515319872870162,0.0,0.0,0.0,0.4122572926569301
2025/04/09 11:15:55.391787816,1744190155,391585007,,4.790132442489892,-0.29080892530623537,0.0,0.0,0.0,0.4082964936407709
2025/04/09 11:15:55.492740593,1744190155,492207496,,6.909902050152084,1.9183857824297945,0.0,0.0,0.0,-1.3147317931203846
2025/04/09 11:15:55.594253372,1744190155,591899941,,5.0424475342770165,0.6153261623535808,0.0,0.0,0.0,-1.3030071667017085
2025/04/09 11:15:55.690500769,1744190155,690374117,,5.706381599122864,-2.7146004140439217,0.0,0.0,0.0,-2.4822377524278503
2025/04/09 11:15:55.794605596,1744190155,794472908,,5.868526871373376,-0.9022101194702756,0.0,0.0,0.0,-0.8709725552237737
2025/04/09 11:15:55.916810956,1744190155,916678050,,4.435208385981753,-0.7386052734499788,0.0,0.0,0.0,-1.1529248008936817
2025/04/09 11:15:55.993467624,1744190155,993170014,,6.257478279754821,-0.3671735229805204,0.0,0.0,0.0,-1.4365677639470151
2025/04/09 11:15:56.92874915,1744190156,92550889,,4.540108115206635,0.13726200152763468,0.0,0.0,0.0,-1.4432836051802473
2025/04/09 11:15:56.192822879,1744190156,192510551,,6.52299033119877,0.10195697672058834,0.0,0.0,0.0,-1.1981473569034442
2025/04/09 11:15:56.291655713,1744190156,291427379,,4.806089052851064,0.5859710905500695,0.0,0.0,0.0,-1.1850938316550081
2025/04/09 11:15:56.393521930,1744190156,392798759,,4.571196189081377,-0.8470874178723893,0.0,0.0,0.0,-2.3559849112504807
2025/04/09 11:15:56.492955415,1744190156,492735511,,4.944980563298003,-0.5072738951466089,0.0,0.0,0.0,-0.7460993364328647
2025/04/09 11:15:56.591541261,1744190156,591374226,,5.3273291715791515,-0.885662220353943,0.0,0.0,0.0,-2.3397042111303
2025/04/09 11:15:56.691333173,1744190156,691169213,,5.7298464190886875,-1.6285941673253586,0.0,0.0,0.0,-0.7385568446554922
2025/04/09 11:15:56.791181306,1744190156,791029276,,4.151941487065301,-2.3842706880784785,0.0,0.0,0.0,-0.7996131249910192
2025/04/09 11:15:56.891850946,1744190156,891695106,,4.58256837029117,-0.5607108090205113,0.0,0.0,0.0,-5.200030064475274
2025/04/09 11:15:56.997834051,1744190156,997680366,,5.033839144705041,-1.1221880649536438,0.0,0.0,0.0,-3.5287868423253057
2025/04/09 11:15:57.120414351,1744190157,120243824,,4.266129004026595,0.1075106447074976,0.0,0.0,0.0,-4.054023786673393
2025/04/09 11:15:57.190974420,1744190157,190765443,,4.247822132468457,2.4083518571734768,0.0,0.0,0.0,-0.5990519771533043
2025/04/09 11:15:57.291349957,1744190157,290643665,,5.102112250323216,2.626303250090235,0.0,0.0,0.0,-0.2929662250866727
2025/04/09 11:15:57.392065804,1744190157,391888986,,5.150831531395767,0.17302116216652408,0.0,0.0,0.0,-1.5030885403430254
2025/04/09 11:15:57.493274199,1744190157,493074915,,3.792095079547579,-0.8238341260448081,0.0,0.0,0.0,-1.5937045660688156
2025/04/09 11:15:57.591041101,1744190157,590886340,,5.138953175959671,-1.7508236641693884,0.0,0.0,0.0,-1.0447060621661013
2025/04/09 11:15:57.691521774,1744190157,691345453,,3.751365330802628,-2.108218712275967,0.0,0.0,0.0,-1.0049022731163983
2025/04/09 11:15:57.792554449,1744190157,792417594,,4.550794740297476,-1.1616331564294313,0.0,0.0,0.0,-2.5095419588969268
2025/04/09 11:15:57.891247904,1744190157,891129019,,5.251876935458824,-0.5602897214293616,0.0,0.0,0.0,-0.9079739708407191
2025/04/09 11:15:57.994053965,1744190157,993936526,,3.9969368809402113,1.446672861238353,0.0,0.0,0.0,-0.9201698820397155
2025/04/09 11:15:58.91504777,1744190158,91271069,,4.268070291101878,1.7385944535876146,0.0,0.0,0.0,-2.2533069225430067
2025/04/09 11:15:58.193249482,1744190158,191759780,,5.009330683288766,0.02690858002044294,0.0,0.0,0.0,-0.6041752658537414
2025/04/09 11:15:58.318392831,1744190158,318238389,,3.7834786157968097,-1.4049794605976178,0.0,0.0,0.0,-0.5564292113800118
2025/04/09 11:15:58.391738063,1744190158,391574751,,4.97785600194976,0.298266304432925,0.0,0.0,0.0,-0.5787650318528605
2025/04/09 11:15:58.499276969,1744190158,498237905,,3.2614469832167288,-0.4398549429309728,0.0,0.0,0.0,-0.5997664480881726
2025/04/09 11:15:58.590351093,1744190158,590262807,,-0.5104692327274165,-1.904798143931096,0.0,0.0,0.0,-0.7132814193215564
2025/04/09 11:15:58.690306918,1744190158,690189070,,-5.40427449400687,-1.5861418745491527,0.0,0.0,0.0,1.6958710024977197
2025/04/09 11:15:58.791933800,1744190158,791773545,,-10.959358555462813,-0.7998995738802765,0.0,0.0,0.0,1.7168930028509122
2025/04/09 11:15:58.905150901,1744190158,904327036,,-16.8547734326292,-0.4942643226125707,0.0,0.0,0.0,1.6848198336252445
2025/04/09 11:15:59.8067231,1744190159,7121915,,-22.83138568738056,-1.093995877622259,0.0,0.0,0.0,1.5909119293450429
2025/04/09 11:15:59.100263847,1744190159,99921882,,-28.77797305048935,-0.7793417818801256,0.0,0.0,0.0,1.6184393094912641
2025/04/09 11:15:59.194333070,1744190159,194054090,,-34.84650264278662,1.3667791725815963,0.0,0.0,0.0,3.085651313318449
2025/04/09 11:15:59.294405227,1744190159,294007571,,-40.31808866861033,0.44073590138435037,0.0,0.0,0.0,1.7191360849103567
2025/04/09 11:15:59.394757764,1744190159,394509567,,-44.672107312772425,-3.0781867175632502,0.0,0.0,0.0,1.6839401765823885
2025/04/09 11:15:59.519188532,1744190159,517236452,,-48.33944625989528,-3.115841332825653,0.0,0.0,0.0,1.6486234793388714
2025/04/09 11:15:59.591414937,1744190159,591230798,,-51.546083377701734,-3.8846089784922633,0.0,0.0,0.0,1.5893726441305027
2025/04/09 11:15:59.691411930,1744190159,691260599,,-54.514729003280195,-1.6615755563282253,0.0,0.0,0.0,2.994408994744064
2025/04/09 11:15:59.790786141,1744190159,790689955,,-57.25303793560457,-1.1654752176504282,0.0,0.0,0.0,2.9264135456700116
2025/04/09 11:15:59.890842144,1744190159,890743067,,-59.88875278474481,-1.3035715417035263,0.0,0.0,0.0,2.936839640085439
2025/04/09 11:15:59.994706807,1744190159,994559454,,-61.68418468413165,-4.968333988311562,0.0,0.0,0.0,1.0842850090435858
2025/04/09 11:16:00.95409130,1744190160,95188231,,-62.5813388792312,-3.4845353964855725,0.0,0.0,0.0,-0.10615155584333014
2025/04/09 11:16:00.201144340,1744190160,200985332,,-65.12521580939548,-1.2166821615075207,0.0,0.0,0.0,0.2907020644019678
2025/04/09 11:16:00.292038798,1744190160,291900009,,-67.63024730119184,-2.7654594255789746,0.0,0.0,0.0,0.2325896470301263
2025/04/09 11:16:00.391731191,1744190160,391546739,,-70.0994766627183,-2.53477510383183,0.0,0.0,0.0,0.23630908031752806
2025/04/09 11:16:00.492045998,1744190160,491806686,,-71.86911268718137,-2.3813017768746185,0.0,0.0,0.0,0.816167385352351
2025/04/09 11:16:00.592844659,1744190160,591403287,,-74.35208964745556,-3.3272569459242156,0.0,0.0,0.0,0.6139667651037266
2025/04/09 11:16:00.717965265,1744190160,717551151,,-76.76593764081963,-1.6238223072421718,0.0,0.0,0.0,0.6546525746746479
2025/04/09 11:16:00.791326239,1744190160,791156673,,-78.45789445599121,-1.5489423728274474,0.0,0.0,0.0,0.6351763940386705
2025/04/09 11:16:00.891918109,1744190160,891797495,,-80.56074592302622,-3.1496312844468513,0.0,0.0,0.0,0.13205277110466884
2025/04/09 11:16:01.900975,1744190160,999723018,,-79.80163139586145,-1.6366200802960513,0.0,0.0,0.0,-0.5770558526307257
2025/04/09 11:16:01.96492662,1744190161,95195517,,-81.75506813876208,-1.6473615380517561,0.0,0.0,0.0,-0.5810120513576829
2025/04/09 11:16:01.192788540,1744190161,192589495,,-83.51963145922605,-1.2125276430572889,0.0,0.0,0.0,-0.5789731606263127
2025/04/09 11:16:01.292190515,1744190161,292020061,,-85.03557233863354,-2.767389327045933,0.0,0.0,0.0,-1.0586783687353032
2025/04/09 11:16:01.394143342,1744190161,393714085,,-85.56008419952185,-0.9211803132140659,0.0,0.0,0.0,0.7250012437576965
2025/04/09 11:16:01.491301453,1744190161,491183305,,-86.89906635139944,-2.959210726120128,0.0,0.0,0.0,0.4853623943167733
2025/04/09 11:16:01.592479698,1744190161,592114861,,-88.06618786296553,-1.99587316322771,0.0,0.0,0.0,0.46884709725873996
2025/04/09 11:16:01.692248698,1744190161,692108144,,-87.1939559582293,-1.6848590354555562,0.0,0.0,0.0,-1.0718389997944007
2025/04/09 11:16:01.791603038,1744190161,791439807,,-86.64737482227224,-2.8718575254909453,0.0,0.0,0.0,-0.4703014428520058
2025/04/09 11:16:01.921358450,1744190161,921216208,,-87.42839544183752,-1.1355637734552513,0.0,0.0,0.0,-0.042533934339429535
2025/04/09 11:16:01.994042988,1744190161,993879274,,-88.0434875909518,-1.525038122767345,0.0,0.0,0.0,-0.017679209890204106
2025/04/09 11:16:02.92590842,1744190162,92345522,,-88.69775930096975,-2.1205873562720168,0.0,0.0,0.0,-0.12347977066167459
2025/04/09 11:16:02.199485893,1744190162,199294105,,-89.23503596489033,-1.064639306033424,0.0,0.0,0.0,0.8757979086392522
2025/04/09 11:16:02.293758298,1744190162,291237542,,-88.68550330043759,-2.674613342159052,0.0,0.0,0.0,1.5209226123017645
2025/04/09 11:16:02.392563633,1744190162,392223540,,-86.97717360561583,-3.277427153942556,0.0,0.0,0.0,-0.6388983365234218
2025/04/09 11:16:02.491106158,1744190162,490654799,,-87.17552605441385,-1.8683599455623874,0.0,0.0,0.0,1.923201583272669
2025/04/09 11:16:02.591529813,1744190162,591379441,,-86.58852275837819,-0.3061013297398354,0.0,0.0,0.0,2.4599277983979135
2025/04/09 11:16:02.691327142,1744190162,691169997,,-86.71193002028818,0.08411401776693239,0.0,0.0,0.0,2.4851272260771555
2025/04/09 11:16:02.791343956,1744190162,791169763,,-86.65877075335318,1.0346954241890352,0.0,0.0,0.0,3.1219181580615185
2025/04/09 11:16:02.890200299,1744190162,890112836,,-84.53723359630513,-0.4981736854710803,0.0,0.0,0.0,4.664487928704784
2025/04/09 11:16:02.995111704,1744190162,994685219,,-84.35086492793015,0.5160589580226951,0.0,0.0,0.0,4.64704966353558
2025/04/09 11:16:03.125792338,1744190163,125641560,,-82.81822692215442,-0.7770177458284611,0.0,0.0,0.0,3.3761764820233706
2025/04/09 11:16:03.192186596,1744190163,191931064,,-82.58134809364586,0.1919590113251033,0.0,0.0,0.0,3.360116317868882
2025/04/09 11:16:03.291784069,1744190163,291410283,,-82.27345468097414,0.9120064866299202,0.0,0.0,0.0,3.549807988906206
2025/04/09 11:16:03.393670626,1744190163,393477658,,-81.88121564393379,0.19933942377462444,0.0,0.0,0.0,3.5254328719646324
2025/04/09 11:16:03.491935808,1744190163,491751988,,-80.40620580626279,-0.09396373552655923,0.0,0.0,0.0,3.6932791268897063
2025/04/09 11:16:03.592129261,1744190163,592004572,,-79.9667203321789,1.1462514778632258,0.0,0.0,0.0,5.374705191018304
2025/04/09 11:16:03.690250250,1744190163,690090892,,-77.98237885960998,-0.07069844776710887,0.0,0.0,0.0,4.179632146685256
2025/04/09 11:16:03.790843961,1744190163,790511847,,-77.40558660806427,-0.05951112424601135,0.0,0.0,0.0,3.1869953335305397
2025/04/09 11:16:03.891246060,1744190163,891086784,,-74.7991908824388,-2.0235615125706268,0.0,0.0,0.0,4.717680472802401
2025/04/09 11:16:03.994996399,1744190163,994799688,,-74.19148130970387,-3.3789033896520095,0.0,0.0,0.0,4.041784967224757
2025/04/09 11:16:04.97555993,1744190164,97278887,,-73.53220965020803,-2.3757246833335195,0.0,0.0,0.0,4.17426468322536
2025/04/09 11:16:04.192045819,1744190164,191520864,,-71.26970575926649,-1.1555801887683668,0.0,0.0,0.0,3.087806994399047
2025/04/09 11:16:04.322695216,1744190164,322280339,,-70.57745646835895,-2.8547039658070226,0.0,0.0,0.0,2.853361637034741
2025/04/09 11:16:04.391554016,1744190164,391381958,,-69.84492181410712,-3.177447239203712,0.0,0.0,0.0,2.3158685934301673
2025/04/09 11:16:04.493837379,1744190164,493418758,,-67.19010109076498,-3.5975107788900473,0.0,0.0,0.0,2.779993867641224
2025/04/09 11:16:04.591914498,1744190164,591749360,,-66.41955471722062,-1.3551091525040295,0.0,0.0,0.0,3.0477600196813146
2025/04/09 11:16:04.691196323,1744190164,691044775,,-65.0766021221861,-1.9789219466158325,0.0,0.0,0.0,2.5802145069082005
2025/04/09 11:16:04.790800457,1744190164,790588765,,-64.28389551872453,-2.362853668679193,0.0,0.0,0.0,2.389862853515627
2025/04/09 11:16:04.891052383,1744190164,890864140,,-62.1384107506134,-1.9065477239303874,0.0,0.0,0.0,1.3560177665673905
2025/04/09 11:16:04.992641699,1744190164,992335051,,-61.276485525390726,-1.5514362524494167,0.0,0.0,0.0,1.2871696731368871
2025/04/09 11:16:05.93239037,1744190165,93124349,,-60.348872500194574,-0.12273834040142972,0.0,0.0,0.0,1.5303886089747953
2025/04/09 11:16:05.193891307,1744190165,193770479,,-59.427754590020584,0.6738601812696317,0.0,0.0,0.0,1.695347047667986
2025/04/09 11:16:05.292242774,1744190165,292032646,,-56.48157513266161,-0.5622218307748472,0.0,0.0,0.0,3.1861288526021267
2025/04/09 11:16:05.390766652,1744190165,390556240,,-55.54897979086017,-0.5744896006882012,0.0,0.0,0.0,3.977964241410163
2025/04/09 11:16:05.517155078,1744190165,516992535,,-54.619049179052865,-0.1071634638869483,0.0,0.0,0.0,3.957117903291131
2025/04/09 11:16:05.592777395,1744190165,592614968,,-51.65086951489486,1.205162466210961,0.0,0.0,0.0,2.536293994319667
2025/04/09 11:16:05.692351208,1744190165,692226490,,-50.607846893913745,1.244741629600579,0.0,0.0,0.0,2.4590323651483006
2025/04/09 11:16:05.791509767,1744190165,791355635,,-49.67101641604511,0.4020560705808798,0.0,0.0,0.0,2.386817843636023
2025/04/09 11:16:05.891434641,1744190165,891273463,,-47.663865221945144,2.625929365337191,0.0,0.0,0.0,3.1623663659661077
2025/04/09 11:16:05.990574787,1744190165,990426460,,-46.703813801406696,2.8950708995701557,0.0,0.0,0.0,3.3698227001331196
2025/04/09 11:16:06.93423518,1744190166,93098623,,-45.71833566303077,2.0834019873340868,0.0,0.0,0.0,3.345303189303123
2025/04/09 11:16:06.193395381,1744190166,193220722,,-43.84471711788872,2.920784052914634,0.0,0.0,0.0,2.9140944166620635
2025/04/09 11:16:06.292506847,1744190166,292247813,,-42.79309274211212,3.468869384906043,0.0,0.0,0.0,3.1055103396220245
2025/04/09 11:16:06.392751100,1744190166,392572613,,-39.81799099860645,3.2540898730568824,0.0,0.0,0.0,4.603489645888354
2025/04/09 11:16:06.490862360,1744190166,490623332,,-38.75832898104312,0.5314296207104299,0.0,0.0,0.0,3.1040092901735967
2025/04/09 11:16:06.590322961,1744190166,590159048,,-36.88543384290051,1.8194440795321256,0.0,0.0,0.0,2.4277395354950055
2025/04/09 11:16:06.716982739,1744190166,716843482,,-35.86404071565155,3.46520640115806,0.0,0.0,0.0,3.7056674727866783
2025/04/09 11:16:06.791737816,1744190166,791573913,,-34.84772776388024,0.10542858802266686,0.0,0.0,0.0,2.6838830435797263
2025/04/09 11:16:06.891921903,1744190166,890909850,,-33.791982093280886,0.1914773927773865,0.0,0.0,0.0,2.672212298954312
2025/04/09 11:16:06.992050910,1744190166,991907728,,-32.73473775127938,-0.9331406543172509,0.0,0.0,0.0,1.1330330384693035
2025/04/09 11:16:07.92185127,1744190167,92052146,,-29.755630144606044,2.026928922076788,0.0,0.0,0.0,-0.2675558370482882
2025/04/09 11:16:07.193871211,1744190167,193533480,,-27.349950472406064,0.11350495071945055,0.0,0.0,0.0,-0.66034440152157
2025/04/09 11:16:07.293124675,1744190167,292970352,,-26.398772731657544,1.2105542119589856,0.0,0.0,0.0,-0.7187036967683076
2025/04/09 11:16:07.391886722,1744190167,391742830,,-25.360246733793716,1.9364233977814873,0.0,0.0,0.0,-0.7205761842653979
2025/04/09 11:16:07.490938372,1744190167,490777509,,-24.317172211431767,0.9906394471239341,0.0,0.0,0.0,-0.7937708346851515
2025/04/09 11:16:07.591855595,1744190167,591664887,,-23.2844885088641,0.5082847394085999,0.0,0.0,0.0,-1.2641384713998116
2025/04/09 11:16:07.690701898,1744190167,690526429,,-22.262933883412302,2.078653114566958,0.0,0.0,0.0,-1.107793410547317
2025/04/09 11:16:07.791285352,1744190167,791124898,,-21.22727759914524,2.6434769628778945,0.0,0.0,0.0,-1.1451213214812404
2025/04/09 11:16:07.916269131,1744190167,916111113,,-17.213569127472923,3.7180785695770435,0.0,0.0,0.0,0.8688281137615768
2025/04/09 11:16:07.991361596,1744190167,991111217,,-16.210723602557636,0.8638838062626437,0.0,0.0,0.0,0.8697968732080872
2025/04/09 11:16:08.91747248,1744190168,91575162,,-15.177097636147991,-0.2581648126242957,0.0,0.0,0.0,0.5189974984121317
2025/04/09 11:16:08.193672912,1744190168,193506527,,-14.209041255957317,0.97691401721743,0.0,0.0,0.0,0.5982657923412322
2025/04/09 11:16:08.296304905,1744190168,296106877,,-13.220146069879874,-0.9149920568037153,0.0,0.0,0.0,-0.06701570850067906
2025/04/09 11:16:08.393806234,1744190168,393650782,,-11.158660656277334,-0.058701344810408784,0.0,0.0,0.0,-0.9284177657676489
2025/04/09 11:16:08.493318138,1744190168,493105947,,-10.170473683350785,-0.7690861780411637,0.0,0.0,0.0,-1.304302503994407
2025/04/09 11:16:08.591923206,1744190168,591786591,,-9.184155759173194,1.0218740324161786,0.0,0.0,0.0,-1.252602528729227
2025/04/09 11:16:08.692160144,1744190168,692020004,,-8.181290642566463,0.8457958748477612,0.0,0.0,0.0,-3.044637729211985
2025/04/09 11:16:08.791619861,1744190168,791465903,,-7.193953445981492,-1.4038015858728983,0.0,0.0,0.0,-3.017898273002176
2025/04/09 11:16:08.894538404,1744190168,894355429,,-6.204081948770757,-0.9163970807548338,0.0,0.0,0.0,-2.9932294633709624
2025/04/09 11:16:08.992038520,1744190168,991893712,,-4.631212034008982,-1.1733702389911294,0.0,0.0,0.0,-2.4984920658198018
2025/04/09 11:16:09.117093062,1744190169,116957137,,-1.6897453869745966,-2.0394478207120645,0.0,0.0,0.0,-4.069115077393738
2025/04/09 11:16:09.194831268,1744190169,192916455,,-0.7355741164637521,-2.4898967089441015,0.0,0.0,0.0,-4.021107428222097
2025/04/09 11:16:09.294109628,1744190169,293765927,,0.23692390190368684,-0.9119443790035469,0.0,0.0,0.0,-4.044126324807095
2025/04/09 11:16:09.390456042,1744190169,390186372,,1.902492794299853,-2.038379345716052,0.0,0.0,0.0,-3.4233150773686685
2025/04/09 11:16:09.490323597,1744190169,490139594,,2.8785585430998033,-1.9906680879573777,0.0,0.0,0.0,-3.3691658282096597
2025/04/09 11:16:09.593103180,1744190169,592948169,,-0.14287413288239037,-1.9752498515184023,0.0,0.0,0.0,-3.3497535912681773
2025/04/09 11:16:09.694357540,1744190169,694093106,,0.8937475239400143,-0.08119830865183175,0.0,0.0,0.0,-3.3330924871022862
2025/04/09 11:16:09.792509437,1744190169,792373573,,1.8681287296618336,-0.8458040453516524,0.0,0.0,0.0,-2.7203033264073753
2025/04/09 11:16:09.892764647,1744190169,892561241,,-1.1407691752828129,-0.4750118632313729,0.0,0.0,0.0,0.9697210799349758
2025/04/09 11:16:09.990383860,1744190169,990222114,,1.8603455550125858,-3.5708058546820993,0.0,0.0,0.0,2.402075274505167
2025/04/09 11:16:10.91760707,1744190170,91578734,,2.8544128256227737,-1.9166534306373713,0.0,0.0,0.0,2.4753033980853
2025/04/09 11:16:10.192820488,1744190170,192627177,,0.688381599922991,0.9448915844420718,0.0,0.0,0.0,2.5570914026862273
2025/04/09 11:16:10.321760530,1744190170,321517554,,1.667447516019898,0.8810049171953018,0.0,0.0,0.0,2.59012930492535
2025/04/09 11:16:10.395199457,1744190170,394904266,,2.067608905911044,-0.4967987038522832,0.0,0.0,0.0,2.07491950220224
2025/04/09 11:16:10.490404247,1744190170,490141501,,0.07733186989211305,-2.1337572040722605,0.0,0.0,0.0,2.7160661050136667
2025/04/09 11:16:10.592580020,1744190170,592220579,,3.089343318861083,1.1373599142695028,0.0,0.0,0.0,1.1261896168285421
2025/04/09 11:16:10.692304490,1744190170,692175083,,2.2159002339776777,0.7194981726915373,0.0,0.0,0.0,-0.38064205801698314
2025/04/09 11:16:10.791653370,1744190170,791448701,,1.2833273631070483,0.6209078268332977,0.0,0.0,0.0,1.2233336165293682
2025/04/09 11:16:10.892537773,1744190170,892187427,,2.3373233160754907,1.1202940542976307,0.0,0.0,0.0,1.220586576843239
2025/04/09 11:16:10.993222294,1744190170,993009523,,1.4011251316578495,2.054763231134727,0.0,0.0,0.0,-0.40252825557159433
2025/04/09 11:16:11.93960661,1744190171,93627943,,0.46084481429176805,-0.5497579636551304,0.0,0.0,0.0,1.1928497698753127
2025/04/09 11:16:11.194814369,1744190171,194677101,,1.9193682479250072,1.7756442470269658,0.0,0.0,0.0,1.5002847387411133
2025/04/09 11:16:11.292244840,1744190171,291735279,,0.9952737440457611,1.3926325251566176,0.0,0.0,0.0,-0.057892846421275124
2025/04/09 11:16:11.392091281,1744190171,391483185,,0.04684011185740644,2.4563774437102186,0.0,0.0,0.0,1.546988180115978
2025/04/09 11:16:11.516444275,1744190171,516276530,,1.8576992297403905,-0.001785590376137236,0.0,0.0,0.0,2.160828403607395
2025/04/09 11:16:11.591603240,1744190171,591445868,,0.9065381991578789,-0.9356545870386839,0.0,0.0,0.0,0.5473701715888755
2025/04/09 11:16:11.690373572,1744190171,690188319,,0.33144820142910447,0.8356008533425268,0.0,0.0,0.0,1.881409920119557
2025/04/09 11:16:11.791559559,1744190171,791293078,,1.379707273905268,1.022708541114696,0.0,0.0,0.0,1.852059000579521
2025/04/09 11:16:11.890847670,1744190171,890584135,,0.44603469242423444,1.5022552400278926,0.0,0.0,0.0,0.2766620461772078
2025/04/09 11:16:11.992989971,1744190171,991640326,,-0.3488803033159087,0.7290727862278459,0.0,0.0,0.0,4.222705502580212
2025/04/09 11:16:12.91192744,1744190172,90762051,,2.8307585085858733,-0.7357858498198766,0.0,0.0,0.0,2.1423091498891917
2025/04/09 11:16:12.191173486,1744190172,191001457,,1.8885322885633968,1.3863351487523783,0.0,0.0,0.0,0.5334800198588283
2025/04/09 11:16:12.293829578,1744190172,293677512,,1.6239473152474488,1.8380457770923417,0.0,0.0,0.0,-2.0022796942902605
2025/04/09 11:16:12.393980946,1744190172,393834258,,2.546795082628037,-0.004534701630511506,0.0,0.0,0.0,-2.0311503060244416
2025/04/09 11:16:12.490448417,1744190172,490310063,,1.6929012378264119,-2.8437929818249295,0.0,0.0,0.0,-3.63633957376107
2025/04/09 11:16:12.592528831,1744190172,592402438,,0.7406629452469247,-2.768985393565746,0.0,0.0,0.0,-2.011133223793234
2025/04/09 11:16:12.717041117,1744190172,716735701,,1.7530853496430012,-2.6621452328859707,0.0,0.0,0.0,-0.8415688201897318
2025/04/09 11:16:12.790652251,1744190172,790425843,,1.8562677693874434,-1.9655315867099166,0.0,0.0,0.0,-3.3409546013428066
2025/04/09 11:16:12.890435431,1744190172,890279848,,0.8526949655368767,-0.7099618397216663,0.0,0.0,0.0,-1.6927247786261752
2025/04/09 11:16:12.990682076,1744190172,990410277,,1.8585462388599012,1.1504214802123016,0.0,0.0,0.0,-1.6910418614587872
2025/04/09 11:16:13.94936114,1744190173,94809185,,0.8469866030970934,0.30313740797402566,0.0,0.0,0.0,-3.3182388998234664
2025/04/09 11:16:13.194510519,1744190173,194346734,,-0.12249932192271729,0.5318563403976224,0.0,0.0,0.0,-1.7265154063151673
2025/04/09 11:16:13.293392442,1744190173,293239463,,0.8755356496363191,-1.1553665367111385,0.0,0.0,0.0,-1.673043493031038
2025/04/09 11:16:13.393724595,1744190173,393340158,,0.4813797776821289,0.331819102408037,0.0,0.0,0.0,-2.734785940910541
2025/04/09 11:16:13.490869875,1744190173,490672493,,-0.4996475662260167,0.029216835745522474,0.0,0.0,0.0,-1.2477243660186907
2025/04/09 11:16:13.592709777,1744190173,592540559,,1.6675125313822434,-0.6116849712921777,0.0,0.0,0.0,-2.1194960539453334
2025/04/09 11:16:13.692225374,1744190173,692002423,,0.8615497344100405,-1.144784670676854,0.0,0.0,0.0,-3.633777681956282
2025/04/09 11:16:13.795440410,1744190173,794970733,,0.13837465539455707,-0.9514026753232123,0.0,0.0,0.0,-1.7967541433978305
2025/04/09 11:16:13.919416349,1744190173,919125793,,1.1227391692407451,-0.2012379550804404,0.0,0.0,0.0,-1.8146378131003473
2025/04/09 11:16:13.991568921,1744190173,991344131,,0.27784250719619763,-0.9283032122690198,0.0,0.0,0.0,0.31144268497147287
2025/04/09 11:16:14.92067162,1744190174,91913643,,0.1847438422248402,-1.5776882834072268,0.0,0.0,0.0,1.2174313793084366
2025/04/09 11:16:14.193639892,1744190174,193498205,,2.1730529526493783,-0.8274240788928697,0.0,0.0,0.0,1.9480012941762084
2025/04/09 11:16:14.294858849,1744190174,294546250,,0.7041161118355319,-2.4760976837126396,0.0,0.0,0.0,3.3138812659285186
2025/04/09 11:16:14.394177000,1744190174,393880548,,2.0539170172267376,-1.5487977642442576,0.0,0.0,0.0,-3.065059814393205
2025/04/09 11:16:14.492025231,1744190174,491743693,,2.9757552104779563,0.4304861102704223,0.0,0.0,0.0,-3.1811034232713045
2025/04/09 11:16:14.591494290,1744190174,591340499,,3.1676458689850904,0.7219054681375248,0.0,0.0,0.0,-2.081786116075383
2025/04/09 11:16:14.693222673,1744190174,693059446,,1.9387689852841774,0.753130652668295,0.0,0.0,0.0,-4.104124978673115
2025/04/09 11:16:14.791719822,1744190174,791467309,,0.9989785794582673,-0.39207721035662857,0.0,0.0,0.0,-2.6349536571615353
2025/04/09 11:16:14.892103947,1744190174,891601020,,2.2809229172912,-0.3421574661880449,0.0,0.0,0.0,-2.086160027988347
2025/04/09 11:16:14.990803493,1744190174,990674290,,1.1974626485636506,-0.8038630908793802,0.0,0.0,0.0,-3.7709108825419033
2025/04/09 11:16:15.119615741,1744190175,119352732,,0.10401385262652241,0.01041469186380617,0.0,0.0,0.0,1.4030526307760596
2025/04/09 11:16:15.191026956,1744190175,190815122,,2.9398521295374564,1.7990799346875619,0.0,0.0,0.0,3.210367835623778
2025/04/09 11:16:15.293093884,1744190175,292284321,,3.546331392087062,1.6407134618053014,0.0,0.0,0.0,2.666557951868656
2025/04/09 11:16:15.390874937,1744190175,390711407,,1.3775584700998138,2.786706122620121,0.0,0.0,0.0,3.0722524885639437
2025/04/09 11:16:15.491205618,1744190175,491017248,,2.2695118931012814,0.1050416924979185,0.0,0.0,0.0,2.5606938224857725
2025/04/09 11:16:15.591748961,1744190175,591449510,,1.1060010881526168,2.0970988021805805,0.0,0.0,0.0,4.333762524780424
2025/04/09 11:16:15.694528303,1744190175,694355017,,0.8546555104908506,-0.3250534977717301,0.0,0.0,0.0,2.8714392499393995
2025/04/09 11:16:15.792929278,1744190175,792760415,,3.611336067473758,0.3474459467241857,0.0,0.0,0.0,1.3128393319630813
2025/04/09 11:16:15.893345365,1744190175,891805792,,3.3123137628326873,-0.48066500163670334,0.0,0.0,0.0,0.38317599794366686
2025/04/09 11:16:15.994679891,1744190175,991766312,,2.137776223437264,0.6305369285276932,0.0,0.0,0.0,5.439016990333471
2025/04/09 11:16:16.90324545,1744190176,90173597,,2.243182509616787,-0.9857695122580523,0.0,0.0,0.0,4.676976480557247
2025/04/09 11:16:16.191290111,1744190176,190906150,,3.0783006750929474,0.13066444658981524,0.0,0.0,0.0,4.733729813147079
2025/04/09 11:16:16.325319144,1744190176,325213857,,-0.06499919895483686,-2.0339757305421493,0.0,0.0,0.0,3.0319576979932847
2025/04/09 11:16:16.397181141,1744190176,396828063,,0.7484148850213899,-2.604195678515179,0.0,0.0,0.0,-0.5041705178389009
2025/04/09 11:16:16.490991355,1744190176,490875852,,1.5460111786835213,0.9306987021459108,0.0,0.0,0.0,-0.4469855757705794
2025/04/09 11:16:16.590662922,1744190176,590420273,,2.7795227370429814,1.3595901560611878,0.0,0.0,0.0,-0.053434499885629094
2025/04/09 11:16:16.693578952,1744190176,693350102,,1.5273550278952825,-1.4102939820873246,0.0,0.0,0.0,1.5129585491675126
2025/04/09 11:16:16.794249819,1744190176,793745656,,0.8417223471844721,-1.2065995898997208,0.0,0.0,0.0,0.25947839916205595
2025/04/09 11:16:16.894037642,1744190176,893884182,,1.6501780927690248,-1.0743434383780368,0.0,0.0,0.0,0.21306778196489518
2025/04/09 11:16:16.990928461,1744190176,990721120,,3.077543189215575,1.0781764191686989,0.0,0.0,0.0,-0.293188776474711
2025/04/09 11:16:17.91995255,1744190177,91737445,,1.7437706056870752,-1.2197678279917277,0.0,0.0,0.0,-1.7794058145825584
2025/04/09 11:16:17.194346102,1744190177,194183855,,0.5078880247103541,-0.35248979980089246,0.0,0.0,0.0,-0.16819761510045161
2025/04/09 11:16:17.292592028,1744190177,292448411,,1.2833568790649679,0.7784487940920197,0.0,0.0,0.0,-0.17409822684417264
2025/04/09 11:16:17.391058997,1744190177,390856544,,2.048045214210603,0.2816827024488031,0.0,0.0,0.0,-0.22607770990068055
2025/04/09 11:16:17.520325916,1744190177,520170600,,0.8177056495121349,-0.7027019276932727,0.0,0.0,0.0,-1.794235637687473
2025/04/09 11:16:17.594469866,1744190177,593495449,,1.552133409975724,-0.44162252085453346,0.0,0.0,0.0,1.409655099911662
2025/04/09 11:16:17.693106815,1744190177,692815431,,2.2615218341956904,-1.310276537469397,0.0,0.0,0.0,1.395680159278875
2025/04/09 11:16:17.792412861,1744190177,792148554,,4.147248455575202,-1.1487640721393628,0.0,0.0,0.0,-0.15464777367791882
2025/04/09 11:16:17.892690607,1744190177,892515402,,2.84338895062605,-0.23117243155407508,0.0,0.0,0.0,1.8263727204587692
2025/04/09 11:16:17.994673587,1744190177,993690547,,1.5643777090645514,-2.514539956879327,0.0,0.0,0.0,3.4009671603809064
2025/04/09 11:16:18.91756891,1744190178,91493677,,2.245770274291509,-1.8732354020357036,0.0,0.0,0.0,3.363376555358272
2025/04/09 11:16:18.193473099,1744190178,193170015,,2.922970343642497,-0.27278790611704906,0.0,0.0,0.0,4.166547920947091
2025/04/09 11:16:18.293824121,1744190178,293645731,,1.6166233043660014,-0.3382043938218473,0.0,0.0,0.0,-1.1555482479118169
2025/04/09 11:16:18.391757346,1744190178,391590394,,0.3307443019433691,1.172724544970979,0.0,0.0,0.0,0.45476977275727215
2025/04/09 11:16:18.491387174,1744190178,491188766,,1.0672157892613399,-0.07679168032106531,0.0,0.0,0.0,-0.3770545388518993
2025/04/09 11:16:18.590494027,1744190178,590359854,,2.0728101101279037,0.3856055285473339,0.0,0.0,0.0,-0.7485249479488267
2025/04/09 11:16:18.716382736,1744190178,716254454,,0.7317974803856231,-1.4514656051429071,0.0,0.0,0.0,-2.2288787614822496
2025/04/09 11:16:18.792064255,1744190178,791849670,,-0.5610619449064842,-0.7103047831715088,0.0,0.0,0.0,-0.6230799239381266
2025/04/09 11:16:18.894281989,1744190178,894090089,,2.815555563973703,-1.1377510594012534,0.0,0.0,0.0,0.40157489725603135
2025/04/09 11:16:18.993947139,1744190178,991364549,,3.437500654747417,1.4536536274501906,0.0,0.0,0.0,1.1672544743720845
2025/04/09 11:16:19.91132762,1744190179,90426336,,2.0612590313564,0.4092481936555554,0.0,0.0,0.0,-0.4444114542941531
2025/04/09 11:16:19.190763874,1744190179,190604839,,0.8228117160700066,0.28852011812885436,0.0,0.0,0.0,4.533796243338809
2025/04/09 11:16:19.292733501,1744190179,292390210,,1.4635841028844112,-1.0947587771696057,0.0,0.0,0.0,5.244960436545082
2025/04/09 11:16:19.392788361,1744190179,392176403,,3.021841193781597,2.053664568666534,0.0,0.0,0.0,4.463425593331456
2025/04/09 11:16:19.491185870,1744190179,490932940,,2.8380594904944587,-0.9917256659536875,0.0,0.0,0.0,3.8307225006587835
2025/04/09 11:16:19.591671814,1744190179,591504337,,2.1931042296697214,0.9710019927053715,0.0,0.0,0.0,4.801452907839954
2025/04/09 11:16:19.690145095,1744190179,689834982,,0.9245179884035224,2.3526225288560347,0.0,0.0,0.0,3.2296910144030235
2025/04/09 11:16:19.793153257,1744190179,792986145,,1.5815139226445183,0.27139237305121355,0.0,0.0,0.0,2.937279781202511
2025/04/09 11:16:19.917979200,1744190179,917797408,,0.2234791885632319,0.01924606419539998,0.0,0.0,0.0,4.788146704587131
2025/04/09 11:16:19.995499225,1744190179,994981040,,0.8523681106750303,-1.2226943788104307,0.0,0.0,0.0,4.783956492548725
2025/04/09 11:16:20.93312643,1744190180,93162306,,1.778638260218159,-1.9993129837058667,0.0,0.0,0.0,-1.208372184408411
2025/04/09 11:16:20.191899824,1744190180,191797314,,2.5175099027806596,-1.6599292440802955,0.0,0.0,0.0,-1.1459034473068428
2025/04/09 11:16:20.291606658,1744190180,291334551,,1.5388221155444484,-2.242364189253891,0.0,0.0,0.0,-3.462789564547439
2025/04/09 11:16:20.392836909,1744190180,392656300,,1.419197952240708,0.48112512613733216,0.0,0.0,0.0,-3.585809646914811
2025/04/09 11:16:20.490615899,1744190180,490482294,,1.9551754446903544,-1.8261466442766654,0.0,0.0,0.0,-3.5136463104964726
2025/04/09 11:16:20.590433140,1744190180,590279377,,2.4777823502742677,0.5692381695543318,0.0,0.0,0.0,-3.5282982515351833
2025/04/09 11:16:20.692265048,1744190180,692117902,,0.4970172529812942,-2.0234902296870843,0.0,0.0,0.0,-2.4260664651948947
2025/04/09 11:16:20.793545315,1744190180,793362744,,1.0904880496761464,0.9894916509368663,0.0,0.0,0.0,-2.4324311504023832
2025/04/09 11:16:20.892224026,1744190180,892077427,,0.4841281737488998,-0.73824705584315,0.0,0.0,0.0,-3.402589901761514
2025/04/09 11:16:20.994446637,1744190180,994137393,,1.062552235678396,1.6505060907149094,0.0,0.0,0.0,-3.3292545002199407
2025/04/09 11:16:21.123714068,1744190181,120774777,,1.6312176203167255,-0.48705327338349136,0.0,0.0,0.0,-3.2968362685349675
2025/04/09 11:16:21.191251572,1744190181,191102612,,2.128362494486524,1.7240059300167943,0.0,0.0,0.0,-3.3192311217797226
2025/04/09 11:16:21.293654332,1744190181,293486656,,0.649621613402843,-0.5305922599994304,0.0,0.0,0.0,-1.653850956760154
2025/04/09 11:16:21.393604435,1744190181,392142082,,-0.6687385643868993,-0.3633200850370706,0.0,0.0,0.0,0.452379740043936
2025/04/09 11:16:21.491993852,1744190181,490949243,,0.25707713637831375,-2.619366274506504,0.0,0.0,0.0,0.10584418327578504
2025/04/09 11:16:21.590744956,1744190181,590580543,,2.445219092973943,-0.44682695091876923,0.0,0.0,0.0,1.4111178175585124
2025/04/09 11:16:21.691714388,1744190181,691555135,,2.9139755948415598,-2.677138711081817,0.0,0.0,0.0,1.3766149562078969
2025/04/09 11:16:21.791997858,1744190181,791848361,,2.6172548892092706,-0.5016451343261821,0.0,0.0,0.0,1.971232004112137
2025/04/09 11:16:21.898016463,1744190181,896561813,,1.3868680056060398,-0.987134038490904,0.0,0.0,0.0,0.3487616148619139
2025/04/09 11:16:21.992887800,1744190181,992419754,,1.5981650168609178,-0.5285676132151202,0.0,0.0,0.0,0.34195434376954026
2025/04/09 11:16:22.93603494,1744190182,91445536,,2.058602466070994,-0.7358629132926744,0.0,0.0,0.0,-3.253905471574246
2025/04/09 11:16:22.193505570,1744190182,193212641,,2.513769721515885,1.4663366616718179,0.0,0.0,0.0,-3.2194187138165393
2025/04/09 11:16:22.320401185,1744190182,320271344,,1.6353157737679922,-0.17600352802410413,0.0,0.0,0.0,-1.0882823211348782
2025/04/09 11:16:22.391503704,1744190182,391354207,,0.11838234700164918,2.0152196327991874,0.0,0.0,0.0,-2.706508884144725
2025/04/09 11:16:22.491912073,1744190182,490393912,,0.6210112009921218,-0.2076962043550168,0.0,0.0,0.0,-2.6755395846561196
2025/04/09 11:16:22.593186093,1744190182,593031749,,0.8231818819279084,1.9867389137929266,0.0,0.0,0.0,-2.4037486782439252
2025/04/09 11:16:22.691526274,1744190182,691199889,,4.468736551258488,-1.4038057522023166,0.0,0.0,0.0,-3.9293572522318065
2025/04/09 11:16:22.793322316,1744190182,793009881,,4.886023737791213,0.7832664317676539,0.0,0.0,0.0,-3.923487551255942
2025/04/09 11:16:22.892196815,1744190182,891967620,,3.2032394522284733,-0.48903981318668244,0.0,0.0,0.0,-3.7038264840620094
2025/04/09 11:16:22.991138338,1744190182,990732215,,1.7976618650593181,1.4562729550303075,0.0,0.0,0.0,-1.8332174490512614
2025/04/09 11:16:23.96924944,1744190183,96313186,,2.2137253580360294,-0.7742583879252543,0.0,0.0,0.0,-1.7771738332877494
2025/04/09 11:16:23.191966527,1744190183,191506899,,2.6471221229652713,0.7987353710429339,0.0,0.0,0.0,-0.8643003022710811
2025/04/09 11:16:23.293758683,1744190183,291658453,,3.041378184906833,-1.4139313399616888,0.0,0.0,0.0,-0.7486939665755408
2025/04/09 11:16:23.393653737,1744190183,393493474,,3.422034439024607,0.812947470851455,0.0,0.0,0.0,-0.7537823383294757
2025/04/09 11:16:23.518870690,1744190183,518675852,,-0.18680908511817762,-1.3811613158416058,0.0,0.0,0.0,-0.7187130460029536
2025/04/09 11:16:23.590673528,1744190183,590491755,,0.2535739886063766,0.8561819179424823,0.0,0.0,0.0,-0.6864769109787936
2025/04/09 11:16:23.692297859,1744190183,692151300,,0.691649421395617,0.2506359560547189,0.0,0.0,0.0,-3.5956453393605408
2025/04/09 11:16:23.791008780,1744190183,790759094,,1.1372460354137246,0.7942501510053077,0.0,0.0,0.0,-0.5396853420666687
2025/04/09 11:16:23.896115588,1744190183,895969574,,1.5658261979476293,-1.3933124515479136,0.0,0.0,0.0,-0.52147734013856
2025/04/09 11:16:23.993724777,1744190183,993424156,,4.285876269769844,0.8093091339284868,0.0,0.0,0.0,-0.8795527482650787
2025/04/09 11:16:24.92952080,1744190184,92539755,,4.635250028420835,-0.37924315846893464,0.0,0.0,0.0,2.495503233478873
2025/04/09 11:16:24.193053445,1744190184,192808017,,3.25557183475415,2.3461134259688308,0.0,0.0,0.0,2.4517665600879326
2025/04/09 11:16:24.295056704,1744190184,294904007,,3.5696953738877752,0.35177557555912387,0.0,0.0,0.0,2.5101993689602278
2025/04/09 11:16:24.392560568,1744190184,392387226,,3.9265143077110594,2.019809828110329,0.0,0.0,0.0,1.325634066016363
2025/04/09 11:16:24.490559393,1744190184,490436815,,0.3091538406948189,-0.19041834015609638,0.0,0.0,0.0,1.3672674437654937
2025/04/09 11:16:24.592364698,1744190184,592202512,,0.672934048263329,0.5291999008472388,0.0,0.0,0.0,1.4013770307454205
2025/04/09 11:16:24.716644725,1744190184,716431925,,1.3622028722777415,1.6456487838196132,0.0,0.0,0.0,1.3651351227454498
2025/04/09 11:16:24.790579930,1744190184,790468258,,1.4077671728665706,1.2678174713608357,0.0,0.0,0.0,1.2708694350146779
2025/04/09 11:16:24.897622471,1744190184,897323255,,1.7706548407573166,0.7035197390131067,0.0,0.0,0.0,4.484282956251709
2025/04/09 11:16:24.992086300,1744190184,991829315,,2.1355747855137395,-0.6214063082150929,0.0,0.0,0.0,4.4024607211493905
2025/04/09 11:16:25.93962233,1744190185,93074999,,0.8432439112012986,-0.1974388378091163,0.0,0.0,0.0,2.407680724389346
2025/04/09 11:16:25.192573837,1744190185,191753659,,1.622181999744356,0.7350785518245218,0.0,0.0,0.0,1.5250002569080454
2025/04/09 11:16:25.293940865,1744190185,293799733,,1.9573665279849095,-0.47231981441372994,0.0,0.0,0.0,1.5086676079654495
2025/04/09 11:16:25.396360062,1744190185,396205234,,2.2948671956932287,-1.416771897545491,0.0,0.0,0.0,1.4444500469661978
2025/04/09 11:16:25.493882141,1744190185,493684668,,2.644076996832922,1.1351537104038592,0.0,0.0,0.0,0.8570238616038139
2025/04/09 11:16:25.590578972,1744190185,590287539,,2.973863014208348,2.1885925521946987,0.0,0.0,0.0,0.8404493223351874
2025/04/09 11:16:25.692626737,1744190185,692462435,,-0.24830801397765612,-1.054665754251669,0.0,0.0,0.0,1.1410417153901662
2025/04/09 11:16:25.790871583,1744190185,790722735,,2.028547357883923,-0.22050546100039625,0.0,0.0,0.0,-0.4556273701900757
2025/04/09 11:16:25.928695142,1744190185,928397016,,2.3195719495634464,1.4901526440819808,0.0,0.0,0.0,-0.4307324235080934
2025/04/09 11:16:25.992636630,1744190185,992445461,,2.610143403401082,-0.5626540091923005,0.0,0.0,0.0,-2.089030766231769
2025/04/09 11:16:26.93129116,1744190186,92901180,,2.8939277315659098,-0.3864565971221481,0.0,0.0,0.0,-2.081186642233641
2025/04/09 11:16:26.191401053,1744190186,191265721,,1.5149153218280986,0.6076072881089871,0.0,0.0,0.0,-3.4146718854772384
2025/04/09 11:16:26.291005056,1744190186,290858079,,1.5516119473521854,-0.1399781432469709,0.0,0.0,0.0,-3.2065937323727596
2025/04/09 11:16:26.393353476,1744190186,393184039,,1.4272487919128025,-0.5845142764621727,0.0,0.0,0.0,-2.503656651060844
2025/04/09 11:16:26.493459302,1744190186,493284026,,1.7576486399003386,-0.6753408436622195,0.0,0.0,0.0,-0.22720264652752853
2025/04/09 11:16:26.593914117,1744190186,593739437,,2.8086909506359845,0.16540674180159698,0.0,0.0,0.0,-0.2631761072554468
2025/04/09 11:16:26.692728101,1744190186,692321099,,3.0778958108004275,0.4301032452925213,0.0,0.0,0.0,-0.22818946912886418
2025/04/09 11:16:26.791587108,1744190186,791473672,,1.4545983473599335,1.9484078067588904,0.0,0.0,0.0,-1.7837224096854225
2025/04/09 11:16:26.894467270,1744190186,894267188,,1.5905205640633753,0.02172062438475919,0.0,0.0,0.0,-1.615388207553556
2025/04/09 11:16:26.991747601,1744190186,991506282,,1.880715293325217,0.3383486556551034,0.0,0.0,0.0,-1.6672003110325875
2025/04/09 11:16:27.121653791,1744190187,121456408,,2.4355201275400518,2.057440782377988,0.0,0.0,0.0,-1.6359188354255902
2025/04/09 11:16:27.192337402,1744190187,192160354,,2.4528547732935877,-0.14002017360397545,0.0,0.0,0.0,-1.8645061230312372
2025/04/09 11:16:27.290961489,1744190187,290671976,,2.494591626046031,0.17794060726871663,0.0,0.0,0.0,-1.7435417163123628
2025/04/09 11:16:27.391595983,1744190187,391476951,,1.95017428446873,1.0643767416856562,0.0,0.0,0.0,-2.2415434967555417
2025/04/09 11:16:27.491225713,1744190187,491125528,,0.21184330235463023,-0.8007356737340459,0.0,0.0,0.0,-3.7755478826481585
2025/04/09 11:16:27.591527377,1744190187,589943991,,0.4888664196872412,-0.45461840478490956,0.0,0.0,0.0,-3.8527584746647374
2025/04/09 11:16:27.691597761,1744190187,691175093,,2.949368544116062,-0.8475374353509082,0.0,0.0,0.0,0.3930829648205716
2025/04/09 11:16:27.793768186,1744190187,793630213,,3.2042692185541313,-1.867624790511659,0.0,0.0,0.0,1.7500931554562662
2025/04/09 11:16:27.895970069,1744190187,895805711,,3.4682665885878663,-1.5237697234836922,0.0,0.0,0.0,1.786006182934761
2025/04/09 11:16:27.998952852,1744190187,997245422,,3.938031730801022,0.23123981648932102,0.0,0.0,0.0,1.782152210237875
2025/04/09 11:16:28.92041269,1744190188,91870654,,3.925615862486474,-1.850657422582394,0.0,0.0,0.0,1.6622900949063162
2025/04/09 11:16:28.191124146,1744190188,190962429,,0.459218671810234,-1.5286938739552376,0.0,0.0,0.0,1.923235463875562
2025/04/09 11:16:28.322673342,1744190188,320967824,,0.7228423711225531,-0.13911384597526322,0.0,0.0,0.0,1.657455557098686
2025/04/09 11:16:28.395388166,1744190188,395218887,,0.9593561567253843,-0.01791885351828526,0.0,0.0,0.0,-2.0161680093060887
2025/04/09 11:16:28.491834602,1744190188,491719256,,1.182430281004578,0.29960878084868625,0.0,0.0,0.0,-2.055057476598506
2025/04/09 11:16:28.594735955,1744190188,591265478,,1.4023341918397207,-0.16115427997542753,0.0,0.0,0.0,-5.623901287955258
2025/04/09 11:16:28.691511484,1744190188,691332953,,1.8105263526349162,-0.7824870963018284,0.0,0.0,0.0,-5.334711507345029
2025/04/09 11:16:28.791109915,1744190188,790951018,,0.7930510442072176,-0.935863476783183,0.0,0.0,0.0,-6.525899055729122
2025/04/09 11:16:28.893755396,1744190188,893494284,,0.3911558100678505,-1.4749031507265578,0.0,0.0,0.0,-1.8846984983682162
2025/04/09 11:16:28.998947903,1744190188,998155879,,2.8527605934318885,-1.8928982004771484,0.0,0.0,0.0,-3.4278173955082654
2025/04/09 11:16:29.97050559,1744190189,96636288,,3.3917977492269245,-3.713983962507463,0.0,0.0,0.0,-2.9528149114327302
2025/04/09 11:16:29.191444939,1744190189,191321563,,3.5384246053013015,-3.0754343085348523,0.0,0.0,0.0,0.575296977191984
2025/04/09 11:16:29.294599380,1744190189,294325362,,1.676404578419465,-0.35834027703505456,0.0,0.0,0.0,1.9451724047644117
2025/04/09 11:16:29.393307519,1744190189,391675474,,1.2620684427915165,-1.1273041190113808,0.0,0.0,0.0,-1.6013475472981948
2025/04/09 11:16:29.519144490,1744190189,518991470,,2.018665179741504,-0.9262249112333762,0.0,0.0,0.0,-1.2031733261977102
2025/04/09 11:16:29.591204628,1744190189,591035443,,2.1233375784983792,1.076395708203524,0.0,0.0,0.0,-1.3407956972055803
2025/04/09 11:16:29.691525958,1744190189,689935030,,2.05363268090602,-0.7890733809664532,0.0,0.0,0.0,-1.4485166895529993
2025/04/09 11:16:29.790053256,1744190189,789847196,,0.44102575347890394,1.4414741744072757,0.0,0.0,0.0,-2.9582012782853635
2025/04/09 11:16:29.892172060,1744190189,891980670,,1.8251657920262545,0.17568234740792477,0.0,0.0,0.0,-2.030851895491594
2025/04/09 11:16:29.995820305,1744190189,994194015,,0.819304013111136,0.5666281257634509,0.0,0.0,0.0,-1.0739588102148225
2025/04/09 11:16:30.94955139,1744190190,94082098,,1.2621434548698574,-0.759864593819124,0.0,0.0,0.0,-1.1069239142645237
2025/04/09 11:16:30.194054561,1744190190,193662758,,2.1195418491507567,0.8650387170888436,0.0,0.0,0.0,-1.9583888849475048
2025/04/09 11:16:30.293413769,1744190190,293245324,,2.2933728233245603,0.6321734837581836,0.0,0.0,0.0,1.6382924265240089
2025/04/09 11:16:30.391589094,1744190190,391468837,,2.4651185378216383,-0.924630707887605,0.0,0.0,0.0,1.6103509817420871
2025/04/09 11:16:30.490763766,1744190190,490678007,,0.47544921206542057,-2.2318254505161157,0.0,0.0,0.0,3.047305845690749
2025/04/09 11:16:30.591366587,1744190190,591171954,,-0.14879068627341496,0.9467174273258472,0.0,0.0,0.0,2.4276205439913294
2025/04/09 11:16:30.716990590,1744190190,716776054,,2.0264731683494546,-2.506369171548716,0.0,0.0,0.0,3.761993930086067
2025/04/09 11:16:30.792686637,1744190190,792534222,,3.2270098120578012,-1.9098970175935328,0.0,0.0,0.0,2.9016587520234634
2025/04/09 11:16:30.892673633,1744190190,892501433,,3.3799929856002535,0.34726494856220214,0.0,0.0,0.0,2.8875990792161748
2025/04/09 11:16:30.993517065,1744190190,993363483,,1.5710942726782378,0.3042742014640538,0.0,0.0,0.0,0.6223780827816956
2025/04/09 11:16:31.94013171,1744190191,93827181,,1.7672427705404345,-1.9523499103215407,0.0,0.0,0.0,0.6349412106743113
2025/04/09 11:16:31.193124619,1744190191,192941799,,1.9315886552275217,-1.5688641137728006,0.0,0.0,0.0,0.6398571720760184
2025/04/09 11:16:31.294882159,1744190191,294739914,,0.2232234648045548,1.2809705651586114,0.0,0.0,0.0,2.1194245712191098
2025/04/09 11:16:31.396566371,1744190191,393929575,,0.40627561805216317,0.9150951018921027,0.0,0.0,0.0,2.120899637353695
2025/04/09 11:16:31.492589117,1744190191,492435138,,1.6364758953498892,2.5848125981467795,0.0,0.0,0.0,0.1394870407455624
2025/04/09 11:16:31.590731027,1744190191,590589777,,1.8305447784643292,1.9678479273613512,0.0,0.0,0.0,0.0865535661595267
2025/04/09 11:16:31.692392813,1744190191,692235870,,2.0297192798026202,2.8254206901350614,0.0,0.0,0.0,0.04388119944861835
2025/04/09 11:16:31.791096359,1744190191,790963053,,0.19036406832273656,0.5612568332995949,0.0,0.0,0.0,-1.4097821746808439
2025/04/09 11:16:31.916981355,1744190191,916822857,,0.34855021116340623,0.12797411931215663,0.0,0.0,0.0,-3.2545856533111834
2025/04/09 11:16:31.991367258,1744190191,990909242,,2.4921572453875953,1.4876346819839306,0.0,0.0,0.0,-1.69227635323662
2025/04/09 11:16:32.94938808,1744190192,93928996,,2.048213784974081,2.080438274652188,0.0,0.0,0.0,-1.2128579406194167
2025/04/09 11:16:32.193583121,1744190192,192947406,,2.197347275675554,2.428695198770768,0.0,0.0,0.0,2.3750913248957755
2025/04/09 11:16:32.292854364,1744190192,292668778,,2.3571951916380556,1.180243925984307,0.0,0.0,0.0,1.6610090897435619
2025/04/09 11:16:32.390872637,1744190192,390724046,,3.1449660688468057,2.6393499537016503,0.0,0.0,0.0,1.1311464917324319
2025/04/09 11:16:32.513656254,1744190192,513508716,,2.0455482710271724,0.3425630020794266,0.0,0.0,0.0,2.102093406223789
2025/04/09 11:16:32.591960925,1744190192,591696401,,2.1705200656192503,-1.2171271991973924,0.0,0.0,0.0,2.0687769747279567
2025/04/09 11:16:32.691580318,1744190192,691447481,,1.0138112051317378,-1.7993407449186627,0.0,0.0,0.0,1.0279818306415311
2025/04/09 11:16:32.790544670,1744190192,790321604,,2.122141240115525,-1.3442621209340224,0.0,0.0,0.0,-0.9123016704730116
2025/04/09 11:16:32.895465968,1744190192,895316747,,2.246955608826454,0.7559035559347684,0.0,0.0,0.0,-2.3692641248909023
2025/04/09 11:16:32.997727409,1744190192,997619938,,2.106065114214715,4.061200907511633,0.0,0.0,0.0,-2.120798697886036
2025/04/09 11:16:33.118501582,1744190193,118339867,,2.22112640825722,1.7312498524148054,0.0,0.0,0.0,-2.0951307964748196
2025/04/09 11:16:33.194247454,1744190193,193915582,,1.58329354911983,2.8242907219799207,0.0,0.0,0.0,2.092865950307573
2025/04/09 11:16:33.293142418,1744190193,292994824,,2.2537116222619673,1.0260133306337842,0.0,0.0,0.0,2.4563561243731957
2025/04/09 11:16:33.392074206,1744190193,391849427,,2.394260395499451,-0.10194258308257531,0.0,0.0,0.0,2.429645183941192
2025/04/09 11:16:33.495686028,1744190193,492673041,,1.8038322213853988,-0.8049068846264724,0.0,0.0,0.0,2.993567423190184
2025/04/09 11:16:33.591248345,1744190193,590502427,,3.9010214385224202,0.22859797349635969,0.0,0.0,0.0,0.8790518832940393
2025/04/09 11:16:33.691777171,1744190193,691651517,,3.186134816265259,1.0535039922683502,0.0,0.0,0.0,0.24815040880270445
2025/04/09 11:16:33.790730583,1744190193,790587450,,3.307788661859945,0.03200785354493263,0.0,0.0,0.0,0.2834549714411416
2025/04/09 11:16:33.895223578,1744190193,895054213,,1.7541561745358578,-0.1510702241868387,0.0,0.0,0.0,1.6267660833807032
2025/04/09 11:16:33.994958223,1744190193,994777788,,1.9017806601193143,1.2989336377148213,0.0,0.0,0.0,1.4515255705291494
2025/04/09 11:16:34.94500729,1744190194,94125744,,0.2672679028992633,-1.4100748746357752,0.0,0.0,0.0,-2.027514720578992
2025/04/09 11:16:34.192003438,1744190194,191821130,,0.43938537409515277,-1.5327057157882784,0.0,0.0,0.0,-1.914158791040533
2025/04/09 11:16:34.316066839,1744190194,315919168,,1.7256737931876671,-1.386121621607792,0.0,0.0,0.0,-1.0076231581380668
2025/04/09 11:16:34.392349711,1744190194,392231980,,1.6328846888963042,-0.6988230108087059,0.0,0.0,0.0,-0.78416933564408
2025/04/09 11:16:34.495082397,1744190194,492454429,,1.7480187452438471,0.8190615578296239,0.0,0.0,0.0,-0.9144711857287966
2025/04/09 11:16:34.589906277,1744190194,589798143,,1.6880850570095731,2.8069887959155793,0.0,0.0,0.0,2.6789628623356183
2025/04/09 11:16:34.692145687,1744190194,691986774,,1.7814447391765853,1.0196494406588492,0.0,0.0,0.0,2.685646501731263
2025/04/09 11:16:34.792475710,1744190194,791834232,,0.7785775426124175,-0.33931399116985617,0.0,0.0,0.0,3.5478331264787855
2025/04/09 11:16:34.897285845,1744190194,896476029,,2.5119851467232337,0.0717423003731632,0.0,0.0,0.0,2.326699573795981
2025/04/09 11:16:34.999200461,1744190194,999066686,,1.8355654427095516,2.2942999007206275,0.0,0.0,0.0,1.910357989078408
2025/04/09 11:16:35.97178762,1744190195,96740202,,4.1283024091601845,0.7189935563097798,0.0,0.0,0.0,3.3122278133548626
2025/04/09 11:16:35.194466358,1744190195,194157356,,4.1944841284723715,-0.17503138241564997,0.0,0.0,0.0,3.4398318803410763
2025/04/09 11:16:35.293005097,1744190195,292744406,,3.539850379659523,1.9194650734011525,0.0,0.0,0.0,3.735242871908776
2025/04/09 11:16:35.393230298,1744190195,393105803,,2.3998204182392158,-1.0553065764222325,0.0,0.0,0.0,2.2691671499458916
2025/04/09 11:16:35.524898143,1744190195,524493076,,2.5093679423656923,1.4360741854781374,0.0,0.0,0.0,2.136092990225661
2025/04/09 11:16:35.593067847,1744190195,592745108,,1.4995774574670122,2.7499697664763403,0.0,0.0,0.0,3.0317685904729252
2025/04/09 11:16:35.691027706,1744190195,690867405,,1.6002541450596155,0.9238920758066484,0.0,0.0,0.0,3.0971346007791194
2025/04/09 11:16:35.790158451,1744190195,790007947,,1.7026873663248239,1.3196544843670353,0.0,0.0,0.0,1.8522970417647198
