time,header_stamp_secs,header_stamp_nsecs,header_frame_id,wrench_force_x,wrench_force_y,wrench_force_z,wrench_torque_x,wrench_torque_y,wrench_torque_z
2025/04/09 09:59:46.531301384,1744185586,529815757,,-0.18952645361423465,0.846937894821167,0.0,0.0,0.0,-2.502436399459839
2025/04/09 09:59:46.629984223,1744185586,629483425,,-0.18100738525390356,2.165103435516337,0.0,0.0,0.0,-2.4222440719604204
2025/04/09 09:59:46.731390083,1744185586,725368544,,-0.18241101503372167,2.165343284606934,0.0,0.0,0.0,-2.422761201858522
2025/04/09 09:59:46.822076128,1744185586,821725342,,-0.1596281677484506,1.433827280998226,0.0,0.0,0.0,-2.5698721408843928
2025/04/09 09:59:46.923901959,1744185586,922197152,,-0.13901047408580808,1.4836504459381104,0.0,0.0,0.0,-2.5432336330413814
2025/04/09 09:59:47.20729204,1744185587,20551601,,-0.12714998424053012,2.3173909187316664,0.0,0.0,0.0,-2.540022373199429
2025/04/09 09:59:47.122787872,1744185587,122446661,,-0.12131658196449746,-0.12037700414658538,0.0,0.0,0.0,-2.537535190582255
2025/04/09 09:59:47.235773346,1744185587,234707505,,-0.1246617212891564,1.2198090553283645,0.0,0.0,0.0,-2.5326232910156197
2025/04/09 09:59:47.331603281,1744185587,331011809,,-0.12573525309562658,0.496547698974608,0.0,0.0,0.0,-2.547042608261107
2025/04/09 09:59:47.421247026,1744185587,421027714,,-0.12704522907733937,0.49666783213615423,0.0,0.0,0.0,-2.5475771427154537
2025/04/09 09:59:47.521988060,1744185587,521799904,,-0.1158931925892829,0.22642539441585544,0.0,0.0,0.0,-2.507606744766236
2025/04/09 09:59:47.625513930,1744185587,625291997,,-0.11100160330534581,-1.5943570137023704,0.0,0.0,0.0,-2.5038130283355433
2025/04/09 09:59:47.721261672,1744185587,720766828,,-0.10390818864107165,-1.4546529054641721,0.0,0.0,0.0,-2.4897637367248526
2025/04/09 09:59:47.822542707,1744185587,822325857,,-0.07437133789061767,0.4175159931182839,0.0,0.0,0.0,-2.485144138336175
2025/04/09 09:59:47.924436921,1744185587,923086666,,-0.07002154737711341,-1.2170838117599398,0.0,0.0,0.0,-2.4854741096496475
2025/04/09 09:59:48.23702741,1744185588,23259386,,-0.09064352512358785,1.092572331428519,0.0,0.0,0.0,-2.4783446788787753
2025/04/09 09:59:48.122311958,1744185588,122038574,,-0.07313388586044917,-0.7236526608467031,0.0,0.0,0.0,-2.469635963439933
2025/04/09 09:59:48.223919753,1744185588,223684263,,-0.10069061815737983,1.390492200851427,0.0,0.0,0.0,-2.4702076911926136
2025/04/09 09:59:48.323054677,1744185588,322765949,,-0.002146248938523554,-0.8939065933227466,0.0,0.0,0.0,-2.4496445655822656
2025/04/09 09:59:48.422685168,1744185588,422340723,,-0.15538004040717285,1.3042823076248042,0.0,0.0,0.0,-2.4469077587127552
2025/04/09 09:59:48.523915827,1744185588,523637328,,-0.02494765445590752,-0.9458200335502549,0.0,0.0,0.0,-2.429869413375846
2025/04/09 09:59:48.622426549,1744185588,621869911,,-0.1607563495635899,1.2740570306777832,0.0,0.0,0.0,-2.4278621673583856
2025/04/09 09:59:48.722461875,1744185588,722156413,,-0.02313104644418451,-0.961674273014061,0.0,0.0,0.0,-2.411431789398186
2025/04/09 09:59:48.821956075,1744185588,821701044,,-0.15509682893752225,1.2629382610320927,0.0,0.0,0.0,-2.4091196060180544
2025/04/09 09:59:48.923969516,1744185588,922734091,,-0.14119030535221097,0.8243917822837822,0.0,0.0,0.0,-2.422829866409301
2025/04/09 09:59:49.21346673,1744185589,21099697,,-0.12040189653635032,0.749840795993805,0.0,0.0,0.0,-2.2401826381683354
2025/04/09 09:59:49.122545298,1744185589,122262234,,-0.09206031262875192,-1.413554787635789,0.0,0.0,0.0,-2.3211264610290376
2025/04/09 09:59:49.222690162,1744185589,222501167,,-0.07857475429772334,1.0067747831344527,0.0,0.0,0.0,-2.3704943656921302
2025/04/09 09:59:49.322638626,1744185589,321954857,,-0.05135682970285993,-1.0831351280212318,0.0,0.0,0.0,-2.364266872405997
2025/04/09 09:59:49.429161760,1744185589,428890844,,-0.07333824038504834,1.1985578536987203,0.0,0.0,0.0,-2.3549153804778946
2025/04/09 09:59:49.522350350,1744185589,522125889,,-0.05663742125034965,-0.984391212463372,0.0,0.0,0.0,-2.347632884979241
2025/04/09 09:59:49.621264718,1744185589,621028043,,-0.056237466633320105,-0.4943900406360622,0.0,0.0,0.0,-2.3608651161193843
2025/04/09 09:59:49.722539399,1744185589,722228681,,-0.07865827530622138,1.2118880748748708,0.0,0.0,0.0,-2.3316497802734295
2025/04/09 09:59:49.823761982,1744185589,823508311,,-0.05903871357441348,-0.617000877857205,0.0,0.0,0.0,-2.3140578269958447
2025/04/09 09:59:49.928315427,1744185589,928004499,,0.023586029186847116,1.0965985059738108,0.0,0.0,0.0,-2.29968380928039
2025/04/09 09:59:50.27377115,1744185590,27131911,,-0.11057718843221964,-0.6698161363601658,0.0,0.0,0.0,-2.3015899658203103
2025/04/09 09:59:50.124958270,1744185590,124718000,,0.002137636067348552,1.0263847112655589,0.0,0.0,0.0,-2.287116765975947
2025/04/09 09:59:50.224457623,1744185590,224212864,,-0.12359462678432748,-0.7241469621658294,0.0,0.0,0.0,-2.285181283950803
2025/04/09 09:59:50.333418403,1744185590,330077257,,-0.0031795732211299943,0.9895691871643029,0.0,0.0,0.0,-2.269428730010983
2025/04/09 09:59:50.422254286,1744185590,421021468,,-0.03325700759887687,0.3052850663661949,0.0,0.0,0.0,-2.2527842521667467
2025/04/09 09:59:50.523649374,1744185590,523456333,,-0.08920179307460789,-0.0960616320371628,0.0,0.0,0.0,-2.247201442718506
2025/04/09 09:59:50.624777215,1744185590,624573986,,-0.1084960252046584,0.31764924526214583,0.0,0.0,0.0,-2.249165296554565
2025/04/09 09:59:50.724820233,1744185590,723713455,,-0.1024274677038189,0.9908183813095075,0.0,0.0,0.0,-2.251389026641843
2025/04/09 09:59:50.826050549,1744185590,825825020,,-0.07141824066639213,-0.7718804478645294,0.0,0.0,0.0,-2.243703365325924
2025/04/09 09:59:50.929620869,1744185590,929188570,,-0.07781475782394125,0.9841979742050124,0.0,0.0,0.0,-2.2377407550811714
2025/04/09 09:59:51.25563312,1744185591,25182734,,-0.07490763068199408,-0.7782015204429595,0.0,0.0,0.0,-2.2322103977203334
2025/04/09 09:59:51.126244902,1744185591,125869138,,0.03634616360068589,0.9542954564094503,0.0,0.0,0.0,-2.2099332809448207
2025/04/09 09:59:51.223588870,1744185591,221764349,,-0.09616712480784784,-0.7769106030464024,0.0,0.0,0.0,-2.2078955173492263
2025/04/09 09:59:51.324974924,1744185591,324417625,,0.018265051767232424,0.9528381228446924,0.0,0.0,0.0,-2.1923899650573695
2025/04/09 09:59:51.434140056,1744185591,433861387,,28.71207758836867,0.22988536557446615,0.0,0.0,0.0,-1.8996887207041446
2025/04/09 09:59:51.532594032,1744185591,532309066,,59.07042985310903,1.5412143468533603,0.0,0.0,0.0,-2.009802341461068
2025/04/09 09:59:51.631405563,1744185591,631058611,,92.3693703508957,1.3097664123433255,0.0,0.0,0.0,-2.1026535034219265
2025/04/09 09:59:51.725510599,1744185591,725272011,,119.40380096435547,0.734264194965359,0.0,0.0,0.0,-2.124531984329252
2025/04/09 09:59:51.823787501,1744185591,823596743,,119.59680175781224,2.837806463241524,0.0,0.0,0.0,-2.1642799377439133
2025/04/09 09:59:51.924343016,1744185591,924141034,,119.79688262939445,2.237845897674525,0.0,0.0,0.0,-1.9744384288786705
2025/04/09 09:59:52.24354254,1744185592,24114012,,120.09207153320301,1.7610530853270276,0.0,0.0,0.0,-2.0695981979370544
2025/04/09 09:59:52.144575462,1744185592,144346000,,120.29550933837876,2.7180423736572124,0.0,0.0,0.0,-2.093241691589327
2025/04/09 09:59:52.233263151,1744185592,231104605,,120.4785614013671,2.412029504776015,0.0,0.0,0.0,-1.7060590982436707
2025/04/09 09:59:52.329377426,1744185592,328738621,,120.68830108642584,1.1448752880094162,0.0,0.0,0.0,-1.7404882907871269
2025/04/09 09:59:52.423905330,1744185592,423686440,,120.87224578857422,2.829651832580563,0.0,0.0,0.0,-1.7501504421234273
2025/04/09 09:59:52.524125005,1744185592,523913822,,120.95046997070327,4.161427497863954,0.0,0.0,0.0,-1.228564381599199
2025/04/09 09:59:52.622560387,1744185592,622364715,,120.8752670288086,1.3102416992187251,0.0,0.0,0.0,-1.6139254570007466
2025/04/09 09:59:52.724756100,1744185592,724406387,,120.90218353271482,2.2295942306518732,0.0,0.0,0.0,-1.5765563249575223
2025/04/09 09:59:52.822461441,1744185592,822207647,,120.68917846679688,1.368818163871774,0.0,0.0,0.0,-1.143543004989624
2025/04/09 09:59:52.924237266,1744185592,923025891,,120.58619689941405,0.48079118132591425,0.0,0.0,0.0,-1.3933670520782329
2025/04/09 09:59:53.23460154,1744185593,23196150,,120.65567016601555,0.6721179485319784,0.0,0.0,0.0,-1.477126121520719
2025/04/09 09:59:53.124417585,1744185593,124181517,,120.70075225830014,0.4707801640033682,0.0,0.0,0.0,-0.30808159708976035
2025/04/09 09:59:53.222090374,1744185593,221869627,,120.74295806884766,0.7926783561706552,0.0,0.0,0.0,-0.15848396718502045
2025/04/09 09:59:53.321060766,1744185593,320849826,,120.8663558959961,0.8244253993034372,0.0,0.0,0.0,-0.08026228100059996
2025/04/09 09:59:53.422534890,1744185593,421425961,,121.01345825195312,1.2439862489700317,0.0,0.0,0.0,-0.013732140883803368
2025/04/09 09:59:53.521497637,1744185593,521273249,,121.1326904296875,2.8813035488128675,0.0,0.0,0.0,0.03403444215655327
2025/04/09 09:59:53.622545461,1744185593,621563301,,121.2811050415039,1.2297151088714604,0.0,0.0,0.0,0.0920177549123693
2025/04/09 09:59:53.722714503,1744185593,721708679,,121.39764404296875,2.404573917388917,0.0,0.0,0.0,0.31827130913733725
2025/04/09 09:59:53.821344733,1744185593,821087108,,121.52259826660156,2.108280420303345,0.0,0.0,0.0,0.32058045268058066
2025/04/09 09:59:53.921201770,1744185593,920996072,,121.6225814819336,2.3615250587463374,0.0,0.0,0.0,0.6215770840644907
2025/04/09 09:59:54.22350221,1744185594,21665440,,121.7055435180664,3.101167201995851,0.0,0.0,0.0,0.7147772908210754
2025/04/09 09:59:54.121714941,1744185594,121500132,,121.78036499023438,2.2163701057434095,0.0,0.0,0.0,-0.23767060041427612
2025/04/09 09:59:54.224829137,1744185594,224606065,,122.17722320556639,3.3447477817535427,0.0,0.0,0.0,0.4700230062007904
2025/04/09 09:59:54.323084386,1744185594,321650393,,122.43268585205078,3.0002577304840097,0.0,0.0,0.0,0.3121449649333954
2025/04/09 09:59:54.421855246,1744185594,421299325,,122.29751586914062,2.527290344238281,0.0,0.0,0.0,0.06281988322734833
2025/04/09 09:59:54.521041508,1744185594,520843747,,122.55976867675784,0.7202352285385136,0.0,0.0,0.0,0.18812067806722155
2025/04/09 09:59:54.621072623,1744185594,620850415,,122.61153411865234,1.1439330577850346,0.0,0.0,0.0,0.32258597016335244
2025/04/09 09:59:54.721056186,1744185594,720849476,,122.61515808105469,-0.436657458543777,0.0,0.0,0.0,0.4230853617191386
2025/04/09 09:59:54.822311584,1744185594,822029199,,122.81481170654297,0.3173151910305019,0.0,0.0,0.0,0.5104275941848755
2025/04/09 09:59:54.922499059,1744185594,922293720,,123.037239074707,2.353912830352784,0.0,0.0,0.0,0.6073177456855845
2025/04/09 09:59:55.21339269,1744185595,21135034,,122.91075134277344,2.2813603878021236,0.0,0.0,0.0,0.5438539981842183
2025/04/09 09:59:55.122910546,1744185595,122719491,,123.39253234863284,2.1531624794006343,0.0,0.0,0.0,1.171117901802063
2025/04/09 09:59:55.222682995,1744185595,222418778,,123.2505874633789,3.6577851772308376,0.0,0.0,0.0,0.9154552817344594
2025/04/09 09:59:55.322750144,1744185595,322488745,,123.43344116210936,2.7156941890716566,0.0,0.0,0.0,1.1360173225402903
2025/04/09 09:59:55.421363230,1744185595,421132659,,123.8243637084961,2.5136382579803462,0.0,0.0,0.0,1.2986565828323506
2025/04/09 09:59:55.521206581,1744185595,521019409,,123.76136779785156,2.5294492244720446,0.0,0.0,0.0,1.4101744890213084
2025/04/09 09:59:55.622760275,1744185595,621386492,,123.9752197265625,3.242302656173706,0.0,0.0,0.0,1.5109317302703786
2025/04/09 09:59:55.725969677,1744185595,725775986,,125.13626861572266,3.233105182647704,0.0,0.0,0.0,1.5191823244095062
2025/04/09 09:59:55.821027573,1744185595,820774765,,125.3778533935547,4.479290962219244,0.0,0.0,0.0,1.6314980983734202
2025/04/09 09:59:55.920688369,1744185595,920471865,,125.81501007080078,3.996149063110355,0.0,0.0,0.0,1.7854928970336914
2025/04/09 09:59:56.21890287,1744185596,20889049,,126.02056121826172,3.5599462985992436,0.0,0.0,0.0,1.9519561529159617
2025/04/09 09:59:56.122190013,1744185596,121769059,,126.26600646972656,3.769355297088622,0.0,0.0,0.0,2.1109142303466726
2025/04/09 09:59:56.222563177,1744185596,222352634,,126.07180023193358,3.575942039489747,0.0,0.0,0.0,2.0794267654418945
2025/04/09 09:59:56.331373940,1744185596,329176758,,126.46468353271486,3.1580705642700195,0.0,0.0,0.0,3.084522008895874
2025/04/09 09:59:56.436370699,1744185596,435288414,,126.893684387207,4.408464908599857,0.0,0.0,0.0,2.9001793861389373
2025/04/09 09:59:56.533461387,1744185596,529602850,,128.24388122558594,4.4162755012512225,0.0,0.0,0.0,2.9110167026519846
2025/04/09 09:59:56.621359425,1744185596,621079761,,127.83769989013673,3.727875709533695,0.0,0.0,0.0,2.6930058002471995
2025/04/09 09:59:56.721334652,1744185596,721138562,,128.28758239746094,3.8214511871337997,0.0,0.0,0.0,4.965897560119643
2025/04/09 09:59:56.822793070,1744185596,821387043,,128.79000854492185,3.727979898452759,0.0,0.0,0.0,5.269757747650154
2025/04/09 09:59:56.922413695,1744185596,922229810,,129.3025665283203,2.5833230018615825,0.0,0.0,0.0,5.443212032318115
2025/04/09 09:59:57.22232586,1744185597,22039835,,129.78390502929685,2.3961968421936044,0.0,0.0,0.0,5.76408386230468
2025/04/09 09:59:57.123902740,1744185597,123708467,,130.38653564453125,1.78184783458711,0.0,0.0,0.0,4.039202690124519
2025/04/09 09:59:57.225035915,1744185597,222825006,,130.92047119140625,3.877629518508937,0.0,0.0,0.0,5.852332115173375
2025/04/09 09:59:57.322528483,1744185597,322275020,,131.3079071044922,4.683124065399173,0.0,0.0,0.0,6.485267162323005
2025/04/09 09:59:57.424908179,1744185597,424326009,,131.75817871093705,6.434761047363304,0.0,0.0,0.0,6.351202487945635
2025/04/09 09:59:57.524050450,1744185597,522664930,,132.23643493652332,5.850139141082788,0.0,0.0,0.0,6.640013217926011
2025/04/09 09:59:57.621570231,1744185597,621349456,,132.7480468749998,6.171277523040785,0.0,0.0,0.0,7.138237476348891
2025/04/09 09:59:57.721867369,1744185597,721649167,,133.03135681152318,6.169099807739308,0.0,0.0,0.0,6.022027492523158
2025/04/09 09:59:57.822214914,1744185597,821934663,,133.74510192871065,6.14315986633305,0.0,0.0,0.0,5.475712776184032
2025/04/09 09:59:57.923065399,1744185597,922714554,,135.4260101318355,6.174857616424612,0.0,0.0,0.0,5.493334293365436
2025/04/09 09:59:58.30640932,1744185598,29479451,,136.1034088134748,7.603279113769656,0.0,0.0,0.0,5.7541475296021005
2025/04/09 09:59:58.123217188,1744185598,123040235,,136.82748413085932,5.4845066070558675,0.0,0.0,0.0,6.015491485595753
2025/04/09 09:59:58.222254208,1744185598,221420830,,137.18992614746094,3.380777359008845,0.0,0.0,0.0,5.962701797485408
2025/04/09 09:59:58.321651239,1744185598,321411508,,137.92439270019528,4.038445949554449,0.0,0.0,0.0,6.612189769744887
2025/04/09 09:59:58.420914347,1744185598,420717659,,138.49169921875,3.2561435699462926,0.0,0.0,0.0,7.6361026763915945
2025/04/09 09:59:58.522090368,1744185598,521817426,,139.38360595703125,4.133645057678226,0.0,0.0,0.0,7.354537487030029
2025/04/09 09:59:58.624824461,1744185598,624519402,,140.1306915283203,7.335781574249268,0.0,0.0,0.0,9.723684310913079
2025/04/09 09:59:58.723301298,1744185598,723098232,,140.8415222167942,6.532181262970401,0.0,0.0,0.0,10.285641670226696
2025/04/09 09:59:58.825769745,1744185598,825469994,,141.7887878417968,9.400506019592282,0.0,0.0,0.0,8.06304454803471
2025/04/09 09:59:58.924287299,1744185598,924070080,,142.46273803710918,9.193627357482896,0.0,0.0,0.0,9.075246810913157
2025/04/09 09:59:59.24323485,1744185599,22134932,,143.3258666992178,8.843175888061676,0.0,0.0,0.0,8.77263641357402
2025/04/09 09:59:59.124254739,1744185599,123889073,,144.15423583983608,8.772203445437114,0.0,0.0,0.0,9.880883216853697
2025/04/09 09:59:59.223326137,1744185599,223088012,,144.67254638671878,6.500589370727412,0.0,0.0,0.0,8.958436012268557
2025/04/09 09:59:59.324328092,1744185599,324136496,,146.68319702148432,6.56104373931876,0.0,0.0,0.0,8.989398956299063
2025/04/09 09:59:59.423703374,1744185599,423496559,,147.59310913085966,5.6681137084960636,0.0,0.0,0.0,9.588525772094897
2025/04/09 09:59:59.522627404,1744185599,522446358,,148.144302368164,7.772520065307608,0.0,0.0,0.0,9.538084983825705
2025/04/09 09:59:59.625446571,1744185599,625076621,,149.14398193359375,8.022715568542472,0.0,0.0,0.0,11.419568061828656
2025/04/09 09:59:59.723140944,1744185599,722909269,,149.80273437499997,7.760041713714589,0.0,0.0,0.0,10.50253200531008
2025/04/09 09:59:59.823177625,1744185599,822713461,,150.7080841064453,8.773162841796871,0.0,0.0,0.0,11.047930717468276
2025/04/09 09:59:59.926763935,1744185599,926439088,,152.8592681884765,8.85030364990234,0.0,0.0,0.0,11.087603569030755
2025/04/09 10:00:00.21766030,1744185600,21555352,,153.85403442382807,10.937685012817395,0.0,0.0,0.0,11.357011795043917
2025/04/09 10:00:00.121894666,1744185600,121669878,,154.18276977539057,11.538372039794933,0.0,0.0,0.0,11.299368858337367
2025/04/09 10:00:00.222024978,1744185600,221629679,,154.534912109375,11.817560195922853,0.0,0.0,0.0,13.076459884643555
2025/04/09 10:00:00.327150601,1744185600,326915569,,155.69435119628903,11.059703826904295,0.0,0.0,0.0,12.333112716674798
2025/04/09 10:00:00.422210711,1744185600,421781093,,157.96232604980466,11.0173978805542,0.0,0.0,0.0,12.366913795471206
2025/04/09 10:00:00.522308549,1744185600,522093356,,159.00827026367188,11.003423690795898,0.0,0.0,0.0,12.580854415893555
2025/04/09 10:00:00.621951846,1744185600,621770974,,159.51420593261713,9.809213638305662,0.0,0.0,0.0,12.513877868652344
2025/04/09 10:00:00.722010455,1744185600,721428012,,160.71736145019528,11.003202438354492,0.0,0.0,0.0,13.72855949401854
2025/04/09 10:00:00.826983564,1744185600,826746888,,161.10441589355463,12.5993938446045,0.0,0.0,0.0,13.554615020751925
2025/04/09 10:00:00.921465394,1744185600,921214997,,158.24705505371094,10.872251510620103,0.0,0.0,0.0,15.132141113281236
2025/04/09 10:00:01.22912723,1744185601,22702121,,153.34774780273435,12.236260414123533,0.0,0.0,0.0,15.060116767883272
2025/04/09 10:00:01.122009213,1744185601,121805104,,147.2115478515625,12.361722946166985,0.0,0.0,0.0,14.931315422058084
2025/04/09 10:00:01.224042975,1744185601,223839533,,140.28625488281247,9.368924140930172,0.0,0.0,0.0,14.2117691040039
2025/04/09 10:00:01.321672916,1744185601,321453235,,132.3136901855469,6.9360575675964204,0.0,0.0,0.0,13.745558738708475
2025/04/09 10:00:01.422105747,1744185601,421754784,,125.98867797851562,6.3577895164489675,0.0,0.0,0.0,13.784586906433077
2025/04/09 10:00:01.521678087,1744185601,521339231,,117.69857025146486,7.273584365844715,0.0,0.0,0.0,13.870296478271435
2025/04/09 10:00:01.622230944,1744185601,621979209,,109.31737518310548,6.877955913543696,0.0,0.0,0.0,14.390962600707965
2025/04/09 10:00:01.728584149,1744185601,728375864,,103.78082275390626,6.366147041320797,0.0,0.0,0.0,14.392060279846127
2025/04/09 10:00:01.821498001,1744185601,821238811,,98.10720825195318,5.89321279525756,0.0,0.0,0.0,14.073791503906115
2025/04/09 10:00:01.922475226,1744185601,922288843,,93.10903930664077,5.60115242004391,0.0,0.0,0.0,14.103861808776507
2025/04/09 10:00:02.22191438,1744185602,21949088,,87.9331283572341,5.044985294213709,0.0,0.0,0.0,14.081769942637738
2025/04/09 10:00:02.123419802,1744185602,123116860,,83.68149566650472,4.597698688506671,0.0,0.0,0.0,14.039502143858506
2025/04/09 10:00:02.222284548,1744185602,222064082,,79.66510009765639,4.00758600234976,0.0,0.0,0.0,14.389167785644364
2025/04/09 10:00:02.323528155,1744185602,323302497,,75.83676147485417,5.323202609920765,0.0,0.0,0.0,14.292916297459602
2025/04/09 10:00:02.421794171,1744185602,421604630,,72.12718963623084,6.014847278594871,0.0,0.0,0.0,14.194910049437489
2025/04/09 10:00:02.522366650,1744185602,522115135,,68.58282470703125,3.9002842903136825,0.0,0.0,0.0,14.031086921691852
2025/04/09 10:00:02.623883115,1744185602,622312943,,64.95868682861328,3.2361772060393887,0.0,0.0,0.0,14.036623954772963
2025/04/09 10:00:02.722670741,1744185602,721980846,,61.365310668945284,1.527770161628716,0.0,0.0,0.0,13.940016746520989
2025/04/09 10:00:02.822882434,1744185602,822706181,,57.80759811401363,1.6749795675276928,0.0,0.0,0.0,13.862619400024553
2025/04/09 10:00:02.923120537,1744185602,922866327,,54.31288909912104,1.4543745517729825,0.0,0.0,0.0,13.865609169006532
2025/04/09 10:00:03.22178759,1744185603,21888400,,50.71616363525375,2.0481088161464083,0.0,0.0,0.0,13.878674507142058
2025/04/09 10:00:03.122419552,1744185603,122188082,,47.202709197997976,1.516833186149408,0.0,0.0,0.0,13.629397392273347
2025/04/09 10:00:03.222492802,1744185603,222272746,,43.80796432495143,1.743405342101064,0.0,0.0,0.0,13.580670356752677
2025/04/09 10:00:03.322886720,1744185603,322691694,,40.56987380981197,2.6327836513452185,0.0,0.0,0.0,13.58500576020769
2025/04/09 10:00:03.422906604,1744185603,422713055,,37.510124206548895,1.734465956686102,0.0,0.0,0.0,13.737437248226534
2025/04/09 10:00:03.526956240,1744185603,526694285,,34.651062011736705,1.0383547544449572,0.0,0.0,0.0,13.748312950126238
2025/04/09 10:00:03.622246866,1744185603,621291757,,31.99964904785194,0.5473154783240606,0.0,0.0,0.0,13.659526824953218
2025/04/09 10:00:03.722747052,1744185603,722465435,,29.50201225282449,-0.2461790442481835,0.0,0.0,0.0,13.63342952728295
2025/04/09 10:00:03.823019200,1744185603,822735105,,27.00794982910164,1.3233082294453418,0.0,0.0,0.0,13.714038848873319
2025/04/09 10:00:03.922843209,1744185603,922492002,,24.96227645874008,0.46063211560240713,0.0,0.0,0.0,13.697752952575762
2025/04/09 10:00:04.22946704,1744185604,22720944,,23.534406661987237,0.7644455432891011,0.0,0.0,0.0,13.680304527282868
2025/04/09 10:00:04.122983534,1744185604,122736320,,21.807851791381747,1.316660404205229,0.0,0.0,0.0,13.672344207763773
2025/04/09 10:00:04.223206750,1744185604,222532022,,20.17658424377441,0.1004130318760863,0.0,0.0,0.0,13.553196907043459
2025/04/09 10:00:04.321815345,1744185604,321647143,,18.765417098998988,-0.8074946999550976,0.0,0.0,0.0,13.467174530029135
2025/04/09 10:00:04.422730897,1744185604,422055242,,17.498336791992095,-3.9154915809630957,0.0,0.0,0.0,13.560255050659098
2025/04/09 10:00:04.529276375,1744185604,529011813,,15.907274246215822,-3.0639960765838614,0.0,0.0,0.0,13.479722976684574
2025/04/09 10:00:04.623443506,1744185604,620649421,,15.524473190307614,-3.1328084468841535,0.0,0.0,0.0,13.457541465759276
2025/04/09 10:00:04.722612655,1744185604,722373344,,14.521499633789045,-2.9277391433715807,0.0,0.0,0.0,13.41331958770752
2025/04/09 10:00:04.822319597,1744185604,822041409,,13.444272041320783,-2.498092174530031,0.0,0.0,0.0,13.368789672851552
2025/04/09 10:00:04.920854320,1744185604,920616873,,12.752132415771477,-2.1563177108764657,0.0,0.0,0.0,13.142220497131342
2025/04/09 10:00:05.21398860,1744185605,20919878,,12.181230545043935,-2.1911854743957475,0.0,0.0,0.0,13.160374641418457
2025/04/09 10:00:05.123903971,1744185605,123644196,,11.773710250858404,-3.5836634635927966,0.0,0.0,0.0,12.852348327633395
2025/04/09 10:00:05.223409293,1744185605,222979125,,11.462984085083006,-2.506448507309,0.0,0.0,0.0,13.0342597961425
2025/04/09 10:00:05.321047546,1744185605,320844073,,11.177362442016605,-1.8312548398971735,0.0,0.0,0.0,12.603582382202102
2025/04/09 10:00:05.423359382,1744185605,422266850,,10.935273170471191,-1.826075553894042,0.0,0.0,0.0,12.456461906433104
2025/04/09 10:00:05.521763583,1744185605,521574276,,10.880190849304158,-3.481572151184176,0.0,0.0,0.0,12.382076263427535
2025/04/09 10:00:05.622425403,1744185605,622208147,,11.032528877245486,0.04154363275257911,0.0,0.0,0.0,12.331256866427307
2025/04/09 10:00:05.720808628,1744185605,720584447,,10.836127281188983,-0.7581573724746873,0.0,0.0,0.0,12.53062152862529
2025/04/09 10:00:05.830315337,1744185605,826560739,,11.400747299194325,-0.7468730211257899,0.0,0.0,0.0,12.505706787109366
2025/04/09 10:00:05.923959879,1744185605,921059567,,11.61822223663331,-1.3229603767395313,0.0,0.0,0.0,12.578594207763595
2025/04/09 10:00:06.23516247,1744185606,23338155,,11.678522109985634,-3.42148447036781,0.0,0.0,0.0,12.524580001830149
2025/04/09 10:00:06.123495884,1744185606,123288616,,11.92279434204113,-1.5498265028019071,0.0,0.0,0.0,12.553725242610664
2025/04/09 10:00:06.224187753,1744185606,223945504,,12.23550319672014,-3.198784589767244,0.0,0.0,0.0,11.907618522641378
2025/04/09 10:00:06.323718098,1744185606,323325712,,12.54221534728935,-4.323012828828329,0.0,0.0,0.0,11.754111289981099
2025/04/09 10:00:06.423723728,1744185606,423364989,,13.003481864924495,-5.4295530319259715,0.0,0.0,0.0,12.046915054334024
2025/04/09 10:00:06.524983672,1744185606,524778747,,13.51063251495202,-2.6184022426661597,0.0,0.0,0.0,12.080023765560545
2025/04/09 10:00:06.622285032,1744185606,622026965,,13.914847373968541,-3.2943811416593873,0.0,0.0,0.0,11.271010398869413
2025/04/09 10:00:06.725717858,1744185606,725432887,,14.544824600219744,-4.243793964385976,0.0,0.0,0.0,10.677282333374013
2025/04/09 10:00:06.827141895,1744185606,826877284,,15.389614105224673,-3.204265594482597,0.0,0.0,0.0,10.438060760498376
2025/04/09 10:00:06.923546571,1744185606,923286279,,16.3426227569578,-0.9734858870509973,0.0,0.0,0.0,10.828140258788277
2025/04/09 10:00:07.22330291,1744185607,22061236,,16.959096908553093,-1.3699371814418155,0.0,0.0,0.0,11.329553604049273
2025/04/09 10:00:07.123218522,1744185607,122957284,,17.78657531738279,-1.3034620285034206,0.0,0.0,0.0,11.403072357177745
2025/04/09 10:00:07.221799142,1744185607,221560448,,18.626070022583004,-1.553817033767694,0.0,0.0,0.0,10.775478363037092
2025/04/09 10:00:07.324028370,1744185607,322926166,,19.46555328369139,-1.3872400522232127,0.0,0.0,0.0,10.851097106933617
2025/04/09 10:00:07.421969762,1744185607,421482877,,19.99404716491699,-1.9408187866211017,0.0,0.0,0.0,11.280583381652836
2025/04/09 10:00:07.523070985,1744185607,521552056,,21.11859130859372,-1.8874266147613588,0.0,0.0,0.0,11.259180068969743
2025/04/09 10:00:07.620947676,1744185607,620787040,,21.86853218078612,-1.7774789333343612,0.0,0.0,0.0,11.331843376159705
2025/04/09 10:00:07.722965978,1744185607,722709178,,22.545303344726435,0.2029473632569614,0.0,0.0,0.0,11.295444488524502
2025/04/09 10:00:07.822877052,1744185607,822625670,,23.390419006376902,0.7906849384256107,0.0,0.0,0.0,11.311800956680278
2025/04/09 10:00:07.923806427,1744185607,923139967,,24.27246856689454,0.34227639436721713,0.0,0.0,0.0,10.978517532348587
2025/04/09 10:00:08.27149378,1744185608,26854719,,25.2235889434815,0.9025975465774048,0.0,0.0,0.0,10.838750839233395
2025/04/09 10:00:08.121578059,1744185608,121367996,,26.085721969604485,0.42452317476271517,0.0,0.0,0.0,10.82902526855465
2025/04/09 10:00:08.221798450,1744185608,220998327,,27.040575027465813,-0.08790130168200427,0.0,0.0,0.0,11.134083747863716
2025/04/09 10:00:08.322179113,1744185608,321963114,,28.022138595581012,-2.09558010101325,0.0,0.0,0.0,11.184592247009267
2025/04/09 10:00:08.422122467,1744185608,421873615,,28.961091995239215,-0.5341895818710967,0.0,0.0,0.0,11.185129165649343
2025/04/09 10:00:08.522490207,1744185608,522281288,,30.196409225463835,-0.4715420901775609,0.0,0.0,0.0,11.16621398925788
2025/04/09 10:00:08.622521670,1744185608,622321892,,31.002979278564457,0.9976661205291748,0.0,0.0,0.0,11.127635955810547
2025/04/09 10:00:08.721666347,1744185608,721440139,,32.0396957397461,0.19873185455799192,0.0,0.0,0.0,11.135560989379794
2025/04/09 10:00:08.824567406,1744185608,823927348,,33.0372657775879,1.4518836736679095,0.0,0.0,0.0,11.112648963928223
2025/04/09 10:00:08.924400008,1744185608,922617367,,34.06477355957166,0.5918791294101382,0.0,0.0,0.0,11.24570751190117
2025/04/09 10:00:09.21844243,1744185609,21584751,,35.002841949472035,-0.35088554024355556,0.0,0.0,0.0,11.338082313541346
2025/04/09 10:00:09.121754298,1744185609,121553246,,36.08242034912227,-1.8836100101458806,0.0,0.0,0.0,11.353298187256978
2025/04/09 10:00:09.223014200,1744185609,222530279,,36.87598419189438,-2.3791971206665306,0.0,0.0,0.0,11.25288105010993
2025/04/09 10:00:09.324727741,1744185609,324522693,,37.97869873046852,-2.9227113723755327,0.0,0.0,0.0,11.377058982849238
2025/04/09 10:00:09.422862413,1744185609,422547585,,38.7744178771917,-1.8866074085215692,0.0,0.0,0.0,11.253901481625533
2025/04/09 10:00:09.524588275,1744185609,524327188,,39.37376403808641,-0.07207808643576818,0.0,0.0,0.0,11.02971267700228
2025/04/09 10:00:09.621888802,1744185609,621683157,,40.51071929931643,1.6085015535354072,0.0,0.0,0.0,11.045015335083058
2025/04/09 10:00:09.723537751,1744185609,722308529,,41.79973983764748,0.05390527471958251,0.0,0.0,0.0,10.940082550048935
2025/04/09 10:00:09.822177132,1744185609,821920613,,42.86941528320343,1.6161414384841146,0.0,0.0,0.0,11.479049682617362
2025/04/09 10:00:09.924170486,1744185609,923562256,,43.8277282715422,-0.03460111094384555,0.0,0.0,0.0,11.758182525668701
2025/04/09 10:00:10.21104056,1744185610,20872288,,44.778541564941534,0.22249065339563856,0.0,0.0,0.0,11.835561752319535
2025/04/09 10:00:10.121236202,1744185610,120969042,,45.708293914795064,0.5178633928298844,0.0,0.0,0.0,11.880923271179373
2025/04/09 10:00:10.225627738,1744185610,225368244,,46.60196685791014,-1.7153387069702175,0.0,0.0,0.0,11.690815925598152
2025/04/09 10:00:10.323569250,1744185610,323336448,,47.858901977539084,-1.9793970584868674,0.0,0.0,0.0,11.470581054687546
2025/04/09 10:00:10.424647936,1744185610,424448285,,48.37787628173777,0.5603159666060167,0.0,0.0,0.0,11.30596923828028
2025/04/09 10:00:10.524460433,1744185610,524230852,,49.31363677981413,0.8912855386807577,0.0,0.0,0.0,11.662590980542301
2025/04/09 10:00:10.623798916,1744185610,622693553,,50.22697830200205,2.5619449615478125,0.0,0.0,0.0,11.638427734374993
2025/04/09 10:00:10.722098886,1744185610,721891385,,51.275493621960976,2.367729663856312,0.0,0.0,0.0,11.927039146364773
2025/04/09 10:00:10.822038712,1744185610,821802089,,52.105888366751735,2.834024667738423,0.0,0.0,0.0,12.167143821677072
2025/04/09 10:00:10.922151403,1744185610,921884213,,52.95537567139104,3.3991384506219946,0.0,0.0,0.0,12.408254623408943
2025/04/09 10:00:11.23496437,1744185611,23254092,,53.657112121594984,1.920849323273294,0.0,0.0,0.0,13.057216644278427
2025/04/09 10:00:11.122688726,1744185611,121390913,,54.87439727783212,1.9957220554352144,0.0,0.0,0.0,13.043279647827049
2025/04/09 10:00:11.222116292,1744185611,221843589,,55.83807373055471,1.7776618004000966,0.0,0.0,0.0,11.700639724723075
2025/04/09 10:00:11.322816484,1744185611,322576457,,56.29818344116216,1.1012657880783214,0.0,0.0,0.0,11.699658393859877
2025/04/09 10:00:11.423072500,1744185611,422852426,,57.1478500366211,1.9551802873611477,0.0,0.0,0.0,11.625727653503422
2025/04/09 10:00:11.521697960,1744185611,521505406,,57.97291946416568,2.026669263845366,0.0,0.0,0.0,12.336256027205849
2025/04/09 10:00:11.622346575,1744185611,621940158,,58.950920104980455,-0.7938787341118108,0.0,0.0,0.0,12.041214942932147
2025/04/09 10:00:11.722152830,1744185611,721923108,,59.766357421875014,-1.4517598152160476,0.0,0.0,0.0,11.954495429992683
2025/04/09 10:00:11.823690899,1744185611,823488446,,60.510238647477394,1.1864455938379965,0.0,0.0,0.0,12.58498287201111
2025/04/09 10:00:11.922564573,1744185611,922374361,,61.2424011230532,0.8257989287396974,0.0,0.0,0.0,12.648149490358435
2025/04/09 10:00:12.23798156,1744185612,23506833,,61.94800949096715,1.454743385315016,0.0,0.0,0.0,12.62853813171386
2025/04/09 10:00:12.122517867,1744185612,122260517,,62.39883422853448,0.3130785822935209,0.0,0.0,0.0,12.772325515755888
2025/04/09 10:00:12.221704212,1744185612,221467428,,63.53628540043229,0.09768772872242337,0.0,0.0,0.0,12.398293495213643
2025/04/09 10:00:12.321119620,1744185612,320894544,,63.954742431643155,-0.08531467616416766,0.0,0.0,0.0,12.10592842102368
2025/04/09 10:00:12.422512963,1744185612,421436424,,64.60601806640639,1.1259758472442858,0.0,0.0,0.0,13.062392234802374
2025/04/09 10:00:12.521778179,1744185612,521579974,,65.27143096923831,2.4189009666442836,0.0,0.0,0.0,13.180263519287138
2025/04/09 10:00:12.622874410,1744185612,622520556,,65.7564773559617,1.1486012935649343,0.0,0.0,0.0,12.942694664002701
2025/04/09 10:00:12.722379097,1744185612,722144660,,66.87949371337895,1.21764004230499,0.0,0.0,0.0,12.932767868042028
2025/04/09 10:00:12.822719585,1744185612,821739733,,67.26402282715037,1.25547444820464,0.0,0.0,0.0,12.413591384888289
2025/04/09 10:00:12.922124020,1744185612,921916872,,67.79570770274393,1.3792997598870134,0.0,0.0,0.0,13.306571006770469
2025/04/09 10:00:13.21734692,1744185613,21517827,,68.91336059570381,1.3311693668367637,0.0,0.0,0.0,12.909534454345703
2025/04/09 10:00:13.122379818,1744185613,122019217,,69.38800811767578,4.256386756896961,0.0,0.0,0.0,12.607093811035146
2025/04/09 10:00:13.222093081,1744185613,221720680,,69.96981811523438,5.70952224731445,0.0,0.0,0.0,13.6306266784668
2025/04/09 10:00:13.323575339,1744185613,323357838,,70.56183624267581,5.228424072265613,0.0,0.0,0.0,13.606695175170909
2025/04/09 10:00:13.423304452,1744185613,423019516,,70.7799072265625,2.6993424892425404,0.0,0.0,0.0,13.478613853454618
2025/04/09 10:00:13.520967404,1744185613,520729931,,71.84886169433945,2.7674202919005246,0.0,0.0,0.0,13.470145225522408
2025/04/09 10:00:13.622591112,1744185613,622370230,,71.89244842529372,4.0059609413146,0.0,0.0,0.0,13.03771400451572
2025/04/09 10:00:13.723680574,1744185613,722136431,,72.15021514895462,2.673631191252337,0.0,0.0,0.0,14.119312286351043
2025/04/09 10:00:13.821337738,1744185613,821107419,,73.20362091064459,2.8111391067504954,0.0,0.0,0.0,13.59563159942621
2025/04/09 10:00:13.921698198,1744185613,921522158,,73.4055099487306,4.591950893402072,0.0,0.0,0.0,13.206340789794744
2025/04/09 10:00:14.21123017,1744185614,20928433,,73.93066406250006,2.949643850326532,0.0,0.0,0.0,14.1498556137084
2025/04/09 10:00:14.123038803,1744185614,122812534,,74.46749877929724,3.1160674095153302,0.0,0.0,0.0,14.147896766662242
2025/04/09 10:00:14.222769302,1744185614,222534797,,74.68059539795536,4.011234760283254,0.0,0.0,0.0,13.799118995658478
2025/04/09 10:00:14.321637381,1744185614,321486226,,75.69430541992656,4.077436447142534,0.0,0.0,0.0,13.792066574090466
2025/04/09 10:00:14.423131598,1744185614,422927254,,76.077835083021,3.9241125583626832,0.0,0.0,0.0,13.44769191740313
2025/04/09 10:00:14.522739373,1744185614,522517610,,76.48960876464854,5.245142936706506,0.0,0.0,0.0,14.291446685790863
2025/04/09 10:00:14.622595668,1744185614,621884559,,76.62539672851597,4.354207038879309,0.0,0.0,0.0,13.908705711364263
2025/04/09 10:00:14.721410854,1744185614,721204738,,77.61155700683622,4.4191217422484455,0.0,0.0,0.0,13.902343749999595
2025/04/09 10:00:14.822047595,1744185614,821810737,,77.64018249512546,5.537120342251935,0.0,0.0,0.0,13.633181571946054
2025/04/09 10:00:14.925206379,1744185614,924699270,,78.25434875488293,6.47672557830805,0.0,0.0,0.0,14.078027725219485
2025/04/09 10:00:15.22199798,1744185615,21955368,,78.58014678955078,5.248530864715572,0.0,0.0,0.0,13.958362579345689
2025/04/09 10:00:15.122998052,1744185615,122407496,,78.28167724609386,3.65806746482846,0.0,0.0,0.0,13.841061592101877
2025/04/09 10:00:15.222734556,1744185615,222526277,,79.23373413086065,3.720399379729982,0.0,0.0,0.0,13.835577011106619
2025/04/09 10:00:15.323087487,1744185615,321404931,,79.1037521362306,5.901999950408887,0.0,0.0,0.0,13.792593002319087
2025/04/09 10:00:15.423475249,1744185615,422984699,,79.42246246338027,5.133027076720694,0.0,0.0,0.0,14.032333374020968
2025/04/09 10:00:15.522455916,1744185615,521943983,,79.76576995849655,6.249689102172652,0.0,0.0,0.0,13.95323944091706
2025/04/09 10:00:15.621646834,1744185615,621404808,,79.8312606812469,4.899117469753722,0.0,0.0,0.0,13.826435088943533
2025/04/09 10:00:15.721671024,1744185615,721466956,,80.74964904785223,4.959464073180952,0.0,0.0,0.0,13.821734428404604
2025/04/09 10:00:15.821360653,1744185615,821112487,,81.07163238526292,5.154685497280755,0.0,0.0,0.0,13.747130393965971
2025/04/09 10:00:15.922456617,1744185615,922203824,,81.11416625976827,4.231056213378146,0.0,0.0,0.0,13.730087280269267
2025/04/09 10:00:16.22683147,1744185616,22234023,,81.37972259534575,4.2302813529659,0.0,0.0,0.0,13.697704314997438
2025/04/09 10:00:16.122843481,1744185616,122382871,,81.30429840088442,3.556329011916211,0.0,0.0,0.0,13.657993316643662
2025/04/09 10:00:16.221066109,1744185616,220877195,,82.18975067138805,3.6137216091154354,0.0,0.0,0.0,13.654058456419314
2025/04/09 10:00:16.321628128,1744185616,321447902,,82.07030487060553,5.6160802841186355,0.0,0.0,0.0,13.665173530578503
2025/04/09 10:00:16.427499753,1744185616,426727746,,82.26430511475101,4.857093811033807,0.0,0.0,0.0,13.53199577330793
2025/04/09 10:00:16.525418761,1744185616,522866847,,82.45275115966805,6.260797977447468,0.0,0.0,0.0,13.507622718810836
2025/04/09 10:00:16.622370109,1744185616,621891333,,82.1606903076198,5.686822414397218,0.0,0.0,0.0,13.590472221369673
2025/04/09 10:00:16.724103722,1744185616,723852927,,82.3720855713095,5.381044387809532,0.0,0.0,0.0,13.592383384666576
2025/04/09 10:00:16.822868385,1744185616,822655661,,83.21887969972764,5.435775279990512,0.0,0.0,0.0,13.589261054953703
2025/04/09 10:00:16.921622165,1744185616,921366174,,82.92485046386724,3.3534083366393874,0.0,0.0,0.0,13.581774711608805
2025/04/09 10:00:17.21527704,1744185617,21286925,,83.0886611938478,3.789349794387781,0.0,0.0,0.0,13.303727149963137
2025/04/09 10:00:17.121536097,1744185617,121302966,,83.2552337646498,3.969041109084791,0.0,0.0,0.0,13.177565574644127
2025/04/09 10:00:17.227945541,1744185617,227739550,,83.41540527343801,3.9998168945311585,0.0,0.0,0.0,13.301378250121417
2025/04/09 10:00:17.321207058,1744185617,320989399,,83.61411285400416,3.9536101818084264,0.0,0.0,0.0,13.339807510375671
2025/04/09 10:00:17.422839498,1744185617,422689646,,83.5596008300798,3.2164711952208,0.0,0.0,0.0,13.208994865415782
2025/04/09 10:00:17.531056870,1744185617,528805379,,84.36292266845703,3.266782522201539,0.0,0.0,0.0,13.206747055053711
2025/04/09 10:00:17.622683698,1744185617,622289168,,84.00920867920117,3.971054315566766,0.0,0.0,0.0,13.364293098447476
2025/04/09 10:00:17.722354726,1744185617,722073705,,84.42317962646953,2.83987331390368,0.0,0.0,0.0,13.133723258968232
2025/04/09 10:00:17.823014555,1744185617,822798689,,84.5013427734377,1.9911537170410307,0.0,0.0,0.0,13.20929718017566
2025/04/09 10:00:17.921736963,1744185617,921525976,,83.77414703369143,4.761499404907221,0.0,0.0,0.0,13.271743774413984
2025/04/09 10:00:18.22176415,1744185618,21950184,,84.53955078125011,4.953180313110329,0.0,0.0,0.0,13.267815589904686
2025/04/09 10:00:18.122212391,1744185618,121982121,,84.31755828857436,5.11495780944821,0.0,0.0,0.0,13.26804447174051
2025/04/09 10:00:18.221709448,1744185618,221492079,,84.2700042724612,5.311779499053885,0.0,0.0,0.0,13.279706001281333
2025/04/09 10:00:18.322554487,1744185618,322260897,,84.22983551025396,6.784202575683577,0.0,0.0,0.0,13.214953422546305
2025/04/09 10:00:18.422394340,1744185618,422171638,,84.1940536499024,7.003300189971898,0.0,0.0,0.0,13.209724426269403
2025/04/09 10:00:18.524047883,1744185618,523772057,,84.2158432006839,6.440939426421991,0.0,0.0,0.0,13.192245483397805
2025/04/09 10:00:18.621985580,1744185618,621799398,,83.76325225830084,7.634718894958459,0.0,0.0,0.0,13.199195861816214
2025/04/09 10:00:18.721582225,1744185618,721426840,,84.48025512695321,7.680722236633255,0.0,0.0,0.0,13.19815254211408
2025/04/09 10:00:18.822637128,1744185618,822388218,,84.46407318115426,5.180434226988959,0.0,0.0,0.0,13.206581115718926
2025/04/09 10:00:18.924273206,1744185618,924005183,,84.1306991579357,5.751500129605514,0.0,0.0,0.0,13.200102805653295
2025/04/09 10:00:19.23174266,1744185619,22963170,,84.10964965825337,5.408029079417806,0.0,0.0,0.0,12.890634536650701
2025/04/09 10:00:19.122547172,1744185619,122387521,,84.1219711303714,5.360107898712054,0.0,0.0,0.0,12.5747318267817
2025/04/09 10:00:19.224868854,1744185619,223298924,,84.43341827392587,3.6199233531951736,0.0,0.0,0.0,12.591567039489632
2025/04/09 10:00:19.322033381,1744185619,321818541,,84.3823852539063,4.953262805938706,0.0,0.0,0.0,12.72924518585198
2025/04/09 10:00:19.424693751,1744185619,424459020,,83.41559600830082,2.8569159507751323,0.0,0.0,0.0,12.81990909576411
2025/04/09 10:00:19.522636508,1744185619,522375907,,84.08860778808605,2.8985848426818794,0.0,0.0,0.0,12.819535255432008
2025/04/09 10:00:19.623528532,1744185619,623263153,,83.19306182861335,2.4523372650146387,0.0,0.0,0.0,12.710274696350048
2025/04/09 10:00:19.722931680,1744185619,722694222,,83.85545349121116,2.492989301681532,0.0,0.0,0.0,12.7100505828856
2025/04/09 10:00:19.825663314,1744185619,823441854,,83.35266876221446,4.197040557860563,0.0,0.0,0.0,12.722215652457677
2025/04/09 10:00:19.923786273,1744185619,921717058,,83.24426269532181,4.500007629392949,0.0,0.0,0.0,12.622797965991868
2025/04/09 10:00:20.22458003,1744185620,22184102,,83.13327026393476,3.71670937535691,0.0,0.0,0.0,12.695447921486405
2025/04/09 10:00:20.121555484,1744185620,121327854,,83.04241180420351,4.245753288268507,0.0,0.0,0.0,12.190232276911665
2025/04/09 10:00:20.224770340,1744185620,222927707,,82.9626541137704,3.25277066230771,0.0,0.0,0.0,12.160080909728286
2025/04/09 10:00:20.324097754,1744185620,323870334,,82.91352081299135,3.3954434394836976,0.0,0.0,0.0,12.168630599973454
2025/04/09 10:00:20.422294046,1744185620,422094677,,82.81710815430017,4.1456613540647025,0.0,0.0,0.0,12.178825378414828
2025/04/09 10:00:20.524596959,1744185620,524312642,,82.34581756614187,4.275019168823165,0.0,0.0,0.0,12.386051177722244
2025/04/09 10:00:20.624981109,1744185620,624739007,,82.96217346191477,4.311861038207888,0.0,0.0,0.0,12.386419296263849
2025/04/09 10:00:20.725680101,1744185620,725445172,,82.03222656250003,6.682393074035636,0.0,0.0,0.0,12.47795104980461
2025/04/09 10:00:20.822911870,1744185620,822722657,,82.63869476318366,6.719087123870819,0.0,0.0,0.0,12.478448867797724
2025/04/09 10:00:20.923571317,1744185620,922759720,,81.68065643310564,6.732719898223822,0.0,0.0,0.0,12.450326919555316
2025/04/09 10:00:21.24509879,1744185621,24226877,,81.81424713136157,5.220164775844356,0.0,0.0,0.0,12.48108291623781
2025/04/09 10:00:21.123493038,1744185621,123109767,,81.57534027100061,4.825482368468201,0.0,0.0,0.0,12.42534542083105
2025/04/09 10:00:21.222372552,1744185621,222178196,,81.34982299805333,5.738936424253467,0.0,0.0,0.0,12.456702232350295
2025/04/09 10:00:21.323660042,1744185621,321810375,,81.16013336182326,5.671576976773987,0.0,0.0,0.0,12.10549545286947
2025/04/09 10:00:21.421955697,1744185621,421486867,,80.98497772216834,6.879393100738376,0.0,0.0,0.0,12.058314323424568
2025/04/09 10:00:21.525113479,1744185621,523862775,,81.16428375244175,4.89184761047353,0.0,0.0,0.0,12.121375083922764
2025/04/09 10:00:21.623466150,1744185621,623297036,,80.99636840820312,6.1326375007629315,0.0,0.0,0.0,12.210112571716277
2025/04/09 10:00:21.723710766,1744185621,723431764,,79.98867034912283,5.405152797698398,0.0,0.0,0.0,12.235328674313593
2025/04/09 10:00:21.822189310,1744185621,822010529,,80.50725555420868,5.091397762296186,0.0,0.0,0.0,12.212299346909631
2025/04/09 10:00:21.938272439,1744185621,936374880,,80.45657348632858,6.420798778533778,0.0,0.0,0.0,12.155734062194043
2025/04/09 10:00:22.22873591,1744185622,22649218,,80.25749969482422,6.024671554565429,0.0,0.0,0.0,12.106626510620117
2025/04/09 10:00:22.121258460,1744185622,120877124,,80.15963745117188,6.057482719421381,0.0,0.0,0.0,12.078889846801744
2025/04/09 10:00:22.224112937,1744185622,223871011,,79.94148254394537,4.193007469177226,0.0,0.0,0.0,12.051393508911005
2025/04/09 10:00:22.323154047,1744185622,322891034,,79.69626617431678,4.485469818115155,0.0,0.0,0.0,12.012398719787143
2025/04/09 10:00:22.422574069,1744185622,422372134,,78.98735809326615,4.4632730484000644,0.0,0.0,0.0,12.031464576715816
2025/04/09 10:00:22.523114160,1744185622,522871446,,78.72811126709001,3.626319408416732,0.0,0.0,0.0,11.415770530700545
2025/04/09 10:00:22.629621368,1744185622,628856571,,78.47895812988608,5.482872486113824,0.0,0.0,0.0,11.285603523249872
2025/04/09 10:00:22.727007104,1744185622,725122339,,78.1817169189455,3.820456027984597,0.0,0.0,0.0,11.24780559539775
2025/04/09 10:00:22.822174912,1744185622,821949381,,77.95867919930953,5.651869297008743,0.0,0.0,0.0,11.251740455502862
2025/04/09 10:00:22.922496612,1744185622,922264578,,77.68680572509798,3.9715440273284512,0.0,0.0,0.0,11.310972213744758
2025/04/09 10:00:23.23566619,1744185623,22970858,,77.52270507812759,5.740396976470368,0.0,0.0,0.0,11.463001251216987
2025/04/09 10:00:23.122582796,1744185623,122041296,,77.27618408207549,5.9245715141175435,0.0,0.0,0.0,11.506229400566035
2025/04/09 10:00:23.223138443,1744185623,222961415,,77.04239654541021,5.630640983581526,0.0,0.0,0.0,11.5564651489257
2025/04/09 10:00:23.321188701,1744185623,320577434,,76.77419281006408,5.500592231749001,0.0,0.0,0.0,11.725570678702827
2025/04/09 10:00:23.422766903,1744185623,421931501,,76.21042633059028,5.222155570978368,0.0,0.0,0.0,11.7463674544957
2025/04/09 10:00:23.522352966,1744185623,521958299,,76.70640563964845,5.152367115020749,0.0,0.0,0.0,11.716817855834933
2025/04/09 10:00:23.623558880,1744185623,623289824,,75.6798629760776,4.988270282744662,0.0,0.0,0.0,11.636701583858098
2025/04/09 10:00:23.722032221,1744185623,721300704,,76.16626739501959,4.949107170104974,0.0,0.0,0.0,11.637291908264103
2025/04/09 10:00:23.823011971,1744185623,822150878,,75.17536163330911,5.815885066983953,0.0,0.0,0.0,11.605145454393774
2025/04/09 10:00:23.923212162,1744185623,922932442,,75.6465835571419,5.842387676235291,0.0,0.0,0.0,11.606936454752496
2025/04/09 10:00:24.24016737,1744185624,23801456,,74.55036163330584,5.360468387602589,0.0,0.0,0.0,11.575662612907834
2025/04/09 10:00:24.123511711,1744185624,123229607,,75.00583648681655,5.238858222961402,0.0,0.0,0.0,11.578733444213682
2025/04/09 10:00:24.225208571,1744185624,224993858,,73.92939758300781,6.038601398468016,0.0,0.0,0.0,11.544339179992676
2025/04/09 10:00:24.321594178,1744185624,321199850,,74.38684082031321,6.077457427978293,0.0,0.0,0.0,11.54704570770151
2025/04/09 10:00:24.423855182,1744185624,423586293,,73.37367248535179,4.693967342376642,0.0,0.0,0.0,11.519894599914256
2025/04/09 10:00:24.522004989,1744185624,521784566,,73.830802917634,5.197196960417474,0.0,0.0,0.0,11.522856712135422
2025/04/09 10:00:24.624282136,1744185624,624072074,,73.5680847168992,5.857602119417524,0.0,0.0,0.0,11.50705337508387
2025/04/09 10:00:24.722302549,1744185624,722084614,,73.31459808350282,6.956973075864373,0.0,0.0,0.0,11.494444847094712
2025/04/09 10:00:24.827153647,1744185624,824261492,,72.73992156984917,6.144337654105839,0.0,0.0,0.0,11.464360237080193
2025/04/09 10:00:24.921644658,1744185624,921415040,,72.46703338623985,5.380056858060509,0.0,0.0,0.0,11.268569946275736
2025/04/09 10:00:25.22302639,1744185625,22105799,,72.15895080585042,5.0672211646706815,0.0,0.0,0.0,11.242307662730347
2025/04/09 10:00:25.122832668,1744185625,121845279,,71.86366271972656,4.617124080657958,0.0,0.0,0.0,11.22321891784669
2025/04/09 10:00:25.220839501,1744185625,220625935,,71.54007720947456,4.563968181609873,0.0,0.0,0.0,11.205361366270115
2025/04/09 10:00:25.322367799,1744185625,321344222,,71.22800445556726,4.307209491729662,0.0,0.0,0.0,11.234874725341026
2025/04/09 10:00:25.422109809,1744185625,421859623,,70.89250946044926,4.412705898284911,0.0,0.0,0.0,11.259734153747495
2025/04/09 10:00:25.521169607,1744185625,520883619,,70.9278259277344,4.323235988616943,0.0,0.0,0.0,11.339431762695291
2025/04/09 10:00:25.622345650,1744185625,622116216,,70.60805511474635,2.8598792552948016,0.0,0.0,0.0,11.391315460204925
2025/04/09 10:00:25.722350361,1744185625,722122913,,69.96500396731793,4.797810077663745,0.0,0.0,0.0,11.431708335840206
2025/04/09 10:00:25.822271189,1744185625,821962239,,69.62965393066415,6.363255977630596,0.0,0.0,0.0,11.43790531158433
2025/04/09 10:00:25.923102302,1744185625,922498726,,69.34623718261916,6.278413772582514,0.0,0.0,0.0,11.462059974667344
2025/04/09 10:00:26.21625592,1744185626,21345221,,69.05392456054712,7.2841849327086585,0.0,0.0,0.0,11.464917182921909
2025/04/09 10:00:26.126956609,1744185626,126708740,,68.75074768066646,4.981905937194197,0.0,0.0,0.0,11.526193618770854
2025/04/09 10:00:26.221968539,1744185626,221750620,,68.46686553955233,4.551864147186015,0.0,0.0,0.0,11.541983604429323
2025/04/09 10:00:26.321573935,1744185626,321378409,,68.18790435792135,5.421827793118817,0.0,0.0,0.0,11.535467147810792
2025/04/09 10:00:26.421306752,1744185626,421117458,,67.60782623291286,5.12351799011173,0.0,0.0,0.0,11.505907058712332
2025/04/09 10:00:26.522425516,1744185626,522276614,,67.9878997802735,5.144511222839341,0.0,0.0,0.0,11.508361816406182
2025/04/09 10:00:26.622564044,1744185626,622051219,,66.9934539794928,3.7721860408781946,0.0,0.0,0.0,11.517116546630302
2025/04/09 10:00:26.722287510,1744185626,722029737,,67.36726379408157,3.7927081584883693,0.0,0.0,0.0,11.519614219552139
2025/04/09 10:00:26.825936847,1744185626,825696442,,67.03957366943378,2.2944307327270606,0.0,0.0,0.0,11.523492813110277
2025/04/09 10:00:26.921713290,1744185626,921452951,,66.71360015869584,2.8748457431796943,0.0,0.0,0.0,11.52720165252542
2025/04/09 10:00:27.22590731,1744185627,22363421,,66.03727722168267,3.842192888259869,0.0,0.0,0.0,11.540412902829573
2025/04/09 10:00:27.124261933,1744185627,123997342,,65.7077255249703,4.133476257318357,0.0,0.0,0.0,11.62005519860135
2025/04/09 10:00:27.224719640,1744185627,224465105,,65.41542053222673,4.337390899658191,0.0,0.0,0.0,11.64242553710919
2025/04/09 10:00:27.324474076,1744185627,324210009,,65.07286071777924,3.508379697799505,0.0,0.0,0.0,11.625912666316317
2025/04/09 10:00:27.424709126,1744185627,423868553,,64.75025177001993,3.9472794532775692,0.0,0.0,0.0,11.647276878356543
2025/04/09 10:00:27.523093996,1744185627,522816732,,64.09135437012485,4.961525917051951,0.0,0.0,0.0,11.683544158925436
2025/04/09 10:00:27.621053231,1744185627,620854079,,64.43814086914124,4.9808120727537775,0.0,0.0,0.0,11.686245918273158
2025/04/09 10:00:27.724857729,1744185627,723216153,,64.16797637939786,4.437436580657479,0.0,0.0,0.0,11.711733818050408
2025/04/09 10:00:27.826246197,1744185627,823810661,,63.25556945801038,5.01385164260818,0.0,0.0,0.0,11.780293464656886
2025/04/09 10:00:27.923522490,1744185627,923359700,,63.603641510104396,4.238106250751879,0.0,0.0,0.0,11.783001899615137
2025/04/09 10:00:28.23414023,1744185628,23155995,,63.02007675171056,5.405230045318264,0.0,0.0,0.0,11.836735725400384
2025/04/09 10:00:28.122660013,1744185628,122425758,,62.672641754180546,5.359361648552035,0.0,0.0,0.0,12.183325767469817
2025/04/09 10:00:28.222812884,1744185628,222573257,,62.349121093750085,5.158920764923072,0.0,0.0,0.0,12.24607372283922
2025/04/09 10:00:28.322020342,1744185628,321297732,,61.99642562866266,5.254447937011602,0.0,0.0,0.0,12.273436546324803
2025/04/09 10:00:28.421184008,1744185628,420954157,,61.66191482545122,4.778229236600217,0.0,0.0,0.0,12.295462608320996
2025/04/09 10:00:28.521195076,1744185628,520963530,,61.31713867187506,4.676478862762437,0.0,0.0,0.0,12.233519554138123
2025/04/09 10:00:28.627300069,1744185628,626861890,,60.99546813975205,5.437427043886251,0.0,0.0,0.0,12.309774398633184
2025/04/09 10:00:28.723181052,1744185628,722973339,,60.387001037610496,4.645067214963134,0.0,0.0,0.0,12.148793220502593
2025/04/09 10:00:28.821356201,1744185628,821147705,,60.70064163208073,4.663082599639781,0.0,0.0,0.0,12.151796340941516
2025/04/09 10:00:28.921918919,1744185628,921205986,,60.38717269897515,4.3646535873412065,0.0,0.0,0.0,12.073150634765
2025/04/09 10:00:29.22501452,1744185629,21945176,,60.08350372314496,4.7280054092406445,0.0,0.0,0.0,12.098121643065785
2025/04/09 10:00:29.123998239,1744185629,121392220,,59.47952270508115,3.2546479701992315,0.0,0.0,0.0,12.149934768673898
2025/04/09 10:00:29.221470774,1744185629,221242424,,59.190429687500156,3.5467894077300848,0.0,0.0,0.0,12.481776237487676
2025/04/09 10:00:29.321123805,1744185629,320960600,,58.917060852050845,3.7833178043365434,0.0,0.0,0.0,12.439134597778228
2025/04/09 10:00:29.421669680,1744185629,421415526,,58.65638732910733,2.3807756900787185,0.0,0.0,0.0,12.400832176204776
2025/04/09 10:00:29.523377847,1744185629,521292669,,58.373634338378935,3.0755052566528267,0.0,0.0,0.0,12.247592926025384
2025/04/09 10:00:29.621123683,1744185629,620888685,,57.738792419433736,3.385250568389896,0.0,0.0,0.0,12.210685729980298
2025/04/09 10:00:29.721779316,1744185629,721602088,,58.02963638305664,3.4018840789794895,0.0,0.0,0.0,12.213833808898926
2025/04/09 10:00:29.824756058,1744185629,824405155,,57.70705413818421,3.720346450805609,0.0,0.0,0.0,12.409759521483664
2025/04/09 10:00:29.922801564,1744185629,922600764,,57.343078613281264,3.8612308502197257,0.0,0.0,0.0,12.408583641052232
2025/04/09 10:00:30.23676718,1744185630,23169343,,56.68266296386781,5.295719623565517,0.0,0.0,0.0,12.436528205870395
2025/04/09 10:00:30.123815301,1744185630,122763377,,56.64006042481607,5.190675735470595,0.0,0.0,0.0,12.717435836773149
2025/04/09 10:00:30.223317902,1744185630,223138026,,56.309024810791016,6.347630500793455,0.0,0.0,0.0,12.621776580810533
2025/04/09 10:00:30.321434559,1744185630,321260393,,55.6995162963928,4.64521884918032,0.0,0.0,0.0,12.55579757689448
2025/04/09 10:00:30.423342473,1744185630,422430159,,55.38789749145868,4.463685035704721,0.0,0.0,0.0,12.979683876032276
2025/04/09 10:00:30.521036305,1744185630,520837444,,55.11692810058596,4.394393920898429,0.0,0.0,0.0,13.029671669006326
2025/04/09 10:00:30.621704672,1744185630,621447197,,54.8455200195325,2.7340295314787033,0.0,0.0,0.0,12.992376327513309
2025/04/09 10:00:30.721892018,1744185630,721700406,,54.576240539551,3.7272469997405606,0.0,0.0,0.0,12.935728073119755
2025/04/09 10:00:30.825782627,1744185630,825525395,,54.62501144409184,3.949357509613029,0.0,0.0,0.0,12.888630867004348
2025/04/09 10:00:30.922569875,1744185630,922226224,,54.17894363403321,3.311499357223509,0.0,0.0,0.0,12.660070419311523
2025/04/09 10:00:31.21637407,1744185631,21412801,,53.61040115367337,2.200923919679191,0.0,0.0,0.0,12.715932846001344
2025/04/09 10:00:31.120921652,1744185631,120726629,,53.30876922607497,2.209356069564798,0.0,0.0,0.0,12.95274448394742
2025/04/09 10:00:31.223063198,1744185631,222873635,,53.01222991943401,3.636418581008841,0.0,0.0,0.0,13.053627967833865
2025/04/09 10:00:31.322009213,1744185631,321755224,,52.44867324829115,3.4332151412963894,0.0,0.0,0.0,12.964083671569643
2025/04/09 10:00:31.421630252,1744185631,421277935,,52.700706481933594,3.4483642578124973,0.0,0.0,0.0,12.967612266540527
2025/04/09 10:00:31.522272867,1744185631,521312836,,51.8045654296875,3.6756587028503436,0.0,0.0,0.0,12.880573272705057
2025/04/09 10:00:31.621643606,1744185631,621381068,,52.052402496337905,3.690475225448604,0.0,0.0,0.0,12.884092330932614
2025/04/09 10:00:31.725034443,1744185631,724792442,,51.745128631597765,2.4293470382687,0.0,0.0,0.0,12.91789722442126
2025/04/09 10:00:31.821798207,1744185631,821529573,,51.22227096557832,4.514215469359828,0.0,0.0,0.0,12.915050506587981
2025/04/09 10:00:31.921552094,1744185631,921303495,,50.920078277591074,4.479495048522261,0.0,0.0,0.0,12.978615760798164
2025/04/09 10:00:32.22274053,1744185632,22039682,,50.64302444458053,2.9265990257262144,0.0,0.0,0.0,13.010404586791392
2025/04/09 10:00:32.126227383,1744185632,125999891,,50.362541198779496,4.806942939745026,0.0,0.0,0.0,12.994895934972789
2025/04/09 10:00:32.224717165,1744185632,224515338,,50.3412208557209,3.247828245161645,0.0,0.0,0.0,13.291956901539692
2025/04/09 10:00:32.325488594,1744185632,325233576,,49.99518585206564,5.155837059016543,0.0,0.0,0.0,13.203600883455653
2025/04/09 10:00:32.424992662,1744185632,422792305,,49.64895629882943,3.4547035694120254,0.0,0.0,0.0,13.17621517181226
2025/04/09 10:00:32.531644518,1744185632,529063494,,49.57714080810706,4.855147361754853,0.0,0.0,0.0,13.390498161312902
2025/04/09 10:00:32.621026164,1744185632,620807247,,49.41942214965822,4.492900371551515,0.0,0.0,0.0,13.338182449340799
2025/04/09 10:00:32.724804800,1744185632,724513831,,48.724346160888686,5.716997146606444,0.0,0.0,0.0,13.298878669738741
2025/04/09 10:00:32.821233286,1744185632,821043649,,48.35520935058636,5.299912929534729,0.0,0.0,0.0,13.69323062896645
2025/04/09 10:00:32.923174844,1744185632,922718632,,48.00101089477553,3.1597743034361754,0.0,0.0,0.0,13.661347389220847
2025/04/09 10:00:33.25226780,1744185633,24970532,,47.9434738159237,3.453331232069928,0.0,0.0,0.0,13.611322402946374
2025/04/09 10:00:33.121972039,1744185633,121754962,,47.651329040540276,4.969267368312519,0.0,0.0,0.0,13.371537208531478
2025/04/09 10:00:33.222011411,1744185633,221829079,,47.008739471436414,3.1088123321530112,0.0,0.0,0.0,13.443300247191072
2025/04/09 10:00:33.322804527,1744185633,322532420,,46.74490737915281,1.6306382417676488,0.0,0.0,0.0,13.780105590818092
2025/04/09 10:00:33.420686613,1744185633,420512591,,46.51008987426785,2.3451728820800355,0.0,0.0,0.0,13.755293846130293
2025/04/09 10:00:33.522288770,1744185633,522015717,,46.00984191894531,3.4554486274719256,0.0,0.0,0.0,13.554328918457028
2025/04/09 10:00:33.620804896,1744185633,620661347,,46.21911621093751,3.4685225486755344,0.0,0.0,0.0,13.558195114135739
2025/04/09 10:00:33.731816564,1744185633,728636690,,45.978679656982905,5.149806499480958,0.0,0.0,0.0,13.54709625244016
2025/04/09 10:00:33.822086077,1744185633,821885680,,45.92020797729812,6.5271344184860745,0.0,0.0,0.0,13.630256652823949
2025/04/09 10:00:33.921107701,1744185633,920868680,,45.33695983886726,5.98580884933472,0.0,0.0,0.0,13.72500991821271
2025/04/09 10:00:34.21388568,1744185634,21127415,,44.955696105957315,5.128018856048411,0.0,0.0,0.0,14.374948501586196
2025/04/09 10:00:34.122774529,1744185634,121647975,,44.65189361572281,4.708328723907401,0.0,0.0,0.0,14.278778076171573
2025/04/09 10:00:34.224922756,1744185634,224680067,,44.04871749877937,2.5799438953398877,0.0,0.0,0.0,13.824303627013965
2025/04/09 10:00:34.323080399,1744185634,322864289,,44.227657318117025,2.6859602928159036,0.0,0.0,0.0,13.897758483884381
2025/04/09 10:00:34.425840352,1744185634,424554844,,43.665920257568885,4.352021694183113,0.0,0.0,0.0,14.017751693724186
2025/04/09 10:00:34.521206526,1744185634,520977564,,43.330387115478764,4.205533981323205,0.0,0.0,0.0,14.35495185852006
2025/04/09 10:00:34.622542168,1744185634,622313069,,43.11319732666087,2.5913400650022007,0.0,0.0,0.0,14.318097114561773
2025/04/09 10:00:34.722480392,1744185634,721850491,,43.303794860840014,2.603775978088363,0.0,0.0,0.0,14.32223796844459
2025/04/09 10:00:34.820796463,1744185634,820583964,,42.334442138671925,2.6342172622680167,0.0,0.0,0.0,14.0749654769898
2025/04/09 10:00:34.920994070,1744185634,920757378,,42.52185821533203,2.6462831497192374,0.0,0.0,0.0,14.079061508178718
2025/04/09 10:00:35.22279189,1744185635,22017949,,42.08211517334013,4.359337329864327,0.0,0.0,0.0,14.275949478148544
2025/04/09 10:00:35.122042528,1744185635,121820627,,41.82513427734459,4.297787666320587,0.0,0.0,0.0,14.612958908079346
2025/04/09 10:00:35.221436641,1744185635,221241937,,41.59681320190435,3.9555182456969957,0.0,0.0,0.0,14.576705932617092
2025/04/09 10:00:35.321459737,1744185635,321266123,,41.13688659668007,3.8405539989470068,0.0,0.0,0.0,14.354997634887145
2025/04/09 10:00:35.428341814,1744185635,428086408,,41.316505432128906,3.8524134159088135,0.0,0.0,0.0,14.359189033508304
2025/04/09 10:00:35.528031828,1744185635,523873195,,40.98881149291992,3.7826175689697195,0.0,0.0,0.0,14.382782936096191
2025/04/09 10:00:35.620898693,1744185635,620692360,,40.513568878173835,3.7378695011138836,0.0,0.0,0.0,14.37546253204346
2025/04/09 10:00:35.721192405,1744185635,720810201,,40.2608757019043,3.7301483154296866,0.0,0.0,0.0,14.4721326828003
2025/04/09 10:00:35.821446651,1744185635,821204062,,39.774341583251946,3.733351230621336,0.0,0.0,0.0,14.535925865173347
2025/04/09 10:00:35.921491635,1744185635,921280152,,39.94647979736328,3.744842529296875,0.0,0.0,0.0,14.54019355773925
