time,header_stamp_secs,header_stamp_nsecs,header_frame_id,status_status,status_service,latitude,longitude,altitude,position_covariance_0,position_covariance_1,position_covariance_2,position_covariance_3,position_covariance_4,position_covariance_5,position_covariance_6,position_covariance_7,position_covariance_8,position_covariance_type
2025/04/05 15:58:39.950965551,1743861519,949974286,mA1/gps,0,1,63.436762867602134,10.39307319075376,0.0,1.4400000000000002e-10,0.0,0.0,0.0,1.4400000000000002e-10,0.0,0.0,0.0,1.0,2
2025/04/05 15:58:40.1320102,1743861520,668249,mA1/gps,0,1,63.43676291083316,10.39307321968786,0.0,1.4400000000000002e-10,0.0,0.0,0.0,1.4400000000000002e-10,0.0,0.0,0.0,1.0,2
2025/04/05 15:58:40.43128905,1743861520,42241801,mA1/gps,0,1,63.43676295632379,10.3930732567769,0.0,1.4400000000000002e-10,0.0,0.0,0.0,1.4400000000000002e-10,0.0,0.0,0.0,1.0,2
2025/04/05 15:58:40.94118652,1743861520,92118181,mA1/gps,0,1,63.43676300475739,10.393073299977724,0.0,1.4400000000000002e-10,0.0,0.0,0.0,1.4400000000000002e-10,0.0,0.0,0.0,1.0,2
2025/04/05 15:58:40.145640216,1743861520,143205309,mA1/gps,0,1,63.43676305431848,10.393073346734157,0.0,1.4400000000000002e-10,0.0,0.0,0.0,1.4400000000000002e-10,0.0,0.0,0.0,1.0,2
2025/04/05 15:58:40.196990259,1743861520,194727045,mA1/gps,0,1,63.43676310556624,10.393073393136056,0.0,1.4400000000000002e-10,0.0,0.0,0.0,1.4400000000000002e-10,0.0,0.0,0.0,1.0,2
2025/04/05 15:58:40.246966809,1743861520,246225743,mA1/gps,0,1,63.436763159213726,10.393073437872925,0.0,1.4400000000000002e-10,0.0,0.0,0.0,1.4400000000000002e-10,0.0,0.0,0.0,1.0,2
2025/04/05 15:58:40.298095327,1743861520,296541518,mA1/gps,0,1,63.43676321366215,10.393073477573845,0.0,1.4400000000000002e-10,0.0,0.0,0.0,1.4400000000000002e-10,0.0,0.0,0.0,1.0,2
2025/04/05 15:58:40.349322781,1743861520,347438709,mA1/gps,0,1,63.43676327067868,10.393073510539125,0.0,1.4400000000000002e-10,0.0,0.0,0.0,1.4400000000000002e-10,0.0,0.0,0.0,1.0,2
2025/04/05 15:58:40.400381486,1743861520,397437523,mA1/gps,0,1,63.43676332934476,10.393073533697766,0.0,1.4400000000000002e-10,0.0,0.0,0.0,1.4400000000000002e-10,0.0,0.0,0.0,1.0,2
2025/04/05 15:58:40.449605039,1743861520,448942656,mA1/gps,0,1,63.43676338902246,10.393073546885722,0.0,1.4400000000000002e-10,0.0,0.0,0.0,1.4400000000000002e-10,0.0,0.0,0.0,1.0,2
2025/04/05 15:58:40.504605840,1743861520,501991808,mA1/gps,0,1,63.436763449726705,10.3930735498313,0.0,1.4400000000000002e-10,0.0,0.0,0.0,1.4400000000000002e-10,0.0,0.0,0.0,1.0,2
2025/04/05 15:58:40.546706692,1743861520,544664594,mA1/gps,0,1,63.43676351282359,10.393073542325137,0.0,1.4400000000000002e-10,0.0,0.0,0.0,1.4400000000000002e-10,0.0,0.0,0.0,1.0,2
2025/04/05 15:58:40.597222820,1743861520,594816808,mA1/gps,0,1,63.43676357455666,10.393073524869957,0.0,1.4400000000000002e-10,0.0,0.0,0.0,1.4400000000000002e-10,0.0,0.0,0.0,1.0,2
2025/04/05 15:58:40.647467160,1743861520,646506863,mA1/gps,0,1,63.436763639652405,10.393073500416536,0.0,1.4400000000000002e-10,0.0,0.0,0.0,1.4400000000000002e-10,0.0,0.0,0.0,1.0,2
2025/04/05 15:58:40.696913627,1743861520,696130062,mA1/gps,0,1,63.43676370599439,10.39307346945353,0.0,1.4400000000000002e-10,0.0,0.0,0.0,1.4400000000000002e-10,0.0,0.0,0.0,1.0,2
2025/04/05 15:58:40.747755563,1743861520,747043747,mA1/gps,0,1,63.43676377342505,10.393073433787631,0.0,1.4400000000000002e-10,0.0,0.0,0.0,1.4400000000000002e-10,0.0,0.0,0.0,1.0,2
2025/04/05 15:58:40.799843670,1743861520,798779674,mA1/gps,0,1,63.436763840458546,10.393073396260615,0.0,1.4400000000000002e-10,0.0,0.0,0.0,1.4400000000000002e-10,0.0,0.0,0.0,1.0,2
2025/04/05 15:58:40.850299930,1743861520,849439976,mA1/gps,0,1,63.43676391169532,10.393073358353057,0.0,1.4400000000000002e-10,0.0,0.0,0.0,1.4400000000000002e-10,0.0,0.0,0.0,1.0,2
2025/04/05 15:58:40.906849635,1743861520,899739916,mA1/gps,0,1,63.436763982032005,10.393073324044508,0.0,1.4400000000000002e-10,0.0,0.0,0.0,1.4400000000000002e-10,0.0,0.0,0.0,1.0,2
2025/04/05 15:58:40.952936197,1743861520,948501404,mA1/gps,0,1,63.43676405456365,10.393073295300512,0.0,1.4400000000000002e-10,0.0,0.0,0.0,1.4400000000000002e-10,0.0,0.0,0.0,1.0,2
2025/04/05 15:58:41.3599920,1743861520,997060549,mA1/gps,0,1,63.43676412677476,10.393073272397475,0.0,1.4400000000000002e-10,0.0,0.0,0.0,1.4400000000000002e-10,0.0,0.0,0.0,1.0,2
2025/04/05 15:58:41.47508697,1743861521,43615598,mA1/gps,0,1,63.43676420199138,10.393073258240443,0.0,1.4400000000000002e-10,0.0,0.0,0.0,1.4400000000000002e-10,0.0,0.0,0.0,1.0,2
2025/04/05 15:58:41.95781768,1743861521,93665838,mA1/gps,0,1,63.43676427810116,10.393073252818413,0.0,1.4400000000000002e-10,0.0,0.0,0.0,1.4400000000000002e-10,0.0,0.0,0.0,1.0,2
2025/04/05 15:58:41.145251109,1743861521,143439535,mA1/gps,0,1,63.43676435467731,10.393073257383763,0.0,1.4400000000000002e-10,0.0,0.0,0.0,1.4400000000000002e-10,0.0,0.0,0.0,1.0,2
2025/04/05 15:58:41.195197054,1743861521,193240323,mA1/gps,0,1,63.436764433639155,10.393073270903233,0.0,1.4400000000000002e-10,0.0,0.0,0.0,1.4400000000000002e-10,0.0,0.0,0.0,1.0,2
2025/04/05 15:58:41.246739282,1743861521,244801462,mA1/gps,0,1,63.436764514886384,10.393073292445608,0.0,1.4400000000000002e-10,0.0,0.0,0.0,1.4400000000000002e-10,0.0,0.0,0.0,1.0,2
2025/04/05 15:58:41.601866790,1743861521,294992326,mA1/gps,0,1,63.43676459652587,10.393073320704694,0.0,1.4400000000000002e-10,0.0,0.0,0.0,1.4400000000000002e-10,0.0,0.0,0.0,1.0,2
2025/04/05 15:58:41.602078961,1743861521,345977645,mA1/gps,0,1,63.43676467691729,10.393073355217835,0.0,1.4400000000000002e-10,0.0,0.0,0.0,1.4400000000000002e-10,0.0,0.0,0.0,1.0,2
2025/04/05 15:58:41.602208841,1743861521,396445079,mA1/gps,0,1,63.43676476161887,10.393073393364666,0.0,1.4400000000000002e-10,0.0,0.0,0.0,1.4400000000000002e-10,0.0,0.0,0.0,1.0,2
2025/04/05 15:58:41.603203881,1743861521,447381528,mA1/gps,0,1,63.436764848150005,10.39307343359369,0.0,1.4400000000000002e-10,0.0,0.0,0.0,1.4400000000000002e-10,0.0,0.0,0.0,1.0,2
2025/04/05 15:58:41.603326176,1743861521,497337409,mA1/gps,0,1,63.43676493302595,10.393073473811372,0.0,1.4400000000000002e-10,0.0,0.0,0.0,1.4400000000000002e-10,0.0,0.0,0.0,1.0,2
2025/04/05 15:58:41.607531185,1743861521,548213142,mA1/gps,0,1,63.43676502103568,10.393073511678125,0.0,1.4400000000000002e-10,0.0,0.0,0.0,1.4400000000000002e-10,0.0,0.0,0.0,1.0,2
2025/04/05 15:58:41.607673438,1743861521,598180410,mA1/gps,0,1,63.436765111185345,10.393073545911744,0.0,1.4400000000000002e-10,0.0,0.0,0.0,1.4400000000000002e-10,0.0,0.0,0.0,1.0,2
2025/04/05 15:58:41.651596376,1743861521,650591235,mA1/gps,0,1,63.43676520099632,10.393073575052652,0.0,1.4400000000000002e-10,0.0,0.0,0.0,1.4400000000000002e-10,0.0,0.0,0.0,1.0,2
2025/04/05 15:58:41.693034672,1743861521,691397530,mA1/gps,0,1,63.436765292073105,10.393073598870876,0.0,1.4400000000000002e-10,0.0,0.0,0.0,1.4400000000000002e-10,0.0,0.0,0.0,1.0,2
2025/04/05 15:58:41.743697516,1743861521,742611290,mA1/gps,0,1,63.43676538423724,10.393073613893645,0.0,1.4400000000000002e-10,0.0,0.0,0.0,1.4400000000000002e-10,0.0,0.0,0.0,1.0,2
2025/04/05 15:58:41.795264652,1743861521,792764402,mA1/gps,0,1,63.436765478145084,10.393073620254983,0.0,1.4400000000000002e-10,0.0,0.0,0.0,1.4400000000000002e-10,0.0,0.0,0.0,1.0,2
2025/04/05 15:58:41.844762383,1743861521,843742219,mA1/gps,0,1,63.43676557381032,10.393073619308954,0.0,1.4400000000000002e-10,0.0,0.0,0.0,1.4400000000000002e-10,0.0,0.0,0.0,1.0,2
2025/04/05 15:58:41.897357511,1743861521,895423671,mA1/gps,0,1,63.43676566874315,10.393073609464583,0.0,1.4400000000000002e-10,0.0,0.0,0.0,1.4400000000000002e-10,0.0,0.0,0.0,1.0,2
2025/04/05 15:58:41.946575240,1743861521,945545916,mA1/gps,0,1,63.436765765887024,10.393073593739786,0.0,1.4400000000000002e-10,0.0,0.0,0.0,1.4400000000000002e-10,0.0,0.0,0.0,1.0,2
2025/04/05 15:58:41.997645998,1743861521,995365182,mA1/gps,0,1,63.43676586346544,10.393073573105793,0.0,1.4400000000000002e-10,0.0,0.0,0.0,1.4400000000000002e-10,0.0,0.0,0.0,1.0,2
2025/04/05 15:58:42.47039933,1743861522,46282570,mA1/gps,0,1,63.43676596271574,10.393073548787633,0.0,1.4400000000000002e-10,0.0,0.0,0.0,1.4400000000000002e-10,0.0,0.0,0.0,1.0,2
2025/04/05 15:58:42.97113058,1743861522,96549224,mA1/gps,0,1,63.436766063054705,10.393073523163011,0.0,1.4400000000000002e-10,0.0,0.0,0.0,1.4400000000000002e-10,0.0,0.0,0.0,1.0,2
2025/04/05 15:58:42.150463575,1743861522,148851780,mA1/gps,0,1,63.436766162983,10.393073498671924,0.0,1.4400000000000002e-10,0.0,0.0,0.0,1.4400000000000002e-10,0.0,0.0,0.0,1.0,2
2025/04/05 15:58:42.201734059,1743861522,198704801,mA1/gps,0,1,63.4367662649544,10.393073476946276,0.0,1.4400000000000002e-10,0.0,0.0,0.0,1.4400000000000002e-10,0.0,0.0,0.0,1.0,2
2025/04/05 15:58:42.251001968,1743861522,249768010,mA1/gps,0,1,63.43676636755857,10.393073458466004,0.0,1.4400000000000002e-10,0.0,0.0,0.0,1.4400000000000002e-10,0.0,0.0,0.0,1.0,2
2025/04/05 15:58:42.301338784,1743861522,300393208,mA1/gps,0,1,63.436766470113795,10.393073444995188,0.0,1.4400000000000002e-10,0.0,0.0,0.0,1.4400000000000002e-10,0.0,0.0,0.0,1.0,2
2025/04/05 15:58:42.342002809,1743861522,340830655,mA1/gps,0,1,63.43676657257962,10.393073438818496,0.0,1.4400000000000002e-10,0.0,0.0,0.0,1.4400000000000002e-10,0.0,0.0,0.0,1.0,2
2025/04/05 15:58:42.413242069,1743861522,391994722,mA1/gps,0,1,63.43676667681333,10.393073439627162,0.0,1.4400000000000002e-10,0.0,0.0,0.0,1.4400000000000002e-10,0.0,0.0,0.0,1.0,2
2025/04/05 15:58:42.466857390,1743861522,444853391,mA1/gps,0,1,63.43676678227034,10.39307344751546,0.0,1.4400000000000002e-10,0.0,0.0,0.0,1.4400000000000002e-10,0.0,0.0,0.0,1.0,2
2025/04/05 15:58:42.501390296,1743861522,497209584,mA1/gps,0,1,63.43676688850914,10.393073462273321,0.0,1.4400000000000002e-10,0.0,0.0,0.0,1.4400000000000002e-10,0.0,0.0,0.0,1.0,2
2025/04/05 15:58:42.548891701,1743861522,548012130,mA1/gps,0,1,63.4367669945346,10.393073483996648,0.0,1.4400000000000002e-10,0.0,0.0,0.0,1.4400000000000002e-10,0.0,0.0,0.0,1.0,2
2025/04/05 15:58:42.598583597,1743861522,597226774,mA1/gps,0,1,63.43676710128726,10.39307351001477,0.0,1.4400000000000002e-10,0.0,0.0,0.0,1.4400000000000002e-10,0.0,0.0,0.0,1.0,2
2025/04/05 15:58:42.649222384,1743861522,648319805,mA1/gps,0,1,63.436767207936235,10.393073541101897,0.0,1.4400000000000002e-10,0.0,0.0,0.0,1.4400000000000002e-10,0.0,0.0,0.0,1.0,2
2025/04/05 15:58:42.703481538,1743861522,698316570,mA1/gps,0,1,63.43676731644731,10.39307357364957,0.0,1.4400000000000002e-10,0.0,0.0,0.0,1.4400000000000002e-10,0.0,0.0,0.0,1.0,2
2025/04/05 15:58:42.751435373,1743861522,750090256,mA1/gps,0,1,63.43676742526581,10.3930736080891,0.0,1.4400000000000002e-10,0.0,0.0,0.0,1.4400000000000002e-10,0.0,0.0,0.0,1.0,2
2025/04/05 15:58:42.800789520,1743861522,799934158,mA1/gps,0,1,63.436767532241866,10.393073642847696,0.0,1.4400000000000002e-10,0.0,0.0,0.0,1.4400000000000002e-10,0.0,0.0,0.0,1.0,2
2025/04/05 15:58:42.842398151,1743861522,841497306,mA1/gps,0,1,63.43676764364745,10.393073674606432,0.0,1.4400000000000002e-10,0.0,0.0,0.0,1.4400000000000002e-10,0.0,0.0,0.0,1.0,2
2025/04/05 15:58:42.891653869,1743861522,890871487,mA1/gps,0,1,63.43676775456192,10.393073702313947,0.0,1.4400000000000002e-10,0.0,0.0,0.0,1.4400000000000002e-10,0.0,0.0,0.0,1.0,2
2025/04/05 15:58:42.944245814,1743861522,942319420,mA1/gps,0,1,63.4367678647034,10.393073724494016,0.0,1.4400000000000002e-10,0.0,0.0,0.0,1.4400000000000002e-10,0.0,0.0,0.0,1.0,2
2025/04/05 15:58:42.992979646,1743861522,991699327,mA1/gps,0,1,63.43676797863865,10.39307374066774,0.0,1.4400000000000002e-10,0.0,0.0,0.0,1.4400000000000002e-10,0.0,0.0,0.0,1.0,2
2025/04/05 15:58:43.45948037,1743861523,43131152,mA1/gps,0,1,63.4367680905499,10.393073749862637,0.0,1.4400000000000002e-10,0.0,0.0,0.0,1.4400000000000002e-10,0.0,0.0,0.0,1.0,2
2025/04/05 15:58:43.94982217,1743861523,93557203,mA1/gps,0,1,63.436768204666635,10.393073752404664,0.0,1.4400000000000002e-10,0.0,0.0,0.0,1.4400000000000002e-10,0.0,0.0,0.0,1.0,2
2025/04/05 15:58:43.146430198,1743861523,145021465,mA1/gps,0,1,63.43676831929819,10.393073747528076,0.0,1.4400000000000002e-10,0.0,0.0,0.0,1.4400000000000002e-10,0.0,0.0,0.0,1.0,2
2025/04/05 15:58:43.201261231,1743861523,194922947,mA1/gps,0,1,63.43676843498274,10.393073736309848,0.0,1.4400000000000002e-10,0.0,0.0,0.0,1.4400000000000002e-10,0.0,0.0,0.0,1.0,2
2025/04/05 15:58:43.247053827,1743861523,245942696,mA1/gps,0,1,63.43676855132109,10.393073721015805,0.0,1.4400000000000002e-10,0.0,0.0,0.0,1.4400000000000002e-10,0.0,0.0,0.0,1.0,2
2025/04/05 15:58:43.297233799,1743861523,295996902,mA1/gps,0,1,63.436768668861404,10.393073701176188,0.0,1.4400000000000002e-10,0.0,0.0,0.0,1.4400000000000002e-10,0.0,0.0,0.0,1.0,2
2025/04/05 15:58:43.349847576,1743861523,347537747,mA1/gps,0,1,63.436768788422405,10.393073679928985,0.0,1.4400000000000002e-10,0.0,0.0,0.0,1.4400000000000002e-10,0.0,0.0,0.0,1.0,2
2025/04/05 15:58:43.398719503,1743861523,397802933,mA1/gps,0,1,63.43676890903158,10.393073658437855,0.0,1.4400000000000002e-10,0.0,0.0,0.0,1.4400000000000002e-10,0.0,0.0,0.0,1.0,2
2025/04/05 15:58:43.451744044,1743861523,450015052,mA1/gps,0,1,63.436769028678064,10.393073638301061,0.0,1.4400000000000002e-10,0.0,0.0,0.0,1.4400000000000002e-10,0.0,0.0,0.0,1.0,2
2025/04/05 15:58:43.501604541,1743861523,500484372,mA1/gps,0,1,63.436769149342,10.393073621145925,0.0,1.4400000000000002e-10,0.0,0.0,0.0,1.4400000000000002e-10,0.0,0.0,0.0,1.0,2
2025/04/05 15:58:43.551251720,1743861523,550493392,mA1/gps,0,1,63.436769272450924,10.393073608948244,0.0,1.4400000000000002e-10,0.0,0.0,0.0,1.4400000000000002e-10,0.0,0.0,0.0,1.0,2
2025/04/05 15:58:43.591832232,1743861523,591197126,mA1/gps,0,1,63.43676939628341,10.393073602053613,0.0,1.4400000000000002e-10,0.0,0.0,0.0,1.4400000000000002e-10,0.0,0.0,0.0,1.0,2
2025/04/05 15:58:43.643113542,1743861523,642170206,mA1/gps,0,1,63.43676951795792,10.39307360142644,0.0,1.4400000000000002e-10,0.0,0.0,0.0,1.4400000000000002e-10,0.0,0.0,0.0,1.0,2
2025/04/05 15:58:43.700305729,1743861523,692364457,mA1/gps,0,1,63.43676964376486,10.393073607884164,0.0,1.4400000000000002e-10,0.0,0.0,0.0,1.4400000000000002e-10,0.0,0.0,0.0,1.0,2
2025/04/05 15:58:43.745793699,1743861523,745183128,mA1/gps,0,1,63.43676976833969,10.393073621091931,0.0,1.4400000000000002e-10,0.0,0.0,0.0,1.4400000000000002e-10,0.0,0.0,0.0,1.0,2
2025/04/05 15:58:43.797649821,1743861523,795595252,mA1/gps,0,1,63.4367698919596,10.39307364040986,0.0,1.4400000000000002e-10,0.0,0.0,0.0,1.4400000000000002e-10,0.0,0.0,0.0,1.0,2
2025/04/05 15:58:43.847057200,1743861523,845993744,mA1/gps,0,1,63.43677001661775,10.393073664849052,0.0,1.4400000000000002e-10,0.0,0.0,0.0,1.4400000000000002e-10,0.0,0.0,0.0,1.0,2
2025/04/05 15:58:43.897030438,1743861523,895949976,mA1/gps,0,1,63.436770143077226,10.393073693656525,0.0,1.4400000000000002e-10,0.0,0.0,0.0,1.4400000000000002e-10,0.0,0.0,0.0,1.0,2
2025/04/05 15:58:43.949525550,1743861523,948321713,mA1/gps,0,1,63.43677026879815,10.393073725761049,0.0,1.4400000000000002e-10,0.0,0.0,0.0,1.4400000000000002e-10,0.0,0.0,0.0,1.0,2
2025/04/05 15:58:43.997948420,1743861523,997383056,mA1/gps,0,1,63.43677039381146,10.393073758614637,0.0,1.4400000000000002e-10,0.0,0.0,0.0,1.4400000000000002e-10,0.0,0.0,0.0,1.0,2
2025/04/05 15:58:44.49704417,1743861524,48590124,mA1/gps,0,1,63.43677051940204,10.393073791646575,0.0,1.4400000000000002e-10,0.0,0.0,0.0,1.4400000000000002e-10,0.0,0.0,0.0,1.0,2
2025/04/05 15:58:44.99332539,1743861524,98557799,mA1/gps,0,1,63.43677064453668,10.393073823194522,0.0,1.4400000000000002e-10,0.0,0.0,0.0,1.4400000000000002e-10,0.0,0.0,0.0,1.0,2
2025/04/05 15:58:44.151845885,1743861524,149507172,mA1/gps,0,1,63.43677077037133,10.393073851862452,0.0,1.4400000000000002e-10,0.0,0.0,0.0,1.4400000000000002e-10,0.0,0.0,0.0,1.0,2
2025/04/05 15:58:44.192902246,1743861524,190998093,mA1/gps,0,1,63.43677089708681,10.39307387564595,0.0,1.4400000000000002e-10,0.0,0.0,0.0,1.4400000000000002e-10,0.0,0.0,0.0,1.0,2
2025/04/05 15:58:44.244037371,1743861524,242980362,mA1/gps,0,1,63.436771023795195,10.393073894732474,0.0,1.4400000000000002e-10,0.0,0.0,0.0,1.4400000000000002e-10,0.0,0.0,0.0,1.0,2
2025/04/05 15:58:44.295883021,1743861524,292935635,mA1/gps,0,1,63.43677115021186,10.393073908708846,0.0,1.4400000000000002e-10,0.0,0.0,0.0,1.4400000000000002e-10,0.0,0.0,0.0,1.0,2
2025/04/05 15:58:44.348568836,1743861524,344771751,mA1/gps,0,1,63.436771277084176,10.393073915615737,0.0,1.4400000000000002e-10,0.0,0.0,0.0,1.4400000000000002e-10,0.0,0.0,0.0,1.0,2
2025/04/05 15:58:44.395095389,1743861524,393693718,mA1/gps,0,1,63.43677140521961,10.39307391785536,0.0,1.4400000000000002e-10,0.0,0.0,0.0,1.4400000000000002e-10,0.0,0.0,0.0,1.0,2
2025/04/05 15:58:44.447636268,1743861524,444647803,mA1/gps,0,1,63.436771533734856,10.393073914162054,0.0,1.4400000000000002e-10,0.0,0.0,0.0,1.4400000000000002e-10,0.0,0.0,0.0,1.0,2
2025/04/05 15:58:44.496023999,1743861524,494460005,mA1/gps,0,1,63.43677166182477,10.393073906703377,0.0,1.4400000000000002e-10,0.0,0.0,0.0,1.4400000000000002e-10,0.0,0.0,0.0,1.0,2
2025/04/05 15:58:44.546766247,1743861524,545538680,mA1/gps,0,1,63.436771792135815,10.393073894620317,0.0,1.4400000000000002e-10,0.0,0.0,0.0,1.4400000000000002e-10,0.0,0.0,0.0,1.0,2
2025/04/05 15:58:44.596757397,1743861524,595227677,mA1/gps,0,1,63.436771923124105,10.393073881129895,0.0,1.4400000000000002e-10,0.0,0.0,0.0,1.4400000000000002e-10,0.0,0.0,0.0,1.0,2
2025/04/05 15:58:44.648567381,1743861524,647303554,mA1/gps,0,1,63.43677205511618,10.393073866067216,0.0,1.4400000000000002e-10,0.0,0.0,0.0,1.4400000000000002e-10,0.0,0.0,0.0,1.0,2
2025/04/05 15:58:44.702077064,1743861524,699654170,mA1/gps,0,1,63.43677218860085,10.393073851653181,0.0,1.4400000000000002e-10,0.0,0.0,0.0,1.4400000000000002e-10,0.0,0.0,0.0,1.0,2
2025/04/05 15:58:44.743487930,1743861524,740696000,mA1/gps,0,1,63.43677232168552,10.39307383934383,0.0,1.4400000000000002e-10,0.0,0.0,0.0,1.4400000000000002e-10,0.0,0.0,0.0,1.0,2
2025/04/05 15:58:44.791158924,1743861524,790531479,mA1/gps,0,1,63.43677245613638,10.393073829426703,0.0,1.4400000000000002e-10,0.0,0.0,0.0,1.4400000000000002e-10,0.0,0.0,0.0,1.0,2
2025/04/05 15:58:44.847159545,1743861524,845627894,mA1/gps,0,1,63.43677259195633,10.393073823320584,0.0,1.4400000000000002e-10,0.0,0.0,0.0,1.4400000000000002e-10,0.0,0.0,0.0,1.0,2
2025/04/05 15:58:44.901672361,1743861524,895536238,mA1/gps,0,1,63.436772728574084,10.393073822563448,0.0,1.4400000000000002e-10,0.0,0.0,0.0,1.4400000000000002e-10,0.0,0.0,0.0,1.0,2
2025/04/05 15:58:44.948395150,1743861524,946922421,mA1/gps,0,1,63.43677286559092,10.3930738254377,0.0,1.4400000000000002e-10,0.0,0.0,0.0,1.4400000000000002e-10,0.0,0.0,0.0,1.0,2
2025/04/05 15:58:44.997621551,1743861524,996673121,mA1/gps,0,1,63.43677300298458,10.393073834212302,0.0,1.4400000000000002e-10,0.0,0.0,0.0,1.4400000000000002e-10,0.0,0.0,0.0,1.0,2
2025/04/05 15:58:45.48626025,1743861525,47687235,mA1/gps,0,1,63.43677314112287,10.393073848482555,0.0,1.4400000000000002e-10,0.0,0.0,0.0,1.4400000000000002e-10,0.0,0.0,0.0,1.0,2
2025/04/05 15:58:45.98346639,1743861525,97512747,mA1/gps,0,1,63.436773279577515,10.393073867213614,0.0,1.4400000000000002e-10,0.0,0.0,0.0,1.4400000000000002e-10,0.0,0.0,0.0,1.0,2
2025/04/05 15:58:45.149030155,1743861525,148433084,mA1/gps,0,1,63.436773419627144,10.393073890652909,0.0,1.4400000000000002e-10,0.0,0.0,0.0,1.4400000000000002e-10,0.0,0.0,0.0,1.0,2
2025/04/05 15:58:45.199223489,1743861525,198307643,mA1/gps,0,1,63.43677355749743,10.393073916899844,0.0,1.4400000000000002e-10,0.0,0.0,0.0,1.4400000000000002e-10,0.0,0.0,0.0,1.0,2
2025/04/05 15:58:45.250029845,1743861525,249398154,mA1/gps,0,1,63.436773696423664,10.393073945362868,0.0,1.4400000000000002e-10,0.0,0.0,0.0,1.4400000000000002e-10,0.0,0.0,0.0,1.0,2
2025/04/05 15:58:45.302530274,1743861525,299321479,mA1/gps,0,1,63.43677383495443,10.393073974770747,0.0,1.4400000000000002e-10,0.0,0.0,0.0,1.4400000000000002e-10,0.0,0.0,0.0,1.0,2
2025/04/05 15:58:45.352453900,1743861525,351532085,mA1/gps,0,1,63.43677397404812,10.393074004186003,0.0,1.4400000000000002e-10,0.0,0.0,0.0,1.4400000000000002e-10,0.0,0.0,0.0,1.0,2
2025/04/05 15:58:45.391661816,1743861525,391004092,mA1/gps,0,1,63.43677411303528,10.393074030869215,0.0,1.4400000000000002e-10,0.0,0.0,0.0,1.4400000000000002e-10,0.0,0.0,0.0,1.0,2
2025/04/05 15:58:45.444126378,1743861525,442703621,mA1/gps,0,1,63.43677425142277,10.393074055384176,0.0,1.4400000000000002e-10,0.0,0.0,0.0,1.4400000000000002e-10,0.0,0.0,0.0,1.0,2
2025/04/05 15:58:45.496735303,1743861525,492654214,mA1/gps,0,1,63.436774389346425,10.393074075814457,0.0,1.4400000000000002e-10,0.0,0.0,0.0,1.4400000000000002e-10,0.0,0.0,0.0,1.0,2
2025/04/05 15:58:45.544251616,1743861525,543473575,mA1/gps,0,1,63.436774528381186,10.39307409122246,0.0,1.4400000000000002e-10,0.0,0.0,0.0,1.4400000000000002e-10,0.0,0.0,0.0,1.0,2
2025/04/05 15:58:45.597544407,1743861525,593372140,mA1/gps,0,1,63.43677466736629,10.393074101311448,0.0,1.4400000000000002e-10,0.0,0.0,0.0,1.4400000000000002e-10,0.0,0.0,0.0,1.0,2
2025/04/05 15:58:45.645770405,1743861525,644314665,mA1/gps,0,1,63.436774805598375,10.393074106682729,0.0,1.4400000000000002e-10,0.0,0.0,0.0,1.4400000000000002e-10,0.0,0.0,0.0,1.0,2
2025/04/05 15:58:45.695617268,1743861525,694261509,mA1/gps,0,1,63.43677494414281,10.393074105575351,0.0,1.4400000000000002e-10,0.0,0.0,0.0,1.4400000000000002e-10,0.0,0.0,0.0,1.0,2
2025/04/05 15:58:45.747378761,1743861525,745594622,mA1/gps,0,1,63.43677508433109,10.393074099822075,0.0,1.4400000000000002e-10,0.0,0.0,0.0,1.4400000000000002e-10,0.0,0.0,0.0,1.0,2
2025/04/05 15:58:45.801858241,1743861525,795487244,mA1/gps,0,1,63.43677522494439,10.393074089756851,0.0,1.4400000000000002e-10,0.0,0.0,0.0,1.4400000000000002e-10,0.0,0.0,0.0,1.0,2
2025/04/05 15:58:45.847248822,1743861525,846372061,mA1/gps,0,1,63.43677536456376,10.393074076651498,0.0,1.4400000000000002e-10,0.0,0.0,0.0,1.4400000000000002e-10,0.0,0.0,0.0,1.0,2
2025/04/05 15:58:45.898081721,1743861525,896830155,mA1/gps,0,1,63.43677550559752,10.393074061710937,0.0,1.4400000000000002e-10,0.0,0.0,0.0,1.4400000000000002e-10,0.0,0.0,0.0,1.0,2
2025/04/05 15:58:45.952732524,1743861525,950155577,mA1/gps,0,1,63.436775647749016,10.393074045237631,0.0,1.4400000000000002e-10,0.0,0.0,0.0,1.4400000000000002e-10,0.0,0.0,0.0,1.0,2
2025/04/05 15:58:45.992225978,1743861525,990914886,mA1/gps,0,1,63.4367757915426,10.393074029737411,0.0,1.4400000000000002e-10,0.0,0.0,0.0,1.4400000000000002e-10,0.0,0.0,0.0,1.0,2
2025/04/05 15:58:46.44143733,1743861526,42482684,mA1/gps,0,1,63.43677593578887,10.393074015946029,0.0,1.4400000000000002e-10,0.0,0.0,0.0,1.4400000000000002e-10,0.0,0.0,0.0,1.0,2
2025/04/05 15:58:46.95421827,1743861526,91824720,mA1/gps,0,1,63.43677608039479,10.3930740044724,0.0,1.4400000000000002e-10,0.0,0.0,0.0,1.4400000000000002e-10,0.0,0.0,0.0,1.0,2
2025/04/05 15:58:46.143680303,1743861526,143155819,mA1/gps,0,1,63.43677622648551,10.39307399752786,0.0,1.4400000000000002e-10,0.0,0.0,0.0,1.4400000000000002e-10,0.0,0.0,0.0,1.0,2
2025/04/05 15:58:46.197567681,1743861526,195672194,mA1/gps,0,1,63.4367763725688,10.393073994595174,0.0,1.4400000000000002e-10,0.0,0.0,0.0,1.4400000000000002e-10,0.0,0.0,0.0,1.0,2
2025/04/05 15:58:46.248176577,1743861526,246735108,mA1/gps,0,1,63.436776520139425,10.393073997862466,0.0,1.4400000000000002e-10,0.0,0.0,0.0,1.4400000000000002e-10,0.0,0.0,0.0,1.0,2
2025/04/05 15:58:46.298470226,1743861526,296533075,mA1/gps,0,1,63.43677666938261,10.393074004753354,0.0,1.4400000000000002e-10,0.0,0.0,0.0,1.4400000000000002e-10,0.0,0.0,0.0,1.0,2
2025/04/05 15:58:46.348302455,1743861526,347526664,mA1/gps,0,1,63.43677681674845,10.393074017613193,0.0,1.4400000000000002e-10,0.0,0.0,0.0,1.4400000000000002e-10,0.0,0.0,0.0,1.0,2
2025/04/05 15:58:46.399245397,1743861526,397406182,mA1/gps,0,1,63.436776965419696,10.393074035463133,0.0,1.4400000000000002e-10,0.0,0.0,0.0,1.4400000000000002e-10,0.0,0.0,0.0,1.0,2
2025/04/05 15:58:46.450357236,1743861526,448492190,mA1/gps,0,1,63.43677711704671,10.393074056120524,0.0,1.4400000000000002e-10,0.0,0.0,0.0,1.4400000000000002e-10,0.0,0.0,0.0,1.0,2
2025/04/05 15:58:46.499883030,1743861526,498169547,mA1/gps,0,1,63.43677726618189,10.393074079656653,0.0,1.4400000000000002e-10,0.0,0.0,0.0,1.4400000000000002e-10,0.0,0.0,0.0,1.0,2
2025/04/05 15:58:46.550401438,1743861526,549560693,mA1/gps,0,1,63.436777417457726,10.393074103868088,0.0,1.4400000000000002e-10,0.0,0.0,0.0,1.4400000000000002e-10,0.0,0.0,0.0,1.0,2
2025/04/05 15:58:46.600870133,1743861526,599533151,mA1/gps,0,1,63.43677756791319,10.393074128154003,0.0,1.4400000000000002e-10,0.0,0.0,0.0,1.4400000000000002e-10,0.0,0.0,0.0,1.0,2
2025/04/05 15:58:46.654012733,1743861526,650496447,mA1/gps,0,1,63.4367777163911,10.393074151644548,0.0,1.4400000000000002e-10,0.0,0.0,0.0,1.4400000000000002e-10,0.0,0.0,0.0,1.0,2
2025/04/05 15:58:46.691736052,1743861526,690398309,mA1/gps,0,1,63.43677786879644,10.39307417334775,0.0,1.4400000000000002e-10,0.0,0.0,0.0,1.4400000000000002e-10,0.0,0.0,0.0,1.0,2
2025/04/05 15:58:46.741836398,1743861526,741338757,mA1/gps,0,1,63.436778018979396,10.393074191129774,0.0,1.4400000000000002e-10,0.0,0.0,0.0,1.4400000000000002e-10,0.0,0.0,0.0,1.0,2
2025/04/05 15:58:46.792202822,1743861526,791219343,mA1/gps,0,1,63.43677816795022,10.393074206196372,0.0,1.4400000000000002e-10,0.0,0.0,0.0,1.4400000000000002e-10,0.0,0.0,0.0,1.0,2
2025/04/05 15:58:46.843312599,1743861526,842226339,mA1/gps,0,1,63.43677831981415,10.393074215871962,0.0,1.4400000000000002e-10,0.0,0.0,0.0,1.4400000000000002e-10,0.0,0.0,0.0,1.0,2
2025/04/05 15:58:46.893258727,1743861526,892051216,mA1/gps,0,1,63.43677846910916,10.393074221934882,0.0,1.4400000000000002e-10,0.0,0.0,0.0,1.4400000000000002e-10,0.0,0.0,0.0,1.0,2
2025/04/05 15:58:46.944697515,1743861526,943478643,mA1/gps,0,1,63.43677862076293,10.39307422298163,0.0,1.4400000000000002e-10,0.0,0.0,0.0,1.4400000000000002e-10,0.0,0.0,0.0,1.0,2
2025/04/05 15:58:46.994174403,1743861526,993125444,mA1/gps,0,1,63.43677877068537,10.39307421988793,0.0,1.4400000000000002e-10,0.0,0.0,0.0,1.4400000000000002e-10,0.0,0.0,0.0,1.0,2
2025/04/05 15:58:47.45443859,1743861527,44171420,mA1/gps,0,1,63.436778920258135,10.39307421339767,0.0,1.4400000000000002e-10,0.0,0.0,0.0,1.4400000000000002e-10,0.0,0.0,0.0,1.0,2
2025/04/05 15:58:47.94895801,1743861527,93973647,mA1/gps,0,1,63.436779071532364,10.393074203170446,0.0,1.4400000000000002e-10,0.0,0.0,0.0,1.4400000000000002e-10,0.0,0.0,0.0,1.0,2
2025/04/05 15:58:47.146225916,1743861527,145192070,mA1/gps,0,1,63.436779222364095,10.393074190520961,0.0,1.4400000000000002e-10,0.0,0.0,0.0,1.4400000000000002e-10,0.0,0.0,0.0,1.0,2
2025/04/05 15:58:47.198141171,1743861527,195002988,mA1/gps,0,1,63.4367793751383,10.39307417594805,0.0,1.4400000000000002e-10,0.0,0.0,0.0,1.4400000000000002e-10,0.0,0.0,0.0,1.0,2
2025/04/05 15:58:47.246821039,1743861527,245916554,mA1/gps,0,1,63.436779526826015,10.393074162027677,0.0,1.4400000000000002e-10,0.0,0.0,0.0,1.4400000000000002e-10,0.0,0.0,0.0,1.0,2
2025/04/05 15:58:47.298265033,1743861527,296700658,mA1/gps,0,1,63.436779680100855,10.393074147507836,0.0,1.4400000000000002e-10,0.0,0.0,0.0,1.4400000000000002e-10,0.0,0.0,0.0,1.0,2
2025/04/05 15:58:47.348065681,1743861527,347590313,mA1/gps,0,1,63.43677983515142,10.393074135416306,0.0,1.4400000000000002e-10,0.0,0.0,0.0,1.4400000000000002e-10,0.0,0.0,0.0,1.0,2
2025/04/05 15:58:47.399922547,1743861527,397397034,mA1/gps,0,1,63.436779988823325,10.393074125260444,0.0,1.4400000000000002e-10,0.0,0.0,0.0,1.4400000000000002e-10,0.0,0.0,0.0,1.0,2
2025/04/05 15:58:47.449001770,1743861527,448399700,mA1/gps,0,1,63.43678014560872,10.393074119208363,0.0,1.4400000000000002e-10,0.0,0.0,0.0,1.4400000000000002e-10,0.0,0.0,0.0,1.0,2
2025/04/05 15:58:47.502284811,1743861527,498589921,mA1/gps,0,1,63.43678030237296,10.39307411609979,0.0,1.4400000000000002e-10,0.0,0.0,0.0,1.4400000000000002e-10,0.0,0.0,0.0,1.0,2
2025/04/05 15:58:47.550467177,1743861527,549614627,mA1/gps,0,1,63.43678045983745,10.393074117570338,0.0,1.4400000000000002e-10,0.0,0.0,0.0,1.4400000000000002e-10,0.0,0.0,0.0,1.0,2
2025/04/05 15:58:47.600491060,1743861527,599634078,mA1/gps,0,1,63.43678061738364,10.393074123325617,0.0,1.4400000000000002e-10,0.0,0.0,0.0,1.4400000000000002e-10,0.0,0.0,0.0,1.0,2
2025/04/05 15:58:47.641619945,1743861527,640705762,mA1/gps,0,1,63.4367807765191,10.393074131889685,0.0,1.4400000000000002e-10,0.0,0.0,0.0,1.4400000000000002e-10,0.0,0.0,0.0,1.0,2
2025/04/05 15:58:47.691491723,1743861527,690459565,mA1/gps,0,1,63.43678093641539,10.39307414434458,0.0,1.4400000000000002e-10,0.0,0.0,0.0,1.4400000000000002e-10,0.0,0.0,0.0,1.0,2
2025/04/05 15:58:47.743799465,1743861527,741475814,mA1/gps,0,1,63.43678109704733,10.393074159746504,0.0,1.4400000000000002e-10,0.0,0.0,0.0,1.4400000000000002e-10,0.0,0.0,0.0,1.0,2
2025/04/05 15:58:47.793073581,1743861527,791287017,mA1/gps,0,1,63.436781258052875,10.393074175707156,0.0,1.4400000000000002e-10,0.0,0.0,0.0,1.4400000000000002e-10,0.0,0.0,0.0,1.0,2
2025/04/05 15:58:47.843538631,1743861527,842292258,mA1/gps,0,1,63.43678142034199,10.393074192917691,0.0,1.4400000000000002e-10,0.0,0.0,0.0,1.4400000000000002e-10,0.0,0.0,0.0,1.0,2
2025/04/05 15:58:47.896626203,1743861527,893051273,mA1/gps,0,1,63.436781581920556,10.393074209965654,0.0,1.4400000000000002e-10,0.0,0.0,0.0,1.4400000000000002e-10,0.0,0.0,0.0,1.0,2
2025/04/05 15:58:47.945084692,1743861527,944176380,mA1/gps,0,1,63.436781743977825,10.393074225584606,0.0,1.4400000000000002e-10,0.0,0.0,0.0,1.4400000000000002e-10,0.0,0.0,0.0,1.0,2
2025/04/05 15:58:47.995342458,1743861527,994107300,mA1/gps,0,1,63.43678190755005,10.393074239775398,0.0,1.4400000000000002e-10,0.0,0.0,0.0,1.4400000000000002e-10,0.0,0.0,0.0,1.0,2
2025/04/05 15:58:48.45967624,1743861528,45085854,mA1/gps,0,1,63.436782068980264,10.393074251411036,0.0,1.4400000000000002e-10,0.0,0.0,0.0,1.4400000000000002e-10,0.0,0.0,0.0,1.0,2
2025/04/05 15:58:48.96852785,1743861528,94889969,mA1/gps,0,1,63.43678223239545,10.393074258699787,0.0,1.4400000000000002e-10,0.0,0.0,0.0,1.4400000000000002e-10,0.0,0.0,0.0,1.0,2
2025/04/05 15:58:48.146853015,1743861528,145885614,mA1/gps,0,1,63.436782396094586,10.3930742635042,0.0,1.4400000000000002e-10,0.0,0.0,0.0,1.4400000000000002e-10,0.0,0.0,0.0,1.0,2
2025/04/05 15:58:48.197096005,1743861528,196497582,mA1/gps,0,1,63.43678255881478,10.393074264984735,0.0,1.4400000000000002e-10,0.0,0.0,0.0,1.4400000000000002e-10,0.0,0.0,0.0,1.0,2
2025/04/05 15:58:48.252116547,1743861528,248300275,mA1/gps,0,1,63.43678272174971,10.393074263558002,0.0,1.4400000000000002e-10,0.0,0.0,0.0,1.4400000000000002e-10,0.0,0.0,0.0,1.0,2
2025/04/05 15:58:48.298590646,1743861528,298013567,mA1/gps,0,1,63.436782885346304,10.393074259056183,0.0,1.4400000000000002e-10,0.0,0.0,0.0,1.4400000000000002e-10,0.0,0.0,0.0,1.0,2
2025/04/05 15:58:48.350354117,1743861528,349587607,mA1/gps,0,1,63.43678304920376,10.393074253171127,0.0,1.4400000000000002e-10,0.0,0.0,0.0,1.4400000000000002e-10,0.0,0.0,0.0,1.0,2
2025/04/05 15:58:48.401487938,1743861528,399457481,mA1/gps,0,1,63.43678321228785,10.393074244090046,0.0,1.4400000000000002e-10,0.0,0.0,0.0,1.4400000000000002e-10,0.0,0.0,0.0,1.0,2
2025/04/05 15:58:48.452118099,1743861528,450495722,mA1/gps,0,1,63.43678337651102,10.393074235721185,0.0,1.4400000000000002e-10,0.0,0.0,0.0,1.4400000000000002e-10,0.0,0.0,0.0,1.0,2
2025/04/05 15:58:48.494930591,1743861528,490216229,mA1/gps,0,1,63.43678354085336,10.393074225658701,0.0,1.4400000000000002e-10,0.0,0.0,0.0,1.4400000000000002e-10,0.0,0.0,0.0,1.0,2
2025/04/05 15:58:48.543400740,1743861528,542176009,mA1/gps,0,1,63.43678370489012,10.393074215743063,0.0,1.4400000000000002e-10,0.0,0.0,0.0,1.4400000000000002e-10,0.0,0.0,0.0,1.0,2
2025/04/05 15:58:48.592694560,1743861528,592063578,mA1/gps,0,1,63.436783869891464,10.393074207162268,0.0,1.4400000000000002e-10,0.0,0.0,0.0,1.4400000000000002e-10,0.0,0.0,0.0,1.0,2
2025/04/05 15:58:48.644180446,1743861528,643536853,mA1/gps,0,1,63.43678403615341,10.393074199478242,0.0,1.4400000000000002e-10,0.0,0.0,0.0,1.4400000000000002e-10,0.0,0.0,0.0,1.0,2
2025/04/05 15:58:48.696987505,1743861528,695990765,mA1/gps,0,1,63.43678420174919,10.393074194595732,0.0,1.4400000000000002e-10,0.0,0.0,0.0,1.4400000000000002e-10,0.0,0.0,0.0,1.0,2
2025/04/05 15:58:48.747309707,1743861528,745954140,mA1/gps,0,1,63.436784367698614,10.393074190854723,0.0,1.4400000000000002e-10,0.0,0.0,0.0,1.4400000000000002e-10,0.0,0.0,0.0,1.0,2
2025/04/05 15:58:48.797204535,1743861528,796470520,mA1/gps,0,1,63.436784535195734,10.393074189649173,0.0,1.4400000000000002e-10,0.0,0.0,0.0,1.4400000000000002e-10,0.0,0.0,0.0,1.0,2
2025/04/05 15:58:48.850220664,1743861528,847567868,mA1/gps,0,1,63.43678470324479,10.393074190693612,0.0,1.4400000000000002e-10,0.0,0.0,0.0,1.4400000000000002e-10,0.0,0.0,0.0,1.0,2
2025/04/05 15:58:48.899926871,1743861528,897469922,mA1/gps,0,1,63.436784872291696,10.393074193132774,0.0,1.4400000000000002e-10,0.0,0.0,0.0,1.4400000000000002e-10,0.0,0.0,0.0,1.0,2
2025/04/05 15:58:48.949268446,1743861528,948432878,mA1/gps,0,1,63.436785042372634,10.393074198491297,0.0,1.4400000000000002e-10,0.0,0.0,0.0,1.4400000000000002e-10,0.0,0.0,0.0,1.0,2
2025/04/05 15:58:48.999185647,1743861528,998325530,mA1/gps,0,1,63.43678521160429,10.393074205374448,0.0,1.4400000000000002e-10,0.0,0.0,0.0,1.4400000000000002e-10,0.0,0.0,0.0,1.0,2
2025/04/05 15:58:49.50391468,1743861529,49317110,mA1/gps,0,1,63.436785383420414,10.393074213319442,0.0,1.4400000000000002e-10,0.0,0.0,0.0,1.4400000000000002e-10,0.0,0.0,0.0,1.0,2
2025/04/05 15:58:49.103456698,1743861529,99569098,mA1/gps,0,1,63.43678555386927,10.393074222370027,0.0,1.4400000000000002e-10,0.0,0.0,0.0,1.4400000000000002e-10,0.0,0.0,0.0,1.0,2
2025/04/05 15:58:49.151215565,1743861529,150327290,mA1/gps,0,1,63.43678572494907,10.393074231306773,0.0,1.4400000000000002e-10,0.0,0.0,0.0,1.4400000000000002e-10,0.0,0.0,0.0,1.0,2
2025/04/05 15:58:49.192904580,1743861529,190829081,mA1/gps,0,1,63.43678589990207,10.39307424139949,0.0,1.4400000000000002e-10,0.0,0.0,0.0,1.4400000000000002e-10,0.0,0.0,0.0,1.0,2
2025/04/05 15:58:49.242258248,1743861529,241128843,mA1/gps,0,1,63.436786072594124,10.39307424974816,0.0,1.4400000000000002e-10,0.0,0.0,0.0,1.4400000000000002e-10,0.0,0.0,0.0,1.0,2
2025/04/05 15:58:49.292154528,1743861529,290937894,mA1/gps,0,1,63.43678624602352,10.393074256646273,0.0,1.4400000000000002e-10,0.0,0.0,0.0,1.4400000000000002e-10,0.0,0.0,0.0,1.0,2
2025/04/05 15:58:49.342765859,1743861529,341966960,mA1/gps,0,1,63.43678642095802,10.393074261683198,0.0,1.4400000000000002e-10,0.0,0.0,0.0,1.4400000000000002e-10,0.0,0.0,0.0,1.0,2
2025/04/05 15:58:49.393760865,1743861529,391777101,mA1/gps,0,1,63.43678659622283,10.393074265084534,0.0,1.4400000000000002e-10,0.0,0.0,0.0,1.4400000000000002e-10,0.0,0.0,0.0,1.0,2
2025/04/05 15:58:49.445678352,1743861529,443439205,mA1/gps,0,1,63.43678677029055,10.393074266652444,0.0,1.4400000000000002e-10,0.0,0.0,0.0,1.4400000000000002e-10,0.0,0.0,0.0,1.0,2
2025/04/05 15:58:49.494926467,1743861529,493860635,mA1/gps,0,1,63.436786945407015,10.393074265776868,0.0,1.4400000000000002e-10,0.0,0.0,0.0,1.4400000000000002e-10,0.0,0.0,0.0,1.0,2
2025/04/05 15:58:49.546942989,1743861529,544888353,mA1/gps,0,1,63.436787121013666,10.39307426279816,0.0,1.4400000000000002e-10,0.0,0.0,0.0,1.4400000000000002e-10,0.0,0.0,0.0,1.0,2
2025/04/05 15:58:49.597535967,1743861529,596548620,mA1/gps,0,1,63.4367872966677,10.393074258980008,0.0,1.4400000000000002e-10,0.0,0.0,0.0,1.4400000000000002e-10,0.0,0.0,0.0,1.0,2
2025/04/05 15:58:49.648465922,1743861529,647481142,mA1/gps,0,1,63.436787472934604,10.393074253761412,0.0,1.4400000000000002e-10,0.0,0.0,0.0,1.4400000000000002e-10,0.0,0.0,0.0,1.0,2
2025/04/05 15:58:49.699309099,1743861529,697384848,mA1/gps,0,1,63.43678764926622,10.393074247725181,0.0,1.4400000000000002e-10,0.0,0.0,0.0,1.4400000000000002e-10,0.0,0.0,0.0,1.0,2
2025/04/05 15:58:49.742997763,1743861529,741421060,mA1/gps,0,1,63.43678782342688,10.393074241366474,0.0,1.4400000000000002e-10,0.0,0.0,0.0,1.4400000000000002e-10,0.0,0.0,0.0,1.0,2
2025/04/05 15:58:49.791883760,1743861529,791006417,mA1/gps,0,1,63.43678799962467,10.393074235662446,0.0,1.4400000000000002e-10,0.0,0.0,0.0,1.4400000000000002e-10,0.0,0.0,0.0,1.0,2
2025/04/05 15:58:49.845353891,1743861529,843455980,mA1/gps,0,1,63.43678817666113,10.393074230275232,0.0,1.4400000000000002e-10,0.0,0.0,0.0,1.4400000000000002e-10,0.0,0.0,0.0,1.0,2
2025/04/05 15:58:49.895938956,1743861529,893301067,mA1/gps,0,1,63.43678835195329,10.393074225808173,0.0,1.4400000000000002e-10,0.0,0.0,0.0,1.4400000000000002e-10,0.0,0.0,0.0,1.0,2
2025/04/05 15:58:49.944813436,1743861529,944224788,mA1/gps,0,1,63.4367885281963,10.393074223102861,0.0,1.4400000000000002e-10,0.0,0.0,0.0,1.4400000000000002e-10,0.0,0.0,0.0,1.0,2
2025/04/05 15:58:49.995509979,1743861529,994603400,mA1/gps,0,1,63.436788704187286,10.393074221606978,0.0,1.4400000000000002e-10,0.0,0.0,0.0,1.4400000000000002e-10,0.0,0.0,0.0,1.0,2
2025/04/05 15:58:50.46442722,1743861530,45562458,mA1/gps,0,1,63.436788881388765,10.393074222168146,0.0,1.4400000000000002e-10,0.0,0.0,0.0,1.4400000000000002e-10,0.0,0.0,0.0,1.0,2
2025/04/05 15:58:50.98338515,1743861530,96067274,mA1/gps,0,1,63.436789058738846,10.39307422461084,0.0,1.4400000000000002e-10,0.0,0.0,0.0,1.4400000000000002e-10,0.0,0.0,0.0,1.0,2
2025/04/05 15:58:50.148636224,1743861530,147313264,mA1/gps,0,1,63.43678923622199,10.393074228044325,0.0,1.4400000000000002e-10,0.0,0.0,0.0,1.4400000000000002e-10,0.0,0.0,0.0,1.0,2
2025/04/05 15:58:50.200438579,1743861530,197068785,mA1/gps,0,1,63.43678941275451,10.39307423282972,0.0,1.4400000000000002e-10,0.0,0.0,0.0,1.4400000000000002e-10,0.0,0.0,0.0,1.0,2
2025/04/05 15:58:50.250354458,1743861530,248216624,mA1/gps,0,1,63.436789590041215,10.393074238980008,0.0,1.4400000000000002e-10,0.0,0.0,0.0,1.4400000000000002e-10,0.0,0.0,0.0,1.0,2
2025/04/05 15:58:50.301467808,1743861530,298127103,mA1/gps,0,1,63.43678976881943,10.39307424606007,0.0,1.4400000000000002e-10,0.0,0.0,0.0,1.4400000000000002e-10,0.0,0.0,0.0,1.0,2
2025/04/05 15:58:50.350104311,1743861530,349100550,mA1/gps,0,1,63.43678994916109,10.393074253347363,0.0,1.4400000000000002e-10,0.0,0.0,0.0,1.4400000000000002e-10,0.0,0.0,0.0,1.0,2
2025/04/05 15:58:50.400861459,1743861530,398844212,mA1/gps,0,1,63.43679012763019,10.393074260995188,0.0,1.4400000000000002e-10,0.0,0.0,0.0,1.4400000000000002e-10,0.0,0.0,0.0,1.0,2
2025/04/05 15:58:50.453520912,1743861530,450232024,mA1/gps,0,1,63.436790309038415,10.39307426868419,0.0,1.4400000000000002e-10,0.0,0.0,0.0,1.4400000000000002e-10,0.0,0.0,0.0,1.0,2
2025/04/05 15:58:50.503577867,1743861530,500028970,mA1/gps,0,1,63.43679048857732,10.393074275382611,0.0,1.4400000000000002e-10,0.0,0.0,0.0,1.4400000000000002e-10,0.0,0.0,0.0,1.0,2
2025/04/05 15:58:50.542509220,1743861530,540984799,mA1/gps,0,1,63.4367906708085,10.393074281367541,0.0,1.4400000000000002e-10,0.0,0.0,0.0,1.4400000000000002e-10,0.0,0.0,0.0,1.0,2
2025/04/05 15:58:50.592664857,1743861530,590790534,mA1/gps,0,1,63.43679085190614,10.393074285351963,0.0,1.4400000000000002e-10,0.0,0.0,0.0,1.4400000000000002e-10,0.0,0.0,0.0,1.0,2
2025/04/05 15:58:50.642696761,1743861530,641862192,mA1/gps,0,1,63.436791034817276,10.39307428931059,0.0,1.4400000000000002e-10,0.0,0.0,0.0,1.4400000000000002e-10,0.0,0.0,0.0,1.0,2
2025/04/05 15:58:50.692503718,1743861530,691710027,mA1/gps,0,1,63.436791217568455,10.393074291084439,0.0,1.4400000000000002e-10,0.0,0.0,0.0,1.4400000000000002e-10,0.0,0.0,0.0,1.0,2
2025/04/05 15:58:50.745092928,1743861530,743920838,mA1/gps,0,1,63.43679140196071,10.39307429133872,0.0,1.4400000000000002e-10,0.0,0.0,0.0,1.4400000000000002e-10,0.0,0.0,0.0,1.0,2
2025/04/05 15:58:50.796107429,1743861530,793723657,mA1/gps,0,1,63.43679158488807,10.393074289864916,0.0,1.4400000000000002e-10,0.0,0.0,0.0,1.4400000000000002e-10,0.0,0.0,0.0,1.0,2
2025/04/05 15:58:50.846108418,1743861530,844799685,mA1/gps,0,1,63.43679176868302,10.393074288470652,0.0,1.4400000000000002e-10,0.0,0.0,0.0,1.4400000000000002e-10,0.0,0.0,0.0,1.0,2
2025/04/05 15:58:50.900156337,1743861530,895798654,mA1/gps,0,1,63.436791953142176,10.39307428546555,0.0,1.4400000000000002e-10,0.0,0.0,0.0,1.4400000000000002e-10,0.0,0.0,0.0,1.0,2
2025/04/05 15:58:50.949678647,1743861530,948772261,mA1/gps,0,1,63.43679213827199,10.39307428143579,0.0,1.4400000000000002e-10,0.0,0.0,0.0,1.4400000000000002e-10,0.0,0.0,0.0,1.0,2
2025/04/05 15:58:50.999439672,1743861530,998598039,mA1/gps,0,1,63.436792323914815,10.393074276966594,0.0,1.4400000000000002e-10,0.0,0.0,0.0,1.4400000000000002e-10,0.0,0.0,0.0,1.0,2
2025/04/05 15:58:51.50355346,1743861531,49501667,mA1/gps,0,1,63.436792508759915,10.393074272626183,0.0,1.4400000000000002e-10,0.0,0.0,0.0,1.4400000000000002e-10,0.0,0.0,0.0,1.0,2
2025/04/05 15:58:51.99920529,1743861531,99414776,mA1/gps,0,1,63.43679269312997,10.393074267892626,0.0,1.4400000000000002e-10,0.0,0.0,0.0,1.4400000000000002e-10,0.0,0.0,0.0,1.0,2
2025/04/05 15:58:51.151441974,1743861531,150450940,mA1/gps,0,1,63.43679287811355,10.393074263810028,0.0,1.4400000000000002e-10,0.0,0.0,0.0,1.4400000000000002e-10,0.0,0.0,0.0,1.0,2
2025/04/05 15:58:51.191054377,1743861531,190295767,mA1/gps,0,1,63.43679306296343,10.393074259239391,0.0,1.4400000000000002e-10,0.0,0.0,0.0,1.4400000000000002e-10,0.0,0.0,0.0,1.0,2
2025/04/05 15:58:51.245044297,1743861531,243194001,mA1/gps,0,1,63.43679324832569,10.393074255847143,0.0,1.4400000000000002e-10,0.0,0.0,0.0,1.4400000000000002e-10,0.0,0.0,0.0,1.0,2
2025/04/05 15:58:51.296526850,1743861531,293019156,mA1/gps,0,1,63.436793433700224,10.393074253798108,0.0,1.4400000000000002e-10,0.0,0.0,0.0,1.4400000000000002e-10,0.0,0.0,0.0,1.0,2
2025/04/05 15:58:51.345430777,1743861531,344692723,mA1/gps,0,1,63.43679361925163,10.393074252509752,0.0,1.4400000000000002e-10,0.0,0.0,0.0,1.4400000000000002e-10,0.0,0.0,0.0,1.0,2
2025/04/05 15:58:51.395081658,1743861531,394503294,mA1/gps,0,1,63.43679380409455,10.393074252673985,0.0,1.4400000000000002e-10,0.0,0.0,0.0,1.4400000000000002e-10,0.0,0.0,0.0,1.0,2
2025/04/05 15:58:51.449131825,1743861531,447802982,mA1/gps,0,1,63.436793988420824,10.393074253961627,0.0,1.4400000000000002e-10,0.0,0.0,0.0,1.4400000000000002e-10,0.0,0.0,0.0,1.0,2
2025/04/05 15:58:51.496521149,1743861531,495490094,mA1/gps,0,1,63.43679417297036,10.393074255552714,0.0,1.4400000000000002e-10,0.0,0.0,0.0,1.4400000000000002e-10,0.0,0.0,0.0,1.0,2
2025/04/05 15:58:51.551318817,1743861531,549347992,mA1/gps,0,1,63.43679435873134,10.393074258809959,0.0,1.4400000000000002e-10,0.0,0.0,0.0,1.4400000000000002e-10,0.0,0.0,0.0,1.0,2
2025/04/05 15:58:51.600394043,1743861531,599130048,mA1/gps,0,1,63.43679454492638,10.393074263211439,0.0,1.4400000000000002e-10,0.0,0.0,0.0,1.4400000000000002e-10,0.0,0.0,0.0,1.0,2
2025/04/05 15:58:51.652402256,1743861531,650436699,mA1/gps,0,1,63.43679473098691,10.393074267258964,0.0,1.4400000000000002e-10,0.0,0.0,0.0,1.4400000000000002e-10,0.0,0.0,0.0,1.0,2
2025/04/05 15:58:51.692918027,1743861531,690124308,mA1/gps,0,1,63.43679491647474,10.393074272410322,0.0,1.4400000000000002e-10,0.0,0.0,0.0,1.4400000000000002e-10,0.0,0.0,0.0,1.0,2
2025/04/05 15:58:51.742408615,1743861531,741132975,mA1/gps,0,1,63.43679510333676,10.393074277760107,0.0,1.4400000000000002e-10,0.0,0.0,0.0,1.4400000000000002e-10,0.0,0.0,0.0,1.0,2
2025/04/05 15:58:51.791658873,1743861531,791040456,mA1/gps,0,1,63.43679528982717,10.393074282679926,0.0,1.4400000000000002e-10,0.0,0.0,0.0,1.4400000000000002e-10,0.0,0.0,0.0,1.0,2
2025/04/05 15:58:51.843828790,1743861531,842802210,mA1/gps,0,1,63.43679547655706,10.39307428711324,0.0,1.4400000000000002e-10,0.0,0.0,0.0,1.4400000000000002e-10,0.0,0.0,0.0,1.0,2
2025/04/05 15:58:51.896041310,1743861531,892922821,mA1/gps,0,1,63.43679566481349,10.393074291425416,0.0,1.4400000000000002e-10,0.0,0.0,0.0,1.4400000000000002e-10,0.0,0.0,0.0,1.0,2
2025/04/05 15:58:51.948828714,1743861531,946679948,mA1/gps,0,1,63.436795853426084,10.393074293834966,0.0,1.4400000000000002e-10,0.0,0.0,0.0,1.4400000000000002e-10,0.0,0.0,0.0,1.0,2
2025/04/05 15:58:51.997031148,1743861531,995456053,mA1/gps,0,1,63.43679604203007,10.393074297328507,0.0,1.4400000000000002e-10,0.0,0.0,0.0,1.4400000000000002e-10,0.0,0.0,0.0,1.0,2
2025/04/05 15:58:52.47792122,1743861532,46458036,mA1/gps,0,1,63.43679623077873,10.393074298347056,0.0,1.4400000000000002e-10,0.0,0.0,0.0,1.4400000000000002e-10,0.0,0.0,0.0,1.0,2
2025/04/05 15:58:52.97916586,1743861532,96452892,mA1/gps,0,1,63.43679642142013,10.393074298533252,0.0,1.4400000000000002e-10,0.0,0.0,0.0,1.4400000000000002e-10,0.0,0.0,0.0,1.0,2
2025/04/05 15:58:52.148781153,1743861532,147909512,mA1/gps,0,1,63.43679661210026,10.393074298105898,0.0,1.4400000000000002e-10,0.0,0.0,0.0,1.4400000000000002e-10,0.0,0.0,0.0,1.0,2
2025/04/05 15:58:52.199450638,1743861532,198476697,mA1/gps,0,1,63.43679680241313,10.39307429649521,0.0,1.4400000000000002e-10,0.0,0.0,0.0,1.4400000000000002e-10,0.0,0.0,0.0,1.0,2
2025/04/05 15:58:52.249775609,1743861532,248761666,mA1/gps,0,1,63.43679699344545,10.393074293746135,0.0,1.4400000000000002e-10,0.0,0.0,0.0,1.4400000000000002e-10,0.0,0.0,0.0,1.0,2
2025/04/05 15:58:52.302336317,1743861532,298579775,mA1/gps,0,1,63.436797186002835,10.393074290369595,0.0,1.4400000000000002e-10,0.0,0.0,0.0,1.4400000000000002e-10,0.0,0.0,0.0,1.0,2
2025/04/05 15:58:52.351253656,1743861532,349855673,mA1/gps,0,1,63.43679737772521,10.393074286774155,0.0,1.4400000000000002e-10,0.0,0.0,0.0,1.4400000000000002e-10,0.0,0.0,0.0,1.0,2
2025/04/05 15:58:52.403030737,1743861532,399745603,mA1/gps,0,1,63.43679756853411,10.39307428322703,0.0,1.4400000000000002e-10,0.0,0.0,0.0,1.4400000000000002e-10,0.0,0.0,0.0,1.0,2
2025/04/05 15:58:52.451829927,1743861532,450821869,mA1/gps,0,1,63.43679776087605,10.39307427960259,0.0,1.4400000000000002e-10,0.0,0.0,0.0,1.4400000000000002e-10,0.0,0.0,0.0,1.0,2
2025/04/05 15:58:52.491155857,1743861532,490466445,mA1/gps,0,1,63.43679795319933,10.393074276236714,0.0,1.4400000000000002e-10,0.0,0.0,0.0,1.4400000000000002e-10,0.0,0.0,0.0,1.0,2
2025/04/05 15:58:52.544112128,1743861532,541564279,mA1/gps,0,1,63.43679814575541,10.393074273773978,0.0,1.4400000000000002e-10,0.0,0.0,0.0,1.4400000000000002e-10,0.0,0.0,0.0,1.0,2
2025/04/05 15:58:52.592350953,1743861532,591290317,mA1/gps,0,1,63.43679833728547,10.393074271516985,0.0,1.4400000000000002e-10,0.0,0.0,0.0,1.4400000000000002e-10,0.0,0.0,0.0,1.0,2
2025/04/05 15:58:52.646217045,1743861532,642686405,mA1/gps,0,1,63.43679852901693,10.393074270618026,0.0,1.4400000000000002e-10,0.0,0.0,0.0,1.4400000000000002e-10,0.0,0.0,0.0,1.0,2
2025/04/05 15:58:52.694223413,1743861532,692456840,mA1/gps,0,1,63.43679872227128,10.393074270693209,0.0,1.4400000000000002e-10,0.0,0.0,0.0,1.4400000000000002e-10,0.0,0.0,0.0,1.0,2
2025/04/05 15:58:52.744478650,1743861532,743703273,mA1/gps,0,1,63.43679891240158,10.393074271868587,0.0,1.4400000000000002e-10,0.0,0.0,0.0,1.4400000000000002e-10,0.0,0.0,0.0,1.0,2
2025/04/05 15:58:52.794776294,1743861532,793586569,mA1/gps,0,1,63.43679910327375,10.393074273473262,0.0,1.4400000000000002e-10,0.0,0.0,0.0,1.4400000000000002e-10,0.0,0.0,0.0,1.0,2
2025/04/05 15:58:52.845912395,1743861532,844513245,mA1/gps,0,1,63.436799295499235,10.393074275896545,0.0,1.4400000000000002e-10,0.0,0.0,0.0,1.4400000000000002e-10,0.0,0.0,0.0,1.0,2
2025/04/05 15:58:52.895800122,1743861532,894376097,mA1/gps,0,1,63.43679948764526,10.393074278796494,0.0,1.4400000000000002e-10,0.0,0.0,0.0,1.4400000000000002e-10,0.0,0.0,0.0,1.0,2
2025/04/05 15:58:52.948707477,1743861532,946889985,mA1/gps,0,1,63.43679967870714,10.393074282452126,0.0,1.4400000000000002e-10,0.0,0.0,0.0,1.4400000000000002e-10,0.0,0.0,0.0,1.0,2
2025/04/05 15:58:52.998209749,1743861532,996772488,mA1/gps,0,1,63.43679987013595,10.39307428667838,0.0,1.4400000000000002e-10,0.0,0.0,0.0,1.4400000000000002e-10,0.0,0.0,0.0,1.0,2
2025/04/05 15:58:53.51185901,1743861533,48816836,mA1/gps,0,1,63.436800060649674,10.393074290822353,0.0,1.4400000000000002e-10,0.0,0.0,0.0,1.4400000000000002e-10,0.0,0.0,0.0,1.0,2
2025/04/05 15:58:53.98663299,1743861533,97468895,mA1/gps,0,1,63.43680025262039,10.393074295488285,0.0,1.4400000000000002e-10,0.0,0.0,0.0,1.4400000000000002e-10,0.0,0.0,0.0,1.0,2
2025/04/05 15:58:53.150108702,1743861533,149097429,mA1/gps,0,1,63.43680044417941,10.393074300170355,0.0,1.4400000000000002e-10,0.0,0.0,0.0,1.4400000000000002e-10,0.0,0.0,0.0,1.0,2
2025/04/05 15:58:53.200825502,1743861533,199023870,mA1/gps,0,1,63.43680063577957,10.393074304117377,0.0,1.4400000000000002e-10,0.0,0.0,0.0,1.4400000000000002e-10,0.0,0.0,0.0,1.0,2
2025/04/05 15:58:53.242923636,1743861533,241467429,mA1/gps,0,1,63.43680082808994,10.393074307112572,0.0,1.4400000000000002e-10,0.0,0.0,0.0,1.4400000000000002e-10,0.0,0.0,0.0,1.0,2
2025/04/05 15:58:53.292772926,1743861533,290999425,mA1/gps,0,1,63.43680102062847,10.393074309706767,0.0,1.4400000000000002e-10,0.0,0.0,0.0,1.4400000000000002e-10,0.0,0.0,0.0,1.0,2
2025/04/05 15:58:53.344685038,1743861533,342845656,mA1/gps,0,1,63.436801213059404,10.393074311092803,0.0,1.4400000000000002e-10,0.0,0.0,0.0,1.4400000000000002e-10,0.0,0.0,0.0,1.0,2
2025/04/05 15:58:53.393913747,1743861533,392605022,mA1/gps,0,1,63.436801407692165,10.393074310887979,0.0,1.4400000000000002e-10,0.0,0.0,0.0,1.4400000000000002e-10,0.0,0.0,0.0,1.0,2
2025/04/05 15:58:53.445213249,1743861533,444474302,mA1/gps,0,1,63.43680160120287,10.39307430962229,0.0,1.4400000000000002e-10,0.0,0.0,0.0,1.4400000000000002e-10,0.0,0.0,0.0,1.0,2
2025/04/05 15:58:53.496260092,1743861533,494274711,mA1/gps,0,1,63.43680179451397,10.39307430680115,0.0,1.4400000000000002e-10,0.0,0.0,0.0,1.4400000000000002e-10,0.0,0.0,0.0,1.0,2
2025/04/05 15:58:53.546807858,1743861533,545474076,mA1/gps,0,1,63.43680198915114,10.393074303224273,0.0,1.4400000000000002e-10,0.0,0.0,0.0,1.4400000000000002e-10,0.0,0.0,0.0,1.0,2
2025/04/05 15:58:53.596813415,1743861533,595279851,mA1/gps,0,1,63.43680218424512,10.39307429833118,0.0,1.4400000000000002e-10,0.0,0.0,0.0,1.4400000000000002e-10,0.0,0.0,0.0,1.0,2
2025/04/05 15:58:53.647181205,1743861533,646241919,mA1/gps,0,1,63.43680238052289,10.39307429375782,0.0,1.4400000000000002e-10,0.0,0.0,0.0,1.4400000000000002e-10,0.0,0.0,0.0,1.0,2
2025/04/05 15:58:53.697553334,1743861533,696359403,mA1/gps,0,1,63.43680257654108,10.393074288127897,0.0,1.4400000000000002e-10,0.0,0.0,0.0,1.4400000000000002e-10,0.0,0.0,0.0,1.0,2
2025/04/05 15:58:53.749824408,1743861533,747459226,mA1/gps,0,1,63.43680277236633,10.393074282016235,0.0,1.4400000000000002e-10,0.0,0.0,0.0,1.4400000000000002e-10,0.0,0.0,0.0,1.0,2
2025/04/05 15:58:53.798462753,1743861533,797209587,mA1/gps,0,1,63.43680296803496,10.393074276574987,0.0,1.4400000000000002e-10,0.0,0.0,0.0,1.4400000000000002e-10,0.0,0.0,0.0,1.0,2
2025/04/05 15:58:53.850342105,1743861533,848352140,mA1/gps,0,1,63.436803163813444,10.393074270933791,0.0,1.4400000000000002e-10,0.0,0.0,0.0,1.4400000000000002e-10,0.0,0.0,0.0,1.0,2
2025/04/05 15:58:53.899599620,1743861533,898213954,mA1/gps,0,1,63.43680336012805,10.393074265490386,0.0,1.4400000000000002e-10,0.0,0.0,0.0,1.4400000000000002e-10,0.0,0.0,0.0,1.0,2
2025/04/05 15:58:53.943629947,1743861533,942471839,mA1/gps,0,1,63.4368035572622,10.393074259917142,0.0,1.4400000000000002e-10,0.0,0.0,0.0,1.4400000000000002e-10,0.0,0.0,0.0,1.0,2
2025/04/05 15:58:53.992636493,1743861533,991656899,mA1/gps,0,1,63.436803753718806,10.393074255287994,0.0,1.4400000000000002e-10,0.0,0.0,0.0,1.4400000000000002e-10,0.0,0.0,0.0,1.0,2
2025/04/05 15:58:54.42536939,1743861534,41834757,mA1/gps,0,1,63.436803950154165,10.393074250710304,0.0,1.4400000000000002e-10,0.0,0.0,0.0,1.4400000000000002e-10,0.0,0.0,0.0,1.0,2
2025/04/05 15:58:54.93511799,1743861534,91705632,mA1/gps,0,1,63.43680414547876,10.393074248102979,0.0,1.4400000000000002e-10,0.0,0.0,0.0,1.4400000000000002e-10,0.0,0.0,0.0,1.0,2
2025/04/05 15:58:54.143322837,1743861534,142675418,mA1/gps,0,1,63.43680434219392,10.393074246477058,0.0,1.4400000000000002e-10,0.0,0.0,0.0,1.4400000000000002e-10,0.0,0.0,0.0,1.0,2
2025/04/05 15:58:54.194048640,1743861534,192653505,mA1/gps,0,1,63.4368045372306,10.393074245138148,0.0,1.4400000000000002e-10,0.0,0.0,0.0,1.4400000000000002e-10,0.0,0.0,0.0,1.0,2
2025/04/05 15:58:54.244662008,1743861534,243626140,mA1/gps,0,1,63.43680473385557,10.393074247414267,0.0,1.4400000000000002e-10,0.0,0.0,0.0,1.4400000000000002e-10,0.0,0.0,0.0,1.0,2
2025/04/05 15:58:54.297303118,1743861534,293430179,mA1/gps,0,1,63.436804929563614,10.393074249489114,0.0,1.4400000000000002e-10,0.0,0.0,0.0,1.4400000000000002e-10,0.0,0.0,0.0,1.0,2
2025/04/05 15:58:54.348134074,1743861534,346164657,mA1/gps,0,1,63.43680512560234,10.393074252272285,0.0,1.4400000000000002e-10,0.0,0.0,0.0,1.4400000000000002e-10,0.0,0.0,0.0,1.0,2
2025/04/05 15:58:54.395642613,1743861534,394340753,mA1/gps,0,1,63.436805321070466,10.393074255776723,0.0,1.4400000000000002e-10,0.0,0.0,0.0,1.4400000000000002e-10,0.0,0.0,0.0,1.0,2
2025/04/05 15:58:54.446909823,1743861534,446213316,mA1/gps,0,1,63.436805516852715,10.393074258933423,0.0,1.4400000000000002e-10,0.0,0.0,0.0,1.4400000000000002e-10,0.0,0.0,0.0,1.0,2
2025/04/05 15:58:54.497530711,1743861534,496032894,mA1/gps,0,1,63.43680571270486,10.393074262169158,0.0,1.4400000000000002e-10,0.0,0.0,0.0,1.4400000000000002e-10,0.0,0.0,0.0,1.0,2
2025/04/05 15:58:54.551363450,1743861534,549592364,mA1/gps,0,1,63.43680590865872,10.393074263319196,0.0,1.4400000000000002e-10,0.0,0.0,0.0,1.4400000000000002e-10,0.0,0.0,0.0,1.0,2
2025/04/05 15:58:54.602136598,1743861534,599131071,mA1/gps,0,1,63.43680610467198,10.393074264100456,0.0,1.4400000000000002e-10,0.0,0.0,0.0,1.4400000000000002e-10,0.0,0.0,0.0,1.0,2
2025/04/05 15:58:54.652279721,1743861534,650379966,mA1/gps,0,1,63.436806300545435,10.393074264070577,0.0,1.4400000000000002e-10,0.0,0.0,0.0,1.4400000000000002e-10,0.0,0.0,0.0,1.0,2
2025/04/05 15:58:54.701243938,1743861534,700140943,mA1/gps,0,1,63.436806497231515,10.393074261576476,0.0,1.4400000000000002e-10,0.0,0.0,0.0,1.4400000000000002e-10,0.0,0.0,0.0,1.0,2
2025/04/05 15:58:54.741630032,1743861534,740943673,mA1/gps,0,1,63.43680669495577,10.39307425882467,0.0,1.4400000000000002e-10,0.0,0.0,0.0,1.4400000000000002e-10,0.0,0.0,0.0,1.0,2
2025/04/05 15:58:54.791457160,1743861534,790792578,mA1/gps,0,1,63.436806890343725,10.393074253919961,0.0,1.4400000000000002e-10,0.0,0.0,0.0,1.4400000000000002e-10,0.0,0.0,0.0,1.0,2
2025/04/05 15:58:54.844064207,1743861534,842536107,mA1/gps,0,1,63.436807087586864,10.393074248500447,0.0,1.4400000000000002e-10,0.0,0.0,0.0,1.4400000000000002e-10,0.0,0.0,0.0,1.0,2
2025/04/05 15:58:54.893227978,1743861534,891978536,mA1/gps,0,1,63.43680728525724,10.393074242766914,0.0,1.4400000000000002e-10,0.0,0.0,0.0,1.4400000000000002e-10,0.0,0.0,0.0,1.0,2
2025/04/05 15:58:54.947603390,1743861534,945093880,mA1/gps,0,1,63.436807482990325,10.393074236778878,0.0,1.4400000000000002e-10,0.0,0.0,0.0,1.4400000000000002e-10,0.0,0.0,0.0,1.0,2
2025/04/05 15:58:54.996439765,1743861534,993724095,mA1/gps,0,1,63.43680768123487,10.393074230568656,0.0,1.4400000000000002e-10,0.0,0.0,0.0,1.4400000000000002e-10,0.0,0.0,0.0,1.0,2
2025/04/05 15:58:55.48442392,1743861535,45268413,mA1/gps,0,1,63.43680787979144,10.393074225031324,0.0,1.4400000000000002e-10,0.0,0.0,0.0,1.4400000000000002e-10,0.0,0.0,0.0,1.0,2
2025/04/05 15:58:55.96880460,1743861535,95054486,mA1/gps,0,1,63.43680807855436,10.393074219699878,0.0,1.4400000000000002e-10,0.0,0.0,0.0,1.4400000000000002e-10,0.0,0.0,0.0,1.0,2
2025/04/05 15:58:55.150584230,1743861535,148349209,mA1/gps,0,1,63.43680827853235,10.393074217059548,0.0,1.4400000000000002e-10,0.0,0.0,0.0,1.4400000000000002e-10,0.0,0.0,0.0,1.0,2
2025/04/05 15:58:55.199023648,1743861535,198196334,mA1/gps,0,1,63.436808476759595,10.393074215613048,0.0,1.4400000000000002e-10,0.0,0.0,0.0,1.4400000000000002e-10,0.0,0.0,0.0,1.0,2
2025/04/05 15:58:55.250048585,1743861535,249259783,mA1/gps,0,1,63.43680867733447,10.393074215362867,0.0,1.4400000000000002e-10,0.0,0.0,0.0,1.4400000000000002e-10,0.0,0.0,0.0,1.0,2
2025/04/05 15:58:55.302509927,1743861535,299088125,mA1/gps,0,1,63.436808876914114,10.393074217629882,0.0,1.4400000000000002e-10,0.0,0.0,0.0,1.4400000000000002e-10,0.0,0.0,0.0,1.0,2
2025/04/05 15:58:55.342355320,1743861535,340817721,mA1/gps,0,1,63.43680907664444,10.393074219924479,0.0,1.4400000000000002e-10,0.0,0.0,0.0,1.4400000000000002e-10,0.0,0.0,0.0,1.0,2
2025/04/05 15:58:55.392368943,1743861535,390468549,mA1/gps,0,1,63.436809276674616,10.393074222526932,0.0,1.4400000000000002e-10,0.0,0.0,0.0,1.4400000000000002e-10,0.0,0.0,0.0,1.0,2
2025/04/05 15:58:55.443441827,1743861535,442161481,mA1/gps,0,1,63.43680947765695,10.39307422630078,0.0,1.4400000000000002e-10,0.0,0.0,0.0,1.4400000000000002e-10,0.0,0.0,0.0,1.0,2
2025/04/05 15:58:55.493856753,1743861535,491980361,mA1/gps,0,1,63.43680967768875,10.393074229846848,0.0,1.4400000000000002e-10,0.0,0.0,0.0,1.4400000000000002e-10,0.0,0.0,0.0,1.0,2
2025/04/05 15:58:55.547206341,1743861535,543051157,mA1/gps,0,1,63.43680987720438,10.393074232478105,0.0,1.4400000000000002e-10,0.0,0.0,0.0,1.4400000000000002e-10,0.0,0.0,0.0,1.0,2
2025/04/05 15:58:55.596481562,1743861535,592697516,mA1/gps,0,1,63.436810078282726,10.393074235328664,0.0,1.4400000000000002e-10,0.0,0.0,0.0,1.4400000000000002e-10,0.0,0.0,0.0,1.0,2
2025/04/05 15:58:55.644798388,1743861535,643752248,mA1/gps,0,1,63.43681027782988,10.393074237224903,0.0,1.4400000000000002e-10,0.0,0.0,0.0,1.4400000000000002e-10,0.0,0.0,0.0,1.0,2
2025/04/05 15:58:55.696548164,1743861535,693529987,mA1/gps,0,1,63.436810476906544,10.393074237210547,0.0,1.4400000000000002e-10,0.0,0.0,0.0,1.4400000000000002e-10,0.0,0.0,0.0,1.0,2
2025/04/05 15:58:55.748163361,1743861535,746074063,mA1/gps,0,1,63.43681067727938,10.393074237225138,0.0,1.4400000000000002e-10,0.0,0.0,0.0,1.4400000000000002e-10,0.0,0.0,0.0,1.0,2
2025/04/05 15:58:55.799671136,1743861535,798626775,mA1/gps,0,1,63.436810877785305,10.393074236225655,0.0,1.4400000000000002e-10,0.0,0.0,0.0,1.4400000000000002e-10,0.0,0.0,0.0,1.0,2
2025/04/05 15:58:55.852037220,1743861535,850076081,mA1/gps,0,1,63.436811076676904,10.39307423343472,0.0,1.4400000000000002e-10,0.0,0.0,0.0,1.4400000000000002e-10,0.0,0.0,0.0,1.0,2
2025/04/05 15:58:55.902199714,1743861535,899947215,mA1/gps,0,1,63.43681127582763,10.393074230484013,0.0,1.4400000000000002e-10,0.0,0.0,0.0,1.4400000000000002e-10,0.0,0.0,0.0,1.0,2
2025/04/05 15:58:55.945326812,1743861535,942816432,mA1/gps,0,1,63.43681147611532,10.393074227693381,0.0,1.4400000000000002e-10,0.0,0.0,0.0,1.4400000000000002e-10,0.0,0.0,0.0,1.0,2
2025/04/05 15:58:55.992732445,1743861535,991308927,mA1/gps,0,1,63.43681167650777,10.393074224315683,0.0,1.4400000000000002e-10,0.0,0.0,0.0,1.4400000000000002e-10,0.0,0.0,0.0,1.0,2
2025/04/05 15:58:56.47942700,1743861536,42818273,mA1/gps,0,1,63.436811876021586,10.393074220782047,0.0,1.4400000000000002e-10,0.0,0.0,0.0,1.4400000000000002e-10,0.0,0.0,0.0,1.0,2
2025/04/05 15:58:56.93350666,1743861536,92552881,mA1/gps,0,1,63.43681207523601,10.393074218695183,0.0,1.4400000000000002e-10,0.0,0.0,0.0,1.4400000000000002e-10,0.0,0.0,0.0,1.0,2
2025/04/05 15:58:56.144372079,1743861536,143622736,mA1/gps,0,1,63.43681227585741,10.393074217212243,0.0,1.4400000000000002e-10,0.0,0.0,0.0,1.4400000000000002e-10,0.0,0.0,0.0,1.0,2
2025/04/05 15:58:56.194522199,1743861536,193496590,mA1/gps,0,1,63.43681247637457,10.393074217846255,0.0,1.4400000000000002e-10,0.0,0.0,0.0,1.4400000000000002e-10,0.0,0.0,0.0,1.0,2
2025/04/05 15:58:56.245743110,1743861536,244643506,mA1/gps,0,1,63.43681267667345,10.39307422016265,0.0,1.4400000000000002e-10,0.0,0.0,0.0,1.4400000000000002e-10,0.0,0.0,0.0,1.0,2
2025/04/05 15:58:56.295682113,1743861536,294459060,mA1/gps,0,1,63.43681287756945,10.393074223503799,0.0,1.4400000000000002e-10,0.0,0.0,0.0,1.4400000000000002e-10,0.0,0.0,0.0,1.0,2
2025/04/05 15:58:56.346892010,1743861536,345495794,mA1/gps,0,1,63.436813078469555,10.393074228697387,0.0,1.4400000000000002e-10,0.0,0.0,0.0,1.4400000000000002e-10,0.0,0.0,0.0,1.0,2
