time,header_stamp_secs,header_stamp_nsecs,header_frame_id,quaternion_x,quaternion_y,quaternion_z,quaternion_w
2025/04/05 15:58:39.929934601,1743861519,910758455,,-0.002502979318588562,0.0006089595088766211,-0.014822407982075098,0.9998868238378082
2025/04/05 15:58:40.3288047,1743861520,2972362,,-0.00197573786676699,0.0006042767654174772,-0.015244719143715524,0.9998816579214271
2025/04/05 15:58:40.103890167,1743861520,103761262,,-0.0011892915375655182,0.0005862527755522088,-0.01564948512080477,0.9998766601480282
2025/04/05 15:58:40.208674504,1743861520,207039502,,-0.0003389761992696905,0.0005294907927204271,-0.016026798290347193,0.9998713649621122
2025/04/05 15:58:40.308285888,1743861520,308062562,,0.0003891049484330383,0.0004904424537085766,-0.016385755655570825,0.9998655484989643
2025/04/05 15:58:40.409847604,1743861520,409527028,,0.0008355578438720705,0.00044508490023986654,-0.01672259191129174,0.9998597194918343
2025/04/05 15:58:40.507712295,1743861520,507199345,,0.0009178389848039175,0.00039906843982433584,-0.01703906258092275,0.9998543237203816
2025/04/05 15:58:40.607564808,1743861520,607254100,,0.0006484435766965001,0.0003819133508667723,-0.01735130306554998,0.9998491715979204
2025/04/05 15:58:40.708221611,1743861520,707954684,,0.00010899964706349761,0.0003681858865286716,-0.017656941585942606,0.9998440303227601
2025/04/05 15:58:40.812083735,1743861520,811485827,,-0.0005708572885970984,0.000362288263128597,-0.017939367075025657,0.9998388480040761
2025/04/05 15:58:40.921500696,1743861520,918729559,,-0.0012214734874836746,0.0003692046885231539,-0.018213572100219483,0.9998333048472468
2025/04/05 15:58:41.14072228,1743861521,13215733,,-0.0016891833087308698,0.0003838421401017455,-0.01848680216488809,0.9998276038751267
2025/04/05 15:58:41.104556365,1743861521,104226172,,-0.0018727400275200473,0.00039930722319113344,-0.018749310122647453,0.9998223826102592
2025/04/05 15:58:41.206688002,1743861521,206299250,,-0.0017451869238779589,0.00041942918576093807,-0.01899633334774407,0.9998179422880449
2025/04/05 15:58:41.601829913,1743861521,306710148,,-0.0013579752690042626,0.00042851047661118883,-0.019222058293732965,0.9998142251222937
2025/04/05 15:58:41.602054291,1743861521,408134176,,-0.0008039084302961255,0.00045622301656945285,-0.019417451873726743,0.9998110362236088
2025/04/05 15:58:41.603190333,1743861521,508924141,,-0.00020655086614225328,0.000464074183423164,-0.019587625683947386,0.9998080150168619
2025/04/05 15:58:41.612127361,1743861521,611567574,,0.00030708293199816687,0.0004641722995717263,-0.0197428192126824,0.9998049366419854
2025/04/05 15:58:41.708712035,1743861521,707274757,,0.0006350210653702911,0.0004627473479895893,-0.019892580967232985,0.9998018142790103
2025/04/05 15:58:41.805673048,1743861521,804703055,,0.0006927561397516022,0.00043917125847471193,-0.020032805639743568,0.999798986754706
2025/04/05 15:58:41.907136098,1743861521,906842934,,0.0004569212063021728,0.00041063710946601014,-0.02014494279863824,0.9997968813113067
2025/04/05 15:58:42.9257343,1743861522,7334425,,1.0016567362990953e-05,0.00037386553208845985,-0.02023959992474815,0.9997950883651702
2025/04/05 15:58:42.109398525,1743861522,108052911,,-0.0005259183112667898,0.0003277829629039848,-0.02032837882825293,0.9997931651008993
2025/04/05 15:58:42.210616520,1743861522,210403717,,-0.0010240052093378543,0.0002811992013863166,-0.020412293029224298,0.9997910834937614
2025/04/05 15:58:42.312351970,1743861522,311643642,,-0.0013712708119195112,0.0002419659425532525,-0.020492404792109176,0.9997890389550584
2025/04/05 15:58:42.415282098,1743861522,405842656,,-0.001491641429613395,0.00021923795685212114,-0.02056832178802669,0.9997873129217973
2025/04/05 15:58:42.507862158,1743861522,507301928,,-0.0013633380146620346,0.00022239963942455532,-0.020640605078556033,0.9997860057381526
2025/04/05 15:58:42.609240307,1743861522,608650968,,-0.001030120719753678,0.00022825060724710518,-0.020703787856343955,0.9997850968690034
2025/04/05 15:58:42.710187348,1743861522,709884430,,-0.0005714592336563101,0.00027447354663551383,-0.020751280522129163,0.9997844680006328
2025/04/05 15:58:42.812126458,1743861522,811887495,,-8.034379019118099e-05,0.0003270174903633049,-0.020794076893555585,0.9997837230974413
2025/04/05 15:58:42.903030880,1743861522,902778240,,0.0003195628920703845,0.00037074940527949965,-0.02082570861841361,0.9997830015983356
2025/04/05 15:58:43.4138207,1743861523,3802490,,0.000525459395208475,0.0004135473453926298,-0.02083644997769116,0.9997826739963762
2025/04/05 15:58:43.105150691,1743861523,104653350,,0.0004926229728229284,0.00045813789707143456,-0.020831152959846375,0.9997827816574145
2025/04/05 15:58:43.209752680,1743861523,207666665,,0.0002255000575322498,0.0004619940745209483,-0.02080035503439228,0.9997835170383849
2025/04/05 15:58:43.307586562,1743861523,307194581,,-0.00019993168543591019,0.00043649053291970976,-0.02075195762701404,0.9997845396674138
2025/04/05 15:58:43.410168009,1743861523,409469423,,-0.0006832349270562961,0.0003782709777514204,-0.020688513417881544,0.9997856647870382
2025/04/05 15:58:43.511869469,1743861523,511403807,,-0.001104643150676362,0.00031060360829739445,-0.02060238438404891,0.9997870898579357
2025/04/05 15:58:43.603232726,1743861523,602856918,,-0.0013621052786886385,0.00021365703032005698,-0.02049926816777365,0.9997889172342674
2025/04/05 15:58:43.705606082,1743861523,705270218,,-0.0014008788676572836,0.0001444569166278364,-0.020381237863060495,0.9997912891267691
2025/04/05 15:58:43.807405091,1743861523,807021484,,-0.0012178212069504648,7.929315696430654e-05,-0.020238088782533383,0.9997944440666459
2025/04/05 15:58:43.910236696,1743861523,908796366,,-0.0008597729431967006,4.5890707298910016e-05,-0.02008131380176369,0.9997979793540914
2025/04/05 15:58:44.9564521,1743861524,9124776,,-0.00042413049104533427,3.9205751751453e-05,-0.01991127202519256,0.9998016602419574
2025/04/05 15:58:44.110363165,1743861524,110053969,,-6.304746022136526e-06,8.441580056029904e-05,-0.019726867864077527,0.9998054028252178
2025/04/05 15:58:44.207304732,1743861524,206613827,,0.000296967677728302,0.00014103332915960584,-0.019528800614614292,0.9998092407386286
2025/04/05 15:58:44.306180990,1743861524,304743143,,0.0004207644893122345,0.00022770875268698075,-0.0193179156352657,0.9998132771880344
2025/04/05 15:58:44.405541398,1743861524,405030022,,0.0003402531063456643,0.0002985368896481642,-0.019085480735126094,0.9998177531573733
2025/04/05 15:58:44.506713120,1743861524,506107727,,8.966346387118852e-05,0.0003572636930914654,-0.018841019458118745,0.9998224243878988
2025/04/05 15:58:44.607702296,1743861524,606904552,,-0.0002724647513244251,0.00037829546604268476,-0.018587978702450436,0.9998271199078653
2025/04/05 15:58:44.712400406,1743861524,711902268,,-0.0006559975769690148,0.000364427645386132,-0.0183276823813745,0.9998317523054555
2025/04/05 15:58:44.803931403,1743861524,802520466,,-0.0009705979367115353,0.00032204719234502435,-0.0180610848651475,0.9998363623307291
2025/04/05 15:58:44.908109807,1743861524,907698440,,-0.001147702193524987,0.00023170637317129829,-0.017787531941116694,0.9998411037756326
2025/04/05 15:58:45.8986342,1743861525,8509003,,-0.0011507927513458556,0.00013685021466005817,-0.017508224072791692,0.9998460476682793
2025/04/05 15:58:45.109619741,1743861525,109443030,,-0.0009771933999641001,5.432172118857179e-05,-0.017218750492490373,0.9998512673261394
2025/04/05 15:58:45.211310843,1743861525,210236953,,-0.0006653858255746877,-1.597087610391223e-05,-0.01692298004429007,0.9998565745911034
2025/04/05 15:58:45.311563788,1743861525,311340333,,-0.00028529394816346354,-5.144907783275956e-05,-0.016625941926307695,0.9998617374494428
2025/04/05 15:58:45.402866808,1743861525,402655763,,7.267419761612384e-05,-4.3185357084352505e-05,-0.016328991513898602,0.9998666695563089
2025/04/05 15:58:45.504817907,1743861525,504653360,,0.00032723026025211307,7.057855707150204e-06,-0.01603263207697213,0.99987141552263
2025/04/05 15:58:45.606514184,1743861525,604818263,,0.00042082033269380347,8.027755614249854e-05,-0.01573629705421437,0.999876085032932
2025/04/05 15:58:45.708186291,1743861525,707950891,,0.00032668167610352836,0.00017168806384290132,-0.015440413143117362,0.9998807216084632
2025/04/05 15:58:45.807028073,1743861525,806900455,,6.917546818317416e-05,0.0002567785648884407,-0.01513889524104756,0.9998853649946097
2025/04/05 15:58:45.909633737,1743861525,908401383,,-0.00028415146028822167,0.00032457374675567486,-0.014837127028390984,0.9998898307170515
2025/04/05 15:58:46.3319744,1743861526,3063202,,-0.0006526948865522899,0.00035402307557380716,-0.014538322842501382,0.9998940372989401
2025/04/05 15:58:46.103591176,1743861526,103393541,,-0.000951504860548842,0.00034494534374504934,-0.014241665395992548,0.9998980701141286
2025/04/05 15:58:46.208130577,1743861526,207903211,,-0.0011099039532992702,0.00029746066001778184,-0.013940447953744542,0.9999021669849602
2025/04/05 15:58:46.307984723,1743861526,307822264,,-0.0010872943278568362,0.00022086965758559495,-0.01363917151597898,0.9999063666203934
2025/04/05 15:58:46.411876523,1743861526,411323827,,-0.0008908306838593002,0.00014666142387705514,-0.013342033244423176,0.9999105835323597
2025/04/05 15:58:46.511360099,1743861526,509591039,,-0.0005839035256256541,5.63080166524988e-05,-0.01304885098410152,0.9999146880479728
2025/04/05 15:58:46.613151951,1743861526,611833336,,-0.0002445758170658456,-1.4297257609221908e-05,-0.01275218787169705,0.9999186575330731
2025/04/05 15:58:46.702379738,1743861526,702147058,,5.550687845147556e-05,-3.1138736532593804e-05,-0.012454001425921405,0.9999224438914494
2025/04/05 15:58:46.803827130,1743861526,803617302,,0.00024817557435399796,-2.2331294102068393e-05,-0.01215539958280963,0.9999260893541981
2025/04/05 15:58:46.906942444,1743861526,906539408,,0.0002935427802014298,2.2333169854382886e-05,-0.011857992369160686,0.9999296482007315
2025/04/05 15:58:47.6414735,1743861527,6203043,,0.0001951849300691182,9.145035614685871e-05,-0.011568759268601861,0.9999330564336097
2025/04/05 15:58:47.106561301,1743861527,105851552,,-2.308796396650598e-05,0.00017516886213226072,-0.011285921762076977,0.9999362963473203
2025/04/05 15:58:47.207657950,1743861527,206496492,,-0.0003177624693829027,0.00025575378393776193,-0.011002662682659103,0.9999393856784053
2025/04/05 15:58:47.309511274,1743861527,308113421,,-0.0006159088332752969,0.000312254486721252,-0.010721816976176784,0.9999422812313589
2025/04/05 15:58:47.410186104,1743861527,409088926,,-0.0008454586620733088,0.00034704159191312894,-0.010444970766108787,0.9999450321630081
2025/04/05 15:58:47.512075739,1743861527,511883852,,-0.0009521650228134757,0.00033953401589855163,-0.01017349093739767,0.9999477377246113
2025/04/05 15:58:47.611547187,1743861527,611294597,,-0.0009165816763228283,0.0003097680881338034,-0.009906989397703998,0.9999504565141395
2025/04/05 15:58:47.702422485,1743861527,702165417,,-0.0007550454519328835,0.00026053989361439364,-0.009643329810971877,0.9999531830118279
2025/04/05 15:58:47.803589508,1743861527,803400439,,-0.0005141781933366752,0.00019716406254112717,-0.009380039774155987,0.9999558548260784
2025/04/05 15:58:47.907060553,1743861527,906789941,,-0.00025384856182447435,0.0001312982571785245,-0.009115596668917453,0.9999584112447102
2025/04/05 15:58:48.6633374,1743861528,5568614,,-4.255658299978044e-05,7.616280368405588e-05,-0.008851599277614981,0.9999608200216612
2025/04/05 15:58:48.113674505,1743861528,112645535,,6.457122272583238e-05,4.893286534638762e-05,-0.00858820925786012,0.9999631173687733
2025/04/05 15:58:48.208562078,1743861528,208184652,,5.9712886706881375e-05,5.118108361610168e-05,-0.0083234591793406,0.9999653563209866
2025/04/05 15:58:48.309811315,1743861528,309668278,,-3.715972864802837e-05,6.646305195763141e-05,-0.008066385315260176,0.9999674632855626
2025/04/05 15:58:48.411841935,1743861528,411186194,,-0.00019540282174052882,9.929996649554267e-05,-0.007823566583745532,0.9999693714125266
2025/04/05 15:58:48.503244586,1743861528,501932786,,-0.00038685816250995977,0.00015597633177240195,-0.00758557773893876,0.9999711420948669
2025/04/05 15:58:48.605337693,1743861528,603743648,,-0.0005657914903926088,0.00021347578646293392,-0.00735371646223958,0.9999727782106226
2025/04/05 15:58:48.709334336,1743861528,709102930,,-0.0006829142184644608,0.0002747003488582462,-0.007136471246832738,0.9999742641418486
2025/04/05 15:58:48.808414499,1743861528,808216122,,-0.0007241378963706036,0.0003020756836729895,-0.006925455646082594,0.9999757109243617
2025/04/05 15:58:48.913820613,1743861528,913545467,,-0.0006917969693047987,0.0003252557196674955,-0.006713223752586064,0.9999771738657427
2025/04/05 15:58:49.11455359,1743861529,10367058,,-0.0005966987394875042,0.0003185937058060687,-0.006498659497779204,0.9999786547088877
2025/04/05 15:58:49.111899146,1743861529,111460570,,-0.00045869797231885747,0.0002934616442342278,-0.0062846424484930665,0.9999801031749223
2025/04/05 15:58:49.202091932,1743861529,201520317,,-0.00030968983897706104,0.00025424050907291835,-0.006072664087111278,0.9999814809309482
2025/04/05 15:58:49.303637658,1743861529,302534302,,-0.00019120350661473232,0.00020143940732947243,-0.005865071431005645,0.9999827617516681
2025/04/05 15:58:49.403613467,1743861529,403352394,,-0.00013993731096649412,0.00014876419792948467,-0.005660046010803768,0.9999839609543335
2025/04/05 15:58:49.506092604,1743861529,505738698,,-0.00016515087038484731,0.00010405517318544674,-0.005456799171964845,0.9999850925091373
2025/04/05 15:58:49.608329014,1743861529,608020390,,-0.00025203929525382987,7.226171937029756e-05,-0.0052506123479074875,0.9999861810667233
2025/04/05 15:58:49.711698388,1743861529,711387688,,-0.0003736160438766731,4.7631252376390096e-05,-0.005043028510914285,0.9999872129211221
2025/04/05 15:58:49.804170062,1743861529,803648496,,-0.0004973295410548932,5.600206169319335e-05,-0.004837546669483362,0.9999881737647287
2025/04/05 15:58:49.905737049,1743861529,905033580,,-0.0005931394558587945,7.861413895146049e-05,-0.004634466100805218,0.9999890818050783
2025/04/05 15:58:50.6228373,1743861530,6076533,,-0.0006415120958049779,0.0001289958958649213,-0.004432991757417217,0.999989960152785
2025/04/05 15:58:50.109200117,1743861530,107720539,,-0.0006317983151677984,0.000169946341618051,-0.0042332783798610125,0.9999908256095595
2025/04/05 15:58:50.209664224,1743861530,209469951,,-0.0005715113176633757,0.00022272637118567616,-0.004033953096418556,0.9999916754604476
2025/04/05 15:58:50.310270475,1743861530,309854775,,-0.0004762118052513581,0.00026523488750481366,-0.0038347589343314956,0.9999924987202087
2025/04/05 15:58:50.411957626,1743861530,410568186,,-0.0003640562019015271,0.00029720549442570116,-0.00363815954884837,0.9999932714408998
2025/04/05 15:58:50.502368467,1743861530,502236489,,-0.00026237595584370114,0.0002926912054824127,-0.0034437373091457785,0.9999939930639892
2025/04/05 15:58:50.603593866,1743861530,602409396,,-0.00019591206854217965,0.00027567224413189165,-0.0032507810120804962,0.9999946590087803
2025/04/05 15:58:50.704549613,1743861530,703509902,,-0.00017874772110556224,0.0002450021860600494,-0.003059746562147772,0.9999952729759058
2025/04/05 15:58:50.809274441,1743861530,807421380,,-0.0002021051803848115,0.00019396502994066607,-0.002877619400771889,0.9999958204100893
2025/04/05 15:58:50.909261503,1743861530,909002705,,-0.0002607087242369903,0.00014752000748802596,-0.002703018784921777,0.9999963019722907
2025/04/05 15:58:51.10562473,1743861531,10311596,,-0.00034345528511253503,9.448280385868847e-05,-0.0025348663747303915,0.9999967237765978
2025/04/05 15:58:51.111202526,1743861531,111051918,,-0.00042792112809628076,5.5366621442132086e-05,-0.0023747328696489345,0.9999970872266795
2025/04/05 15:58:51.205908169,1743861531,204473349,,-0.0005062759802403205,4.483344853692374e-05,-0.002215014325303576,0.999997417689732
2025/04/05 15:58:51.305195056,1743861531,304663117,,-0.0005593127617551948,5.479544824973742e-05,-0.00205667246363645,0.9999977271299524
2025/04/05 15:58:51.407815412,1743861531,406561161,,-0.0005745731220370911,7.417034596202181e-05,-0.0018999408656668432,0.9999980272926513
2025/04/05 15:58:51.507753926,1743861531,507529179,,-0.0005513913609721092,0.0001262026972874777,-0.0017440095101509284,0.9999983192342249
2025/04/05 15:58:51.612011786,1743861531,610808263,,-0.0004971984033970525,0.00017935833771777748,-0.0015884314968660684,0.9999985987538753
2025/04/05 15:58:51.703574730,1743861531,702508309,,-0.0004224966656019676,0.0002249577458549196,-0.0014346393863563442,0.9999988563495517
2025/04/05 15:58:51.805524030,1743861531,802713626,,-0.000347272796952453,0.0002710637529342982,-0.001281674950630963,0.9999990816172619
2025/04/05 15:58:51.904967386,1743861531,904820892,,-0.00029034568016014626,0.0002928455316789207,-0.0011298346559393331,0.9999992767070038
2025/04/05 15:58:52.7466958,1743861532,6809660,,-0.00025450949028828435,0.00029557911446868716,-0.0009857436386744316,0.9999994380835348
2025/04/05 15:58:52.110026926,1743861532,108650093,,-0.00025036465956599426,0.00026646071390361856,-0.0008485741529925599,0.9999995731189749
2025/04/05 15:58:52.211290189,1743861532,210574237,,-0.0002845441044617001,0.00022548632072723015,-0.0007119980237879972,0.999999680624642
2025/04/05 15:58:52.310963200,1743861532,310805348,,-0.00034523333003641624,0.00016793403906305594,-0.0005785092839752592,0.9999997589695283
2025/04/05 15:58:52.412015893,1743861532,411348880,,-0.0004178373546409422,0.00011408358381747146,-0.00044786348440972225,0.9999998059075713
2025/04/05 15:58:52.503303643,1743861532,502369540,,-0.00048429900341642924,5.840268649252398e-05,-0.00032057932698049,0.9999998296362338
2025/04/05 15:58:52.604392472,1743861532,603982062,,-0.0005298259503019203,3.5948883167390344e-05,-0.00019634932322536538,0.9999998397195289
2025/04/05 15:58:52.706343018,1743861532,704348401,,-0.0005380891463156468,1.4832128223222578e-05,-7.940950326477177e-05,0.9999998519670937
2025/04/05 15:58:52.809530075,1743861532,807679469,,-0.0005136980599494677,3.985633975414343e-05,3.2979259073324355e-05,0.999999866719063
2025/04/05 15:58:52.907433329,1743861532,907231745,,-0.00047370262103801317,7.425547029844941e-05,0.00014760615313930573,0.9999998741521798
2025/04/05 15:58:53.8647106,1743861533,8299495,,-0.0004119065219873345,0.00012081648363765658,0.0002546874094753266,0.9999998754353512
2025/04/05 15:58:53.113491015,1743861533,111220027,,-0.0003341968525520125,0.00018367604099914887,0.0003474114525716344,0.9999998669404203
2025/04/05 15:58:53.212356315,1743861533,210823226,,-0.0002598467798036169,0.00023737204713373405,0.00042521396373582375,0.999999847663612
2025/04/05 15:58:53.309566106,1743861533,306458762,,-0.00020753191918278309,0.00028099191442371515,0.000489290457270603,0.9999998192844312
2025/04/05 15:58:53.404494449,1743861533,404221594,,-0.00019140024808897289,0.0002946541578877728,0.0005413514655346901,0.9999997917417098
2025/04/05 15:58:53.506086494,1743861533,505828898,,-0.00021304381031200914,0.0002889740743836843,0.0005816727211149963,0.9999997663815551
2025/04/05 15:58:53.607756656,1743861533,607123984,,-0.00026465314205798013,0.000271928349619205,0.0006101453184055507,0.9999997418681554
2025/04/05 15:58:53.709015263,1743861533,707902916,,-0.00033329288435312036,0.00022872117549966445,0.0006266205506251388,0.9999997219745427
2025/04/05 15:58:53.812240755,1743861533,809990461,,-0.0004044816052376783,0.0001838798118216952,0.0006311468065186574,0.9999997021182329
2025/04/05 15:58:53.910960864,1743861533,910705116,,-0.00047288948980703265,0.00013898021708141122,0.0006321420363435087,0.9999996787281862
2025/04/05 15:58:54.3043710,1743861534,2387471,,-0.0005342763100892331,0.00010921474405957918,0.0006392833974670527,0.9999996469687886
2025/04/05 15:58:54.103888564,1743861534,103507482,,-0.0005654363881397837,8.290425619868877e-05,0.0006443278482909879,0.9999996291250308
2025/04/05 15:58:54.204620798,1743861534,204222730,,-0.0005469763346347341,8.701931266519202e-05,0.0006381040786767226,0.999999643033793
2025/04/05 15:58:54.306944838,1743861534,305426028,,-0.00048427260696448535,0.00010332426180970361,0.0006206357456950468,0.9999996848076554
2025/04/05 15:58:54.405852362,1743861534,405722407,,-0.00039306191654261556,0.00012902365462851982,0.0005924658231303037,0.9999997389197033
2025/04/05 15:58:54.509742653,1743861534,509493078,,-0.00030805301454046635,0.00016115787140876165,0.0005623643019162307,0.9999997814389124
2025/04/05 15:58:54.612131070,1743861534,610471163,,-0.0002629639540246449,0.00019723968451131044,0.0005405561893480805,0.9999997998727159
2025/04/05 15:58:54.705791938,1743861534,704800974,,-0.0002667631970057708,0.00023472110600612103,0.0005268914239101798,0.9999997980643929
2025/04/05 15:58:54.803326314,1743861534,803053556,,-0.00031752215755434553,0.00025665619849720247,0.0005209835011635417,0.9999997809417094
2025/04/05 15:58:54.907498547,1743861534,904529781,,-0.0004008053790360535,0.00027176503147128314,0.0005219121137887546,0.9999997465532485
2025/04/05 15:58:55.6975054,1743861535,5618783,,-0.0004956157334427827,0.00027131708336556475,0.0005291833624703992,0.9999997003584821
2025/04/05 15:58:55.108845993,1743861535,107298385,,-0.0005674902346489264,0.0002557250871528889,0.0005352414310944401,0.9999996630380051
2025/04/05 15:58:55.210401103,1743861535,210178848,,-0.0005864172213454508,0.0002264343166322838,0.0005311448254914354,0.9999996613637012
2025/04/05 15:58:55.311686560,1743861535,310758027,,-0.000550124575240515,0.00018352668897005255,0.0005170211333667655,0.9999996981849814
2025/04/05 15:58:55.406608207,1743861535,405510226,,-0.0004794702441283162,0.00014763422160856378,0.000499575609667488,0.9999997493682845
2025/04/05 15:58:55.504621103,1743861535,503544079,,-0.00040377985958646494,0.00012039493860971582,0.0004886276093246551,0.9999997918549499
2025/04/05 15:58:55.604475926,1743861535,604163277,,-0.0003486014932144682,9.541492760612706e-05,0.00048111338813071596,0.9999998189514328
2025/04/05 15:58:55.707346024,1743861535,706994672,,-0.00033570446310898365,9.39263507578772e-05,0.0004906644495207603,0.9999998188643596
2025/04/05 15:58:55.810728040,1743861535,810333331,,-0.00036373040889598705,0.00011194868582266249,0.0005084353564469825,0.9999997983305645
2025/04/05 15:58:55.913480402,1743861535,912225004,,-0.0004277024305123079,0.0001296727725883551,0.0005306186699199285,0.9999997593496861
2025/04/05 15:58:56.3507964,1743861536,3140809,,-0.0005115742116076887,0.00015997670136449368,0.0005585524016426941,0.9999997003592029
2025/04/05 15:58:56.109055140,1743861536,106097889,,-0.0005904843423791069,0.00019026467295198303,0.0006011305266484902,0.9999996268847732
2025/04/05 15:58:56.207528460,1743861536,206174402,,-0.0006210049674959905,0.0002161949081693802,0.0006439217786137191,0.9999995764885778
2025/04/05 15:58:56.308160899,1743861536,306398557,,-0.0005944410883723653,0.00021969558405790686,0.0006823761082976886,0.9999995663681508
2025/04/05 15:58:56.408332635,1743861536,408101873,,-0.0005217906225216999,0.00023041020195949254,0.0007179477531858201,0.999999579598266
2025/04/05 15:58:56.508326935,1743861536,508104162,,-0.0004201046403547304,0.00021955270948421872,0.0007497956525780399,0.9999996065575117
2025/04/05 15:58:56.610890145,1743861536,610148098,,-0.0003146257857433651,0.0001971438718244224,0.0007789390671374481,0.9999996276993499
2025/04/05 15:58:56.704623924,1743861536,703089899,,-0.00023022089588225432,0.00016946234523117446,0.000804814023722513,0.9999996352775534
2025/04/05 15:58:56.808580789,1743861536,807332041,,-0.00018483187078068177,0.00013969702819488156,0.0008281230875914424,0.9999996302669675
2025/04/05 15:58:56.915809890,1743861536,914384850,,-0.00017575766944540156,0.0001236035753562724,0.0008404568223799981,0.999999623731793
2025/04/05 15:58:57.2676651,1743861537,2453266,,-0.00020337123222943212,0.00010769801066155199,0.0008417054097474679,0.9999996192865693
2025/04/05 15:58:57.103786100,1743861537,102999694,,-0.0002720255476538637,0.00010629590632143424,0.0008398140582427018,0.9999996047077365
2025/04/05 15:58:57.205099930,1743861537,203994998,,-0.0003810185880139025,0.00012176307497891933,0.0008452853521584445,0.9999995627455357
2025/04/05 15:58:57.305810806,1743861537,305640064,,-0.0005029499030821294,0.00014575606456169687,0.0008575506782144198,0.999999495201572
2025/04/05 15:58:57.415552764,1743861537,409973857,,-0.0006050552773367163,0.00017913018286845896,0.0008730964985780263,0.9999994197613282
2025/04/05 15:58:57.515873866,1743861537,512471962,,-0.0006593395651495783,0.00018778098532411475,0.0008887981842032844,0.9999993700235151
2025/04/05 15:58:57.603784852,1743861537,603405191,,-0.0006545035536094739,0.00021208003711802503,0.0009045879356389338,0.9999993541837029
2025/04/05 15:58:57.705713473,1743861537,704845430,,-0.000592558375998369,0.0002294058831752187,0.0009208387775359491,0.999999374151533
2025/04/05 15:58:57.807610423,1743861537,806733114,,-0.00048279476747100546,0.00022647637240400678,0.0009325492028615,0.9999994229846583
2025/04/05 15:58:57.907652221,1743861537,907302032,,-0.00036233962716625924,0.00022033768009079298,0.0009386020884427208,0.9999994695935698
2025/04/05 15:58:58.9036088,1743861538,7985100,,-0.0002724843103591671,0.00020571791734003597,0.0009533730236915526,0.9999994872560269
2025/04/05 15:58:58.113392856,1743861538,112962014,,-0.00021790404999182705,0.00017829560774190137,0.0009713923810749593,0.9999994885625408
2025/04/05 15:58:58.206789990,1743861538,205656274,,-0.00021070996152303985,0.0001547325071822115,0.0009911467340500777,0.9999994746435195
2025/04/05 15:58:58.305373545,1743861538,304507721,,-0.00025300969161724487,0.00013413776924685027,0.001013149237627114,0.999999445760735
2025/04/05 15:58:58.408710449,1743861538,408375357,,-0.0003333372137905022,0.00010854454465800202,0.0010372387588663745,0.9999994006198908
2025/04/05 15:58:58.507208888,1743861538,506594029,,-0.0004280977169216005,0.00010702950634049532,0.0010619745907904,0.9999993387432804
2025/04/05 15:58:58.609717233,1743861538,608739774,,-0.0005158228145543941,0.00011001498489227721,0.001087605000893145,0.9999992694691777
2025/04/05 15:58:58.713392910,1743861538,710493269,,-0.0005795924096413494,0.00012664254303925416,0.0011156224449414844,0.999999201710114
2025/04/05 15:58:58.813752342,1743861538,812240140,,-0.0006063998660346637,0.00014704344349608135,0.0011467950512177433,0.9999991477589062
2025/04/05 15:58:58.905905203,1743861538,902000597,,-0.0005896638362784531,0.0001726649057335191,0.0011804436597417512,0.9999991145176863
2025/04/05 15:58:59.5982786,1743861539,5737850,,-0.0005398371957066074,0.00019525096779853156,0.0012121541424141727,0.9999991005671939
2025/04/05 15:58:59.107971070,1743861539,106883979,,-0.00046967295921063646,0.00021155540287843723,0.0012494572191666226,0.9999990867537232
2025/04/05 15:58:59.211282061,1743861539,208589794,,-0.0003877723582411587,0.0002170253724256144,0.0012904780586269736,0.9999990685990493
2025/04/05 15:58:59.310739639,1743861539,308832275,,-0.0003115846090513229,0.00021812258078153778,0.0013320908927695052,0.9999990404352519
2025/04/05 15:58:59.414206907,1743861539,412310304,,-0.00025946157436226337,0.00020389063215864227,0.0013740038979112661,0.9999990016102966
2025/04/05 15:58:59.512036502,1743861539,511457934,,-0.00023515283320750264,0.0001835911890591288,0.0014095160051288743,0.9999989621304872
2025/04/05 15:58:59.611352712,1743861539,611123780,,-0.00023469419408097192,0.00016061359633675985,0.0014316313527828388,0.9999989347762215
2025/04/05 15:58:59.702642300,1743861539,701988303,,-0.00025692825623121356,0.00012556371068814766,0.00144125070469663,0.9999989205084333
2025/04/05 15:58:59.804899120,1743861539,803565530,,-0.00029798200127017116,0.00011086274770974847,0.0014399736504425355,0.999998912695441
2025/04/05 15:58:59.908678958,1743861539,904001425,,-0.0003491653869184504,9.076945274720715e-05,0.00142744570911033,0.9999989161210059
2025/04/05 15:59:00.9235209,1743861540,8166620,,-0.0003979883565254617,0.00010187257409195845,0.00140451471330472,0.9999989292822602
2025/04/05 15:59:00.109076343,1743861540,108750041,,-0.00044375361550551674,0.00010948039557147431,0.0013793571263542147,0.9999989442347875
2025/04/05 15:59:00.211903419,1743861540,210321753,,-0.0004905663779768016,0.00014389906673216527,0.0013616342016632128,0.9999989422944348
2025/04/05 15:59:00.312908359,1743861540,311421462,,-0.0005267164780864475,0.00017387417829524141,0.0013508531152254869,0.999998933766123
2025/04/05 15:59:00.402440710,1743861540,402259782,,-0.0005325451646477566,0.00019792280036598885,0.0013377873497386064,0.999998943773052
2025/04/05 15:59:00.503541876,1743861540,502643998,,-0.0004955249521893119,0.00022160430499470896,0.0013125435737608806,0.9999989912874516
2025/04/05 15:59:00.604702143,1743861540,604532314,,-0.0004233556884830333,0.00023761944672565867,0.0012756952996203965,0.9999990684537972
2025/04/05 15:59:00.705527374,1743861540,705305466,,-0.00033370018817168806,0.00022162884205235,0.0012274705872273013,0.9999991664200517
2025/04/05 15:59:00.807866257,1743861540,807508489,,-0.00026003712813041813,0.0002077187142443062,0.0011766352518013479,0.9999992523812765
2025/04/05 15:59:00.913725478,1743861540,912415101,,-0.0002319833498743279,0.00017052969921076117,0.0011337068171795187,0.9999993159058659
2025/04/05 15:59:01.7375355,1743861541,6479976,,-0.0002557746763504198,0.00014141481156718647,0.0010990333564256714,0.9999993533532147
2025/04/05 15:59:01.106601828,1743861541,106299549,,-0.00032356968160735157,0.00012299407818468157,0.0010720186442409018,0.9999993654753708
2025/04/05 15:59:01.208060763,1743861541,207819278,,-0.00041687373489957403,0.00010189301706532822,0.0010513714227169133,0.999999355225909
2025/04/05 15:59:01.309896488,1743861541,309474350,,-0.0005155496741363565,9.52436611854348e-05,0.0010376901798901683,0.9999993241679062
2025/04/05 15:59:01.410946516,1743861541,409438812,,-0.0005984688119302841,0.0001117917282154351,0.0010318132122488666,0.9999992823493353
2025/04/05 15:59:01.514008786,1743861541,513666410,,-0.0006398887916569861,0.00013053472069260417,0.0010299582958428132,0.9999992563441884
2025/04/05 15:59:01.603140296,1743861541,602935589,,-0.0006276785925506667,0.00015598345851649818,0.0010294673428090106,0.9999992609425945
2025/04/05 15:59:01.703960439,1743861541,703746193,,-0.0005751303683649703,0.00018361475731576665,0.0010277489836999537,0.9999992896211011
2025/04/05 15:59:01.806170189,1743861541,805900506,,-0.0004949073848679361,0.00020742203075864755,0.001031349862570447,0.9999993241798929
2025/04/05 15:59:01.906678528,1743861541,905723079,,-0.0003890515145559299,0.00021907455145023913,0.0010325659836761477,0.9999993672261744
2025/04/05 15:59:02.10199950,1743861542,9007408,,-0.000287394462120247,0.0002257365572359168,0.0010327128761689489,0.9999993999755926
2025/04/05 15:59:02.111108057,1743861542,109985064,,-0.00021994568998189604,0.00021805096955064549,0.001037454200917281,0.9999994138830528
2025/04/05 15:59:02.214523509,1743861542,212451425,,-0.00019705620076949695,0.00020308061603288924,0.001043818943380622,0.9999994151843943
2025/04/05 15:59:02.302731983,1743861542,302008960,,-0.0002238299710851394,0.00018492513931809114,0.001052159648685355,0.9999994043312779
2025/04/05 15:59:02.404267543,1743861542,403813366,,-0.0002944787741025502,0.0001614681768822128,0.0010632178410418575,0.9999993783888578
2025/04/05 15:59:02.505615577,1743861542,504760479,,-0.0003904060166600062,0.00013956094872900548,0.0010762813082367522,0.9999993348619934
2025/04/05 15:59:02.606311261,1743861542,605230693,,-0.0004886981586235503,0.00012025449908254357,0.0010911178822552725,0.9999992780871055
2025/04/05 15:59:02.708163226,1743861542,707251271,,-0.0005653154463316752,0.00010942053345689016,0.0011070380440551609,0.9999992214558779
2025/04/05 15:59:02.813355175,1743861542,811356592,,-0.0006030249037411046,0.00010624081819330032,0.0011238669979795545,0.999999180998077
2025/04/05 15:59:02.903811881,1743861542,902386443,,-0.0005932827330781214,0.00011418440960791186,0.0011412114830398697,0.9999991663065876
2025/04/05 15:59:03.4966022,1743861543,4741552,,-0.0005404443046282923,0.00012931655835983377,0.0011594698548664114,0.9999991734130769
2025/04/05 15:59:03.106334959,1743861543,106099012,,-0.00045732083399194906,0.00015163069998839094,0.0011784705043300064,0.9999991895361996
2025/04/05 15:59:03.210403691,1743861543,210191444,,-0.00036580483771536996,0.00017435404828391605,0.001199160189155969,0.9999991989008428
2025/04/05 15:59:03.311132587,1743861543,310917410,,-0.00028597713990544235,0.00019813090570209888,0.0012209952800115683,0.9999991940655482
2025/04/05 15:59:03.403741997,1743861543,402450830,,-0.0002368053743892517,0.00021343135887939003,0.0012444420996518574,0.9999991748667247
2025/04/05 15:59:03.505491013,1743861543,503119552,,-0.0002214714128192028,0.00022446695328419406,0.0012625027693453595,0.9999991533255204
2025/04/05 15:59:03.604737013,1743861543,604462857,,-0.0002448129399497502,0.00021492540545639717,0.0012767177907949167,0.9999991319323118
2025/04/05 15:59:03.706925327,1743861543,706728658,,-0.0003116615968197816,0.00020598038152329582,0.0012957020385115146,0.9999990907972661
2025/04/05 15:59:03.808217231,1743861543,807916464,,-0.0004004135391010246,0.00017545307918394567,0.0013160532675187322,0.9999990384440436
2025/04/05 15:59:03.912089735,1743861543,910792572,,-0.00048163189695404185,0.00016092112489092926,0.0013311675574889355,0.9999989850635056
2025/04/05 15:59:04.6755695,1743861544,6531444,,-0.0005275018371614687,0.00012934305138137149,0.0013332106275310315,0.9999989637802679
2025/04/05 15:59:04.109620813,1743861544,106863076,,-0.0005287677216028402,0.00010752647084006786,0.0013233878967755948,0.9999989787430932
2025/04/05 15:59:04.211256751,1743861544,209155943,,-0.0004986890255824189,0.0001011705831234289,0.0013105812256039612,0.9999990117248216
2025/04/05 15:59:04.312571325,1743861544,311167642,,-0.000460318732628746,0.00011115618343063282,0.0013053348116770763,0.9999990359255336
2025/04/05 15:59:04.411545478,1743861544,410875557,,-0.0004303922000949665,0.00011210142634393424,0.0013040306832454724,0.9999990508494503
2025/04/05 15:59:04.503743362,1743861544,503112094,,-0.00040913473156007783,0.0001406094356823421,0.0013090841865050773,0.9999990495677237
2025/04/05 15:59:04.604220405,1743861544,603273831,,-0.00039153785403429057,0.0001708932339149602,0.0013175777094250178,0.9999990407408355
2025/04/05 15:59:04.710703282,1743861544,709335561,,-0.00038024158310287135,0.0001868342225849372,0.001327685870622331,0.9999990288792988
2025/04/05 15:59:04.812579064,1743861544,811811648,,-0.0003786175281524566,0.00021012720919557127,0.0013393039358641006,0.9999990093796547
2025/04/05 15:59:04.914772969,1743861544,914141200,,-0.0003938416196707354,0.00022500565094973096,0.001349793600385779,0.9999989861587221
2025/04/05 15:59:05.3878230,1743861545,2806531,,-0.00042038348857968537,0.00021750542317404192,0.001363132936925181,0.9999989589183129
2025/04/05 15:59:05.104234796,1743861545,103369532,,-0.0004437503141724132,0.0002213276759620163,0.0013780702421306767,0.999998927510488
2025/04/05 15:59:05.205642706,1743861545,205013758,,-0.00045971998120952024,0.00019517051270239567,0.0013943305773146764,0.999998903203524
2025/04/05 15:59:05.306110453,1743861545,305898499,,-0.00046436102336357046,0.00016172375781217318,0.0014116840948339264,0.9999988826805171
2025/04/05 15:59:05.408197556,1743861545,407137581,,-0.00045792677739508515,0.0001344838017410575,0.001430684190338286,0.9999988626793138
2025/04/05 15:59:05.511485018,1743861545,509128444,,-0.0004330249566137315,0.0001153071728377022,0.0014451946595075095,0.9999988553023643
2025/04/05 15:59:05.611217010,1743861545,609443989,,-0.000384637205096405,9.308381542156449e-05,0.001448042562052979,0.9999988732805464
2025/04/05 15:59:05.704777494,1743861545,703568098,,-0.00032671913932130357,8.927957318056713e-05,0.0014395076474495536,0.9999989065501496
2025/04/05 15:59:05.807070780,1743861545,805497078,,-0.0002710840276159969,9.164493389540604e-05,0.0014193016769863027,0.9999989518481536
2025/04/05 15:59:05.912371277,1743861545,910511474,,-0.000230729690163772,0.00010172831065291446,0.001387648000819852,0.9999990054235988
2025/04/05 15:59:06.8830949,1743861546,8117211,,-0.0002258963391609965,0.00013880041518550833,0.0013528275509210148,0.9999990497810016
2025/04/05 15:59:06.109400520,1743861546,109169229,,-0.0002702223298962551,0.0001578865001842684,0.0013251954773546345,0.9999990729539164
2025/04/05 15:59:06.210924036,1743861546,210295587,,-0.00035308456790339226,0.00019272688375926328,0.0013049084583279737,0.9999990677003412
2025/04/05 15:59:06.302199580,1743861546,301751800,,-0.00045742918017456085,0.00022449114233824677,0.001293356792233004,0.9999990337947733
2025/04/05 15:59:06.403260182,1743861546,403045988,,-0.0005570792074022407,0.00024052324033753967,0.0012898495017442026,0.9999989840492791
2025/04/05 15:59:06.505068790,1743861546,504889798,,-0.0006270816546358887,0.000243620596505517,0.001292900418828459,0.9999989379124912
2025/04/05 15:59:06.610986405,1743861546,608941536,,-0.0006482028762337712,0.0002390816301662335,0.001299276058898795,0.9999989172767779
2025/04/05 15:59:06.711792437,1743861546,709501354,,-0.0006150964370395184,0.00021658293017287494,0.0013081872572025624,0.9999989316965832
2025/04/05 15:59:06.812160544,1743861546,810802828,,-0.0005359431299057256,0.00018606422866727638,0.0013191041012802793,0.9999989690541857
2025/04/05 15:59:06.907672070,1743861546,906365281,,-0.0004301130465004808,0.00014930172956721744,0.0013319292208953206,0.999999009337665
2025/04/05 15:59:07.3478816,1743861547,3151650,,-0.000321727444956539,0.00012662165809726233,0.0013465449908176092,0.9999990336370304
2025/04/05 15:59:07.105717647,1743861547,105369811,,-0.00023525522511371716,9.316378386175731e-05,0.00136279032730574,0.9999990393885447
2025/04/05 15:59:07.206731741,1743861547,206517247,,-0.00019025946534687816,8.121676656729626e-05,0.0013804851690977888,0.9999990257324607
2025/04/05 15:59:07.309768971,1743861547,309571709,,-0.0001984135176089425,8.130465960166014e-05,0.0014005409864214623,0.9999989962527831
2025/04/05 15:59:07.408284126,1743861547,408111011,,-0.00025473895813161817,0.0001041652345762241,0.0014219487831054105,0.9999989511591126
2025/04/05 15:59:07.511289357,1743861547,509245944,,-0.00034457709614413057,0.00012242748011341366,0.0014446221523205297,0.9999988896718706
2025/04/05 15:59:07.612039879,1743861547,610209667,,-0.0004474998685770309,0.0001647177555144397,0.0014691139628848872,0.9999988071573349
2025/04/05 15:59:07.713879516,1743861547,713597051,,-0.0005384539168257148,0.00018454391698126017,0.0014947321935016428,0.9999987208924779
2025/04/05 15:59:07.802870521,1743861547,801786003,,-0.0005966886045066832,0.00021570363200365972,0.0015211805064574658,0.9999986417213371
2025/04/05 15:59:07.905496485,1743861547,905290275,,-0.0006177408911648625,0.00022005681884106138,0.0015452862751937507,0.9999985910297652
2025/04/05 15:59:08.6200548,1743861548,5489338,,-0.000598036799081056,0.00022577839826318845,0.0015750031452035848,0.9999985553695537
2025/04/05 15:59:08.107635014,1743861548,107473905,,-0.0005346844767163466,0.00020354558889220203,0.0016080280500102631,0.9999985434626862
2025/04/05 15:59:08.210128500,1743861548,208151558,,-0.00044295748751917933,0.0001872512520857294,0.0016417682483673755,0.9999985366602551
2025/04/05 15:59:08.309671552,1743861548,308951086,,-0.00034392614765653206,0.0001499584403246878,0.0016759057528922658,0.9999985252825019
2025/04/05 15:59:08.411120869,1743861548,410545350,,-0.00026051424860097,0.00013013876108986804,0.001710276328415093,0.9999984950744224
2025/04/05 15:59:08.513330850,1743861548,512110468,,-0.0002114453575643993,9.943359102417477e-05,0.0017449444098776798,0.9999984502852133
2025/04/05 15:59:08.603903940,1743861548,602361106,,-0.00020761934856474877,9.424441323210292e-05,0.001779928166634658,0.999998389932663
2025/04/05 15:59:08.704236574,1743861548,703154217,,-0.0002479383128806087,8.459482710775765e-05,0.0018148483059280962,0.9999983188465542
2025/04/05 15:59:08.805164111,1743861548,804678156,,-0.0003224168113808112,0.00010201351566015807,0.0018497080929248842,0.999998232108744
2025/04/05 15:59:08.907559610,1743861548,906405733,,-0.0004127370724208069,0.00011240124502592129,0.0018843960263444967,0.9999981330310997
2025/04/05 15:59:09.8916253,1743861549,7258221,,-0.0005012564916635626,0.00014383655181768527,0.0019205652275519262,0.9999980197391306
2025/04/05 15:59:09.109825109,1743861549,109563683,,-0.0005600874687264602,0.00015902089929952114,0.0019525241476213173,0.9999979243297628
2025/04/05 15:59:09.209569221,1743861549,209201777,,-0.0005774372659399623,0.0001864811646206781,0.001980546600335001,0.9999978546107702
2025/04/05 15:59:09.310535975,1743861549,310096881,,-0.0005578258744986701,0.00019344730401922401,0.0020109798071709954,0.9999978036819128
2025/04/05 15:59:09.404251382,1743861549,403841322,,-0.000496968377440748,0.00020872535255954297,0.0020365221170652826,0.9999977810144509
2025/04/05 15:59:09.506519840,1743861549,505151683,,-0.00040189953150174246,0.00019670364559425376,0.0020507695844686194,0.9999977970618504
2025/04/05 15:59:09.611580432,1743861549,611365587,,-0.00030513113109780957,0.00019176903085674663,0.0020609152808084867,0.9999978113715234
2025/04/05 15:59:09.716147676,1743861549,715584836,,-0.00024002452378690803,0.00016638163470097302,0.0020758559350622474,0.9999978027613443
2025/04/05 15:59:09.803905336,1743861549,803221809,,-0.00021969128441341903,0.00015582027680056994,0.002094618516251362,0.9999977700120397
2025/04/05 15:59:09.906195022,1743861549,905483484,,-0.00024312779071099233,0.00013231137402842916,0.002114223811967844,0.9999977267175414
2025/04/05 15:59:10.12367545,1743861550,12119864,,-0.00030388280863346374,0.00012839725243496655,0.0021344789202029815,0.9999976675818416
2025/04/05 15:59:10.108368810,1743861550,107247539,,-0.00038946422704283344,0.00011456710356170838,0.0021567233289814048,0.9999975918653389
2025/04/05 15:59:10.210253093,1743861550,210064220,,-0.0004725642030112622,0.00012292593335337714,0.002175382502221375,0.9999975146385405
2025/04/05 15:59:10.312073602,1743861550,311786832,,-0.0005360392482239579,0.00012090301667127198,0.0021916134364438327,0.9999974474342073
2025/04/05 15:59:10.403320285,1743861550,402744219,,-0.0005652391275721338,0.0001399670242121442,0.0022053605729645373,0.9999973986459685
2025/04/05 15:59:10.504727996,1743861550,504147386,,-0.0005540116868145011,0.00014707471621756008,0.002216258685320514,0.9999973798153265
2025/04/05 15:59:10.607242131,1743861550,605863867,,-0.0005166660056083206,0.0001722839510563058,0.00223228763215877,0.9999973601297186
2025/04/05 15:59:10.706894535,1743861550,706043797,,-0.0004494950960919958,0.0001785601589353714,0.0022444295544123095,0.9999973642997283
2025/04/05 15:59:10.807984231,1743861550,807158259,,-0.00036032741092829966,0.0001942202545490864,0.0022460346180190965,0.9999973938821762
2025/04/05 15:59:10.912103038,1743861550,911070642,,-0.00028099018313703923,0.00018794478223631484,0.0022450924729913364,0.9999974226372104
2025/04/05 15:59:11.12507931,1743861551,9517418,,-0.00024168741785853952,0.00019313107293817135,0.0022504912090091423,0.9999974197851207
2025/04/05 15:59:11.110465963,1743861551,110211980,,-0.0002460116249062639,0.00017878460848694294,0.002259630351141852,0.9999974007891322
2025/04/05 15:59:11.202663199,1743861551,202065068,,-0.00028795950258980843,0.00017670379317195567,0.0022697118092121116,0.9999973671282327
2025/04/05 15:59:11.317536245,1743861551,314531462,,-0.00035593253182286325,0.00015783547498930797,0.0022803006705045844,0.9999973243108442
2025/04/05 15:59:11.404061844,1743861551,403200358,,-0.00043308811618633116,0.00015397391784474323,0.0022910190428735437,0.9999972699755042
2025/04/05 15:59:11.504158519,1743861551,503150645,,-0.0004953140439559256,0.00013397452301987448,0.002297275840584892,0.9999972296154311
2025/04/05 15:59:11.614047614,1743861551,612431817,,-0.0005219135268357447,0.00013133267848436237,0.0022931777954160342,0.9999972258429504
2025/04/05 15:59:11.714440054,1743861551,713015997,,-0.0005077858033493292,0.00011740467587991864,0.0022788009433166805,0.9999972677142577
2025/04/05 15:59:11.812434162,1743861551,810846973,,-0.00046981571708895603,0.00012587971550847971,0.002262628202188396,0.999997321966968
2025/04/05 15:59:11.906275029,1743861551,903604457,,-0.0004290254347917059,0.00012669937248495607,0.0022538434892015974,0.999997360033501
2025/04/05 15:59:12.5413866,1743861552,5015807,,-0.0003835229946800198,0.00014955144130895674,0.0022441830379257583,0.999997397090098
2025/04/05 15:59:12.107114082,1743861552,105615694,,-0.0003429932053371094,0.00015916211916504658,0.0022327820781209455,0.9999974358503488
2025/04/05 15:59:12.208296740,1743861552,208013479,,-0.0003182525676315082,0.00018473539565385842,0.0022209230524357607,0.9999974660412555
2025/04/05 15:59:12.308995371,1743861552,308638883,,-0.00030128044747624433,0.00018902520260487846,0.0021988660270042494,0.9999975192408029
2025/04/05 15:59:12.410925204,1743861552,409736338,,-0.0003053557378416732,0.00020280336455545507,0.0021737654218672692,0.9999975701833277
2025/04/05 15:59:12.512639802,1743861552,511031137,,-0.0003427313575450579,0.00019488563699653942,0.002155922694771892,0.9999975982731855
2025/04/05 15:59:12.606014597,1743861552,605170980,,-0.0003936107521557244,0.0001956771292961041,0.0021375231867589335,0.9999976188849966
2025/04/05 15:59:12.704002153,1743861552,703760168,,-0.0004447665468035302,0.00017464364462028086,0.00211753834350001,0.9999976438540643
2025/04/05 15:59:12.808114869,1743861552,806802887,,-0.000496795429614728,0.00016749159278902482,0.0021052617125620642,0.9999976465042251
2025/04/05 15:59:12.908048309,1743861552,907414092,,-0.0005326388358445098,0.00014566246065548567,0.0020977662319477458,0.9999976472248093
2025/04/05 15:59:13.10637152,1743861553,9527248,,-0.0005330490985048588,0.00014278378031527846,0.0020864927877866563,0.9999976710069365
2025/04/05 15:59:13.109594259,1743861553,109425327,,-0.0004903849249024879,0.00012685954734801899,0.0020648121236632277,0.9999977399875335
2025/04/05 15:59:13.210195738,1743861553,210020139,,-0.00042509508316242016,0.00013098504660197322,0.0020398575389501874,0.9999978205567793
2025/04/05 15:59:13.303856262,1743861553,302648961,,-0.00036358224394698776,0.00012541996646988788,0.0020204682737645467,0.9999978848906325
2025/04/05 15:59:13.405759131,1743861553,405068401,,-0.0003164137342571025,0.0001419680182290103,0.0020040708292853736,0.999997931711632
2025/04/05 15:59:13.508355782,1743861553,506549597,,-0.0002852212722050751,0.0001454825024856936,0.001984115110344313,0.9999979803834087
2025/04/05 15:59:13.609638421,1743861553,609327372,,-0.00026957514448487364,0.0001645013819917063,0.0019544174464915893,0.9999980402585705
2025/04/05 15:59:13.706431207,1743861553,702192461,,-0.0002846771609102315,0.00016661469210177947,0.0019235831909095225,0.9999980955112695
2025/04/05 15:59:13.803571507,1743861553,803143033,,-0.0003276711856094145,0.00018330337160099266,0.0018928380632338305,0.9999981380960339
2025/04/05 15:59:13.906625218,1743861553,906291469,,-0.0003863304169489221,0.0001788662570503612,0.00186091730461456,0.9999981778695681
2025/04/05 15:59:14.9176084,1743861554,8204714,,-0.0004598636324780868,0.00018683236348179797,0.0018372616026465865,0.9999981890428157
2025/04/05 15:59:14.108361930,1743861554,108009486,,-0.000526375424228055,0.00017561260697170116,0.0018192437984792978,0.9999981912189275
2025/04/05 15:59:14.211407012,1743861554,209948444,,-0.000558564695843953,0.0001762043207474343,0.0017979991372114002,0.9999982120767119
2025/04/05 15:59:14.311540305,1743861554,310577621,,-0.000549934151495232,0.00015822354737415935,0.0017737318754213927,0.9999982632049779
2025/04/05 15:59:14.403191577,1743861554,402897776,,-0.0005109551223594546,0.00015670669683625295,0.0017523935531796615,0.9999983217409462
2025/04/05 15:59:14.505145386,1743861554,503878406,,-0.00044914007970682637,0.0001412084559163729,0.0017326083121043763,0.9999983881995999
2025/04/05 15:59:14.606827539,1743861554,605248889,,-0.000380259243839607,0.00014502495633022207,0.0017147525656193677,0.9999984469959482
2025/04/05 15:59:14.708913747,1743861554,707546564,,-0.0003220052382871064,0.00013802188473522846,0.0016998443911057665,0.9999984938946818
2025/04/05 15:59:14.810969261,1743861554,808469887,,-0.0002886880963998617,0.00015031090056316393,0.0016884151418399126,0.9999985216589697
2025/04/05 15:59:14.912880562,1743861554,910991589,,-0.0002863383311050217,0.00015002035511058965,0.001679974089878981,0.9999985365945845
2025/04/05 15:59:15.6701020,1743861555,5644612,,-0.0003061764936723267,0.00016792625043480857,0.0016681159826926787,0.9999985477218442
2025/04/05 15:59:15.107413895,1743861555,105735055,,-0.0003343188016251688,0.0001667870973743011,0.0016460265997959365,0.9999985755037033
2025/04/05 15:59:15.206385496,1743861555,206211055,,-0.0003742985757452588,0.00017799765423168,0.0016210977291150478,0.9999986001288022
2025/04/05 15:59:15.307871832,1743861555,307672053,,-0.0004179810206471857,0.0001694947392282818,0.0015951186922524435,0.9999986260789349
2025/04/05 15:59:15.409783687,1743861555,408394874,,-0.0004442730733887366,0.0001720843750684418,0.0015593333888192008,0.9999986707430099
2025/04/05 15:59:15.509699073,1743861555,508631686,,-0.00045888508575325554,0.0001560866526154024,0.001522041780554273,0.9999987242243128
2025/04/05 15:59:15.609497027,1743861555,609231136,,-0.0004712992167185538,0.00015617945491114656,0.0014924525306796732,0.9999987630344699
2025/04/05 15:59:15.712079836,1743861555,711800080,,-0.00047809955480576665,0.0001426068182358075,0.001470395011860872,0.9999987945105835
2025/04/05 15:59:15.803162203,1743861555,802093967,,-0.00047674944791827604,0.00014836025691712415,0.0014550185636081933,0.9999988168093888
2025/04/05 15:59:15.908449725,1743861555,906410230,,-0.00046150893911880975,0.00014214110622768093,0.0014424451030601298,0.9999988430780956
2025/04/05 15:59:16.10481312,1743861556,8566746,,-0.00043378135943132785,0.00015608413954306132,0.0014311761936834446,0.9999988696024492
2025/04/05 15:59:16.103470502,1743861556,101964907,,-0.00040204426217950565,0.00015743513519579866,0.0014222750819063803,0.9999988953534803
2025/04/05 15:59:16.206429375,1743861556,202827035,,-0.00037287354965827004,0.00017754749851623286,0.001415190664967736,0.9999989133382013
2025/04/05 15:59:16.303794475,1743861556,303648069,,-0.0003504534290791803,0.00018024812284970793,0.0014087487987039145,0.9999989300593428
2025/04/05 15:59:16.404774237,1743861556,404233188,,-0.00034081246141217617,0.00019550909532824827,0.0014032897822991218,0.9999989381998596
2025/04/05 15:59:16.505433205,1743861556,505170246,,-0.00034620831328407655,0.00019022512433418634,0.0013990862475661693,0.9999989432553805
2025/04/05 15:59:16.606834027,1743861556,606390020,,-0.000360057846922886,0.0001950021073558012,0.0013916026147519083,0.9999989478867903
2025/04/05 15:59:16.710686341,1743861556,710326801,,-0.0003806823956062461,0.0001780202621560381,0.0013818749264002798,0.9999989569051498
2025/04/05 15:59:16.808273778,1743861556,807962257,,-0.0004132234778996722,0.00017473549532649502,0.0013773786500171298,0.9999989507704088
2025/04/05 15:59:16.910184561,1743861556,909152456,,-0.0004478164343230677,0.00015411143636837426,0.0013766308896756764,0.9999989402981885
2025/04/05 15:59:17.10658004,1743861557,10222834,,-0.000475715402210429,0.00014998773166388153,0.0013790740444024206,0.9999989246760801
2025/04/05 15:59:17.111931376,1743861557,110999928,,-0.000489139983955671,0.00013282521481454258,0.0013839924746786275,0.9999989138315943
2025/04/05 15:59:17.203121517,1743861557,202885472,,-0.0004873243432024776,0.00013645855849947635,0.001392301436655935,0.9999989026947759
2025/04/05 15:59:17.303457497,1743861557,303070064,,-0.0004706847048801583,0.00012939651372413492,0.0014039131008461334,0.999998895369618
2025/04/05 15:59:17.404734880,1743861557,404234522,,-0.0004339089604905669,0.00014272991925937697,0.0014118854762135283,0.999998898964687
2025/04/05 15:59:17.505520811,1743861557,505211681,,-0.0003884677420060877,0.000143915236343558,0.0014176410646998287,0.9999989093369201
2025/04/05 15:59:17.607955588,1743861557,607612381,,-0.0003526097448268882,0.00016391463699003754,0.0014273389603645828,0.9999989057503272
2025/04/05 15:59:17.710527701,1743861557,709037990,,-0.00032812304241775755,0.00016860819065296867,0.0014372635170432245,0.9999988990894588
2025/04/05 15:59:17.810914512,1743861557,810065509,,-0.000315577340116647,0.00018717805527878706,0.001442984934501279,0.9999988915842841
2025/04/05 15:59:17.904135346,1743861557,903867352,,-0.00031995915136470476,0.00018600028094377643,0.0014458870102940125,0.999998886219775
2025/04/05 15:59:18.5775211,1743861558,4559750,,-0.00034775116851070245,0.00019740347174075794,0.0014523197903560632,0.9999988654334667
2025/04/05 15:59:18.106141985,1743861558,105575551,,-0.0003838511730857087,0.00018579650315717855,0.001455562096841832,0.9999988497377977
2025/04/05 15:59:18.207355329,1743861558,207178211,,-0.00042353177646589255,0.00018299962512295542,0.0014587224599284976,0.9999988296296933
2025/04/05 15:59:18.307523964,1743861558,306483193,,-0.0004589693507807549,8.349161266807966e-05,0.0015431748079628442,0.9999987004930545
2025/04/05 15:59:18.409215318,1743861558,408170765,,-0.000469054848862364,-6.000523485036427e-05,0.0016711945770600592,0.9999984917466657
2025/04/05 15:59:18.510024031,1743861558,509412599,,-0.00046245553893526866,-0.00016870976922985696,0.0017929626605173573,0.9999982714768992
2025/04/05 15:59:18.604032424,1743861558,603859539,,-0.0004441233642842518,-0.0002166391648868408,0.0019097996585624312,0.9999980542416939
2025/04/05 15:59:18.703305989,1743861558,702805051,,-0.00041411806714041025,-0.0001998018426203183,0.002019758976550199,0.999997854577262
2025/04/05 15:59:18.805791097,1743861558,804528323,,-0.00039201246865987703,-0.0001274659653806517,0.0021324801956269708,0.9999976413006519
2025/04/05 15:59:18.906076028,1743861558,905396952,,-0.00037156677472719287,-4.37390375168302e-06,0.0022396714043512404,0.99999742289218
2025/04/05 15:59:19.8166359,1743861559,7260904,,-0.0003440779504025578,0.0001534453216335586,0.002330785042486817,0.9999972127491071
2025/04/05 15:59:19.111063160,1743861559,110114246,,-0.00031699747215092216,0.00029231399110155097,0.002406329195762265,0.9999970118180028
2025/04/05 15:59:19.203819139,1743861559,203643099,,-0.00029697352042643753,0.0004194544091570305,0.002467294964180156,0.9999968241551003
2025/04/05 15:59:19.305996345,1743861559,305670160,,-0.00028857891439332294,0.00048602623139177285,0.0025143463405342633,0.9999966792760826
2025/04/05 15:59:19.406549988,1743861559,406319684,,-0.0002938999730807159,0.0004958502942094604,0.002548359865542838,0.9999965868028187
2025/04/05 15:59:19.511062690,1743861559,509336208,,-0.0003120526290323098,0.00044366008200560713,0.0025696203281342753,0.9999965514141824
2025/04/05 15:59:19.612182188,1743861559,610967468,,-0.0003392311218508336,0.00034636552348345776,0.002578838712862242,0.9999965572661054
2025/04/05 15:59:19.702444115,1743861559,701887636,,-0.000369121724436918,0.00021489320050671287,0.002576619347567219,0.9999965892955849
2025/04/05 15:59:19.804424172,1743861559,803526714,,-0.0003983243732703371,7.797348340423132e-05,0.0025645595289636356,0.9999966291404446
2025/04/05 15:59:19.905901196,1743861559,905653271,,-0.0004214592754600257,-4.359613064934161e-05,0.0025439066065094645,0.9999966744997875
2025/04/05 15:59:20.8045967,1743861560,7806611,,-0.0004427630618244102,-0.00012391635933552307,0.002521737463550034,0.9999967147174894
2025/04/05 15:59:20.110505336,1743861560,108954985,,-0.00047005068022727204,-0.00015090473799333443,0.002506780523785348,0.9999967361604355
2025/04/05 15:59:20.212023141,1743861560,210343893,,-0.0004950520903593486,-0.00011708984352462956,0.002498346192977141,0.9999967497345661
2025/04/05 15:59:20.302836799,1743861560,301892129,,-0.0005120243479158291,-3.225833676821236e-05,0.0024963418438039373,0.9999967525286598
2025/04/05 15:59:20.402487387,1743861560,402212011,,-0.0005069094091729502,9.091206504421173e-05,0.002493374067272009,0.9999967589265517
2025/04/05 15:59:20.504830035,1743861560,504312388,,-0.00048082226528217497,0.0002263669198182409,0.0024885261740015758,0.999996762397483
2025/04/05 15:59:20.607288503,1743861560,605914291,,-0.0004413274300064678,0.0003522125619412228,0.002483008092604994,0.9999967579183558
2025/04/05 15:59:20.705999860,1743861560,705535411,,-0.00039564370562977227,0.0004429183888632826,0.002475206265884691,0.9999967603164024
2025/04/05 15:59:20.807041998,1743861560,806251566,,-0.0003552451411883644,0.0004855566754185341,0.002466508875498806,0.9999967771795926
2025/04/05 15:59:20.908352659,1743861560,906807047,,-0.0003279641512963025,0.00047294285850808576,0.002455698993609342,0.9999968191484515
2025/04/05 15:59:21.9679130,1743861561,8539754,,-0.0003204859914467181,0.00040765955699266314,0.002444201058554568,0.9999968784869282
2025/04/05 15:59:21.109354163,1743861561,109111081,,-0.0003333005183124584,0.00029624019156136586,0.002430752403151046,0.9999969462929714
2025/04/05 15:59:21.211188278,1743861561,210056054,,-0.0003635143175052801,0.00016576080865747398,0.0024164777970829394,0.9999970005033773
2025/04/05 15:59:21.303428731,1743861561,302372238,,-0.00040294903728157225,3.729983945089112e-05,0.002400274453442713,0.9999970374572834
2025/04/05 15:59:21.403300862,1743861561,402836358,,-0.000442620010188781,-6.672462392401729e-05,0.002383312779060223,0.9999970597234515
2025/04/05 15:59:21.504871047,1743861561,503548550,,-0.0004726410681028277,-0.00013162750679869908,0.0023643131359695436,0.999997084649758
2025/04/05 15:59:21.605942278,1743861561,605720573,,-0.0004983115839705519,-0.0001296881338229801,0.0023519738504093335,0.9999971015385796
2025/04/05 15:59:21.708889680,1743861561,708363334,,-0.0005137287696809708,-7.985471201635713e-05,0.002346364069833068,0.9999971121366441
2025/04/05 15:59:21.803486858,1743861561,803200527,,-0.0005037075403337281,1.5847000142294633e-05,0.002339203943618926,0.9999971370721501
2025/04/05 15:59:21.903724933,1743861561,903463751,,-0.0004699123478653211,0.0001406681110653616,0.002328576301714457,0.999997168559629
2025/04/05 15:59:22.3708913,1743861562,3436079,,-0.0004223077761835179,0.00026678554562380104,0.0023160861868120218,0.9999971931092557
2025/04/05 15:59:22.106974061,1743861562,105442374,,-0.00035744393652421857,0.0003752228349588339,0.0022915476196506486,0.9999972401217732
2025/04/05 15:59:22.207571978,1743861562,206787498,,-0.00029066982360364467,0.0004397028114784665,0.0022559343868245314,0.9999973164626661
2025/04/05 15:59:22.308617596,1743861562,307550587,,-0.00025017067792854113,0.00045188487071583016,0.00221785513744955,0.999997407163281
2025/04/05 15:59:22.409941049,1743861562,409732254,,-0.0002588064437411843,0.000412878897191069,0.0021875138168042183,0.9999974886636177
2025/04/05 15:59:22.503780908,1743861562,502904690,,-0.0003117118549610002,0.00033736392657358265,0.002164122563089422,0.9999975527944218
2025/04/05 15:59:22.604528509,1743861562,604006020,,-0.0003928212073985164,0.00022560241367222501,0.0021465885738624043,0.9999975934733766
2025/04/05 15:59:22.705345612,1743861562,704718362,,-0.0004819815434587602,0.0001146269044391146,0.002134475009124472,0.9999975992825683
2025/04/05 15:59:22.808209638,1743861562,807819773,,-0.0005593039049056089,8.578060372573321e-06,0.0021277649586176977,0.9999975798579913
