time,header_stamp_secs,header_stamp_nsecs,header_frame_id,wrench_force_x,wrench_force_y,wrench_force_z,wrench_torque_x,wrench_torque_y,wrench_torque_z
2025/05/06 15:48:33.265404506,1746539313,260616481,,-0.0,0.0,0.0,0.0,0.0,0.0
2025/05/06 15:48:33.354474861,1746539313,339509637,,-0.0,0.0,0.0,0.0,0.0,0.0
2025/05/06 15:48:33.422618203,1746539313,420963884,,0.1576990783214569,2.9842577667236014,0.0,0.0,0.0,-0.02344370074570179
2025/05/06 15:48:33.502439796,1746539313,502140960,,0.1576990783214569,-3.5213842332763647,0.0,0.0,0.0,-0.02344370074570179
2025/05/06 15:48:33.592116956,1746539313,589000704,,0.1576995998620987,3.2005653926274817,0.0,0.0,0.0,-0.023565642535686493
2025/05/06 15:48:33.648469438,1746539313,648261641,,0.1576995998620987,-3.3074556660545227,0.0,0.0,0.0,-0.023565642535686493
2025/05/06 15:48:33.736228286,1746539313,735913695,,0.15770012140274048,3.412142024487082,0.0,0.0,0.0,-0.023687584325671196
2025/05/06 15:48:33.837765712,1746539313,836519712,,0.15770037472248077,-3.0981917363372418,0.0,0.0,0.0,-0.023748554289340973
2025/05/06 15:48:33.962687700,1746539313,962512336,,0.15770062804222107,3.619089285238033,0.0,0.0,0.0,-0.0238095261156559
2025/05/06 15:48:34.38036865,1746539314,36242386,,-0.22924058243083323,-15.431622857544085,0.0,0.0,0.0,0.2673265785829102
2025/05/06 15:48:34.136071503,1746539314,134954063,,-0.22485506683386802,-8.861324152381883,0.0,0.0,0.0,0.26381816610533804
2025/05/06 15:48:34.240544208,1746539314,240241466,,-0.22051749388523945,-2.3633235285086585,0.0,0.0,0.0,0.26028625302630815
2025/05/06 15:48:34.345942665,1746539314,345490949,,-0.21622734783872488,2.9756471360369687,0.0,0.0,0.0,-0.2596266697341463
2025/05/06 15:48:34.440528694,1746539314,439727941,,-0.21198467012820288,-3.8125577932046326,0.0,0.0,0.0,-0.2574027387334894
2025/05/06 15:48:34.557077294,1746539314,556101697,,-0.20778865859423945,2.629907280005341,0.0,0.0,0.0,-0.2552039539983042
2025/05/06 15:48:34.665403832,1746539314,661753425,,-0.20363909793212542,-4.154472126176358,0.0,0.0,0.0,-0.2529679457811227
2025/05/06 15:48:34.756068573,1746539314,755867936,,-0.19953489931523904,2.2917518455775507,0.0,0.0,0.0,-0.2508186305181823
2025/05/06 15:48:34.856007754,1746539314,855874360,,-0.19547553084441915,-4.4889538999434535,0.0,0.0,0.0,-0.24875573020214858
2025/05/06 15:48:34.940350788,1746539314,940078732,,-0.1914611217946458,1.960950502379717,0.0,0.0,0.0,-0.24665479842516902
2025/05/06 15:48:35.37788541,1746539315,37594402,,-0.2556296463397416,2.689179523477094,0.0,0.0,0.0,-0.35220853492492665
2025/05/06 15:48:35.173295009,1746539315,171777908,,-0.25170334547320294,-4.0132951452050065,0.0,0.0,0.0,-0.35009283118756684
2025/05/06 15:48:35.236996710,1746539315,236197239,,-0.2478199805964607,2.5139307045874375,0.0,0.0,0.0,-0.3481335271655155
2025/05/06 15:48:35.393417426,1746539315,391866462,,-0.24397958326656521,-4.1866165208186885,0.0,0.0,0.0,-0.34606411291031236
2025/05/06 15:48:35.506872069,1746539315,502047964,,-0.24018143030730243,2.3425422732547077,0.0,0.0,0.0,-0.34401746221190876
2025/05/06 15:48:35.622595150,1746539315,616137601,,-0.2681296691068553,0.08512015442505572,0.0,0.0,0.0,-0.3160647826533136
2025/05/06 15:48:35.742636833,1746539315,740195389,,-0.26441461593620375,-6.5398565167571405,0.0,0.0,0.0,-0.3140629106255375
2025/05/06 15:48:35.869189610,1746539315,865790377,,-0.2607403314928831,0.06402820400330711,0.0,0.0,0.0,-0.3122140105945874
2025/05/06 15:48:36.84439667,1746539316,76995205,,-0.2571065599705378,-6.5607166025899915,0.0,0.0,0.0,-0.3102559375249285
2025/05/06 15:48:36.202083387,1746539316,197844871,,-0.25351261092333743,0.04339027969126619,0.0,0.0,0.0,-0.3085158303659057
2025/05/06 15:48:36.341610837,1746539316,329142358,,-0.24995834268813155,-6.581127735278585,0.0,0.0,0.0,-0.306600597976896
2025/05/06 15:48:36.475218880,1746539316,460164132,,-0.2464431714035129,0.023223947916108045,0.0,0.0,0.0,-0.30470643314410495
2025/05/06 15:48:36.576863786,1746539316,576576096,,-0.2429666670030315,-6.601072237404253,0.0,0.0,0.0,-0.3028331041245593
2025/05/06 15:48:37.8310818,1746539317,6684281,,0.07853704544450579,-26.450587468396975,0.0,0.0,0.0,-0.10510326927602875
2025/05/06 15:48:37.196608911,1746539317,184718692,,0.081937487405213,-19.918666677478768,0.0,0.0,0.0,-0.103270926822006
2025/05/06 15:48:37.399183129,1746539317,274638104,,0.08530547168984981,-13.458867858766496,0.0,0.0,0.0,-0.10180245776982133
2025/05/06 15:48:37.463749152,1746539317,385858129,,0.08863151538088232,-7.069858962832768,0.0,0.0,0.0,-0.10001020513634273
2025/05/06 15:48:37.526754819,1746539317,479125487,,0.2173654444274291,-1.368794386922275,0.0,0.0,0.0,-0.17203081310989887
2025/05/06 15:48:37.680757988,1746539317,617185760,,0.22061985009682417,-1.6252488562466283,0.0,0.0,0.0,-0.17033817037210497
2025/05/06 15:48:37.768096207,1746539317,711426889,,0.22383733727295407,-1.878846485420354,0.0,0.0,0.0,-0.16860441387348146
2025/05/06 15:48:37.857874437,1746539317,792551845,,0.22702175667131996,-2.1297289272698663,0.0,0.0,0.0,-0.16701052309690567
2025/05/06 15:48:37.892621745,1746539317,863059784,,0.23016884844554397,-2.3777780939149125,0.0,0.0,0.0,-0.16531469945668675
2025/05/06 15:48:38.30522421,1746539317,984060490,,0.23328245469849662,-2.623136866699383,0.0,0.0,0.0,-0.1636979270767398
2025/05/06 15:48:38.109193482,1746539318,102314456,,0.23636182374005443,-2.865795205251459,0.0,0.0,0.0,-0.16209960356221131
2025/05/06 15:48:38.257313300,1746539318,221572411,,0.23940846466777543,-3.1058228476878753,0.0,0.0,0.0,-0.1605799231757885
2025/05/06 15:48:38.425662448,1746539318,423378518,,0.24241935248349478,-3.3431366177134123,0.0,0.0,0.0,-0.15895749361142464
2025/05/06 15:48:38.586026482,1746539318,573220725,,-0.04293221253368529,5.636942847239652,0.0,0.0,0.0,-0.1656030727777278
2025/05/06 15:48:38.793926249,1746539318,719186458,,-0.03998719993248301,-1.1008207348115775,0.0,0.0,0.0,-0.16401614034988654
2025/05/06 15:48:38.838393957,1746539318,809320108,,-0.03707325626652391,-3.0618083416538866,0.0,0.0,0.0,1.1154346624357885
2025/05/06 15:48:38.921419864,1746539318,904699723,,-0.0341926775959962,1.8413999404327797,0.0,0.0,0.0,-1.796356911779597
2025/05/06 15:48:39.182731841,1746539319,60792331,,-0.031342906122318936,-1.565640787777113,0.0,0.0,0.0,4.143244836168975
2025/05/06 15:48:39.253532783,1746539319,219368045,,-0.02852535163253833,1.6428232843564956,0.0,0.0,0.0,-1.8227688989029076
2025/05/06 15:48:39.423310570,1746539319,342166473,,119.4601943049746,6.780059886044228,0.0,0.0,0.0,2.2508804799998927
2025/05/06 15:48:39.659371089,1746539319,483373679,,112.8849502141897,1.9041217028815254,0.0,0.0,0.0,2.202617475609898
2025/05/06 15:48:39.781855657,1746539319,626459545,,106.85754345195812,-17.261670310825025,0.0,0.0,0.0,0.9815222238050723
2025/05/06 15:48:40.17850882,1746539319,797219692,,100.4261591266355,-10.763474743420943,0.0,0.0,0.0,0.9841643073346376
2025/05/06 15:48:40.178106576,1746539319,959704748,,96.64195130330546,-5.149354483055561,0.0,0.0,0.0,-0.17342405521930004
2025/05/06 15:48:40.733160897,1746539320,453848291,,90.35127923563655,-1.7501968294474182,0.0,0.0,0.0,-2.738395386808236
2025/05/06 15:48:41.11375487,1746539320,745647217,,91.10982317643467,7.055666106894307,0.0,0.0,0.0,-2.85144661058591
2025/05/06 15:48:41.443453275,1746539321,106634011,,84.95678472293434,2.22255493748645,0.0,0.0,0.0,-4.075030010454654
2025/05/06 15:48:41.831017538,1746539321,498979509,,91.93064905277404,0.16451022216710953,0.0,0.0,0.0,-4.0724875154107565
2025/05/06 15:48:42.58209337,1746539321,835076623,,85.91223292759781,-0.2632074077201878,0.0,0.0,0.0,-3.607769471118914
2025/05/06 15:48:42.841603778,1746539322,541016339,,92.09778579625942,5.541481772841962,0.0,0.0,0.0,-4.58911380732718
2025/05/06 15:48:43.172933212,1746539322,886993991,,105.01952936636775,4.191123604049437,0.0,0.0,0.0,-4.206290509368159
2025/05/06 15:48:43.537036370,1746539323,176947228,,99.26158613452421,2.7095923797521095,0.0,0.0,0.0,-2.671163763330398
2025/05/06 15:48:44.222338123,1746539324,82982148,,126.41369230749197,0.060383608519941845,0.0,0.0,0.0,-1.157125367607435
2025/05/06 15:48:44.399589968,1746539324,326763773,,120.90494888205096,0.3373820880837002,0.0,0.0,0.0,-0.6250453547103803
2025/05/06 15:48:44.518418198,1746539324,482724509,,110.54243395850855,0.5513677110094477,0.0,0.0,0.0,-0.2727627161936397
2025/05/06 15:48:44.583359017,1746539324,577905413,,105.15421633047276,0.6131097331665956,0.0,0.0,0.0,5.196289243187721
2025/05/06 15:48:44.901122691,1746539324,899701605,,91.47425444790788,41.84541384311285,0.0,0.0,0.0,5.229107285748086
2025/05/06 15:48:45.74780166,1746539325,71267868,,84.36128911382464,35.170712286596654,0.0,0.0,0.0,5.143709239694417
2025/05/06 15:48:45.161319000,1746539325,156825436,,79.11315288523272,28.72277528548949,0.0,0.0,0.0,5.093496813180309
2025/05/06 15:48:45.260276346,1746539325,257196301,,74.75827166785064,23.256522832050905,0.0,0.0,0.0,3.2371099869254607
2025/05/06 15:48:45.364668430,1746539325,364342247,,69.62495941180407,18.229446298661003,0.0,0.0,0.0,0.884381260765096
2025/05/06 15:48:45.615637379,1746539325,614658347,,59.994172306394375,-54.52406968749807,0.0,0.0,0.0,3.5420693531983005
2025/05/06 15:48:45.703239389,1746539325,698591125,,54.9369927891978,-47.706403313422186,0.0,0.0,0.0,3.509624078852255
2025/05/06 15:48:45.801519133,1746539325,795119601,,55.05189732481546,-52.54848239861144,0.0,0.0,0.0,3.458416201410188
2025/05/06 15:48:45.940746689,1746539325,930974414,,50.42087379768208,-45.879979747133916,0.0,0.0,0.0,3.174272829696605
2025/05/06 15:48:46.146307770,1746539326,142577597,,50.19274677990168,-39.38019805646337,0.0,0.0,0.0,3.1310967002974763
2025/05/06 15:48:46.237919798,1746539326,233348664,,45.35100606666552,-32.857595574497566,0.0,0.0,0.0,3.1028015812958643
2025/05/06 15:48:46.292746373,1746539326,290287411,,48.87543648857968,-26.552974324813817,0.0,0.0,0.0,3.0537027631916374
2025/05/06 15:48:46.359980159,1746539326,356845764,,44.13962822040841,-20.173079862550935,0.0,0.0,0.0,3.0260267130985596
2025/05/06 15:48:46.605501751,1746539326,603054570,,32.23275258830421,47.48207008679901,0.0,0.0,0.0,-0.48642962720613525
2025/05/06 15:48:46.677042243,1746539326,673052053,,27.5643800692323,40.71109483812205,0.0,0.0,0.0,-0.48455695299911383
2025/05/06 15:48:46.763908524,1746539326,761876489,,30.767992582440456,41.65578607767861,0.0,0.0,0.0,-0.5959092680189997
2025/05/06 15:48:46.915575106,1746539326,914500298,,29.772834825166456,34.98003933069589,0.0,0.0,0.0,-0.6006080297464109
2025/05/06 15:48:47.23396733,1746539327,16270864,,32.69930455883764,28.323604471483577,0.0,0.0,0.0,-0.6116211906837918
2025/05/06 15:48:47.118892606,1746539327,114386273,,28.232975978221702,21.84567235525617,0.0,0.0,0.0,-0.609829564523011
2025/05/06 15:48:47.212093167,1746539327,206178326,,31.61082095730501,15.331938013547642,0.0,0.0,0.0,-0.6205856783145975
2025/05/06 15:48:47.287598872,1746539327,283017746,,27.242211179704327,8.995736574091211,0.0,0.0,0.0,-0.6188332511426751
2025/05/06 15:48:47.409170804,1746539327,408235681,,26.93483970340725,2.6755491158497193,0.0,0.0,0.0,-0.6232591976259556
2025/05/06 15:48:47.483264470,1746539327,482306158,,22.661810739130715,-0.2989277604434051,0.0,0.0,0.0,1.1574523151661822
2025/05/06 15:48:47.569306193,1746539327,568488882,,19.92902398506277,13.252430252006548,0.0,0.0,0.0,-4.27099557320426
2025/05/06 15:48:47.669940538,1746539327,667152733,,19.002305621495623,10.387142155251297,0.0,0.0,0.0,-7.521533358857496
2025/05/06 15:48:47.787386139,1746539327,785705509,,19.052854157974622,4.209616063009548,0.0,0.0,0.0,-7.453210068632146
2025/05/06 15:48:47.857349212,1746539327,855669736,,14.893590465483982,1.5274202160686627,0.0,0.0,0.0,-1.3080058372914039
2025/05/06 15:48:47.974678974,1746539327,973270919,,19.431506896266967,0.38702919894376464,0.0,0.0,0.0,-0.8793099294979214
2025/05/06 15:48:48.86000569,1746539328,84424370,,19.749718343479344,1.349046299090105,0.0,0.0,0.0,1.7124119778345062
2025/05/06 15:48:48.205709946,1746539328,198091901,,20.147669088795794,0.12712118227705105,0.0,0.0,0.0,-0.8058064004220427
2025/05/06 15:48:48.281849515,1746539328,278839890,,16.168415456358105,0.5763647316444462,0.0,0.0,0.0,1.2572195042829009
2025/05/06 15:48:48.356570724,1746539328,353507988,,21.165489766220986,1.210279989634671,0.0,0.0,0.0,0.894817938824076
2025/05/06 15:48:48.499604635,1746539328,494441972,,21.77732654431989,1.193605985172269,0.0,0.0,0.0,1.796539418120517
2025/05/06 15:48:48.630795829,1746539328,611110066,,12.476745251648765,-58.253466658569835,0.0,0.0,0.0,5.0493722059697035
2025/05/06 15:48:48.688680339,1746539328,677736155,,11.922531968187258,-51.20233196103277,0.0,0.0,0.0,2.360763394888977
2025/05/06 15:48:48.803876824,1746539328,796840837,,17.211635733968848,-44.3316049371241,0.0,0.0,0.0,2.322165382238353
2025/05/06 15:48:48.901231508,1746539328,900171065,,13.416727082936177,-37.43474201563424,0.0,0.0,0.0,2.294637443335361
2025/05/06 15:48:48.984666511,1746539328,981872760,,18.827472339174278,-30.715760081581152,0.0,0.0,0.0,2.256821669069666
2025/05/06 15:48:49.55999568,1746539329,52572042,,15.115592494517614,-23.969793623950636,0.0,0.0,0.0,2.2298960139418966
2025/05/06 15:48:49.181123981,1746539329,178158882,,16.034570183620872,-17.3487062821564,0.0,0.0,0.0,2.1980338641568835
2025/05/06 15:48:49.305321076,1746539329,295254083,,16.99640133738228,-10.800773705572851,0.0,0.0,0.0,2.16650527404056
2025/05/06 15:48:49.378618651,1746539329,378117312,,13.405671055727737,-4.274984334101362,0.0,0.0,0.0,2.1404584273572596
2025/05/06 15:48:49.668051409,1746539329,660847496,,9.901556482952628,-66.2487096996494,0.0,0.0,0.0,9.70864822134466
2025/05/06 15:48:49.974893944,1746539329,959063122,,15.437252240213638,-59.85520719983805,0.0,0.0,0.0,11.640179241289417
2025/05/06 15:48:50.139265862,1746539330,137617105,,34.660500906733375,-53.71351363523945,0.0,0.0,0.0,11.519965283293814
2025/05/06 15:48:50.276883357,1746539330,270577755,,31.090962203399954,-47.45989457662154,0.0,0.0,0.0,11.426454757556186
2025/05/06 15:48:50.359038710,1746539330,358089684,,41.124042917990664,-41.38092317676944,0.0,0.0,0.0,11.319017565390396
2025/05/06 15:48:50.445729133,1746539330,439378631,,39.26539592885325,-35.26412704953486,0.0,0.0,0.0,9.921317934920637
2025/05/06 15:48:50.499036078,1746539330,496450458,,32.51784852187802,25.790548535387984,0.0,0.0,0.0,2.4798566313773165
2025/05/06 15:48:50.579841089,1746539330,576518941,,29.048854824856107,18.689873280154643,0.0,0.0,0.0,2.433546907410573
2025/05/06 15:48:50.720718590,1746539330,713317478,,34.51361942373592,11.565800173187938,0.0,0.0,0.0,2.3785054862815684
2025/05/06 15:48:50.792812481,1746539330,790006828,,31.67140025445599,7.033480784267908,0.0,0.0,0.0,6.235908187376694
2025/05/06 15:48:50.870787545,1746539330,869407000,,37.128599843112056,1.441634138088034,0.0,0.0,0.0,3.61218028310509
2025/05/06 15:48:50.983580736,1746539330,979014152,,33.80374881295302,0.1632962541394818,0.0,0.0,0.0,8.198110992616947
2025/05/06 15:48:51.75897971,1746539331,70189367,,39.25216548006324,-0.6023831639117248,0.0,0.0,0.0,3.0498880370339805
2025/05/06 15:48:51.181228159,1746539331,177767003,,36.00005886559313,-0.6722258282455869,0.0,0.0,0.0,1.0846236976849468
2025/05/06 15:48:51.281143152,1746539331,277755517,,37.1190830898978,-0.759148118860594,0.0,0.0,0.0,-0.16335019410128382
2025/05/06 15:48:51.448744281,1746539331,448265147,,38.2506903512018,-0.6677292549360345,0.0,0.0,0.0,-0.304418844914224
2025/05/06 15:48:51.544803593,1746539331,539790394,,25.134541277846438,41.04247645603141,0.0,0.0,0.0,-14.396589400227242
2025/05/06 15:48:51.638005506,1746539331,636684223,,25.276004591612377,34.30341680588123,0.0,0.0,0.0,-11.752350554787242
2025/05/06 15:48:51.704330756,1746539331,701385695,,30.58635394759881,27.463430354363027,0.0,0.0,0.0,-11.776213697669633
2025/05/06 15:48:51.787869435,1746539331,780179947,,27.471901185522825,20.871814590298413,0.0,0.0,0.0,-11.792084953928907
2025/05/06 15:48:51.882143500,1746539331,877124918,,28.5847005678923,14.266040492460775,0.0,0.0,0.0,-11.811664034511324
2025/05/06 15:48:51.973551010,1746539331,970526214,,29.706479738110318,7.732556416504792,0.0,0.0,0.0,-11.831054239233595
2025/05/06 15:48:52.84893132,1746539332,81313030,,30.836530299369997,3.763953623987277,0.0,0.0,0.0,-7.362180201325316
2025/05/06 15:48:52.150926019,1746539332,148704169,,31.97420898975855,0.8266117946195095,0.0,0.0,0.0,-1.1641586120232716
2025/05/06 15:48:52.297626644,1746539332,291631496,,33.11887660200398,0.8495208882330871,0.0,0.0,0.0,-0.5153942183718812
2025/05/06 15:48:52.394257851,1746539332,388516865,,38.30935716738975,0.989789965645798,0.0,0.0,0.0,0.4736455573712419
2025/05/06 15:48:52.473962360,1746539332,469629425,,35.426946944847316,0.701176063749017,0.0,0.0,0.0,0.53979147824748
2025/05/06 15:48:52.622209509,1746539332,620206607,,21.406319894909075,-12.372293432664605,0.0,0.0,0.0,-4.342240072690089
2025/05/06 15:48:52.707959330,1746539332,702012315,,26.495771732266235,-5.9855613783188915,0.0,0.0,0.0,-4.146412179188076
2025/05/06 15:48:52.809268702,1746539332,799907297,,23.67165753764482,0.3049206960315587,0.0,0.0,0.0,-3.51511917691181
2025/05/06 15:48:52.897447464,1746539332,896422848,,28.716377153851795,-0.2813922343063382,0.0,0.0,0.0,-1.2561779837937195
2025/05/06 15:48:52.978426143,1746539332,977851151,,25.954051753694614,-0.6327847049834645,0.0,0.0,0.0,-1.4716167157106383
2025/05/06 15:48:53.64428161,1746539333,54637085,,27.100560419267254,-0.41588805546274443,0.0,0.0,0.0,-1.000029086705979
2025/05/06 15:48:53.190869242,1746539333,189889093,,28.250051331071347,-0.6386358841245396,0.0,0.0,0.0,-1.4530892026898528
2025/05/06 15:48:53.305600627,1746539333,303008345,,33.19925202985729,-0.5885590468082569,0.0,0.0,0.0,-1.434416861009936
2025/05/06 15:48:53.379796413,1746539333,379185154,,30.556478165243732,-0.7719733521381613,0.0,0.0,0.0,-1.3565009026996222
2025/05/06 15:48:53.465568581,1746539333,461394810,,24.82604507681276,-1.7227450293624997,0.0,0.0,0.0,-4.459459888797909
2025/05/06 15:48:53.613517132,1746539333,610400270,,25.956241387364287,-0.16206401069382537,0.0,0.0,0.0,-0.27301769079528526
2025/05/06 15:48:53.706276882,1746539333,701249482,,23.39972325090207,-0.9707098076087846,0.0,0.0,0.0,-2.2121211265544503
2025/05/06 15:48:53.803536488,1746539333,801591510,,28.220081696753482,-0.5383148744488153,0.0,0.0,0.0,-0.7399518824355482
2025/05/06 15:48:53.866747425,1746539333,865390927,,25.719497620598986,-0.5250112445566515,0.0,0.0,0.0,-1.0531745667486518
2025/05/06 15:48:53.939886245,1746539333,939575998,,30.486623826704033,-0.7627481481201812,0.0,0.0,0.0,-1.2231535209201638
2025/05/06 15:48:54.57675813,1746539334,56953594,,28.04075002955176,-0.7236328651804911,0.0,0.0,0.0,-1.4847422205567113
2025/05/06 15:48:54.157110297,1746539334,156696751,,29.201279135183654,-0.8344133618315368,0.0,0.0,0.0,-1.6743969748705751
2025/05/06 15:48:54.258650858,1746539334,258238454,,33.88698257568302,-1.011604484527254,0.0,0.0,0.0,-1.9378092813647072
2025/05/06 15:48:54.353003034,1746539334,351808701,,25.923524442887583,-9.481828468507786,0.0,0.0,0.0,1.9217695918454467
2025/05/06 15:48:54.442670930,1746539334,440765129,,23.547327374455335,-6.227331086868162,0.0,0.0,0.0,7.5619797044296035
2025/05/06 15:48:54.545008797,1746539334,540986510,,28.1146879073695,-2.4177902595869227,0.0,0.0,0.0,4.875380279153944
2025/05/06 15:48:54.636668179,1746539334,636357047,,29.209241861628698,-0.43901303177699447,0.0,0.0,0.0,-0.2648823997205625
2025/05/06 15:48:54.747933929,1746539334,747577310,,26.910599899637077,-0.7788044107953738,0.0,0.0,0.0,0.2805516240037207
2025/05/06 15:48:54.883594646,1746539334,879812165,,28.02948543086808,-0.6326680309330186,0.0,0.0,0.0,-1.026290927355035
2025/05/06 15:48:54.981707706,1746539334,980230262,,32.48654927472222,-0.425783985809403,0.0,0.0,0.0,-0.46450607006386235
2025/05/06 15:48:55.61178980,1746539335,58983888,,33.57631615970229,-0.6565860679776279,0.0,0.0,0.0,-0.9279533644941012
2025/05/06 15:48:55.157641538,1746539335,156100972,,34.66445031475803,-0.6014683916464492,0.0,0.0,0.0,-0.7037738925276074
2025/05/06 15:48:55.254719963,1746539335,254334265,,35.7508657875652,-0.6175540382395752,0.0,0.0,0.0,-0.8334472881782631
2025/05/06 15:48:55.347638925,1746539335,346483016,,34.91940292527897,9.79724626744121,0.0,0.0,0.0,7.534766474732493
2025/05/06 15:48:55.448700352,1746539335,448385370,,36.00234860564973,3.3866733802055933,0.0,0.0,0.0,6.689390247131968
2025/05/06 15:48:55.557990667,1746539335,556964239,,37.08315226927857,-0.3161171105014091,0.0,0.0,0.0,1.1058264071371298
2025/05/06 15:48:55.638612166,1746539335,637531621,,38.161648055742376,-0.6692666628378561,0.0,0.0,0.0,0.3866977094767776
2025/05/06 15:48:55.759084765,1746539335,758107362,,36.10370076819362,-0.7042677318020196,0.0,0.0,0.0,-0.5429519957662592
2025/05/06 15:48:55.878147141,1746539335,874521508,,37.20245462151104,-0.6302508121081587,0.0,0.0,0.0,-0.584704854548562
2025/05/06 15:48:55.979311767,1746539335,964851103,,41.382343221260385,-0.5740261224457868,0.0,0.0,0.0,-0.7256541176890323
2025/05/06 15:48:56.102290972,1746539336,100878274,,39.39156389846323,-0.7044434065091423,0.0,0.0,0.0,-0.7562217607240882
2025/05/06 15:48:56.217087690,1746539336,215255416,,43.51603641970121,-0.5749550360589524,0.0,0.0,0.0,-0.7461544490151368
2025/05/06 15:48:56.291683976,1746539336,289446117,,41.56881335770754,-0.6981252264288287,0.0,0.0,0.0,-0.7823356410165161
2025/05/06 15:48:56.361670211,1746539336,361311842,,35.61389597986454,-5.5676592898475405,0.0,0.0,0.0,11.811831467920996
2025/05/06 15:48:56.444800541,1746539336,439812108,,33.70927621124429,-2.4421293826525243,0.0,0.0,0.0,5.499930989124465
2025/05/06 15:48:56.561832267,1746539336,557512406,,37.725631674141255,-1.5024769460077323,0.0,0.0,0.0,0.24267773378252855
2025/05/06 15:48:56.645889919,1746539336,644891437,,35.862683081438604,-0.7920432709206011,0.0,0.0,0.0,-0.560540957302095
2025/05/06 15:48:56.758439689,1746539336,757873030,,39.82390734317755,-1.0537386332415508,0.0,0.0,0.0,-1.6028764618890818
2025/05/06 15:48:56.857946510,1746539336,854737071,,38.00171820273465,-0.951170942367014,0.0,0.0,0.0,-1.5833436350721115
2025/05/06 15:48:56.954933345,1746539336,953302104,,39.065845115492834,-0.9816501415729135,0.0,0.0,0.0,-1.8185114394225934
2025/05/06 15:48:57.49834693,1746539337,47092274,,40.12629708875363,-0.9778075863411004,0.0,0.0,0.0,-1.8137212010373958
2025/05/06 15:48:57.143844630,1746539337,143485179,,43.97930381687115,-0.35409559979672167,0.0,0.0,0.0,-0.7447511986667905
2025/05/06 15:48:57.276171695,1746539337,273778885,,45.009232158479335,-0.6652738278744437,0.0,0.0,0.0,-0.9695688020920272
2025/05/06 15:48:57.382298611,1746539337,381981189,,43.28508269213842,-0.7063452980289071,0.0,0.0,0.0,-0.793908295667535
2025/05/06 15:48:57.445001070,1746539337,443318633,,33.7510399832085,-27.79816868063307,0.0,0.0,0.0,12.028631662192879
2025/05/06 15:48:57.534530097,1746539337,534235704,,32.471679864422924,-21.287390179363626,0.0,0.0,0.0,11.727484502528824
2025/05/06 15:48:57.719798886,1746539337,714222509,,33.46831670329709,-14.835424302887418,0.0,0.0,0.0,11.781543793713269
2025/05/06 15:48:57.792855268,1746539337,790961290,,37.12193099714875,-8.441799866878853,0.0,0.0,0.0,11.832363727876015
2025/05/06 15:48:57.869031555,1746539337,863358141,,35.45077914826999,-3.2157347537173564,0.0,0.0,0.0,9.957901436414971
2025/05/06 15:48:57.958193623,1746539337,956524270,,39.05313692285387,-1.5619552561836372,0.0,0.0,0.0,1.7713651955216676
2025/05/06 15:48:58.53486014,1746539338,53066803,,37.41854820527669,-0.6045376079432572,0.0,0.0,0.0,1.0628991746872885
2025/05/06 15:48:58.264221393,1746539338,209470034,,38.39681911398344,-0.8049300388510119,0.0,0.0,0.0,-0.48043127608664804
2025/05/06 15:48:58.322969920,1746539338,301631113,,41.923146150848766,-0.7340967042439956,0.0,0.0,0.0,-0.4694431569173787
2025/05/06 15:48:58.385326238,1746539338,384653434,,40.34190768088479,-0.7251386392684935,0.0,0.0,0.0,-0.7629038640837678
2025/05/06 15:48:58.559964040,1746539338,559461981,,9.272812345809086,63.98906297197556,0.0,0.0,0.0,5.231349737280425
2025/05/06 15:48:58.657677366,1746539338,655260011,,13.511395270127082,57.182129781969365,0.0,0.0,0.0,5.446350988939628
2025/05/06 15:48:58.714399549,1746539338,714121195,,15.225925470251411,50.39208213821166,0.0,0.0,0.0,8.29587291097448
2025/05/06 15:48:58.766758032,1746539338,764567019,,18.547329724893075,43.73437653831081,0.0,0.0,0.0,8.478383081369003
2025/05/06 15:48:58.843334270,1746539338,840118892,,20.26052671876886,37.09288834695087,0.0,0.0,0.0,11.294503513271678
2025/05/06 15:48:58.954688503,1746539338,952023605,,21.09245325274327,30.55291798199471,0.0,0.0,0.0,11.446258891541532
2025/05/06 15:48:59.74236927,1746539339,72239653,,21.92162672716819,24.08496385584192,0.0,0.0,0.0,11.596353320559501
2025/05/06 15:48:59.142976630,1746539339,141484693,,25.114126162270907,17.715975481455075,0.0,0.0,0.0,11.742703529248217
2025/05/06 15:48:59.250996522,1746539339,246564066,,23.571524644114845,11.361926312133164,0.0,0.0,0.0,11.89162219031357
2025/05/06 15:48:59.369574689,1746539339,365463539,,-2.9591771049977638,-35.187342726726456,0.0,0.0,0.0,8.611691332533013
2025/05/06 15:48:59.459248769,1746539339,455749943,,2.310687441040727,-31.893299767554083,0.0,0.0,0.0,8.881844005146661
2025/05/06 15:48:59.547670896,1746539339,547358274,,3.2528685083362916,-25.104240319628786,0.0,0.0,0.0,8.840408153877746
2025/05/06 15:48:59.647315645,1746539339,644363719,,2.1135570470741527,-18.42129307224627,0.0,0.0,0.0,8.64824248762983
2025/05/06 15:48:59.768362809,1746539339,767815204,,6.062152968938221,-11.749100752519553,0.0,0.0,0.0,8.008330741545336
2025/05/06 15:48:59.902710986,1746539339,896109724,,6.671017839746696,-5.181390551468439,0.0,0.0,0.0,8.224279993128278
2025/05/06 15:49:00.21409139,1746539340,20546180,,5.067281785111049,-1.1861059367455482,0.0,0.0,0.0,3.9944978488495053
2025/05/06 15:49:00.120837481,1746539340,110354818,,7.88588043059201,-1.2820574401120552,0.0,0.0,0.0,-7.587579559692983
2025/05/06 15:49:00.219318277,1746539340,216868260,,6.317232517095704,-1.4374502354025367,0.0,0.0,0.0,4.642105459292907
2025/05/06 15:49:00.293392001,1746539340,292824456,,9.096619759944815,-1.5309997759237035,0.0,0.0,0.0,-6.947024597579372
2025/05/06 15:49:00.388862907,1746539340,388044195,,7.562292294147937,-1.682992732245964,0.0,0.0,0.0,5.275575942876287
2025/05/06 15:49:00.474091339,1746539340,472058210,,-32.13963925897838,15.174645122426341,0.0,0.0,0.0,-7.124883000408289
2025/05/06 15:49:00.560852666,1746539340,559465127,,-18.60138573066206,8.508238722200872,0.0,0.0,0.0,-6.7152711717695865
2025/05/06 15:49:00.647545830,1746539340,642566467,,-7.144297190505597,1.9002647311024248,0.0,0.0,0.0,-6.425881338294232
2025/05/06 15:49:00.748173093,1746539340,747745556,,6.271327584693495,1.957913947375289,0.0,0.0,0.0,5.698905596417347
2025/05/06 15:49:00.853166089,1746539340,850273500,,6.388671533507932,2.014965997176091,0.0,0.0,0.0,-5.990479160034624
2025/05/06 15:49:00.983666160,1746539340,981943004,,6.510035337313184,2.071427002539508,0.0,0.0,0.0,6.129524326439281
2025/05/06 15:49:01.43757517,1746539341,43489736,,8.650289297968015,1.736583462503063,0.0,0.0,0.0,-4.837044362791119
2025/05/06 15:49:01.208759371,1746539341,204363404,,6.764339271207859,1.7819052420892376,0.0,0.0,0.0,7.271987372941339
2025/05/06 15:49:01.298174196,1746539341,297412546,,8.878169118570327,1.8552242706743414,0.0,0.0,0.0,-4.436369598939791
2025/05/06 15:49:01.352167512,1746539341,350364644,,7.033481792445741,1.8995544550450063,0.0,0.0,0.0,7.668217431446465
2025/05/06 15:49:01.457038407,1746539341,456688422,,-29.601372225044656,1.3121147464928526,0.0,0.0,0.0,-4.2684077577389985
2025/05/06 15:49:01.542834745,1746539341,540950561,,-16.39081374067655,-0.5451559521595186,0.0,0.0,0.0,2.306061635130362
2025/05/06 15:49:01.650114132,1746539341,646649957,,-3.3206546210720944,2.30180466444682,0.0,0.0,0.0,-3.2830024307219503
2025/05/06 15:49:01.740209752,1746539341,737708804,,7.71187984294329,1.9471290047272873,0.0,0.0,0.0,7.849213608684806
2025/05/06 15:49:01.844356007,1746539341,843800792,,9.248306427854516,2.045014197430703,0.0,0.0,0.0,-3.9987217770177494
2025/05/06 15:49:01.945920379,1746539341,943345129,,8.894844771503585,2.147136775214335,0.0,0.0,0.0,7.9663524283299125
2025/05/06 15:49:02.44066742,1746539342,41954960,,8.54996592603851,2.2481225740469313,0.0,0.0,0.0,-3.8809921113150665
2025/05/06 15:49:02.175532752,1746539342,175003406,,8.213553843576676,2.347985545220922,0.0,0.0,0.0,8.082781404314971
2025/05/06 15:49:02.243218614,1746539342,240545957,,6.065884835525878,2.451897921432419,0.0,0.0,0.0,-3.7640319029054297
2025/05/06 15:49:02.365356618,1746539342,354625482,,-32.18316274312383,-3.3328570135497557,0.0,0.0,0.0,-13.486330922513247
2025/05/06 15:49:02.434682718,1746539342,434060127,,-19.411565647041357,-1.2703168101091933,0.0,0.0,0.0,-5.234860302924574
2025/05/06 15:49:02.548848986,1746539342,548461732,,-8.549416385128893,0.20734105030521732,0.0,0.0,0.0,-2.5899221445491207
2025/05/06 15:49:02.646051252,1746539342,645775593,,3.966747770058703,-1.1841002574465733,0.0,0.0,0.0,-5.141216543045999
2025/05/06 15:49:02.739337794,1746539342,738122656,,4.937166675691515,2.0879179074046874,0.0,0.0,0.0,0.7482822798874054
2025/05/06 15:49:02.859939817,1746539342,857434517,,2.4335095146222443,-1.2009447348210074,0.0,0.0,0.0,-5.263074641727428
2025/05/06 15:49:02.962497865,1746539342,958303018,,1.686091312793451,2.0978627343933454,0.0,0.0,0.0,0.6299247074001926
2025/05/06 15:49:03.41461456,1746539343,41088910,,3.8229015192015936,-1.243737813311668,0.0,0.0,0.0,-4.446710057510842
2025/05/06 15:49:03.169604587,1746539343,168616210,,3.0731241996583663,2.055346863273087,0.0,0.0,0.0,1.4372782104809971
2025/05/06 15:49:03.270525684,1746539343,256348492,,2.33578681344261,-1.259921666444825,0.0,0.0,0.0,-4.583868409320644
2025/05/06 15:49:03.368124194,1746539343,366411337,,-32.859897686231875,-6.006519315342473,0.0,0.0,0.0,-17.20167168117422
2025/05/06 15:49:03.439120196,1746539343,438458319,,-20.48950225772819,-6.086225851660686,0.0,0.0,0.0,-5.396021113802476
2025/05/06 15:49:03.547167157,1746539343,544843355,,-9.87923821629164,-2.8340348870143544,0.0,0.0,0.0,0.36202712093643186
2025/05/06 15:49:03.636334655,1746539343,634302438,,3.2567266205244323,-0.6260620673402855,0.0,0.0,0.0,4.867658808580728
2025/05/06 15:49:03.764213828,1746539343,763317747,,2.086035501233823,-4.054264232713535,0.0,0.0,0.0,-1.330104483189757
2025/05/06 15:49:03.856099454,1746539343,854860939,,0.9322481073023141,-0.8668569013490242,0.0,0.0,0.0,4.380692042025544
2025/05/06 15:49:03.945071044,1746539343,944229105,,-0.20490985063781864,-4.292611689972773,0.0,0.0,0.0,-1.8117494625723225
2025/05/06 15:49:04.51416405,1746539344,51098856,,1.9633825793500819,-1.1027828158142938,0.0,0.0,0.0,1.2731124273137766
2025/05/06 15:49:04.179107644,1746539344,160064623,,9.142865479619786,-4.486131232588377,0.0,0.0,0.0,-2.251561590117916
2025/05/06 15:49:04.304634745,1746539344,303095543,,11.142112228776455,-1.2942723153742008,0.0,0.0,0.0,0.8942042532299297
2025/05/06 15:49:04.411204152,1746539344,406518861,,-12.515373918337787,-27.722658446077276,0.0,0.0,0.0,-8.303805900579619
2025/05/06 15:49:04.463447532,1746539344,462313736,,-5.425534608702833,-21.26395049803125,0.0,0.0,0.0,-11.143201898450883
2025/05/06 15:49:04.590440912,1746539344,588279980,,-1.4160807801123383,-19.828398627941056,0.0,0.0,0.0,-12.715335427543465
2025/05/06 15:49:04.638787118,1746539344,638250891,,1.6419112130897702,-13.848152116838719,0.0,0.0,0.0,-15.137015404941849
2025/05/06 15:49:04.752231228,1746539344,751619078,,5.491118374145913,-7.6436522775378535,0.0,0.0,0.0,-16.29692309203537
2025/05/06 15:49:04.854263246,1746539344,853844956,,7.294687721200205,-3.0624844919577185,0.0,0.0,0.0,-10.988356036355441
2025/05/06 15:49:04.939442549,1746539344,938923405,,7.559570081661718,-2.1370581596842158,0.0,0.0,0.0,-1.7075229454116823
2025/05/06 15:49:05.53741346,1746539345,53162608,,6.062260849581776,0.97512777294628,0.0,0.0,0.0,2.924057469775761
2025/05/06 15:49:05.150452149,1746539345,147353083,,3.1650767126582195,-2.8058606755553797,0.0,0.0,0.0,-3.32665564261643
2025/05/06 15:49:05.233966302,1746539345,233551155,,3.1274898727252207,-0.05715159218800636,0.0,0.0,0.0,2.326681209589026
2025/05/06 15:49:05.349211516,1746539345,346374849,,0.2936932275334243,-3.8277737944248997,0.0,0.0,0.0,-3.9175169506170278
2025/05/06 15:49:05.447055830,1746539345,446142942,,-11.361993910420665,2.437727362455348,0.0,0.0,0.0,-13.51352447549445
2025/05/06 15:49:05.533757213,1746539345,533419447,,-1.086326918812233,-1.2865763966187842,0.0,0.0,0.0,-7.816884824153419
2025/05/06 15:49:05.642676978,1746539345,640965484,,3.8701949429196816,-5.021025943005213,0.0,0.0,0.0,3.076737579597065
2025/05/06 15:49:05.782066081,1746539345,779264415,,5.75031093755905,-2.1867558469022583,0.0,0.0,0.0,-5.018292095189139
2025/05/06 15:49:05.855847591,1746539345,855612786,,4.063758170322046,-3.56554587809336,0.0,0.0,0.0,-3.640947226763899
2025/05/06 15:49:05.943524841,1746539345,941151229,,1.073338202518812,-1.8742305637554182,0.0,0.0,0.0,-7.686272356927816
2025/05/06 15:49:06.63524379,1746539346,59804855,,0.09942628666135533,-2.7124835422621345,0.0,0.0,0.0,-6.732681990640316
2025/05/06 15:49:06.147433362,1746539346,144230959,,-0.04332287409795299,-3.1428600065614773,0.0,0.0,0.0,-6.433984183851976
2025/05/06 15:49:06.235375774,1746539346,235172032,,1.5948259352909417,-3.5686174763903864,0.0,0.0,0.0,-4.137403687932704
2025/05/06 15:49:06.342770341,1746539346,338413137,,-8.901987334280875,11.234994174082544,0.0,0.0,0.0,-14.674197670372507
2025/05/06 15:49:06.455079683,1746539346,454315348,,-1.0052051954083936,4.291803265877604,0.0,0.0,0.0,-12.59049023160243
2025/05/06 15:49:06.539102540,1746539346,537478491,,5.678824139856829,4.061074381262074,0.0,0.0,0.0,1.4176488337222395
2025/05/06 15:49:06.654863770,1746539346,648948475,,7.107350177345722,-2.8033478393823543,0.0,0.0,0.0,-1.7244563195315834
2025/05/06 15:49:06.762185604,1746539346,760978249,,5.234328962846121,2.836778869491525,0.0,0.0,0.0,-3.5090984355343267
2025/05/06 15:49:06.840557458,1746539346,838389229,,4.611949769547778,-3.4080509050440924,0.0,0.0,0.0,-2.7752313504897472
2025/05/06 15:49:06.986651397,1746539346,984404988,,1.5590182793581562,3.0213891777385697,0.0,0.0,0.0,-3.237082292267715
2025/05/06 15:49:07.42860759,1746539347,39353607,,0.9623069750136892,-3.8879379611266813,0.0,0.0,0.0,-3.6999296864302096
2025/05/06 15:49:07.142158183,1746539347,141885641,,0.16871321554197038,2.4902467358249396,0.0,0.0,0.0,-3.357360000091603
2025/05/06 15:49:07.245051117,1746539347,244022601,,2.7072908840335685,-4.35786389475777,0.0,0.0,0.0,-5.624600038296137
2025/05/06 15:49:07.359583317,1746539347,355960234,,6.306156497297536,2.0795802203129483,0.0,0.0,0.0,-6.055241320656933
2025/05/06 15:49:07.443939878,1746539347,440239725,,-10.83665673864897,10.058201188666146,0.0,0.0,0.0,-15.363811898559632
2025/05/06 15:49:07.554017303,1746539347,552871948,,-2.512710567828208,4.060089245696133,0.0,0.0,0.0,-12.030680874479032
2025/05/06 15:49:07.648775557,1746539347,645303743,,3.7980916391218216,1.8222033144935494,0.0,0.0,0.0,-3.053175939456267
2025/05/06 15:49:07.755552597,1746539347,752699595,,6.167488046130472,-1.6589122172272823,0.0,0.0,0.0,-0.35425259088373195
2025/05/06 15:49:07.841029661,1746539347,840469324,,2.9663288441270197,1.6016895883719826,0.0,0.0,0.0,-6.887467975164796
2025/05/06 15:49:07.948638011,1746539347,945166620,,2.042203682408001,-1.8762309494621832,0.0,0.0,0.0,-1.5152195954433694
2025/05/06 15:49:08.40730780,1746539348,38662334,,2.7608482520496977,1.3853901492323075,0.0,0.0,0.0,-4.955926672760029
2025/05/06 15:49:08.181866197,1746539348,172668386,,4.247605951675155,-2.0893956140049568,0.0,0.0,0.0,-1.542615959360461
2025/05/06 15:49:08.259236745,1746539348,258699078,,3.5449958288178323,1.173222476671242,0.0,0.0,0.0,-6.1200853276849045
2025/05/06 15:49:08.353794960,1746539348,353395263,,1.5093842365172918,-2.238526442099271,0.0,0.0,0.0,-0.7530095718806251
2025/05/06 15:49:08.571732695,1746539348,570994237,,-17.993583231689115,-34.57973200075401,0.0,0.0,0.0,-8.728986505351116
2025/05/06 15:49:08.713677719,1746539348,712417380,,-9.100018928445252,-28.23669894670104,0.0,0.0,0.0,-6.744833548872748
2025/05/06 15:49:08.764355998,1746539348,763988908,,-3.321775636744235,-21.827469865373473,0.0,0.0,0.0,-9.307398820929805
2025/05/06 15:49:08.839748887,1746539348,837889821,,2.4567323159892,-15.690581750962053,0.0,0.0,0.0,-12.800427256894707
2025/05/06 15:49:08.945238798,1746539348,941804915,,4.90211636927728,-9.487711784501755,0.0,0.0,0.0,-14.909136589772075
2025/05/06 15:49:09.35462823,1746539349,34644515,,4.906519139019906,-6.576669243385425,0.0,0.0,0.0,-12.191897462711793
2025/05/06 15:49:09.151047052,1746539349,149715902,,6.442702046479553,-3.8282138135319315,0.0,0.0,0.0,-4.641486747244045
2025/05/06 15:49:09.258271388,1746539349,257736508,,4.161260149896009,-1.0453112824753816,0.0,0.0,0.0,0.5901874155084101
2025/05/06 15:49:09.347747186,1746539349,347157507,,0.9180268461084893,-4.80728031137113,0.0,0.0,0.0,-6.072389556645746
2025/05/06 15:49:09.673150845,1746539349,671387864,,-20.123439462246722,-71.99269839062265,0.0,0.0,0.0,-13.117301185023678
2025/05/06 15:49:09.797505873,1746539349,793172562,,-13.473039513904212,-65.90158762251042,0.0,0.0,0.0,-11.195053341775974
2025/05/06 15:49:09.878628112,1746539349,878015560,,-3.0575371290559588,-60.16046094540593,0.0,0.0,0.0,-9.310498381542288
2025/05/06 15:49:09.946069472,1746539349,945636673,,0.4408381537975856,-54.20261758978921,0.0,0.0,0.0,-6.892430184070292
2025/05/06 15:49:10.33091084,1746539350,32742447,,3.8013076709308393,-48.448204187842066,0.0,0.0,0.0,-10.133187082028144
2025/05/06 15:49:10.158150801,1746539350,157794506,,4.803069417871768,-42.620712487002834,0.0,0.0,0.0,-13.218971673181926
2025/05/06 15:49:10.248867983,1746539350,246596788,,7.3696945463698285,-36.99285938872055,0.0,0.0,0.0,-16.13864702079411
2025/05/06 15:49:10.345560717,1746539350,344640029,,-4.392913139987229,-12.67852417812037,0.0,0.0,0.0,-16.437426577496097
2025/05/06 15:49:10.457892165,1746539350,457522826,,1.2126221526172571,-9.363754474813874,0.0,0.0,0.0,-14.86979519029046
2025/05/06 15:49:10.548645690,1746539350,545071506,,1.9028453206572067,-7.084334100578758,0.0,0.0,0.0,-12.308922633626878
2025/05/06 15:49:10.641468722,1746539350,639490863,,6.058480635846081,-4.861449993479539,0.0,0.0,0.0,-7.234179966925595
2025/05/06 15:49:10.736737618,1746539350,735982092,,4.298022337193743,-2.698731360140613,0.0,0.0,0.0,-2.1388182331509853
2025/05/06 15:49:10.897892820,1746539350,894759842,,1.6740174984670375,-0.4932939800350198,0.0,0.0,0.0,2.9130431973453312
2025/05/06 15:49:10.952797056,1746539350,952187678,,-1.417320151763306,-4.824568902870794,0.0,0.0,0.0,-3.6361458860641704
2025/05/06 15:49:11.69695042,1746539351,67758940,,5.542442250014517,-2.5959041472585227,0.0,0.0,0.0,-0.9204549687538588
2025/05/06 15:49:11.153808744,1746539351,153272421,,5.809948302821681,-1.751252749430762,0.0,0.0,0.0,3.4262077703605627
2025/05/06 15:49:11.272614935,1746539351,271906259,,2.337868735992629,-4.445809043771305,0.0,0.0,0.0,-0.494464074291983
2025/05/06 15:49:11.342949153,1746539351,341412018,,-0.18706374377478596,51.20676259557837,0.0,0.0,0.0,1.7858856722944125
2025/05/06 15:49:11.437518202,1746539351,434880962,,0.6013937518936814,43.63882597558165,0.0,0.0,0.0,0.8208150103973111
2025/05/06 15:49:11.544598349,1746539351,544186993,,-0.46877244708161925,36.03386306831703,0.0,0.0,0.0,-0.2528294251111447
2025/05/06 15:49:11.635623966,1746539351,635342306,,0.07263439782525438,28.57214482947893,0.0,0.0,0.0,-1.1568308878962057
2025/05/06 15:49:11.745210731,1746539351,740261314,,0.01749762950009881,21.192356065761373,0.0,0.0,0.0,-2.0351998992685765
2025/05/06 15:49:11.842067418,1746539351,841629221,,0.8427748443355085,13.893604906575831,0.0,0.0,0.0,-2.752000221280454
2025/05/06 15:49:11.939292253,1746539351,936668662,,1.940239207055356,6.674994075082736,0.0,0.0,0.0,-3.5554670435093954
2025/05/06 15:49:12.97130160,1746539352,89090186,,5.856902129977016,-0.46434870260816297,0.0,0.0,0.0,-4.367967501733929
2025/05/06 15:49:12.164674842,1746539352,159738271,,8.95477714038509,-1.2902003831885054,0.0,0.0,0.0,5.953261907302888
2025/05/06 15:49:12.243305656,1746539352,240625399,,6.989190027631878,-1.8204460451844398,0.0,0.0,0.0,-6.808284145186235
2025/05/06 15:49:12.363500591,1746539352,360185674,,3.5136446306872813,-2.232861576004211,0.0,0.0,0.0,4.259277099124276
2025/05/06 15:49:12.462721409,1746539352,459904185,,-8.407559415328365,-4.038790401707729,0.0,0.0,0.0,4.224348990548123
2025/05/06 15:49:12.548990846,1746539352,546640647,,-0.5378370414895812,-1.1893616931288307,0.0,0.0,0.0,-3.9670028871707643
2025/05/06 15:49:12.637861977,1746539352,635108227,,0.8448177981450726,-4.999989285793447,0.0,0.0,0.0,3.130835304275095
2025/05/06 15:49:12.743685205,1746539352,743480663,,4.149400812724764,-2.2406657723631156,0.0,0.0,0.0,-2.6507091967538656
2025/05/06 15:49:12.858671080,1746539352,858323334,,-9.597192810232173,-27.567482753521688,0.0,0.0,0.0,-2.878349628829781
2025/05/06 15:49:12.948655699,1746539352,944142855,,-5.01766790929031,-25.63677492809626,0.0,0.0,0.0,-6.069243137221775
2025/05/06 15:49:13.48240315,1746539353,43159433,,-2.1446933614427053,-19.600347147966772,0.0,0.0,0.0,-8.828867444076522
2025/05/06 15:49:13.149256126,1746539353,148355410,,2.7682854023729533,-13.724398137383673,0.0,0.0,0.0,-11.846688455959963
2025/05/06 15:49:13.273998663,1746539353,272393039,,-0.5435155853100468,-7.82004136065558,0.0,0.0,0.0,-12.122979189345259
2025/05/06 15:49:13.356434436,1746539353,356052192,,0.5328363558473939,-2.073100770190365,0.0,0.0,0.0,-10.176888255778536
2025/05/06 15:49:13.472613082,1746539353,471868055,,5.008278316997689,-2.8759254153803795,0.0,0.0,0.0,-0.24884213509336917
2025/05/06 15:49:13.538235338,1746539353,537434935,,5.935680114397428,1.6820409092493946,0.0,0.0,0.0,-0.413168037488191
2025/05/06 15:49:13.644470999,1746539353,643802489,,2.1933512867034324,-4.1004492474963286,0.0,0.0,0.0,1.796618315921279
2025/05/06 15:49:13.746080227,1746539353,742253551,,-0.8237909277920608,-1.6378413913451482,0.0,0.0,0.0,-4.89483480385222
2025/05/06 15:49:13.844306198,1746539353,843081646,,4.881135297959759,-5.7804266756522225,0.0,0.0,0.0,-3.247349283409818
2025/05/06 15:49:13.953826415,1746539353,948414776,,-16.262285797495508,-13.372529269918914,0.0,0.0,0.0,-8.0534440394988
2025/05/06 15:49:14.61298637,1746539354,60779447,,-8.719665332678119,-8.29195130726373,0.0,0.0,0.0,-9.540346130039893
2025/05/06 15:49:14.155928334,1746539354,155577290,,1.901801187397382,-2.6512869543950615,0.0,0.0,0.0,-10.186944360573321
2025/05/06 15:49:14.243227246,1746539354,241280424,,3.347680557934126,-3.5657079037927133,0.0,0.0,0.0,5.340142978885751
2025/05/06 15:49:14.343502560,1746539354,342674001,,3.9614692309765474,2.0234800091865566,0.0,0.0,0.0,1.898589116689351
2025/05/06 15:49:14.465268281,1746539354,464683802,,3.2889603149192226,-5.521292324259207,0.0,0.0,0.0,-1.498113001228532
2025/05/06 15:49:14.536071521,1746539354,535057369,,4.661215651438113,0.1312408262441238,0.0,0.0,0.0,-3.358963894763349
2025/05/06 15:49:14.663904758,1746539354,662499744,,2.3644240348797325,-3.558009533255529,0.0,0.0,0.0,2.0816878269651795
2025/05/06 15:49:14.751749971,1746539354,749421203,,0.13738832592366634,2.072731499771862,0.0,0.0,0.0,2.170725091336095
2025/05/06 15:49:14.853423771,1746539354,850448276,,-9.826556398810425,0.9312232617157292,0.0,0.0,0.0,-3.9609534491823126
2025/05/06 15:49:14.955362467,1746539354,954548144,,-1.8898778373834944,-4.130765644442647,0.0,0.0,0.0,-2.2172542379919946
2025/05/06 15:49:15.61121381,1746539355,58014139,,6.95127767952124,1.6127313561374308,0.0,0.0,0.0,-2.7489698378878415
2025/05/06 15:49:15.141536872,1746539355,141344943,,4.006549617478129,-5.52732725097934,0.0,0.0,0.0,-2.7406953195448267
2025/05/06 15:49:15.256668999,1746539355,253645060,,0.4959111044007045,0.19092807595421846,0.0,0.0,0.0,-3.4780031611421265
2025/05/06 15:49:15.360409986,1746539355,360030349,,0.31433552255992936,-0.7318186172562946,0.0,0.0,0.0,10.264367820712948
2025/05/06 15:49:15.435481760,1746539355,433276004,,6.7141927274416275,-1.6445049863677923,0.0,0.0,0.0,-5.087658757114326
2025/05/06 15:49:15.551477284,1746539355,550514937,,5.8861291336849035,-1.5451921335652514,0.0,0.0,0.0,6.941866509137341
2025/05/06 15:49:15.690676937,1746539355,688522154,,2.9351261437563494,-2.09138258208975,0.0,0.0,0.0,-5.033138645465328
2025/05/06 15:49:15.739893682,1746539355,738995088,,-0.023311166242478976,-2.951351616850843,0.0,0.0,0.0,5.2150738789213165
2025/05/06 15:49:15.855081852,1746539355,853514152,,4.751574294608645,-3.8776361387139673,0.0,0.0,0.0,-6.581966532308385
2025/05/06 15:49:15.967267530,1746539355,962799501,,3.970335755444097,-4.718789910963494,0.0,0.0,0.0,1.935469366209702
2025/05/06 15:49:16.40814673,1746539356,38688531,,2.9991531060562693,8.630873339336404,0.0,0.0,0.0,-0.9360512158796439
2025/05/06 15:49:16.148572063,1746539356,146990724,,3.2671137921289244,1.1523338638293126,0.0,0.0,0.0,-4.377564264016215
2025/05/06 15:49:16.264713790,1746539356,260736336,,4.968514775969993,-5.328916846524294,0.0,0.0,0.0,-2.525765710099293
2025/05/06 15:49:16.341399641,1746539356,340607891,,4.683206042227766,0.5405419294002627,0.0,0.0,0.0,-2.1871108192826654
2025/05/06 15:49:16.439515769,1746539356,438630110,,0.559778834234919,-1.721320480078191,0.0,0.0,0.0,6.116446930748737
2025/05/06 15:49:16.551464863,1746539356,551099006,,-0.8840689085538997,0.8193640223144598,0.0,0.0,0.0,0.9892161079075237
2025/05/06 15:49:16.639505218,1746539356,638853440,,5.459646984083747,-3.245986109616524,0.0,0.0,0.0,3.450245001411389
2025/05/06 15:49:16.776071833,1746539356,773819522,,5.156882508494164,-0.6887161449790824,0.0,0.0,0.0,-0.6938303284917708
2025/05/06 15:49:16.900222745,1746539356,897753610,,2.089168977414431,-4.77413234044343,0.0,0.0,0.0,4.4131613510200935
2025/05/06 15:49:16.946241077,1746539356,945800357,,-1.976657981190641,-2.1641648888489726,0.0,0.0,0.0,-2.3691500437141713
2025/05/06 15:49:17.33740727,1746539357,33386714,,-5.261739565199576,-6.521066699100288,0.0,0.0,0.0,-9.057302797599078
2025/05/06 15:49:17.146500786,1746539357,145256047,,0.9965459268291568,-4.027235729875542,0.0,0.0,0.0,-6.58002985055343
2025/05/06 15:49:17.254493897,1746539357,254044452,,0.10761990185864079,-1.5221814523986836,0.0,0.0,0.0,1.1363620119213635
2025/05/06 15:49:17.339413208,1746539357,336106255,,6.308089494803426,0.9165675332016576,0.0,0.0,0.0,3.5014757611744187
2025/05/06 15:49:17.445618251,1746539357,444312431,,6.356625986434835,-3.2876938402176847,0.0,0.0,0.0,-0.7414685193786852
2025/05/06 15:49:17.586221446,1746539357,583292200,,2.136150961301837,-0.7920423534221186,0.0,0.0,0.0,4.279367240962955
2025/05/06 15:49:17.652325262,1746539357,651370053,,-1.5490530133593836,-4.939600906516489,0.0,0.0,0.0,-2.599423994793625
2025/05/06 15:49:17.738924595,1746539357,738025733,,5.626135681098276,-2.463638846959782,0.0,0.0,0.0,0.5679621866522382
2025/05/06 15:49:17.837243621,1746539357,834126112,,5.193903767219524,-3.035899216888936,0.0,0.0,0.0,2.763890824995869
2025/05/06 15:49:17.938229072,1746539357,937968311,,-7.345895558174817,-11.244815978640304,0.0,0.0,0.0,-5.924143582491382
2025/05/06 15:49:18.69577292,1746539358,68914802,,-1.665295113773169,-8.81675686060234,0.0,0.0,0.0,-3.5881126313798433
2025/05/06 15:49:18.147799678,1746539358,145077828,,-0.19722484759913073,-3.2062251184486854,0.0,0.0,0.0,-6.009906702644159
2025/05/06 15:49:18.250384628,1746539358,248181319,,4.779693818864018,0.9365619157673564,0.0,0.0,0.0,-2.6094121787324838
2025/05/06 15:49:18.344539615,1746539358,342348426,,3.764223418545953,-2.655073705069583,0.0,0.0,0.0,-0.353907869423125
2025/05/06 15:49:18.463418728,1746539358,462904758,,3.3396261745824063,2.1727480302660354,0.0,0.0,0.0,-0.0004198706525215812
2025/05/06 15:49:18.575502724,1746539358,574927292,,3.2454188358563556,-5.49266039203664,0.0,0.0,0.0,-3.658686022339012
2025/05/06 15:49:18.644207386,1746539358,639353555,,7.129059422471386,0.1585353920511352,0.0,0.0,0.0,-3.374213685425559
2025/05/06 15:49:18.743377766,1746539358,742702084,,6.547094389185531,-0.868502656196938,0.0,0.0,0.0,4.849314991163951
2025/05/06 15:49:18.852156662,1746539358,851845045,,3.1204641072521326,-1.9217561795910854,0.0,0.0,0.0,-8.071627165511345
2025/05/06 15:49:18.965399126,1746539358,962743537,,-3.530146295859282,-33.84085434477058,0.0,0.0,0.0,-11.836747389232741
2025/05/06 15:49:19.57012039,1746539359,55625734,,2.515049601725252,-28.310741726763297,0.0,0.0,0.0,-10.192822293927762
2025/05/06 15:49:19.155745570,1746539359,155409358,,1.871917627345681,-22.801989987751796,0.0,0.0,0.0,-13.520267334513093
2025/05/06 15:49:19.269949501,1746539359,267276565,,5.088927003522485,-17.432630904588223,0.0,0.0,0.0,-16.214196831297627
2025/05/06 15:49:19.338954640,1746539359,338379337,,4.464428008754226,-12.906395440130211,0.0,0.0,0.0,-18.303102978748342
2025/05/06 15:49:19.443794650,1746539359,442906493,,6.056692038837639,-10.85738611171206,0.0,0.0,0.0,-13.826954963299642
2025/05/06 15:49:19.550704684,1746539359,549809230,,2.133577245990466,-8.869474845867558,0.0,0.0,0.0,-8.872329448693478
2025/05/06 15:49:19.634907909,1746539359,632953273,,1.1471161779803936,-6.941437149967754,0.0,0.0,0.0,-1.9889864355462805
2025/05/06 15:49:19.747510939,1746539359,742468214,,3.352405274016178,-4.959304066232676,0.0,0.0,0.0,2.921990505918032
2025/05/06 15:49:19.842230425,1746539359,839054435,,3.1516330793076577,-2.0029552989820445,0.0,0.0,0.0,8.391170202706235
2025/05/06 15:49:19.942725374,1746539359,939412315,,-0.2757613143895128,-15.719096585279743,0.0,0.0,0.0,-0.5925499684696831
2025/05/06 15:49:20.51100781,1746539360,48821006,,2.673096500647887,-13.431316586409423,0.0,0.0,0.0,2.94243699739026
2025/05/06 15:49:20.140320017,1746539360,138049104,,4.282196792395325,-8.293010244828054,0.0,0.0,0.0,-2.7145408117159207
2025/05/06 15:49:20.236710415,1746539360,235760413,,4.03957132061916,-3.249617820611519,0.0,0.0,0.0,-1.2300428119993683
2025/05/06 15:49:20.348272230,1746539360,347848275,,4.449419687435238,1.814385818432811,0.0,0.0,0.0,-3.8798298001809712
2025/05/06 15:49:20.480302169,1746539360,477781208,,7.461484508983801,-6.408937141146168,0.0,0.0,0.0,-5.036013679520082
2025/05/06 15:49:20.534411693,1746539360,533845182,,5.72138001499809,-1.3110128377205115,0.0,0.0,0.0,-5.724597750465733
2025/05/06 15:49:20.656917906,1746539360,655149322,,2.13683875573156,-2.9036843198411475,0.0,0.0,0.0,4.9477292989907795
2025/05/06 15:49:20.750905983,1746539360,750561198,,-1.1962781453146647,-4.423135546473247,0.0,0.0,0.0,-7.372675157078746
2025/05/06 15:49:20.839273110,1746539360,838821389,,1.8740398626478338,-5.99894715043277,0.0,0.0,0.0,-1.9083858580366098
2025/05/06 15:49:20.946520122,1746539360,945316642,,3.7355651183725627,4.5346210869475385,0.0,0.0,0.0,3.5071644644047097
2025/05/06 15:49:21.64373232,1746539361,62127316,,3.0477141364454496,2.982530073699877,0.0,0.0,0.0,-0.3989353559645821
2025/05/06 15:49:21.144960000,1746539361,144606510,,5.3683689996672115,1.4950771928403412,0.0,0.0,0.0,-1.3140111011213378
2025/05/06 15:49:21.251871127,1746539361,248865684,,6.014898460740909,0.02388380038411242,0.0,0.0,0.0,-4.000968085889966
2025/05/06 15:49:21.353190685,1746539361,349823312,,3.159676700624914,-1.4311954192228313,0.0,0.0,0.0,-4.5605342990387925
2025/05/06 15:49:21.464740101,1746539361,463432155,,-1.156370011026297,-2.8369328756904792,0.0,0.0,0.0,-5.65636327953753
2025/05/06 15:49:21.591406459,1746539361,591107956,,5.190960427206221,-4.2937660580276145,0.0,0.0,0.0,-6.3302056901231225
2025/05/06 15:49:21.680305617,1746539361,677570550,,1.3408023455797036,-3.6623762736448384,0.0,0.0,0.0,-4.179675191705101
2025/05/06 15:49:21.738223268,1746539361,737892817,,0.8760970362446869,-1.8207325754305828,0.0,0.0,0.0,3.143289985344339
2025/05/06 15:49:21.839851210,1746539361,839241884,,6.804533760349926,-1.8284515507400272,0.0,0.0,0.0,1.895999950079542
2025/05/06 15:49:21.952910754,1746539361,950761745,,5.7562629447722315,-6.4130006917840205,0.0,0.0,0.0,-2.366387036154933
2025/05/06 15:49:22.53281407,1746539362,51848099,,3.450595199633767,22.721537936553148,0.0,0.0,0.0,9.91520691800251
2025/05/06 15:49:22.147362241,1746539362,146768656,,3.424567224979569,14.84185249172424,0.0,0.0,0.0,8.815079888355001
2025/05/06 15:49:22.241061589,1746539362,237473108,,2.6835507483221477,7.019645893917328,0.0,0.0,0.0,5.025424881470315
2025/05/06 15:49:22.350343104,1746539362,349543890,,3.2442171144449503,-0.7452952475368875,0.0,0.0,0.0,2.0486063264934558
2025/05/06 15:49:22.435551077,1746539362,434923117,,2.5075657145893615,-1.657809980688512,0.0,0.0,0.0,-13.218334203179083
2025/05/06 15:49:22.545707897,1746539362,544798243,,5.106946294665647,-2.7208046006861366,0.0,0.0,0.0,-2.2636996864990238
2025/05/06 15:49:22.647983756,1746539362,645529825,,4.351361743334451,2.8058198828559853,0.0,0.0,0.0,-0.6693152298766876
2025/05/06 15:49:22.741772562,1746539362,738364938,,4.093184852148198,-4.856679260061981,0.0,0.0,0.0,-0.42609184654993726
2025/05/06 15:49:22.876021227,1746539362,873378616,,2.5388508815532873,0.6658722711859468,0.0,0.0,0.0,-3.2225591680892904
2025/05/06 15:49:22.958414134,1746539362,957909044,,-3.701970719476833,11.563788567464826,0.0,0.0,0.0,3.4220492978607524
2025/05/06 15:49:23.67760619,1746539363,65950962,,0.3819280783964416,3.971968156955654,0.0,0.0,0.0,-1.1635141064988943
2025/05/06 15:49:23.138595216,1746539363,138267826,,2.838210740994043,-3.5363993503148663,0.0,0.0,0.0,3.1252245953645144
2025/05/06 15:49:23.251981285,1746539363,249296724,,5.268200811026702,2.193755238705563,0.0,0.0,0.0,-3.1580579792494916
2025/05/06 15:49:23.345491183,1746539363,342644704,,7.375482337334915,-5.270516091197976,0.0,0.0,0.0,1.1566350179583225
2025/05/06 15:49:23.436301613,1746539363,433938026,,3.472465114509987,0.4542091509297279,0.0,0.0,0.0,0.15327242247026618
2025/05/06 15:49:23.554589959,1746539363,554289131,,-0.6803593363443667,-6.8071681033547975,0.0,0.0,0.0,-1.210414498583404
2025/05/06 15:49:23.661754504,1746539363,657973484,,6.9214261442782,-1.017236115484991,0.0,0.0,0.0,-2.733621583955795
2025/05/06 15:49:23.739317665,1746539363,737158695,,3.0180508631852945,0.15153288114129282,0.0,0.0,0.0,4.422981154024143
2025/05/06 15:49:23.862963932,1746539363,860378715,,-8.206658956537524,8.64966607222948,0.0,0.0,0.0,0.7844725598461082
2025/05/06 15:49:23.958510233,1746539363,957894170,,-1.3712025631991764,1.261922409619558,0.0,0.0,0.0,-1.6791503675152057
2025/05/06 15:49:24.81813688,1746539364,81352889,,3.329639610355514,-4.109312505651303,0.0,0.0,0.0,-2.5492560350118225
2025/05/06 15:49:24.141492470,1746539364,140150331,,2.5771057072099666,1.7725958073075958,0.0,0.0,0.0,-6.12785983630242
2025/05/06 15:49:24.243567269,1746539364,242998191,,8.01325106398508,-4.497605291158266,0.0,0.0,0.0,-2.6154411427439896
2025/05/06 15:49:24.351095782,1746539364,349328715,,6.934220048374982,0.9708898957629799,0.0,0.0,0.0,-5.397104721127334
2025/05/06 15:49:24.441657309,1746539364,437337884,,2.5787188353623947,-4.80765894942931,0.0,0.0,0.0,-3.557159877868159
2025/05/06 15:49:24.546622867,1746539364,546167535,,-1.1626796093997882,1.1043124038117185,0.0,0.0,0.0,-4.03723536277117
2025/05/06 15:49:24.650323476,1746539364,649877011,,7.728205416840723,-1.2705111022557958,0.0,0.0,0.0,3.9172154529012744
2025/05/06 15:49:24.749213648,1746539364,747177552,,3.102859219755487,-1.954035407651702,0.0,0.0,0.0,-8.93399462020561
2025/05/06 15:49:24.853351523,1746539364,850799615,,-1.2085466457243115,-2.651563467660992,0.0,0.0,0.0,2.032960814757274
2025/05/06 15:49:24.942360096,1746539364,941730504,,4.985536154873785,-2.0851829105906745,0.0,0.0,0.0,-6.381392351568181
2025/05/06 15:49:25.69738386,1746539365,67816371,,-6.056311813482466,-21.805563579364048,0.0,0.0,0.0,-5.078645235824979
2025/05/06 15:49:25.152810683,1746539365,150743977,,-0.5140165412489921,-15.967096796800092,0.0,0.0,0.0,-8.665912549424775
2025/05/06 15:49:25.281333109,1746539365,280093107,,-0.8369633695108973,-11.7579185919638,0.0,0.0,0.0,-8.778272503750088
2025/05/06 15:49:25.338598295,1746539365,337189821,,4.743499477682207,-6.051288465296466,0.0,0.0,0.0,-12.20471730587218
2025/05/06 15:49:25.470074436,1746539365,469672612,,3.343843139189403,-1.1293903231978106,0.0,0.0,0.0,-9.071883425211865
2025/05/06 15:49:25.556084218,1746539365,555000110,,2.4527013065528536,-2.11741775901271,0.0,0.0,0.0,4.483272894577254
2025/05/06 15:49:25.659197469,1746539365,657102317,,2.3156958583911944,-1.7815718905649192,0.0,0.0,0.0,-4.252266878824642
2025/05/06 15:49:25.734448271,1746539365,734018006,,6.792681408314593,-2.7046370508913355,0.0,0.0,0.0,4.554641516454652
2025/05/06 15:49:25.847451017,1746539365,847083548,,5.859145994854373,-3.6749718358730092,0.0,0.0,0.0,-5.721022600223989
2025/05/06 15:49:25.944402607,1746539365,944209833,,1.4731197389066324,-3.7290363709012126,0.0,0.0,0.0,3.3754873287145415
2025/05/06 15:49:26.37274790,1746539366,34228820,,2.8421827862806026,1.5477382247964329,0.0,0.0,0.0,-2.3039083105268645
2025/05/06 15:49:26.147961380,1746539366,145362988,,1.6694147778288198,0.6177377014916203,0.0,0.0,0.0,-6.002307158710636
2025/05/06 15:49:26.245090561,1746539366,241701596,,7.086508545055295,-0.30208519947964874,0.0,0.0,0.0,-4.3963844113689845
2025/05/06 15:49:26.341603847,1746539366,339692027,,6.097238103403413,-1.2326991824513698,0.0,0.0,0.0,-8.07628842234594
2025/05/06 15:49:26.481376107,1746539366,479330025,,1.6757418880117712,-2.1116366838272427,0.0,0.0,0.0,-8.835041338471157
2025/05/06 15:49:26.580257218,1746539366,574882204,,-0.16483779213677963,-3.0015891612621886,0.0,0.0,0.0,-7.745706369515972
2025/05/06 15:49:26.647701227,1746539366,646840725,,2.4127652279138943,-2.2219975215048464,0.0,0.0,0.0,-9.705321080852045
2025/05/06 15:49:26.750520480,1746539366,746835543,,4.537626742169493,0.1781136406848418,0.0,0.0,0.0,0.4911703932370415
2025/05/06 15:49:26.848028199,1746539366,846473741,,5.5242608829848905,2.080273463059342,0.0,0.0,0.0,0.09425575801869002
2025/05/06 15:49:26.966553202,1746539366,963291587,,4.099261183904417,-24.080075030690125,0.0,0.0,0.0,-3.7891878064494477
2025/05/06 15:49:27.53457971,1746539367,52146347,,2.671523058313795,-18.436066191741702,0.0,0.0,0.0,-7.378497677672328
2025/05/06 15:49:27.145851203,1746539367,143034618,,3.620745826180155,-13.696242240833868,0.0,0.0,0.0,-7.647493986402338
2025/05/06 15:49:27.243847433,1746539367,243185570,,4.007918213387342,-8.399062722868592,0.0,0.0,0.0,-12.223117274874753
2025/05/06 15:49:27.346081502,1746539367,345822433,,6.081377728640689,-2.9276507779731844,0.0,0.0,0.0,-7.994263572314566
2025/05/06 15:49:27.446378843,1746539367,445704513,,1.5545286856861935,-4.094481935882811,0.0,0.0,0.0,2.766021294510196
2025/05/06 15:49:27.547862777,1746539367,547163838,,1.2684956237175697,1.3294815826360775,0.0,0.0,0.0,4.919895620417279
2025/05/06 15:49:27.668630137,1746539367,668315213,,3.5783003047912416,-6.482085746083982,0.0,0.0,0.0,-1.5694396300278868
2025/05/06 15:49:27.739045890,1746539367,736198900,,5.456071691868232,-1.0123762019248943,0.0,0.0,0.0,2.5466434640200504
2025/05/06 15:49:27.835356473,1746539367,834128899,,7.51612948821861,-0.8010309385834944,0.0,0.0,0.0,5.409395029730064
2025/05/06 15:49:27.939906762,1746539367,939325288,,3.660692005491626,-1.9914992308274009,0.0,0.0,0.0,-7.111071525856417
2025/05/06 15:49:28.46110181,1746539368,43336270,,-2.902005030376273,-8.283155294587772,0.0,0.0,0.0,-9.402275875877535
2025/05/06 15:49:28.146809479,1746539368,143700786,,1.4838536482390623,-6.223473455304827,0.0,0.0,0.0,-6.323511525976272
