time,header_stamp_secs,header_stamp_nsecs,header_frame_id,wrench_force_x,wrench_force_y,wrench_force_z,wrench_torque_x,wrench_torque_y,wrench_torque_z
2025/05/06 15:48:33.265417590,1746539313,260276535,,0.0,0.0,0.0,0.0,0.0,0.0
2025/05/06 15:48:33.354850542,1746539313,339350441,,0.0,0.0,0.0,0.0,0.0,0.0
2025/05/06 15:48:33.422630190,1746539313,420794385,,0.0,6.578000000000031,0.0,0.0,0.0,0.0
2025/05/06 15:48:33.499725085,1746539313,499345460,,0.0,13.083641999999998,0.0,0.0,0.0,0.0
2025/05/06 15:48:33.588915113,1746539313,588651510,,0.0,6.36172193799996,0.0,0.0,0.0,0.0
2025/05/06 15:48:33.648418116,1746539313,648026030,,0.0,12.869742996681964,0.0,0.0,0.0,0.0
2025/05/06 15:48:33.735953960,1746539313,735687691,,0.0,6.1501758237184845,0.0,0.0,0.0,0.0
2025/05/06 15:48:33.836561555,1746539313,836274318,,0.0,12.660523889657554,0.0,0.0,0.0,0.0
2025/05/06 15:48:33.962703498,1746539313,962071451,,0.0,5.943258126871342,0.0,0.0,0.0,0.0
2025/05/06 15:48:34.38049078,1746539314,36055737,,0.3986832360868391,-0.7001177125242748,0.0,0.0,0.0,-0.3189465888694798
2025/05/06 15:48:34.135111057,1746539314,134796316,,0.3942977204898739,-7.2704164176864765,0.0,0.0,0.0,-0.31543817639190763
2025/05/06 15:48:34.240559774,1746539314,239928803,,0.3899604455644692,-13.768441837091927,0.0,0.0,0.0,-0.3119683564515725
2025/05/06 15:48:34.345576925,1746539314,344879924,,0.3856708806632412,-19.107458278004742,0.0,0.0,0.0,0.2078203763062021
2025/05/06 15:48:34.440680229,1746539314,437948855,,0.38142850097594305,-12.319276236946735,0.0,0.0,0.0,0.20553435216685045
2025/05/06 15:48:34.557083604,1746539314,555932200,,0.3772327874652035,-18.761764198340302,0.0,0.0,0.0,0.2032734742929705
2025/05/06 15:48:34.665410477,1746539314,660277385,,0.3730832268030895,-11.977384792158603,0.0,0.0,0.0,0.20103746607578898
2025/05/06 15:48:34.756013820,1746539314,755659281,,0.3689793113082658,-18.42363355944474,0.0,0.0,0.0,0.19882605394886355
2025/05/06 15:48:34.855952321,1746539314,855663294,,0.36492053888389364,-11.642973590290921,0.0,0.0,0.0,0.1966389673554403
2025/05/06 15:48:34.940311178,1746539314,939926797,,0.360906412956183,-18.092900880797686,0.0,0.0,0.0,0.19447593871447566
2025/05/06 15:48:35.37805982,1746539315,37419197,,0.3569364424136552,-11.31587897110893,0.0,0.0,0.0,0.19233670338863362
2025/05/06 15:48:35.174092449,1746539315,171589424,,0.3530101415471165,-4.613404302426829,0.0,0.0,0.0,0.19022099965127381
2025/05/06 15:48:35.236153328,1746539315,235865635,,0.3491270299901146,-11.140656855100133,0.0,0.0,0.0,0.18812856865511662
2025/05/06 15:48:35.392195155,1746539315,391705580,,0.3452866326602191,-4.440109629694007,0.0,0.0,0.0,0.1860591543999135
2025/05/06 15:48:35.506884050,1746539315,501895054,,0.3414884797009563,-10.969268423767403,0.0,0.0,0.0,0.1840125037015099
2025/05/06 15:48:35.622601490,1746539315,615776347,,0.3377321064242267,-4.270606471105964,0.0,0.0,0.0,0.18198836616085146
2025/05/06 15:48:35.742643974,1746539315,740045477,,0.3340170532535751,2.3543702000762323,0.0,0.0,0.0,0.17998649413307533
2025/05/06 15:48:35.869196591,1746539315,863428659,,0.33034286566780224,-4.249527872124645,0.0,0.0,0.0,0.17800664269755373
2025/05/06 15:48:36.76809669,1746539316,76470104,,0.3267090941454569,2.3752169344686536,0.0,0.0,0.0,0.17604856962789484
2025/05/06 15:48:36.202089921,1746539316,197706420,,0.3231152941098685,-4.228910451810407,0.0,0.0,0.0,0.1741120353620147
2025/05/06 15:48:36.336066057,1746539316,328952928,,0.3195610258746626,2.3956075631594445,0.0,0.0,0.0,0.172196802973005
2025/05/06 15:48:36.475225369,1746539316,457578919,,0.316045854590044,-4.208744120035249,0.0,0.0,0.0,0.17030263814021396
2025/05/06 15:48:36.576872901,1746539316,576422897,,0.31256935018956256,2.4155520652851123,0.0,0.0,0.0,0.16842930912066834
2025/05/06 15:48:37.7964077,1746539317,4185099,,0.30913108733747663,-4.189019007433103,0.0,0.0,0.0,0.16657658672035325
2025/05/06 15:48:37.196614725,1746539317,184527385,,0.3057306453767694,-10.72093979835131,0.0,0.0,0.0,0.1647442442663305
2025/05/06 15:48:37.399192903,1746539317,274207617,,0.30236760827764897,-17.18100946056944,0.0,0.0,0.0,0.16293205757946794
2025/05/06 15:48:37.463761809,1746539317,385690531,,0.29904156458661646,-23.57001835650317,0.0,0.0,0.0,0.16113980494598934
2025/05/06 15:48:37.526767427,1746539317,479007224,,0.29575210737615976,-23.31074815458163,0.0,0.0,0.0,0.15936726709159643
2025/05/06 15:48:37.680764296,1746539317,617020300,,0.29249883419501543,-23.0543299248813,0.0,0.0,0.0,0.15761422715351614
2025/05/06 15:48:37.768109587,1746539317,711290442,,0.2892813470188855,-22.800732295707576,0.0,0.0,0.0,0.15588047065489263
2025/05/06 15:48:37.857881126,1746539317,792427366,,0.2860992522016659,-22.549924240454743,0.0,0.0,0.0,0.15416578547774407
2025/05/06 15:48:37.892627679,1746539317,862935126,,0.28295216042744187,-22.301875073809697,0.0,0.0,0.0,0.15246996183752515
2025/05/06 15:48:38.30541761,1746539317,983915847,,0.27983968666273995,-22.056554447997883,0.0,0.0,0.0,0.1507927922572918
2025/05/06 15:48:38.109231448,1746539318,102171108,,0.27676145010943287,-21.81393234906983,0.0,0.0,0.0,0.14913407154247693
2025/05/06 15:48:38.257329350,1746539318,221398745,,0.27371707415821334,-21.573979093230093,0.0,0.0,0.0,0.14749359675548135
2025/05/06 15:48:38.425669619,1746539318,423227816,,0.270706186342494,-21.336665323204556,0.0,0.0,0.0,0.14587116719111748
2025/05/06 15:48:38.586040747,1746539318,571286956,,0.26772841829273375,-14.52396200464932,0.0,0.0,0.0,0.14426658435199613
2025/05/06 15:48:38.793938393,1746539318,718819699,,0.26478340569153147,-7.7861984225980905,0.0,0.0,0.0,0.14267965192415488
2025/05/06 15:48:38.838406625,1746539318,809167046,,0.2618707882289186,-5.825252777425703,0.0,0.0,0.0,-1.1369533603979534
2025/05/06 15:48:38.921427330,1746539318,904493595,,0.2589902095583909,-10.72846105951237,0.0,0.0,0.0,1.7748382138174321
2025/05/06 15:48:39.182743780,1746539319,58161107,,0.2561413172532241,-7.321447987857653,0.0,0.0,0.0,-4.164885006534547
2025/05/06 15:48:39.253545131,1746539319,218243905,,0.2533237627634435,-10.529912059991261,0.0,0.0,0.0,1.8011287285373356
2025/05/06 15:48:39.415588849,1746539319,342027172,,0.25053720137304936,-8.903802704876625,0.0,0.0,0.0,-0.9371882678950954
2025/05/06 15:48:39.659384415,1746539319,482752998,,6.825781292157956,-4.027864521713923,0.0,0.0,0.0,-0.8889252635051008
2025/05/06 15:48:39.781862280,1746539319,626335824,,13.328697697944222,-7.25494841781267,0.0,0.0,0.0,0.24018941178452735
2025/05/06 15:48:40.17864030,1746539319,796230709,,19.760082023266847,-13.753143985216752,0.0,0.0,0.0,0.23754732825496205
2025/05/06 15:48:40.178114112,1746539319,959569966,,26.120721121010945,-19.54602668149522,0.0,0.0,0.0,1.3758332034355476
2025/05/06 15:48:40.733167843,1746539320,453680875,,32.41139318867985,-22.945184335103363,0.0,0.0,0.0,3.9408045350244834
2025/05/06 15:48:41.11397859,1746539320,745454463,,38.63286786360439,-20.012804168417745,0.0,0.0,0.0,4.0318794070641815
2025/05/06 15:48:41.443460276,1746539321,106459436,,44.78590631710472,-15.179692999009887,0.0,0.0,0.0,5.2554628069329254
2025/05/06 15:48:41.831034249,1746539321,498824943,,50.87126134761658,-12.493616553038692,0.0,0.0,0.0,5.239664954146718
2025/05/06 15:48:42.58216271,1746539321,834899078,,56.88967747279281,-12.065898923151394,0.0,0.0,0.0,4.774946909854876
2025/05/06 15:48:42.841611066,1746539322,540804790,,68.72863021936558,-2.667270223083051,0.0,0.0,0.0,5.665878748542696
2025/05/06 15:48:43.168622357,1746539322,886797883,,74.55061528695256,1.6100395925142834,0.0,0.0,0.0,5.292454864646174
2025/05/06 15:48:43.535065376,1746539323,174948419,,80.3085585187961,3.091570816811611,0.0,0.0,0.0,3.757328118608413
2025/05/06 15:48:43.888732266,1746539323,523786221,,86.00316437508937,3.767481840622395,0.0,0.0,0.0,2.743323263517226
2025/05/06 15:48:44.222351288,1746539324,82737627,,97.20514314172678,1.0374338124395308,0.0,0.0,0.0,1.9736192960398995
2025/05/06 15:48:44.399596767,1746539324,326400564,,102.71388656716779,0.7604353328757725,0.0,0.0,0.0,1.4415392831428449
2025/05/06 15:48:44.516749875,1746539324,482202882,,108.16203381492895,0.38493834835105645,0.0,0.0,0.0,1.0417078737215633
2025/05/06 15:48:44.583373288,1746539324,577697298,,113.55025144296474,0.3231963261939086,0.0,0.0,0.0,-4.427344085659797
2025/05/06 15:48:44.900107748,1746539324,897722165,,115.59019867709212,5.304255804103946,0.0,0.0,0.0,-4.615536953220925
2025/05/06 15:48:45.73385813,1746539325,70688114,,120.89670649164411,11.823908990258815,0.0,0.0,0.0,-4.564766046735585
2025/05/06 15:48:45.158936413,1746539325,156443439,,126.14484272023603,18.27184599136598,0.0,0.0,0.0,-4.514553620221477
2025/05/06 15:48:45.257225299,1746539325,255116750,,131.33524945031343,23.654270472392454,0.0,0.0,0.0,-2.674640146875717
2025/05/06 15:48:45.364674742,1746539325,361809192,,136.46856170636,28.681347005782357,0.0,0.0,0.0,-0.3219114207153524
2025/05/06 15:48:45.615656571,1746539325,614484647,,138.25640752759,21.787852188718773,0.0,0.0,0.0,-2.949570395087491
2025/05/06 15:48:45.703252296,1746539325,698387277,,143.31358704478657,14.970185814642889,0.0,0.0,0.0,-2.9171251207414457
2025/05/06 15:48:45.801533136,1746539325,794358346,,148.31513758729392,8.227513770681753,0.0,0.0,0.0,-2.88503674441327
2025/05/06 15:48:45.940761874,1746539325,930558219,,152.9461611144273,1.5590111192042286,0.0,0.0,0.0,-2.6008933726996872
2025/05/06 15:48:46.143309772,1746539326,142351694,,157.84175334216863,-5.036138003106942,0.0,0.0,0.0,-2.572283545600058
2025/05/06 15:48:46.237933780,1746539326,233188160,,162.6834940554048,-11.558740485072747,0.0,0.0,0.0,-2.543988426598446
2025/05/06 15:48:46.292752925,1746539326,289977849,,167.47197562079532,-18.009594339736964,0.0,0.0,0.0,-2.5160045539059013
2025/05/06 15:48:46.359986986,1746539326,356714898,,172.2077838889666,-24.389488801999846,0.0,0.0,0.0,-2.4883285038128236
2025/05/06 15:48:46.605507914,1746539326,601185731,,173.60249826618798,-17.54320442517792,0.0,0.0,0.0,0.17024310972909973
2025/05/06 15:48:46.675922945,1746539326,672806781,,178.2708707852599,-10.772229176500957,0.0,0.0,0.0,0.1683704355220783
2025/05/06 15:48:46.763914201,1746539326,761582594,,182.88789120662204,-4.075734655559472,0.0,0.0,0.0,0.16651836073140203
2025/05/06 15:48:46.915581284,1746539326,914298353,,187.45412440334917,2.547098425651768,0.0,0.0,0.0,0.16468665876328714
2025/05/06 15:48:47.20452403,1746539327,16106499,,191.97012903491236,9.097080342969548,0.0,0.0,0.0,0.16287510551686069
2025/05/06 15:48:47.118905576,1746539327,114040797,,196.4364576155283,15.575012459196955,0.0,0.0,0.0,0.1610834793560798
2025/05/06 15:48:47.212106610,1746539327,205144395,,200.8536565817575,21.981687322145717,0.0,0.0,0.0,0.15931156108322853
2025/05/06 15:48:47.284037566,1746539327,282770774,,205.22226635935817,28.31788876160215,0.0,0.0,0.0,0.15755913391130605
2025/05/06 15:48:47.409177137,1746539327,408025603,,209.54282142940525,34.5843919852245,0.0,0.0,0.0,0.15582598343833354
2025/05/06 15:48:47.483271206,1746539327,482166653,,213.81585039368179,37.558868861517624,0.0,0.0,0.0,-1.6248855293538043
2025/05/06 15:48:47.569312493,1746539327,568360632,,214.7528760393513,38.51926393134306,0.0,0.0,0.0,3.4965649406130126
2025/05/06 15:48:47.669947767,1746539327,665995485,,215.67959440291844,41.38455202809831,0.0,0.0,0.0,6.747102726266249
2025/05/06 15:48:47.787393566,1746539327,785537852,,219.88511886448632,47.50732195578928,0.0,0.0,0.0,6.672884596277257
2025/05/06 15:48:47.857355096,1746539327,855428415,,224.04438255697696,50.189517802730165,0.0,0.0,0.0,0.5276803649365149
2025/05/06 15:48:47.973846172,1746539327,973104295,,228.15789434885022,51.22048422879061,0.0,0.0,0.0,0.08737084973641629
2025/05/06 15:48:48.84444214,1746539328,82034381,,232.22615751101284,50.203844478497786,0.0,0.0,0.0,-2.5100734015176727
2025/05/06 15:48:48.199180039,1746539328,197904838,,236.2496697783917,51.37122705380693,0.0,0.0,0.0,0.0024766942300260553
2025/05/06 15:48:48.280927816,1746539328,278670758,,240.2289234108294,50.92198350443954,0.0,0.0,0.0,-2.0605492104749175
2025/05/06 15:48:48.356589036,1746539328,352736175,,244.16440525331026,50.179311227406345,0.0,0.0,0.0,-1.7093283438877052
2025/05/06 15:48:48.499462099,1746539328,494271207,,248.05659679552386,50.141805086605075,0.0,0.0,0.0,-2.616565040965213
2025/05/06 15:48:48.630802670,1746539328,609753508,,248.6169742307731,43.012245230652354,0.0,0.0,0.0,-5.218982825514686
2025/05/06 15:48:48.688696287,1746539328,677532813,,249.17118751423462,35.96111053311529,0.0,0.0,0.0,-2.53037401443396
2025/05/06 15:48:48.798049846,1746539328,794847747,,253.00830445157803,28.98753831725105,0.0,0.0,0.0,-2.5025399002751954
2025/05/06 15:48:48.900517174,1746539328,900021532,,256.8032131026107,22.090675395761195,0.0,0.0,0.0,-2.4750119613722035
2025/05/06 15:48:48.983677537,1746539328,981727646,,260.556377758482,15.269677966407812,0.0,0.0,0.0,-2.4477868297971668
2025/05/06 15:48:49.56006009,1746539329,52411402,,264.26825760313864,8.523711508777296,0.0,0.0,0.0,-2.4208611746693975
2025/05/06 15:48:49.181130626,1746539329,177985097,,267.9393067695041,1.8519506821808136,0.0,0.0,0.0,-2.3942317017480548
2025/05/06 15:48:49.298861770,1746539329,294175815,,271.5699743950396,-4.746420775323145,0.0,0.0,0.0,-2.367895153028826
2025/05/06 15:48:49.378022951,1746539329,377681399,,275.16070467669414,-11.272210146794635,0.0,0.0,0.0,-2.3418483063455255
2025/05/06 15:48:49.668064541,1746539329,658738724,,275.4229369252505,-16.77250001714748,0.0,0.0,0.0,-6.663976447434138
2025/05/06 15:48:49.974908376,1746539329,958871103,,269.8872411679895,-23.166002516958827,0.0,0.0,0.0,-8.595507467378894
2025/05/06 15:48:50.139272163,1746539330,137453882,,273.4964815151416,-29.489176489272268,0.0,0.0,0.0,-8.500956885237784
2025/05/06 15:48:50.276896843,1746539330,270369777,,277.06602021847505,-35.74279554789018,0.0,0.0,0.0,-8.407446359500156
2025/05/06 15:48:50.358272378,1746539330,357904008,,280.59629399607184,-41.92762479686337,0.0,0.0,0.0,-8.31496444954567
2025/05/06 15:48:50.445742766,1746539330,439210012,,282.45494098520925,-48.04442092409795,0.0,0.0,0.0,-6.9172648190759105
2025/05/06 15:48:50.499053590,1746539330,496298716,,282.636936634372,-47.515932293932906,0.0,0.0,0.0,-4.209974906066037
2025/05/06 15:48:50.579848329,1746539330,575626396,,286.1059303313939,-40.415257038699565,0.0,0.0,0.0,-4.163665182099294
2025/05/06 15:48:50.720724555,1746539330,712106372,,289.53676509774846,-33.392689211273876,0.0,0.0,0.0,-4.117864865096266
2025/05/06 15:48:50.792818211,1746539330,789819274,,292.3789842670284,-28.860369822353846,0.0,0.0,0.0,-7.975267566191391
2025/05/06 15:48:50.869976949,1746539330,869231345,,295.74081544009107,-23.368729551296042,0.0,0.0,0.0,-5.360656788384631
2025/05/06 15:48:50.983587481,1746539330,978822788,,299.0656664702501,-22.09039166734749,0.0,0.0,0.0,-9.946587497896488
2025/05/06 15:48:51.75493106,1746539331,69789044,,302.3539441390774,-21.423596831815814,0.0,0.0,0.0,-4.807360790558761
2025/05/06 15:48:51.181235138,1746539331,177593570,,305.6060507535475,-21.353754167481952,0.0,0.0,0.0,-2.842096451209727
2025/05/06 15:48:51.281078164,1746539331,277551356,,308.82238419525845,-21.315774442784914,0.0,0.0,0.0,-1.598576099271824
2025/05/06 15:48:51.448758080,1746539331,448116792,,312.0033379691107,-21.455800179268067,0.0,0.0,0.0,-1.461931662821982
2025/05/06 15:48:51.541193380,1746539331,539627228,,311.86030125145044,-14.641786377296057,0.0,0.0,0.0,1.1853495854689413
2025/05/06 15:48:51.637753595,1746539331,636507219,,311.7188379376845,-7.902726727145875,0.0,0.0,0.0,-1.458889259971059
2025/05/06 15:48:51.703722983,1746539331,701230012,,314.86793072036994,-1.2377967331472064,0.0,0.0,0.0,-1.4428414781116174
2025/05/06 15:48:51.787875639,1746539331,780047614,,317.9823834824459,5.353819030917407,0.0,0.0,0.0,-1.4269702218523435
2025/05/06 15:48:51.882150482,1746539331,876955826,,321.06257726413895,11.872927021577311,0.0,0.0,0.0,-1.4112735494120159
2025/05/06 15:48:51.971152147,1746539331,970392986,,324.10888891423343,18.320324824339934,0.0,0.0,0.0,-1.395749540368456
2025/05/06 15:48:52.84900093,1746539332,81147074,,327.1216911361769,22.20342499234573,0.0,0.0,0.0,-5.868473561492067
2025/05/06 15:48:52.149293781,1746539332,148430887,,330.10135253367895,25.055849753232053,0.0,0.0,0.0,-12.070327967871748
2025/05/06 15:48:52.296987972,1746539332,291465443,,333.0482376558085,24.948609147167303,0.0,0.0,0.0,-12.722909919811713
2025/05/06 15:48:52.394301462,1746539332,388220595,,335.9627070415946,24.641452786429397,0.0,0.0,0.0,-13.71953808209048
2025/05/06 15:48:52.473968435,1746539332,469335560,,338.84511726413706,24.93006668832618,0.0,0.0,0.0,-13.785684002966718
2025/05/06 15:48:52.620794162,1746539332,619152060,,338.40682097423155,21.649604757737848,0.0,0.0,0.0,-16.540284417666356
2025/05/06 15:48:52.707966028,1746539332,701854191,,341.262345943515,15.04726315291606,0.0,0.0,0.0,-16.743188574596104
2025/05/06 15:48:52.808174998,1746539332,799687309,,344.08646013813643,8.75678107856561,0.0,0.0,0.0,-17.37448157687237
2025/05/06 15:48:52.897801771,1746539332,895595472,,346.87950907661696,9.130577224235537,0.0,0.0,0.0,-19.640470423188702
2025/05/06 15:48:52.978335391,1746539332,977671895,,349.64183447677414,9.481969694912664,0.0,0.0,0.0,-19.425031691271784
2025/05/06 15:48:53.63241930,1746539333,54473119,,352.3737742975296,9.159975274701026,0.0,0.0,0.0,-19.90013074910945
2025/05/06 15:48:53.190890924,1746539333,189435741,,355.0756627802568,9.278399716216825,0.0,0.0,0.0,-19.450576339912686
2025/05/06 15:48:53.303301797,1746539333,302854963,,357.74783048967396,9.021996394220366,0.0,0.0,0.0,-19.476241021680494
2025/05/06 15:48:53.378686330,1746539333,377689650,,360.3906043542875,9.20541069955027,0.0,0.0,0.0,-19.554156979990807
2025/05/06 15:48:53.465581793,1746539333,461237256,,363.00430770639036,5.074922649296582,0.0,0.0,0.0,-20.527530086177677
2025/05/06 15:48:53.613534003,1746539333,609754970,,365.5892603216201,3.4007186241886984,0.0,0.0,0.0,-24.71736927209534
2025/05/06 15:48:53.704932880,1746539333,701042886,,368.1457784580823,4.209364421103658,0.0,0.0,0.0,-22.778265836336175
2025/05/06 15:48:53.803543407,1746539333,801428789,,370.6741748950434,3.5525153234386835,0.0,0.0,0.0,-24.25721951954199
2025/05/06 15:48:53.866264678,1746539333,865252891,,373.1747589711979,3.5392116935465197,0.0,0.0,0.0,-23.943996835228887
2025/05/06 15:48:53.939893002,1746539333,939327038,,375.6478366225147,3.55593481270148,0.0,0.0,0.0,-23.780790876052492
2025/05/06 15:48:54.57028398,1746539334,56364322,,378.093710419667,3.51681952976179,0.0,0.0,0.0,-23.519202176415945
2025/05/06 15:48:54.157117044,1746539334,156539365,,380.5126796050507,3.5183768990477233,0.0,0.0,0.0,-23.332927243879425
2025/05/06 15:48:54.258462286,1746539334,258007454,,382.9050401293951,3.4796747531582355,0.0,0.0,0.0,-23.076265044196816
2025/05/06 15:48:54.352448200,1746539334,351533601,,381.9820846879718,-3.1366016691264917,0.0,0.0,0.0,-25.45362612871068
2025/05/06 15:48:54.442600085,1746539334,440306336,,384.35828175640404,-6.391099050766115,0.0,0.0,0.0,-31.093836241294838
2025/05/06 15:48:54.545228247,1746539334,540703332,,386.7083406570836,-10.40301529003466,0.0,0.0,0.0,-28.413990737527968
2025/05/06 15:48:54.636592763,1746539334,636203380,,389.0325489098557,-12.481776686850935,0.0,0.0,0.0,-23.27709834368764
2025/05/06 15:48:54.747586458,1746539334,747281720,,391.3311908718473,-12.141985307832556,0.0,0.0,0.0,-23.822532367411924
2025/05/06 15:48:54.883600463,1746539334,879573798,,393.6045477722569,-12.387307631298427,0.0,0.0,0.0,-22.51905437904145
2025/05/06 15:48:54.981506836,1746539334,980051107,,395.85289774676215,-12.790187960906906,0.0,0.0,0.0,-23.087549288822856
2025/05/06 15:48:55.60289120,1746539335,57349450,,398.0765158715477,-12.656202895340243,0.0,0.0,0.0,-22.627449391243204
2025/05/06 15:48:55.156862730,1746539335,155953307,,400.2756741969607,-12.807357482682164,0.0,0.0,0.0,-22.854970538014385
2025/05/06 15:48:55.254595163,1746539335,254192126,,402.4506417807942,-12.88653150253191,0.0,0.0,0.0,-22.728631187773885
2025/05/06 15:48:55.347657364,1746539335,346305763,,404.6016847212054,-7.084488680008349,0.0,0.0,0.0,-24.130492487916086
2025/05/06 15:48:55.448715298,1746539335,448141324,,406.72906618927215,-0.748895336458645,0.0,0.0,0.0,-23.28845221307435
2025/05/06 15:48:55.558405333,1746539335,556825424,,408.8330464611902,2.879527869473577,0.0,0.0,0.0,-17.708212881746505
2025/05/06 15:48:55.638618819,1746539335,637350923,,410.913882950117,3.15891881966769,0.0,0.0,0.0,-16.992397248661348
2025/05/06 15:48:55.758746225,1746539335,757886995,,412.97183023766576,3.1939198886318536,0.0,0.0,0.0,-16.06274754341831
2025/05/06 15:48:55.876630893,1746539335,874372655,,415.00714010505146,3.0467489963122603,0.0,0.0,0.0,-16.024296305119407
2025/05/06 15:48:55.977477901,1746539335,964195513,,417.02006156389587,2.846015467996324,0.0,0.0,0.0,-15.88991404332171
2025/05/06 15:48:56.102297512,1746539336,100740843,,419.010840886693,2.9764327520596794,0.0,0.0,0.0,-15.859346400286654
2025/05/06 15:48:56.216559568,1746539336,215108195,,420.9797216369394,2.7048078078179856,0.0,0.0,0.0,-15.875934936971191
2025/05/06 15:48:56.291193447,1746539336,288641696,,422.9269446989331,2.827977998187862,0.0,0.0,0.0,-15.839753744969812
2025/05/06 15:48:56.361506487,1746539336,361161291,,424.85274830724484,1.204515368949103,0.0,0.0,0.0,-6.691355222040869
2025/05/06 15:48:56.444809322,1746539336,439655335,,426.7573680758651,-1.9210145382459132,0.0,0.0,0.0,-0.37945474324433803
2025/05/06 15:48:56.561844842,1746539336,557325127,,428.6410370270306,-2.8827392901067697,0.0,0.0,0.0,4.655909969922305
2025/05/06 15:48:56.645895933,1746539336,644750579,,430.50398561973327,-3.593172965193901,0.0,0.0,0.0,5.459128661006929
2025/05/06 15:48:56.758460962,1746539336,757671964,,432.3464417779162,-3.36225028887759,0.0,0.0,0.0,6.495367802526289
2025/05/06 15:48:56.857953287,1746539336,854607063,,434.1686309183591,-3.4648179797521266,0.0,0.0,0.0,6.4758349757093185
2025/05/06 15:48:56.954940439,1746539336,953142277,,435.97077597825717,-3.449529381895104,0.0,0.0,0.0,6.707992030242906
2025/05/06 15:48:57.49847880,1746539337,46928131,,437.75309744249637,-3.4684342692802375,0.0,0.0,0.0,6.70021583757304
2025/05/06 15:48:57.143775075,1746539337,143331393,,439.51581337062885,-4.12188801989322,0.0,0.0,0.0,5.625347359555462
2025/05/06 15:48:57.275807878,1746539337,272804519,,441.2591394235519,-3.825391607916572,0.0,0.0,0.0,5.847251964781236
2025/05/06 15:48:57.382203436,1746539337,381845689,,442.98328888989283,-3.7843201377621085,0.0,0.0,0.0,5.671591458356744
2025/05/06 15:48:57.443030712,1746539337,442809293,,441.399472712104,-6.111045339142322,0.0,0.0,0.0,4.859035040077629
2025/05/06 15:48:57.534543413,1746539337,534106299,,442.6788328308896,-12.621823840411764,0.0,0.0,0.0,5.1601821997416835
2025/05/06 15:48:57.716310616,1746539337,713956816,,444.3873656697498,-19.06098377816727,0.0,0.0,0.0,5.103420195544544
2025/05/06 15:48:57.792863389,1746539337,790800299,,446.0771046473825,-25.429312956607475,0.0,0.0,0.0,5.047282573393517
2025/05/06 15:48:57.867654364,1746539337,862955449,,447.74825649626126,-30.65537806976897,0.0,0.0,0.0,6.92174486485456
2025/05/06 15:48:57.958656617,1746539337,956352425,,449.4010256748024,-32.28428192643355,0.0,0.0,0.0,15.103081673374817
2025/05/06 15:48:58.53503805,1746539338,52895983,,451.03561439237956,-33.24169957467393,0.0,0.0,0.0,15.811547694209196
2025/05/06 15:48:58.264228608,1746539338,209307837,,452.65222263406343,-33.02902381857086,0.0,0.0,0.0,17.35232039046653
2025/05/06 15:48:58.320731551,1746539338,301140437,,454.25104818508873,-33.07559949326577,0.0,0.0,0.0,17.336304500301168
2025/05/06 15:48:58.385341891,1746539338,384470360,,455.8322866550527,-33.08455755824127,0.0,0.0,0.0,17.629765207467557
2025/05/06 15:48:58.559114712,1746539338,558858629,,454.10713150184716,-26.142627425100557,0.0,0.0,0.0,20.067037790185395
2025/05/06 15:48:58.657281580,1746539338,655121852,,454.8663818294823,-19.277058523424444,0.0,0.0,0.0,19.847447457715646
2025/05/06 15:48:58.714313401,1746539338,713881723,,453.15185162935796,-12.487010879666741,0.0,0.0,0.0,16.997925535680793
2025/05/06 15:48:58.766764347,1746539338,764300508,,454.74518126143505,-5.7716537599905,0.0,0.0,0.0,16.810948354788223
2025/05/06 15:48:58.843347420,1746539338,839960363,,453.03198426755927,0.8698344313694406,0.0,0.0,0.0,13.994827922885548
2025/05/06 15:48:58.954270579,1746539338,951823308,,454.6266324406161,7.43826625262443,0.0,0.0,0.0,13.840884815733858
2025/05/06 15:48:59.74631755,1746539339,72056019,,456.2037394837693,13.93444532384558,0.0,0.0,0.0,13.688635082760811
2025/05/06 15:48:59.142985529,1746539339,141230763,,457.76349834944784,20.359166425283206,0.0,0.0,0.0,13.538060096850415
2025/05/06 15:48:59.251009544,1746539339,246176680,,459.3060998676039,26.713215594605117,0.0,0.0,0.0,13.389141435785064
2025/05/06 15:48:59.368550303,1746539339,365306554,,454.25373276906026,23.130370223064347,0.0,0.0,0.0,19.1620608799914
2025/05/06 15:48:59.458588291,1746539339,455604880,,447.5302854593499,16.297936150610724,0.0,0.0,0.0,18.93126062436994
2025/05/06 15:48:59.547686950,1746539339,547208018,,448.8757630834606,9.540658852953982,0.0,0.0,0.0,18.970768146171082
2025/05/06 15:48:59.647347963,1746539339,643528257,,450.0150745447227,2.857711605571467,0.0,0.0,0.0,19.162933812419
2025/05/06 15:48:59.768382770,1746539339,767290445,,450.5842398533274,-3.7517232220898222,0.0,0.0,0.0,19.799076637605054
2025/05/06 15:48:59.897106795,1746539339,894895471,,452.2058132149408,-10.288454266646795,0.0,0.0,0.0,19.58128679459145
2025/05/06 15:49:00.20424547,1746539340,19416280,,453.80954926957645,-14.283738881369686,0.0,0.0,0.0,23.81106893887022
2025/05/06 15:49:00.120850207,1746539340,110176251,,455.3956442276111,-14.126617753674566,0.0,0.0,0.0,35.38954718054259
2025/05/06 15:49:00.219172764,1746539340,214982755,,456.9642921411074,-13.971224958384084,0.0,0.0,0.0,23.159862161556703
2025/05/06 15:49:00.293094123,1746539340,292576916,,458.5156849275552,-13.817541483841921,0.0,0.0,0.0,34.74550367777957
2025/05/06 15:49:00.388868914,1746539340,387853124,,460.05001239335206,-13.665548527519661,0.0,0.0,0.0,22.522903137323908
2025/05/06 15:49:00.473654236,1746539340,471901016,,454.98946225702525,-9.406378444569896,0.0,0.0,0.0,26.71962291434872
2025/05/06 15:49:00.560265961,1746539340,559313509,,443.55350365058393,-2.7249082816796317,0.0,0.0,0.0,26.308166679582087
2025/05/06 15:49:00.647615155,1746539340,642397435,,432.0964151104275,3.8830657094188155,0.0,0.0,0.0,26.018776846106732
2025/05/06 15:49:00.747831451,1746539340,747619344,,420.76535454421276,3.8403519866151896,0.0,0.0,0.0,13.89217030079945
2025/05/06 15:49:00.853179064,1746539340,850114535,,422.71493564422644,3.7981081147623854,0.0,0.0,0.0,25.57975642749068
2025/05/06 15:49:00.982229594,1746539340,981771617,,424.64307135213994,3.7563289255000427,0.0,0.0,0.0,13.457979106788258
2025/05/06 15:49:01.43764141,1746539341,43264245,,426.54999756726636,4.120161780569447,0.0,0.0,0.0,24.421066884763775
2025/05/06 15:49:01.208388147,1746539341,204155388,,428.4359475940265,4.074840000983272,0.0,0.0,0.0,12.312035149031317
2025/05/06 15:49:01.298100345,1746539341,297198796,,430.3011521704922,4.030016760972387,0.0,0.0,0.0,24.01700276239194
2025/05/06 15:49:01.352174152,1746539341,350229142,,432.14583949661676,3.985686576601722,0.0,0.0,0.0,11.912415732005684
2025/05/06 15:49:01.457045550,1746539341,456533572,,427.39223526215403,10.5198440242591,0.0,0.0,0.0,11.781379158953598
2025/05/06 15:49:01.542285033,1746539341,540790185,,416.1129206742703,12.371634910289401,0.0,0.0,0.0,5.204967608338876
2025/05/06 15:49:01.649637335,1746539341,646444101,,404.95767854685334,9.51924025742818,0.0,0.0,0.0,10.792107636257839
2025/05/06 15:49:01.740216014,1746539341,737577558,,393.92514408283796,9.873915917147713,0.0,0.0,0.0,-0.34010840314891766
2025/05/06 15:49:01.843934048,1746539341,843647786,,396.16996749792673,9.765302842059043,0.0,0.0,0.0,11.504032789285816
2025/05/06 15:49:01.945334741,1746539341,943113466,,398.39009785544954,9.657884510796407,0.0,0.0,0.0,-0.4629115713963188
2025/05/06 15:49:02.44074099,1746539342,41805673,,400.5858067790396,9.551647781177678,0.0,0.0,0.0,11.382580455889041
2025/05/06 15:49:02.175455731,1746539342,173885968,,402.7573629044702,9.446579655584742,0.0,0.0,0.0,-0.5830279291257625
2025/05/06 15:49:02.240609432,1746539342,240095701,,404.905031912521,9.342667279373245,0.0,0.0,0.0,11.263785378094639
2025/05/06 15:49:02.363568976,1746539342,354343171,,400.4510765614832,5.541595578994702,0.0,0.0,0.0,5.956427987485171
2025/05/06 15:49:02.434696531,1746539342,433932265,,389.468114719307,3.4516224570055556,0.0,0.0,0.0,-2.297264693260729
2025/05/06 15:49:02.548856623,1746539342,548250029,,378.6059654573945,1.973964596591145,0.0,0.0,0.0,-4.942202851636182
2025/05/06 15:49:02.646064108,1746539342,645589394,,367.8632998373632,3.3382073512576085,0.0,0.0,0.0,-2.3931171628561003
2025/05/06 15:49:02.739343858,1746539342,737995330,,370.39480353915224,0.012487070393774502,0.0,0.0,0.0,-8.286992874064651
2025/05/06 15:49:02.859946061,1746539342,857273674,,372.8984607002215,3.3013497126194693,0.0,0.0,0.0,-2.275635952449818
2025/05/06 15:49:02.960679199,1746539342,957979210,,375.37457763251905,-0.023965134219395168,0.0,0.0,0.0,-8.170803956972946
2025/05/06 15:49:03.41392578,1746539343,40576985,,376.65128060970466,3.2652984822569806,0.0,0.0,0.0,-3.0984664485316387
2025/05/06 15:49:03.169611491,1746539343,168420732,,379.0861165229979,-0.05961980104774511,0.0,0.0,0.0,-8.984583317597696
2025/05/06 15:49:03.270532704,1746539343,256210339,,381.4941692412449,3.2300360167637336,0.0,0.0,0.0,-2.965552901104161
2025/05/06 15:49:03.366738471,1746539343,366287737,,377.29773337959125,-3.3834943794207106,0.0,0.0,0.0,-2.9329318191919924
2025/05/06 15:49:03.439126492,1746539343,438311763,,366.5694583124157,-3.346275941247029,0.0,0.0,0.0,-14.741069569180922
2025/05/06 15:49:03.546489505,1746539343,544387878,,355.95919427097914,-6.5984669058933605,0.0,0.0,0.0,-20.49911780391983
2025/05/06 15:49:03.635175673,1746539343,634164623,,346.0657221099443,-8.890329686810105,0.0,0.0,0.0,-25.009693339220377
2025/05/06 15:49:03.764219640,1746539343,763187185,,348.8369991667349,-5.503536060255215,0.0,0.0,0.0,-18.814386712488954
2025/05/06 15:49:03.856117062,1746539343,854717717,,351.5777921759008,-8.731997163592382,0.0,0.0,0.0,-24.52762845865152
2025/05/06 15:49:03.944519969,1746539343,944071584,,354.28843646196594,-5.346945194792852,0.0,0.0,0.0,-18.33762454560639
2025/05/06 15:49:04.51342816,1746539344,50835073,,353.6802636608843,-8.577128797650062,0.0,0.0,0.0,-21.424910675604792
2025/05/06 15:49:04.178408141,1746539344,159639193,,346.5007807606146,-5.193780380875978,0.0,0.0,0.0,-17.9002366581731
2025/05/06 15:49:04.304380968,1746539344,302746688,,346.0483784938798,-8.425648796686346,0.0,0.0,0.0,-21.04841911223872
2025/05/06 15:49:04.411039389,1746539344,403934879,,345.53084633044716,-10.844731995817256,0.0,0.0,0.0,-18.926908897394014
2025/05/06 15:49:04.462201376,1746539344,461628429,,338.4410070208122,-17.30343994386328,0.0,0.0,0.0,-16.08751289952275
2025/05/06 15:49:04.588744175,1746539344,588154029,,334.8134806824561,-23.69110210448082,0.0,0.0,0.0,-14.39432758210009
2025/05/06 15:49:04.638804967,1746539344,638096130,,331.755488689254,-29.671348615583156,0.0,0.0,0.0,-11.972647604701706
2025/05/06 15:49:04.751911812,1746539344,751468819,,329.3881846043697,-35.922963780811756,0.0,0.0,0.0,-10.815343448491973
2025/05/06 15:49:04.854281905,1746539344,853662935,,329.05391457372167,-40.550850163804,0.0,0.0,0.0,-16.126504498312528
2025/05/06 15:49:04.939921103,1746539344,938775814,,331.6902162952914,-41.56851206126305,0.0,0.0,0.0,-25.412498874656677
2025/05/06 15:49:05.53748725,1746539345,52943960,,334.6196239160432,-44.726222591061514,0.0,0.0,0.0,-30.046646581103886
2025/05/06 15:49:05.150457682,1746539345,147217118,,337.5168080529668,-40.945234142559855,0.0,0.0,0.0,-23.795933468711695
2025/05/06 15:49:05.233980076,1746539345,233400544,,340.38212316438415,-43.78383656699168,0.0,0.0,0.0,-29.454378200555823
2025/05/06 15:49:05.349217618,1746539345,346255186,,343.21591980957595,-40.01321436475479,0.0,0.0,0.0,-23.21018004034977
2025/05/06 15:49:05.446241749,1746539345,445989026,,336.15154469167067,-39.57306900674246,0.0,0.0,0.0,-20.32366805990594
2025/05/06 15:49:05.533956643,1746539345,533280200,,325.87587770006223,-35.848765247668325,0.0,0.0,0.0,-26.02030771124697
2025/05/06 15:49:05.642683435,1746539345,640826756,,322.29124304536157,-32.165428829944005,0.0,0.0,0.0,-36.91668432642324
2025/05/06 15:49:05.782073538,1746539345,779099020,,323.1199588378316,-35.10060911281454,0.0,0.0,0.0,-28.827136371607736
2025/05/06 15:49:05.855868182,1746539345,854294561,,326.14363929061545,-33.7716275838207,0.0,0.0,0.0,-30.207212563275164
2025/05/06 15:49:05.942199578,1746539345,940988367,,329.1340592584187,-35.462942898158644,0.0,0.0,0.0,-26.161887433111247
2025/05/06 15:49:06.63530691,1746539346,57874258,,331.4337158031824,-34.67407499045271,0.0,0.0,0.0,-27.118197678549137
2025/05/06 15:49:06.146291870,1746539346,144037121,,332.8909180889417,-34.29266016555766,0.0,0.0,0.0,-27.419611549790602
2025/05/06 15:49:06.235279337,1746539346,235012937,,332.5559919358028,-33.91544090373657,0.0,0.0,0.0,-29.718896666071203
2025/05/06 15:49:06.342601558,1746539346,338211278,,327.73337771514025,-27.859811068613794,0.0,0.0,0.0,-30.072182181922415
2025/05/06 15:49:06.454793887,1746539346,454168579,,321.10634044931464,-20.97535314685905,0.0,0.0,0.0,-32.158964266688585
2025/05/06 15:49:06.537826029,1746539346,537321718,,314.4223111140494,-20.74462426224352,0.0,0.0,0.0,-46.167103332013255
2025/05/06 15:49:06.649607416,1746539346,648717709,,314.2526656917949,-13.938433395358857,0.0,0.0,0.0,-43.028065195360995
2025/05/06 15:49:06.761801976,1746539346,760800156,,317.37388636918513,-19.636291732650704,0.0,0.0,0.0,-41.24648246656528
2025/05/06 15:49:06.840581155,1746539346,837870856,,320.4607736191241,-13.505447019760595,0.0,0.0,0.0,-41.9864492525376
2025/05/06 15:49:06.986657516,1746539346,984255193,,323.5137051093137,-19.934887102543257,0.0,0.0,0.0,-41.52459831075963
2025/05/06 15:49:07.40523651,1746539347,39150282,,326.5330543531113,-13.13760334441531,0.0,0.0,0.0,-41.067827729341275
2025/05/06 15:49:07.143078638,1746539347,141761757,,328.5225099289893,-19.571089707626697,0.0,0.0,0.0,-41.41342628530879
2025/05/06 15:49:07.245057832,1746539347,243696093,,327.1696012058102,-12.777807720842816,0.0,0.0,0.0,-39.14920748733863
2025/05/06 15:49:07.359404126,1746539347,355769289,,323.5707355925462,-19.215251835913534,0.0,0.0,0.0,-38.71856620497783
2025/05/06 15:49:07.443946404,1746539347,439978250,,319.3890859378677,-14.042925948721688,0.0,0.0,0.0,-40.705440115600524
2025/05/06 15:49:07.554035868,1746539347,552636417,,312.2301177943907,-8.109602108855313,0.0,0.0,0.0,-44.041996737825656
2025/05/06 15:49:07.647380250,1746539347,645153699,,307.0743448843157,-5.9359494807227975,0.0,0.0,0.0,-53.022923456295686
2025/05/06 15:49:07.754438676,1746539347,752541053,,306.9855270905883,-2.581654036434827,0.0,0.0,0.0,-55.728671298276424
2025/05/06 15:49:07.840750567,1746539347,840298952,,310.18668629259173,-5.842255842034092,0.0,0.0,0.0,-49.19545591399536
2025/05/06 15:49:07.946605973,1746539347,945028123,,313.35263274337325,-2.4889910277717036,0.0,0.0,0.0,-54.574505898941396
2025/05/06 15:49:08.38795218,1746539348,38534329,,312.63398817373155,-5.750612126466194,0.0,0.0,0.0,-51.13379882162474
2025/05/06 15:49:08.178009581,1746539348,172489283,,313.3509658256686,-2.3983553930751214,0.0,0.0,0.0,-54.55388825206532
2025/05/06 15:49:08.259251915,1746539348,258547022,,314.0535759485259,-5.66097348375132,0.0,0.0,0.0,-49.97641888374088
2025/05/06 15:49:08.353723291,1746539348,353207332,,317.1769866130921,-2.3097027754300257,0.0,0.0,0.0,-55.346878276019766
2025/05/06 15:49:08.570699927,1746539348,570400017,,316.0188517863766,-8.86229604490029,0.0,0.0,0.0,-58.1358129941606
2025/05/06 15:49:08.712992701,1746539348,712289253,,309.2536444167265,-15.342810788406382,0.0,0.0,0.0,-60.12751905122491
2025/05/06 15:49:08.764371924,1746539348,763827949,,303.4754011250255,-21.75203986973395,0.0,0.0,0.0,-57.56495377916785
2025/05/06 15:49:08.839644611,1746539348,837598309,,300.8217405844014,-28.090767431166853,0.0,0.0,0.0,-54.0832168471092
2025/05/06 15:49:08.943786784,1746539348,941611882,,299.4002517947852,-34.359768989424026,0.0,0.0,0.0,-51.978261176341206
2025/05/06 15:49:09.35469085,1746539349,34501021,,299.3958490250426,-37.27081153054036,0.0,0.0,0.0,-54.69550030340149
2025/05/06 15:49:09.151064090,1746539349,149484834,,299.8813030804736,-40.1498326037044,0.0,0.0,0.0,-62.253403084298924
2025/05/06 15:49:09.258289852,1746539349,257581442,,303.16060874658837,-42.99718444506368,0.0,0.0,0.0,-67.48881565037169
2025/05/06 15:49:09.347148284,1746539349,346678941,,306.4038420503759,-39.23521541616793,0.0,0.0,0.0,-60.826238678217535
2025/05/06 15:49:09.671792894,1746539349,671212001,,305.5818134856842,-44.26265744433829,0.0,0.0,0.0,-64.45019606839429
2025/05/06 15:49:09.797089187,1746539349,792926234,,298.9314135373417,-50.35376821245052,0.0,0.0,0.0,-66.372443911642
2025/05/06 15:49:09.878570232,1746539349,877890174,,292.35416798843096,-56.3778767621136,0.0,0.0,0.0,-68.27354702861396
2025/05/06 15:49:09.945781560,1746539349,945494463,,288.8557927055774,-62.33572011773032,0.0,0.0,0.0,-70.69161522608596
2025/05/06 15:49:10.33106218,1746539350,32592216,,287.3656234814129,-68.22802719643528,0.0,0.0,0.0,-67.45911333301092
2025/05/06 15:49:10.158161754,1746539350,157641178,,286.363861734472,-74.05551889727451,0.0,0.0,0.0,-64.37332874185714
2025/05/06 15:49:10.247897167,1746539350,246435425,,285.6357070649583,-79.81890818940445,0.0,0.0,0.0,-61.46188551094417
2025/05/06 15:49:10.345574764,1746539350,343785171,,285.57430962436223,-82.22990019932104,0.0,0.0,0.0,-64.2415285006289
2025/05/06 15:49:10.457909980,1746539350,457357593,,279.96877433175774,-85.54466990262753,0.0,0.0,0.0,-65.80915988783454
2025/05/06 15:49:10.548245450,1746539350,544947952,,280.1781178141084,-87.89267853369859,0.0,0.0,0.0,-68.37425912906843
2025/05/06 15:49:10.641481584,1746539350,639354949,,276.91435871962267,-90.18357106364937,0.0,0.0,0.0,-73.4532208509455
2025/05/06 15:49:10.736498398,1746539350,735417410,,280.4357728288219,-92.48055178194923,0.0,0.0,0.0,-78.55701306567714
2025/05/06 15:49:10.897181014,1746539350,894621749,,283.92897932770484,-94.75226571234779,0.0,0.0,0.0,-83.6130859219547
2025/05/06 15:49:10.952813369,1746539350,952048787,,287.0203169779352,-90.42099078951202,0.0,0.0,0.0,-77.0638968385452
2025/05/06 15:49:11.69780024,1746539351,67629921,,280.92234046482923,-92.71535989082741,0.0,0.0,0.0,-79.78379155224223
2025/05/06 15:49:11.153465918,1746539351,152769141,,282.3564030155377,-93.68974151326455,0.0,0.0,0.0,-84.13885425473556
2025/05/06 15:49:11.272289381,1746539351,271547657,,285.82848258236675,-90.99518521892401,0.0,0.0,0.0,-80.21818241008302
2025/05/06 15:49:11.342166849,1746539351,341280808,,282.03465895861854,-89.99423818151587,0.0,0.0,0.0,-78.81601415129832
2025/05/06 15:49:11.437524273,1746539351,434720549,,281.24620146295007,-82.42630156151915,0.0,0.0,0.0,-77.85094348940122
2025/05/06 15:49:11.544609190,1746539351,543967679,,283.9608378767691,-74.94161224434242,0.0,0.0,0.0,-76.78537858270136
2025/05/06 15:49:11.635636845,1746539351,635195494,,284.2311680924091,-67.53925450965471,0.0,0.0,0.0,-75.88541306962333
2025/05/06 15:49:11.745223739,1746539351,740041002,,285.09108391346865,-60.21832271004848,0.0,0.0,0.0,-75.01107237856345
2025/05/06 15:49:11.842074310,1746539351,841446223,,285.0637192962895,-52.97792116023794,0.0,0.0,0.0,-74.29830037686408
2025/05/06 15:49:11.937405471,1746539351,936252818,,284.7573315937259,-45.817164027475314,0.0,0.0,0.0,-73.4988542455531
2025/05/06 15:49:12.97140831,1746539352,88519608,,281.62500094619486,-38.73517522317309,0.0,0.0,0.0,-72.69036684885201
2025/05/06 15:49:12.163298251,1746539352,159589354,,278.5271259357868,-37.909323542592745,0.0,0.0,0.0,-83.01159625788883
2025/05/06 15:49:12.241065942,1746539352,240339292,,282.0413275504931,-37.492320983624154,0.0,0.0,0.0,-70.25806869905205
2025/05/06 15:49:12.362241415,1746539352,359954500,,285.5168729474377,-37.07990545280438,0.0,0.0,0.0,-81.32562994336256
2025/05/06 15:49:12.462728566,1746539352,457431754,,282.37618734501586,-39.96102649282352,0.0,0.0,0.0,-74.51084801398562
2025/05/06 15:49:12.548737514,1746539352,546250364,,274.5064649711771,-42.81045520140242,0.0,0.0,0.0,-66.31949613626674
2025/05/06 15:49:12.637451860,1746539352,634984657,,273.8754885983393,-39.05054019418702,0.0,0.0,0.0,-73.42105747224385
2025/05/06 15:49:12.743697138,1746539352,743200639,,272.0550059255565,-41.90998425205095,0.0,0.0,0.0,-67.64694400148832
2025/05/06 15:49:12.858684681,1746539352,858188450,,270.7794743043728,-43.13027115272831,0.0,0.0,0.0,-65.25015226326006
2025/05/06 15:49:12.948113328,1746539352,943982793,,264.5119000870247,-49.23383817004827,0.0,0.0,0.0,-61.90120058836416
2025/05/06 15:49:13.45922671,1746539353,42998427,,261.6389255391771,-55.27026595017776,0.0,0.0,0.0,-59.141576281509415
2025/05/06 15:49:13.149263500,1746539353,148080165,,258.1601508769239,-61.2402930247257,0.0,0.0,0.0,-56.130965047458005
2025/05/06 15:49:13.274004835,1746539353,272264006,,261.4719518646069,-67.1446498014538,0.0,0.0,0.0,-55.85467431407271
2025/05/06 15:49:13.355886656,1746539353,355517266,,261.80535944493386,-72.98405865363776,0.0,0.0,0.0,-57.80795213728787
2025/05/06 15:49:13.472032382,1746539353,471710900,,257.32991748378356,-72.18123400844775,0.0,0.0,0.0,-67.73599825797304
2025/05/06 15:49:13.537680350,1746539353,537296946,,257.78828839146195,-76.83009693952283,0.0,0.0,0.0,-67.57884398643759
2025/05/06 15:49:13.644487021,1746539353,643051769,,261.53061721915594,-71.04760678277711,0.0,0.0,0.0,-69.78863033984706
2025/05/06 15:49:13.745922835,1746539353,742084801,,265.2317804297452,-73.55508310816657,0.0,0.0,0.0,-63.10075540610872
2025/05/06 15:49:13.843826240,1746539353,842798718,,260.2050158250871,-69.45697719397668,0.0,0.0,0.0,-64.75181911258628
2025/05/06 15:49:13.953833133,1746539353,948147226,,257.34276065101113,-71.61234164072562,0.0,0.0,0.0,-58.78464494975901
2025/05/06 15:49:14.60837574,1746539354,60218725,,247.93399028385,-77.40260588267768,0.0,0.0,0.0,-58.13801385531167
2025/05/06 15:49:14.155845513,1746539354,155440360,,238.62871639072762,-83.12917721796822,0.0,0.0,0.0,-57.49849570290324
2025/05/06 15:49:14.242944016,1746539354,241127921,,237.18283702019087,-82.21475626857057,0.0,0.0,0.0,-73.02558304236231
2025/05/06 15:49:14.343513303,1746539354,342353187,,237.86282581296877,-87.88839394961624,0.0,0.0,0.0,-69.59110162889638
2025/05/06 15:49:14.464421757,1746539354,464116018,,238.5353347290261,-80.34362161617048,0.0,0.0,0.0,-66.1943995109785
2025/05/06 15:49:14.536078350,1746539354,534766911,,237.80169023235095,-86.03784177839256,0.0,0.0,0.0,-64.33707339771712
2025/05/06 15:49:14.663380385,1746539354,662284810,,240.73161478347964,-82.38991984906869,0.0,0.0,0.0,-69.78124989971909
2025/05/06 15:49:14.751528794,1746539354,749259974,,243.5863818156779,-88.0616307307289,0.0,0.0,0.0,-69.87380431496891
2025/05/06 15:49:14.853429829,1746539354,850299176,,238.5466949486151,-81.72828136718448,0.0,0.0,0.0,-65.03301169974347
2025/05/06 15:49:14.954742043,1746539354,954254052,,229.34468130418037,-75.86390903817454,0.0,0.0,0.0,-67.22039834989863
2025/05/06 15:49:15.61129047,1746539355,57806391,,220.50352578727563,-81.60740603875462,0.0,0.0,0.0,-66.68868275000278
2025/05/06 15:49:15.141673175,1746539355,140919202,,224.65598700361562,-74.54782228515347,0.0,0.0,0.0,-66.70408312283799
2025/05/06 15:49:15.254669040,1746539355,252705278,,228.76277114657586,-80.30579624001672,0.0,0.0,0.0,-65.97033820848678
2025/05/06 15:49:15.360423773,1746539355,359905313,,229.5353806639635,-79.42243248137652,0.0,0.0,0.0,-79.71626448819342
2025/05/06 15:49:15.435493085,1746539355,433056658,,223.72149147665993,-78.54878572408143,0.0,0.0,0.0,-64.36778557882317
2025/05/06 15:49:15.551484635,1746539355,550359723,,224.54955507041666,-78.64809857688397,0.0,0.0,0.0,-76.39731084507484
2025/05/06 15:49:15.690690318,1746539355,688349653,,228.6575099646421,-78.17900316009775,0.0,0.0,0.0,-64.42940102738623
2025/05/06 15:49:15.739266115,1746539355,738841024,,231.61594727464092,-77.31903412533666,0.0,0.0,0.0,-74.67761355177288
2025/05/06 15:49:15.853758942,1746539355,852362169,,227.97831462140698,-76.46852474995791,0.0,0.0,0.0,-62.887645589273646
2025/05/06 15:49:15.967274554,1746539355,961984801,,228.75955316057153,-75.62737097770838,0.0,0.0,0.0,-71.40508148779173
2025/05/06 15:49:16.39600051,1746539356,38560042,,222.62985995546717,-74.79546989695359,0.0,0.0,0.0,-72.99135509515551
2025/05/06 15:49:16.147081753,1746539356,146108241,,223.469931495957,-67.39471972808713,0.0,0.0,0.0,-69.55725018910879
2025/05/06 15:49:16.263540153,1746539356,260596033,,222.31543602969407,-60.9518677604093,0.0,0.0,0.0,-71.41274136997883
2025/05/06 15:49:16.341286938,1746539356,340475201,,223.1429810915613,-66.8593972150448,0.0,0.0,0.0,-71.75508888774858
2025/05/06 15:49:16.439522359,1746539356,438419288,,227.26640829955414,-64.59753480556634,0.0,0.0,0.0,-80.05864663777999
2025/05/06 15:49:16.551484344,1746539356,550805361,,229.24785369859296,-67.17596192270508,0.0,0.0,0.0,-74.93510081249737
2025/05/06 15:49:16.639511594,1746539356,638690275,,223.43712730790844,-63.14802634155535,0.0,0.0,0.0,-77.39981470355983
2025/05/06 15:49:16.776078037,1746539356,773473784,,224.26831890752146,-65.74239805179826,0.0,0.0,0.0,-73.25941674182073
2025/05/06 15:49:16.899634310,1746539356,897599177,,228.3793673995387,-61.730231673228445,0.0,0.0,0.0,-78.37376315766072
2025/05/06 15:49:16.946254623,1746539356,945640212,,232.44519435814377,-64.3401991248229,0.0,0.0,0.0,-71.59145176292645
2025/05/06 15:49:17.33555197,1746539357,33257744,,223.9408930075824,-68.73487659923956,0.0,0.0,0.0,-73.42854467554545
2025/05/06 15:49:17.145561483,1746539357,145103252,,218.18854318449897,-71.2677929566479,0.0,0.0,0.0,-75.90983068411454
2025/05/06 15:49:17.254509346,1746539357,253915120,,219.07746920946948,-73.77284723412475,0.0,0.0,0.0,-83.62622254658933
2025/05/06 15:49:17.339053618,1746539357,335969832,,213.37861704816532,-76.25034591454931,0.0,0.0,0.0,-85.99533409857676
2025/05/06 15:49:17.445386279,1746539357,444064696,,214.32045226063548,-72.12259210948935,0.0,0.0,0.0,-81.76038542349241
2025/05/06 15:49:17.586228872,1746539357,582634293,,218.54092728576848,-74.61824359628491,0.0,0.0,0.0,-86.78122118383405
2025/05/06 15:49:17.652331651,1746539357,651222004,,222.714977085625,-70.5084429167257,0.0,0.0,0.0,-79.90642775081184
2025/05/06 15:49:17.739187164,1746539357,737872655,,216.02443804937047,-73.02185004464178,0.0,0.0,0.0,-83.07779647620302
2025/05/06 15:49:17.836888908,1746539357,833987531,,216.93716923082735,-72.48670667910716,0.0,0.0,0.0,-85.2777152878865
2025/05/06 15:49:17.938326391,1746539357,937522653,,217.41822221833107,-78.26735290563704,0.0,0.0,0.0,-86.63354989895393
2025/05/06 15:49:18.69593749,1746539358,68478948,,211.73762177392942,-80.695412023675,0.0,0.0,0.0,-88.96958085006547
2025/05/06 15:49:18.147806330,1746539358,144932136,,211.20145153216944,-86.3857624914146,0.0,0.0,0.0,-86.55656058251209
2025/05/06 15:49:18.250391954,1746539358,248026007,,206.68450906199536,-90.56795534838454,0.0,0.0,0.0,-89.9614343788847
2025/05/06 15:49:18.344552714,1746539358,342203285,,207.69997946231342,-86.9763197275476,0.0,0.0,0.0,-92.21693868819406
2025/05/06 15:49:18.463335713,1746539358,462739988,,208.5806161349879,-91.84320396288322,0.0,0.0,0.0,-92.5748059594256
2025/05/06 15:49:18.575509723,1746539358,574801075,,209.57522935750302,-84.25492871929148,0.0,0.0,0.0,-88.92528309387193
2025/05/06 15:49:18.639492218,1746539358,637865937,,205.691588770888,-89.90612450337926,0.0,0.0,0.0,-89.20975543078538
2025/05/06 15:49:18.742852940,1746539358,742569144,,206.71798129440822,-88.91715713384212,0.0,0.0,0.0,-97.43764812104676
2025/05/06 15:49:18.851949705,1746539358,851703039,,211.02208350016974,-87.93906840536985,0.0,0.0,0.0,-84.52543399171522
2025/05/06 15:49:18.964872567,1746539358,962582360,,211.55208843453116,-91.63436538179192,0.0,0.0,0.0,-89.32432438811101
2025/05/06 15:49:19.56026962,1746539359,55476590,,205.9360154617513,-97.20438736259217,0.0,0.0,0.0,-90.97295681984177
2025/05/06 15:49:19.155764818,1746539359,154958828,,206.57914743613088,-102.71313910160367,0.0,0.0,0.0,-87.64551177925644
2025/05/06 15:49:19.269962519,1746539359,267014996,,204.20939758143845,-108.161294571486,0.0,0.0,0.0,-84.96099695532347
2025/05/06 15:49:19.338590627,1746539359,338200568,,205.25209420804265,-112.72642468926432,0.0,0.0,0.0,-82.87679814429853
2025/05/06 15:49:19.443814697,1746539359,442728476,,203.65983017795924,-114.77543401768247,0.0,0.0,0.0,-87.35294615974723
2025/05/06 15:49:19.550373338,1746539359,549019825,,207.99757204600172,-116.80190424348791,0.0,0.0,0.0,-92.31226375199012
2025/05/06 15:49:19.634913708,1746539359,632826780,,209.8026366296368,-118.80608329680959,0.0,0.0,0.0,-99.20499854980528
2025/05/06 15:49:19.747523475,1746539359,742321770,,207.597347533601,-120.78821638054467,0.0,0.0,0.0,-104.1159754912696
2025/05/06 15:49:19.842089862,1746539359,838919824,,208.6027767107314,-123.8194171375414,0.0,0.0,0.0,-109.5945317139367
2025/05/06 15:49:19.942737034,1746539359,939274021,,207.94705648040514,-125.05064828776713,0.0,0.0,0.0,-107.47764046121782
2025/05/06 15:49:20.50472336,1746539360,48038473,,204.99819866536774,-127.33842828663745,0.0,0.0,0.0,-111.01262742707776
2025/05/06 15:49:20.140328990,1746539360,137864516,,203.78263780233124,-132.51570557548445,0.0,0.0,0.0,-105.36062398320595
2025/05/06 15:49:20.236207329,1746539360,235590544,,204.80227133074803,-137.6360328141541,0.0,0.0,0.0,-106.85506308399673
2025/05/06 15:49:20.348279910,1746539360,347671743,,204.39242296393195,-142.70003645319844,0.0,0.0,0.0,-104.20527609581512
2025/05/06 15:49:20.479669101,1746539360,477196504,,202.1441063113287,-134.5523360522132,0.0,0.0,0.0,-103.05901805876117
2025/05/06 15:49:20.534048995,1746539360,533723980,,203.8842108053144,-139.65026035563886,0.0,0.0,0.0,-102.37043398781552
2025/05/06 15:49:20.655202651,1746539360,654934860,,208.21948448645594,-138.13192969383073,0.0,0.0,0.0,-113.05267925016265
2025/05/06 15:49:20.751124696,1746539360,750221778,,211.55260138750216,-136.61247846719863,0.0,0.0,0.0,-100.73227479409313
2025/05/06 15:49:20.839079129,1746539360,838604972,,209.22021367739123,-135.10974120405942,0.0,0.0,0.0,-106.20646704723683
2025/05/06 15:49:20.946526931,1746539360,945166114,,203.62979132693994,-133.62353405081473,0.0,0.0,0.0,-107.66939590971721
2025/05/06 15:49:21.62877940,1746539361,61824183,,204.6788636223436,-132.10603471237175,0.0,0.0,0.0,-103.76807971971901
2025/05/06 15:49:21.144979639,1746539361,144339549,,202.71633253841873,-130.65286833053565,0.0,0.0,0.0,-102.85777997553882
2025/05/06 15:49:21.250580491,1746539361,248736697,,202.4248750988294,-129.21568677889974,0.0,0.0,0.0,-100.17560662114128
2025/05/06 15:49:21.353196734,1746539361,349660566,,205.63211712261727,-127.79431422433186,0.0,0.0,0.0,-99.62081640896902
2025/05/06 15:49:21.464746382,1746539361,463276494,,209.94816383426848,-126.38857676786421,0.0,0.0,0.0,-98.52498742847028
2025/05/06 15:49:21.591720521,1746539361,590957544,,204.29585597904378,-124.9983024234177,0.0,0.0,0.0,-97.86068176104875
2025/05/06 15:49:21.677689037,1746539361,677099446,,208.1460140606703,-125.62969220780047,0.0,0.0,0.0,-100.01121225946677
2025/05/06 15:49:21.738243709,1746539361,737676506,,209.29388587391156,-127.53676559351473,0.0,0.0,0.0,-107.34370655028575
2025/05/06 15:49:21.839339571,1746539361,838991115,,203.7026531292985,-127.56133421586154,0.0,0.0,0.0,-106.10117725720845
2025/05/06 15:49:21.952926971,1746539361,950625224,,204.7509239448762,-122.97678507481754,0.0,0.0,0.0,-101.83879027097397
2025/05/06 15:49:22.52648142,1746539362,51667835,,201.71687001032717,-118.33504043899455,0.0,0.0,0.0,-106.01332856106892
2025/05/06 15:49:22.147011588,1746539362,146548368,,201.74289798498137,-110.45535499416565,0.0,0.0,0.0,-104.91320153142141
2025/05/06 15:49:22.241074431,1746539362,237254819,,202.8127261071466,-102.66234608922983,0.0,0.0,0.0,-101.12795631457578
2025/05/06 15:49:22.350259581,1746539362,349402784,,202.901275439266,-94.95506028224827,0.0,0.0,0.0,-98.15995733967705
2025/05/06 15:49:22.435412226,1746539362,434722022,,203.95836140943408,-94.07101082009274,0.0,0.0,0.0,-82.89741897064904
2025/05/06 15:49:22.544955754,1746539362,544644268,,201.6766840764281,-93.03622970107168,0.0,0.0,0.0,-93.85645564797363
2025/05/06 15:49:22.647608292,1746539362,645382070,,202.74724055158742,-98.59083117435989,0.0,0.0,0.0,-95.45523463584597
2025/05/06 15:49:22.740972329,1746539362,738202329,,203.00541744277368,-90.92833203144193,0.0,0.0,0.0,-95.69845801917272
2025/05/06 15:49:22.875264223,1746539362,873166831,,205.18162336161078,-96.5061203790961,0.0,0.0,0.0,-92.9107873895279
2025/05/06 15:49:22.957975105,1746539362,957274793,,199.63562550463308,-89.86488262264061,0.0,0.0,0.0,-92.72297550635685
2025/05/06 15:49:23.66425496,1746539363,65717779,,195.85618532492387,-82.29836891379159,0.0,0.0,0.0,-88.14151671625501
2025/05/06 15:49:23.138608177,1746539363,138111259,,193.7017672863497,-74.81508685573982,0.0,0.0,0.0,-92.43436003237623
2025/05/06 15:49:23.251986944,1746539363,249174822,,191.57104784619986,-80.57012090032666,0.0,0.0,0.0,-86.15518207202004
2025/05/06 15:49:23.345278946,1746539363,342527646,,189.46376631989165,-73.10584957042312,0.0,0.0,0.0,-90.46987506922785
2025/05/06 15:49:23.436314492,1746539363,433775860,,193.95766489037283,-78.87968522514848,0.0,0.0,0.0,-89.47470644346636
2025/05/06 15:49:23.554721810,1746539363,554024791,,198.40213057657874,-71.64254655728973,0.0,0.0,0.0,-88.11511650727597
2025/05/06 15:49:23.661277903,1746539363,657840169,,190.80034509595617,-77.43247854515954,0.0,0.0,0.0,-86.59190942190358
2025/05/06 15:49:23.738238610,1746539363,736974594,,195.27954129990064,-78.64911436307489,0.0,0.0,0.0,-93.75669087082102
2025/05/06 15:49:23.862634273,1746539363,860232283,,193.00148927880315,-73.61306023726854,0.0,0.0,0.0,-88.28863057986564
2025/05/06 15:49:23.958443281,1746539363,957649009,,186.1660328854648,-66.22531657465862,0.0,0.0,0.0,-85.82500765250433
2025/05/06 15:49:24.81819909,1746539364,81126130,,180.0063284072226,-59.1438498783819,0.0,0.0,0.0,-85.39727716811318
2025/05/06 15:49:24.140385879,1746539364,140014957,,181.31525879474316,-65.0712675297197,0.0,0.0,0.0,-81.82670711926399
2025/05/06 15:49:24.243582064,1746539364,242832138,,176.15374112351492,-58.82353118345111,0.0,0.0,0.0,-85.34313887434585
2025/05/06 15:49:24.351102599,1746539364,349188299,,177.50504997115627,-64.31429657300907,0.0,0.0,0.0,-82.56548072809142
2025/05/06 15:49:24.439500197,1746539364,437173628,,182.13049442147354,-58.55782719559022,0.0,0.0,0.0,-84.40943863287403
2025/05/06 15:49:24.546629658,1746539364,545964921,,186.1395167676029,-64.49169109643867,0.0,0.0,0.0,-83.93336858009992
2025/05/06 15:49:24.650456687,1746539364,649709536,,177.51398208315928,-62.138573217812564,0.0,0.0,0.0,-91.89182482790127
2025/05/06 15:49:24.749226969,1746539364,746993889,,182.1393282802445,-61.45504891241666,0.0,0.0,0.0,-79.04061475479439
2025/05/06 15:49:24.852161186,1746539364,850556662,,186.7137956691618,-60.779043374380024,0.0,0.0,0.0,-90.01156799249165
2025/05/06 15:49:24.942366116,1746539364,941510007,,180.78051609121997,-61.36675953325698,0.0,0.0,0.0,-81.60121262890057
2025/05/06 15:49:25.69496608,1746539365,67684072,,181.54624101270122,-65.25219856663205,0.0,0.0,0.0,-86.53859566993674
2025/05/06 15:49:25.152817679,1746539365,150572713,,176.2602323615615,-71.11242438239913,0.0,0.0,0.0,-82.95547111756741
2025/05/06 15:49:25.280266366,1746539365,279921879,,176.8372838040812,-75.3431785149698,0.0,0.0,0.0,-82.84724629507804
2025/05/06 15:49:25.338610826,1746539365,337013476,,171.75851468247404,-81.0924035513051,0.0,0.0,0.0,-79.42907938602235
2025/05/06 15:49:25.470090596,1746539365,469427844,,173.15817102096685,-86.01430169340375,0.0,0.0,0.0,-82.56191326668267
2025/05/06 15:49:25.555496189,1746539365,554811742,,174.5424311397362,-85.06814437477635,0.0,0.0,0.0,-96.12533222074913
2025/05/06 15:49:25.659206322,1746539365,656927519,,174.9228295322338,-85.4246582730093,0.0,0.0,0.0,-87.39391994978864
2025/05/06 15:49:25.734111876,1746539365,733551905,,170.4458439823104,-84.50159311268288,0.0,0.0,0.0,-96.20082834506793
2025/05/06 15:49:25.847174744,1746539365,846914792,,171.859939698505,-83.5720755884434,0.0,0.0,0.0,-85.9334192332721
2025/05/06 15:49:25.944308958,1746539365,944056746,,176.24596595445274,-83.5180110534152,0.0,0.0,0.0,-95.02992916221064
2025/05/06 15:49:26.36672329,1746539366,34094572,,171.01826032895377,-82.59931293182768,0.0,0.0,0.0,-96.61579994142626
2025/05/06 15:49:26.147295087,1746539366,145164978,,172.42605946533524,-81.69072048957756,0.0,0.0,0.0,-92.92182614207061
2025/05/06 15:49:26.245009286,1746539366,241489751,,167.2419826658822,-80.79212256419223,0.0,0.0,0.0,-94.53217393824039
2025/05/06 15:49:26.341707600,1746539366,339538636,,168.69132085655752,-79.90340921598613,0.0,0.0,0.0,-90.86112002491969
2025/05/06 15:49:26.477326264,1746539366,476795689,,173.11281707194917,-79.02447171461026,0.0,0.0,0.0,-90.10236710879447
2025/05/06 15:49:26.580270449,1746539366,574561008,,175.18047805092584,-78.15520252574953,0.0,0.0,0.0,-91.19611949718325
2025/05/06 15:49:26.647361505,1746539366,646286363,,173.05120877110954,-78.97563431443265,0.0,0.0,0.0,-89.24533962471436
2025/05/06 15:49:26.750526468,1746539366,746507116,,171.14764547462738,-81.3959023369739,0.0,0.0,0.0,-99.44624088884251
2025/05/06 15:49:26.848041021,1746539366,846323987,,170.3804022029526,-83.31805117302028,0.0,0.0,0.0,-99.05374367305775
2025/05/06 15:49:26.966565466,1746539366,963087379,,168.71499357683777,-83.01342319929034,0.0,0.0,0.0,-101.95816479364821
2025/05/06 15:49:27.53470402,1746539367,52010572,,170.3582620979362,-88.67827554409814,0.0,0.0,0.0,-98.37353174127298
2025/05/06 15:49:27.145857624,1746539367,142862999,,169.40903933006985,-93.41809949500598,0.0,0.0,0.0,-98.10453543254297
2025/05/06 15:49:27.245236333,1746539367,243033428,,169.23556628368297,-98.73595467215094,0.0,0.0,0.0,-93.53358896291822
2025/05/06 15:49:27.346088097,1746539367,345070317,,167.37397505456244,-104.22785917075728,0.0,0.0,0.0,-97.76711948432606
2025/05/06 15:49:27.446219903,1746539367,445149870,,172.11086132896224,-103.08135271987891,0.0,0.0,0.0,-108.53208116999848
2025/05/06 15:49:27.547663523,1746539367,547021308,,172.60514634405587,-108.5254578399603,0.0,0.0,0.0,-110.69062468535869
2025/05/06 15:49:27.668896870,1746539367,668080313,,170.70648973427126,-100.7536778037207,0.0,0.0,0.0,-104.21062781381977
2025/05/06 15:49:27.738780672,1746539367,735932408,,168.82871834719427,-106.2233873478798,0.0,0.0,0.0,-108.3267109078677
2025/05/06 15:49:27.835372031,1746539367,834001639,,166.97160244537514,-106.45437067274463,0.0,0.0,0.0,-111.19412403363631
2025/05/06 15:49:27.939920044,1746539367,939181375,,171.02824232068025,-105.28337259534447,0.0,0.0,0.0,-98.67832666750296
2025/05/06 15:49:28.46125544,1746539368,43082368,,171.81591494248565,-108.04761710531457,0.0,0.0,0.0,-104.50820080869278
2025/05/06 15:49:28.146700752,1746539368,143551039,,167.82362621015938,-110.14809331715611,0.0,0.0,0.0,-107.59695966542998
2025/05/06 15:49:28.239204125,1746539368,238070987,,169.26656632184762,-112.22546429066733,0.0,0.0,0.0,-114.96479310911027
2025/05/06 15:49:28.358556329,1746539368,355044308,,164.1156340923073,-114.27998418346999,0.0,0.0,0.0,-116.9891803849101
