time,header_stamp_secs,header_stamp_nsecs,header_frame_id,wrench_force_x,wrench_force_y,wrench_force_z,wrench_torque_x,wrench_torque_y,wrench_torque_z
2025/05/06 15:48:33.265429850,1746539313,261668563,bow_port_thruster,-0.7256599311425196,0.7256599311425196,0.0,0.0,0.0,0.0
2025/05/06 15:48:33.354864696,1746539313,340319997,bow_port_thruster,-0.7341776718999518,0.7341776718999518,0.0,0.0,0.0,0.0
2025/05/06 15:48:33.422641942,1746539313,421452006,bow_port_thruster,-0.7261567175090522,0.7426017175090524,0.0,0.0,0.0,0.0
2025/05/06 15:48:33.506303272,1746539313,505414240,bow_port_thruster,-0.7346689936164527,0.7509330986164526,0.0,0.0,0.0,0.0
2025/05/06 15:48:33.592142780,1746539313,589594993,bow_port_thruster,-0.7266426346866716,0.7427278345316717,0.0,0.0,0.0,0.0
2025/05/06 15:48:33.650460170,1746539313,650317756,bow_port_thruster,-0.7351495657051181,0.7510578283518232,0.0,0.0,0.0,0.0
2025/05/06 15:48:33.736902556,1746539313,736692382,bow_port_thruster,-0.7271179204823618,0.7428511922399532,0.0,0.0,0.0,0.0
2025/05/06 15:48:33.838398561,1746539313,837289477,bow_port_thruster,-0.7356196233570558,0.7511798291253138,0.0,0.0,0.0,0.0
2025/05/06 15:48:33.963924435,1746539313,963350048,bow_port_thruster,-0.7275828075001282,0.7429718510049353,0.0,0.0,0.0,0.0
2025/05/06 15:48:34.38060819,1746539314,36763918,bow_port_thruster,-0.7360793966176268,0.7348541606438811,0.0,0.0,0.0,0.0
2025/05/06 15:48:34.136089060,1746539314,135433829,bow_port_thruster,-0.7280375232548328,0.7268257648767984,0.0,0.0,0.0,0.0
2025/05/06 15:48:34.242377061,1746539314,240959840,bow_port_thruster,-0.7365291104990297,0.7188856814631537,0.0,0.0,0.0,0.0
2025/05/06 15:48:34.347026562,1746539314,346875060,bow_port_thruster,-0.7284822902835404,0.7115138635049596,0.0,0.0,0.0,0.0
2025/05/06 15:48:34.441626176,1746539314,440904526,bow_port_thruster,-0.7369689850904214,0.720187211006405,0.0,0.0,0.0,0.0
2025/05/06 15:48:34.557089882,1746539314,556580841,bow_port_thruster,-0.7289173262544268,0.7123201516853347,0.0,0.0,0.0,0.0
2025/05/06 15:48:34.665423666,1746539314,662971016,bow_port_thruster,-0.7373992356656283,0.7209846300167959,0.0,0.0,0.0,0.0
2025/05/06 15:48:34.758327645,1746539314,757201537,bow_port_thruster,-0.7293428440733064,0.7131087990866112,0.0,0.0,0.0,0.0
2025/05/06 15:48:34.856674173,1746539314,856432530,bow_port_thruster,-0.7378200727885,0.7217646022966585,0.0,0.0,0.0,0.0
2025/05/06 15:48:34.943003226,1746539314,941594198,bow_port_thruster,-0.7297590519878265,0.7138801916713952,0.0,0.0,0.0,0.0
2025/05/06 15:48:35.38398811,1746539315,38102291,bow_port_thruster,-0.7382317024159605,0.7225275095630098,0.0,0.0,0.0,0.0
2025/05/06 15:48:35.174106242,1746539315,172297544,bow_port_thruster,-0.7301661536893849,0.7310797069578168,0.0,0.0,0.0,0.0
2025/05/06 15:48:35.237238401,1746539315,236949759,bow_port_thruster,-0.7386343259988017,0.7230928301812807,0.0,0.0,0.0,0.0
2025/05/06 15:48:35.394474211,1746539315,393618001,bow_port_thruster,-0.7305643484128149,0.7316388090492866,0.0,0.0,0.0,0.0
2025/05/06 15:48:35.506895530,1746539315,502516013,bow_port_thruster,-0.7390281405802739,0.7236457821497444,0.0,0.0,0.0,0.0
2025/05/06 15:48:35.622746114,1746539315,616873609,bow_port_thruster,-0.7309538310338909,0.7321856785460973,0.0,0.0,0.0,0.0
2025/05/06 15:48:35.743364377,1746539315,740634575,bow_port_thruster,-0.7394133388925181,0.7406316360820903,0.0,0.0,0.0,0.0
2025/05/06 15:48:35.876768717,1746539315,873112089,bow_port_thruster,-0.7313347921647003,0.7325396880851872,0.0,0.0,0.0,0.0
2025/05/06 15:48:36.94943464,1746539316,78260449,bow_port_thruster,-0.7397901094508886,0.7409817515162501,0.0,0.0,0.0,0.0
2025/05/06 15:48:36.206326391,1746539316,202472735,bow_port_thruster,-0.7317074182469289,0.7328859522495713,0.0,0.0,0.0,0.0
2025/05/06 15:48:36.341629382,1746539316,329635743,bow_port_thruster,-0.7401586366462126,0.741324206774826,0.0,0.0,0.0,0.0
2025/05/06 15:48:36.484825806,1746539316,465635877,bow_port_thruster,-0.7320718916431044,0.7332246405003029,0.0,0.0,0.0,0.0
2025/05/06 15:48:36.587765729,1746539316,581838789,bow_port_thruster,-0.7405191008350301,0.7416591694547997,0.0,0.0,0.0,0.0
2025/05/06 15:48:37.11081923,1746539317,10331974,bow_port_thruster,-0.7324283907258449,0.7335559185907968,0.0,0.0,0.0,0.0
2025/05/06 15:48:37.196626776,1746539317,185362275,bow_port_thruster,-0.7408716784278606,0.725541803486298,0.0,0.0,0.0,0.0
2025/05/06 15:48:37.399897556,1746539317,275142267,bow_port_thruster,-0.7327770899651541,0.7176158436479487,0.0,0.0,0.0,0.0
2025/05/06 15:48:37.463774405,1746539317,386362450,bow_port_thruster,-0.7412165419755374,0.7097770693678213,0.0,0.0,0.0,0.0
2025/05/06 15:48:37.526779278,1746539317,481686742,bow_port_thruster,-0.7331181600138065,0.7020245216047752,0.0,0.0,0.0,0.0
2025/05/06 15:48:37.686058416,1746539317,618796968,bow_port_thruster,-0.7415538602536546,0.7108022518671228,0.0,0.0,0.0,0.0
2025/05/06 15:48:37.768122685,1746539317,712228403,bow_port_thruster,-0.7334517677908644,0.7030384270965844,0.0,0.0,0.0,0.0
2025/05/06 15:48:37.859993670,1746539317,792983448,bow_port_thruster,-0.7418837983451649,0.711805004398522,0.0,0.0,0.0,0.0
2025/05/06 15:48:37.893510924,1746539317,863514695,bow_port_thruster,-0.7337780765633681,0.7040301493501383,0.0,0.0,0.0,0.0
2025/05/06 15:48:38.34118786,1746539317,986042207,bow_port_thruster,-0.7422065177211711,0.7127858177072868,0.0,0.0,0.0,0.0
2025/05/06 15:48:38.109244079,1746539318,103006399,bow_port_thruster,-0.7340972460262383,0.7050001737125067,0.0,0.0,0.0,0.0
2025/05/06 15:48:38.257347424,1746539318,222094015,bow_port_thruster,-0.7425221763199497,0.7137451718016691,0.0,0.0,0.0,0.0
2025/05/06 15:48:38.437587277,1746539318,429604954,bow_port_thruster,-0.7344094323804302,0.7059489749118507,0.0,0.0,0.0,0.0
2025/05/06 15:48:38.586053287,1746539318,573806094,bow_port_thruster,-0.7428309286242454,0.7146835361878203,0.0,0.0,0.0,0.0
2025/05/06 15:48:38.793949972,1746539318,719964957,bow_port_thruster,-0.7347147884093786,0.7233220172897543,0.0,0.0,0.0,0.0
2025/05/06 15:48:38.838418593,1746539318,809984301,bow_port_thruster,-0.7431329257368755,0.7235537877238915,0.0,0.0,0.0,0.0
2025/05/06 15:48:38.941749623,1746539318,905435782,bow_port_thruster,-0.7350134635537698,0.7237032657457373,0.0,0.0,0.0,0.0
2025/05/06 15:48:39.182755850,1746539319,61415155,bow_port_thruster,-0.7434283154546784,0.7157975298225341,0.0,0.0,0.0,0.0
2025/05/06 15:48:39.253557130,1746539319,220505423,bow_port_thruster,-0.7353056039846768,0.7244237569944862,0.0,0.0,0.0,0.0
2025/05/06 15:48:39.423330410,1746539319,346052955,bow_port_thruster,-0.7437172423408454,0.7165100956675469,0.0,0.0,0.0,0.0
2025/05/06 15:48:39.659397819,1746539319,485114563,bow_port_thruster,-0.735591352675096,0.7251284846152037,0.0,0.0,0.0,0.0
2025/05/06 15:48:39.784771693,1746539319,626914773,bow_port_thruster,-0.72755484779567,0.7270282292939968,0.0,0.0,0.0,0.0
2025/05/06 15:48:40.17876285,1746539319,798528597,bow_port_thruster,-0.7196067444699176,0.7190859187717628,0.0,0.0,0.0,0.0
2025/05/06 15:48:40.195468045,1746539319,970400559,bow_port_thruster,-0.7117460702807484,0.7112309736652733,0.0,0.0,0.0,0.0
2025/05/06 15:48:40.740880385,1746539320,460343764,bow_port_thruster,-0.7039718635076602,0.7068824619200069,0.0,0.0,0.0,0.0
2025/05/06 15:48:41.445808400,1746539321,107181698,bow_port_thruster,-0.6886790581059762,0.7147818797648683,0.0,0.0,0.0,0.0
2025/05/06 15:48:41.876326896,1746539321,502333195,bow_port_thruster,-0.6811585884668105,0.7145658992514329,0.0,0.0,0.0,0.0
2025/05/06 15:48:42.68436280,1746539321,836815297,bow_port_thruster,-0.6737208439936755,0.7163827725134735,0.0,0.0,0.0,0.0
2025/05/06 15:48:42.860339960,1746539322,546565665,bow_port_thruster,-0.6590899006479378,0.7289575572403042,0.0,0.0,0.0,0.0
2025/05/06 15:48:43.181080690,1746539322,887554027,bow_port_thruster,-0.6518949117408106,0.7374390241106609,0.0,0.0,0.0,0.0
2025/05/06 15:48:43.542020464,1746539323,177586805,bow_port_thruster,-0.6447790677116616,0.7364898663721752,0.0,0.0,0.0,0.0
2025/05/06 15:48:44.38399595,1746539323,796004794,bow_port_thruster,-0.6307813414891982,0.737087404352648,0.0,0.0,0.0,0.0
2025/05/06 15:48:44.222363627,1746539324,83669381,bow_port_thruster,-0.6238977467328171,0.7290344429047688,0.0,0.0,0.0,0.0
2025/05/06 15:48:44.402443343,1746539324,327642127,bow_port_thruster,-0.617089871518756,0.7300190809927679,0.0,0.0,0.0,0.0
2025/05/06 15:48:44.528604538,1746539324,490732326,bow_port_thruster,-0.6103568829320497,0.7282946110247537,0.0,0.0,0.0,0.0
2025/05/06 15:48:44.583387717,1746539324,578549481,bow_port_thruster,-0.6036979572197971,0.7211699976717563,0.0,0.0,0.0,0.0
2025/05/06 15:48:44.903980108,1746539324,902030847,bow_port_thruster,-0.5971122796903794,0.729737127697367,0.0,0.0,0.0,0.0
2025/05/06 15:48:45.78031003,1746539325,74379826,bow_port_thruster,-0.5905990446137852,0.7382100192926958,0.0,0.0,0.0,0.0
2025/05/06 15:48:45.164783764,1746539325,159635399,bow_port_thruster,-0.5841574551230335,0.7465897090804762,0.0,0.0,0.0,0.0
2025/05/06 15:48:45.260295310,1746539325,257864580,bow_port_thruster,-0.5777867231166802,0.754877222280591,0.0,0.0,0.0,0.0
2025/05/06 15:48:45.365648436,1746539325,365227420,bow_port_thruster,-0.5714860691623967,0.7630735728355045,0.0,0.0,0.0,0.0
2025/05/06 15:48:45.620040250,1746539325,616261433,bow_port_thruster,-0.5652547224016103,0.754734763534314,0.0,0.0,0.0,0.0
2025/05/06 15:48:45.703263986,1746539325,699298873,bow_port_thruster,-0.5590919204551926,0.7464876811354365,0.0,0.0,0.0,0.0
2025/05/06 15:48:45.801544811,1746539325,796830825,bow_port_thruster,-0.5529969093301855,0.7383313166429467,0.0,0.0,0.0,0.0
2025/05/06 15:48:45.940774494,1746539325,935337758,bow_port_thruster,-0.5469689433275535,0.7302646721598742,0.0,0.0,0.0,0.0
2025/05/06 15:48:46.148143186,1746539326,143860219,bow_port_thruster,-0.5410072849509504,0.7222867607661156,0.0,0.0,0.0,0.0
2025/05/06 15:48:46.237946779,1746539326,233849099,bow_port_thruster,-0.53511120481649,0.7143966063976883,0.0,0.0,0.0,0.0
2025/05/06 15:48:46.295832806,1746539326,290833389,bow_port_thruster,-0.5292799815635085,0.7065932437273138,0.0,0.0,0.0,0.0
2025/05/06 15:48:46.360246385,1746539326,357298406,bow_port_thruster,-0.5235129017663099,0.6988757180463133,0.0,0.0,0.0,0.0
2025/05/06 15:48:46.606809856,1746539326,603756573,bow_port_thruster,-0.5178092598468805,0.7076880851478039,0.0,0.0,0.0,0.0
2025/05/06 15:48:46.681990005,1746539326,674170060,bow_port_thruster,-0.5121683579885649,0.716403516211178,0.0,0.0,0.0,0.0
2025/05/06 15:48:46.770085965,1746539326,762716837,bow_port_thruster,-0.5065895060506906,0.7250230775328551,0.0,0.0,0.0,0.0
2025/05/06 15:48:46.918771648,1746539326,916225268,bow_port_thruster,-0.5010720214841331,0.7335478236799936,0.0,0.0,0.0,0.0
2025/05/06 15:48:47.24282438,1746539327,17582386,bow_port_thruster,-0.4956152292478076,0.7419787976195137,0.0,0.0,0.0,0.0
2025/05/06 15:48:47.118917932,1746539327,115266316,bow_port_thruster,-0.49021846172608174,0.750317030845699,0.0,0.0,0.0,0.0
2025/05/06 15:48:47.212119250,1746539327,207053286,bow_port_thruster,-0.48488105864709485,0.7585635435063963,0.0,0.0,0.0,0.0
2025/05/06 15:48:47.287618559,1746539327,284041339,bow_port_thruster,-0.4796023670019768,0.766719344527826,0.0,0.0,0.0,0.0
2025/05/06 15:48:47.415454175,1746539327,409024114,bow_port_thruster,-0.474381740964955,0.7747854317380198,0.0,0.0,0.0,0.0
2025/05/06 15:48:47.490330441,1746539327,486738281,bow_port_thruster,-0.46921854181434053,0.7769459759555427,0.0,0.0,0.0,0.0
2025/05/06 15:48:47.574945017,1746539327,569976838,bow_port_thruster,-0.46411213785438277,0.7848995702200317,0.0,0.0,0.0,0.0
2025/05/06 15:48:47.670738223,1746539327,668094310,bow_port_thruster,-0.4590619043379846,0.7927656749476114,0.0,0.0,0.0,0.0
2025/05/06 15:48:47.789914363,1746539327,786199449,bow_port_thruster,-0.4540672233902667,0.8005452525231878,0.0,0.0,0.0,0.0
2025/05/06 15:48:47.858236032,1746539327,856267845,bow_port_thruster,-0.4491274839329738,0.7991677943662773,0.0,0.0,0.0,0.0
2025/05/06 15:48:47.975946774,1746539327,974753429,bow_port_thruster,-0.44424208160971107,0.8010320361974178,0.0,0.0,0.0,0.0
2025/05/06 15:48:48.86481179,1746539328,85006109,bow_port_thruster,-0.43941041871200426,0.7958087853184509,0.0,0.0,0.0,0.0
2025/05/06 15:48:48.211593997,1746539328,202825544,bow_port_thruster,-0.43463190410617225,0.8032884440264206,0.0,0.0,0.0,0.0
2025/05/06 15:48:48.283594904,1746539328,279477517,bow_port_thruster,-0.42990595316100433,0.7945072711421299,0.0,0.0,0.0,0.0
2025/05/06 15:48:48.363245616,1746539328,356451704,bow_port_thruster,-0.42523198767623327,0.8022676911595665,0.0,0.0,0.0,0.0
2025/05/06 15:48:48.513630941,1746539328,494936119,bow_port_thruster,-0.4206094358117947,0.7934977465568114,0.0,0.0,0.0,0.0
2025/05/06 15:48:48.632673445,1746539328,612897805,bow_port_thruster,-0.416037732017865,0.7848242713446864,0.0,0.0,0.0,0.0
2025/05/06 15:48:48.688709903,1746539328,678637368,bow_port_thruster,-0.4115163169656685,0.7762462043598949,0.0,0.0,0.0,0.0
2025/05/06 15:48:48.803896685,1746539328,799819098,bow_port_thruster,-0.4070446374790461,0.767762496111936,0.0,0.0,0.0,0.0
2025/05/06 15:48:48.902985419,1746539328,901492178,bow_port_thruster,-0.40262214646677663,0.7593721086547047,0.0,0.0,0.0,0.0
2025/05/06 15:48:48.986432388,1746539328,982609066,bow_port_thruster,-0.3982483028556421,0.751074015459503,0.0,0.0,0.0,0.0
2025/05/06 15:48:49.57212034,1746539329,53409385,bow_port_thruster,-0.39392257152423005,0.7428672012894484,0.0,0.0,0.0,0.0
2025/05/06 15:48:49.181536595,1746539329,178783761,bow_port_thruster,-0.38964442323746357,0.7347506620752644,0.0,0.0,0.0,0.0
2025/05/06 15:48:49.305344160,1746539329,296261650,bow_port_thruster,-0.38541333458185145,0.7267234047924365,0.0,0.0,0.0,0.0
2025/05/06 15:48:49.381237324,1746539329,379158319,bow_port_thruster,-0.3812287879014511,0.7187844473397196,0.0,0.0,0.0,0.0
2025/05/06 15:48:49.668076534,1746539329,661929175,bow_port_thruster,-0.3770902712345351,0.7109328184189828,0.0,0.0,0.0,0.0
2025/05/06 15:48:49.974921085,1746539329,959808341,bow_port_thruster,-0.38552749550637133,0.7031675574163739,0.0,0.0,0.0,0.0
2025/05/06 15:48:50.142030183,1746539330,138105514,bow_port_thruster,-0.38134169305580123,0.6954877142847938,0.0,0.0,0.0,0.0
2025/05/06 15:48:50.279148768,1746539330,271311690,bow_port_thruster,-0.3772019344321874,0.6878923494276612,0.0,0.0,0.0,0.0
2025/05/06 15:48:50.365254621,1746539330,362125081,bow_port_thruster,-0.37310771315343333,0.6803805335839569,0.0,0.0,0.0,0.0
2025/05/06 15:48:50.445755484,1746539330,440123202,bow_port_thruster,-0.3690585283087455,0.6729513477145334,0.0,0.0,0.0,0.0
2025/05/06 15:48:50.504044521,1746539330,498846327,bow_port_thruster,-0.3650538844973493,0.6656038828896734,0.0,0.0,0.0,0.0
2025/05/06 15:48:50.583959016,1746539330,579360509,bow_port_thruster,-0.36109329176787847,0.674782240177887,0.0,0.0,0.0,0.0
2025/05/06 15:48:50.722457365,1746539330,714974305,bow_port_thruster,-0.35717626555843185,0.6838596355359303,0.0,0.0,0.0,0.0
2025/05/06 15:48:50.795276020,1746539330,790800108,bow_port_thruster,-0.35330232663728905,0.692837179545035,0.0,0.0,0.0,0.0
2025/05/06 15:48:50.874596836,1746539330,870347257,bow_port_thruster,-0.3494710010442789,0.7017159705700396,0.0,0.0,0.0,0.0
2025/05/06 15:48:50.984675141,1746539330,980956811,bow_port_thruster,-0.34568182003279185,0.7065990524101687,0.0,0.0,0.0,0.0
2025/05/06 15:48:51.77684553,1746539331,70698020,bow_port_thruster,-0.3419343200124311,0.7069268172694961,0.0,0.0,0.0,0.0
2025/05/06 15:48:51.183735523,1746539331,178294874,bow_port_thruster,-0.3382280424922944,0.7125778245874476,0.0,0.0,0.0,0.0
2025/05/06 15:48:51.285003580,1746539331,278294060,bow_port_thruster,-0.3345625340248791,0.7088647049606718,0.0,0.0,0.0,0.0
2025/05/06 15:48:51.452823084,1746539331,448776480,bow_port_thruster,-0.33093734615060544,0.7139312614826396,0.0,0.0,0.0,0.0
2025/05/06 15:48:51.547681273,1746539331,540494956,bow_port_thruster,-0.32735203534294877,0.7225780176063306,0.0,0.0,0.0,0.0
2025/05/06 15:48:51.643575776,1746539331,637883957,bow_port_thruster,-0.3238061629541763,0.731129659412661,0.0,0.0,0.0,0.0
2025/05/06 15:48:51.719557225,1746539331,702010089,bow_port_thruster,-0.3202992951616804,0.7395872331591217,0.0,0.0,0.0,0.0
2025/05/06 15:48:51.790323151,1746539331,781545062,bow_port_thruster,-0.3168310029149019,0.7479517735943714,0.0,0.0,0.0,0.0
2025/05/06 15:48:51.882649967,1746539331,877599087,bow_port_thruster,-0.313400861882838,0.7562243040848333,0.0,0.0,0.0,0.0
2025/05/06 15:48:51.973609435,1746539331,971027112,bow_port_thruster,-0.31000845240212677,0.7644058367399,0.0,0.0,0.0,0.0
2025/05/06 15:48:52.84906673,1746539332,82026967,bow_port_thruster,-0.3066533594257034,0.765878271692183,0.0,0.0,0.0,0.0
2025/05/06 15:48:52.150943708,1746539332,149555183,bow_port_thruster,-0.30333517247202063,0.7651670424038163,0.0,0.0,0.0,0.0
2025/05/06 15:48:52.299947943,1746539332,292794407,bow_port_thruster,-0.3000534855748284,0.7642430666709116,0.0,0.0,0.0,0.0
2025/05/06 15:48:52.400859252,1746539332,389346677,bow_port_thruster,-0.2968078972335053,0.7630669916709661,0.0,0.0,0.0,0.0
2025/05/06 15:48:52.477630753,1746539332,470859595,bow_port_thruster,-0.29359801036393673,0.7634624758491363,0.0,0.0,0.0,0.0
2025/05/06 15:48:52.629477119,1746539332,623853209,bow_port_thruster,-0.29042343224993344,0.7551193886147958,0.0,0.0,0.0,0.0
2025/05/06 15:48:52.711547261,1746539332,702618731,bow_port_thruster,-0.28728377449518416,0.7468680753400331,0.0,0.0,0.0,0.0
2025/05/06 15:48:52.812515134,1746539332,800829581,bow_port_thruster,-0.28417865297573713,0.7387075265112927,0.0,0.0,0.0,0.0
2025/05/06 15:48:52.904405610,1746539332,899526746,bow_port_thruster,-0.281107687793004,0.7372218540359026,0.0,0.0,0.0,0.0
2025/05/06 15:48:52.981087925,1746539332,978998926,bow_port_thruster,-0.27807050322728094,0.7382908543350597,0.0,0.0,0.0,0.0
2025/05/06 15:48:53.65021503,1746539333,55602969,bow_port_thruster,-0.27506672769178087,0.7366909582857225,0.0,0.0,0.0,0.0
2025/05/06 15:48:53.191919533,1746539333,190461113,bow_port_thruster,-0.27209599368717124,0.7384082183223517,0.0,0.0,0.0,0.0
2025/05/06 15:48:53.305619383,1746539333,303877678,bow_port_thruster,-0.26915793775661234,0.7361246799646474,0.0,0.0,0.0,0.0
2025/05/06 15:48:53.382574851,1746539333,380272819,bow_port_thruster,-0.2662522004412896,0.7386570593117423,0.0,0.0,0.0,0.0
2025/05/06 15:48:53.465594719,1746539333,462325550,bow_port_thruster,-0.2633784262364354,0.7353081091710182,0.0,0.0,0.0,0.0
2025/05/06 15:48:53.617929242,1746539333,612228674,bow_port_thruster,-0.26053626354783466,0.7272747199701369,0.0,0.0,0.0,0.0
2025/05/06 15:48:53.707769054,1746539333,703051662,bow_port_thruster,-0.25772536464880846,0.734354631471767,0.0,0.0,0.0,0.0
2025/05/06 15:48:53.804914358,1746539333,802114857,bow_port_thruster,-0.2549453856376716,0.7263317305255776,0.0,0.0,0.0,0.0
2025/05/06 15:48:53.867873644,1746539333,865862495,bow_port_thruster,-0.25219598639565716,0.7348420814897964,0.0,0.0,0.0,0.0
2025/05/06 15:48:53.942285509,1746539333,940281172,bow_port_thruster,-0.24947683054530495,0.7268138185934087,0.0,0.0,0.0,0.0
2025/05/06 15:48:54.61417023,1746539334,59329982,bow_port_thruster,-0.2467875854093066,0.7353188665888811,0.0,0.0,0.0,0.0
2025/05/06 15:48:54.159721029,1746539334,158114564,bow_port_thruster,-0.24412792196980423,0.7272853590564035,0.0,0.0,0.0,0.0
2025/05/06 15:48:54.259671850,1746539334,259086543,bow_port_thruster,-0.2414975148281364,0.735785220106783,0.0,0.0,0.0,0.0
2025/05/06 15:48:54.354794930,1746539334,353516823,bow_port_thruster,-0.2388960421650269,0.7277465826856084,0.0,0.0,0.0,0.0
2025/05/06 15:48:54.443603485,1746539334,441300976,bow_port_thruster,-0.2363231857012116,0.7197963702760667,0.0,0.0,0.0,0.0
2025/05/06 15:48:54.545244753,1746539334,541506540,bow_port_thruster,-0.23377863065849827,0.717205696716794,0.0,0.0,0.0,0.0
2025/05/06 15:48:54.640833220,1746539334,638695777,bow_port_thruster,-0.2312620657212548,0.7174693520466002,0.0,0.0,0.0,0.0
2025/05/06 15:48:54.749428169,1746539334,748671816,bow_port_thruster,-0.22877318299832097,0.7183712400749707,0.0,0.0,0.0,0.0
2025/05/06 15:48:54.884088366,1746539334,880518653,bow_port_thruster,-0.22631167798533944,0.71784931722937,0.0,0.0,0.0,0.0
2025/05/06 15:48:54.983483858,1746539334,982684664,bow_port_thruster,-0.2238772495275007,0.7190694290432867,0.0,0.0,0.0,0.0
2025/05/06 15:48:55.62283079,1746539335,59489599,bow_port_thruster,-0.2214695997826982,0.7170609723618252,0.0,0.0,0.0,0.0
2025/05/06 15:48:55.159228918,1746539335,156668370,bow_port_thruster,-0.21908843418508853,0.7198880744516737,0.0,0.0,0.0,0.0
2025/05/06 15:48:55.255723053,1746539335,255178082,bow_port_thruster,-0.21673346140905256,0.7163055899302084,0.0,0.0,0.0,0.0
2025/05/06 15:48:55.352949939,1746539335,348312003,bow_port_thruster,-0.21440439333355296,0.7203376833209546,0.0,0.0,0.0,0.0
2025/05/06 15:48:55.450290004,1746539335,449222849,bow_port_thruster,-0.2121009450068839,0.7289139688044242,0.0,0.0,0.0,0.0
2025/05/06 15:48:55.559608158,1746539335,558001914,bow_port_thruster,-0.20982283461180817,0.7373959151475755,0.0,0.0,0.0,0.0
2025/05/06 15:48:55.639799907,1746539335,638100248,bow_port_thruster,-0.2075697834310783,0.7382130256194469,0.0,0.0,0.0,0.0
2025/05/06 15:48:55.761994865,1746539335,759723591,bow_port_thruster,-0.20534151581333643,0.7388195016848842,0.0,0.0,0.0,0.0
2025/05/06 15:48:55.881783467,1746539335,878747607,bow_port_thruster,-0.20313775913938972,0.7388447431315094,0.0,0.0,0.0,0.0
2025/05/06 15:48:55.980667392,1746539335,966417932,bow_port_thruster,-0.20095824378885646,0.7387648388090382,0.0,0.0,0.0,0.0
2025/05/06 15:48:56.104180913,1746539336,102224058,bow_port_thruster,-0.19880270310717904,0.7387708396626046,0.0,0.0,0.0,0.0
2025/05/06 15:48:56.217770454,1746539336,215781129,bow_port_thruster,-0.19667087337300007,0.7388683243838402,0.0,0.0,0.0,0.0
2025/05/06 15:48:56.294377381,1746539336,292227757,bow_port_thruster,-0.19456249376589707,0.7385300869063537,0.0,0.0,0.0,0.0
2025/05/06 15:48:56.363473254,1746539336,362379336,bow_port_thruster,-0.1924773063344722,0.7389444815940901,0.0,0.0,0.0,0.0
2025/05/06 15:48:56.446861848,1746539336,440329423,bow_port_thruster,-0.19041505596479302,0.7437967643964838,0.0,0.0,0.0,0.0
2025/05/06 15:48:56.561856710,1746539336,559668895,bow_port_thruster,-0.18837549034918027,0.7404217071510517,0.0,0.0,0.0,0.0
2025/05/06 15:48:56.651740294,1746539336,645960933,bow_port_thruster,-0.18635835995533928,0.7461920907892232,0.0,0.0,0.0,0.0
2025/05/06 15:48:56.762404923,1746539336,758564604,bow_port_thruster,-0.18436341799583056,0.7400801816697561,0.0,0.0,0.0,0.0
2025/05/06 15:48:56.858888833,1746539336,855232515,bow_port_thruster,-0.18239042039787642,0.7471685936845011,0.0,0.0,0.0,0.0
2025/05/06 15:48:56.954946774,1746539336,953790775,bow_port_thruster,-0.1804391257734998,0.7394452654021025,0.0,0.0,0.0,0.0
2025/05/06 15:48:57.49970163,1746539337,47623302,bow_port_thruster,-0.1785092953899913,0.7475922358107451,0.0,0.0,0.0,0.0
2025/05/06 15:48:57.148326859,1746539337,144040483,bow_port_thruster,-0.1766006931407014,0.739423721216827,0.0,0.0,0.0,0.0
2025/05/06 15:48:57.276895025,1746539337,274546899,bow_port_thruster,-0.1747130855161537,0.7459531126737013,0.0,0.0,0.0,0.0
2025/05/06 15:48:57.384334338,1746539337,382592425,bow_port_thruster,-0.172846241575476,0.7404012584706466,0.0,0.0,0.0,0.0
2025/05/06 15:48:57.449750946,1746539337,445480295,bow_port_thruster,-0.17099993291814578,0.7454485059976788,0.0,0.0,0.0,0.0
2025/05/06 15:48:57.537140927,1746539337,534757470,bow_port_thruster,-0.1691739336560462,0.7373035724317042,0.0,0.0,0.0,0.0
2025/05/06 15:48:57.719804810,1746539337,716073369,bow_port_thruster,-0.16736802038582965,0.7292482331349553,0.0,0.0,0.0,0.0
2025/05/06 15:48:57.795390509,1746539337,791897223,bow_port_thruster,-0.16558197216158554,0.7212815025704709,0.0,0.0,0.0,0.0
2025/05/06 15:48:57.869671678,1746539337,864289212,bow_port_thruster,-0.1638155704678081,0.7187634682637746,0.0,0.0,0.0,0.0
2025/05/06 15:48:57.962866233,1746539337,957282761,bow_port_thruster,-0.16206859919266223,0.7188558759883729,0.0,0.0,0.0,0.0
2025/05/06 15:48:58.59372482,1746539338,54898815,bow_port_thruster,-0.16034084460154294,0.7217551089164556,0.0,0.0,0.0,0.0
2025/05/06 15:48:58.270624173,1746539338,209953329,bow_port_thruster,-0.15863209531092598,0.7190036883852677,0.0,0.0,0.0,0.0
2025/05/06 15:48:58.322976126,1746539338,302374176,bow_port_thruster,-0.15694214226250577,0.7230686246971569,0.0,0.0,0.0,0.0
2025/05/06 15:48:58.388257836,1746539338,386854099,bow_port_thruster,-0.1552707786976182,0.7191396803886418,0.0,0.0,0.0,0.0
2025/05/06 15:48:58.564849290,1746539338,560998772,bow_port_thruster,-0.15361780013194443,0.7277291439043668,0.0,0.0,0.0,0.0
2025/05/06 15:48:58.660273123,1746539338,659286908,bow_port_thruster,-0.15403834776003486,0.7362241233214187,0.0,0.0,0.0,0.0
2025/05/06 15:48:58.716515006,1746539338,715130960,bow_port_thruster,-0.15239892593467447,0.7446256579648832,0.0,0.0,0.0,0.0
2025/05/06 15:48:58.767177772,1746539338,765401266,bow_port_thruster,-0.15077753774939306,0.7529347757272694,0.0,0.0,0.0,0.0
2025/05/06 15:48:58.843359789,1746539338,840725358,bow_port_thruster,-0.14917398483414973,0.7611524931942695,0.0,0.0,0.0,0.0
2025/05/06 15:48:58.955231078,1746539338,952542140,bow_port_thruster,-0.14758807100097407,0.7692798157691325,0.0,0.0,0.0,0.0
2025/05/06 15:48:59.74763021,1746539339,72907895,bow_port_thruster,-0.14601960221996335,0.777317737795672,0.0,0.0,0.0,0.0
2025/05/06 15:48:59.144183403,1746539339,142452889,bow_port_thruster,-0.14446838659554379,0.7852672426799197,0.0,0.0,0.0,0.0
2025/05/06 15:48:59.251022273,1746539339,247577632,bow_port_thruster,-0.1429342343429928,0.7931293030104405,0.0,0.0,0.0,0.0
2025/05/06 15:48:59.372765520,1746539339,366353706,bow_port_thruster,-0.14141695776521987,0.7844598806773256,0.0,0.0,0.0,0.0
2025/05/06 15:48:59.461972400,1746539339,456234788,bow_port_thruster,-0.15622803636516835,0.775885821989875,0.0,0.0,0.0,0.0
2025/05/06 15:48:59.550176383,1746539339,548526922,bow_port_thruster,-0.1545645279651515,0.7674060779479863,0.0,0.0,0.0,0.0
2025/05/06 15:48:59.651409975,1746539339,648085948,bow_port_thruster,-0.15291931815753482,0.7590196110905585,0.0,0.0,0.0,0.0
2025/05/06 15:48:59.770691983,1746539339,768785367,bow_port_thruster,-0.15129220565780194,0.7507253953685623,0.0,0.0,0.0,0.0
2025/05/06 15:48:59.903762971,1746539339,897989175,bow_port_thruster,-0.14968299139556612,0.7425224160195082,0.0,0.0,0.0,0.0
2025/05/06 15:49:00.27878635,1746539340,22187319,bow_port_thruster,-0.1480914784902149,0.739819099901283,0.0,0.0,0.0,0.0
2025/05/06 15:49:00.120862898,1746539340,111533686,bow_port_thruster,-0.14651747222682254,0.7481810898023689,0.0,0.0,0.0,0.0
2025/05/06 15:49:00.224174615,1746539340,217677475,bow_port_thruster,-0.14496078003232749,0.7400060978145429,0.0,0.0,0.0,0.0
2025/05/06 15:49:00.295387375,1746539340,293828916,bow_port_thruster,-0.1434212114519719,0.7483660307385829,0.0,0.0,0.0,0.0
2025/05/06 15:49:00.395252996,1746539340,389359917,bow_port_thruster,-0.1418985781260002,0.7401890044004584,0.0,0.0,0.0,0.0
2025/05/06 15:49:00.476602376,1746539340,474546440,bow_port_thruster,-0.1403926937666142,0.7485469253520534,0.0,0.0,0.0,0.0
2025/05/06 15:49:00.564344148,1746539340,560015823,bow_port_thruster,-0.15534837413518143,0.7568129091731807,0.0,0.0,0.0,0.0
2025/05/06 15:49:00.649384619,1746539340,643294085,bow_port_thruster,-0.17013954201969445,0.7649879671722757,0.0,0.0,0.0,0.0
2025/05/06 15:49:00.749028345,1746539340,748299235,bow_port_thruster,-0.1847680070574778,0.7566280995333806,0.0,0.0,0.0,0.0
2025/05/06 15:49:00.853190840,1746539340,852037257,bow_port_thruster,-0.18279055897984556,0.7648051904385134,0.0,0.0,0.0,0.0
2025/05/06 15:49:00.983683456,1746539340,982615209,bow_port_thruster,-0.18083486283106726,0.7564473333436896,0.0,0.0,0.0,0.0
2025/05/06 15:49:01.45177367,1746539341,44118080,bow_port_thruster,-0.1789006793399255,0.7646264126769091,0.0,0.0,0.0,0.0
2025/05/06 15:49:01.209353763,1746539341,204917127,bow_port_thruster,-0.17698777186718634,0.7562705221374632,0.0,0.0,0.0,0.0
2025/05/06 15:49:01.301650092,1746539341,298648465,bow_port_thruster,-0.1750959063766473,0.764451546393951,0.0,0.0,0.0,0.0
2025/05/06 15:49:01.353114311,1746539341,350847656,bow_port_thruster,-0.17322485140650418,0.7560975793836175,0.0,0.0,0.0,0.0
2025/05/06 15:49:01.459118975,1746539341,457155690,bow_port_thruster,-0.17137437804103264,0.7642805060103978,0.0,0.0,0.0,0.0
2025/05/06 15:49:01.543071954,1746539341,541405306,bow_port_thruster,-0.18598925988258128,0.7618409594914334,0.0,0.0,0.0,0.0
2025/05/06 15:49:01.653673826,1746539341,647563779,bow_port_thruster,-0.2004433780238729,0.7623639881395555,0.0,0.0,0.0,0.0
2025/05/06 15:49:01.740288533,1746539341,738174622,bow_port_thruster,-0.2147385008656103,0.7540329842700203,0.0,0.0,0.0,0.0
2025/05/06 15:49:01.848767640,1746539341,845727949,bow_port_thruster,-0.21243137735608858,0.76223862144305,0.0,0.0,0.0,0.0
2025/05/06 15:49:01.947208037,1746539341,944190169,bow_port_thruster,-0.2101496322051716,0.7539089966071765,0.0,0.0,0.0,0.0
2025/05/06 15:49:02.45446550,1746539342,42420633,bow_port_thruster,-0.20789298625091474,0.7621159976444976,0.0,0.0,0.0,0.0
2025/05/06 15:49:02.179026403,1746539342,176060031,bow_port_thruster,-0.20566116340215465,0.7537877216704081,0.0,0.0,0.0,0.0
2025/05/06 15:49:02.243423942,1746539342,241105359,bow_port_thruster,-0.20345389060473096,0.7619960567320336,0.0,0.0,0.0,0.0
2025/05/06 15:49:02.365375156,1746539342,357652049,bow_port_thruster,-0.20127089780807894,0.7536691001079813,0.0,0.0,0.0,0.0
2025/05/06 15:49:02.436208404,1746539342,434524674,bow_port_thruster,-0.21555691793219006,0.7454337400067934,0.0,0.0,0.0,0.0
2025/05/06 15:49:02.550979563,1746539342,548991923,bow_port_thruster,-0.22968579183493595,0.7418328151005704,0.0,0.0,0.0,0.0
2025/05/06 15:49:02.647991951,1746539342,646982018,bow_port_thruster,-0.24365924812475165,0.7444275258538412,0.0,0.0,0.0,0.0
2025/05/06 15:49:02.743828448,1746539342,740023612,bow_port_thruster,-0.24103399639537937,0.7362938230694489,0.0,0.0,0.0,0.0
2025/05/06 15:49:02.864558038,1746539342,857963621,bow_port_thruster,-0.2384376224350302,0.744694591015685,0.0,0.0,0.0,0.0
2025/05/06 15:49:02.965486621,1746539342,959205093,bow_port_thruster,-0.23586980858824486,0.7365579505145126,0.0,0.0,0.0,0.0
2025/05/06 15:49:03.44231568,1746539343,42052271,bow_port_thruster,-0.2391911240380577,0.7449558130588528,0.0,0.0,0.0,0.0
2025/05/06 15:49:03.171301978,1746539343,169231052,bow_port_thruster,-0.23661502167363907,0.7368162991152055,0.0,0.0,0.0,0.0
2025/05/06 15:49:03.273960137,1746539343,256957167,bow_port_thruster,-0.23406725643522905,0.7452113198249382,0.0,0.0,0.0,0.0
2025/05/06 15:49:03.368146187,1746539343,366847434,bow_port_thruster,-0.23154751661444153,0.7370689953068639,0.0,0.0,0.0,0.0
2025/05/06 15:49:03.441455530,1746539343,441060426,bow_port_thruster,-0.24550049393168266,0.7290162363584883,0.0,0.0,0.0,0.0
2025/05/06 15:49:03.549845140,1746539343,549282105,bow_port_thruster,-0.25929998849843416,0.721052057758545,0.0,0.0,0.0,0.0
2025/05/06 15:49:03.636353138,1746539343,634810983,bow_port_thruster,-0.2729476886249514,0.7157841814111541,0.0,0.0,0.0,0.0
2025/05/06 15:49:03.764413253,1746539343,763782264,bow_port_thruster,-0.2700002640500769,0.7244105554156314,0.0,0.0,0.0,0.0
2025/05/06 15:49:03.860963001,1746539343,856127233,bow_port_thruster,-0.26708526114552605,0.7164970393060593,0.0,0.0,0.0,0.0
2025/05/06 15:49:03.946633753,1746539343,944746147,bow_port_thruster,-0.26420232327292525,0.7251155718736928,0.0,0.0,0.0,0.0
2025/05/06 15:49:04.53888375,1746539344,52220872,bow_port_thruster,-0.2613510977169231,0.7171943005830822,0.0,0.0,0.0,0.0
2025/05/06 15:49:04.182347256,1746539344,160788630,bow_port_thruster,-0.274976235642037,0.7258051632766683,0.0,0.0,0.0,0.0
2025/05/06 15:49:04.305937119,1746539344,303591764,bow_port_thruster,-0.2720064970499746,0.717876306480625,0.0,0.0,0.0,0.0
2025/05/06 15:49:04.411894396,1746539344,407183898,bow_port_thruster,-0.26906942558242486,0.726479667109338,0.0,0.0,0.0,0.0
2025/05/06 15:49:04.464206212,1746539344,463512420,bow_port_thruster,-0.2826096619010182,0.7185433907711353,0.0,0.0,0.0,0.0
2025/05/06 15:49:04.590458710,1746539344,588888859,bow_port_thruster,-0.2910244479119003,0.7106944134726527,0.0,0.0,0.0,0.0
2025/05/06 15:49:04.640687078,1746539344,638872709,bow_port_thruster,-0.2937913668980375,0.7029317749244536,0.0,0.0,0.0,0.0
2025/05/06 15:49:04.756284701,1746539344,752903532,bow_port_thruster,-0.30064963040867154,0.6952545254002845,0.0,0.0,0.0,0.0
2025/05/06 15:49:04.857306432,1746539344,854514668,bow_port_thruster,-0.2973974844741762,0.6876617256208815,0.0,0.0,0.0,0.0
2025/05/06 15:49:04.940841303,1746539344,939445082,bow_port_thruster,-0.2957916382355566,0.6801524466390518,0.0,0.0,0.0,0.0
2025/05/06 15:49:05.57647807,1746539345,54362459,bow_port_thruster,-0.29259293021496546,0.6727257697260223,0.0,0.0,0.0,0.0
2025/05/06 15:49:05.151860822,1746539345,148169927,bow_port_thruster,-0.28942940798260086,0.681825786259036,0.0,0.0,0.0,0.0
2025/05/06 15:49:05.235523201,1746539345,234080171,bow_port_thruster,-0.28630068449479223,0.6743807026101867,0.0,0.0,0.0,0.0
2025/05/06 15:49:05.350354592,1746539345,346812910,bow_port_thruster,-0.2832063769653495,0.6834625148814746,0.0,0.0,0.0,0.0
2025/05/06 15:49:05.455772621,1746539345,451809194,bow_port_thruster,-0.28014610681873064,0.6759994272177784,0.0,0.0,0.0,0.0
2025/05/06 15:49:05.535516001,1746539345,534536591,bow_port_thruster,-0.2935644996437246,0.6850634335183828,0.0,0.0,0.0,0.0
2025/05/06 15:49:05.643705049,1746539345,641442397,bow_port_thruster,-0.30683529014764366,0.6775827357496806,0.0,0.0,0.0,0.0
2025/05/06 15:49:05.782481937,1746539345,779747905,bow_port_thruster,-0.30351510195601955,0.6866293256564342,0.0,0.0,0.0,0.0
2025/05/06 15:49:05.858326758,1746539345,856476240,bow_port_thruster,-0.30023143583450335,0.6791314030742135,0.0,0.0,0.0,0.0
2025/05/06 15:49:05.943542221,1746539345,941685370,bow_port_thruster,-0.29698389004032383,0.6881609576403972,0.0,0.0,0.0,0.0
2025/05/06 15:49:06.63736598,1746539346,60689705,bow_port_thruster,-0.2970614112668487,0.6806461871063527,0.0,0.0,0.0,0.0
2025/05/06 15:49:06.148796583,1746539346,144757514,bow_port_thruster,-0.29384873574291337,0.6896590790481828,0.0,0.0,0.0,0.0
2025/05/06 15:49:06.236490943,1746539346,235696290,bow_port_thruster,-0.3069270299205439,0.6821278291786529,0.0,0.0,0.0,0.0
2025/05/06 15:49:06.343598467,1746539346,339989391,bow_port_thruster,-0.3036058325914179,0.6866472229835963,0.0,0.0,0.0,0.0
2025/05/06 15:49:06.456701184,1746539346,454815825,bow_port_thruster,-0.3167661684329123,0.6955941035307767,0.0,0.0,0.0,0.0
2025/05/06 15:49:06.539433246,1746539346,537974920,bow_port_thruster,-0.3297817405801502,0.6879975683919382,0.0,0.0,0.0,0.0
2025/05/06 15:49:06.655072748,1746539346,651014201,bow_port_thruster,-0.3262091414337686,0.6969295951396269,0.0,0.0,0.0,0.0
2025/05/06 15:49:06.768657476,1746539346,764336694,bow_port_thruster,-0.3226758408779971,0.689318369593091,0.0,0.0,0.0,0.0
2025/05/06 15:49:06.842850372,1746539346,839372155,bow_port_thruster,-0.31918140662833916,0.698235867527567,0.0,0.0,0.0,0.0
2025/05/06 15:49:06.987387429,1746539346,984872188,bow_port_thruster,-0.3157254111554274,0.6906102729847637,0.0,0.0,0.0,0.0
2025/05/06 15:49:07.42878527,1746539347,40222906,bow_port_thruster,-0.31230743163271774,0.6995135599819314,0.0,0.0,0.0,0.0
2025/05/06 15:49:07.143176383,1746539347,142345120,bow_port_thruster,-0.3139104540159468,0.6918739108221301,0.0,0.0,0.0,0.0
2025/05/06 15:49:07.246313169,1746539347,245128224,bow_port_thruster,-0.3105124390217714,0.7007632978030867,0.0,0.0,0.0,0.0
2025/05/06 15:49:07.360386956,1746539347,356470948,bow_port_thruster,-0.32359680219253195,0.6931099015272527,0.0,0.0,0.0,0.0
2025/05/06 15:49:07.444415368,1746539347,440945305,bow_port_thruster,-0.3200922373684141,0.6939004831954371,0.0,0.0,0.0,0.0
2025/05/06 15:49:07.559790663,1746539347,554879508,bow_port_thruster,-0.3330712227573615,0.7027675778802873,0.0,0.0,0.0,0.0
2025/05/06 15:49:07.648794050,1746539347,645763162,bow_port_thruster,-0.3459074393070305,0.6950921345236042,0.0,0.0,0.0,0.0
2025/05/06 15:49:07.755569883,1746539347,753213222,bow_port_thruster,-0.34215745747465315,0.7039461210438445,0.0,0.0,0.0,0.0
2025/05/06 15:49:07.843348982,1746539347,841745298,bow_port_thruster,-0.33844872544243193,0.6962577137123622,0.0,0.0,0.0,0.0
2025/05/06 15:49:07.949355440,1746539347,945637771,bow_port_thruster,-0.3347807894625652,0.7050988788615262,0.0,0.0,0.0,0.0
2025/05/06 15:49:08.40747262,1746539348,39288736,bow_port_thruster,-0.33395702882580003,0.6973977911940494,0.0,0.0,0.0,0.0
2025/05/06 15:49:08.186714972,1746539348,173171747,bow_port_thruster,-0.33033850150871624,0.7062264154909148,0.0,0.0,0.0,0.0
2025/05/06 15:49:08.262666578,1746539348,259302324,bow_port_thruster,-0.3280810836210884,0.6985129249205148,0.0,0.0,0.0,0.0
2025/05/06 15:49:08.356619908,1746539348,354666409,bow_port_thruster,-0.3245271917012564,0.7073292827463891,0.0,0.0,0.0,0.0
2025/05/06 15:49:08.576059108,1746539348,572828189,bow_port_thruster,-0.3258033324623997,0.6996036606361788,0.0,0.0,0.0,0.0
2025/05/06 15:49:08.714207559,1746539348,713044464,bow_port_thruster,-0.3387194958053133,0.6919630203691809,0.0,0.0,0.0,0.0
2025/05/06 15:49:08.766996814,1746539348,764688273,bow_port_thruster,-0.35149358135145486,0.6844064271451198,0.0,0.0,0.0,0.0
2025/05/06 15:49:08.839765760,1746539348,838434186,bow_port_thruster,-0.3535140971506863,0.6769329564465235,0.0,0.0,0.0,0.0
2025/05/06 15:49:08.945256336,1746539348,942374481,bow_port_thruster,-0.35668769029796765,0.6695416939256117,0.0,0.0,0.0,0.0
2025/05/06 15:49:09.37074036,1746539349,35285740,bow_port_thruster,-0.35281912570469,0.66223173529243,0.0,0.0,0.0,0.0
2025/05/06 15:49:09.151166871,1746539349,150405639,bow_port_thruster,-0.3629890733484061,0.6550021862042132,0.0,0.0,0.0,0.0
2025/05/06 15:49:09.264084572,1746539349,258710368,bow_port_thruster,-0.35905119354157355,0.647852162155967,0.0,0.0,0.0,0.0
2025/05/06 15:49:09.349377346,1746539349,348091029,bow_port_thruster,-0.35515663041261625,0.6572257883722513,0.0,0.0,0.0,0.0
2025/05/06 15:49:09.673168199,1746539349,671907800,bow_port_thruster,-0.35205543239462095,0.6500513047001566,0.0,0.0,0.0,0.0
2025/05/06 15:49:09.797926533,1746539349,793965626,bow_port_thruster,-0.36468282263828017,0.6429557403484549,0.0,0.0,0.0,0.0
2025/05/06 15:49:09.880884431,1746539349,879586367,bow_port_thruster,-0.3771713115892591,0.6359382272046219,0.0,0.0,0.0,0.0
2025/05/06 15:49:09.948149043,1746539349,946355002,bow_port_thruster,-0.3836869920454379,0.628997906705371,0.0,0.0,0.0,0.0
2025/05/06 15:49:10.34099973,1746539350,33389195,bow_port_thruster,-0.3840767797514832,0.622133929731612,0.0,0.0,0.0,0.0
2025/05/06 15:49:10.161144976,1746539350,158541881,bow_port_thruster,-0.3836296150692968,0.6153454565045642,0.0,0.0,0.0,0.0
2025/05/06 15:49:10.250592804,1746539350,247125680,bow_port_thruster,-0.382969642858519,0.608631656483014,0.0,0.0,0.0,0.0
2025/05/06 15:49:10.347509098,1746539350,345845628,bow_port_thruster,-0.37985400010148285,0.6019917082617008,0.0,0.0,0.0,0.0
2025/05/06 15:49:10.462235099,1746539350,458275964,bow_port_thruster,-0.3921756061003665,0.5954247994708222,0.0,0.0,0.0,0.0
2025/05/06 15:49:10.549940873,1746539350,545506507,bow_port_thruster,-0.3879166744332625,0.5889301266766431,0.0,0.0,0.0,0.0
2025/05/06 15:49:10.641493623,1746539350,639932211,bow_port_thruster,-0.40014959101449665,0.5825068952832,0.0,0.0,0.0,0.0
2025/05/06 15:49:10.738856495,1746539350,736878837,bow_port_thruster,-0.39580294551333717,0.5761543194350849,0.0,0.0,0.0,0.0
2025/05/06 15:49:10.898739069,1746539350,895212070,bow_port_thruster,-0.39150411311269046,0.5698716219212989,0.0,0.0,0.0,0.0
2025/05/06 15:49:10.955539224,1746539350,952956368,bow_port_thruster,-0.38725256786845086,0.5801030340801646,0.0,0.0,0.0,0.0
2025/05/06 15:49:11.72708633,1746539351,70207325,bow_port_thruster,-0.39949278962189794,0.5737769007052828,0.0,0.0,0.0,0.0
2025/05/06 15:49:11.155761511,1746539351,153974008,bow_port_thruster,-0.39515336893605707,0.5709116435482896,0.0,0.0,0.0,0.0
2025/05/06 15:49:11.275220064,1746539351,274017541,bow_port_thruster,-0.3908616818777605,0.5744379647347312,0.0,0.0,0.0,0.0
2025/05/06 15:49:11.343032486,1746539351,341873991,bow_port_thruster,-0.38661720337710515,0.5681741471226492,0.0,0.0,0.0,0.0
2025/05/06 15:49:11.439776759,1746539351,435433795,bow_port_thruster,-0.39277305942578844,0.5784242315043001,0.0,0.0,0.0,0.0
2025/05/06 15:49:11.546577256,1746539351,544869195,bow_port_thruster,-0.3885075557721048,0.5885615649577528,0.0,0.0,0.0,0.0
2025/05/06 15:49:11.636611893,1746539351,636019672,bow_port_thruster,-0.39081067823721716,0.5985873877432175,0.0,0.0,0.0,0.0
2025/05/06 15:49:11.745235226,1746539351,741090685,bow_port_thruster,-0.38833930259396526,0.6085029264780422,0.0,0.0,0.0,0.0
2025/05/06 15:49:11.846529680,1746539351,842712076,bow_port_thruster,-0.3931470701084618,0.6183093942867837,0.0,0.0,0.0,0.0
2025/05/06 15:49:11.939961678,1746539351,937270694,bow_port_thruster,-0.38887745233726867,0.628007990949629,0.0,0.0,0.0,0.0
2025/05/06 15:49:12.101751675,1746539352,90941172,bow_port_thruster,-0.40109980036155873,0.637599903049183,0.0,0.0,0.0,0.0
2025/05/06 15:49:12.165615795,1746539352,162897277,bow_port_thruster,-0.3967427025575816,0.630641304115642,0.0,0.0,0.0,0.0
2025/05/06 15:49:12.243659694,1746539352,241390310,bow_port_thruster,-0.39243353282944815,0.6402042497703699,0.0,0.0,0.0,0.0
2025/05/06 15:49:12.364022104,1746539352,360855299,bow_port_thruster,-0.38817176396832426,0.6332170030228959,0.0,0.0,0.0,0.0
2025/05/06 15:49:12.463244462,1746539352,460418746,bow_port_thruster,-0.38395687456467265,0.642751615989644,0.0,0.0,0.0,0.0
2025/05/06 15:49:12.549499923,1746539352,547479793,bow_port_thruster,-0.39623334894446127,0.6357363482137579,0.0,0.0,0.0,0.0
2025/05/06 15:49:12.640454184,1746539352,635700476,bow_port_thruster,-0.39192978210607216,0.6452432483834066,0.0,0.0,0.0,0.0
2025/05/06 15:49:12.747751033,1746539352,746147264,bow_port_thruster,-0.4041185545029054,0.6382005726511891,0.0,0.0,0.0,0.0
2025/05/06 15:49:12.863696012,1746539352,859001625,bow_port_thruster,-0.3997282504033734,0.6476803663520261,0.0,0.0,0.0,0.0
2025/05/06 15:49:12.949807924,1746539352,945189073,bow_port_thruster,-0.4118312396489363,0.6406108823221538,0.0,0.0,0.0,0.0
2025/05/06 15:49:13.51227179,1746539353,43730902,bow_port_thruster,-0.41721348294132765,0.6336191626166102,0.0,0.0,0.0,0.0
2025/05/06 15:49:13.151025046,1746539353,149458734,bow_port_thruster,-0.42325083241054495,0.6267043518278275,0.0,0.0,0.0,0.0
2025/05/06 15:49:13.274325523,1746539353,272848213,bow_port_thruster,-0.4186500732540289,0.6198656039577214,0.0,0.0,0.0,0.0
2025/05/06 15:49:13.361520427,1746539353,357137054,bow_port_thruster,-0.43054492244823456,0.6131020823141864,0.0,0.0,0.0,0.0
2025/05/06 15:49:13.474265345,1746539353,472973497,bow_port_thruster,-0.425863928301304,0.6064129594087304,0.0,0.0,0.0,0.0
2025/05/06 15:49:13.539515460,1746539353,538553835,bow_port_thruster,-0.43767942508998964,0.6032477081925398,0.0,0.0,0.0,0.0
2025/05/06 15:49:13.649739328,1746539353,646029648,bow_port_thruster,-0.43291995141399975,0.6049087788544766,0.0,0.0,0.0,0.0
2025/05/06 15:49:13.747605879,1746539353,743000518,bow_port_thruster,-0.4282128319484458,0.6147547822870774,0.0,0.0,0.0,0.0
2025/05/06 15:49:13.845734342,1746539353,844235303,bow_port_thruster,-0.43410356589666715,0.6080474796819195,0.0,0.0,0.0,0.0
2025/05/06 15:49:13.954261614,1746539353,950666530,bow_port_thruster,-0.4293834266718038,0.6178589574054184,0.0,0.0,0.0,0.0
2025/05/06 15:49:14.63879838,1746539354,62199513,bow_port_thruster,-0.44116020897841396,0.6111175088739588,0.0,0.0,0.0,0.0
2025/05/06 15:49:14.158149876,1746539354,156109653,bow_port_thruster,-0.4528074466796514,0.6044502162763452,0.0,0.0,0.0,0.0
2025/05/06 15:49:14.243920636,1746539354,241727618,bow_port_thruster,-0.45843138221736907,0.5978562638973055,0.0,0.0,0.0,0.0
2025/05/06 15:49:14.345853236,1746539354,344144417,bow_port_thruster,-0.453443637012978,0.5913348449944351,0.0,0.0,0.0,0.0
2025/05/06 15:49:14.467198717,1746539354,465434074,bow_port_thruster,-0.4485107570058353,0.6013301616994964,0.0,0.0,0.0,0.0
2025/05/06 15:49:14.540658358,1746539354,536982033,bow_port_thruster,-0.45182281659465895,0.5947705299208019,0.0,0.0,0.0,0.0
2025/05/06 15:49:14.664251139,1746539354,663038218,bow_port_thruster,-0.4469077656121177,0.5952592184681679,0.0,0.0,0.0,0.0
2025/05/06 15:49:14.752365699,1746539354,749932211,bow_port_thruster,-0.44742270621630165,0.588766367065018,0.0,0.0,0.0,0.0
2025/05/06 15:49:14.853844799,1746539354,852472995,bow_port_thruster,-0.44255605644792234,0.5987899370273028,0.0,0.0,0.0,0.0
2025/05/06 15:49:14.962492460,1746539354,957463630,bow_port_thruster,-0.4541879398269952,0.6006400538898572,0.0,0.0,0.0,0.0
2025/05/06 15:49:15.62331037,1746539355,58585705,bow_port_thruster,-0.46569187248889826,0.5940880132970687,0.0,0.0,0.0,0.0
2025/05/06 15:49:15.142789981,1746539355,141831277,bow_port_thruster,-0.46062426189152034,0.6031442324182255,0.0,0.0,0.0,0.0
2025/05/06 15:49:15.258003999,1746539355,254868258,bow_port_thruster,-0.45561239501071366,0.596564645861625,0.0,0.0,0.0,0.0
2025/05/06 15:49:15.364695515,1746539355,361320693,bow_port_thruster,-0.46710065866559575,0.5900574347571471,0.0,0.0,0.0,0.0
2025/05/06 15:49:15.435504783,1746539355,434072863,bow_port_thruster,-0.4620175514202742,0.6000668029748185,0.0,0.0,0.0,0.0
2025/05/06 15:49:15.554300613,1746539355,552922852,bow_port_thruster,-0.4734353583546511,0.5935210681420955,0.0,0.0,0.0,0.0
2025/05/06 15:49:15.690702274,1746539355,689322362,bow_port_thruster,-0.4682825694127499,0.6015121680547347,0.0,0.0,0.0,0.0
2025/05/06 15:49:15.740706466,1746539355,739609145,bow_port_thruster,-0.4631864611492097,0.5949505342061326,0.0,0.0,0.0,0.0
2025/05/06 15:49:15.858147654,1746539355,855689083,bow_port_thruster,-0.47459141007656835,0.6049060783298652,0.0,0.0,0.0,0.0
2025/05/06 15:49:15.969850712,1746539355,963510261,bow_port_thruster,-0.4694259045657261,0.5983071114682367,0.0,0.0,0.0,0.0
2025/05/06 15:49:16.42392890,1746539356,39116815,bow_port_thruster,-0.4807622196155031,0.591780733242086,0.0,0.0,0.0,0.0
2025/05/06 15:49:16.154581731,1746539356,151825530,bow_port_thruster,-0.4755288351997326,0.601771145176423,0.0,0.0,0.0,0.0
2025/05/06 15:49:16.267567076,1746539356,262340896,bow_port_thruster,-0.4867980180125355,0.6116516625794824,0.0,0.0,0.0,0.0
2025/05/06 15:49:16.344572100,1746539356,341043943,bow_port_thruster,-0.48149823981439765,0.6049784942911082,0.0,0.0,0.0,0.0
2025/05/06 15:49:16.444268962,1746539356,439813389,bow_port_thruster,-0.47625675917643934,0.598378730853906,0.0,0.0,0.0,0.0
2025/05/06 15:49:16.552981984,1746539356,552166455,bow_port_thruster,-0.48155605537382884,0.608296564814513,0.0,0.0,0.0,0.0
2025/05/06 15:49:16.641276854,1746539356,639371575,bow_port_thruster,-0.4763139387647167,0.6016603026015533,0.0,0.0,0.0,0.0
2025/05/06 15:49:16.776498715,1746539356,774515036,bow_port_thruster,-0.4875744854383048,0.6115420392729363,0.0,0.0,0.0,0.0
2025/05/06 15:49:16.900393568,1746539356,898412663,bow_port_thruster,-0.48226616609848344,0.604870076840934,0.0,0.0,0.0,0.0
2025/05/06 15:49:16.948159334,1746539356,946477593,bow_port_thruster,-0.4770162382714001,0.6147165059956837,0.0,0.0,0.0,0.0
2025/05/06 15:49:17.36480841,1746539357,34750318,bow_port_thruster,-0.48659430230269624,0.6080096244297312,0.0,0.0,0.0,0.0
2025/05/06 15:49:17.146517595,1746539357,145974578,bow_port_thruster,-0.49774176497736655,0.6013765185610042,0.0,0.0,0.0,0.0
2025/05/06 15:49:17.257257522,1746539357,254573281,bow_port_thruster,-0.49232160556261556,0.5948163768568331,0.0,0.0,0.0,0.0
2025/05/06 15:49:17.340665988,1746539357,336618009,bow_port_thruster,-0.5034060679014268,0.588328396711408,0.0,0.0,0.0,0.0
2025/05/06 15:49:17.448654039,1746539357,446801337,bow_port_thruster,-0.4979236011545111,0.5983567843475825,0.0,0.0,0.0,0.0
2025/05/06 15:49:17.587970170,1746539357,584269961,bow_port_thruster,-0.4925014415418115,0.5918298597197591,0.0,0.0,0.0,0.0
2025/05/06 15:49:17.653494442,1746539357,652091000,bow_port_thruster,-0.48713892568485156,0.6018197312628418,0.0,0.0,0.0,0.0
2025/05/06 15:49:17.740096980,1746539357,738736659,bow_port_thruster,-0.49828039750231823,0.5952547142189505,0.0,0.0,0.0,0.0
2025/05/06 15:49:17.837741041,1746539357,834770283,bow_port_thruster,-0.4928543131297928,0.596236729221643,0.0,0.0,0.0,0.0
2025/05/06 15:49:17.940173900,1746539357,939224382,bow_port_thruster,-0.48748791568536504,0.5897331252002048,0.0,0.0,0.0,0.0
2025/05/06 15:49:18.73473116,1746539358,71170659,bow_port_thruster,-0.49862554861282604,0.5833010608230026,0.0,0.0,0.0,0.0
2025/05/06 15:49:18.150188003,1746539358,147454709,bow_port_thruster,-0.5006759495893186,0.5769397491539496,0.0,0.0,0.0,0.0
2025/05/06 15:49:18.250473792,1746539358,248632461,bow_port_thruster,-0.5061921466604371,0.5706484119132561,0.0,0.0,0.0,0.0
2025/05/06 15:49:18.348547231,1746539358,345303053,bow_port_thruster,-0.5006790330471723,0.571909142165919,0.0,0.0,0.0,0.0
2025/05/06 15:49:18.465804138,1746539358,465002573,bow_port_thruster,-0.5116715636836534,0.5656731416020939,0.0,0.0,0.0,0.0
2025/05/06 15:49:18.578952408,1746539358,576858490,bow_port_thruster,-0.5060981764831333,0.5759507370444709,0.0,0.0,0.0,0.0
2025/05/06 15:49:18.646299730,1746539358,643203024,bow_port_thruster,-0.5145984304733634,0.5696702789369817,0.0,0.0,0.0,0.0
2025/05/06 15:49:18.746025235,1746539358,744524562,bow_port_thruster,-0.5089928477381563,0.5634589058686749,0.0,0.0,0.0,0.0
2025/05/06 15:49:18.856732486,1746539358,854418368,bow_port_thruster,-0.5034489264130366,0.5737608579041195,0.0,0.0,0.0,0.0
2025/05/06 15:49:18.966025218,1746539358,963691141,bow_port_thruster,-0.4979659882224932,0.5675044884671742,0.0,0.0,0.0,0.0
2025/05/06 15:49:19.59957441,1746539359,56348932,bow_port_thruster,-0.5089883623520458,0.5613169390940352,0.0,0.0,0.0,0.0
2025/05/06 15:49:19.157230353,1746539359,156306388,bow_port_thruster,-0.5053473496438791,0.5551974527640009,0.0,0.0,0.0,0.0
2025/05/06 15:49:19.269975027,1746539359,268128320,bow_port_thruster,-0.5111556825226553,0.5491452807835969,0.0,0.0,0.0,0.0
2025/05/06 15:49:19.344634815,1746539359,340414229,bow_port_thruster,-0.5055879700149061,0.5431596826949773,0.0,0.0,0.0,0.0
2025/05/06 15:49:19.446382075,1746539359,443487684,bow_port_thruster,-0.5131989573137168,0.5372399261853326,0.0,0.0,0.0,0.0
2025/05/06 15:49:19.551735423,1746539359,550285639,bow_port_thruster,-0.5076087687832659,0.5313852869972938,0.0,0.0,0.0,0.0
2025/05/06 15:49:19.635629869,1746539359,633418903,bow_port_thruster,-0.5140592481694454,0.5255950488403236,0.0,0.0,0.0,0.0
2025/05/06 15:49:19.747535530,1746539359,744088107,bow_port_thruster,-0.5084595964395815,0.5198685033030801,0.0,0.0,0.0,0.0
2025/05/06 15:49:19.843141481,1746539359,839483173,bow_port_thruster,-0.5193665408787461,0.5142049497667462,0.0,0.0,0.0,0.0
2025/05/06 15:49:19.942748553,1746539359,939898276,bow_port_thruster,-0.5137085089290799,0.5216523607706028,0.0,0.0,0.0,0.0
2025/05/06 15:49:20.52121451,1746539360,50897268,bow_port_thruster,-0.52455771533086,0.5159691848021263,0.0,0.0,0.0,0.0
2025/05/06 15:49:20.140901651,1746539360,138910123,bow_port_thruster,-0.5188425804622205,0.5103485237693028,0.0,0.0,0.0,0.0
2025/05/06 15:49:20.237495275,1746539360,236378649,bow_port_thruster,-0.5296353120771362,0.5047896900078405,0.0,0.0,0.0,0.0
2025/05/06 15:49:20.350183659,1746539360,348414378,bow_port_thruster,-0.5238643236442877,0.4992920034177542,0.0,0.0,0.0,0.0
2025/05/06 15:49:20.480710458,1746539360,478481399,bow_port_thruster,-0.5346018160842004,0.5102997913801589,0.0,0.0,0.0,0.0
2025/05/06 15:49:20.535644360,1746539360,534390821,bow_port_thruster,-0.5287761961072742,0.5047414936749772,0.0,0.0,0.0,0.0
2025/05/06 15:49:20.657801166,1746539360,655890058,bow_port_thruster,-0.5230146579500942,0.4992443372445524,0.0,0.0,0.0,0.0
2025/05/06 15:49:20.754041651,1746539360,752190215,bow_port_thruster,-0.5220888405606572,0.5102526495348624,0.0,0.0,0.0,0.0
2025/05/06 15:49:20.841322142,1746539360,839707285,bow_port_thruster,-0.51640086331449,0.504694870389979,0.0,0.0,0.0,0.0
2025/05/06 15:49:20.947816713,1746539360,946440445,bow_port_thruster,-0.5272204538180306,0.4991982268156892,0.0,0.0,0.0,0.0
2025/05/06 15:49:21.69568883,1746539361,64668129,bow_port_thruster,-0.5214760288260323,0.5102070463207166,0.0,0.0,0.0,0.0
2025/05/06 15:49:21.149565058,1746539361,146223048,bow_port_thruster,-0.5322397925089459,0.5046497688111886,0.0,0.0,0.0,0.0
2025/05/06 15:49:21.253696293,1746539361,249344545,bow_port_thruster,-0.5264401547913474,0.5155986213542656,0.0,0.0,0.0,0.0
2025/05/06 15:49:21.353208814,1746539361,352137197,bow_port_thruster,-0.5252743410285183,0.5099820365193686,0.0,0.0,0.0,0.0
2025/05/06 15:49:21.464752208,1746539361,463902928,bow_port_thruster,-0.5195513232772047,0.5208722341176556,0.0,0.0,0.0,0.0
2025/05/06 15:49:21.594181324,1746539361,591866439,bow_port_thruster,-0.5303362587211554,0.5151976395423613,0.0,0.0,0.0,0.0
2025/05/06 15:49:21.680323626,1746539361,678575170,bow_port_thruster,-0.5245575598752227,0.5159986099521933,0.0,0.0,0.0,0.0
2025/05/06 15:49:21.745830309,1746539361,743920978,bow_port_thruster,-0.534545036877052,0.5103776252427191,0.0,0.0,0.0,0.0
2025/05/06 15:49:21.842123664,1746539361,840104226,bow_port_thruster,-0.5287200414714045,0.5099072345511578,0.0,0.0,0.0,0.0
2025/05/06 15:49:21.955206951,1746539361,951240264,bow_port_thruster,-0.5394041210152191,0.5207982549710951,0.0,0.0,0.0,0.0
2025/05/06 15:49:22.56567629,1746539362,52417377,bow_port_thruster,-0.5335256756840516,0.515124474166413,0.0,0.0,0.0,0.0
2025/05/06 15:49:22.149271545,1746539362,148065675,bow_port_thruster,-0.5387509205912455,0.5259581049505825,0.0,0.0,0.0,0.0
2025/05/06 15:49:22.241086275,1746539362,238119936,bow_port_thruster,-0.5328796604647418,0.5366725657961261,0.0,0.0,0.0,0.0
2025/05/06 15:49:22.353049533,1746539362,351504222,bow_port_thruster,-0.5319205376031395,0.5472691675723688,0.0,0.0,0.0,0.0
2025/05/06 15:49:22.437411869,1746539362,435521022,bow_port_thruster,-0.5261244116895049,0.5577492067290727,0.0,0.0,0.0,0.0
2025/05/06 15:49:22.546946811,1746539362,545298312,bow_port_thruster,-0.5350747846472832,0.5516689654550528,0.0,0.0,0.0,0.0
2025/05/06 15:49:22.648766966,1746539362,646775179,bow_port_thruster,-0.5292439620161631,0.5456556068350472,0.0,0.0,0.0,0.0
2025/05/06 15:49:22.741789679,1746539362,738953224,bow_port_thruster,-0.5377426338543542,0.5561533951598617,0.0,0.0,0.0,0.0
2025/05/06 15:49:22.877335244,1746539362,874129976,bow_port_thruster,-0.5318824648819562,0.5500907078131032,0.0,0.0,0.0,0.0
2025/05/06 15:49:22.960718545,1746539362,958815479,bow_port_thruster,-0.5425317577682547,0.5605397100271591,0.0,0.0,0.0,0.0
2025/05/06 15:49:23.67778612,1746539363,66695811,bow_port_thruster,-0.5450283962777489,0.5708737732168603,0.0,0.0,0.0,0.0
2025/05/06 15:49:23.139715670,1746539363,139007834,bow_port_thruster,-0.5555330839186937,0.5810941617114748,0.0,0.0,0.0,0.0
2025/05/06 15:49:23.252929907,1746539363,249738758,bow_port_thruster,-0.5494772199955881,0.5747571259326486,0.0,0.0,0.0,0.0
2025/05/06 15:49:23.345508251,1746539363,343091343,bow_port_thruster,-0.5599329705756365,0.5849347975473894,0.0,0.0,0.0,0.0
2025/05/06 15:49:23.436326379,1746539363,434413197,bow_port_thruster,-0.5538287078993045,0.5785555147743682,0.0,0.0,0.0,0.0
2025/05/06 15:49:23.556739212,1746539363,556110853,bow_port_thruster,-0.5477915921124121,0.5886914041118501,0.0,0.0,0.0,0.0
2025/05/06 15:49:23.665313369,1746539363,660599518,bow_port_thruster,-0.5582658845991756,0.5822707986666198,0.0,0.0,0.0,0.0
2025/05/06 15:49:23.739970042,1746539363,737783493,bow_port_thruster,-0.5521799598685847,0.575920819881287,0.0,0.0,0.0,0.0
2025/05/06 15:49:23.863755359,1746539363,861039733,bow_port_thruster,-0.5461609803100302,0.5860856908625928,0.0,0.0,0.0,0.0
2025/05/06 15:49:23.962011139,1746539363,959465797,bow_port_thruster,-0.5566532095266199,0.5961387482631042,0.0,0.0,0.0,0.0
2025/05/06 15:49:24.82780211,1746539364,82179354,bow_port_thruster,-0.5637439876839153,0.60608122203221,0.0,0.0,0.0,0.0
2025/05/06 15:49:24.141595085,1746539364,140651162,bow_port_thruster,-0.5575978038193923,0.5994693285898558,0.0,0.0,0.0,0.0
2025/05/06 15:49:24.247191082,1746539364,243532689,bow_port_thruster,-0.5679642279773789,0.6093751659753673,0.0,0.0,0.0,0.0
2025/05/06 15:49:24.352012260,1746539364,349775646,bow_port_thruster,-0.5617716214696278,0.6027270391496383,0.0,0.0,0.0,0.0
2025/05/06 15:49:24.441677447,1746539364,437827283,bow_port_thruster,-0.5556471336334619,0.6125970417189923,0.0,0.0,0.0,0.0
2025/05/06 15:49:24.548008517,1746539364,547245546,bow_port_thruster,-0.5524177262396658,0.6059134742600835,0.0,0.0,0.0,0.0
2025/05/06 15:49:24.652090974,1746539364,650463066,bow_port_thruster,-0.5628411312510294,0.6027241566288265,0.0,0.0,0.0,0.0
2025/05/06 15:49:24.749239180,1746539364,748021926,bow_port_thruster,-0.5567048788072682,0.6125941909059093,0.0,0.0,0.0,0.0
2025/05/06 15:49:24.853368456,1746539364,851666939,bow_port_thruster,-0.5506361251403882,0.6059106548059443,0.0,0.0,0.0,0.0
2025/05/06 15:49:24.943092694,1746539364,942588300,bow_port_thruster,-0.5610791277638439,0.6094642094231033,0.0,0.0,0.0,0.0
2025/05/06 15:49:25.70245408,1746539365,68293277,bow_port_thruster,-0.5549622573584416,0.6028151031194492,0.0,0.0,0.0,0.0
2025/05/06 15:49:25.153813392,1746539365,151862968,bow_port_thruster,-0.5653576725274988,0.5962391369851353,0.0,0.0,0.0,0.0
2025/05/06 15:49:25.283206776,1746539365,280815178,bow_port_thruster,-0.5630591681372117,0.5897355064782988,0.0,0.0,0.0,0.0
2025/05/06 15:49:25.338621955,1746539365,337659817,bow_port_thruster,-0.5733655172877024,0.5833034159070375,0.0,0.0,0.0,0.0
2025/05/06 15:49:25.473201085,1746539365,470337162,bow_port_thruster,-0.5671134965975376,0.5769420783320601,0.0,0.0,0.0,0.0
2025/05/06 15:49:25.556365831,1746539365,555632075,bow_port_thruster,-0.5773752481349648,0.5706507154704075,0.0,0.0,0.0,0.0
2025/05/06 15:49:25.659735901,1746539365,657651101,bow_port_thruster,-0.5710791204054801,0.5744122401684553,0.0,0.0,0.0,0.0
2025/05/06 15:49:25.736871757,1746539365,734985332,bow_port_thruster,-0.5812972500810198,0.5681487055266022,0.0,0.0,0.0,0.0
2025/05/06 15:49:25.850143757,1746539365,847943970,bow_port_thruster,-0.5749579803301286,0.5783990697658097,0.0,0.0,0.0,0.0
2025/05/06 15:49:25.945570512,1746539365,944739221,bow_port_thruster,-0.5686884425464972,0.5720916799983857,0.0,0.0,0.0,0.0
2025/05/06 15:49:26.37938676,1746539366,35275705,bow_port_thruster,-0.5789328696784857,0.5658536715184035,0.0,0.0,0.0,0.0
2025/05/06 15:49:26.149701086,1746539366,145915896,bow_port_thruster,-0.5726196081120224,0.576129281131701,0.0,0.0,0.0,0.0
2025/05/06 15:49:26.245107710,1746539366,242195686,bow_port_thruster,-0.5828207924227902,0.5698468590392523,0.0,0.0,0.0,0.0
2025/05/06 15:49:26.342789043,1746539366,340182743,bow_port_thruster,-0.5764647637061394,0.5800785435898205,0.0,0.0,0.0,0.0
2025/05/06 15:49:26.481911749,1746539366,479945980,bow_port_thruster,-0.5716831475813029,0.5737526796103325,0.0,0.0,0.0,0.0
2025/05/06 15:49:26.580282504,1746539366,575517534,bow_port_thruster,-0.572998203489715,0.5839414001346188,0.0,0.0,0.0,0.0
2025/05/06 15:49:26.649469813,1746539366,648078539,bow_port_thruster,-0.5711438591974223,0.577573044733138,0.0,0.0,0.0,0.0
2025/05/06 15:49:26.750941431,1746539366,747296778,bow_port_thruster,-0.5813612767462506,0.5712747412410735,0.0,0.0,0.0,0.0
2025/05/06 15:49:26.848052844,1746539366,846977103,bow_port_thruster,-0.5750213027020419,0.5674032002786561,0.0,0.0,0.0,0.0
