time,header_stamp_secs,header_stamp_nsecs,header_frame_id,wrench_force_x,wrench_force_y,wrench_force_z,wrench_torque_x,wrench_torque_y,wrench_torque_z
2025/05/06 15:48:33.265423875,1746539313,261909234,bow_starboard_thruster,-0.7256599311425196,-0.7256599311425196,0.0,0.0,0.0,0.0
2025/05/06 15:48:33.354857725,1746539313,340451444,bow_starboard_thruster,-0.7341776718999518,-0.7341776718999518,0.0,0.0,0.0,0.0
2025/05/06 15:48:33.422636406,1746539313,421530305,bow_starboard_thruster,-0.7261567175090522,-0.7261567175090522,0.0,0.0,0.0,0.0
2025/05/06 15:48:33.506297297,1746539313,505541752,bow_starboard_thruster,-0.7346689936164527,-0.7182239936164527,0.0,0.0,0.0,0.0
2025/05/06 15:48:33.592130683,1746539313,589700541,bow_starboard_thruster,-0.7266426346866716,-0.7268235296866717,0.0,0.0,0.0,0.0
2025/05/06 15:48:33.651320498,1746539313,650465207,bow_starboard_thruster,-0.7351495657051181,-0.7188834708601184,0.0,0.0,0.0,0.0
2025/05/06 15:48:33.736891903,1746539313,736793114,bow_starboard_thruster,-0.7271179204823618,-0.727475752680657,0.0,0.0,0.0,0.0
2025/05/06 15:48:33.838392914,1746539313,837382661,bow_starboard_thruster,-0.7356196233570558,-0.7195285194011699,0.0,0.0,0.0,0.0
2025/05/06 15:48:33.963918811,1746539313,963454960,bow_starboard_thruster,-0.7275828075001282,-0.728113705687757,0.0,0.0,0.0,0.0
2025/05/06 15:48:34.38055147,1746539314,36853476,bow_starboard_thruster,-0.733298272396575,-0.7366044549251918,0.0,0.0,0.0,0.0
2025/05/06 15:48:34.136083701,1746539314,135520329,bow_starboard_thruster,-0.7252869914002126,-0.7450018059210146,0.0,0.0,0.0,0.0
2025/05/06 15:48:34.242370953,1746539314,241054397,bow_starboard_thruster,-0.7338088344948104,-0.7533067860558835,0.0,0.0,0.0,0.0
2025/05/06 15:48:34.347336849,1746539314,347022112,bow_starboard_thruster,-0.7257919373153675,-0.7585653465876984,0.0,0.0,0.0,0.0
2025/05/06 15:48:34.441619688,1746539314,441045420,bow_starboard_thruster,-0.7343082260048985,-0.7502761277752336,0.0,0.0,0.0,0.0
2025/05/06 15:48:34.559337511,1746539314,558994853,bow_starboard_thruster,-0.7262858355188446,-0.758523090369706,0.0,0.0,0.0,0.0
2025/05/06 15:48:34.665417181,1746539314,663075860,bow_starboard_thruster,-0.7347966913281373,-0.7502343363756393,0.0,0.0,0.0,0.0
2025/05/06 15:48:34.758321924,1746539314,757291494,bow_starboard_thruster,-0.7267689277235277,-0.7584817586755073,0.0,0.0,0.0,0.0
2025/05/06 15:48:34.856663084,1746539314,856557903,bow_starboard_thruster,-0.7352744695185689,-0.7501934593300768,0.0,0.0,0.0,0.0
2025/05/06 15:48:34.943409079,1746539314,941706097,bow_starboard_thruster,-0.7272414503538646,-0.7584413312774458,0.0,0.0,0.0,0.0
2025/05/06 15:48:35.38392201,1746539315,38213289,bow_starboard_thruster,-0.7357417943999721,-0.750153476633394,0.0,0.0,0.0,0.0
2025/05/06 15:48:35.174099648,1746539315,172389963,bow_starboard_thruster,-0.7277036346615724,-0.7419567883904267,0.0,0.0,0.0,0.0
2025/05/06 15:48:35.237231302,1746539315,237034012,bow_starboard_thruster,-0.736198894680295,-0.750295263718132,0.0,0.0,0.0,0.0
2025/05/06 15:48:35.394468784,1746539315,393941613,bow_starboard_thruster,-0.7281557068388118,-0.7420970158172326,0.0,0.0,0.0,0.0
2025/05/06 15:48:35.506889901,1746539315,502592705,bow_starboard_thruster,-0.7366459940635849,-0.7504339486432432,0.0,0.0,0.0,0.0
2025/05/06 15:48:35.622741055,1746539315,616955722,bow_starboard_thruster,-0.7285978881288856,-0.7422341752081674,0.0,0.0,0.0,0.0
2025/05/06 15:48:35.743358465,1746539315,740710077,bow_starboard_thruster,-0.7370833113594678,-0.7341245992808776,0.0,0.0,0.0,0.0
2025/05/06 15:48:35.880886130,1746539315,873247175,bow_starboard_thruster,-0.7290303949345136,-0.7425492286887879,0.0,0.0,0.0,0.0
2025/05/06 15:48:36.93675239,1746539316,78369825,bow_starboard_thruster,-0.737511060590234,-0.7344361871732114,0.0,0.0,0.0,0.0
2025/05/06 15:48:36.208706840,1746539316,202626943,bow_starboard_thruster,-0.7294534389237414,-0.742857389114306,0.0,0.0,0.0,0.0
2025/05/06 15:48:36.341623692,1746539316,329722968,bow_starboard_thruster,-0.7379294510955802,-0.7347409578340487,0.0,0.0,0.0,0.0
2025/05/06 15:48:36.484820523,1746539316,465748668,bow_starboard_thruster,-0.7298672271335288,-0.7431588072978741,0.0,0.0,0.0,0.0
2025/05/06 15:48:36.587753230,1746539316,581988028,bow_starboard_thruster,-0.7383386876350599,-0.7350390604175975,0.0,0.0,0.0,0.0
2025/05/06 15:48:37.11073169,1746539317,10453818,bow_starboard_thruster,-0.7302719620710743,-0.743453630753004,0.0,0.0,0.0,0.0
2025/05/06 15:48:37.196620959,1746539317,185465350,bow_starboard_thruster,-0.7387389704882924,-0.751775640814721,0.0,0.0,0.0,0.0
2025/05/06 15:48:37.399891686,1746539317,275240690,bow_starboard_thruster,-0.7306678418129211,-0.760006108765759,0.0,0.0,0.0,0.0
2025/05/06 15:48:37.463767807,1746539317,386456737,bow_starboard_thruster,-0.7391304955529789,-0.7681460415693357,0.0,0.0,0.0,0.0
2025/05/06 15:48:37.526773555,1746539317,482140418,bow_starboard_thruster,-0.7310550601018961,-0.7597514351120731,0.0,0.0,0.0,0.0
2025/05/06 15:48:37.686052581,1746539317,618910112,bow_starboard_thruster,-0.7395134544407753,-0.7678941693258403,0.0,0.0,0.0,0.0
2025/05/06 15:48:37.768116380,1746539317,712311746,bow_starboard_thruster,-0.7314338064419268,-0.759502333463256,0.0,0.0,0.0,0.0
2025/05/06 15:48:37.859987710,1746539317,793054573,bow_starboard_thruster,-0.7398880345710656,-0.7676478077951602,0.0,0.0,0.0,0.0
2025/05/06 15:48:37.895127800,1746539317,863589551,bow_starboard_thruster,-0.7318042661907839,-0.7592586819094135,0.0,0.0,0.0,0.0
2025/05/06 15:48:38.34112939,1746539317,986155078,bow_starboard_thruster,-0.7402544192626853,-0.7674068364084099,0.0,0.0,0.0,0.0
2025/05/06 15:48:38.109237978,1746539318,103092293,bow_starboard_thruster,-0.7321666206507957,-0.7590203612079174,0.0,0.0,0.0,0.0
2025/05/06 15:48:38.257338651,1746539318,222204941,bow_starboard_thruster,-0.740612787823637,-0.7671711372346303,0.0,0.0,0.0,0.0
2025/05/06 15:48:38.437580478,1746539318,429762375,bow_starboard_thruster,-0.7325210471575769,-0.7587872547250494,0.0,0.0,0.0,0.0
2025/05/06 15:48:38.586046993,1746539318,573886502,bow_starboard_thruster,-0.7409633156388437,-0.7504955949230738,0.0,0.0,0.0,0.0
2025/05/06 15:48:38.793944510,1746539318,720063082,bow_starboard_thruster,-0.7328677191668164,-0.74229514337892,0.0,0.0,0.0,0.0
2025/05/06 15:48:38.838412910,1746539318,810171193,bow_starboard_thruster,-0.7413061742559813,-0.7394050540144208,0.0,0.0,0.0,0.0
2025/05/06 15:48:38.941743257,1746539318,905853805,bow_starboard_thruster,-0.7332068063391656,-0.7477715984202622,0.0,0.0,0.0,0.0
2025/05/06 15:48:39.182749612,1746539319,61502365,bow_starboard_thruster,-0.7416415314694348,-0.7396011108376394,0.0,0.0,0.0,0.0
2025/05/06 15:48:39.253550980,1746539319,220612368,bow_starboard_thruster,-0.7335384746232709,-0.7479654986184254,0.0,0.0,0.0,0.0
2025/05/06 15:48:39.423323704,1746539319,346983092,bow_starboard_thruster,-0.741969551402415,-0.7397928781336226,0.0,0.0,0.0,0.0
2025/05/06 15:48:39.659391813,1746539319,485269645,bow_starboard_thruster,-0.7338628863369884,-0.7361574517941815,0.0,0.0,0.0,0.0
2025/05/06 15:48:39.784765490,1746539319,626991186,bow_starboard_thruster,-0.7258453945872816,-0.7445597198244454,0.0,0.0,0.0,0.0
2025/05/06 15:48:40.17870094,1746539319,798628610,bow_starboard_thruster,-0.7179160952468214,-0.7528695629063765,0.0,0.0,0.0,0.0
2025/05/06 15:48:40.195461522,1746539319,972024377,bow_starboard_thruster,-0.7100740181991064,-0.7579188341149856,0.0,0.0,0.0,0.0
2025/05/06 15:48:40.740874003,1746539320,460471186,bow_starboard_thruster,-0.7023182039989162,-0.75850868591583,0.0,0.0,0.0,0.0
2025/05/06 15:48:41.445802603,1746539321,107259939,bow_starboard_thruster,-0.6870615790136239,-0.7451742240214746,0.0,0.0,0.0,0.0
2025/05/06 15:48:41.880829795,1746539321,503028981,bow_starboard_thruster,-0.679558901644474,-0.7382678278330809,0.0,0.0,0.0,0.0
2025/05/06 15:48:42.68429871,1746539321,836930238,bow_starboard_thruster,-0.6721387537263847,-0.7396636515525973,0.0,0.0,0.0,0.0
2025/05/06 15:48:42.860333353,1746539322,546711309,bow_starboard_thruster,-0.6575424249336053,-0.7275099726523752,0.0,0.0,0.0,0.0
2025/05/06 15:48:43.181061903,1746539322,887658374,bow_starboard_thruster,-0.6503644582593355,-0.725819520592094,0.0,0.0,0.0,0.0
2025/05/06 15:48:43.542014029,1746539323,177675165,bow_starboard_thruster,-0.6432654492184828,-0.723301336774062,0.0,0.0,0.0,0.0
2025/05/06 15:48:44.38392310,1746539323,796156706,bow_starboard_thruster,-0.6293008394550317,-0.7233578206881092,0.0,0.0,0.0,0.0
2025/05/06 15:48:44.222357502,1746539324,83766878,bow_starboard_thruster,-0.6224335302210263,-0.7234664979992701,0.0,0.0,0.0,0.0
2025/05/06 15:48:44.402437275,1746539324,327765852,bow_starboard_thruster,-0.615641761388595,-0.7258851977511868,0.0,0.0,0.0,0.0
2025/05/06 15:48:44.528597646,1746539324,490924200,bow_starboard_thruster,-0.6089247020133205,-0.7256573288736358,0.0,0.0,0.0,0.0
2025/05/06 15:48:44.583380906,1746539324,578642176,bow_starboard_thruster,-0.6022815302911739,-0.7262854853928506,0.0,0.0,0.0,0.0
2025/05/06 15:48:44.903973620,1746539324,902162719,bow_starboard_thruster,-0.5957114334579711,-0.7263182718660387,0.0,0.0,0.0,0.0
2025/05/06 15:48:45.78025238,1746539325,74501725,bow_starboard_thruster,-0.5892136076899334,-0.7183837708755122,0.0,0.0,0.0,0.0
2025/05/06 15:48:45.164777641,1746539325,159745773,bow_starboard_thruster,-0.5827872580053441,-0.7105365493958816,0.0,0.0,0.0,0.0
2025/05/06 15:48:45.260289104,1746539325,257950957,bow_starboard_thruster,-0.5764315981672854,-0.7027756473525268,0.0,0.0,0.0,0.0
2025/05/06 15:48:45.365642227,1746539325,365347899,bow_starboard_thruster,-0.5701458505874453,-0.695100115231649,0.0,0.0,0.0,0.0
2025/05/06 15:48:45.620034352,1746539325,616388123,bow_starboard_thruster,-0.5639292462309833,-0.703954013964101,0.0,0.0,0.0,0.0
2025/05/06 15:48:45.703258034,1746539325,699412374,bow_starboard_thruster,-0.5577810245224425,-0.7127105198104958,0.0,0.0,0.0,0.0
2025/05/06 15:48:45.801539092,1746539325,796951925,bow_starboard_thruster,-0.5517004332526956,-0.7213707040925803,0.0,0.0,0.0,0.0
2025/05/06 15:48:45.940768184,1746539325,935638678,bow_starboard_thruster,-0.545686728486916,-0.7299356263475619,0.0,0.0,0.0,0.0
2025/05/06 15:48:46.154127401,1746539326,144454409,bow_starboard_thruster,-0.5397391744735599,-0.7384063344577387,0.0,0.0,0.0,0.0
2025/05/06 15:48:46.237940035,1746539326,233928519,bow_starboard_thruster,-0.5338570435543507,-0.7467838647787036,0.0,0.0,0.0,0.0
2025/05/06 15:48:46.295960517,1746539326,290920639,bow_starboard_thruster,-0.5280396160752528,-0.7550692422661379,0.0,0.0,0.0,0.0
2025/05/06 15:48:46.360343459,1746539326,357371214,bow_starboard_thruster,-0.5222861802984251,-0.7632634806012104,0.0,0.0,0.0,0.0
2025/05/06 15:48:46.606803535,1746539326,603839533,bow_starboard_thruster,-0.5165960323151424,-0.7549225823145971,0.0,0.0,0.0,0.0
2025/05/06 15:48:46.682969891,1746539326,674291483,bow_starboard_thruster,-0.5109684759596759,-0.7466734339091364,0.0,0.0,0.0,0.0
2025/05/06 15:48:46.770080715,1746539326,762877807,bow_starboard_thruster,-0.5054028227241194,-0.738515026136136,0.0,0.0,0.0,0.0
2025/05/06 15:48:46.918765104,1746539326,916354158,bow_starboard_thruster,-0.49989839167415406,-0.7304463608486385,0.0,0.0,0.0,0.0
2025/05/06 15:48:47.24276894,1746539327,17710843,bow_starboard_thruster,-0.49445450936573837,-0.7224664508793034,0.0,0.0,0.0,0.0
2025/05/06 15:48:47.118911724,1746539327,115391562,bow_starboard_thruster,-0.4890705097627152,-0.714574319919631,0.0,0.0,0.0,0.0
2025/05/06 15:48:47.212112900,1746539327,207175926,bow_starboard_thruster,-0.48374573415532535,-0.7067690024005151,0.0,0.0,0.0,0.0
2025/05/06 15:48:47.287612785,1746539327,284469305,bow_starboard_thruster,-0.4784795310796167,-0.6990495433741094,0.0,0.0,0.0,0.0
2025/05/06 15:48:47.415447986,1746539327,409160109,bow_starboard_thruster,-0.47327125623774097,-0.6914149983969943,0.0,0.0,0.0,0.0
2025/05/06 15:48:47.490324728,1746539327,486847767,bow_starboard_thruster,-0.4681202724191258,-0.6885761841706284,0.0,0.0,0.0,0.0
2025/05/06 15:48:47.574939235,1746539327,570092309,bow_starboard_thruster,-0.46302594942251546,-0.6906341330082407,0.0,0.0,0.0,0.0
2025/05/06 15:48:47.670732551,1746539327,668186616,bow_starboard_thruster,-0.4579876639788678,-0.6830921575451501,0.0,0.0,0.0,0.0
2025/05/06 15:48:47.789908441,1746539327,787189645,bow_starboard_thruster,-0.4530047996751003,-0.6756331438121536,0.0,0.0,0.0,0.0
2025/05/06 15:48:47.858230151,1746539327,856355382,bow_starboard_thruster,-0.4480767468786742,-0.6760508369087914,0.0,0.0,0.0,0.0
2025/05/06 15:48:47.975940722,1746539327,974870359,bow_starboard_thruster,-0.4432029026630088,-0.6759152166772183,0.0,0.0,0.0,0.0
2025/05/06 15:48:48.90319337,1746539328,85087733,bow_starboard_thruster,-0.4383826707337157,-0.6768075135000625,0.0,0.0,0.0,0.0
2025/05/06 15:48:48.211587894,1746539328,202949652,bow_starboard_thruster,-0.4336154613556448,-0.6778458194694766,0.0,0.0,0.0,0.0
2025/05/06 15:48:48.283589186,1746539328,279572318,bow_starboard_thruster,-0.4289006912807327,-0.6730201915029015,0.0,0.0,0.0,0.0
2025/05/06 15:48:48.363239959,1746539328,356590629,bow_starboard_thruster,-0.42423778367664466,-0.6821169693963696,0.0,0.0,0.0,0.0
2025/05/06 15:48:48.513622060,1746539328,495020560,bow_starboard_thruster,-0.41962616805620157,-0.6746686827330095,0.0,0.0,0.0,0.0
2025/05/06 15:48:48.633127788,1746539328,613195847,bow_starboard_thruster,-0.4150652802075834,-0.6837473272229464,0.0,0.0,0.0,0.0
2025/05/06 15:48:48.688702872,1746539328,678791712,bow_starboard_thruster,-0.41055456212529995,-0.692726106623494,0.0,0.0,0.0,0.0
2025/05/06 15:48:48.803890645,1746539328,800003099,bow_starboard_thruster,-0.4060934619419217,-0.7016061194506356,0.0,0.0,0.0,0.0
2025/05/06 15:48:48.902979724,1746539328,901599933,bow_starboard_thruster,-0.4016814338605606,-0.7103884521366786,0.0,0.0,0.0,0.0
2025/05/06 15:48:48.986426535,1746539328,982756749,bow_starboard_thruster,-0.39731793808809446,-0.7190741791631752,0.0,0.0,0.0,0.0
2025/05/06 15:48:49.57206006,1746539329,53505510,bow_starboard_thruster,-0.39300244076912544,-0.7276643631923803,0.0,0.0,0.0,0.0
2025/05/06 15:48:49.181530543,1746539329,178881692,bow_starboard_thruster,-0.38873441392066505,-0.736160055197264,0.0,0.0,0.0,0.0
2025/05/06 15:48:49.305337733,1746539329,296400461,bow_starboard_thruster,-0.38451333536753773,-0.744562294590094,0.0,0.0,0.0,0.0
2025/05/06 15:48:49.381231207,1746539329,379256943,bow_starboard_thruster,-0.3803386886784948,-0.752872109349603,0.0,0.0,0.0,0.0
2025/05/06 15:48:49.668070720,1746539329,662031062,bow_starboard_thruster,-0.37620996310303134,-0.7610905161467574,0.0,0.0,0.0,0.0
2025/05/06 15:48:49.974914898,1746539329,959933815,bow_starboard_thruster,-0.388571653508898,-0.769218520469143,0.0,0.0,0.0,0.0
2025/05/06 15:48:50.142024188,1746539330,138203093,bow_starboard_thruster,-0.3843523653203001,-0.7772571167439825,0.0,0.0,0.0,0.0
2025/05/06 15:48:50.279142426,1746539330,271416374,bow_starboard_thruster,-0.3801794893017768,-0.7852072884597986,0.0,0.0,0.0,0.0
2025/05/06 15:48:50.365248271,1746539330,362253107,bow_starboard_thruster,-0.3760525149194573,-0.7930700082867408,0.0,0.0,0.0,0.0
2025/05/06 15:48:50.445749265,1746539330,440227679,bow_starboard_thruster,-0.37197093725534325,-0.8008462381955866,0.0,0.0,0.0,0.0
2025/05/06 15:48:50.504038292,1746539330,498959344,bow_starboard_thruster,-0.3679342569455345,-0.7920919295754351,0.0,0.0,0.0,0.0
2025/05/06 15:48:50.583953371,1746539330,579487565,bow_starboard_thruster,-0.3639419801191336,-0.7834339183501053,0.0,0.0,0.0,0.0
2025/05/06 15:48:50.722451826,1746539330,715098634,bow_starboard_thruster,-0.3599936183378232,-0.7748711452482542,0.0,0.0,0.0,0.0
2025/05/06 15:48:50.795269710,1746539330,790928399,bow_starboard_thruster,-0.3560886885361071,-0.778467563612543,0.0,0.0,0.0,0.0
2025/05/06 15:48:50.874589619,1746539330,870549733,bow_starboard_thruster,-0.35222671296220986,-0.7699594204128051,0.0,0.0,0.0,0.0
2025/05/06 15:48:50.984656821,1746539330,981107217,bow_starboard_thruster,-0.3484072191196255,-0.7779898667882641,0.0,0.0,0.0,0.0
2025/05/06 15:48:51.77678209,1746539331,70784603,bow_starboard_thruster,-0.34462973970930966,-0.7694869782535932,0.0,0.0,0.0,0.0
2025/05/06 15:48:51.185057594,1746539331,178389173,bow_starboard_thruster,-0.3408938125725073,-0.772208278037964,0.0,0.0,0.0,0.0
2025/05/06 15:48:51.284997761,1746539331,278386595,bow_starboard_thruster,-0.3371989806342097,-0.7666478116691866,0.0,0.0,0.0,0.0
2025/05/06 15:48:51.452803396,1746539331,448857005,bow_starboard_thruster,-0.3335447918472334,-0.7718496409066371,0.0,0.0,0.0,0.0
2025/05/06 15:48:51.547675892,1746539331,540592160,bow_starboard_thruster,-0.3299307991369138,-0.7634142948566641,0.0,0.0,0.0,0.0
2025/05/06 15:48:51.643569111,1746539331,638010781,bow_starboard_thruster,-0.32635656034640775,-0.7550717376132409,0.0,0.0,0.0,0.0
2025/05/06 15:48:51.719550065,1746539331,702117163,bow_starboard_thruster,-0.32282163818259724,-0.7468209484994952,0.0,0.0,0.0,0.0
2025/05/06 15:48:51.790921704,1746539331,781652797,bow_starboard_thruster,-0.3193256001625887,-0.7386609180660009,0.0,0.0,0.0,0.0
2025/05/06 15:48:51.883060987,1746539331,877680547,bow_starboard_thruster,-0.3158680185608002,-0.7305906479672748,0.0,0.0,0.0,0.0
2025/05/06 15:48:51.973599250,1746539331,971102133,bow_starboard_thruster,-0.3124484703566314,-0.7226091508396348,0.0,0.0,0.0,0.0
2025/05/06 15:48:52.86814099,1746539332,82149373,bow_starboard_thruster,-0.3090665371827085,-0.720563230631453,0.0,0.0,0.0,0.0
2025/05/06 15:48:52.150937718,1746539332,149733468,bow_starboard_thruster,-0.3057218052736987,-0.7213121546157437,0.0,0.0,0.0,0.0
2025/05/06 15:48:52.299941698,1746539332,292924545,bow_starboard_thruster,-0.302413865415688,-0.7215404199059924,0.0,0.0,0.0,0.0
2025/05/06 15:48:52.400852688,1746539332,389465519,bow_starboard_thruster,-0.2991423128961154,-0.7224944617421432,0.0,0.0,0.0,0.0
2025/05/06 15:48:52.477624518,1746539332,471199154,bow_starboard_thruster,-0.2959067474542581,-0.7222385424317439,0.0,0.0,0.0,0.0
2025/05/06 15:48:52.630209330,1746539332,624106423,bow_starboard_thruster,-0.2927067732322613,-0.7222465005391092,0.0,0.0,0.0,0.0
2025/05/06 15:48:52.711535303,1746539332,702721422,bow_starboard_thruster,-0.2895419987267064,-0.730801789033179,0.0,0.0,0.0,0.0
2025/05/06 15:48:52.812508115,1746539332,800937861,bow_starboard_thruster,-0.2864120367407126,-0.7392629693538141,0.0,0.0,0.0,0.0
2025/05/06 15:48:52.904398330,1746539332,899672710,bow_starboard_thruster,-0.2833165043365648,-0.7400085353628513,0.0,0.0,0.0,0.0
2025/05/06 15:48:52.981082373,1746539332,979100412,bow_starboard_thruster,-0.2802550227888626,-0.7399181523986333,0.0,0.0,0.0,0.0
2025/05/06 15:48:53.65014161,1746539333,55710706,bow_starboard_thruster,-0.2772272175381851,-0.7398012190745737,0.0,0.0,0.0,0.0
2025/05/06 15:48:53.194292881,1746539333,190547430,bow_starboard_thruster,-0.27423271814526506,-0.740615954470131,0.0,0.0,0.0,0.0
2025/05/06 15:48:53.305613210,1746539333,303984432,bow_starboard_thruster,-0.2712711582456671,-0.7390267903019114,0.0,0.0,0.0,0.0
2025/05/06 15:48:53.382568064,1746539333,380384733,bow_starboard_thruster,-0.2683421755049648,-0.7412263760621706,0.0,0.0,0.0,0.0
2025/05/06 15:48:53.465588439,1746539333,462433558,bow_starboard_thruster,-0.26544541157441015,-0.7495728859254867,0.0,0.0,0.0,0.0
2025/05/06 15:48:53.617922461,1746539333,612355174,bow_starboard_thruster,-0.26258051204709165,-0.7515613700047559,0.0,0.0,0.0,0.0
2025/05/06 15:48:53.707763288,1746539333,703175811,bow_starboard_thruster,-0.25974712641457365,-0.7539434213602106,0.0,0.0,0.0,0.0
2025/05/06 15:48:53.804908638,1746539333,802219204,bow_starboard_thruster,-0.2569449080240133,-0.7496335125692271,0.0,0.0,0.0,0.0
2025/05/06 15:48:53.867868311,1746539333,865965356,bow_starboard_thruster,-0.25417351403574917,-0.7577586737376375,0.0,0.0,0.0,0.0
2025/05/06 15:48:53.942279840,1746539333,940406770,bow_starboard_thruster,-0.251432605381356,-0.7494783283265234,0.0,0.0,0.0,0.0
2025/05/06 15:48:54.61411147,1746539334,59445399,bow_starboard_thruster,-0.24872184672216105,-0.7577340667149316,0.0,0.0,0.0,0.0
2025/05/06 15:48:54.159665796,1746539334,158239266,bow_starboard_thruster,-0.24604090640821727,-0.7494539919810674,0.0,0.0,0.0,0.0
2025/05/06 15:48:54.259666372,1746539334,259172614,bow_starboard_thruster,-0.2433894564377269,-0.7577099980692756,0.0,0.0,0.0,0.0
2025/05/06 15:48:54.354788825,1746539334,353679838,bow_starboard_thruster,-0.2407671724169119,-0.7658751880905136,0.0,0.0,0.0,0.0
2025/05/06 15:48:54.443593974,1746539334,441382933,bow_starboard_thruster,-0.23817373352032586,-0.773950561021518,0.0,0.0,0.0,0.0
2025/05/06 15:48:54.545238442,1746539334,541598816,bow_starboard_thruster,-0.2356088224516023,-0.7777227742623454,0.0,0.0,0.0,0.0
2025/05/06 15:48:54.640827246,1746539334,638813559,bow_starboard_thruster,-0.23307212540463468,-0.7761032580187122,0.0,0.0,0.0,0.0
2025/05/06 15:48:54.749422040,1746539334,748786097,bow_starboard_thruster,-0.2305633320251837,-0.7769671130837109,0.0,0.0,0.0,0.0
2025/05/06 15:48:54.884081955,1746539334,880658383,bow_starboard_thruster,-0.2280821353729067,-0.7753014153002983,0.0,0.0,0.0,0.0
2025/05/06 15:48:54.983476833,1746539334,982843057,bow_starboard_thruster,-0.2256282318838047,-0.7783710231914707,0.0,0.0,0.0,0.0
2025/05/06 15:48:55.62270352,1746539335,59647567,bow_starboard_thruster,-0.22320132133308285,-0.7754407152913281,0.0,0.0,0.0,0.0
2025/05/06 15:48:55.159222879,1746539335,156746272,bow_starboard_thruster,-0.22080110679841894,-0.779013270993144,0.0,0.0,0.0,0.0
2025/05/06 15:48:55.255717152,1746539335,255263627,bow_starboard_thruster,-0.21842729462363633,-0.7755042485313395,0.0,0.0,0.0,0.0
2025/05/06 15:48:55.352943139,1746539335,348420819,bow_starboard_thruster,-0.21607959438277632,-0.7670287017974947,0.0,0.0,0.0,0.0
2025/05/06 15:48:55.450284191,1746539335,449312144,bow_starboard_thruster,-0.2137577188445658,-0.7586463860777223,0.0,0.0,0.0,0.0
2025/05/06 15:48:55.559718450,1746539335,558095061,bow_starboard_thruster,-0.2114613839372756,-0.7503562758308673,0.0,0.0,0.0,0.0
2025/05/06 15:48:55.639794508,1746539335,638189886,bow_starboard_thruster,-0.20919030871396554,-0.7495295117052906,0.0,0.0,0.0,0.0
2025/05/06 15:48:55.761988992,1746539335,759834722,bow_starboard_thruster,-0.2069442153181119,-0.7488055594067382,0.0,0.0,0.0,0.0
2025/05/06 15:48:55.881777546,1746539335,878867941,bow_starboard_thruster,-0.2047228289496127,-0.7491930472421161,0.0,0.0,0.0,0.0
2025/05/06 15:48:55.980660357,1746539335,966556272,bow_starboard_thruster,-0.20252587783116696,-0.74947553340554,0.0,0.0,0.0,0.0
2025/05/06 15:48:56.104174935,1746539336,102337562,bow_starboard_thruster,-0.20035309317502412,-0.7491597154989073,0.0,0.0,0.0,0.0
2025/05/06 15:48:56.217765127,1746539336,215866507,bow_starboard_thruster,-0.19820420915009884,-0.7500054682501547,0.0,0.0,0.0,0.0
2025/05/06 15:48:56.294371412,1746539336,292351992,bow_starboard_thruster,-0.19607896284944776,-0.7493547118499231,0.0,0.0,0.0,0.0
2025/05/06 15:48:56.364356171,1746539336,362903372,bow_starboard_thruster,-0.19397709425810383,-0.7411668100195739,0.0,0.0,0.0,0.0
2025/05/06 15:48:56.446855549,1746539336,440404493,bow_starboard_thruster,-0.1918983462212647,-0.7451110483999703,0.0,0.0,0.0,0.0
2025/05/06 15:48:56.561850801,1746539336,559788475,bow_starboard_thruster,-0.18984246441283076,-0.7371909089335773,0.0,0.0,0.0,0.0
2025/05/06 15:48:56.651735109,1746539336,646057553,bow_starboard_thruster,-0.18780919730428963,-0.7436654773970678,0.0,0.0,0.0,0.0
2025/05/06 15:48:56.762398470,1746539336,758685769,bow_starboard_thruster,-0.18579829613394247,-0.7355802422062352,0.0,0.0,0.0,0.0
2025/05/06 15:48:56.858875856,1746539336,855320103,bow_starboard_thruster,-0.18380951487646907,-0.7429949288054722,0.0,0.0,0.0,0.0
2025/05/06 15:48:56.955015993,1746539336,953875007,bow_starboard_thruster,-0.1818426102128279,-0.7349531951153402,0.0,0.0,0.0,0.0
2025/05/06 15:48:57.49962171,1746539337,47725043,bow_starboard_thruster,-0.1798973415004868,-0.7432000196296259,0.0,0.0,0.0,0.0
2025/05/06 15:48:57.148321241,1746539337,144454562,bow_starboard_thruster,-0.17797347074398143,-0.7381993442101438,0.0,0.0,0.0,0.0
2025/05/06 15:48:57.276889239,1746539337,274644048,bow_starboard_thruster,-0.17607076256579762,-0.7437201710572237,0.0,0.0,0.0,0.0
2025/05/06 15:48:57.384328646,1746539337,382676510,bow_starboard_thruster,-0.17418898417757386,-0.7383500387152426,0.0,0.0,0.0,0.0
2025/05/06 15:48:57.449745223,1746539337,445586867,bow_starboard_thruster,-0.17232790535162057,-0.7467281882893749,0.0,0.0,0.0,0.0
2025/05/06 15:48:57.537129807,1746539337,534840994,bow_starboard_thruster,-0.17048729839275276,-0.755014178218192,0.0,0.0,0.0,0.0
2025/05/06 15:48:57.720042239,1746539337,716214446,bow_starboard_thruster,-0.16866693811043248,-0.7632090222577919,0.0,0.0,0.0,0.0
2025/05/06 15:48:57.795384644,1746539337,792000246,bow_starboard_thruster,-0.16686660179121773,-0.7713137230129562,0.0,0.0,0.0,0.0
2025/05/06 15:48:57.869666047,1746539337,864403198,bow_starboard_thruster,-0.16508606917151433,-0.7793292720598136,0.0,0.0,0.0,0.0
2025/05/06 15:48:57.962859717,1746539337,957392114,bow_starboard_thruster,-0.16332512241062766,-0.7722020218117444,0.0,0.0,0.0,0.0
2025/05/06 15:48:58.59924963,1746539338,55047743,bow_starboard_thruster,-0.16158354606411074,-0.7765810868992901,0.0,0.0,0.0,0.0
2025/05/06 15:48:58.270617164,1746539338,210036466,bow_starboard_thruster,-0.15986112705740552,-0.7712275105682069,0.0,0.0,0.0,0.0
2025/05/06 15:48:58.324621948,1746539338,302470182,bow_starboard_thruster,-0.15815765465977408,-0.7754998615748738,0.0,0.0,0.0,0.0
2025/05/06 15:48:58.388252305,1746539338,386959506,bow_starboard_thruster,-0.15647292045851655,-0.771253703286055,0.0,0.0,0.0,0.0
2025/05/06 15:48:58.564843452,1746539338,561093794,bow_starboard_thruster,-0.15480671833347287,-0.7628249125499085,0.0,0.0,0.0,0.0
2025/05/06 15:48:58.660267185,1746539338,659427128,bow_starboard_thruster,-0.15522135713148563,-0.7544888385118594,0.0,0.0,0.0,0.0
2025/05/06 15:48:58.716569297,1746539338,715238749,bow_starboard_thruster,-0.15356892220303928,-0.746244461288229,0.0,0.0,0.0,0.0
2025/05/06 15:48:58.767172235,1746539338,765492354,bow_starboard_thruster,-0.15193466405880585,-0.7380907722140585,0.0,0.0,0.0,0.0
2025/05/06 15:48:58.843353893,1746539338,840894956,bow_starboard_thruster,-0.15031838275415899,-0.7300267737197038,0.0,0.0,0.0,0.0
2025/05/06 15:48:58.955225116,1746539338,952968090,bow_starboard_thruster,-0.14871988054386323,-0.722051479208787,0.0,0.0,0.0,0.0
2025/05/06 15:48:59.74757353,1746539339,73039803,bow_starboard_thruster,-0.14713896185788072,-0.7141639129374903,0.0,0.0,0.0,0.0
2025/05/06 15:48:59.144177540,1746539339,143264065,bow_starboard_thruster,-0.14557543327744404,-0.7063631098951779,0.0,0.0,0.0,0.0
2025/05/06 15:48:59.251016137,1746539339,247717868,bow_starboard_thruster,-0.14402910351139217,-0.698648115686331,0.0,0.0,0.0,0.0
2025/05/06 15:48:59.374082592,1746539339,366436746,bow_starboard_thruster,-0.14249978337276686,-0.6910179864137814,0.0,0.0,0.0,0.0
2025/05/06 15:48:59.461965942,1746539339,456315099,bow_starboard_thruster,-0.1516638811758434,-0.6999167885632298,0.0,0.0,0.0,0.0
2025/05/06 15:48:59.550170658,1746539339,548622821,bow_starboard_thruster,-0.15159902466209155,-0.7087177038890343,0.0,0.0,0.0,0.0
2025/05/06 15:48:59.651390069,1746539339,648218660,bow_starboard_thruster,-0.14998643539080853,-0.717421809146255,0.0,0.0,0.0,0.0
2025/05/06 15:48:59.770560449,1746539339,768885437,bow_starboard_thruster,-0.15368492895852653,-0.7260301692456461,0.0,0.0,0.0,0.0
2025/05/06 15:48:59.903756343,1746539339,898130003,bow_starboard_thruster,-0.15204939473998275,-0.734543837383944,0.0,0.0,0.0,0.0
2025/05/06 15:49:00.27871807,1746539340,22317604,bow_starboard_thruster,-0.15043185139784293,-0.7360255736889897,0.0,0.0,0.0,0.0
2025/05/06 15:49:00.120856860,1746539340,111626250,bow_starboard_thruster,-0.14883210103246666,-0.7279842923784108,0.0,0.0,0.0,0.0
2025/05/06 15:49:00.224168281,1746539340,217896932,bow_starboard_thruster,-0.14724994792110951,-0.7364764651622483,0.0,0.0,0.0,0.0
2025/05/06 15:49:00.295381505,1746539340,294457736,bow_starboard_thruster,-0.14568519849397732,-0.7284302240454634,0.0,0.0,0.0,0.0
2025/05/06 15:49:00.395246258,1746539340,389472746,bow_starboard_thruster,-0.14413766131054356,-0.7369174915809634,0.0,0.0,0.0,0.0
2025/05/06 15:49:00.477195483,1746539340,474667626,bow_starboard_thruster,-0.1426071470361276,-0.7288663991735729,0.0,0.0,0.0,0.0
2025/05/06 15:49:00.564338051,1746539340,560098120,bow_starboard_thruster,-0.15753846841873018,-0.7209038687826635,0.0,0.0,0.0,0.0
2025/05/06 15:49:00.649374359,1746539340,643385362,bow_starboard_thruster,-0.17230554526612415,-0.7130289262260543,0.0,0.0,0.0,0.0
2025/05/06 15:49:00.749022675,1746539340,748382890,bow_starboard_thruster,-0.18691018426819678,-0.7216856080375676,0.0,0.0,0.0,0.0
2025/05/06 15:49:00.853185017,1746539340,852159568,bow_starboard_thruster,-0.18490917224124662,-0.7138020663491544,0.0,0.0,0.0,0.0
2025/05/06 15:49:00.983678203,1746539340,982717086,bow_starboard_thruster,-0.18293017134659292,-0.7224502436193138,0.0,0.0,0.0,0.0
2025/05/06 15:49:01.45171775,1746539341,44236778,bow_starboard_thruster,-0.1809729394617804,-0.7145582909395013,0.0,0.0,0.0,0.0
2025/05/06 15:49:01.209663191,1746539341,205025055,bow_starboard_thruster,-0.1790372371277008,-0.7231981497391667,0.0,0.0,0.0,0.0
2025/05/06 15:49:01.301643637,1746539341,298772148,bow_starboard_thruster,-0.17712282751929612,-0.7152979700920359,0.0,0.0,0.0,0.0
2025/05/06 15:49:01.353108632,1746539341,350933602,bow_starboard_thruster,-0.17522947641658385,-0.7239296924210236,0.0,0.0,0.0,0.0
2025/05/06 15:49:01.459113426,1746539341,457233714,bow_starboard_thruster,-0.17335695217600142,-0.7160214658043923,0.0,0.0,0.0,0.0
2025/05/06 15:49:01.543063430,1746539341,541481712,bow_starboard_thruster,-0.1879500257020654,-0.7181479074406542,0.0,0.0,0.0,0.0
2025/05/06 15:49:01.653668406,1746539341,647640616,bow_starboard_thruster,-0.20238257541934268,-0.7181028892895512,0.0,0.0,0.0,0.0
2025/05/06 15:49:01.740283043,1746539341,738262618,bow_starboard_thruster,-0.2166563670897299,-0.7244068209946101,0.0,0.0,0.0,0.0
2025/05/06 15:49:01.848758361,1746539341,845839666,bow_starboard_thruster,-0.21432814705174288,-0.7164933459636693,0.0,0.0,0.0,0.0
2025/05/06 15:49:01.947432912,1746539341,944277363,bow_starboard_thruster,-0.21202553743417368,-0.7251119191580689,0.0,0.0,0.0,0.0
2025/05/06 15:49:02.45440930,1746539342,42508033,bow_starboard_thruster,-0.20974825652239776,-0.7171906880473301,0.0,0.0,0.0,0.0
2025/05/06 15:49:02.179021090,1746539342,176202052,bow_starboard_thruster,-0.2074960257006514,-0.7258015904788095,0.0,0.0,0.0,0.0
2025/05/06 15:49:02.243418123,1746539342,241212987,bow_starboard_thruster,-0.20526856941794425,-0.7178727729835427,0.0,0.0,0.0,0.0
2025/05/06 15:49:02.365368803,1746539342,357776060,bow_starboard_thruster,-0.20306561515434687,-0.7264761724807238,0.0,0.0,0.0,0.0
2025/05/06 15:49:02.436201321,1746539342,434598929,bow_starboard_thruster,-0.21733189338764905,-0.734984934583436,0.0,0.0,0.0,0.0
2025/05/06 15:49:02.551527918,1746539342,549075030,bow_starboard_thruster,-0.23144124256038492,-0.7388067938897845,0.0,0.0,0.0,0.0
2025/05/06 15:49:02.647819071,1746539342,647070892,bow_starboard_thruster,-0.2453953888922207,-0.7345050090502291,0.0,0.0,0.0,0.0
2025/05/06 15:49:02.743822124,1746539342,740126939,bow_starboard_thruster,-0.24275103961440625,-0.7429254539506766,0.0,0.0,0.0,0.0
2025/05/06 15:49:02.864551531,1746539342,858050212,bow_starboard_thruster,-0.24013577817864779,-0.734808273957219,0.0,0.0,0.0,0.0
2025/05/06 15:49:02.965480198,1746539342,959300950,bow_starboard_thruster,-0.23754928461868263,-0.7432253829436897,0.0,0.0,0.0,0.0
2025/05/06 15:49:03.44336525,1746539343,42333738,bow_starboard_thruster,-0.23499124248787712,-0.7351049037313091,0.0,0.0,0.0,0.0
2025/05/06 15:49:03.171296191,1746539343,169379028,bow_starboard_thruster,-0.23246133882051048,-0.7435187497902647,0.0,0.0,0.0,0.0
2025/05/06 15:49:03.273954282,1746539343,257035677,bow_starboard_thruster,-0.22995926409348486,-0.7353950435425718,0.0,0.0,0.0,0.0
2025/05/06 15:49:03.368140201,1746539343,366924936,bow_starboard_thruster,-0.2274847121884565,-0.7438056980636034,0.0,0.0,0.0,0.0
2025/05/06 15:49:03.442059866,1746539343,441780061,bow_starboard_thruster,-0.24148238035438352,-0.7521238353849037,0.0,0.0,0.0,0.0
2025/05/06 15:49:03.549902618,1746539343,549406819,bow_starboard_thruster,-0.2553260741704853,-0.7603504731956697,0.0,0.0,0.0,0.0
2025/05/06 15:49:03.636347418,1746539343,634885997,bow_starboard_thruster,-0.26901748735460995,-0.7664725438628784,0.0,0.0,0.0,0.0
2025/05/06 15:49:03.764468450,1746539343,763863172,bow_starboard_thruster,-0.2661132949937092,-0.7580963458803868,0.0,0.0,0.0,0.0
2025/05/06 15:49:03.861807741,1746539343,856242283,bow_starboard_thruster,-0.26324104874877846,-0.7662572860757025,0.0,0.0,0.0,0.0
2025/05/06 15:49:03.946628315,1746539343,944845812,bow_starboard_thruster,-0.2604003972125419,-0.7578834559288699,0.0,0.0,0.0,0.0
2025/05/06 15:49:04.53881963,1746539344,52337733,bow_starboard_thruster,-0.2740359928432039,-0.7660467379136523,0.0,0.0,0.0,0.0
2025/05/06 15:49:04.182341679,1746539344,160862717,bow_starboard_thruster,-0.27107659692192865,-0.7576752237966021,0.0,0.0,0.0,0.0
2025/05/06 15:49:04.305994754,1746539344,303669417,bow_starboard_thruster,-0.2842442227476276,-0.7658407963348394,0.0,0.0,0.0,0.0
2025/05/06 15:49:04.411946384,1746539344,407269179,bow_starboard_thruster,-0.28117253629740374,-0.7739165475751562,0.0,0.0,0.0,0.0
2025/05/06 15:49:04.464275031,1746539344,463647421,bow_starboard_thruster,-0.2945796383981323,-0.7819034655518294,0.0,0.0,0.0,0.0
2025/05/06 15:49:04.590452922,1746539344,588973981,bow_starboard_thruster,-0.2958941463895954,-0.7898025274307593,0.0,0.0,0.0,0.0
2025/05/06 15:49:04.640681746,1746539344,638965690,bow_starboard_thruster,-0.30010134139461697,-0.7976146996290209,0.0,0.0,0.0,0.0
2025/05/06 15:49:04.756279038,1746539344,753009095,bow_starboard_thruster,-0.29685522663927616,-0.8053409379331017,0.0,0.0,0.0,0.0
2025/05/06 15:49:04.857300027,1746539344,854623232,bow_starboard_thruster,-0.29364481914624413,-0.8129821876158375,0.0,0.0,0.0,0.0
2025/05/06 15:49:04.940906692,1746539344,939549562,bow_starboard_thruster,-0.29046972613563543,-0.8205393835520632,0.0,0.0,0.0,0.0
2025/05/06 15:49:05.57641359,1746539345,54483362,bow_starboard_thruster,-0.28732955914814345,-0.8274304235087108,0.0,0.0,0.0,0.0
2025/05/06 15:49:05.152199030,1746539345,148259909,bow_starboard_thruster,-0.28422393399751383,-0.8183836888501149,0.0,0.0,0.0,0.0
2025/05/06 15:49:05.235866314,1746539345,234163092,bow_starboard_thruster,-0.2811524707235412,-0.8258814682727637,0.0,0.0,0.0,0.0
2025/05/06 15:49:05.350347162,1746539345,346885798,bow_starboard_thruster,-0.2781147935455822,-0.8168517721217633,0.0,0.0,0.0,0.0
2025/05/06 15:49:05.455765694,1746539345,451937679,bow_starboard_thruster,-0.29155553081658087,-0.8079214026284239,0.0,0.0,0.0,0.0
2025/05/06 15:49:05.535510643,1746539345,534634266,bow_starboard_thruster,-0.30484841997759843,-0.8155342671995114,0.0,0.0,0.0,0.0
2025/05/06 15:49:05.643699552,1746539345,641520182,bow_starboard_thruster,-0.30155008735784483,-0.8066183902603168,0.0,0.0,0.0,0.0
2025/05/06 15:49:05.782476596,1746539345,779838427,bow_starboard_thruster,-0.30930843906706357,-0.8142455879674532,0.0,0.0,0.0,0.0
2025/05/06 15:49:05.858321055,1746539345,856683340,bow_starboard_thruster,-0.30596104623732584,-0.8053438864998111,0.0,0.0,0.0,0.0
2025/05/06 15:49:05.943536635,1746539345,941781800,bow_starboard_thruster,-0.30265047472871526,-0.8129851037483132,0.0,0.0,0.0,0.0
2025/05/06 15:49:06.64020528,1746539346,60770863,bow_starboard_thruster,-0.29937631950669935,-0.8040972676070819,0.0,0.0,0.0,0.0
2025/05/06 15:49:06.148791026,1746539346,144842100,bow_starboard_thruster,-0.2979516407003104,-0.8117521976634039,0.0,0.0,0.0,0.0
2025/05/06 15:49:06.236485512,1746539346,235773081,bow_starboard_thruster,-0.294729172652607,-0.8028779234891065,0.0,0.0,0.0,0.0
2025/05/06 15:49:06.343593024,1746539346,340084064,bow_starboard_thruster,-0.29736464330027157,-0.7941012663307262,0.0,0.0,0.0,0.0
2025/05/06 15:49:06.456695953,1746539346,454901660,bow_starboard_thruster,-0.3105936322239686,-0.7854211524010883,0.0,0.0,0.0,0.0
2025/05/06 15:49:06.539660722,1746539346,538101125,bow_starboard_thruster,-0.3072321022695049,-0.7932815197246764,0.0,0.0,0.0,0.0
2025/05/06 15:49:06.655067058,1746539346,651153730,bow_starboard_thruster,-0.32035254914454037,-0.7846104230077049,0.0,0.0,0.0,0.0
2025/05/06 15:49:06.768650655,1746539346,764514302,bow_starboard_thruster,-0.31688367110395044,-0.7888456138778237,0.0,0.0,0.0,0.0
2025/05/06 15:49:06.842844487,1746539346,839494527,bow_starboard_thruster,-0.31345295072180696,-0.7835390846060133,0.0,0.0,0.0,0.0
2025/05/06 15:49:06.987381917,1746539346,984951037,bow_starboard_thruster,-0.3100599682638671,-0.7914201546753472,0.0,0.0,0.0,0.0
2025/05/06 15:49:07.42872761,1746539347,40304952,bow_starboard_thruster,-0.30670430861296455,-0.7827695329739184,0.0,0.0,0.0,0.0
2025/05/06 15:49:07.143170617,1746539347,142418646,bow_starboard_thruster,-0.30338556121822197,-0.7906590681112053,0.0,0.0,0.0,0.0
2025/05/06 15:49:07.246308012,1746539347,245222453,bow_starboard_thruster,-0.3165483200448215,-0.7820168183619821,0.0,0.0,0.0,0.0
2025/05/06 15:49:07.360381481,1746539347,356569701,bow_starboard_thruster,-0.31312128852432847,-0.7899146333600002,0.0,0.0,0.0,0.0
2025/05/06 15:49:07.444410230,1746539347,441039261,bow_starboard_thruster,-0.3128438121663632,-0.7812805723930403,0.0,0.0,0.0,0.0
2025/05/06 15:49:07.559784751,1746539347,555020297,bow_starboard_thruster,-0.3259025302325332,-0.7767372278245647,0.0,0.0,0.0,0.0
2025/05/06 15:49:07.648788154,1746539347,645847741,bow_starboard_thruster,-0.32237260239997534,-0.7742708832938189,0.0,0.0,0.0,0.0
2025/05/06 15:49:07.755564579,1746539347,753310801,bow_starboard_thruster,-0.33532650377357565,-0.7822539035775868,0.0,0.0,0.0,0.0
2025/05/06 15:49:07.843343284,1746539347,841848068,bow_starboard_thruster,-0.33169291223206626,-0.7737041106382334,0.0,0.0,0.0,0.0
2025/05/06 15:49:07.949349855,1746539347,945712693,bow_starboard_thruster,-0.3280992901975136,-0.7816933654212129,0.0,0.0,0.0,0.0
2025/05/06 15:49:08.40741764,1746539348,39364716,bow_starboard_thruster,-0.32454519800534093,-0.7731497384015795,0.0,0.0,0.0,0.0
2025/05/06 15:49:08.186704629,1746539348,173266362,bow_starboard_thruster,-0.333140443218042,-0.7811450912791621,0.0,0.0,0.0,0.0
2025/05/06 15:49:08.262660875,1746539348,259388376,bow_starboard_thruster,-0.32953089834264354,-0.7726074952750913,0.0,0.0,0.0,0.0
2025/05/06 15:49:08.357988874,1746539348,354912008,bow_starboard_thruster,-0.3259610584608745,-0.7806088128270653,0.0,0.0,0.0,0.0
2025/05/06 15:49:08.576053609,1746539348,572941923,bow_starboard_thruster,-0.3224304868178049,-0.7885221158859677,0.0,0.0,0.0,0.0
2025/05/06 15:49:08.714202010,1746539348,713118016,bow_starboard_thruster,-0.335383751462809,-0.796348372611222,0.0,0.0,0.0,0.0
2025/05/06 15:49:08.766990639,1746539348,764843447,bow_starboard_thruster,-0.34363179621230333,-0.8040885405124987,0.0,0.0,0.0,0.0
2025/05/06 15:49:08.839760466,1746539348,838523610,bow_starboard_thruster,-0.3470970569011145,-0.8117435665668612,0.0,0.0,0.0,0.0
2025/05/06 15:49:08.945250904,1746539348,942445898,bow_starboard_thruster,-0.3433339892752022,-0.8193143873346257,0.0,0.0,0.0,0.0
2025/05/06 15:49:09.37068504,1746539349,35369405,bow_starboard_thruster,-0.33961231539317505,-0.8268019290739449,0.0,0.0,0.0,0.0
2025/05/06 15:49:09.151161273,1746539349,150506628,bow_starboard_thruster,-0.3359315799238501,-0.8342071078541315,0.0,0.0,0.0,0.0
2025/05/06 15:49:09.264664301,1746539349,258817901,bow_starboard_thruster,-0.3322913325446878,-0.8415308296677361,0.0,0.0,0.0,0.0
2025/05/06 15:49:09.349371577,1746539349,348198872,bow_starboard_thruster,-0.3286911278866962,-0.832328990541391,0.0,0.0,0.0,0.0
2025/05/06 15:49:09.673162578,1746539349,671996143,bow_starboard_thruster,-0.3280829320740865,-0.8396733716454357,0.0,0.0,0.0,0.0
2025/05/06 15:49:09.797921094,1746539349,794040953,bow_starboard_thruster,-0.3409740198212716,-0.8469369645573359,0.0,0.0,0.0,0.0
2025/05/06 15:49:09.880878930,1746539349,879677167,bow_starboard_thruster,-0.3537233056032376,-0.8541206579472052,0.0,0.0,0.0,0.0
2025/05/06 15:49:09.948143472,1746539349,946438060,bow_starboard_thruster,-0.3571351815328451,-0.8612253307097859,0.0,0.0,0.0,0.0
2025/05/06 15:49:10.34094631,1746539350,33478453,bow_starboard_thruster,-0.35671512743945466,-0.8682518520719782,0.0,0.0,0.0,0.0
2025/05/06 15:49:10.161138542,1746539350,158653771,bow_starboard_thruster,-0.35477228058576754,-0.8752010816991864,0.0,0.0,0.0,0.0
2025/05/06 15:49:10.250587287,1746539350,247239523,bow_starboard_thruster,-0.3517555928965122,-0.8820738698004954,0.0,0.0,0.0,0.0
2025/05/06 15:49:10.347503612,1746539350,345960208,bow_starboard_thruster,-0.3479412813746505,-0.8888710572326899,0.0,0.0,0.0,0.0
2025/05/06 15:49:10.462228692,1746539350,458403684,bow_starboard_thruster,-0.3564900167132119,-0.8955934756031303,0.0,0.0,0.0,0.0
2025/05/06 15:49:10.549931858,1746539350,545577582,bow_starboard_thruster,-0.3526236265293665,-0.9022419473714959,0.0,0.0,0.0,0.0
2025/05/06 15:49:10.641487861,1746539350,640004893,bow_starboard_thruster,-0.34970876563019637,-0.9088172859504094,0.0,0.0,0.0,0.0
2025/05/06 15:49:10.738851138,1746539350,736982850,bow_starboard_thruster,-0.3459169692082642,-0.9153202958049549,0.0,0.0,0.0,0.0
2025/05/06 15:49:10.898733698,1746539350,895287135,bow_starboard_thruster,-0.3421668825469733,-0.9217517725511004,0.0,0.0,0.0,0.0
2025/05/06 15:49:10.955533560,1746539350,953093094,bow_starboard_thruster,-0.3384580468389566,-0.9116675030530383,0.0,0.0,0.0,0.0
2025/05/06 15:49:11.72703298,1746539351,70681802,bow_starboard_thruster,-0.35123500832372806,-0.918139160519455,0.0,0.0,0.0,0.0
2025/05/06 15:49:11.155756223,1746539351,154077335,bow_starboard_thruster,-0.34742642323216705,-0.9214571714106872,0.0,0.0,0.0,0.0
2025/05/06 15:49:11.275490342,1746539351,274191834,bow_starboard_thruster,-0.34365973257661325,-0.912807646102169,0.0,0.0,0.0,0.0
2025/05/06 15:49:11.343026534,1746539351,341977852,bow_starboard_thruster,-0.3431830270949815,-0.9028217619950452,0.0,0.0,0.0,0.0
2025/05/06 15:49:11.439766033,1746539351,435524721,bow_starboard_thruster,-0.3495741501865326,-0.8929457226130997,0.0,0.0,0.0,0.0
2025/05/06 15:49:11.546571545,1746539351,544954217,bow_starboard_thruster,-0.3457838345344807,-0.8831783196643557,0.0,0.0,0.0,0.0
2025/05/06 15:49:11.636606528,1746539351,636103675,bow_starboard_thruster,-0.3484358205125529,-0.8735183581480478,0.0,0.0,0.0,0.0
2025/05/06 15:49:11.745229623,1746539351,741182961,bow_starboard_thruster,-0.3458568428916807,-0.8639646562084192,0.0,0.0,0.0,0.0
2025/05/06 15:49:11.846523593,1746539351,843982613,bow_starboard_thruster,-0.3504297312474975,-0.8545160449901266,0.0,0.0,0.0,0.0
2025/05/06 15:49:11.939956379,1746539351,937379769,bow_starboard_thruster,-0.346630004203775,-0.8451713684952352,0.0,0.0,0.0,0.0
2025/05/06 15:49:12.101745887,1746539352,91060598,bow_starboard_thruster,-0.3593170741575335,-0.8359294834417876,0.0,0.0,0.0,0.0
2025/05/06 15:49:12.165609968,1746539352,163036326,bow_starboard_thruster,-0.35541958634180065,-0.8412354353583007,0.0,0.0,0.0,0.0
2025/05/06 15:49:12.243608443,1746539352,241491762,bow_starboard_thruster,-0.3515649708920408,-0.8320368455693594,0.0,0.0,0.0,0.0
2025/05/06 15:49:12.364016364,1746539352,360958116,bow_starboard_thruster,-0.34775275621222834,-0.8393844402680966,0.0,0.0,0.0,0.0
2025/05/06 15:49:12.463239248,1746539352,460494655,bow_starboard_thruster,-0.3439824758938938,-0.8466512114251475,0.0,0.0,0.0,0.0
2025/05/06 15:49:12.549554666,1746539352,547569148,bow_starboard_thruster,-0.35669866865906097,-0.8373930480994709,0.0,0.0,0.0,0.0
2025/05/06 15:49:12.640448584,1746539352,635776971,bow_starboard_thruster,-0.3573320095945854,-0.8446817245703767,0.0,0.0,0.0,0.0
2025/05/06 15:49:12.747745580,1746539352,746256761,bow_starboard_thruster,-0.3534563574890449,-0.8354452256001025,0.0,0.0,0.0,0.0
2025/05/06 15:49:12.863430508,1746539352,859100922,bow_starboard_thruster,-0.35748297033667853,-0.8427553281185014,0.0,0.0,0.0,0.0
2025/05/06 15:49:12.949802401,1746539352,945500387,bow_starboard_thruster,-0.37005065766297507,-0.8499850195091979,0.0,0.0,0.0,0.0
2025/05/06 15:49:13.52279828,1746539353,43817263,bow_starboard_thruster,-0.3724394317346043,-0.8571351842945967,0.0,0.0,0.0,0.0
2025/05/06 15:49:13.151084459,1746539353,149575293,bow_starboard_thruster,-0.3772746326105627,-0.8642066972673561,0.0,0.0,0.0,0.0
2025/05/06 15:49:13.274320109,1746539353,272955824,bow_starboard_thruster,-0.37317961165184654,-0.8712004235974152,0.0,0.0,0.0,0.0
2025/05/06 15:49:13.361506470,1746539353,357219751,bow_starboard_thruster,-0.3695266406694882,-0.8781172189378437,0.0,0.0,0.0,0.0
2025/05/06 15:49:13.474255396,1746539353,473081436,bow_starboard_thruster,-0.3734947626584038,-0.8849579295295275,0.0,0.0,0.0,0.0
2025/05/06 15:49:13.539509944,1746539353,538636298,bow_starboard_thruster,-0.3694413202691614,-0.8894979661678478,0.0,0.0,0.0,0.0
2025/05/06 15:49:13.649733575,1746539353,646138950,bow_starboard_thruster,-0.3654324657462006,-0.8797684885400016,0.0,0.0,0.0,0.0
2025/05/06 15:49:13.747599071,1746539353,743111742,bow_starboard_thruster,-0.3614677086229924,-0.8865910351660615,0.0,0.0,0.0,0.0
2025/05/06 15:49:13.845722702,1746539353,844356795,bow_starboard_thruster,-0.3739915638281394,-0.8768935337792348,0.0,0.0,0.0,0.0
2025/05/06 15:49:13.954371927,1746539353,950799604,bow_starboard_thruster,-0.36993265662602987,-0.8837477049076633,0.0,0.0,0.0,0.0
2025/05/06 15:49:14.63874202,1746539354,62311775,bow_starboard_thruster,-0.38236339740314357,-0.890526480153679,0.0,0.0,0.0,0.0
2025/05/06 15:49:14.158144246,1746539354,156386031,bow_starboard_thruster,-0.394657400031709,-0.8972306888719885,0.0,0.0,0.0,0.0
2025/05/06 15:49:14.243915000,1746539354,241806249,bow_starboard_thruster,-0.39037116863136023,-0.9038611512943966,0.0,0.0,0.0,0.0
2025/05/06 15:49:14.345847365,1746539354,344231947,bow_starboard_thruster,-0.40257708577641527,-0.9104186786301582,0.0,0.0,0.0,0.0
2025/05/06 15:49:14.468176666,1746539354,465527395,bow_starboard_thruster,-0.39820373783287466,-0.9004590731652264,0.0,0.0,0.0,0.0
2025/05/06 15:49:14.540652227,1746539354,537142324,bow_starboard_thruster,-0.4091265978741045,-0.907054023360409,0.0,0.0,0.0,0.0
2025/05/06 15:49:14.664239176,1746539354,663128225,bow_starboard_thruster,-0.4046812052974893,-0.9070450651311314,0.0,0.0,0.0,0.0
2025/05/06 15:49:14.752446255,1746539354,750023033,bow_starboard_thruster,-0.4002847120392169,-0.9135675694146889,0.0,0.0,0.0,0.0
2025/05/06 15:49:14.853839183,1746539354,852616619,bow_starboard_thruster,-0.40773776354223706,-0.9035733261511273,0.0,0.0,0.0,0.0
2025/05/06 15:49:14.962475624,1746539354,957665302,bow_starboard_thruster,-0.41975264814327246,-0.8936890195634649,0.0,0.0,0.0,0.0
2025/05/06 15:49:15.62324790,1746539355,58702836,bow_starboard_thruster,-0.43033718912649016,-0.9003584403482668,0.0,0.0,0.0,0.0
2025/05/06 15:49:15.142784491,1746539355,141907879,bow_starboard_thruster,-0.42565848004609874,-0.8916811733359861,0.0,0.0,0.0,0.0
2025/05/06 15:49:15.257998436,1746539355,255178813,bow_starboard_thruster,-0.4210312367655917,-0.8983726804292901,0.0,0.0,0.0,0.0
2025/05/06 15:49:15.364690406,1746539355,361418731,bow_starboard_thruster,-0.4164548931611702,-0.9049905809445679,0.0,0.0,0.0,0.0
2025/05/06 15:49:15.435499291,1746539355,434164226,bow_starboard_thruster,-0.4283738893363973,-0.8950906845541776,0.0,0.0,0.0,0.0
2025/05/06 15:49:15.554363090,1746539355,553371125,bow_starboard_thruster,-0.42371677655369694,-0.9017446870240816,0.0,0.0,0.0,0.0
2025/05/06 15:49:15.690696164,1746539355,689432902,bow_starboard_thruster,-0.4191108920116063,-0.8918804954668167,0.0,0.0,0.0,0.0
2025/05/06 15:49:15.740701162,1746539355,739710227,bow_starboard_thruster,-0.4145556721994786,-0.8985698100166818,0.0,0.0,0.0,0.0
2025/05/06 15:49:15.858141378,1746539355,855833786,bow_starboard_thruster,-0.42649555980528436,-0.8887405421064983,0.0,0.0,0.0,0.0
2025/05/06 15:49:15.969845158,1746539355,963596515,bow_starboard_thruster,-0.42185910864742615,-0.8954643961433268,0.0,0.0,0.0,0.0
2025/05/06 15:49:16.42712713,1746539356,39363601,bow_starboard_thruster,-0.418895349053995,-0.8856692877857502,0.0,0.0,0.0,0.0
2025/05/06 15:49:16.154566558,1746539356,151975388,bow_starboard_thruster,-0.4307875002144011,-0.875981925620107,0.0,0.0,0.0,0.0
2025/05/06 15:49:16.267554142,1746539356,262456245,bow_starboard_thruster,-0.4261038377120427,-0.8707835741849418,0.0,0.0,0.0,0.0
2025/05/06 15:49:16.344562267,1746539356,341118012,bow_starboard_thruster,-0.42620950937410196,-0.8777049548689074,0.0,0.0,0.0,0.0
2025/05/06 15:49:16.444263175,1746539356,439939244,bow_starboard_thruster,-0.42157620477098684,-0.8769181551647846,0.0,0.0,0.0,0.0
2025/05/06 15:49:16.553086098,1746539356,552314937,bow_starboard_thruster,-0.41699386651850595,-0.883772055457972,0.0,0.0,0.0,0.0
2025/05/06 15:49:16.641271164,1746539356,639470097,bow_starboard_thruster,-0.4289069339868024,-0.8741055628479343,0.0,0.0,0.0,0.0
2025/05/06 15:49:16.776559308,1746539356,774817249,bow_starboard_thruster,-0.42424395771294765,-0.880990401656607,0.0,0.0,0.0,0.0
2025/05/06 15:49:16.900452616,1746539356,898496420,bow_starboard_thruster,-0.4196322741781052,-0.8713545072383844,0.0,0.0,0.0,0.0
2025/05/06 15:49:16.948519639,1746539356,946558958,bow_starboard_thruster,-0.41507131916214607,-0.878269607658762,0.0,0.0,0.0,0.0
2025/05/06 15:49:17.36474266,1746539357,34860329,bow_starboard_thruster,-0.4255273130621899,-0.8851086419745157,0.0,0.0,0.0,0.0
2025/05/06 15:49:17.146512033,1746539357,146050059,bow_starboard_thruster,-0.4373465126185058,-0.891872446912796,0.0,0.0,0.0,0.0
2025/05/06 15:49:17.257252011,1746539357,254657177,bow_starboard_thruster,-0.43259070097970226,-0.8985618499967553,0.0,0.0,0.0,0.0
2025/05/06 15:49:17.340768335,1746539357,336704021,bow_starboard_thruster,-0.44433220326892553,-0.9051776696467908,0.0,0.0,0.0,0.0
2025/05/06 15:49:17.448648278,1746539357,446925690,bow_starboard_thruster,-0.43949954903296734,-0.8952757152806762,0.0,0.0,0.0,0.0
2025/05/06 15:49:17.588312140,1746539357,584393765,bow_starboard_thruster,-0.4347200539936047,-0.9019276824125886,0.0,0.0,0.0,0.0
2025/05/06 15:49:17.653480737,1746539357,652205444,bow_starboard_thruster,-0.4299931333996751,-0.8920614779060502,0.0,0.0,0.0,0.0
2025/05/06 15:49:17.740091253,1746539357,738834339,bow_starboard_thruster,-0.44176320893227866,-0.8987488016490837,0.0,0.0,0.0,0.0
2025/05/06 15:49:17.837735384,1746539357,834852050,bow_starboard_thruster,-0.43695881363402367,-0.897732866614827,0.0,0.0,0.0,0.0
2025/05/06 15:49:17.940168577,1746539357,939333518,bow_starboard_thruster,-0.4343154574388353,-0.904357805082064,0.0,0.0,0.0,0.0
2025/05/06 15:49:18.73467302,1746539358,71547785,bow_starboard_thruster,-0.4460379874070081,-0.9109098692261612,0.0,0.0,0.0,0.0
2025/05/06 15:49:18.150181547,1746539358,147645445,bow_starboard_thruster,-0.44118656954553104,-0.9173898606646735,0.0,0.0,0.0,0.0
2025/05/06 15:49:18.250468019,1746539358,248711014,bow_starboard_thruster,-0.45283351728053023,-0.9237985721973621,0.0,0.0,0.0,0.0
2025/05/06 15:49:18.348541533,1746539358,345432570,bow_starboard_thruster,-0.44790734859044434,-0.9228476805283838,0.0,0.0,0.0,0.0
2025/05/06 15:49:18.465798710,1746539358,465143102,bow_starboard_thruster,-0.4430353677559494,-0.9254244748042649,0.0,0.0,0.0,0.0
2025/05/06 15:49:18.578946597,1746539358,576977782,bow_starboard_thruster,-0.454661978710634,-0.915299805581418,0.0,0.0,0.0,0.0
2025/05/06 15:49:18.646294138,1746539358,643338694,bow_starboard_thruster,-0.449715696944817,-0.9217315077200224,0.0,0.0,0.0,0.0
2025/05/06 15:49:18.746020027,1746539358,744640357,bow_starboard_thruster,-0.46126882427842403,-0.9280924611351022,0.0,0.0,0.0,0.0
2025/05/06 15:49:18.856600970,1746539358,854536710,bow_starboard_thruster,-0.4562498672113614,-0.9179384440626162,0.0,0.0,0.0,0.0
2025/05/06 15:49:18.966470351,1746539358,963789685,bow_starboard_thruster,-0.45347487940771997,-0.9243411211779273,0.0,0.0,0.0,0.0
2025/05/06 15:49:19.59951645,1746539359,56501328,bow_starboard_thruster,-0.4649866557342351,-0.9306733688449701,0.0,0.0,0.0,0.0
2025/05/06 15:49:19.157223951,1746539359,156422606,bow_starboard_thruster,-0.4599268025211585,-0.9369359617876755,0.0,0.0,0.0,0.0
2025/05/06 15:49:19.269968836,1746539359,268277520,bow_starboard_thruster,-0.46054235013304157,-0.9431296662080111,0.0,0.0,0.0,0.0
2025/05/06 15:49:19.345202161,1746539359,340543671,bow_starboard_thruster,-0.4555313842815782,-0.949255239879723,0.0,0.0,0.0,0.0
2025/05/06 15:49:19.446376120,1746539359,443591643,bow_starboard_thruster,-0.45057553905448083,-0.955313432241046,0.0,0.0,0.0,0.0
2025/05/06 15:49:19.551730129,1746539359,550359039,bow_starboard_thruster,-0.4456742081248815,-0.9613049844863946,0.0,0.0,0.0,0.0
2025/05/06 15:49:19.635624074,1746539359,633504044,bow_starboard_thruster,-0.4408267918355078,-0.9672306296570443,0.0,0.0,0.0,0.0
2025/05/06 15:49:19.747529652,1746539359,744191908,bow_starboard_thruster,-0.4413088668002092,-0.9730910927308167,0.0,0.0,0.0,0.0
2025/05/06 15:49:19.843188523,1746539359,839559228,bow_starboard_thruster,-0.4365094692654069,-0.9788870907107777,0.0,0.0,0.0,0.0
2025/05/06 15:49:19.942742916,1746539359,939990278,bow_starboard_thruster,-0.4400133135360287,-0.9846193327129592,0.0,0.0,0.0,0.0
2025/05/06 15:49:20.52115511,1746539360,51011697,bow_starboard_thruster,-0.4385353680558968,-0.9902885200531166,0.0,0.0,0.0,0.0
2025/05/06 15:49:20.141091966,1746539360,139015830,bow_starboard_thruster,-0.4450143823958694,-0.9958953463325324,0.0,0.0,0.0,0.0
2025/05/06 15:49:20.237489852,1746539360,236493939,bow_starboard_thruster,-0.44017422418951485,-1.0014404975228746,0.0,0.0,0.0,0.0
2025/05/06 15:49:20.350177420,1746539360,348524416,bow_starboard_thruster,-0.43538730772343015,-1.006924652050123,0.0,0.0,0.0,0.0
2025/05/06 15:49:20.480765917,1746539360,478563138,bow_starboard_thruster,-0.4470980473384724,-0.9959034808775716,0.0,0.0,0.0,0.0
2025/05/06 15:49:20.535638461,1746539360,534470913,bow_starboard_thruster,-0.4422349688177492,-1.0014485425879185,0.0,0.0,0.0,0.0
2025/05/06 15:49:20.657795695,1746539360,655966926,bow_starboard_thruster,-0.437425384160754,-1.0069326086194514,0.0,0.0,0.0,0.0
2025/05/06 15:49:20.754141593,1746539360,752303335,bow_starboard_thruster,-0.43266870493498566,-0.9959113499246374,0.0,0.0,0.0,0.0
2025/05/06 15:49:20.841316469,1746539360,839866379,bow_starboard_thruster,-0.44440934918070085,-1.0014563250754664,0.0,0.0,0.0,0.0
2025/05/06 15:49:20.947811292,1746539360,946931894,bow_starboard_thruster,-0.43957584633971314,-0.9904953054996363,0.0,0.0,0.0,0.0
2025/05/06 15:49:21.69282213,1746539361,64828136,bow_starboard_thruster,-0.4512405120299763,-0.9958616548197199,0.0,0.0,0.0,0.0
2025/05/06 15:49:21.149558576,1746539361,146379400,bow_starboard_thruster,-0.44633186639764655,-0.984962176616703,0.0,0.0,0.0,0.0
2025/05/06 15:49:21.253689465,1746539361,249422520,bow_starboard_thruster,-0.45792221586727244,-0.9906275926739193,0.0,0.0,0.0,0.0
2025/05/06 15:49:21.353203045,1746539361,352423518,bow_starboard_thruster,-0.4529400714927324,-0.9797856891545061,0.0,0.0,0.0,0.0
2025/05/06 15:49:21.464928493,1746539361,463982383,bow_starboard_thruster,-0.4480127307063123,-0.9855080465738065,0.0,0.0,0.0,0.0
2025/05/06 15:49:21.594175250,1746539361,591958616,bow_starboard_thruster,-0.4595845906685429,-0.9747224580614946,0.0,0.0,0.0,0.0
2025/05/06 15:49:21.680318116,1746539361,678677746,bow_starboard_thruster,-0.4545841601711889,-0.9805005110228181,0.0,0.0,0.0,0.0
2025/05/06 15:49:21.745920281,1746539361,744076105,bow_starboard_thruster,-0.44963873440930585,-0.9862150054015671,0.0,0.0,0.0,0.0
2025/05/06 15:49:21.842067438,1746539361,840209831,bow_starboard_thruster,-0.4611927083308035,-0.987647768747636,0.0,0.0,0.0,0.0
2025/05/06 15:49:21.955201070,1746539361,951327804,bow_starboard_thruster,-0.4561745885391647,-0.9773767709680644,0.0,0.0,0.0,0.0
2025/05/06 15:49:22.56561322,1746539362,52526683,bow_starboard_thruster,-0.4551206369210108,-0.9666806264874157,0.0,0.0,0.0,0.0
2025/05/06 15:49:22.149344835,1746539362,148186261,bow_starboard_thruster,-0.4607957148513222,-0.9561021395960542,0.0,0.0,0.0,0.0
2025/05/06 15:49:22.241080611,1746539362,238213553,bow_starboard_thruster,-0.4557819619879577,-0.9456400160604976,0.0,0.0,0.0,0.0
2025/05/06 15:49:22.353043525,1746539362,351671508,bow_starboard_thruster,-0.46726836040609016,-0.9352929758838322,0.0,0.0,0.0,0.0
2025/05/06 15:49:22.437509558,1746539362,435601434,bow_starboard_thruster,-0.46218340844162314,-0.9258620341538557,0.0,0.0,0.0,0.0
2025/05/06 15:49:22.546940979,1746539362,545399101,bow_starboard_thruster,-0.4735993909487653,-0.9321775517781633,0.0,0.0,0.0,0.0
2025/05/06 15:49:22.648761569,1746539362,646877154,bow_starboard_thruster,-0.4684447976483289,-0.9384235987086035,0.0,0.0,0.0,0.0
2025/05/06 15:49:22.741784103,1746539362,739032189,bow_starboard_thruster,-0.4633469048741973,-0.9281559391228089,0.0,0.0,0.0,0.0
2025/05/06 15:49:22.877328760,1746539362,874242796,bow_starboard_thruster,-0.4691487613670429,-0.934446223792458,0.0,0.0,0.0,0.0
2025/05/06 15:49:22.960712426,1746539362,958989092,bow_starboard_thruster,-0.46404312499200545,-0.924222315330741,0.0,0.0,0.0,0.0
2025/05/06 15:49:23.67772876,1746539363,66779247,bow_starboard_thruster,-0.4754386506170934,-0.9141108698621028,0.0,0.0,0.0,0.0
2025/05/06 15:49:23.139710037,1746539363,139091062,bow_starboard_thruster,-0.47026382546030543,-0.9041106502936197,0.0,0.0,0.0,0.0
2025/05/06 15:49:23.252921108,1746539363,249809486,bow_starboard_thruster,-0.481590923380242,-0.9106654331403898,0.0,0.0,0.0,0.0
2025/05/06 15:49:23.345502323,1746539363,343233696,bow_starboard_thruster,-0.47634842322305937,-0.9007031133758456,0.0,0.0,0.0,0.0
2025/05/06 15:49:23.436320508,1746539363,434491224,bow_starboard_thruster,-0.4711635905676057,-0.9072953791287113,0.0,0.0,0.0,0.0
2025/05/06 15:49:23.556728031,1746539363,556245900,bow_starboard_thruster,-0.46603579107136206,-0.8973701299582955,0.0,0.0,0.0,0.0
2025/05/06 15:49:23.665774171,1746539363,660722230,bow_starboard_thruster,-0.47624386749212866,-0.9039990585287542,0.0,0.0,0.0,0.0
2025/05/06 15:49:23.739959266,1746539363,737876408,bow_starboard_thruster,-0.47106018494971524,-0.910555068884938,0.0,0.0,0.0,0.0
2025/05/06 15:49:23.863749743,1746539363,861121344,bow_starboard_thruster,-0.4665834082492614,-0.9005939631272036,0.0,0.0,0.0,0.0
2025/05/06 15:49:23.962004755,1746539363,959848583,bow_starboard_thruster,-0.4779509907585196,-0.8907424295328045,0.0,0.0,0.0,0.0
2025/05/06 15:49:24.82774485,1746539364,82310157,bow_starboard_thruster,-0.4801489569805981,-0.8809992628079436,0.0,0.0,0.0,0.0
2025/05/06 15:49:24.141589486,1746539364,140727120,bow_starboard_thruster,-0.4913673184538115,-0.8878082709170564,0.0,0.0,0.0,0.0
2025/05/06 15:49:24.247185299,1746539364,243617568,bow_starboard_thruster,-0.48601727795081956,-0.8833276179197602,0.0,0.0,0.0,0.0
2025/05/06 15:49:24.352005381,1746539364,349850017,bow_starboard_thruster,-0.4971710878933605,-0.8901110141226429,0.0,0.0,0.0,0.0
2025/05/06 15:49:24.441670926,1746539364,437923361,bow_starboard_thruster,-0.49175720592653355,-0.888019732391715,0.0,0.0,0.0,0.0
2025/05/06 15:49:24.548002428,1746539364,547401119,bow_starboard_thruster,-0.48640287666134174,-0.8947515153354061,0.0,0.0,0.0,0.0
2025/05/06 15:49:24.652085153,1746539364,650572193,bow_starboard_thruster,-0.49755244501806695,-0.8966114328694941,0.0,0.0,0.0,0.0
