time,header_stamp_secs,header_stamp_nsecs,header_frame_id,wrench_force_x,wrench_force_y,wrench_force_z,wrench_torque_x,wrench_torque_y,wrench_torque_z
2025/05/06 15:48:33.265442538,1746539313,261990959,stern_starboard_thruster,0.7256599311425196,-0.7256599311425196,0.0,0.0,0.0,0.0
2025/05/06 15:48:33.354879430,1746539313,340524071,stern_starboard_thruster,0.7341776718999518,-0.7341776718999518,0.0,0.0,0.0,0.0
2025/05/06 15:48:33.422654122,1746539313,421599642,stern_starboard_thruster,0.7261567175090522,-0.7261567175090522,0.0,0.0,0.0,0.0
2025/05/06 15:48:33.506315841,1746539313,505611788,stern_starboard_thruster,0.7346689936164527,-0.7182239936164527,0.0,0.0,0.0,0.0
2025/05/06 15:48:33.592156931,1746539313,589785530,stern_starboard_thruster,0.7266426346866716,-0.7268235296866717,0.0,0.0,0.0,0.0
2025/05/06 15:48:33.651331409,1746539313,650572938,stern_starboard_thruster,0.7351495657051181,-0.7188834708601184,0.0,0.0,0.0,0.0
2025/05/06 15:48:33.737051450,1746539313,736865478,stern_starboard_thruster,0.7271179204823618,-0.727475752680657,0.0,0.0,0.0,0.0
2025/05/06 15:48:33.838410332,1746539313,837452308,stern_starboard_thruster,0.7356196233570558,-0.7195285194011699,0.0,0.0,0.0,0.0
2025/05/06 15:48:33.964059859,1746539313,963530572,stern_starboard_thruster,0.7275828075001282,-0.728113705687757,0.0,0.0,0.0,0.0
2025/05/06 15:48:34.38072756,1746539314,36928192,stern_starboard_thruster,0.7352916885770091,-0.7366044549251918,0.0,0.0,0.0,0.0
2025/05/06 15:48:34.136100946,1746539314,135587956,stern_starboard_thruster,0.727258480002662,-0.7450018059210146,0.0,0.0,0.0,0.0
2025/05/06 15:48:34.242392084,1746539314,241124683,stern_starboard_thruster,0.7357586367226326,-0.7533067860558835,0.0,0.0,0.0,0.0
2025/05/06 15:48:34.347350423,1746539314,347127704,stern_starboard_thruster,0.7277202917186837,-0.7595187472743442,0.0,0.0,0.0,0.0
2025/05/06 15:48:34.441896459,1746539314,441151434,stern_starboard_thruster,0.7362153685097782,-0.7512190410543264,0.0,0.0,0.0,0.0
2025/05/06 15:48:34.560452703,1746539314,559548004,stern_starboard_thruster,0.7281719994561706,-0.7594556316027287,0.0,0.0,0.0,0.0
2025/05/06 15:48:34.665487992,1746539314,663307307,stern_starboard_thruster,0.7366621074621528,-0.7511566196550987,0.0,0.0,0.0,0.0
2025/05/06 15:48:34.758339889,1746539314,757360980,stern_starboard_thruster,0.728613824280069,-0.7593938968388926,0.0,0.0,0.0,0.0
2025/05/06 15:48:34.856822428,1746539314,856659648,stern_starboard_thruster,0.7370990722129883,-0.7510955639736647,0.0,0.0,0.0,0.0
2025/05/06 15:48:34.943414775,1746539314,941781084,stern_starboard_thruster,0.7290459824186455,-0.7593335127699544,0.0,0.0,0.0,0.0
2025/05/06 15:48:35.38452950,1746539315,38294794,stern_starboard_thruster,0.7375264766120404,-0.751035844129485,0.0,0.0,0.0,0.0
2025/05/06 15:48:35.174127555,1746539315,172460619,stern_starboard_thruster,0.729468685369308,-0.7428294498440606,0.0,0.0,0.0,0.0
2025/05/06 15:48:35.237244036,1746539315,237103013,stern_starboard_thruster,0.7379445298302456,-0.7511583258957759,0.0,0.0,0.0,0.0
2025/05/06 15:48:35.394487012,1746539315,394025079,stern_starboard_thruster,0.7298821400021128,-0.7429505843109224,0.0,0.0,0.0,0.0
2025/05/06 15:48:35.506907375,1746539315,502660214,stern_starboard_thruster,0.7383534364620897,-0.7512781278835022,0.0,0.0,0.0,0.0
2025/05/06 15:48:35.622613796,1746539315,617023825,stern_starboard_thruster,0.7302865486610067,-0.7430690684767838,0.0,0.0,0.0,0.0
2025/05/06 15:48:35.743376118,1746539315,740778609,stern_starboard_thruster,0.7387533966257357,-0.7349503087235391,0.0,0.0,0.0,0.0
2025/05/06 15:48:35.880899280,1746539315,874193754,stern_starboard_thruster,0.7306821092628526,-0.7433658553275803,0.0,0.0,0.0,0.0
2025/05/06 15:48:36.98877895,1746539316,78438545,stern_starboard_thruster,0.7391446060609613,-0.7352438309189769,0.0,0.0,0.0,0.0
2025/05/06 15:48:36.227569533,1746539316,202698162,stern_starboard_thruster,0.7310690153942908,-0.7436561487788681,0.0,0.0,0.0,0.0
2025/05/06 15:48:36.341642823,1746539316,329794290,stern_starboard_thruster,0.7395272562249535,-0.7355309311423005,0.0,0.0,0.0,0.0
2025/05/06 15:48:36.484839061,1746539316,465817086,stern_starboard_thruster,0.731447456406479,-0.7439400908997352,0.0,0.0,0.0,0.0
2025/05/06 15:48:36.587779489,1746539316,582059955,stern_starboard_thruster,0.7399015343860077,-0.7358117498998381,0.0,0.0,0.0,0.0
2025/05/06 15:48:37.11106457,1746539317,10524930,stern_starboard_thruster,0.7318176175077616,-0.7442178206509399,0.0,0.0,0.0,0.0
2025/05/06 15:48:37.196896228,1746539317,185575509,stern_starboard_thruster,0.7402676237151762,-0.7525314246237796,0.0,0.0,0.0,0.0
2025/05/06 15:48:37.400192738,1746539317,275312759,stern_starboard_thruster,0.7321796798543093,-0.7607535789529181,0.0,0.0,0.0,0.0
2025/05/06 15:48:37.463787311,1746539317,386525948,stern_starboard_thruster,0.7406257033759119,-0.7688852895844359,0.0,0.0,0.0,0.0
2025/05/06 15:48:37.526792459,1746539317,482428251,stern_starboard_thruster,0.7325338206387769,-0.760482551399007,0.0,0.0,0.0,0.0
2025/05/06 15:48:37.686071815,1746539317,618981532,stern_starboard_thruster,0.7409759486117504,-0.7686172433336179,0.0,0.0,0.0,0.0
2025/05/06 15:48:37.768140249,1746539317,712380786,stern_starboard_thruster,0.7328802131770212,-0.7602174536569481,0.0,0.0,0.0,0.0
2025/05/06 15:48:37.860006545,1746539317,793122993,stern_starboard_thruster,0.7413185308320739,-0.7683550616667217,0.0,0.0,0.0,0.0
2025/05/06 15:48:37.928989243,1746539317,863659352,stern_starboard_thruster,0.7332190269929211,-0.7599581559883878,0.0,0.0,0.0,0.0
2025/05/06 15:48:38.34130485,1746539317,986802838,stern_starboard_thruster,0.741653617695999,-0.7680986162725155,0.0,0.0,0.0,0.0
2025/05/06 15:48:38.109256415,1746539318,103167198,stern_starboard_thruster,0.733550427901343,-0.7597045314935178,0.0,0.0,0.0,0.0
2025/05/06 15:48:38.257365164,1746539318,222284845,stern_starboard_thruster,0.7419813731944281,-0.7678477816470891,0.0,0.0,0.0,0.0
2025/05/06 15:48:38.437600545,1746539318,430005150,stern_starboard_thruster,0.7338745780892895,-0.7594564560489712,0.0,0.0,0.0,0.0
2025/05/06 15:48:38.586066192,1746539318,573959088,stern_starboard_thruster,0.7423019577303073,-0.7511574350324324,0.0,0.0,0.0,0.0
2025/05/06 15:48:38.793961594,1746539318,720185608,stern_starboard_thruster,0.7341916361952739,-0.7429497032470757,0.0,0.0,0.0,0.0
2025/05/06 15:48:38.838430826,1746539318,810260944,stern_starboard_thruster,0.742615528197126,-0.7382794340599566,0.0,0.0,0.0,0.0
2025/05/06 15:48:38.941764377,1746539318,906005250,stern_starboard_thruster,0.7345017573869574,-0.746658360285297,0.0,0.0,0.0,0.0
2025/05/06 15:48:39.182768641,1746539319,63611088,stern_starboard_thruster,0.7429222380557009,-0.7385001183221587,0.0,0.0,0.0,0.0
2025/05/06 15:48:39.253569463,1746539319,220683058,stern_starboard_thruster,0.7348050934370882,-0.7468766170206149,0.0,0.0,0.0,0.0
2025/05/06 15:48:39.423343642,1746539319,347137927,stern_starboard_thruster,0.7432222374092803,-0.7387159742333881,0.0,0.0,0.0,0.0
2025/05/06 15:48:39.659411119,1746539319,485392471,stern_starboard_thruster,0.7515467927977781,-0.7351978214297469,0.0,0.0,0.0,0.0
2025/05/06 15:48:39.784778350,1746539319,627058022,stern_starboard_thruster,0.7597797780770026,-0.7436106453940197,0.0,0.0,0.0,0.0
2025/05/06 15:48:40.17889320,1746539319,798699961,stern_starboard_thruster,0.7679222005181555,-0.7519309282946854,0.0,0.0,0.0,0.0
2025/05/06 15:48:40.195474411,1746539319,972324280,stern_starboard_thruster,0.7759750563124559,-0.7601596880834438,0.0,0.0,0.0,0.0
2025/05/06 15:48:40.740894346,1746539320,460549252,stern_starboard_thruster,0.7839393306930188,-0.768297931514526,0.0,0.0,0.0,0.0
2025/05/06 15:48:41.445820710,1746539321,107327923,stern_starboard_thruster,0.7996060220767863,-0.7582713298083462,0.0,0.0,0.0,0.0
2025/05/06 15:48:41.880836246,1746539321,503115191,stern_starboard_thruster,0.8073103558339417,-0.7527321227159458,0.0,0.0,0.0,0.0
2025/05/06 15:48:42.68772791,1746539321,837001681,stern_starboard_thruster,0.8149299419197683,-0.7536711247662278,0.0,0.0,0.0,0.0
2025/05/06 15:48:42.860354614,1746539322,546791447,stern_starboard_thruster,0.8299185897205058,-0.7402218239774314,0.0,0.0,0.0,0.0
2025/05/06 15:48:43.181087428,1746539322,887731744,stern_starboard_thruster,0.8372894852335803,-0.7321343839136796,0.0,0.0,0.0,0.0
2025/05/06 15:48:43.542033239,1746539323,177749780,stern_starboard_thruster,0.844579300896011,-0.7302832821878739,0.0,0.0,0.0,0.0
2025/05/06 15:48:44.38414663,1746539323,796235410,stern_starboard_thruster,0.8589192503717071,-0.7275539823393258,0.0,0.0,0.0,0.0
2025/05/06 15:48:44.222376788,1746539324,83837977,stern_starboard_thruster,0.8659711386176183,-0.7360508885335932,0.0,0.0,0.0,0.0
2025/05/06 15:48:44.402457561,1746539324,327835809,stern_starboard_thruster,0.8729454560928245,-0.7345099576215486,0.0,0.0,0.0,0.0
2025/05/06 15:48:44.528620802,1746539324,491009208,stern_starboard_thruster,0.8798430560758034,-0.7354982391572317,0.0,0.0,0.0,0.0
2025/05/06 15:48:44.583401067,1746539324,578714659,stern_starboard_thruster,0.8866647824589695,-0.7279173911765122,0.0,0.0,0.0,0.0
2025/05/06 15:48:44.904620061,1746539324,902232787,stern_starboard_thruster,0.876966469851921,-0.7199652998735705,0.0,0.0,0.0,0.0
2025/05/06 15:48:45.78044358,1746539325,74573283,stern_starboard_thruster,0.8838198386835499,-0.7121006815749612,0.0,0.0,0.0,0.0
2025/05/06 15:48:45.164797345,1746539325,159814327,stern_starboard_thruster,0.8905978204580308,-0.7043225740776368,0.0,0.0,0.0,0.0
2025/05/06 15:48:45.260308568,1746539325,258020614,stern_starboard_thruster,0.8973012444329925,-0.6966300257627828,0.0,0.0,0.0,0.0
2025/05/06 15:48:45.365661733,1746539325,365423030,stern_starboard_thruster,0.9039309307442295,-0.6890220954793921,0.0,0.0,0.0,0.0
2025/05/06 15:48:45.620053165,1746539325,616458687,stern_starboard_thruster,0.910487690506043,-0.6979428524291188,0.0,0.0,0.0,0.0
2025/05/06 15:48:45.703276551,1746539325,699497656,stern_starboard_thruster,0.9169723259104765,-0.7067654810523984,0.0,0.0,0.0,0.0
2025/05/06 15:48:45.801558196,1746539325,797022467,stern_starboard_thruster,0.9233856303254614,-0.7154910607608221,0.0,0.0,0.0,0.0
2025/05/06 15:48:45.940788496,1746539325,935723798,stern_starboard_thruster,0.9281508385948495,-0.724120659092453,0.0,0.0,0.0,0.0
2025/05/06 15:48:46.154139941,1746539326,144897090,stern_starboard_thruster,0.9344411793703061,-0.7326553318424359,0.0,0.0,0.0,0.0
2025/05/06 15:48:46.237960502,1746539326,233997898,stern_starboard_thruster,0.9406623263972328,-0.7410961231921692,0.0,0.0,0.0,0.0
2025/05/06 15:48:46.300190655,1746539326,290991988,stern_starboard_thruster,0.9468150408068633,-0.7494440658370554,0.0,0.0,0.0,0.0
2025/05/06 15:48:46.360436732,1746539326,357437683,stern_starboard_thruster,0.9529000753579878,-0.7577001811128478,0.0,0.0,0.0,0.0
2025/05/06 15:48:46.606823283,1746539326,603908442,stern_starboard_thruster,0.94247317452905,-0.7494204791206065,0.0,0.0,0.0,0.0
2025/05/06 15:48:46.682004508,1746539326,674364460,stern_starboard_thruster,0.9486059696092304,-0.7412318538502798,0.0,0.0,0.0,0.0
2025/05/06 15:48:46.770091676,1746539326,762952615,stern_starboard_thruster,0.9546713039435288,-0.7331333034579268,0.0,0.0,0.0,0.0
2025/05/06 15:48:46.918784951,1746539326,916427935,stern_starboard_thruster,0.96066991960015,-0.7251238371198896,0.0,0.0,0.0,0.0
2025/05/06 15:48:47.24287708,1746539327,17785893,stern_starboard_thruster,0.9666025504845485,-0.7172024749115709,0.0,0.0,0.0,0.0
2025/05/06 15:48:47.118930757,1746539327,115468241,stern_starboard_thruster,0.9724699224292184,-0.7093682476875435,0.0,0.0,0.0,0.0
2025/05/06 15:48:47.212138036,1746539327,207247519,stern_starboard_thruster,0.978272753282497,-0.7016201969629805,0.0,0.0,0.0,0.0
2025/05/06 15:48:47.287631908,1746539327,284552389,stern_starboard_thruster,0.9840117529963895,-0.6939573747963877,0.0,0.0,0.0,0.0
2025/05/06 15:48:47.415467484,1746539327,409241147,stern_starboard_thruster,0.9896876237134292,-0.6863788436736274,0.0,0.0,0.0,0.0
2025/05/06 15:48:47.490336044,1746539327,486916630,stern_starboard_thruster,0.9953010598525814,-0.6811515492215532,0.0,0.0,0.0,0.0
2025/05/06 15:48:47.574950407,1746539327,570168348,stern_starboard_thruster,0.9844077481942032,-0.6901588821801161,0.0,0.0,0.0,0.0
2025/05/06 15:48:47.670750033,1746539327,668257082,stern_starboard_thruster,0.990079262964067,-0.6826221344761347,0.0,0.0,0.0,0.0
2025/05/06 15:48:47.789927005,1746539327,787272883,stern_starboard_thruster,0.9956883910714622,-0.6751682909968973,0.0,0.0,0.0,0.0
2025/05/06 15:48:47.858249558,1746539327,856423633,stern_starboard_thruster,1.0012358187696762,-0.6677964397959315,0.0,0.0,0.0,0.0
2025/05/06 15:48:47.975959495,1746539327,974942131,stern_starboard_thruster,1.0067222247632097,-0.6657463400835776,0.0,0.0,0.0,0.0
2025/05/06 15:48:48.90325938,1746539328,85163343,stern_starboard_thruster,1.0121482802908144,-0.6658055673671761,0.0,0.0,0.0,0.0
2025/05/06 15:48:48.211608833,1746539328,203022623,stern_starboard_thruster,1.0175146492076155,-0.665146063040771,0.0,0.0,0.0,0.0
2025/05/06 15:48:48.283600341,1746539328,279644510,stern_starboard_thruster,1.0228219880663316,-0.6663258702522102,0.0,0.0,0.0,0.0
2025/05/06 15:48:48.363257484,1746539328,356662648,stern_starboard_thruster,1.0280709461976019,-0.6647940939073295,0.0,0.0,0.0,0.0
2025/05/06 15:48:48.513640448,1746539328,495090542,stern_starboard_thruster,1.0332621657894283,-0.6678237745457211,0.0,0.0,0.0,0.0
2025/05/06 15:48:48.633538618,1746539328,613305475,stern_starboard_thruster,1.0383962819657446,-0.6769777130257181,0.0,0.0,0.0,0.0
2025/05/06 15:48:48.688725847,1746539328,678892103,stern_starboard_thruster,1.0270289228641216,-0.6860309581824352,0.0,0.0,0.0,0.0
2025/05/06 15:48:48.803909968,1746539328,800082924,stern_starboard_thruster,1.0322316047126163,-0.6949846176424284,0.0,0.0,0.0,0.0
2025/05/06 15:48:48.902990849,1746539328,901672131,stern_starboard_thruster,1.0373770570607774,-0.7038397868483617,0.0,0.0,0.0,0.0
2025/05/06 15:48:48.986438058,1746539328,982827108,stern_starboard_thruster,1.042465909433109,-0.7125975491930296,0.0,0.0,0.0,0.0
2025/05/06 15:48:49.57224359,1746539329,53575253,stern_starboard_thruster,1.0474987844293449,-0.7212589761519064,0.0,0.0,0.0,0.0
2025/05/06 15:48:49.181542043,1746539329,178974670,stern_starboard_thruster,1.052476297800622,-0.7298251274142353,0.0,0.0,0.0,0.0
2025/05/06 15:48:49.305357709,1746539329,296471853,stern_starboard_thruster,1.0573990585248152,-0.7382970510126787,0.0,0.0,0.0,0.0
2025/05/06 15:48:49.381250063,1746539329,379324101,stern_starboard_thruster,1.0622676688810422,-0.7466757834515393,0.0,0.0,0.0,0.0
2025/05/06 15:48:49.668089462,1746539329,664319679,stern_starboard_thruster,1.0670827245233507,-0.7549623498335725,0.0,0.0,0.0,0.0
2025/05/06 15:48:49.974935132,1746539329,960007793,stern_starboard_thruster,1.071844814553594,-0.7631577639854031,0.0,0.0,0.0,0.0
2025/05/06 15:48:50.142042739,1746539330,138271878,stern_starboard_thruster,1.0765545215935044,-0.7712630285815637,0.0,0.0,0.0,0.0
2025/05/06 15:48:50.279163423,1746539330,271487656,stern_starboard_thruster,1.0812124218559758,-0.7792791352671665,0.0,0.0,0.0,0.0
2025/05/06 15:48:50.365268221,1746539330,362322088,stern_starboard_thruster,1.08581908521556,-0.7872070647792276,0.0,0.0,0.0,0.0
2025/05/06 15:48:50.445769260,1746539330,440300273,stern_starboard_thruster,1.0822111063936597,-0.795047787066656,0.0,0.0,0.0,0.0
2025/05/06 15:48:50.504057493,1746539330,499028776,stern_starboard_thruster,1.0703617842233295,-0.7863572614089229,0.0,0.0,0.0,0.0
2025/05/06 15:48:50.583972206,1746539330,579559631,stern_starboard_thruster,1.0750878045968728,-0.7777623315334248,0.0,0.0,0.0,0.0
2025/05/06 15:48:50.722463185,1746539330,715176515,stern_starboard_thruster,1.079761838746307,-0.769261945886557,0.0,0.0,0.0,0.0
2025/05/06 15:48:50.795288601,1746539330,790999345,stern_starboard_thruster,1.0816300764468734,-0.760855064481805,0.0,0.0,0.0,0.0
2025/05/06 15:48:50.874614110,1746539330,870625282,stern_starboard_thruster,1.0862321456059578,-0.754506711801377,0.0,0.0,0.0,0.0
2025/05/06 15:48:50.985974448,1746539330,981190939,stern_starboard_thruster,1.0907835920042923,-0.7462621379715617,0.0,0.0,0.0,0.0
2025/05/06 15:48:51.77697668,1746539331,70853838,stern_starboard_thruster,1.095284972492245,-0.7509670735141897,0.0,0.0,0.0,0.0
2025/05/06 15:48:51.185078419,1746539331,179836424,stern_starboard_thruster,1.0997368377948304,-0.7502157660548384,0.0,0.0,0.0,0.0
2025/05/06 15:48:51.285016990,1746539331,278455352,stern_starboard_thruster,1.1041397325790872,-0.7530746387682627,0.0,0.0,0.0,0.0
2025/05/06 15:48:51.452837197,1746539331,448937375,stern_starboard_thruster,1.1084941955207173,-0.751682131635149,0.0,0.0,0.0,0.0
2025/05/06 15:48:51.547686679,1746539331,540659757,stern_starboard_thruster,1.0963557593699893,-0.7434686281871623,0.0,0.0,0.0,0.0
2025/05/06 15:48:51.643582408,1746539331,638079078,stern_starboard_thruster,1.1007958460169196,-0.7353454732771035,0.0,0.0,0.0,0.0
2025/05/06 15:48:51.719563776,1746539331,702196079,stern_starboard_thruster,1.1051870917107334,-0.7273116730710554,0.0,0.0,0.0,0.0
2025/05/06 15:48:51.790928248,1746539331,781721757,stern_starboard_thruster,1.1095300337019154,-0.7193662446672738,0.0,0.0,0.0,0.0
2025/05/06 15:48:51.883178469,1746539331,877752199,stern_starboard_thruster,1.1138252033311944,-0.7115082159759338,0.0,0.0,0.0,0.0
2025/05/06 15:48:51.973625794,1746539331,971177013,stern_starboard_thruster,1.1180731260945511,-0.7037366256001986,0.0,0.0,0.0,0.0
2025/05/06 15:48:52.86820821,1746539332,82225246,stern_starboard_thruster,1.122274321707511,-0.6960505227185964,0.0,0.0,0.0,0.0
2025/05/06 15:48:52.150956282,1746539332,149805494,stern_starboard_thruster,1.1264293041687286,-0.6884489669686918,0.0,0.0,0.0,0.0
2025/05/06 15:48:52.299954101,1746539332,292996591,stern_starboard_thruster,1.1305385818228724,-0.6877184993972826,0.0,0.0,0.0,0.0
2025/05/06 15:48:52.400873221,1746539332,389546131,stern_starboard_thruster,1.134602657422821,-0.6874345015273294,0.0,0.0,0.0,0.0
2025/05/06 15:48:52.477644441,1746539332,471274159,stern_starboard_thruster,1.1386220281911699,-0.687063141190344,0.0,0.0,0.0,0.0
2025/05/06 15:48:52.630215275,1746539332,624216284,stern_starboard_thruster,1.142597185881067,-0.6866940205482195,0.0,0.0,0.0,0.0
2025/05/06 15:48:52.711562994,1746539332,702793552,stern_starboard_thruster,1.1465286168363755,-0.6956403863221889,0.0,0.0,0.0,0.0
2025/05/06 15:48:52.812529603,1746539332,801007029,stern_starboard_thruster,1.1504168020511754,-0.702223152970987,0.0,0.0,0.0,0.0
2025/05/06 15:48:52.904420906,1746539332,899749977,stern_starboard_thruster,1.1542622172286126,-0.7006003090801761,0.0,0.0,0.0,0.0
2025/05/06 15:48:52.981099281,1746539332,979177253,stern_starboard_thruster,1.1580653328390977,-0.6997158105877685,0.0,0.0,0.0,0.0
2025/05/06 15:48:53.65027551,1746539333,55807654,stern_starboard_thruster,1.1618266141778677,-0.7002646418570524,0.0,0.0,0.0,0.0
2025/05/06 15:48:53.194300718,1746539333,190617299,stern_starboard_thruster,1.165546521421911,-0.6995860440278616,0.0,0.0,0.0,0.0
2025/05/06 15:48:53.305632609,1746539333,304053944,stern_starboard_thruster,1.16922550968627,-0.7002211619332347,0.0,0.0,0.0,0.0
2025/05/06 15:48:53.382588986,1746539333,380455786,stern_starboard_thruster,1.172864029079721,-0.699536293654944,0.0,0.0,0.0,0.0
2025/05/06 15:48:53.465608008,1746539333,462504746,stern_starboard_thruster,1.1764625247598441,-0.7003188145992378,0.0,0.0,0.0,0.0
2025/05/06 15:48:53.617935468,1746539333,612433040,stern_starboard_thruster,1.180021436987486,-0.7039805152414961,0.0,0.0,0.0,0.0
2025/05/06 15:48:53.707782405,1746539333,703248402,stern_starboard_thruster,1.1835412011806237,-0.6971831960743268,0.0,0.0,0.0,0.0
2025/05/06 15:48:53.804928215,1746539333,802287425,stern_starboard_thruster,1.1870222479676367,-0.7040655008631164,0.0,0.0,0.0,0.0
2025/05/06 15:48:53.867885755,1746539333,866040099,stern_starboard_thruster,1.1904650032399926,-0.6963757803536221,0.0,0.0,0.0,0.0
2025/05/06 15:48:53.942298429,1746539333,940486897,stern_starboard_thruster,1.1938698882043528,-0.703962643172208,0.0,0.0,0.0,0.0
2025/05/06 15:48:54.61657819,1746539334,59513672,stern_starboard_thruster,1.1972373194341048,-0.6962740540973137,0.0,0.0,0.0,0.0
2025/05/06 15:48:54.159866867,1746539334,158337137,stern_starboard_thruster,1.2005677089203297,-0.7049138275816763,0.0,0.0,0.0,0.0
2025/05/06 15:48:54.259683094,1746539334,259240754,stern_starboard_thruster,1.203861464122206,-0.6972147754782779,0.0,0.0,0.0,0.0
2025/05/06 15:48:54.354807164,1746539334,353750928,stern_starboard_thruster,1.207118988016862,-0.7060454129480168,0.0,0.0,0.0,0.0
2025/05/06 15:48:54.443615210,1746539334,441451853,stern_starboard_thruster,1.2103406791486764,-0.6983339134055886,0.0,0.0,0.0,0.0
2025/05/06 15:48:54.545258960,1746539334,541671731,stern_starboard_thruster,1.213526931678041,-0.7071522403581271,0.0,0.0,0.0,0.0
2025/05/06 15:48:54.640838787,1746539334,638886305,stern_starboard_thruster,1.2166781354295824,-0.7116120222596592,0.0,0.0,0.0,0.0
2025/05/06 15:48:54.749440486,1746539334,748863216,stern_starboard_thruster,1.219794675939857,-0.7131908805618238,0.0,0.0,0.0,0.0
2025/05/06 15:48:54.884100416,1746539334,880736623,stern_starboard_thruster,1.2228769345045185,-0.7117357514809414,0.0,0.0,0.0,0.0
2025/05/06 15:48:54.983489988,1746539334,982942436,stern_starboard_thruster,1.225925288224969,-0.7149565026466506,0.0,0.0,0.0,0.0
2025/05/06 15:48:55.72726325,1746539335,59718782,stern_starboard_thruster,1.2289401100544943,-0.7120681112062373,0.0,0.0,0.0,0.0
2025/05/06 15:48:55.159234898,1746539335,156897584,stern_starboard_thruster,1.2319217688438948,-0.7154410498509267,0.0,0.0,0.0,0.0
2025/05/06 15:48:55.255735177,1746539335,255332326,stern_starboard_thruster,1.234870629386612,-0.7125205192998776,0.0,0.0,0.0,0.0
2025/05/06 15:48:55.352956231,1746539335,348595819,stern_starboard_thruster,1.2377870524633592,-0.7047377935875789,0.0,0.0,0.0,0.0
2025/05/06 15:48:55.450302216,1746539335,449443619,stern_starboard_thruster,1.2406713948862622,-0.6970406778581156,0.0,0.0,0.0,0.0
2025/05/06 15:48:55.559723664,1746539335,558169607,stern_starboard_thruster,1.2435240095425133,-0.6965166148397691,0.0,0.0,0.0,0.0
2025/05/06 15:48:55.639805843,1746539335,638259444,stern_starboard_thruster,1.2463452454375457,-0.696355737925276,0.0,0.0,0.0,0.0
2025/05/06 15:48:55.762000379,1746539335,759905686,stern_starboard_thruster,1.2491354477377328,-0.6972900091848101,0.0,0.0,0.0,0.0
2025/05/06 15:48:55.881798174,1746539335,878939447,stern_starboard_thruster,1.2518949578126175,-0.696997505636888,0.0,0.0,0.0,0.0
2025/05/06 15:48:55.980680435,1746539335,966648151,stern_starboard_thruster,1.2546241132766789,-0.6974303457878652,0.0,0.0,0.0,0.0
2025/05/06 15:48:56.104186854,1746539336,102429765,stern_starboard_thruster,1.2573232480306353,-0.6971978469050895,0.0,0.0,0.0,0.0
2025/05/06 15:48:56.217776022,1746539336,215934324,stern_starboard_thruster,1.2599926923022984,-0.6972845465312155,0.0,0.0,0.0,0.0
2025/05/06 15:48:56.294389372,1746539336,292424686,stern_starboard_thruster,1.262632772686973,-0.6973824149147371,0.0,0.0,0.0,0.0
2025/05/06 15:48:56.364361960,1746539336,363625920,stern_starboard_thruster,1.2652438121874163,-0.7062112083506749,0.0,0.0,0.0,0.0
2025/05/06 15:48:56.446874849,1746539336,440475007,stern_starboard_thruster,1.2678261302533549,-0.7149428850588174,0.0,0.0,0.0,0.0
2025/05/06 15:48:56.561868637,1746539336,559861256,stern_starboard_thruster,1.2703800428205678,-0.7193308071091254,0.0,0.0,0.0,0.0
2025/05/06 15:48:56.651751737,1746539336,646127676,stern_starboard_thruster,1.2729058623495417,-0.7211773599983851,0.0,0.0,0.0,0.0
2025/05/06 15:48:56.762418748,1746539336,758759355,stern_starboard_thruster,1.2754038978636968,-0.7213263351369851,0.0,0.0,0.0,0.0
2025/05/06 15:48:56.859091520,1746539336,855391264,stern_starboard_thruster,1.277874454987196,-0.7217404018913933,0.0,0.0,0.0,0.0
2025/05/06 15:48:56.955021742,1746539336,953946630,stern_starboard_thruster,1.2803178359823368,-0.7216326489635199,0.0,0.0,0.0,0.0
2025/05/06 15:48:57.49983984,1746539337,47804519,stern_starboard_thruster,1.2827343397865312,-0.721920003618234,0.0,0.0,0.0,0.0
2025/05/06 15:48:57.148332758,1746539337,144570912,stern_starboard_thruster,1.2851242620488794,-0.7218378096223603,0.0,0.0,0.0,0.0
2025/05/06 15:48:57.276906788,1746539337,274736059,stern_starboard_thruster,1.2874878951663415,-0.7217847656602525,0.0,0.0,0.0,0.0
2025/05/06 15:48:57.384346122,1746539337,382745254,stern_starboard_thruster,1.289825528319512,-0.7214679376482656,0.0,0.0,0.0,0.0
2025/05/06 15:48:57.449756303,1746539337,445657428,stern_starboard_thruster,1.2921374475079972,-0.7300317903341346,0.0,0.0,0.0,0.0
2025/05/06 15:48:57.537152138,1746539337,534912055,stern_starboard_thruster,1.292207707178503,-0.7385014406404591,0.0,0.0,0.0,0.0
2025/05/06 15:48:57.720047915,1746539337,716290067,stern_starboard_thruster,1.2944934223995392,-0.746877924793414,0.0,0.0,0.0,0.0
2025/05/06 15:48:57.795403800,1746539337,792069643,stern_starboard_thruster,1.2967539947531443,-0.7551622676206864,0.0,0.0,0.0,0.0
2025/05/06 15:48:57.870661759,1746539337,864476612,stern_starboard_thruster,1.2989897008108597,-0.7633554826768588,0.0,0.0,0.0,0.0
2025/05/06 15:48:57.962880188,1746539337,957465130,stern_starboard_thruster,1.3012008141019402,-0.7713975715754846,0.0,0.0,0.0,0.0
2025/05/06 15:48:58.59946863,1746539338,55130049,stern_starboard_thruster,1.303387605146819,-0.7728086907008251,0.0,0.0,0.0,0.0
2025/05/06 15:48:58.270637613,1746539338,210500296,stern_starboard_thruster,1.305550341490204,-0.7738306975064413,0.0,0.0,0.0,0.0
2025/05/06 15:48:58.324628413,1746539338,302551652,stern_starboard_thruster,1.3076892877338115,-0.7736118818132275,0.0,0.0,0.0,0.0
2025/05/06 15:48:58.388269447,1746539338,387029159,stern_starboard_thruster,1.3098047055687396,-0.774065322248737,0.0,0.0,0.0,0.0
2025/05/06 15:48:58.564861479,1746539338,561166265,stern_starboard_thruster,1.2954518538074837,-0.7656056037040009,0.0,0.0,0.0,0.0
2025/05/06 15:48:58.660285222,1746539338,659500884,stern_starboard_thruster,1.2977018834156013,-0.7572389420632568,0.0,0.0,0.0,0.0
2025/05/06 15:48:58.716574655,1746539338,715308712,stern_starboard_thruster,1.2999271626980298,-0.7489643137005609,0.0,0.0,0.0,0.0
2025/05/06 15:48:58.767189952,1746539338,765560759,stern_starboard_thruster,1.3021279639083514,-0.7407807062498547,0.0,0.0,0.0,0.0
2025/05/06 15:48:58.843373936,1746539338,840973344,stern_starboard_thruster,1.3043045563053597,-0.7326871184811062,0.0,0.0,0.0,0.0
2025/05/06 15:48:58.955243207,1746539338,953057501,stern_starboard_thruster,1.3064572061860005,-0.7246825601778142,0.0,0.0,0.0,0.0
2025/05/06 15:48:59.74774903,1746539339,73125046,stern_starboard_thruster,1.3085861769179545,-0.7167660520158582,0.0,0.0,0.0,0.0
2025/05/06 15:48:59.144197222,1746539339,143397878,stern_starboard_thruster,1.310691728971857,-0.7089366254436837,0.0,0.0,0.0,0.0
2025/05/06 15:48:59.251035707,1746539339,247794247,stern_starboard_thruster,1.3127741199531664,-0.7011933225638032,0.0,0.0,0.0,0.0
2025/05/06 15:48:59.374088778,1746539339,366505967,stern_starboard_thruster,1.2983886046336814,-0.7099801960156014,0.0,0.0,0.0,0.0
2025/05/06 15:48:59.461985590,1746539339,456383600,stern_starboard_thruster,1.2905838397358287,-0.7186704138594296,0.0,0.0,0.0,0.0
2025/05/06 15:48:59.550187978,1746539339,548698595,stern_starboard_thruster,1.2928874174987346,-0.727265039306976,0.0,0.0,0.0,0.0
2025/05/06 15:48:59.655082949,1746539339,648289975,stern_starboard_thruster,1.2926603801821495,-0.7357651238745991,0.0,0.0,0.0,0.0
2025/05/06 15:48:59.770811901,1746539339,768957293,stern_starboard_thruster,1.2949411160001458,-0.7441717075119786,0.0,0.0,0.0,0.0
2025/05/06 15:48:59.903769108,1746539339,898883544,stern_starboard_thruster,1.2971967637241444,-0.7524858187293468,0.0,0.0,0.0,0.0
2025/05/06 15:49:00.27892982,1746539340,22394706,stern_starboard_thruster,1.2994275993231788,-0.760708474723324,0.0,0.0,0.0,0.0
2025/05/06 15:49:00.120875781,1746539340,112085812,stern_starboard_thruster,1.3016338957306237,-0.7688406815013674,0.0,0.0,0.0,0.0
2025/05/06 15:49:00.224188322,1746539340,217985500,stern_starboard_thruster,1.3038159228775867,-0.7604384340048524,0.0,0.0,0.0,0.0
2025/05/06 15:49:00.295393200,1746539340,294562909,stern_starboard_thruster,1.3059739477259333,-0.7685736112307991,0.0,0.0,0.0,0.0
2025/05/06 15:49:00.395267848,1746539340,389543290,stern_starboard_thruster,1.3081082343009482,-0.7601743015072603,0.0,0.0,0.0,0.0
2025/05/06 15:49:00.477225363,1746539340,474739776,stern_starboard_thruster,1.2937740437236378,-0.7518673841906803,0.0,0.0,0.0,0.0
2025/05/06 15:49:00.564351055,1746539340,560173488,stern_starboard_thruster,1.2803321566346073,-0.7436518429645829,0.0,0.0,0.0,0.0
2025/05/06 15:49:00.649488110,1746539340,643454103,stern_starboard_thruster,1.2663035029116267,-0.7355266726919725,0.0,0.0,0.0,0.0
2025/05/06 15:49:00.749033790,1746539340,748450044,stern_starboard_thruster,1.2524291643795988,-0.7274908792923607,0.0,0.0,0.0,0.0
2025/05/06 15:49:00.853203594,1746539340,852231013,stern_starboard_thruster,1.2551524435714232,-0.7359884796201448,0.0,0.0,0.0,0.0
2025/05/06 15:49:00.983695468,1746539340,982791423,stern_starboard_thruster,1.2578457666921377,-0.7279476063443232,0.0,0.0,0.0,0.0
2025/05/06 15:49:01.45190254,1746539341,44312586,stern_starboard_thruster,1.260509463258524,-0.734414420308286,0.0,0.0,0.0,0.0
2025/05/06 15:49:01.209669889,1746539341,205100784,stern_starboard_thruster,1.2631438591626805,-0.7263908616848949,0.0,0.0,0.0,0.0
2025/05/06 15:49:01.301664257,1746539341,298844758,stern_starboard_thruster,1.265749276711891,-0.734900562206361,0.0,0.0,0.0,0.0
2025/05/06 15:49:01.353120086,1746539341,351003303,stern_starboard_thruster,1.26832603466806,-0.726871656022091,0.0,0.0,0.0,0.0
2025/05/06 15:49:01.459124367,1746539341,457303678,stern_starboard_thruster,1.2544294482867115,-0.718931067805848,0.0,0.0,0.0,0.0
2025/05/06 15:49:01.543084822,1746539341,541549582,stern_starboard_thruster,1.2406857243555576,-0.7110778260599837,0.0,0.0,0.0,0.0
2025/05/06 15:49:01.653687165,1746539341,647708577,stern_starboard_thruster,1.2270931813876467,-0.7197559699733239,0.0,0.0,0.0,0.0
2025/05/06 15:49:01.740299851,1746539341,738331879,stern_starboard_thruster,1.2136501563923825,-0.7118936543036173,0.0,0.0,0.0,0.0
2025/05/06 15:49:01.848773323,1746539341,845916262,stern_starboard_thruster,1.2168000046720662,-0.7205628241062776,0.0,0.0,0.0,0.0
2025/05/06 15:49:01.947483748,1746539341,944345759,stern_starboard_thruster,1.2199152046206736,-0.7126916330411085,0.0,0.0,0.0,0.0
2025/05/06 15:49:02.45452015,1746539342,42581065,stern_starboard_thruster,1.2229961373698461,-0.7213520250776563,0.0,0.0,0.0,0.0
2025/05/06 15:49:02.179031796,1746539342,176281135,stern_starboard_thruster,1.2260431798587779,-0.7134721528018021,0.0,0.0,0.0,0.0
2025/05/06 15:49:02.243436022,1746539342,241291466,stern_starboard_thruster,1.2290567048803314,-0.7221239591209824,0.0,0.0,0.0,0.0
2025/05/06 15:49:02.365388286,1746539342,357847822,stern_starboard_thruster,1.2155920811266476,-0.7188499668866034,0.0,0.0,0.0,0.0
2025/05/06 15:49:02.436215512,1746539342,434666447,stern_starboard_thruster,1.2022755682342545,-0.7211426951039519,0.0,0.0,0.0,0.0
2025/05/06 15:49:02.551533145,1746539342,549148855,stern_starboard_thruster,1.1891055369836776,-0.7132651254578084,0.0,0.0,0.0,0.0
2025/05/06 15:49:02.648000678,1746539342,647145929,stern_starboard_thruster,1.1760803760768572,-0.7219192090777726,0.0,0.0,0.0,0.0
2025/05/06 15:49:02.743834120,1746539342,740268644,stern_starboard_thruster,1.1796434919400118,-0.714033097777917,0.0,0.0,0.0,0.0
2025/05/06 15:49:02.864564326,1746539342,858118040,stern_starboard_thruster,1.1831674135286716,-0.7226787337023599,0.0,0.0,0.0,0.0
2025/05/06 15:49:02.966032448,1746539342,959379531,stern_starboard_thruster,1.1866525719798562,-0.7147842676316339,0.0,0.0,0.0,0.0
2025/05/06 15:49:03.44341865,1746539343,42489409,stern_starboard_thruster,1.1900993936880777,-0.723421640687686,0.0,0.0,0.0,0.0
2025/05/06 15:49:03.171406512,1746539343,169483954,stern_starboard_thruster,1.1935083003575089,-0.7155190026401215,0.0,0.0,0.0,0.0
2025/05/06 15:49:03.273972424,1746539343,257103478,stern_starboard_thruster,1.196879709053576,-0.7241482936110802,0.0,0.0,0.0,0.0
2025/05/06 15:49:03.368157363,1746539343,366995949,stern_starboard_thruster,1.1837690322539869,-0.7326826623813584,0.0,0.0,0.0,0.0
2025/05/06 15:49:03.442071692,1746539343,441894537,stern_starboard_thruster,1.1708025728991929,-0.7246781530951634,0.0,0.0,0.0,0.0
2025/05/06 15:49:03.549908124,1746539343,549491911,stern_starboard_thruster,1.1579787445973018,-0.7167616934111166,0.0,0.0,0.0,0.0
2025/05/06 15:49:03.636365038,1746539343,634953505,stern_starboard_thruster,1.1482963732864613,-0.7253773147835944,0.0,0.0,0.0,0.0
2025/05/06 15:49:03.764474061,1746539343,763930261,stern_starboard_thruster,1.1521651131803101,-0.7174531643209748,0.0,0.0,0.0,0.0
2025/05/06 15:49:03.861814424,1746539343,857152950,stern_starboard_thruster,1.1559912969353268,-0.7260611795134442,0.0,0.0,0.0,0.0
2025/05/06 15:49:03.946645806,1746539343,944918169,stern_starboard_thruster,1.1597753926690382,-0.7181295065387963,0.0,0.0,0.0,0.0
2025/05/06 15:49:04.53901037,1746539344,52412102,stern_starboard_thruster,1.1635178633496788,-0.7267300819668695,0.0,0.0,0.0,0.0
2025/05/06 15:49:04.182353081,1746539344,160929217,stern_starboard_thruster,1.1507741668528324,-0.718791051065234,0.0,0.0,0.0,0.0
2025/05/06 15:49:04.305999976,1746539344,303736397,stern_starboard_thruster,1.1546156510174512,-0.7273843495035165,0.0,0.0,0.0,0.0
2025/05/06 15:49:04.411951756,1746539344,407337659,stern_starboard_thruster,1.1584148788562592,-0.7358831216589777,0.0,0.0,0.0,0.0
2025/05/06 15:49:04.467807811,1746539344,463721383,stern_starboard_thruster,1.1457273151888405,-0.744288407320729,0.0,0.0,0.0,0.0
2025/05/06 15:49:04.590470576,1746539344,589044098,stern_starboard_thruster,1.1331793147217633,-0.752601234840201,0.0,0.0,0.0,0.0
2025/05/06 15:49:04.640692378,1746539344,639033576,stern_starboard_thruster,1.1207693422598237,-0.7591368644282172,0.0,0.0,0.0,0.0
2025/05/06 15:49:04.756297642,1746539344,753077689,stern_starboard_thruster,1.1084958794949658,-0.7672863589195068,0.0,0.0,0.0,0.0
2025/05/06 15:49:04.857312510,1746539344,854693960,stern_starboard_thruster,1.112802424820521,-0.7675714038942981,0.0,0.0,0.0,0.0
2025/05/06 15:49:04.940912039,1746539344,939622312,stern_starboard_thruster,1.1170615981474954,-0.7665017246977657,0.0,0.0,0.0,0.0
2025/05/06 15:49:05.57653943,1746539345,54559427,stern_starboard_thruster,1.1212739205678728,-0.7603380533627315,0.0,0.0,0.0,0.0
2025/05/06 15:49:05.152450209,1746539345,148327459,stern_starboard_thruster,1.1254399074416264,-0.7684743347757415,0.0,0.0,0.0,0.0
2025/05/06 15:49:05.235871718,1746539345,234233549,stern_starboard_thruster,1.1295600684597684,-0.7600761170932083,0.0,0.0,0.0,0.0
2025/05/06 15:49:05.350360948,1746539345,346952753,stern_starboard_thruster,1.1336349077067112,-0.768215279805183,0.0,0.0,0.0,0.0
2025/05/06 15:49:05.455785654,1746539345,452014332,stern_starboard_thruster,1.1212199237219374,-0.7598199117273259,0.0,0.0,0.0,0.0
2025/05/06 15:49:05.535527226,1746539345,534712820,stern_starboard_thruster,1.108941504560996,-0.7515168926983253,0.0,0.0,0.0,0.0
2025/05/06 15:49:05.643717032,1746539345,641589242,stern_starboard_thruster,1.113243148010825,-0.7433052068786438,0.0,0.0,0.0,0.0
2025/05/06 15:49:05.782493983,1746539345,779913150,stern_starboard_thruster,1.1174974733827059,-0.7516288496029787,0.0,0.0,0.0,0.0
2025/05/06 15:49:05.858338325,1746539345,856904288,stern_starboard_thruster,1.121705001175496,-0.7470913513314815,0.0,0.0,0.0,0.0
2025/05/06 15:49:05.943554532,1746539345,941852924,stern_starboard_thruster,1.1258662461625657,-0.7553733464668352,0.0,0.0,0.0,0.0
2025/05/06 15:49:06.64025673,1746539346,60839379,stern_starboard_thruster,1.1299817174547773,-0.7471192396556999,0.0,0.0,0.0,0.0
2025/05/06 15:49:06.148802238,1746539346,144912593,stern_starboard_thruster,1.1340519185627749,-0.7554009280194873,0.0,0.0,0.0,0.0
2025/05/06 15:49:06.236502109,1746539346,235841525,stern_starboard_thruster,1.1380773474585844,-0.7471465178112731,0.0,0.0,0.0,0.0
2025/05/06 15:49:06.343610709,1746539346,340204403,stern_starboard_thruster,1.1256134966365399,-0.738982906115349,0.0,0.0,0.0,0.0
2025/05/06 15:49:06.456706296,1746539346,454971454,stern_starboard_thruster,1.129731748173538,-0.7309090941480803,0.0,0.0,0.0,0.0
2025/05/06 15:49:06.539889445,1746539346,538183379,stern_starboard_thruster,1.117359698943629,-0.7229240941124513,0.0,0.0,0.0,0.0
2025/05/06 15:49:06.655084635,1746539346,651231734,stern_starboard_thruster,1.121568742255249,-0.7150269290772144,0.0,0.0,0.0,0.0
2025/05/06 15:49:06.768663925,1746539346,764586046,stern_starboard_thruster,1.1257314860904413,-0.7236616328573651,0.0,0.0,0.0,0.0
2025/05/06 15:49:06.842863062,1746539346,839577905,stern_starboard_thruster,1.1298484397434465,-0.7157563548959341,0.0,0.0,0.0,0.0
2025/05/06 15:49:06.987392795,1746539346,985019123,stern_starboard_thruster,1.1339201069062685,-0.7243830349920788,0.0,0.0,0.0,0.0
2025/05/06 15:49:07.42890119,1746539347,40372769,stern_starboard_thruster,1.1379469857302995,-0.7164698216071659,0.0,0.0,0.0,0.0
2025/05/06 15:49:07.143187704,1746539347,142486462,stern_starboard_thruster,1.1419295688872662,-0.725088653569487,0.0,0.0,0.0,0.0
2025/05/06 15:49:07.246324531,1746539347,245293099,stern_starboard_thruster,1.1458683436295063,-0.7171676783802227,0.0,0.0,0.0,0.0
2025/05/06 15:49:07.360399135,1746539347,356643173,stern_starboard_thruster,1.1333187918495817,-0.7257788339180402,0.0,0.0,0.0,0.0
2025/05/06 15:49:07.444420927,1746539347,441109086,stern_starboard_thruster,1.1209072851392363,-0.7178502667449418,0.0,0.0,0.0,0.0
2025/05/06 15:49:07.559796602,1746539347,555097663,stern_starboard_thruster,1.1232938640119021,-0.7100089138107474,0.0,0.0,0.0,0.0
2025/05/06 15:49:07.648807130,1746539347,645917970,stern_starboard_thruster,1.1109926315077712,-0.7022538157588292,0.0,0.0,0.0,0.0
2025/05/06 15:49:07.755581748,1746539347,753385080,stern_starboard_thruster,1.1152717125611857,-0.6945840237854821,0.0,0.0,0.0,0.0
2025/05/06 15:49:07.843354395,1746539347,841916859,stern_starboard_thruster,1.1195037237230128,-0.7034435995238418,0.0,0.0,0.0,0.0
2025/05/06 15:49:07.949366592,1746539347,945781503,stern_starboard_thruster,1.1236891827620596,-0.6957607199290796,0.0,0.0,0.0,0.0
2025/05/06 15:49:08.40758798,1746539348,39432635,stern_starboard_thruster,1.127828601751677,-0.7046073520098597,0.0,0.0,0.0,0.0
2025/05/06 15:49:08.186721310,1746539348,173337146,stern_starboard_thruster,1.1319224871324085,-0.6969116711377512,0.0,0.0,0.0,0.0
2025/05/06 15:49:08.262672113,1746539348,259456299,stern_starboard_thruster,1.1359713397739521,-0.705745642755236,0.0,0.0,0.0,0.0
2025/05/06 15:49:08.357994213,1746539348,355162788,stern_starboard_thruster,1.1399756550364386,-0.6980374406849283,0.0,0.0,0.0,0.0
2025/05/06 15:49:08.576070511,1746539348,573017490,stern_starboard_thruster,1.1439359228310377,-0.7068590288373942,0.0,0.0,0.0,0.0
2025/05/06 15:49:08.714219372,1746539348,713188958,stern_starboard_thruster,1.1478526276798964,-0.7155835795201828,0.0,0.0,0.0,0.0
2025/05/06 15:49:08.767002730,1746539348,764953756,stern_starboard_thruster,1.1352812487754176,-0.7242121601454607,0.0,0.0,0.0,0.0
2025/05/06 15:49:08.839777183,1746539348,838597248,stern_starboard_thruster,1.122848155038888,-0.7327458263838607,0.0,0.0,0.0,0.0
2025/05/06 15:49:08.945268198,1746539348,942513910,stern_starboard_thruster,1.11055182533346,-0.7411856222936382,0.0,0.0,0.0,0.0
2025/05/06 15:49:09.37079250,1746539349,35439521,stern_starboard_thruster,1.098390755254792,-0.7330875804484082,0.0,0.0,0.0,0.0
2025/05/06 15:49:09.151179023,1746539349,150579836,stern_starboard_thruster,1.1028084569469894,-0.7415236170634757,0.0,0.0,0.0,0.0
2025/05/06 15:49:09.264671698,1746539349,258892472,stern_starboard_thruster,1.1071775639205723,-0.7334218572757775,0.0,0.0,0.0,0.0
2025/05/06 15:49:09.349389239,1746539349,348267188,stern_starboard_thruster,1.111498610717446,-0.7418542168457439,0.0,0.0,0.0,0.0
2025/05/06 15:49:09.673180319,1746539349,672065071,stern_starboard_thruster,1.115772125999554,-0.7501938204604407,0.0,0.0,0.0,0.0
2025/05/06 15:49:09.797931984,1746539349,794108838,stern_starboard_thruster,1.1199986326135591,-0.7584416884353758,0.0,0.0,0.0,0.0
2025/05/06 15:49:09.880896085,1746539349,879742852,stern_starboard_thruster,1.1241786476548101,-0.7665988298625868,0.0,0.0,0.0,0.0
2025/05/06 15:49:09.948162116,1746539349,946507036,stern_starboard_thruster,1.1283126825306071,-0.7746662427340983,0.0,0.0,0.0,0.0
2025/05/06 15:49:10.34111510,1746539350,33548386,stern_starboard_thruster,1.1159562430227705,-0.7826449140640233,0.0,0.0,0.0,0.0
2025/05/06 15:49:10.161158471,1746539350,158727785,stern_starboard_thruster,1.10373572434952,-0.790535820009319,0.0,0.0,0.0,0.0
2025/05/06 15:49:10.250604787,1746539350,247311528,stern_starboard_thruster,1.0916496313816753,-0.7983399259892164,0.0,0.0,0.0,0.0
2025/05/06 15:49:10.347521058,1746539350,346036530,stern_starboard_thruster,1.0796964854364768,-0.789613186803335,0.0,0.0,0.0,0.0
2025/05/06 15:49:10.462249610,1746539350,458487831,stern_starboard_thruster,1.0678748240966756,-0.7938829649818648,0.0,0.0,0.0,0.0
2025/05/06 15:49:10.549953105,1746539350,545644862,stern_starboard_thruster,1.0561832010316123,-0.7852052523670642,0.0,0.0,0.0,0.0
2025/05/06 15:49:10.641505259,1746539350,640073420,stern_starboard_thruster,1.0446201858202644,-0.792911554560134,0.0,0.0,0.0,0.0
2025/05/06 15:49:10.738861920,1746539350,737054178,stern_starboard_thruster,1.049576724051817,-0.7842445274599726,0.0,0.0,0.0,0.0
2025/05/06 15:49:10.898750242,1746539350,895353949,stern_starboard_thruster,1.054531380087247,-0.7921178376579129,0.0,0.0,0.0,0.0
2025/05/06 15:49:10.955551867,1746539350,953173607,stern_starboard_thruster,1.0594315349062873,-0.7834595414436758,0.0,0.0,0.0,0.0
2025/05/06 15:49:11.72720534,1746539351,70790435,stern_starboard_thruster,1.0495740228905748,-0.7913414864877955,0.0,0.0,0.0,0.0
2025/05/06 15:49:11.155773872,1746539351,154160196,stern_starboard_thruster,1.0545287086387785,-0.7826917301364297,0.0,0.0,0.0,0.0
2025/05/06 15:49:11.275655905,1746539351,274272077,stern_starboard_thruster,1.059428892843752,-0.7905821211049291,0.0,0.0,0.0,0.0
2025/05/06 15:49:11.343038926,1746539351,342055267,stern_starboard_thruster,1.0478301750224708,-0.7819407177727749,0.0,0.0,0.0,0.0
2025/05/06 15:49:11.439788439,1746539351,435593648,stern_starboard_thruster,1.0519484435370325,-0.7733943698772744,0.0,0.0,0.0,0.0
2025/05/06 15:49:11.546588400,1746539351,545024428,stern_starboard_thruster,1.0542991080819153,-0.7649420318086244,0.0,0.0,0.0,0.0
2025/05/06 15:49:11.636623373,1746539351,636177215,stern_starboard_thruster,1.0574692797920882,-0.7565826694587295,0.0,0.0,0.0,0.0
2025/05/06 15:49:11.745247649,1746539351,741251607,stern_starboard_thruster,1.0569333272090373,-0.7483152600946835,0.0,0.0,0.0,0.0
2025/05/06 15:49:11.846535837,1746539351,844101681,stern_starboard_thruster,1.061807060609738,-0.740138792233642,0.0,0.0,0.0,0.0
2025/05/06 15:49:11.939967152,1746539351,937455525,stern_starboard_thruster,1.0573112008823775,-0.7320522655190719,0.0,0.0,0.0,0.0
2025/05/06 15:49:12.101242862,1746539352,91142200,stern_starboard_thruster,1.0621807776726715,-0.7240546905983621,0.0,0.0,0.0,0.0
2025/05/06 15:49:12.165628438,1746539352,163267314,stern_starboard_thruster,1.050551789118272,-0.7161450890017801,0.0,0.0,0.0,0.0
2025/05/06 15:49:12.243710251,1746539352,241563698,stern_starboard_thruster,1.0554957194379713,-0.7247674930227604,0.0,0.0,0.0,0.0
2025/05/06 15:49:12.364027925,1746539352,361029535,stern_starboard_thruster,1.0603852665241535,-0.7168500505995101,0.0,0.0,0.0,0.0
2025/05/06 15:49:12.463255481,1746539352,460564026,stern_starboard_thruster,1.048776028592388,-0.7254647000429155,0.0,0.0,0.0,0.0
2025/05/06 15:49:12.549560337,1746539352,547639297,stern_starboard_thruster,1.0372944922778717,-0.7339845883424434,0.0,0.0,0.0,0.0
2025/05/06 15:49:12.640460233,1746539352,635844254,stern_starboard_thruster,1.042384252862815,-0.7259657578706765,0.0,0.0,0.0,0.0
2025/05/06 15:49:12.747763631,1746539352,747244206,stern_starboard_thruster,1.0369337645903187,-0.734480134534099,0.0,0.0,0.0,0.0
2025/05/06 15:49:12.863706793,1746539352,859176727,stern_starboard_thruster,1.0420274931798252,-0.7429008530542239,0.0,0.0,0.0,0.0
2025/05/06 15:49:12.949820586,1746539352,945597921,stern_starboard_thruster,1.0306201907548471,-0.7512289436706274,0.0,0.0,0.0,0.0
2025/05/06 15:49:13.52285720,1746539353,43887664,stern_starboard_thruster,1.0193383686565438,-0.7594654252902505,0.0,0.0,0.0,0.0
2025/05/06 15:49:13.151090240,1746539353,149646971,stern_starboard_thruster,1.008180646601322,-0.7676113056120578,0.0,0.0,0.0,0.0
2025/05/06 15:49:13.274337302,1746539353,273022993,stern_starboard_thruster,1.0135906594887072,-0.7756675812503251,0.0,0.0,0.0,0.0
2025/05/06 15:49:13.361527463,1746539353,357287146,stern_starboard_thruster,1.0189411622343314,-0.7836352378565715,0.0,0.0,0.0,0.0
2025/05/06 15:49:13.474311415,1746539353,473165500,stern_starboard_thruster,1.0077878094497539,-0.7750702502401492,0.0,0.0,0.0,0.0
2025/05/06 15:49:13.539527077,1746539353,538704139,stern_starboard_thruster,1.0132021435458065,-0.7830444774875076,0.0,0.0,0.0,0.0
2025/05/06 15:49:13.649750638,1746539353,646210643,stern_starboard_thruster,1.0185569199668028,-0.774485988235145,0.0,0.0,0.0,0.0
2025/05/06 15:49:13.747612351,1746539353,743191751,stern_starboard_thruster,1.0238527938471678,-0.7824666423645584,0.0,0.0,0.0,0.0
2025/05/06 15:49:13.845746889,1746539353,844436014,stern_starboard_thruster,1.012645413114849,-0.7739145092985483,0.0,0.0,0.0,0.0
2025/05/06 15:49:13.954468075,1746539353,950874209,stern_starboard_thruster,1.0015613135705856,-0.7819014496962643,0.0,0.0,0.0,0.0
2025/05/06 15:49:14.63885678,1746539354,62383565,stern_starboard_thruster,0.9905991391213091,-0.7898005337496053,0.0,0.0,0.0,0.0
2025/05/06 15:49:14.158155193,1746539354,156476554,stern_starboard_thruster,0.9797575485909746,-0.7976127278783597,0.0,0.0,0.0,0.0
2025/05/06 15:49:14.243925828,1746539354,241877282,stern_starboard_thruster,0.985480215556474,-0.7888939878716977,0.0,0.0,0.0,0.0
2025/05/06 15:49:14.345865727,1746539354,344368939,stern_starboard_thruster,0.9911399331853528,-0.7967161540051091,0.0,0.0,0.0,0.0
2025/05/06 15:49:14.468182307,1746539354,465669997,stern_starboard_thruster,0.9802923939203139,-0.7880072763110527,0.0,0.0,0.0,0.0
2025/05/06 15:49:14.540664534,1746539354,537238840,stern_starboard_thruster,0.9860091775871904,-0.7958391962716311,0.0,0.0,0.0,0.0
2025/05/06 15:49:14.667123372,1746539354,663287962,stern_starboard_thruster,0.986501792352154,-0.7871399651126432,0.0,0.0,0.0,0.0
2025/05/06 15:49:14.752451753,1746539354,750094778,stern_starboard_thruster,0.9921502726362802,-0.794981425496404,0.0,0.0,0.0,0.0
2025/05/06 15:49:14.853850661,1746539354,852698158,stern_starboard_thruster,0.9812916196372811,-0.7862916298159437,0.0,0.0,0.0,0.0
2025/05/06 15:49:14.964612612,1746539354,958939128,stern_starboard_thruster,0.970552411821271,-0.7776974218879683,0.0,0.0,0.0,0.0
2025/05/06 15:49:15.62343921,1746539355,58778610,stern_starboard_thruster,0.9599313352912371,-0.7856427502472006,0.0,0.0,0.0,0.0
2025/05/06 15:49:15.142802101,1746539355,141977149,stern_starboard_thruster,0.9658720906030336,-0.7770556799944813,0.0,0.0,0.0,0.0
2025/05/06 15:49:15.258009167,1746539355,255262316,stern_starboard_thruster,0.9717474976064001,-0.7850080675145421,0.0,0.0,0.0,0.0
2025/05/06 15:49:15.364706376,1746539355,361487908,stern_starboard_thruster,0.9775582751327297,-0.7764279787718822,0.0,0.0,0.0,0.0
2025/05/06 15:49:15.435516445,1746539355,434233765,stern_starboard_thruster,0.9668601341062697,-0.7843872710053914,0.0,0.0,0.0,0.0
2025/05/06 15:49:15.554368203,1746539355,553559912,stern_starboard_thruster,0.9727246726311007,-0.7758140110243321,0.0,0.0,0.0,0.0
2025/05/06 15:49:15.690714879,1746539355,689514478,stern_starboard_thruster,0.9785247012321587,-0.7837800569030644,0.0,0.0,0.0,0.0
2025/05/06 15:49:15.740718639,1746539355,739781375,stern_starboard_thruster,0.9787392791166543,-0.7752134762771307,0.0,0.0,0.0,0.0
2025/05/06 15:49:15.858153235,1746539355,856035464,stern_starboard_thruster,0.984473147046371,-0.7831861280380822,0.0,0.0,0.0,0.0
2025/05/06 15:49:15.969856447,1746539355,963665227,stern_starboard_thruster,0.9736989424288609,-0.7746260806296633,0.0,0.0,0.0,0.0
2025/05/06 15:49:16.42718184,1746539356,39625348,stern_starboard_thruster,0.9630432540621435,-0.7661601937427369,0.0,0.0,0.0,0.0
2025/05/06 15:49:16.154588088,1746539356,152047390,stern_starboard_thruster,0.9689497782674599,-0.7577874316115668,0.0,0.0,0.0,0.0
2025/05/06 15:49:16.267984614,1746539356,262526670,stern_starboard_thruster,0.9648646996074807,-0.7495067698638396,0.0,0.0,0.0,0.0
2025/05/06 15:49:16.344577584,1746539356,341948542,stern_starboard_thruster,0.9707511879117984,-0.7577621953953373,0.0,0.0,0.0,0.0
2025/05/06 15:49:16.444274816,1746539356,440010904,stern_starboard_thruster,0.9765729248447685,-0.7494818112459887,0.0,0.0,0.0,0.0
2025/05/06 15:49:16.553188190,1746539356,552397288,stern_starboard_thruster,0.9823306226714762,-0.7577375113222827,0.0,0.0,0.0,0.0
2025/05/06 15:49:16.641289589,1746539356,639542986,stern_starboard_thruster,0.9715799858220899,-0.7494573986977376,0.0,0.0,0.0,0.0
2025/05/06 15:49:16.776564406,1746539356,774931436,stern_starboard_thruster,0.9773926059780469,-0.7577133673120625,0.0,0.0,0.0,0.0
2025/05/06 15:49:16.900457845,1746539356,898564417,stern_starboard_thruster,0.9831412873122883,-0.7494335202716298,0.0,0.0,0.0,0.0
2025/05/06 15:49:16.948530343,1746539356,946627177,stern_starboard_thruster,0.9888267331518532,-0.7576897515486418,0.0,0.0,0.0,0.0
2025/05/06 15:49:17.37619230,1746539357,34930530,stern_starboard_thruster,0.9780046390871827,-0.7658551642816067,0.0,0.0,0.0,0.0
2025/05/06 15:49:17.146529235,1746539357,146119249,stern_starboard_thruster,0.9673015880572237,-0.757485757474509,0.0,0.0,0.0,0.0
2025/05/06 15:49:17.257263323,1746539357,254727768,stern_starboard_thruster,0.9731612705885943,-0.7656534141422894,0.0,0.0,0.0,0.0
2025/05/06 15:49:17.340864778,1746539357,336775181,stern_starboard_thruster,0.9625114966121197,-0.7572862265867242,0.0,0.0,0.0,0.0
2025/05/06 15:49:17.448665528,1746539357,446999801,stern_starboard_thruster,0.9684238701493864,-0.7654560780942703,0.0,0.0,0.0,0.0
2025/05/06 15:49:17.588318004,1746539357,584469923,stern_starboard_thruster,0.9742712075777432,-0.7570910612352333,0.0,0.0,0.0,0.0
2025/05/06 15:49:17.653506843,1746539357,652283379,stern_starboard_thruster,0.9800542242943879,-0.7652630595616456,0.0,0.0,0.0,0.0
2025/05/06 15:49:17.740109623,1746539357,738906466,stern_starboard_thruster,0.9693286278271497,-0.7569001659064675,0.0,0.0,0.0,0.0
2025/05/06 15:49:17.837752893,1746539357,834922212,stern_starboard_thruster,0.975166012921051,-0.7650742640814965,0.0,0.0,0.0,0.0
2025/05/06 15:49:17.940185619,1746539357,939403601,stern_starboard_thruster,0.9809391867789193,-0.7731584471766,0.0,0.0,0.0,0.0
2025/05/06 15:49:18.73484852,1746539358,71636942,stern_starboard_thruster,0.9702038557243512,-0.7647087042576574,0.0,0.0,0.0,0.0
2025/05/06 15:49:18.150194526,1746539358,147720177,stern_starboard_thruster,0.9595866133113833,-0.7727969085108233,0.0,0.0,0.0,0.0
2025/05/06 15:49:18.250479556,1746539358,248780856,stern_starboard_thruster,0.9655311605649581,-0.7735683237390818,0.0,0.0,0.0,0.0
2025/05/06 15:49:18.348474104,1746539358,345506475,stern_starboard_thruster,0.9549653177987436,-0.766909101776444,0.0,0.0,0.0,0.0
2025/05/06 15:49:18.465809931,1746539358,465231262,stern_starboard_thruster,0.9609606993029575,-0.7749731016569031,0.0,0.0,0.0,0.0
2025/05/06 15:49:18.579003085,1746539358,577050063,stern_starboard_thruster,0.966890131610625,-0.7665033975386771,0.0,0.0,0.0,0.0
2025/05/06 15:49:18.646310859,1746539358,643411075,stern_starboard_thruster,0.9563093401629081,-0.7745718601657516,0.0,0.0,0.0,0.0
2025/05/06 15:49:18.746036884,1746539358,744710381,stern_starboard_thruster,0.9622899374211161,-0.7661065697039284,0.0,0.0,0.0,0.0
2025/05/06 15:49:18.856787803,1746539358,854608216,stern_starboard_thruster,0.9682047481094839,-0.7741793974371852,0.0,0.0,0.0,0.0
2025/05/06 15:49:18.966476145,1746539358,963859546,stern_starboard_thruster,0.9740544958802795,-0.7821634240653762,0.0,0.0,0.0,0.0
2025/05/06 15:49:19.59962995,1746539359,56576932,stern_starboard_thruster,0.9798398964255963,-0.7900596264006571,0.0,0.0,0.0,0.0
2025/05/06 15:49:19.157244347,1746539359,156499734,stern_starboard_thruster,0.9691166575649147,-0.7978689705102499,0.0,0.0,0.0,0.0
2025/05/06 15:49:19.269988707,1746539359,268353827,stern_starboard_thruster,0.9585113743317006,-0.8055924118346371,0.0,0.0,0.0,0.0
2025/05/06 15:49:19.345209424,1746539359,340615500,stern_starboard_thruster,0.948022749214052,-0.8091154170947793,0.0,0.0,0.0,0.0
2025/05/06 15:49:19.446395665,1746539359,443661690,stern_starboard_thruster,0.9376494989726974,-0.8002701475067368,0.0,0.0,0.0,0.0
2025/05/06 15:49:19.551747147,1746539359,550429331,stern_starboard_thruster,0.9438353544839978,-0.8079671758841626,0.0,0.0,0.0,0.0
2025/05/06 15:49:19.635641146,1746539359,633571962,stern_starboard_thruster,0.9499531655846738,-0.7991345369494368,0.0,0.0,0.0,0.0
2025/05/06 15:49:19.747548869,1746539359,744261883,stern_starboard_thruster,0.9453475499725856,-0.8068440570429931,0.0,0.0,0.0,0.0
2025/05/06 15:49:19.843193577,1746539359,839627726,stern_starboard_thruster,0.9514487269228872,-0.8033781281014338,0.0,0.0,0.0,0.0
2025/05/06 15:49:19.942760702,1746539359,940252824,stern_starboard_thruster,0.9574827909267354,-0.811040968692318,0.0,0.0,0.0,0.0
2025/05/06 15:49:20.52138754,1746539360,51082480,stern_starboard_thruster,0.9470054802265413,-0.8040462036868812,0.0,0.0,0.0,0.0
2025/05/06 15:49:20.141097348,1746539360,139086264,stern_starboard_thruster,0.9366434199440494,-0.8117016954463254,0.0,0.0,0.0,0.0
2025/05/06 15:49:20.237506406,1746539360,236571676,stern_starboard_thruster,0.9428403423246648,-0.8192729767964159,0.0,0.0,0.0,0.0
2025/05/06 15:49:20.350195824,1746539360,348595813,stern_starboard_thruster,0.9325240985590935,-0.8267609740516553,0.0,0.0,0.0,0.0
2025/05/06 15:49:20.480771334,1746539360,478631139,stern_starboard_thruster,0.9387663334749435,-0.817721603337087,0.0,0.0,0.0,0.0
2025/05/06 15:49:20.535656055,1746539360,534539618,stern_starboard_thruster,0.9397949564893098,-0.8252266657003791,0.0,0.0,0.0,0.0
2025/05/06 15:49:20.657806778,1746539360,656033764,stern_starboard_thruster,0.9459572119679274,-0.8162041723776748,0.0,0.0,0.0,0.0
2025/05/06 15:49:20.754998682,1746539360,752572367,stern_starboard_thruster,0.9520516826362803,-0.8237259264815204,0.0,0.0,0.0,0.0
2025/05/06 15:49:20.841327415,1746539360,839938466,stern_starboard_thruster,0.9416341141272813,-0.8147199412902236,0.0,0.0,0.0,0.0
2025/05/06 15:49:20.947758479,1746539360,947024174,stern_starboard_thruster,0.9313311388718812,-0.8058130219360312,0.0,0.0,0.0,0.0
2025/05/06 15:49:21.69991107,1746539361,65292968,stern_starboard_thruster,0.9375864963442905,-0.8134490786947349,0.0,0.0,0.0,0.0
2025/05/06 15:49:21.149571582,1746539361,146461809,stern_starboard_thruster,0.9287727269641078,-0.8045561388290928,0.0,0.0,0.0,0.0
2025/05/06 15:49:21.253703337,1746539361,249489853,stern_starboard_thruster,0.9350562269675027,-0.8122060213019728,0.0,0.0,0.0,0.0
2025/05/06 15:49:21.353221063,1746539361,352498176,stern_starboard_thruster,0.940120214660111,-0.8033267550676512,0.0,0.0,0.0,0.0
2025/05/06 15:49:21.464934261,1746539361,464051051,stern_starboard_thruster,0.9462788922988498,-0.810990160761907,0.0,0.0,0.0,0.0
2025/05/06 15:49:21.594206814,1746539361,592029030,stern_starboard_thruster,0.9453234705831042,-0.802124268993526,0.0,0.0,0.0,0.0
2025/05/06 15:49:21.680335816,1746539361,678747762,stern_starboard_thruster,0.9490219748936701,-0.8098009020345971,0.0,0.0,0.0,0.0
2025/05/06 15:49:21.745925779,1746539361,744155519,stern_starboard_thruster,0.9550827331698397,-0.8009480921122166,0.0,0.0,0.0,0.0
2025/05/06 15:49:21.842138106,1746539361,840282142,stern_starboard_thruster,0.9446318231049715,-0.8086376630989822,0.0,0.0,0.0,0.0
2025/05/06 15:49:21.955219127,1746539361,951398452,stern_starboard_thruster,0.9507408730508168,-0.7997976488048935,0.0,0.0,0.0,0.0
2025/05/06 15:49:22.56573223,1746539362,52600835,stern_starboard_thruster,0.9403377234472577,-0.7910548746680397,0.0,0.0,0.0,0.0
2025/05/06 15:49:22.149350647,1746539362,148261058,stern_starboard_thruster,0.946494008489338,-0.7824082710466912,0.0,0.0,0.0,0.0
2025/05/06 15:49:22.241098486,1746539362,238286265,stern_starboard_thruster,0.9361375743959552,-0.7738567800651777,0.0,0.0,0.0,0.0
2025/05/06 15:49:22.353055272,1746539362,351743475,stern_starboard_thruster,0.9423400610775997,-0.7653993554844607,0.0,0.0,0.0,0.0
2025/05/06 15:49:22.437612222,1746539362,435669544,stern_starboard_thruster,0.9320293204057462,-0.7734799625741315,0.0,0.0,0.0,0.0
2025/05/06 15:49:22.546958530,1746539362,545469354,stern_starboard_thruster,0.9382769978812828,-0.7650266829858161,0.0,0.0,0.0,0.0
2025/05/06 15:49:22.648772551,1746539362,646948653,stern_starboard_thruster,0.9444559509045888,-0.7731113894729721,0.0,0.0,0.0,0.0
2025/05/06 15:49:22.741801644,1746539362,739144153,stern_starboard_thruster,0.9443842735512757,-0.7646621641887694,0.0,0.0,0.0,0.0
2025/05/06 15:49:22.877347669,1746539362,874325871,stern_starboard_thruster,0.9504960465422118,-0.7727508803826929,0.0,0.0,0.0,0.0
2025/05/06 15:49:22.960724601,1746539362,959073759,stern_starboard_thruster,0.9400955900302473,-0.7643056206984832,0.0,0.0,0.0,0.0
2025/05/06 15:49:23.67790691,1746539363,66848392,stern_starboard_thruster,0.9311662113559818,-0.7559532588708,0.0,0.0,0.0,0.0
2025/05/06 15:49:23.139727617,1746539363,139164327,stern_starboard_thruster,0.9374233830310661,-0.7476927730232211,0.0,0.0,0.0,0.0
2025/05/06 15:49:23.252941115,1746539363,249875016,stern_starboard_thruster,0.9271667258177243,-0.7559681525199656,0.0,0.0,0.0,0.0
2025/05/06 15:49:23.345513761,1746539363,343303029,stern_starboard_thruster,0.9334678918337294,-0.7477075028422461,0.0,0.0,0.0,0.0
2025/05/06 15:49:23.436338888,1746539363,434559366,stern_starboard_thruster,0.9396997450235582,-0.7559827203109813,0.0,0.0,0.0,0.0
2025/05/06 15:49:23.556744961,1746539363,556318920,stern_starboard_thruster,0.9458630478282991,-0.7477219103875605,0.0,0.0,0.0,0.0
2025/05/06 15:49:23.665780970,1746539363,660801864,stern_starboard_thruster,0.9355135543021877,-0.7559969693732973,0.0,0.0,0.0,0.0
2025/05/06 15:49:23.739976039,1746539363,737951148,stern_starboard_thruster,0.9417229052048637,-0.7518627227851667,0.0,0.0,0.0,0.0
2025/05/06 15:49:23.863760540,1746539363,861196371,stern_starboard_thruster,0.9314189532476103,-0.7436472328345299,0.0,0.0,0.0,0.0
2025/05/06 15:49:23.962017638,1746539363,959924313,stern_starboard_thruster,0.9212283447618866,-0.73552211327335,0.0,0.0,0.0,0.0
2025/05/06 15:49:24.82792110,1746539364,82380335,stern_starboard_thruster,0.9111498329695058,-0.7274863700273432,0.0,0.0,0.0,0.0
2025/05/06 15:49:24.141606557,1746539364,140797686,stern_starboard_thruster,0.9176271848068414,-0.7359840199570423,0.0,0.0,0.0,0.0
2025/05/06 15:49:24.247197227,1746539364,243686884,stern_starboard_thruster,0.907588285773966,-0.727943195737515,0.0,0.0,0.0,0.0
2025/05/06 15:49:24.352027722,1746539364,349918356,stern_starboard_thruster,0.9141048146304525,-0.7342349417472819,0.0,0.0,0.0,0.0
2025/05/06 15:49:24.441691035,1746539364,437995790,stern_starboard_thruster,0.9205496616695175,-0.7262133573880618,0.0,0.0,0.0,0.0
2025/05/06 15:49:24.548020443,1746539364,547479650,stern_starboard_thruster,0.9269236153911526,-0.7347250104567931,0.0,0.0,0.0,0.0
