time,header_stamp_secs,header_stamp_nsecs,header_frame_id,wrench_force_x,wrench_force_y,wrench_force_z,wrench_torque_x,wrench_torque_y,wrench_torque_z
2025/05/06 15:48:33.265411100,1746539313,262066989,stern_port_thruster,0.7256599311425196,0.7256599311425196,0.0,0.0,0.0,0.0
2025/05/06 15:48:33.354819194,1746539313,340594807,stern_port_thruster,0.7341776718999518,0.7341776718999518,0.0,0.0,0.0,0.0
2025/05/06 15:48:33.422624472,1746539313,421667462,stern_port_thruster,0.7261567175090522,0.7426017175090524,0.0,0.0,0.0,0.0
2025/05/06 15:48:33.506287368,1746539313,505682042,stern_port_thruster,0.7346689936164527,0.7509330986164526,0.0,0.0,0.0,0.0
2025/05/06 15:48:33.592123742,1746539313,589862023,stern_port_thruster,0.7266426346866716,0.7427278345316717,0.0,0.0,0.0,0.0
2025/05/06 15:48:33.651368000,1746539313,650640489,stern_port_thruster,0.7351495657051181,0.7510578283518232,0.0,0.0,0.0,0.0
2025/05/06 15:48:33.737089916,1746539313,736938971,stern_port_thruster,0.7271179204823618,0.7428511922399532,0.0,0.0,0.0,0.0
2025/05/06 15:48:33.838380972,1746539313,837520820,stern_port_thruster,0.7356196233570558,0.7511798291253138,0.0,0.0,0.0,0.0
2025/05/06 15:48:33.963905905,1746539313,963601469,stern_port_thruster,0.7275828075001282,0.7429718510049353,0.0,0.0,0.0,0.0
2025/05/06 15:48:34.38043130,1746539314,37000038,stern_port_thruster,0.7360793966176268,0.7348541606438811,0.0,0.0,0.0,0.0
2025/05/06 15:48:34.136077561,1746539314,135655771,stern_port_thruster,0.7280375232548328,0.7268257648767984,0.0,0.0,0.0,0.0
2025/05/06 15:48:34.242364844,1746539314,241200158,stern_port_thruster,0.7365291104990297,0.7188856814631537,0.0,0.0,0.0,0.0
2025/05/06 15:48:34.347522316,1746539314,347246119,stern_port_thruster,0.7284822902835404,0.711032938967059,0.0,0.0,0.0,0.0
2025/05/06 15:48:34.441890256,1746539314,441226605,stern_port_thruster,0.7369689850904214,0.7197115766384212,0.0,0.0,0.0,0.0
2025/05/06 15:48:34.560440025,1746539314,559652726,stern_port_thruster,0.7289173262544268,0.7118497492953987,0.0,0.0,0.0,0.0
2025/05/06 15:48:34.665481731,1746539314,663632976,stern_port_thruster,0.7373992356656283,0.7205194020531492,0.0,0.0,0.0,0.0
2025/05/06 15:48:34.758309758,1746539314,757429546,stern_port_thruster,0.7293428440733064,0.7126486886305646,0.0,0.0,0.0,0.0
2025/05/06 15:48:34.856867782,1746539314,856760369,stern_port_thruster,0.7378200727885,0.7213095530556284,0.0,0.0,0.0,0.0
2025/05/06 15:48:34.943396666,1746539314,941851514,stern_port_thruster,0.7297590519878265,0.7134301479720165,0.0,0.0,0.0,0.0
2025/05/06 15:48:35.38786739,1746539315,38377373,stern_port_thruster,0.7382317024159605,0.7220824163443242,0.0,0.0,0.0,0.0
2025/05/06 15:48:35.174063364,1746539315,172530544,stern_port_thruster,0.7301661536893849,0.7306395097645367,0.0,0.0,0.0,0.0
2025/05/06 15:48:35.237309627,1746539315,237228497,stern_port_thruster,0.7386343259988017,0.7226574751571267,0.0,0.0,0.0,0.0
2025/05/06 15:48:35.394458467,1746539315,394096647,stern_port_thruster,0.7305643484128149,0.7312082429303983,0.0,0.0,0.0,0.0
2025/05/06 15:48:35.506878217,1746539315,502727211,stern_port_thruster,0.7390281405802739,0.7232199522581639,0.0,0.0,0.0,0.0
2025/05/06 15:48:35.622735770,1746539315,617089540,stern_port_thruster,0.7309538310338909,0.7317645327833242,0.0,0.0,0.0,0.0
2025/05/06 15:48:35.743340019,1746539315,740846641,stern_port_thruster,0.7394133388925181,0.7402151229227075,0.0,0.0,0.0,0.0
2025/05/06 15:48:35.880078047,1746539315,874283345,stern_port_thruster,0.7313347921647003,0.7321277565705577,0.0,0.0,0.0,0.0
2025/05/06 15:48:36.98859484,1746539316,78527184,stern_port_thruster,0.7397901094508886,0.7405743512482816,0.0,0.0,0.0,0.0
2025/05/06 15:48:36.227562819,1746539316,202768977,stern_port_thruster,0.7317074182469289,0.7324830333845505,0.0,0.0,0.0,0.0
2025/05/06 15:48:36.341617711,1746539316,329865865,stern_port_thruster,0.7401586366462126,0.7409257200173204,0.0,0.0,0.0,0.0
2025/05/06 15:48:36.484814410,1746539316,465886094,stern_port_thruster,0.7320718916431044,0.7328305370971299,0.0,0.0,0.0,0.0
2025/05/06 15:48:36.587546594,1746539316,582130689,stern_port_thruster,0.7405191008350301,0.7412694011890615,0.0,0.0,0.0,0.0
2025/05/06 15:48:37.10976001,1746539317,10592646,stern_port_thruster,0.7324283907258449,0.7331704377759819,0.0,0.0,0.0,0.0
2025/05/06 15:48:37.237504167,1746539317,185751503,stern_port_thruster,0.7408716784278606,0.7251605629604461,0.0,0.0,0.0,0.0
2025/05/06 15:48:37.399885276,1746539317,275383627,stern_port_thruster,0.7327770899651541,0.7172387967678812,0.0,0.0,0.0,0.0
2025/05/06 15:48:37.463755548,1746539317,386595563,stern_port_thruster,0.7412165419755374,0.7094041700034345,0.0,0.0,0.0,0.0
2025/05/06 15:48:37.526761225,1746539317,482515117,stern_port_thruster,0.7331181600138065,0.7016557241333966,0.0,0.0,0.0,0.0
2025/05/06 15:48:37.686034914,1746539317,619052782,stern_port_thruster,0.7415538602536546,0.7104375111679292,0.0,0.0,0.0,0.0
2025/05/06 15:48:37.768102870,1746539317,712449558,stern_port_thruster,0.7334517677908644,0.702677698545082,0.0,0.0,0.0,0.0
2025/05/06 15:48:37.859981084,1746539317,796408871,stern_port_thruster,0.7418837983451649,0.7114482438610861,0.0,0.0,0.0,0.0
2025/05/06 15:48:37.928968363,1746539317,863726486,stern_port_thruster,0.7337780765633681,0.7036773131786141,0.0,0.0,0.0,0.0
2025/05/06 15:48:38.34106608,1746539317,986895983,stern_port_thruster,0.7422065177211711,0.7124368627336495,0.0,0.0,0.0,0.0
2025/05/06 15:48:38.109223066,1746539318,103236908,stern_port_thruster,0.7340972460262383,0.7046550572435792,0.0,0.0,0.0,0.0
2025/05/06 15:48:38.257320051,1746539318,222458931,stern_port_thruster,0.7425221763199497,0.7134038516138999,0.0,0.0,0.0,0.0
2025/05/06 15:48:38.437564688,1746539318,430091662,stern_port_thruster,0.7344094323804302,0.7056114092461471,0.0,0.0,0.0,0.0
2025/05/06 15:48:38.586033330,1746539318,574192942,stern_port_thruster,0.7428309286242454,0.7143496837444394,0.0,0.0,0.0,0.0
2025/05/06 15:48:38.793931895,1746539318,720775544,stern_port_thruster,0.7347147884093786,0.7229918372232506,0.0,0.0,0.0,0.0
2025/05/06 15:48:38.838400428,1746539318,810334497,stern_port_thruster,0.7431329257368755,0.7250044364633572,0.0,0.0,0.0,0.0
2025/05/06 15:48:38.941735278,1746539318,906289426,stern_port_thruster,0.7350134635537698,0.7170843876622603,0.0,0.0,0.0,0.0
2025/05/06 15:48:39.182737910,1746539319,63745638,stern_port_thruster,0.7434283154546784,0.7256964593979756,0.0,0.0,0.0,0.0
2025/05/06 15:48:39.253539021,1746539319,220754357,stern_port_thruster,0.7353056039846768,0.7177687983445978,0.0,0.0,0.0,0.0
2025/05/06 15:48:39.423317342,1746539319,347212787,stern_port_thruster,0.7437172423408454,0.7174797431750808,0.0,0.0,0.0,0.0
2025/05/06 15:48:39.659377635,1746539319,485486421,stern_port_thruster,0.7520363526750962,0.726087466000155,0.0,0.0,0.0,0.0
2025/05/06 15:48:39.790261870,1746539319,627124188,stern_port_thruster,0.7602639527956702,0.7248673938354047,0.0,0.0,0.0,0.0
2025/05/06 15:48:40.17857902,1746539319,798767820,stern_port_thruster,0.7684010493149178,0.7169488525032152,0.0,0.0,0.0,0.0
2025/05/06 15:48:40.195455644,1746539319,973325161,stern_port_thruster,0.7764486377724538,0.7091174151256798,0.0,0.0,0.0,0.0
2025/05/06 15:48:40.740866782,1746539320,460625673,stern_port_thruster,0.7844077027569568,0.7051982338348322,0.0,0.0,0.0,0.0
2025/05/06 15:48:41.445783516,1746539321,107396802,stern_port_thruster,0.8000641466283374,0.7127652090699033,0.0,0.0,0.0,0.0
2025/05/06 15:48:41.880811194,1746539321,503191999,stern_port_thruster,0.8077634410154256,0.7139659685324001,0.0,0.0,0.0,0.0
2025/05/06 15:48:42.68423367,1746539321,837072281,stern_port_thruster,0.815378043164256,0.7166225091895945,0.0,0.0,0.0,0.0
2025/05/06 15:48:42.860315333,1746539322,546865036,stern_port_thruster,0.8303568869578652,0.7254378882740871,0.0,0.0,0.0,0.0
2025/05/06 15:48:43.203937746,1746539322,893148892,stern_port_thruster,0.8377229612013286,0.7285650783576842,0.0,0.0,0.0,0.0
2025/05/06 15:48:43.546605196,1746539323,177819497,stern_port_thruster,0.8450080086281141,0.7325526066738189,0.0,0.0,0.0,0.0
2025/05/06 15:48:44.38372222,1746539323,796313921,stern_port_thruster,0.8593385784073396,0.7350166326965186,0.0,0.0,0.0,0.0
2025/05/06 15:48:44.222344817,1746539324,83907169,stern_port_thruster,0.866385854044859,0.7356701126902923,0.0,0.0,0.0,0.0
2025/05/06 15:48:44.402414679,1746539324,327904471,stern_port_thruster,0.8733556096503655,0.7341782510443464,0.0,0.0,0.0,0.0
2025/05/06 15:48:44.528588251,1746539324,491084336,stern_port_thruster,0.8802486979442116,0.7347856487478691,0.0,0.0,0.0,0.0
2025/05/06 15:48:44.583366032,1746539324,578782501,stern_port_thruster,0.8870659622668252,0.7346488605285763,0.0,0.0,0.0,0.0
2025/05/06 15:48:44.907229139,1746539324,903475546,stern_port_thruster,0.8938082366818901,0.7430677230627619,0.0,0.0,0.0,0.0
2025/05/06 15:48:45.78019266,1746539325,74643834,stern_port_thruster,0.9004763460783893,0.7513939781090716,0.0,0.0,0.0,0.0
2025/05/06 15:48:45.164771675,1746539325,159881186,stern_port_thruster,0.907071106271527,0.7596286443498719,0.0,0.0,0.0,0.0
2025/05/06 15:48:45.260282896,1746539325,258087518,stern_port_thruster,0.9135933241025402,0.7627998031966808,0.0,0.0,0.0,0.0
2025/05/06 15:48:45.368029226,1746539325,365498764,stern_port_thruster,0.9200437975374124,0.7644553729044485,0.0,0.0,0.0,0.0
2025/05/06 15:48:45.620028109,1746539325,616528778,stern_port_thruster,0.9099783157645008,0.7561013638024996,0.0,0.0,0.0,0.0
2025/05/06 15:48:45.703245565,1746539325,699773923,stern_port_thruster,0.9164685542910914,0.7478392488006721,0.0,0.0,0.0,0.0
2025/05/06 15:48:45.801526305,1746539325,797091847,stern_port_thruster,0.9228874001938894,0.7396680170638646,0.0,0.0,0.0,0.0
2025/05/06 15:48:45.940754150,1746539325,937636350,stern_port_thruster,0.9292356387917566,0.7315866688761621,0.0,0.0,0.0,0.0
2025/05/06 15:48:46.154105830,1746539326,145544114,stern_port_thruster,0.9355140467650473,0.7235942155185243,0.0,0.0,0.0,0.0
2025/05/06 15:48:46.237926680,1746539326,234067393,stern_port_thruster,0.9417233922506318,0.7156896791478207,0.0,0.0,0.0,0.0
2025/05/06 15:48:46.300172509,1746539326,291060434,stern_port_thruster,0.9478644349358749,0.7078720926771946,0.0,0.0,0.0,0.0
2025/05/06 15:48:46.360585629,1746539326,357504154,stern_port_thruster,0.9539379261515802,0.7001404996577455,0.0,0.0,0.0,0.0
2025/05/06 15:48:46.606784512,1746539326,603976591,stern_port_thruster,0.9599446089639129,0.7089389541615103,0.0,0.0,0.0,0.0
2025/05/06 15:48:46.682949349,1746539326,674433860,stern_port_thruster,0.9658852182653098,0.7176406256657336,0.0,0.0,0.0,0.0
2025/05/06 15:48:46.770074666,1746539326,763029158,stern_port_thruster,0.9717604808643914,0.7262465787834106,0.0,0.0,0.0,0.0
2025/05/06 15:48:46.918759246,1746539326,916509402,stern_port_thruster,0.9775711155748831,0.7347578664167931,0.0,0.0,0.0,0.0
2025/05/06 15:48:47.24264200,1746539327,17855729,stern_port_thruster,0.9833178333035594,0.7431755298862084,0.0,0.0,0.0,0.0
2025/05/06 15:48:47.118899269,1746539327,115544013,stern_port_thruster,0.9890013371372202,0.75150059905746,0.0,0.0,0.0,0.0
2025/05/06 15:48:47.212099927,1746539327,207321154,stern_port_thruster,0.9946223224287107,0.759734092467828,0.0,0.0,0.0,0.0
2025/05/06 15:48:47.287606295,1746539327,284622819,stern_port_thruster,1.000181476881995,0.7678770174506818,0.0,0.0,0.0,0.0
2025/05/06 15:48:47.415440880,1746539327,409322192,stern_port_thruster,1.005679480636293,0.7759303702587242,0.0,0.0,0.0,0.0
2025/05/06 15:48:47.490317349,1746539327,486983786,stern_port_thruster,1.0111170063492938,0.780576101744227,0.0,0.0,0.0,0.0
2025/05/06 15:48:47.574932585,1746539327,570239616,stern_port_thruster,1.0164947192794516,0.7884897646250404,0.0,0.0,0.0,0.0
2025/05/06 15:48:47.670726393,1746539327,668325682,stern_port_thruster,1.0053682773673775,0.779871377214165,0.0,0.0,0.0,0.0
2025/05/06 15:48:47.789902167,1746539327,787344670,stern_port_thruster,1.0108092263163364,0.7877927920648092,0.0,0.0,0.0,0.0
2025/05/06 15:48:47.858223971,1746539327,856491814,stern_port_thruster,1.0161903248268567,0.7956270713520963,0.0,0.0,0.0,0.0
2025/05/06 15:48:47.975934801,1746539327,975011446,stern_port_thruster,1.0215122312537612,0.7967319417073311,0.0,0.0,0.0,0.0
2025/05/06 15:48:48.90300504,1746539328,85232795,stern_port_thruster,1.0267755967099699,0.7978235179412767,0.0,0.0,0.0,0.0
2025/05/06 15:48:48.211567685,1746539328,203094902,stern_port_thruster,1.03198106514616,0.7965595737528615,0.0,0.0,0.0,0.0
2025/05/06 15:48:48.283576147,1746539328,279710841,stern_port_thruster,1.0371292734295525,0.7994487081351797,0.0,0.0,0.0,0.0
2025/05/06 15:48:48.363234197,1746539328,356733765,stern_port_thruster,1.0422208514218274,0.7955399282811643,0.0,0.0,0.0,0.0
2025/05/06 15:48:48.513591805,1746539328,496250882,stern_port_thruster,1.0472564220561873,0.7997037361549444,0.0,0.0,0.0,0.0
2025/05/06 15:48:48.633527354,1746539328,613380954,stern_port_thruster,1.0357916014135693,0.7909619950572401,0.0,0.0,0.0,0.0
2025/05/06 15:48:48.688688211,1746539328,678969760,stern_port_thruster,1.04089789379802,0.7823164131116105,0.0,0.0,0.0,0.0
2025/05/06 15:48:48.803884041,1746539328,800167679,stern_port_thruster,1.0459480169662418,0.7737659325673828,0.0,0.0,0.0,0.0
2025/05/06 15:48:48.902973376,1746539328,901740441,stern_port_thruster,1.050942588779613,0.7653095073091416,0.0,0.0,0.0,0.0
2025/05/06 15:48:48.986408837,1746539328,982894485,stern_port_thruster,1.0558822203030374,0.7569461027287411,0.0,0.0,0.0,0.0
2025/05/06 15:48:49.57199888,1746539329,54295024,stern_port_thruster,1.0607675158797039,0.7486746955987249,0.0,0.0,0.0,0.0
2025/05/06 15:48:49.181519625,1746539329,179046193,stern_port_thruster,1.0655990732050271,0.7404942739471388,0.0,0.0,0.0,0.0
2025/05/06 15:48:49.305331254,1746539329,296543507,stern_port_thruster,1.070377483399772,0.7324038369337204,0.0,0.0,0.0,0.0
2025/05/06 15:48:49.381224467,1746539329,379390082,stern_port_thruster,1.0751033310823743,0.7244023947274495,0.0,0.0,0.0,0.0
2025/05/06 15:48:49.668057404,1746539329,664501550,stern_port_thruster,1.0633321944404681,0.7212575474756098,0.0,0.0,0.0,0.0
2025/05/06 15:48:49.974901422,1746539329,960080983,stern_port_thruster,1.051690540301623,0.7133787144533781,0.0,0.0,0.0,0.0
2025/05/06 15:48:50.142004874,1746539330,138340689,stern_port_thruster,1.0566219443583051,0.7055865485943911,0.0,0.0,0.0,0.0
2025/05/06 15:48:50.279115818,1746539330,271631908,stern_port_thruster,1.0614991029703638,0.6978800965598528,0.0,0.0,0.0,0.0
2025/05/06 15:48:50.365241942,1746539330,362390510,stern_port_thruster,1.06632261283769,0.6902584154976944,0.0,0.0,0.0,0.0
2025/05/06 15:48:50.445735528,1746539330,440368420,stern_port_thruster,1.0710930640964753,0.6827205729272197,0.0,0.0,0.0,0.0
2025/05/06 15:48:50.504031917,1746539330,499096868,stern_port_thruster,1.075811040391414,0.6752656466250203,0.0,0.0,0.0,0.0
2025/05/06 15:48:50.583946709,1746539330,579833855,stern_port_thruster,1.0804771189471085,0.6843377245121451,0.0,0.0,0.0,0.0
2025/05/06 15:48:50.722445608,1746539330,715245269,stern_port_thruster,1.0850918706386903,0.6933100095425115,0.0,0.0,0.0,0.0
2025/05/06 15:48:50.795262289,1746539330,791068757,stern_port_thruster,1.0896558600616648,0.7021835994375439,0.0,0.0,0.0,0.0
2025/05/06 15:48:50.874565221,1746539330,870753109,stern_port_thruster,1.0941696456009866,0.705906513887662,0.0,0.0,0.0,0.0
2025/05/06 15:48:50.985955579,1746539330,981263520,stern_port_thruster,1.0986337794993757,0.7072009940129196,0.0,0.0,0.0,0.0
2025/05/06 15:48:51.77671536,1746539331,70922802,stern_port_thruster,1.1030488079248826,0.7064092503392075,0.0,0.0,0.0,0.0
2025/05/06 15:48:51.185603995,1746539331,180009369,stern_port_thruster,1.1074152710377088,0.7030774486679452,0.0,0.0,0.0,0.0
2025/05/06 15:48:51.284991244,1746539331,278651596,stern_port_thruster,1.1117337030562942,0.704278873262853,0.0,0.0,0.0,0.0
2025/05/06 15:48:51.455731694,1746539331,449005224,stern_port_thruster,1.1160046323226749,0.7023215101628063,0.0,0.0,0.0,0.0
2025/05/06 15:48:51.547665398,1746539331,540738842,stern_port_thruster,1.1202285813671256,0.7110959735510154,0.0,0.0,0.0,0.0
2025/05/06 15:48:51.643550369,1746539331,638154445,stern_port_thruster,1.107961066972087,0.7197739178419542,0.0,0.0,0.0,0.0
2025/05/06 15:48:51.719542951,1746539331,702270639,stern_port_thruster,1.112273495235394,0.7283564047456927,0.0,0.0,0.0,0.0
2025/05/06 15:48:51.790907526,1746539331,781789260,stern_port_thruster,1.1165384867878048,0.7368444842934901,0.0,0.0,0.0,0.0
2025/05/06 15:48:51.882931158,1746539331,877820768,stern_port_thruster,1.120756563433139,0.7452391949662618,0.0,0.0,0.0,0.0
2025/05/06 15:48:51.973559764,1746539331,971243821,stern_port_thruster,1.1249282412353743,0.753541563821633,0.0,0.0,0.0,0.0
2025/05/06 15:48:52.86796257,1746539332,82501243,stern_port_thruster,1.1290540305817853,0.761752606619595,0.0,0.0,0.0,0.0
2025/05/06 15:48:52.150931941,1746539332,149879524,stern_port_thruster,1.1331344362453857,0.7698733279467794,0.0,0.0,0.0,0.0
2025/05/06 15:48:52.299925826,1746539332,293100919,stern_port_thruster,1.1371699574466865,0.7697588983682002,0.0,0.0,0.0,0.0
2025/05/06 15:48:52.400846033,1746539332,389624931,stern_port_thruster,1.1411610879147729,0.7700692355306535,0.0,0.0,0.0,0.0
2025/05/06 15:48:52.477608769,1746539332,471805979,stern_port_thruster,1.1451083159477105,0.7704895412145824,0.0,0.0,0.0,0.0
2025/05/06 15:48:52.632727515,1746539332,624388496,stern_port_thruster,1.1325671244722855,0.762069156261222,0.0,0.0,0.0,0.0
2025/05/06 15:48:52.711509838,1746539332,702864367,stern_port_thruster,1.1366088861030905,0.7548104157799154,0.0,0.0,0.0,0.0
2025/05/06 15:48:52.812501429,1746539332,801075577,stern_port_thruster,1.1406061883559564,0.7465625012063363,0.0,0.0,0.0,0.0
2025/05/06 15:48:52.904390589,1746539332,899828068,stern_port_thruster,1.144559520284041,0.7490398765283024,0.0,0.0,0.0,0.0
2025/05/06 15:48:52.981076027,1746539332,979247247,stern_port_thruster,1.1484693655609166,0.7487529571259056,0.0,0.0,0.0,0.0
2025/05/06 15:48:53.65378609,1746539333,55893786,stern_port_thruster,1.1523362025397463,0.7491747790194088,0.0,0.0,0.0,0.0
2025/05/06 15:48:53.194270248,1746539333,190686527,stern_port_thruster,1.156160504311809,0.7481857787567252,0.0,0.0,0.0,0.0
2025/05/06 15:48:53.305606838,1746539333,304121695,stern_port_thruster,1.1599427387643793,0.7482332542416005,0.0,0.0,0.0,0.0
2025/05/06 15:48:53.382561123,1746539333,380525014,stern_port_thruster,1.163683368637971,0.7481326639031235,0.0,0.0,0.0,0.0
2025/05/06 15:48:53.465575019,1746539333,462574377,stern_port_thruster,1.1673828515829532,0.7399582046001892,0.0,0.0,0.0,0.0
2025/05/06 15:48:53.617903645,1746539333,613719354,stern_port_thruster,1.1710416402155408,0.7452707583970585,0.0,0.0,0.0,0.0
2025/05/06 15:48:53.707756812,1746539333,703323783,stern_port_thruster,1.17466018217317,0.7378188080682888,0.0,0.0,0.0,0.0
2025/05/06 15:48:53.804902545,1746539333,802355259,stern_port_thruster,1.178238920169265,0.7451298595239593,0.0,0.0,0.0,0.0
2025/05/06 15:48:53.867860200,1746539333,866110851,stern_port_thruster,1.1817782920474031,0.7369884310691956,0.0,0.0,0.0,0.0
2025/05/06 15:48:53.942269855,1746539333,940564258,stern_port_thruster,1.1852787308348816,0.7444068269688302,0.0,0.0,0.0,0.0
2025/05/06 15:48:54.61647397,1746539334,59579957,stern_port_thruster,1.188740664795698,0.736273351872173,0.0,0.0,0.0,0.0
2025/05/06 15:48:54.159598540,1746539334,158409917,stern_port_thruster,1.1921645174829452,0.744674345001579,0.0,0.0,0.0,0.0
2025/05/06 15:48:54.259660674,1746539334,259306845,stern_port_thruster,1.1955507077906327,0.7365379272065617,0.0,0.0,0.0,0.0
2025/05/06 15:48:54.354773117,1746539334,353818949,stern_port_thruster,1.1824546500049358,0.7284910100072896,0.0,0.0,0.0,0.0
2025/05/06 15:48:54.443464642,1746539334,441518166,stern_port_thruster,1.1859476488548815,0.7205326088972094,0.0,0.0,0.0,0.0
2025/05/06 15:48:54.545117955,1746539334,541741657,stern_port_thruster,1.1894022247174778,0.7156542414535051,0.0,0.0,0.0,0.0
2025/05/06 15:48:54.640819682,1746539334,638957684,stern_port_thruster,1.1928188002455855,0.7078370447975165,0.0,0.0,0.0,0.0
2025/05/06 15:48:54.749415608,1746539334,748940716,stern_port_thruster,1.196197793442884,0.7110768270314012,0.0,0.0,0.0,0.0
2025/05/06 15:48:54.884333515,1746539334,880812012,stern_port_thruster,1.1995396177150124,0.7072513113953773,0.0,0.0,0.0,0.0
2025/05/06 15:48:54.983470155,1746539334,983057220,stern_port_thruster,1.2028446819201473,0.7103071569903001,0.0,0.0,0.0,0.0
2025/05/06 15:48:55.72718751,1746539335,59787391,stern_port_thruster,1.2061133904190255,0.7071668396590391,0.0,0.0,0.0,0.0
2025/05/06 15:48:55.159098047,1746539335,156965494,stern_port_thruster,1.2093461431244164,0.7105294589789862,0.0,0.0,0.0,0.0
2025/05/06 15:48:55.255711374,1746539335,255399394,stern_port_thruster,1.2125433355500477,0.7072865203883493,0.0,0.0,0.0,0.0
2025/05/06 15:48:55.352926100,1746539335,348669950,stern_port_thruster,1.2157053588589972,0.7160063686640774,0.0,0.0,0.0,0.0
2025/05/06 15:48:55.450278524,1746539335,449516670,stern_port_thruster,1.2188325999115481,0.7230286184491207,0.0,0.0,0.0,0.0
2025/05/06 15:48:55.559706096,1746539335,558237073,stern_port_thruster,1.2219254413125211,0.7238746148704287,0.0,0.0,0.0,0.0
2025/05/06 15:48:55.639786374,1746539335,638329204,stern_port_thruster,1.2249842614580835,0.7234668181094582,0.0,0.0,0.0,0.0
2025/05/06 15:48:55.761979945,1746539335,759975999,stern_port_thruster,1.2280094345820445,0.7232456663498233,0.0,0.0,0.0,0.0
2025/05/06 15:48:55.881769746,1746539335,879013287,stern_port_thruster,1.231001330801642,0.7225795547290562,0.0,0.0,0.0,0.0
2025/05/06 15:48:55.981051105,1746539335,966740981,stern_port_thruster,1.2339603161628239,0.7223711177243486,0.0,0.0,0.0,0.0
2025/05/06 15:48:56.104159131,1746539336,102501663,stern_port_thruster,1.2368867526850327,0.7224688865016907,0.0,0.0,0.0,0.0
2025/05/06 15:48:56.217757858,1746539336,216001500,stern_port_thruster,1.2397809984054975,0.7219457294366199,0.0,0.0,0.0,0.0
2025/05/06 15:48:56.294365581,1746539336,292510140,stern_port_thruster,1.242643407423037,0.7223469298492458,0.0,0.0,0.0,0.0
2025/05/06 15:48:56.364339055,1746539336,363727731,stern_port_thruster,1.2454743299413837,0.714456113620904,0.0,0.0,0.0,0.0
2025/05/06 15:48:56.446848748,1746539336,440544451,stern_port_thruster,1.2482741123120284,0.7066520963710741,0.0,0.0,0.0,0.0
2025/05/06 15:48:56.561838501,1746539336,559931231,stern_port_thruster,1.2510430970765962,0.7016863124411173,0.0,0.0,0.0,0.0
2025/05/06 15:48:56.651728919,1746539336,646203027,stern_port_thruster,1.2537816230087537,0.70068488178026,0.0,0.0,0.0,0.0
2025/05/06 15:48:56.762391951,1746539336,758828333,stern_port_thruster,1.2564900251556572,0.7000151442290763,0.0,0.0,0.0,0.0
2025/05/06 15:48:56.859085804,1746539336,855462109,stern_port_thruster,1.259168634878945,0.7002426471136037,0.0,0.0,0.0,0.0
2025/05/06 15:48:56.955009023,1746539336,954019534,stern_port_thruster,1.2618177798952765,0.699892931767282,0.0,0.0,0.0,0.0
2025/05/06 15:48:57.49841262,1746539337,47886557,stern_port_thruster,1.2644377843164285,0.7001856160907137,0.0,0.0,0.0,0.0
2025/05/06 15:48:57.148307063,1746539337,144646407,stern_port_thruster,1.2670289686889478,0.7000039925162109,0.0,0.0,0.0,0.0
2025/05/06 15:48:57.276877179,1746539337,274806148,stern_port_thruster,1.2695916500333693,0.7004248660041921,0.0,0.0,0.0,0.0
2025/05/06 15:48:57.384322686,1746539337,382811808,stern_port_thruster,1.2721261418830023,0.7004951172040511,0.0,0.0,0.0,0.0
2025/05/06 15:48:57.449734523,1746539337,445725255,stern_port_thruster,1.2581877543222892,0.7007562459301191,0.0,0.0,0.0,0.0
2025/05/06 15:48:57.537123000,1746539337,534981633,stern_port_thruster,1.260847689024744,0.6931029272248879,0.0,0.0,0.0,0.0
2025/05/06 15:48:57.720030905,1746539337,716367265,stern_port_thruster,1.2634783644454717,0.685533795025414,0.0,0.0,0.0,0.0
2025/05/06 15:48:57.795377916,1746539337,792145278,stern_port_thruster,1.2660801024365715,0.6780479232801345,0.0,0.0,0.0,0.0
2025/05/06 15:48:57.870948528,1746539337,864720800,stern_port_thruster,1.2686532213097692,0.6706443961240529,0.0,0.0,0.0,0.0
2025/05/06 15:48:57.963342819,1746539337,957535596,stern_port_thruster,1.2711980358753616,0.6633223077666884,0.0,0.0,0.0,0.0
2025/05/06 15:48:58.60593782,1746539338,55218232,stern_port_thruster,1.2737148574807327,0.6614261708102903,0.0,0.0,0.0,0.0
2025/05/06 15:48:58.270610402,1746539338,210574903,stern_port_thruster,1.2762039940484446,0.6609094005965264,0.0,0.0,0.0,0.0
2025/05/06 15:48:58.324603493,1746539338,302736836,stern_port_thruster,1.2786657501139118,0.6606651212246155,0.0,0.0,0.0,0.0
2025/05/06 15:48:58.388246019,1746539338,387101892,stern_port_thruster,1.2811004268626587,0.660756557354944,0.0,0.0,0.0,0.0
2025/05/06 15:48:58.564837698,1746539338,561235308,stern_port_thruster,1.2835083221671695,0.6699882352240395,0.0,0.0,0.0,0.0
2025/05/06 15:48:58.660260880,1746539338,659569463,stern_port_thruster,1.2858897306233306,0.679118364636575,0.0,0.0,0.0,0.0
2025/05/06 15:48:58.716562799,1746539338,715479851,stern_port_thruster,1.271799943586474,0.6881480626255727,0.0,0.0,0.0,0.0
2025/05/06 15:48:58.767164807,1746539338,765632248,stern_port_thruster,1.2743101442070228,0.6970784339366913,0.0,0.0,0.0,0.0
2025/05/06 15:48:58.843340925,1746539338,841051262,stern_port_thruster,1.2603477326207455,0.7059105711633877,0.0,0.0,0.0,0.0
2025/05/06 15:48:58.955209743,1746539338,953128220,stern_port_thruster,1.2629839075619171,0.7146455548805905,0.0,0.0,0.0,0.0
2025/05/06 15:48:59.74751551,1746539339,73210801,stern_port_thruster,1.2655910845787361,0.723284453776904,0.0,0.0,0.0,0.0
2025/05/06 15:48:59.144170847,1746539339,143490490,stern_port_thruster,1.26816958264837,0.731828324785358,0.0,0.0,0.0,0.0
2025/05/06 15:48:59.251002934,1746539339,247870868,stern_port_thruster,1.2707197172392382,0.740278213212719,0.0,0.0,0.0,0.0
2025/05/06 15:48:59.374064510,1746539339,366572571,stern_port_thruster,1.2567968003496066,0.7321901528673792,0.0,0.0,0.0,0.0
2025/05/06 15:48:59.461956475,1746539339,456451237,stern_port_thruster,1.2549595051019329,0.724191061185838,0.0,0.0,0.0,0.0
2025/05/06 15:48:59.550164011,1746539339,548766729,stern_port_thruster,1.2576549505458114,0.7162799595127938,0.0,0.0,0.0,0.0
2025/05/06 15:48:59.655062828,1746539339,648360913,stern_port_thruster,1.2603207460898076,0.7084558799581531,0.0,0.0,0.0,0.0
2025/05/06 15:48:59.770357752,1746539339,769025773,stern_port_thruster,1.26295721788282,0.7007178652786133,0.0,0.0,0.0,0.0
2025/05/06 15:48:59.903737338,1746539339,898959804,stern_port_thruster,1.2655646884861087,0.6930649687605487,0.0,0.0,0.0,0.0
2025/05/06 15:49:00.27848232,1746539340,22469238,stern_port_thruster,1.2681434769127615,0.6854962541041826,0.0,0.0,0.0,0.0
2025/05/06 15:49:00.120843430,1746539340,112174105,stern_port_thruster,1.2706938986667211,0.6780107953090366,0.0,0.0,0.0,0.0
2025/05/06 15:49:00.224160855,1746539340,218060462,stern_port_thruster,1.2732162657813872,0.6870526765606373,0.0,0.0,0.0,0.0
2025/05/06 15:49:00.295367290,1746539340,294635621,stern_port_thruster,1.275710886857792,0.6795500971184703,0.0,0.0,0.0,0.0
2025/05/06 15:49:00.395239217,1746539340,389613354,stern_port_thruster,1.2781780671023562,0.6885750460501672,0.0,0.0,0.0,0.0
2025/05/06 15:49:00.477183002,1746539340,474809780,stern_port_thruster,1.2641731083642302,0.6851549657893503,0.0,0.0,0.0,0.0
2025/05/06 15:49:00.564320013,1746539340,560299570,stern_port_thruster,1.2503222041722237,0.6941182611656674,0.0,0.0,0.0,0.0
2025/05/06 15:49:00.649071420,1746539340,643521638,stern_port_thruster,1.2366236599263294,0.7029829602928451,0.0,0.0,0.0,0.0
2025/05/06 15:49:00.749012574,1746539340,748518469,stern_port_thruster,1.2230757996671395,0.7117501477296239,0.0,0.0,0.0,0.0
2025/05/06 15:49:00.853172556,1746539340,852300352,stern_port_thruster,1.2261219658708011,0.7039758961045981,0.0,0.0,0.0,0.0
2025/05/06 15:49:00.983672326,1746539340,982865268,stern_port_thruster,1.2291346242462222,0.7127321612474475,0.0,0.0,0.0,0.0
2025/05/06 15:49:01.45165672,1746539341,44386381,stern_port_thruster,1.2321141433795137,0.7049471074737256,0.0,0.0,0.0,0.0
2025/05/06 15:49:01.209651973,1746539341,205183787,stern_port_thruster,1.2350608878023392,0.7136926892915146,0.0,0.0,0.0,0.0
2025/05/06 15:49:01.301635545,1746539341,298916263,stern_port_thruster,1.2379752180365136,0.7058970697093079,0.0,0.0,0.0,0.0
2025/05/06 15:49:01.353094669,1746539341,351073161,stern_port_thruster,1.2408574906381118,0.7146322019425055,0.0,0.0,0.0,0.0
2025/05/06 15:49:01.459101929,1746539341,457372952,stern_port_thruster,1.2272630582410926,0.7232712477211379,0.0,0.0,0.0,0.0
2025/05/06 15:49:01.542884580,1746539341,541616624,stern_port_thruster,1.2138181646004407,0.7292429485606513,0.0,0.0,0.0,0.0
2025/05/06 15:49:01.653662021,1746539341,647773934,stern_port_thruster,1.2005211647898357,0.7230910724104606,0.0,0.0,0.0,0.0
2025/05/06 15:49:01.740276353,1746539341,738399083,stern_port_thruster,1.1873704319771476,0.7316370706139455,0.0,0.0,0.0,0.0
2025/05/06 15:49:01.848977055,1746539341,845987384,stern_port_thruster,1.190809357225399,0.7236440628371921,0.0,0.0,0.0,0.0
2025/05/06 15:49:01.947374263,1746539341,944414773,stern_port_thruster,1.1942104542959195,0.7321839781459829,0.0,0.0,0.0,0.0
2025/05/06 15:49:02.45434773,1746539342,42652139,stern_port_thruster,1.1975741392986645,0.7241849543863771,0.0,0.0,0.0,0.0
2025/05/06 15:49:02.179008667,1746539342,176351926,stern_port_thruster,1.2009008237663792,0.732718919888127,0.0,0.0,0.0,0.0
2025/05/06 15:49:02.243409028,1746539342,241367797,stern_port_thruster,1.204190914704949,0.7247140117693576,0.0,0.0,0.0,0.0
2025/05/06 15:49:02.365362874,1746539342,357917948,stern_port_thruster,1.1909998146431944,0.7193650171543196,0.0,0.0,0.0,0.0
2025/05/06 15:49:02.436192241,1746539342,434734232,stern_port_thruster,1.1779538166821193,0.727952001965622,0.0,0.0,0.0,0.0
2025/05/06 15:49:02.551517663,1746539342,549215616,stern_port_thruster,1.165051324698616,0.7201089272299782,0.0,0.0,0.0,0.0
2025/05/06 15:49:02.647691529,1746539342,647282889,stern_port_thruster,1.1522907601269312,0.7286877290304484,0.0,0.0,0.0,0.0
2025/05/06 15:49:02.743809239,1746539342,740344449,stern_port_thruster,1.156115561765535,0.7207271640111135,0.0,0.0,0.0,0.0
2025/05/06 15:49:02.864529738,1746539342,858193746,stern_port_thruster,1.1598982905861142,0.7292991652069912,0.0,0.0,0.0,0.0
2025/05/06 15:49:02.966700231,1746539342,959579474,stern_port_thruster,1.1636394093896667,0.7213318743897144,0.0,0.0,0.0,0.0
2025/05/06 15:49:03.44329469,1746539343,42601762,stern_port_thruster,1.1673393758863804,0.7298972237714274,0.0,0.0,0.0,0.0
2025/05/06 15:49:03.171287220,1746539343,169562912,stern_port_thruster,1.1709986427516303,0.7219233543099418,0.0,0.0,0.0,0.0
2025/05/06 15:49:03.273947649,1746539343,257177362,stern_port_thruster,1.1746176576813623,0.7304821974125324,0.0,0.0,0.0,0.0
2025/05/06 15:49:03.368129923,1746539343,367062945,stern_port_thruster,1.1617518634468673,0.7225018932409946,0.0,0.0,0.0,0.0
2025/05/06 15:49:03.442112189,1746539343,441966775,stern_port_thruster,1.1490275929489517,0.7310543724153437,0.0,0.0,0.0,0.0
2025/05/06 15:49:03.549896490,1746539343,549560514,stern_port_thruster,1.1364432894265133,0.7230677743187748,0.0,0.0,0.0,0.0
2025/05/06 15:49:03.636341553,1746539343,635024299,stern_port_thruster,1.1239974132428217,0.7316140288012684,0.0,0.0,0.0,0.0
2025/05/06 15:49:03.764461960,1746539343,763997586,stern_port_thruster,1.1281334416971505,0.7236212744844543,0.0,0.0,0.0,0.0
2025/05/06 15:49:03.861788224,1746539343,857253759,stern_port_thruster,1.1322239738384818,0.7321614404651254,0.0,0.0,0.0,0.0
2025/05/06 15:49:03.946622309,1746539343,944986576,stern_port_thruster,1.1362695101262588,0.7241626646200091,0.0,0.0,0.0,0.0
2025/05/06 15:49:04.53875543,1746539344,52484296,stern_port_thruster,1.1402705455148698,0.732696875309189,0.0,0.0,0.0,0.0
2025/05/06 15:49:04.182326976,1746539344,160997092,stern_port_thruster,1.1277825695142063,0.7246922096807878,0.0,0.0,0.0,0.0
2025/05/06 15:49:04.305988786,1746539344,303802992,stern_port_thruster,1.13187696124955,0.7332205953742993,0.0,0.0,0.0,0.0
2025/05/06 15:49:04.411940229,1746539344,407406548,stern_port_thruster,1.119481314675805,0.7290963421457096,0.0,0.0,0.0,0.0
2025/05/06 15:49:04.467801221,1746539344,464381175,stern_port_thruster,1.123667020214371,0.7211312823821068,0.0,0.0,0.0,0.0
2025/05/06 15:49:04.590446805,1746539344,589111992,stern_port_thruster,1.127806682992013,0.7132538382759036,0.0,0.0,0.0,0.0
2025/05/06 15:49:04.640670454,1746539344,639101592,stern_port_thruster,1.1319008094791008,0.7054630460548686,0.0,0.0,0.0,0.0
2025/05/06 15:49:04.756272785,1746539344,753151539,stern_port_thruster,1.1359499005748306,0.6977579525482651,0.0,0.0,0.0,0.0
2025/05/06 15:49:04.857280973,1746539344,854764604,stern_port_thruster,1.1235094516685076,0.6901376150702342,0.0,0.0,0.0,0.0
2025/05/06 15:49:04.940899996,1746539344,939693872,stern_port_thruster,1.127650847700154,0.6990461013044617,0.0,0.0,0.0,0.0
2025/05/06 15:49:05.57624588,1746539345,54630533,stern_port_thruster,1.1317466883754523,0.6914115941901124,0.0,0.0,0.0,0.0
2025/05/06 15:49:05.152680868,1746539345,148395191,stern_port_thruster,1.1357974748033224,0.7003060666540212,0.0,0.0,0.0,0.0
2025/05/06 15:49:05.235855443,1746539345,234301667,stern_port_thruster,1.139803702580486,0.6926576999208269,0.0,0.0,0.0,0.0
2025/05/06 15:49:05.350333403,1746539345,347020064,stern_port_thruster,1.1437658618521005,0.7015384652216978,0.0,0.0,0.0,0.0
2025/05/06 15:49:05.455758685,1746539345,452085594,stern_port_thruster,1.1312394373717274,0.6938765421042592,0.0,0.0,0.0,0.0
2025/05/06 15:49:05.535504670,1746539345,534785094,stern_port_thruster,1.1188508035606384,0.7027439001411123,0.0,0.0,0.0,0.0
2025/05/06 15:49:05.643691143,1746539345,641656941,stern_port_thruster,1.1065984447214714,0.71151371723956,0.0,0.0,0.0,0.0
2025/05/06 15:49:05.782470547,1746539345,779982162,stern_port_thruster,1.1109258618295352,0.7037420663499249,0.0,0.0,0.0,0.0
2025/05/06 15:49:05.858315071,1746539345,856975856,stern_port_thruster,1.1152056773494103,0.7044456968379756,0.0,0.0,0.0,0.0
2025/05/06 15:49:05.943530975,1746539345,941923900,stern_port_thruster,1.119438414898567,0.7028827780839582,0.0,0.0,0.0,0.0
2025/05/06 15:49:06.64014792,1746539346,60906621,stern_port_thruster,1.1236245923346828,0.6971999452041656,0.0,0.0,0.0,0.0
2025/05/06 15:49:06.148775899,1746539346,144982081,stern_port_thruster,1.1222030483251573,0.7060307458069198,0.0,0.0,0.0,0.0
2025/05/06 15:49:06.236479506,1746539346,235907376,stern_port_thruster,1.1263588147935806,0.6983194076030437,0.0,0.0,0.0,0.0
2025/05/06 15:49:06.343587055,1746539346,340274684,stern_port_thruster,1.1140238678308512,0.7071378941194101,0.0,0.0,0.0,0.0
2025/05/06 15:49:06.456685434,1746539346,455054164,stern_port_thruster,1.1031597547299163,0.7158593772840967,0.0,0.0,0.0,0.0
2025/05/06 15:49:06.540053138,1746539346,538260389,stern_port_thruster,1.0917656994762732,0.7244849241339716,0.0,0.0,0.0,0.0
2025/05/06 15:49:06.655055094,1746539346,651304339,stern_port_thruster,1.0962562767820343,0.7330155899684979,0.0,0.0,0.0,0.0
2025/05/06 15:49:06.768644300,1746539346,764656410,stern_port_thruster,1.100697457737432,0.7250074184788444,0.0,0.0,0.0,0.0
2025/05/06 15:49:06.842830356,1746539346,839662157,stern_port_thruster,1.1050897857023203,0.7335323368755772,0.0,0.0,0.0,0.0
2025/05/06 15:49:06.987371807,1746539346,985086635,stern_port_thruster,1.1094337980595947,0.7255184811699458,0.0,0.0,0.0,0.0
2025/05/06 15:49:07.42866800,1746539347,40440858,stern_port_thruster,1.113730026280939,0.7340377778770764,0.0,0.0,0.0,0.0
2025/05/06 15:49:07.143165089,1746539347,142553451,stern_port_thruster,1.117978995991849,0.7260183623204286,0.0,0.0,0.0,0.0
2025/05/06 15:49:07.246302234,1746539347,245361119,stern_port_thruster,1.1170404214661374,0.734532160334904,0.0,0.0,0.0,0.0
2025/05/06 15:49:07.360375334,1746539347,356715307,stern_port_thruster,1.12125297683001,0.72650730657122,0.0,0.0,0.0,0.0
2025/05/06 15:49:07.444403082,1746539347,441185785,stern_port_thruster,1.1089741940848796,0.7350157261989365,0.0,0.0,0.0,0.0
2025/05/06 15:49:07.559774527,1746539347,555175508,stern_port_thruster,1.096830477949946,0.7434305532107481,0.0,0.0,0.0,0.0
2025/05/06 15:49:07.648781954,1746539347,645987069,stern_port_thruster,1.0926591346208132,0.75175281712543,0.0,0.0,0.0,0.0
2025/05/06 15:49:07.755558882,1746539347,753457837,stern_port_thruster,1.0971398841399842,0.7599835361370503,0.0,0.0,0.0,0.0
2025/05/06 15:49:07.843332157,1746539347,841985048,stern_port_thruster,1.1015713454144445,0.7516787172395426,0.0,0.0,0.0,0.0
2025/05/06 15:49:07.949339173,1746539347,945851828,stern_port_thruster,1.1059540606148854,0.7599102513499076,0.0,0.0,0.0,0.0
2025/05/06 15:49:08.40736442,1746539348,39498686,stern_port_thruster,1.0938435659481218,0.7516062385850587,0.0,0.0,0.0,0.0
2025/05/06 15:49:08.185749620,1746539348,173406380,stern_port_thruster,1.0983112867226925,0.759838569960623,0.0,0.0,0.0,0.0
2025/05/06 15:49:08.262648778,1746539348,259523482,stern_port_thruster,1.0919085219324094,0.7515353456910562,0.0,0.0,0.0,0.0
2025/05/06 15:49:08.357983005,1746539348,355496763,stern_port_thruster,1.0963975281911527,0.7597684568884546,0.0,0.0,0.0,0.0
2025/05/06 15:49:08.576047839,1746539348,573090965,stern_port_thruster,1.08439215538105,0.7514660038626816,0.0,0.0,0.0,0.0
2025/05/06 15:49:08.714194958,1746539348,713252742,stern_port_thruster,1.0725188416718585,0.7432548778201921,0.0,0.0,0.0,0.0
2025/05/06 15:49:08.766808904,1746539348,765060776,stern_port_thruster,1.0772211344134681,0.73513407416417,0.0,0.0,0.0,0.0
2025/05/06 15:49:08.839754724,1746539348,838665521,stern_port_thruster,1.08187170193492,0.7271025993483642,0.0,0.0,0.0,0.0
2025/05/06 15:49:08.945244972,1746539348,942579296,stern_port_thruster,1.0864711132136358,0.7191594707555322,0.0,0.0,0.0,0.0
2025/05/06 15:49:09.37057273,1746539349,35508069,stern_port_thruster,1.0910199309682858,0.7113037165772214,0.0,0.0,0.0,0.0
2025/05/06 15:49:09.151154865,1746539349,150650968,stern_port_thruster,1.0955187117276348,0.7199793756948719,0.0,0.0,0.0,0.0
2025/05/06 15:49:09.264645502,1746539349,258962442,stern_port_thruster,1.0999680058986308,0.7121146025622284,0.0,0.0,0.0,0.0
2025/05/06 15:49:09.349365610,1746539349,348335885,stern_port_thruster,1.1043683578337458,0.7207813419340439,0.0,0.0,0.0,0.0
2025/05/06 15:49:09.673156455,1746539349,672139863,stern_port_thruster,1.0922753058975745,0.7185026001840286,0.0,0.0,0.0,0.0
2025/05/06 15:49:09.797913770,1746539349,794180115,stern_port_thruster,1.0803152775327012,0.7106540715820041,0.0,0.0,0.0,0.0
2025/05/06 15:49:09.880868112,1746539349,879807867,stern_port_thruster,1.0684868094798414,0.7028918767946022,0.0,0.0,0.0,0.0
2025/05/06 15:49:09.948123858,1746539349,946590863,stern_port_thruster,1.056788454575563,0.6952150661498615,0.0,0.0,0.0,0.0
2025/05/06 15:49:10.34088891,1746539350,33615987,stern_port_thruster,1.061663781575232,0.6876227004222131,0.0,0.0,0.0,0.0
2025/05/06 15:49:10.161126153,1746539350,158799925,stern_port_thruster,1.0664854799779042,0.6801138507175687,0.0,0.0,0.0,0.0
2025/05/06 15:49:10.250575099,1746539350,247380464,stern_port_thruster,1.0712541396981474,0.6726875983596754,0.0,0.0,0.0,0.0
2025/05/06 15:49:10.347497834,1746539350,346109517,stern_port_thruster,1.0759703441614676,0.6653430347777191,0.0,0.0,0.0,0.0
2025/05/06 15:49:10.462222142,1746539350,458563495,stern_port_thruster,1.0806346703756915,0.6663282916010355,0.0,0.0,0.0,0.0
2025/05/06 15:49:10.549844276,1746539350,545711151,stern_port_thruster,1.085247689001559,0.659053680393424,0.0,0.0,0.0,0.0
2025/05/06 15:49:10.641475449,1746539350,640144500,stern_port_thruster,1.0898099644225419,0.6683040899090965,0.0,0.0,0.0,0.0
2025/05/06 15:49:10.738844733,1746539350,737124437,stern_port_thruster,1.0943220548138939,0.6610077449200964,0.0,0.0,0.0,0.0
2025/05/06 15:49:10.898727403,1746539350,895420462,stern_port_thruster,1.0987845122109412,0.6702366597259752,0.0,0.0,0.0,0.0
2025/05/06 15:49:10.955527617,1746539350,953250857,stern_port_thruster,1.101380664690796,0.6629190564689895,0.0,0.0,0.0,0.0
2025/05/06 15:49:11.72690472,1746539351,70864539,stern_port_thruster,1.1057654773791972,0.6721269468478306,0.0,0.0,0.0,0.0
2025/05/06 15:49:11.155749185,1746539351,154234014,stern_port_thruster,1.099833098607134,0.6647885504325045,0.0,0.0,0.0,0.0
2025/05/06 15:49:11.275842796,1746539351,274346980,stern_port_thruster,1.1042349345224556,0.6739758763777469,0.0,0.0,0.0,0.0
2025/05/06 15:49:11.343019100,1746539351,342130611,stern_port_thruster,1.0921433502427085,0.6666171417375917,0.0,0.0,0.0,0.0
2025/05/06 15:49:11.439601667,1746539351,435662219,stern_port_thruster,1.0966297733900388,0.6757843531784782,0.0,0.0,0.0,0.0
2025/05/06 15:49:11.546564843,1746539351,545094892,stern_port_thruster,1.0997964716085158,0.684850725293515,0.0,0.0,0.0,0.0
2025/05/06 15:49:11.636600673,1746539351,636243703,stern_port_thruster,1.1029330594197275,0.6938173673152863,0.0,0.0,0.0,0.0
2025/05/06 15:49:11.745216987,1746539351,741319557,stern_port_thruster,1.102718237843952,0.7026853762748182,0.0,0.0,0.0,0.0
2025/05/06 15:49:11.846507109,1746539351,844204776,stern_port_thruster,1.1070883372276685,0.7114558371357953,0.0,0.0,0.0,0.0
2025/05/06 15:49:11.939947517,1746539351,937525276,stern_port_thruster,1.1019829136272956,0.7201298229273015,0.0,0.0,0.0,0.0
2025/05/06 15:49:12.101736871,1746539352,91214633,stern_port_thruster,1.1063611015773953,0.7287083948751013,0.0,0.0,0.0,0.0
2025/05/06 15:49:12.166800410,1746539352,163346590,stern_port_thruster,1.0942461294600438,0.7371926025314751,0.0,0.0,0.0,0.0
2025/05/06 15:49:12.243543609,1746539352,241639451,stern_port_thruster,1.0987094220359834,0.7291384839036289,0.0,0.0,0.0,0.0
2025/05/06 15:49:12.364005983,1746539352,361100908,stern_port_thruster,1.1031236183935875,0.737617960580689,0.0,0.0,0.0,0.0
2025/05/06 15:49:12.463233145,1746539352,460630697,stern_port_thruster,1.091044258591258,0.7295591630143013,0.0,0.0,0.0,0.0
2025/05/06 15:49:12.549548385,1746539352,547708188,stern_port_thruster,1.088169850181536,0.7215890122211441,0.0,0.0,0.0,0.0
2025/05/06 15:49:12.640437681,1746539352,635910425,stern_port_thruster,1.076254981829539,0.7301515330867114,0.0,0.0,0.0,0.0
2025/05/06 15:49:12.747732653,1746539352,747326783,stern_port_thruster,1.080916177029414,0.7221748662227576,0.0,0.0,0.0,0.0
2025/05/06 15:49:12.864121959,1746539352,859244879,stern_port_thruster,1.0690810990820905,0.7223244590570579,0.0,0.0,0.0,0.0
2025/05/06 15:49:12.949789927,1746539352,945724142,stern_port_thruster,1.0738212069921875,0.7144338900074303,0.0,0.0,0.0,0.0
2025/05/06 15:49:13.52264177,1746539353,43968834,stern_port_thruster,1.0785091737152737,0.7066301172173485,0.0,0.0,0.0,0.0
2025/05/06 15:49:13.151077885,1746539353,149718355,stern_port_thruster,1.0831455728044055,0.6989121859279577,0.0,0.0,0.0,0.0
2025/05/06 15:49:13.274310645,1746539353,273091436,stern_port_thruster,1.0855987847402029,0.6912791518827501,0.0,0.0,0.0,0.0
2025/05/06 15:49:13.359225457,1746539353,357352557,stern_port_thruster,1.0901571981080607,0.6837300812120398,0.0,0.0,0.0,0.0
2025/05/06 15:49:13.474305211,1746539353,473234056,stern_port_thruster,1.0782204689288721,0.6927090503187074,0.0,0.0,0.0,0.0
2025/05/06 15:49:13.539498902,1746539353,538771536,stern_port_thruster,1.0828600437706544,0.6851442507652016,0.0,0.0,0.0,0.0
2025/05/06 15:49:13.649727915,1746539353,646280518,stern_port_thruster,1.0874485832891772,0.6941076640067843,0.0,0.0,0.0,0.0
2025/05/06 15:49:13.747583005,1746539353,743262875,stern_port_thruster,1.0919866488729961,0.6865274797027097,0.0,0.0,0.0,0.0
2025/05/06 15:49:13.845788686,1746539353,844505304,stern_port_thruster,1.096474795735393,0.6954756774259799,0.0,0.0,0.0,0.0
2025/05/06 15:49:13.954561997,1746539353,950942628,stern_port_thruster,1.0844685729823038,0.6897284889948808,0.0,0.0,0.0,0.0
2025/05/06 15:49:14.63864692,1746539354,62455504,stern_port_thruster,1.0725944186794985,0.6821964756159372,0.0,0.0,0.0,0.0
2025/05/06 15:49:14.158126062,1746539354,156613717,stern_port_thruster,1.060850880074024,0.6747473143841619,0.0,0.0,0.0,0.0
2025/05/06 15:49:14.243904882,1746539354,241947334,stern_port_thruster,1.0492365203932097,0.683825093925936,0.0,0.0,0.0,0.0
2025/05/06 15:49:14.345840628,1746539354,344437604,stern_port_thruster,1.0541949186688844,0.6763580178927507,0.0,0.0,0.0,0.0
2025/05/06 15:49:14.468164740,1746539354,465738659,stern_port_thruster,1.0590987745635265,0.6854180796959305,0.0,0.0,0.0,0.0
2025/05/06 15:49:14.540634100,1746539354,537333421,stern_port_thruster,1.063948688043328,0.6779334808192753,0.0,0.0,0.0,0.0
2025/05/06 15:49:14.667620356,1746539354,664635292,stern_port_thruster,1.0687452524748513,0.6869762125302633,0.0,0.0,0.0,0.0
2025/05/06 15:49:14.752439411,1746539354,750172468,stern_port_thruster,1.073489054697628,0.6794744741924303,0.0,0.0,0.0,0.0
2025/05/06 15:49:14.853827456,1746539354,852774193,stern_port_thruster,1.061735675095954,0.6824336121038455,0.0,0.0,0.0,0.0
2025/05/06 15:49:14.964605929,1746539354,959077475,stern_port_thruster,1.0501115826698983,0.6914268423707032,0.0,0.0,0.0,0.0
2025/05/06 15:49:15.62318603,1746539355,58848335,stern_port_thruster,1.0386153552605295,0.6838761471046254,0.0,0.0,0.0,0.0
2025/05/06 15:49:15.142778264,1746539355,142043698,stern_port_thruster,1.0436905863526638,0.6928535094864746,0.0,0.0,0.0,0.0
2025/05/06 15:49:15.257987170,1746539355,255331376,stern_port_thruster,1.0487099899027843,0.6852871208821235,0.0,0.0,0.0,0.0
2025/05/06 15:49:15.364684607,1746539355,361673179,stern_port_thruster,1.0536741800138538,0.6942489625524201,0.0,0.0,0.0,0.0
2025/05/06 15:49:15.435487259,1746539355,434301417,stern_port_thruster,1.0421387640337014,0.6866672239643434,0.0,0.0,0.0,0.0
2025/05/06 15:49:15.554356636,1746539355,553650732,stern_port_thruster,1.0471752376293306,0.6907971370218986,0.0,0.0,0.0,0.0
2025/05/06 15:49:15.690683619,1746539355,689592053,stern_port_thruster,1.052156310015408,0.6832533685146578,0.0,0.0,0.0,0.0
2025/05/06 15:49:15.740695079,1746539355,739855026,stern_port_thruster,1.0570825906052386,0.6922375814609966,0.0,0.0,0.0,0.0
2025/05/06 15:49:15.858121092,1746539355,856305343,stern_port_thruster,1.0565053959425168,0.6846779680649256,0.0,0.0,0.0,0.0
2025/05/06 15:49:15.969831952,1746539355,963733286,stern_port_thruster,1.061383836587149,0.6936465104162115,0.0,0.0,0.0,0.0
2025/05/06 15:49:16.42702319,1746539356,39695320,stern_port_thruster,1.0497636143846905,0.6860713988016331,0.0,0.0,0.0,0.0
2025/05/06 15:49:16.154556118,1746539356,152287750,stern_port_thruster,1.0547162146264588,0.6950246134148153,0.0,0.0,0.0,0.0
2025/05/06 15:49:16.267974214,1746539356,262595101,stern_port_thruster,1.059614336265568,0.7038793426672523,0.0,0.0,0.0,0.0
2025/05/06 15:49:16.344614975,1746539356,342026453,stern_port_thruster,1.0526714667345078,0.6961916698979126,0.0,0.0,0.0,0.0
2025/05/06 15:49:16.444247429,1746539356,440080547,stern_port_thruster,1.0575920806004282,0.7050335615290355,0.0,0.0,0.0,0.0
2025/05/06 15:49:16.553293470,1746539356,552488124,stern_port_thruster,1.0624585677138234,0.6973331923522161,0.0,0.0,0.0,0.0
2025/05/06 15:49:16.641261240,1746539356,639612990,stern_port_thruster,1.0508265234689715,0.7061625272363418,0.0,0.0,0.0,0.0
2025/05/06 15:49:16.776552782,1746539356,775007240,stern_port_thruster,1.0557674317108128,0.698449739436742,0.0,0.0,0.0,0.0
2025/05/06 15:49:16.900442815,1746539356,898630568,stern_port_thruster,1.0606539899619938,0.7072667923029379,0.0,0.0,0.0,0.0
2025/05/06 15:49:16.948386351,1746539356,946694026,stern_port_thruster,1.065486796072412,0.6995418575876055,0.0,0.0,0.0,0.0
2025/05/06 15:49:17.37607841,1746539357,35114660,stern_port_thruster,1.0538214413156153,0.6992797988301936,0.0,0.0,0.0,0.0
2025/05/06 15:49:17.146506169,1746539357,146317937,stern_port_thruster,1.0587294054611436,0.6916427210430615,0.0,0.0,0.0,0.0
2025/05/06 15:49:17.257246079,1746539357,254796176,stern_port_thruster,1.047138382001071,0.7005346511115879,0.0,0.0,0.0,0.0
2025/05/06 15:49:17.340959734,1746539357,336843764,stern_port_thruster,1.0521198597990593,0.6928837699493604,0.0,0.0,0.0,0.0
2025/05/06 15:49:17.448642334,1746539357,447070102,stern_port_thruster,1.0406015413412695,0.7017620484799174,0.0,0.0,0.0,0.0
2025/05/06 15:49:17.588301540,1746539357,584543305,stern_port_thruster,1.0456549243865154,0.6940976659466384,0.0,0.0,0.0,0.0
2025/05/06 15:49:17.653916627,1746539357,652356271,stern_port_thruster,1.0506527202182638,0.7029625916212254,0.0,0.0,0.0,0.0
2025/05/06 15:49:17.740085422,1746539357,738976043,stern_port_thruster,1.0508371688542997,0.6952850031133919,0.0,0.0,0.0,0.0
2025/05/06 15:49:17.837729705,1746539357,834992100,stern_port_thruster,1.0393329599969023,0.7041368680791446,0.0,0.0,0.0,0.0
2025/05/06 15:49:17.940162496,1746539357,939471679,stern_port_thruster,1.0279552974369364,0.696446362530274,0.0,0.0,0.0,0.0
2025/05/06 15:49:18.73455531,1746539358,71708275,stern_port_thruster,1.0331477891651302,0.688840452542441,0.0,0.0,0.0,0.0
2025/05/06 15:49:18.150161685,1746539358,147789937,stern_port_thruster,1.0382831634843135,0.6813182075644741,0.0,0.0,0.0,0.0
2025/05/06 15:49:18.250461457,1746539358,248851387,stern_port_thruster,1.026917048685986,0.6738787072812649,0.0,0.0,0.0,0.0
2025/05/06 15:49:18.348535063,1746539358,345577874,stern_port_thruster,1.0321209611504403,0.6829660415011709,0.0,0.0,0.0,0.0
2025/05/06 15:49:18.465792006,1746539358,465307155,stern_port_thruster,1.0366493128115848,0.6755084150446581,0.0,0.0,0.0,0.0
2025/05/06 15:49:18.578940190,1746539358,577140678,stern_port_thruster,1.0417461703706574,0.6845778224791669,0.0,0.0,0.0,0.0
2025/05/06 15:49:18.646283160,1746539358,643481174,stern_port_thruster,1.0364627311097123,0.6771024664318961,0.0,0.0,0.0,0.0
2025/05/06 15:49:18.746014158,1746539358,744778411,stern_port_thruster,1.0415616410675055,0.6861543393011452,0.0,0.0,0.0,0.0
2025/05/06 15:49:18.855749333,1746539358,854681032,stern_port_thruster,1.046604463015763,0.6786616415688326,0.0,0.0,0.0,0.0
2025/05/06 15:49:18.966457643,1746539358,963929914,stern_port_thruster,1.0351468139225894,0.68082822986717,0.0,0.0,0.0,0.0
2025/05/06 15:49:19.59945250,1746539359,56648325,stern_port_thruster,1.023815198969441,0.673394119338631,0.0,0.0,0.0,0.0
2025/05/06 15:49:19.157216691,1746539359,156574518,stern_port_thruster,1.029053231780777,0.6660417840259061,0.0,0.0,0.0,0.0
2025/05/06 15:49:19.269955893,1746539359,268428518,stern_port_thruster,1.0342336462311885,0.6587703244016211,0.0,0.0,0.0,0.0
2025/05/06 15:49:19.345191005,1746539359,340684293,stern_port_thruster,1.0393570761226456,0.6515788508332032,0.0,0.0,0.0,0.0
2025/05/06 15:49:19.446369319,1746539359,443730107,stern_port_thruster,1.0444241482852963,0.644466483474038,0.0,0.0,0.0,0.0
2025/05/06 15:49:19.551724099,1746539359,550496017,stern_port_thruster,1.049435482654158,0.6538773521558235,0.0,0.0,0.0,0.0
2025/05/06 15:49:19.635615981,1746539359,633638148,stern_port_thruster,1.0539460575684634,0.6467397012821096,0.0,0.0,0.0,0.0
2025/05/06 15:49:19.747517068,1746539359,744330057,stern_port_thruster,1.0424076509352103,0.6561255645680063,0.0,0.0,0.0,0.0
2025/05/06 15:49:19.843182465,1746539359,839695659,stern_port_thruster,1.0474411667749228,0.6489631833577584,0.0,0.0,0.0,0.0
2025/05/06 15:49:19.942731127,1746539359,940323526,stern_port_thruster,1.0359743139403987,0.6487546991958386,0.0,0.0,0.0,0.0
2025/05/06 15:49:20.52109570,1746539360,51158706,stern_port_thruster,1.0410785964870544,0.6416733975046844,0.0,0.0,0.0,0.0
2025/05/06 15:49:20.141083196,1746539360,139168205,stern_port_thruster,1.0461267319256968,0.6346699901321329,0.0,0.0,0.0,0.0
2025/05/06 15:49:20.237484035,1746539360,236646825,stern_port_thruster,1.0509805505957264,0.6277436202406794,0.0,0.0,0.0,0.0
2025/05/06 15:49:20.350164121,1746539360,348665653,stern_port_thruster,1.048689647628284,0.620893440418032,0.0,0.0,0.0,0.0
2025/05/06 15:49:20.480759594,1746539360,478698352,stern_port_thruster,1.0536540615043728,0.6305636125734336,0.0,0.0,0.0,0.0
2025/05/06 15:49:20.535632599,1746539360,534609260,stern_port_thruster,1.0506372624622857,0.6236824128351258,0.0,0.0,0.0,0.0
2025/05/06 15:49:20.657784673,1746539360,656099469,stern_port_thruster,1.0555802525752005,0.63323279528342,0.0,0.0,0.0,0.0
2025/05/06 15:49:20.754988199,1746539360,752649057,stern_port_thruster,1.0604688697968734,0.6263222345353024,0.0,0.0,0.0,0.0
2025/05/06 15:49:20.841306138,1746539360,840011590,stern_port_thruster,1.0652771667548657,0.6359326899554142,0.0,0.0,0.0,0.0
2025/05/06 15:49:20.947805561,1746539360,947096004,stern_port_thruster,1.0536141179205623,0.6289924303659047,0.0,0.0,0.0,0.0
2025/05/06 15:49:21.69984269,1746539361,65399289,stern_port_thruster,1.058524362623436,0.6385735136318796,0.0,0.0,0.0,0.0
2025/05/06 15:49:21.149542955,1746539361,146536890,stern_port_thruster,1.0633805946345782,0.631604204981929,0.0,0.0,0.0,0.0
2025/05/06 15:49:21.253667052,1746539361,249556533,stern_port_thruster,1.0614305191852642,0.6411565587271278,0.0,0.0,0.0,0.0
2025/05/06 15:49:21.354595244,1746539361,352566043,stern_port_thruster,1.0662547834742262,0.6341588365811294,0.0,0.0,0.0,0.0
2025/05/06 15:49:21.464922644,1746539361,464129656,stern_port_thruster,1.0710259808560099,0.643683089378737,0.0,0.0,0.0,0.0
2025/05/06 15:49:21.594168726,1746539361,592099573,stern_port_thruster,1.066076658701813,0.6366575753955709,0.0,0.0,0.0,0.0
2025/05/06 15:49:21.680311792,1746539361,678816883,stern_port_thruster,1.070849815456093,0.6461543420662196,0.0,0.0,0.0,0.0
2025/05/06 15:49:21.745913359,1746539361,744228639,stern_port_thruster,1.075570467486076,0.6391016443034911,0.0,0.0,0.0,0.0
2025/05/06 15:49:21.841948103,1746539361,840361802,stern_port_thruster,1.063794192343729,0.6485715262161528,0.0,0.0,0.0,0.0
2025/05/06 15:49:21.955195300,1746539361,951468319,stern_port_thruster,1.068592456227948,0.641492239427775,0.0,0.0,0.0,0.0
2025/05/06 15:49:22.56546697,1746539362,52673306,stern_port_thruster,1.0568929392094406,0.6509358247940695,0.0,0.0,0.0,0.0
2025/05/06 15:49:22.149337791,1746539362,148330430,stern_port_thruster,1.0617671168781366,0.6602755307213347,0.0,0.0,0.0,0.0
2025/05/06 15:49:22.241068102,1746539362,238355741,stern_port_thruster,1.0665876785924773,0.6695124998834001,0.0,0.0,0.0,0.0
2025/05/06 15:49:22.353010620,1746539362,351811285,stern_port_thruster,1.07135521412796,0.6786478623846827,0.0,0.0,0.0,0.0
2025/05/06 15:49:22.437722978,1746539362,435735526,stern_port_thruster,1.0760703067725523,0.6712377358984511,0.0,0.0,0.0,0.0
2025/05/06 15:49:22.546934984,1746539362,545538051,stern_port_thruster,1.0787805980969063,0.6803541208035683,0.0,0.0,0.0,0.0
2025/05/06 15:49:22.648751880,1746539362,647021692,stern_port_thruster,1.0669690115178403,0.672925225474729,0.0,0.0,0.0,0.0
2025/05/06 15:49:22.741778438,1746539362,739215704,stern_port_thruster,1.0717323523911442,0.682023047994507,0.0,0.0,0.0,0.0
2025/05/06 15:49:22.877322076,1746539362,874404364,stern_port_thruster,1.0764432965148414,0.6745757944665673,0.0,0.0,0.0,0.0
2025/05/06 15:49:22.960705571,1746539362,959158078,stern_port_thruster,1.0646574202531782,0.6786638128888621,0.0,0.0,0.0,0.0
2025/05/06 15:49:23.67766865,1746539363,66934783,stern_port_thruster,1.0685817621634799,0.6876985109470847,0.0,0.0,0.0,0.0
2025/05/06 15:49:23.139704199,1746539363,139230845,stern_port_thruster,1.0568823627796815,0.6966338273266668,0.0,0.0,0.0,0.0
2025/05/06 15:49:23.252805346,1746539363,249939557,stern_port_thruster,1.061756656789105,0.6890258552260734,0.0,0.0,0.0,0.0
2025/05/06 15:49:23.345496734,1746539363,343369411,stern_port_thruster,1.0501323335644248,0.6979465708185866,0.0,0.0,0.0,0.0
2025/05/06 15:49:23.436307456,1746539363,434624642,stern_port_thruster,1.055080877895216,0.6903241585395822,0.0,0.0,0.0,0.0
2025/05/06 15:49:23.557089667,1746539363,556655286,stern_port_thruster,1.0599749882383689,0.6981879034475571,0.0,0.0,0.0,0.0
2025/05/06 15:49:23.665766133,1746539363,660875824,stern_port_thruster,1.0529979232688973,0.6905628365096339,0.0,0.0,0.0,0.0
2025/05/06 15:49:23.739724450,1746539363,738025238,stern_port_thruster,1.0579149461129393,0.6932513999734434,0.0,0.0,0.0,0.0
2025/05/06 15:49:23.863743997,1746539363,861266545,stern_port_thruster,1.0463328817056972,0.6900902039127981,0.0,0.0,0.0,0.0
2025/05/06 15:49:23.961987411,1746539363,959993773,stern_port_thruster,1.044206019950577,0.6989992116697573,0.0,0.0,0.0,0.0
2025/05/06 15:49:24.82768576,1746539364,82459240,stern_port_thruster,1.0327747537311205,0.7066851614111672,0.0,0.0,0.0,0.0
2025/05/06 15:49:24.141580145,1746539364,140864731,stern_port_thruster,1.0379142314400782,0.6989666246356444,0.0,0.0,0.0,0.0
2025/05/06 15:49:24.247171729,1746539364,243755701,stern_port_thruster,1.027161925771807,0.7077779917646524,0.0,0.0,0.0,0.0
2025/05/06 15:49:24.351980156,1746539364,349986285,stern_port_thruster,1.0323631445883172,0.7000474338552413,0.0,0.0,0.0,0.0
2025/05/06 15:49:24.441664272,1746539364,438066353,stern_port_thruster,1.0375071499978457,0.7088469120828336,0.0,0.0,0.0,0.0
2025/05/06 15:49:24.547996205,1746539364,547556322,stern_port_thruster,1.0425945713478693,0.7011045960499225,0.0,0.0,0.0,0.0
2025/05/06 15:49:24.652078794,1746539364,650711355,stern_port_thruster,1.0311810310630427,0.7098924454933733,0.0,0.0,0.0,0.0
2025/05/06 15:49:24.749220215,1746539364,748325950,stern_port_thruster,1.0363380397213493,0.7021386285929462,0.0,0.0,0.0,0.0
2025/05/06 15:49:24.853357275,1746539364,851893900,stern_port_thruster,1.0414383212844145,0.7109151036784238,0.0,0.0,0.0,0.0
2025/05/06 15:49:24.949002022,1746539364,943359557,stern_port_thruster,1.030037499750286,0.703150037537961,0.0,0.0,0.0,0.0
2025/05/06 15:49:25.70290443,1746539365,68536900,stern_port_thruster,1.0187620872530327,0.7055580201838391,0.0,0.0,0.0,0.0
2025/05/06 15:49:25.153794831,1746539365,152088338,stern_port_thruster,1.0240557042932494,0.6978518819618168,0.0,0.0,0.0,0.0
2025/05/06 15:49:25.282610054,1746539365,281090231,stern_port_thruster,1.0292910915460236,0.6902305112602367,0.0,0.0,0.0,0.0
2025/05/06 15:49:25.338604438,1746539365,337881328,stern_port_thruster,1.0344688895390173,0.6826929756363741,0.0,0.0,0.0,0.0
2025/05/06 15:49:25.473188782,1746539365,470633274,stern_port_thruster,1.0231447317540883,0.6752383529043741,0.0,0.0,0.0,0.0
2025/05/06 15:49:25.556350865,1746539365,555890173,stern_port_thruster,1.0283901397047932,0.6843107310224259,0.0,0.0,0.0,0.0
2025/05/06 15:49:25.659724396,1746539365,657902100,stern_port_thruster,1.0171328481680406,0.6768383129811792,0.0,0.0,0.0,0.0
2025/05/06 15:49:25.736859738,1746539365,735221495,stern_port_thruster,1.022444386838192,0.685810061135003,0.0,0.0,0.0,0.0
2025/05/06 15:49:25.850122325,1746539365,848718879,stern_port_thruster,1.011252498582972,0.6783211504625178,0.0,0.0,0.0,0.0
2025/05/06 15:49:25.945558581,1746539365,944948476,stern_port_thruster,1.0166287210985592,0.6830334763252066,0.0,0.0,0.0,0.0
2025/05/06 15:49:26.37920792,1746539366,35509486,stern_port_thruster,1.005500805166475,0.6755751080856293,0.0,0.0,0.0,0.0
2025/05/06 15:49:26.151574962,1746539366,146145034,stern_port_thruster,1.0109402963096439,0.6846437818966874,0.0,0.0,0.0,0.0
2025/05/06 15:49:26.245096592,1746539366,242426024,stern_port_thruster,0.9998749530502378,0.6771677002958237,0.0,0.0,0.0,0.0
2025/05/06 15:49:26.342646525,1746539366,340407225,stern_port_thruster,1.005376328566685,0.6862188555925697,0.0,0.0,0.0,0.0
2025/05/06 15:49:26.481900481,1746539366,480192752,stern_port_thruster,1.0108171889524515,0.6787254481810514,0.0,0.0,0.0,0.0
2025/05/06 15:49:26.580263209,1746539366,575788491,stern_port_thruster,1.0107162802396217,0.6877594682510599,0.0,0.0,0.0,0.0
2025/05/06 15:49:26.649529392,1746539366,648565944,stern_port_thruster,1.0159534295113128,0.6802491141002983,0.0,0.0,0.0,0.0
2025/05/06 15:49:26.751964881,1746539366,747500761,stern_port_thruster,1.0048329417866884,0.689266373845195,0.0,0.0,0.0,0.0
