time,header_stamp_secs,header_stamp_nsecs,header_frame_id,wrench_force_x,wrench_force_y,wrench_force_z,wrench_torque_x,wrench_torque_y,wrench_torque_z
2025/04/09 08:48:16.904859500,1744181296,904366105,,-0.3161163628101349,0.4838370084762574,0.0,0.0,0.0,-0.3077603578567506
2025/04/09 08:48:17.23179105,1744181297,17187136,,-0.31628412008285506,0.4837658107280732,0.0,0.0,0.0,-0.3071857690811158
2025/04/09 08:48:17.111667358,1744181297,109593888,,-0.31645190715789806,0.48369455337524425,0.0,0.0,0.0,-0.3066111803054807
2025/04/09 08:48:17.204296716,1744181297,204039899,,-0.3166196942329406,0.4836232662200928,0.0,0.0,0.0,-0.3060365915298462
2025/04/09 08:48:17.305502941,1744181297,305282440,,-0.37124314904210964,-0.8098891973493529,0.0,0.0,0.0,-0.3921061754227875
2025/04/09 08:48:17.404038966,1744181297,403810568,,-0.3771980702875328,-0.6072990894303867,0.0,0.0,0.0,-0.3284938633462141
2025/04/09 08:48:17.506891756,1744181297,506703365,,-0.3773718178272248,-0.6074427366256714,0.0,0.0,0.0,-0.32792919874191306
2025/04/09 08:48:17.621408722,1744181297,614595324,,-0.3675092756695164,0.9598702191743946,0.0,0.0,0.0,-0.3384817837701338
2025/04/09 08:48:17.726296985,1744181297,715518736,,-0.3676823079586028,0.9598718285560607,0.0,0.0,0.0,-0.33791804313659646
2025/04/09 08:48:17.875051244,1744181297,822637116,,-0.3359444439398658,-0.6053935289376495,0.0,0.0,0.0,-0.3169379234332623
2025/04/09 08:48:17.945134430,1744181297,913330185,,-0.33611416816711426,-0.6055344939231873,0.0,0.0,0.0,-0.3163700997829437
2025/04/09 08:48:18.30695549,1744181298,14651871,,-0.3362838625907898,-0.6056755185127258,0.0,0.0,0.0,-0.3158022463321687
2025/04/09 08:48:18.105160473,1744181298,104351512,,-0.3060292899608611,-0.6725568771362269,0.0,0.0,0.0,-0.29368013143539895
2025/04/09 08:48:18.225724212,1744181298,224134737,,-0.27453142404553954,-2.033670186996186,0.0,0.0,0.0,-0.29217171669059105
2025/04/09 08:48:18.304791047,1744181298,304554989,,-0.2746936678886416,-2.033970117568967,0.0,0.0,0.0,-0.29159563779831554
2025/04/09 08:48:18.407880909,1744181298,404601854,,-0.2748558819293979,-2.0342702865600586,0.0,0.0,0.0,-0.2910195589065556
2025/04/09 08:48:18.507426110,1744181298,505976182,,-0.23972305655409487,-2.8835024833566143,0.0,0.0,0.0,-0.296061456201969
2025/04/09 08:48:18.605324315,1744181298,605066739,,-0.30050778388977073,-1.7533725500106807,0.0,0.0,0.0,-0.29519093036651656
2025/04/09 08:48:18.706651113,1744181298,706394653,,-0.3006712794303894,-1.7537025213241575,0.0,0.0,0.0,-0.2946154475212093
2025/04/09 08:48:18.814334812,1744181298,812347858,,-0.2656579315642156,0.5211628675450883,0.0,0.0,0.0,-0.4817482829059843
2025/04/09 08:48:18.905517040,1744181298,904412147,,-0.2249720245599598,-0.4964456558227283,0.0,0.0,0.0,-0.5385782718658151
2025/04/09 08:48:19.5392926,1744181299,5121930,,-0.22512733936309814,-0.496634066104889,0.0,0.0,0.0,-0.5380722880363467
2025/04/09 08:48:19.104790526,1744181299,104592626,,-0.2020559757947921,-0.28566169738769465,0.0,0.0,0.0,-0.5149556994438184
2025/04/09 08:48:19.213302780,1744181299,213062243,,-0.15094913542270488,0.12911126017570385,0.0,0.0,0.0,-0.41181549429893277
2025/04/09 08:48:19.304365696,1744181299,304136236,,-0.15109515190124514,0.12899674475193026,0.0,0.0,0.0,-0.41127669811248774
2025/04/09 08:48:19.406279188,1744181299,406052915,,-0.18284206092356428,1.7139464616774056,0.0,0.0,0.0,-0.4088530242440308
2025/04/09 08:48:19.508752823,1744181299,508516321,,-0.21113339066487644,0.1185213476404517,0.0,0.0,0.0,-0.3461227416966606
2025/04/09 08:48:19.605289121,1744181299,603594359,,-0.21128459274768827,0.11844454705715159,0.0,0.0,0.0,-0.34556877613067594
2025/04/09 08:48:19.703969511,1744181299,703730873,,-0.2274687439203185,-0.0854979455471056,0.0,0.0,0.0,-0.35808494687079506
2025/04/09 08:48:19.813742984,1744181299,808431814,,-0.2276216596364975,-0.08559182286262518,0.0,0.0,0.0,-0.357530951499939
2025/04/09 08:48:19.904614551,1744181299,904428217,,-0.22886605560779236,0.040862429887052895,0.0,0.0,0.0,-0.3101294338703087
2025/04/09 08:48:20.5471137,1744181300,5221203,,-0.2256745248864703,1.4698621032730856,0.0,0.0,0.0,-0.2815519865886266
2025/04/09 08:48:20.107835927,1744181300,107554767,,-0.22582739591598502,1.4699189662933354,0.0,0.0,0.0,-0.2809779345989231
2025/04/09 08:48:20.206082134,1744181300,205866375,,-0.22224259376525263,1.173782825469796,0.0,0.0,0.0,-0.2910257279870428
2025/04/09 08:48:20.304540842,1744181300,303930027,,-0.21791066229341963,0.8284359574316134,0.0,0.0,0.0,-0.2730180919167871
2025/04/09 08:48:20.404258063,1744181300,404052692,,-0.21806269884109505,0.8284590840339658,0.0,0.0,0.0,-0.27244278788566606
2025/04/09 08:48:20.506504754,1744181300,505623657,,-0.22680294513695448,-1.121889591215973,0.0,0.0,0.0,-0.28587555885433624
2025/04/09 08:48:20.605459228,1744181300,605221061,,-0.22352813184253625,0.44387599825854157,0.0,0.0,0.0,-0.24518525600423435
2025/04/09 08:48:20.704495380,1744181300,704326286,,-0.22368073463439933,0.44384789466857916,0.0,0.0,0.0,-0.2446023970842361
2025/04/09 08:48:20.806039333,1744181300,805814960,,-0.21465708315372387,0.3410055339336354,0.0,0.0,0.0,-0.259329259395594
2025/04/09 08:48:20.906267515,1744181300,906074807,,-0.1788879781961435,0.25656586885452104,0.0,0.0,0.0,-0.32216107845306174
2025/04/09 08:48:21.6825267,1744181301,5025676,,-0.179035633802414,0.25652304291725153,0.0,0.0,0.0,-0.3215951621532442
2025/04/09 08:48:21.108297455,1744181301,108077605,,-0.1656758636236837,-1.4742624759605523,0.0,0.0,0.0,-0.3486054539714334
2025/04/09 08:48:21.207144977,1744181301,205967931,,-0.16582156717777252,-1.4744725227355957,0.0,0.0,0.0,-0.3480492830276489
2025/04/09 08:48:21.305857843,1744181301,305619218,,-0.16388851404188687,-1.0902260541913644,0.0,0.0,0.0,-0.34170690178873464
2025/04/09 08:48:21.409620029,1744181301,407317154,,-0.16632415354251834,-0.987431645393354,0.0,0.0,0.0,-0.3605540096759896
2025/04/09 08:48:21.504360075,1744181301,504166725,,-0.16646924614906283,-0.9876249432563782,0.0,0.0,0.0,-0.36000004410743713
2025/04/09 08:48:21.606599735,1744181301,606376661,,-0.15392771362381766,1.150736451059309,0.0,0.0,0.0,-0.3494848905428112
2025/04/09 08:48:21.705389352,1744181301,703873915,,-0.15407116711139682,1.1507452726364136,0.0,0.0,0.0,-0.3489315807819369
2025/04/09 08:48:21.806823363,1744181301,806548581,,-0.07807220519949717,2.3323740957287544,0.0,0.0,0.0,-0.3851926922117806
2025/04/09 08:48:21.905673089,1744181301,905443531,,-0.09309334307909009,0.38878637552261347,0.0,0.0,0.0,-0.3695746958255767
2025/04/09 08:48:22.6712257,1744181302,5730264,,-0.09322909265750526,0.38876619934988454,0.0,0.0,0.0,-0.3690281808368133
2025/04/09 08:48:22.105022149,1744181302,104739767,,-0.12254837900396423,-0.061568513512643655,0.0,0.0,0.0,-0.30169534683220794
2025/04/09 08:48:22.205597302,1744181302,204633501,,-0.14311231672763824,-0.09962051361799242,0.0,0.0,0.0,-0.26809561252594
2025/04/09 08:48:22.303813854,1744181302,303589234,,-0.14325281977653506,-0.09969443082809448,0.0,0.0,0.0,-0.26752072572708124
2025/04/09 08:48:22.405302169,1744181302,405054382,,-0.13878920673530923,1.2477685212191845,0.0,0.0,0.0,-0.27655485256458423
2025/04/09 08:48:22.506643696,1744181302,506428842,,-0.13322529196737615,-0.4642186164855824,0.0,0.0,0.0,-0.2849166691303453
2025/04/09 08:48:22.604561595,1744181302,604328023,,-0.13336479663848885,-0.46432229876518244,0.0,0.0,0.0,-0.284346789121628
2025/04/09 08:48:22.705554215,1744181302,705229962,,-0.13356816768645757,-0.6718020439133277,0.0,0.0,0.0,-0.29025602340906287
2025/04/09 08:48:22.811224668,1744181302,808934026,,-0.1337076574563979,-0.6719363331794739,0.0,0.0,0.0,-0.2896861433982847
2025/04/09 08:48:22.903700689,1744181302,903502314,,-0.1428578644990681,-0.4948569834229841,0.0,0.0,0.0,-0.2727974355224054
2025/04/09 08:48:23.12426810,1744181303,12270184,,-0.13819038867914404,1.0267928838695295,0.0,0.0,0.0,-0.2785874009077662
2025/04/09 08:48:23.107310928,1744181303,106914340,,-0.13833037018775923,1.0268034934997556,0.0,0.0,0.0,-0.2780144214630125
2025/04/09 08:48:23.205870022,1744181303,205392707,,-0.13207329809587365,0.8507809042869201,0.0,0.0,0.0,-0.26730394362491877
2025/04/09 08:48:23.305395981,1744181303,305155865,,-0.12171316891801792,0.6250165700842059,0.0,0.0,0.0,-0.2572580873863012
2025/04/09 08:48:23.406537337,1744181303,405471112,,-0.12185127288103102,0.6250100731849669,0.0,0.0,0.0,-0.25668010115623496
2025/04/09 08:48:23.508375670,1744181303,507833250,,-0.11861940473315502,-1.2221499681463084,0.0,0.0,0.0,-0.2576781213286319
2025/04/09 08:48:23.607186447,1744181303,605567638,,-0.11875703930854797,-1.2223299741744997,0.0,0.0,0.0,-0.2570995092391968
2025/04/09 08:48:23.706481845,1744181303,705469971,,-0.10744433104959646,0.3768614530562721,0.0,0.0,0.0,-0.24255990982021655
2025/04/09 08:48:23.805757079,1744181303,805451777,,-0.09534780681131223,0.0011853566392904158,0.0,0.0,0.0,-0.2656287252902428
2025/04/09 08:48:23.905237100,1744181303,904778903,,-0.09548251330852507,0.0011038655648008013,0.0,0.0,0.0,-0.26505213975906367
2025/04/09 08:48:24.7513952,1744181304,7237392,,-0.07406683266158141,1.8004426956171644,0.0,0.0,0.0,-0.26453620195292077
2025/04/09 08:48:24.124283505,1744181304,122821715,,14.357502524952242,2.5684321271522306,0.0,0.0,0.0,-1.4087383747045248
2025/04/09 08:48:24.215576866,1744181304,215086520,,31.210678141999566,3.2308952808349227,0.0,0.0,0.0,-0.979237854498253
2025/04/09 08:48:24.315794750,1744181304,314534677,,48.639512672285754,0.7162558436534727,0.0,0.0,0.0,-0.6812146902086802
2025/04/09 08:48:24.412107234,1744181304,411881524,,69.02839251741776,0.5185996890052937,0.0,0.0,0.0,-0.512281537055923
2025/04/09 08:48:24.514708556,1744181304,512582709,,90.79307920992048,-0.16283540425673237,0.0,0.0,0.0,-0.42548328648734923
2025/04/09 08:48:24.615758139,1744181304,614188527,,113.1860682271122,0.4767502248280575,0.0,0.0,0.0,-0.3208413422107128
2025/04/09 08:48:24.710951045,1744181304,710751779,,121.7116165161133,0.4957863390445727,0.0,0.0,0.0,-0.3280240297317434
2025/04/09 08:48:24.812292799,1744181304,812135392,,121.99930572509427,-0.8939460515949129,0.0,0.0,0.0,-0.3747514188349186
2025/04/09 08:48:24.916241829,1744181304,915998210,,122.33082580566406,-0.8222647905349696,0.0,0.0,0.0,-0.4234301745891571
2025/04/09 08:48:25.8890976,1744181305,7190928,,122.6273422241178,-0.0653059110045223,0.0,0.0,0.0,-0.4082404673098452
2025/04/09 08:48:25.108902318,1744181305,108650448,,122.84249114988484,-0.7390441298484677,0.0,0.0,0.0,-0.4949870705605335
2025/04/09 08:48:25.207947589,1744181305,207581496,,123.2448577879913,-0.6417230367662241,0.0,0.0,0.0,-0.5618182420730946
2025/04/09 08:48:25.307848461,1744181305,307540989,,123.39392089841328,0.22221185267915672,0.0,0.0,0.0,-0.4597194492773369
2025/04/09 08:48:25.408243574,1744181305,407992452,,123.43669891354509,-0.6502432823196868,0.0,0.0,0.0,-0.427726835010084
2025/04/09 08:48:25.508021324,1744181305,507515304,,123.91005706786947,-0.5520208477974758,0.0,0.0,0.0,-0.4921670854090152
2025/04/09 08:48:25.607740440,1744181305,607502817,,123.85835266113281,1.8093998432159373,0.0,0.0,0.0,-0.58725959062577
2025/04/09 08:48:25.707108897,1744181305,706880110,,123.7859649658202,1.3554607629776212,0.0,0.0,0.0,-0.5463848114014169
2025/04/09 08:48:25.806320156,1744181305,806067341,,124.23102569580044,0.9532493352890485,0.0,0.0,0.0,-0.5287204384804767
2025/04/09 08:48:25.905579938,1744181305,905042774,,123.88869476318067,2.382096290590977,0.0,0.0,0.0,-0.6552183031957526
2025/04/09 08:48:26.5188454,1744181306,4898193,,124.48061370849607,2.467244863510132,0.0,0.0,0.0,-0.7050563097000051
2025/04/09 08:48:26.105566960,1744181306,105423586,,124.184577941865,3.8752801418620457,0.0,0.0,0.0,-0.1888267546042286
2025/04/09 08:48:26.213490927,1744181306,213122940,,123.97646331786905,2.1429274082206944,0.0,0.0,0.0,-0.0452095232848535
2025/04/09 08:48:26.304887784,1744181306,304689032,,124.63921356201169,2.220908164978027,0.0,0.0,0.0,-0.08519282191991806
2025/04/09 08:48:26.409102714,1744181306,408909964,,124.22611999509434,4.067065238977348,0.0,0.0,0.0,-0.044023293936767516
2025/04/09 08:48:26.505982153,1744181306,505785496,,124.93627929687497,4.139858722686775,0.0,0.0,0.0,-0.07824742794032602
2025/04/09 08:48:26.605653056,1744181306,605458082,,124.74658966064453,3.9262113571167,0.0,0.0,0.0,-0.17984484136103873
2025/04/09 08:48:26.705709543,1744181306,705061909,,124.57402038574219,3.8425753116607675,0.0,0.0,0.0,0.039425831288106394
2025/04/09 08:48:26.805756169,1744181306,805137547,,125.35530090332031,3.9080507755279568,0.0,0.0,0.0,0.012980004772565223
2025/04/09 08:48:26.905091667,1744181306,904729086,,125.18420410156249,3.5904703140258887,0.0,0.0,0.0,-0.14774486422538047
2025/04/09 08:48:27.8404275,1744181307,7355616,,125.01132202148438,3.502171039581299,0.0,0.0,0.0,0.15492649376393075
2025/04/09 08:48:27.105240825,1744181307,105028604,,125.80300903320312,3.3491804599761976,0.0,0.0,0.0,0.30646130442618613
2025/04/09 08:48:27.208652888,1744181307,208412602,,125.17581176754837,1.7896394729958924,0.0,0.0,0.0,0.1184414328016743
2025/04/09 08:48:27.304282108,1744181307,304060615,,126.07553100585935,1.8454283475875854,0.0,0.0,0.0,0.10308533906937356
2025/04/09 08:48:27.404998445,1744181307,404777619,,125.72938537596741,2.88257408143014,0.0,0.0,0.0,0.8012304902334577
2025/04/09 08:48:27.506393806,1744181307,506156494,,125.49362945556638,3.473010301589982,0.0,0.0,0.0,1.044487357139701
2025/04/09 08:48:27.606091888,1744181307,605155887,,126.4641418457031,3.5269842147827197,0.0,0.0,0.0,1.0358390808105682
2025/04/09 08:48:27.705664993,1744181307,705420494,,126.26341247558236,2.3197026252787722,0.0,0.0,0.0,0.9109800458056299
2025/04/09 08:48:27.806803651,1744181307,806418163,,126.10649108884093,4.343217372911431,0.0,0.0,0.0,1.082316398673889
2025/04/09 08:48:27.908704204,1744181307,905919091,,127.14813995361243,4.3929553031929265,0.0,0.0,0.0,1.078323245050811
2025/04/09 08:48:28.8216132,1744181308,7974002,,127.00929260253906,3.0526010990142822,0.0,0.0,0.0,0.8999897837638642
2025/04/09 08:48:28.105176945,1744181308,104905666,,128.0984191894531,3.0997238159179683,0.0,0.0,0.0,0.8987526297569204
2025/04/09 08:48:28.207382433,1744181308,206748858,,127.61184692382812,2.9065647125244127,0.0,0.0,0.0,1.5831823348999237
2025/04/09 08:48:28.310647372,1744181308,310397725,,127.45883941650307,4.300927162171194,0.0,0.0,0.0,1.9226115942022872
2025/04/09 08:48:28.409731117,1744181308,409493069,,128.6187133789062,4.348701477050821,0.0,0.0,0.0,1.9268592596055214
2025/04/09 08:48:28.506974754,1744181308,505567836,,128.49681091308275,4.9948964118989645,0.0,0.0,0.0,1.7965819835752157
2025/04/09 08:48:28.604992239,1744181308,604761724,,128.32571411132804,5.514806270599453,0.0,0.0,0.0,2.1291394233706384
2025/04/09 08:48:28.708083059,1744181308,705155831,,129.556655883789,5.560668468475418,0.0,0.0,0.0,2.1369633674623785
2025/04/09 08:48:28.807724613,1744181308,807339490,,129.38914489746085,5.495304107666119,0.0,0.0,0.0,1.9401265382769708
2025/04/09 08:48:28.905490268,1744181308,905263321,,129.2200469970578,4.472784996044968,0.0,0.0,0.0,2.6883451938965877
2025/04/09 08:48:29.5347108,1744181309,5175767,,130.52189636230233,4.518709182741521,0.0,0.0,0.0,2.7001914978090937
2025/04/09 08:48:29.108129691,1744181309,107861359,,129.88508605957023,5.682590484619116,0.0,0.0,0.0,3.4117987155914378
2025/04/09 08:48:29.206475159,1744181309,206279742,,131.23394775390622,5.731410026550324,0.0,0.0,0.0,3.4273636341095894
2025/04/09 08:48:29.306717774,1744181309,306468092,,131.19042968749977,4.5373253822328445,0.0,0.0,0.0,3.311264514923579
2025/04/09 08:48:29.413291795,1744181309,408677929,,132.58676147460923,4.585168361663946,0.0,0.0,0.0,3.328550100326943
2025/04/09 08:48:29.505786042,1744181309,505174534,,132.6409759521478,3.7344403266912325,0.0,0.0,0.0,3.677940130235413
2025/04/09 08:48:29.606670813,1744181309,605892143,,132.2238311767553,6.2927780151339805,0.0,0.0,0.0,3.422289848321576
2025/04/09 08:48:29.709316160,1744181309,709072497,,133.6912078857422,6.34000492095949,0.0,0.0,0.0,3.4420673847198913
2025/04/09 08:48:29.809867452,1744181309,809665770,,133.75010681152338,7.6624555587767995,0.0,0.0,0.0,4.752568244933997
2025/04/09 08:48:29.907900136,1744181309,907650029,,133.7501220703125,8.591702461242674,0.0,0.0,0.0,5.365220069885261
2025/04/09 08:48:30.10964701,1744181310,9132139,,135.28770446777344,8.647239685058599,0.0,0.0,0.0,5.391560554504402
2025/04/09 08:48:30.106690612,1744181310,106413867,,135.4341583251953,9.997744560241697,0.0,0.0,0.0,5.2208232879638885
2025/04/09 08:48:30.208946741,1744181310,208735536,,137.0192108154297,10.053297042846687,0.0,0.0,0.0,5.248595237731955
2025/04/09 08:48:30.309555797,1744181310,309309196,,136.53103637695312,9.615921020507821,0.0,0.0,0.0,5.860779762268088
2025/04/09 08:48:30.404852136,1744181310,404660420,,136.5433349609375,9.271182060241705,0.0,0.0,0.0,5.5415048599243235
2025/04/09 08:48:30.507602476,1744181310,506881014,,138.19924926757812,9.327986717224128,0.0,0.0,0.0,5.571932792663581
2025/04/09 08:48:30.607494361,1744181310,606277596,,138.19442749023438,9.73509883880615,0.0,0.0,0.0,7.206428527832038
2025/04/09 08:48:30.707399863,1744181310,705019160,,138.33187866210938,9.769566535949712,0.0,0.0,0.0,8.090627670288086
2025/04/09 08:48:30.804682887,1744181310,804470376,,140.0572967529297,9.83888149261475,0.0,0.0,0.0,8.129213333129897
2025/04/09 08:48:30.906059464,1744181310,905836314,,140.4053192138672,9.001425743103031,0.0,0.0,0.0,7.871538639068589
2025/04/09 08:48:31.12480961,1744181311,12254267,,142.17819213867188,9.071168899536138,0.0,0.0,0.0,7.911465167999289
2025/04/09 08:48:31.105206039,1744181311,104996037,,142.05337524414062,9.46080780029297,0.0,0.0,0.0,8.865986824035652
2025/04/09 08:48:31.207533308,1744181311,207273732,,142.28765869140625,10.546133041381834,0.0,0.0,0.0,9.793490409851074
2025/04/09 08:48:31.310266029,1744181311,310008388,,144.1302490234375,10.625613212585451,0.0,0.0,0.0,9.839834213256843
2025/04/09 08:48:31.409101908,1744181311,407863476,,144.48809814453125,12.544985771179192,0.0,0.0,0.0,9.552580833435066
2025/04/09 08:48:31.506870116,1744181311,506116937,,144.74801635742188,12.767841339111335,0.0,0.0,0.0,10.525789260864272
2025/04/09 08:48:31.610708695,1744181311,608737850,,146.6612548828125,12.851276397705082,0.0,0.0,0.0,10.575373649597175
2025/04/09 08:48:31.706905923,1744181311,706479987,,146.2930908203125,15.203329086303688,0.0,0.0,0.0,12.192453384399379
2025/04/09 08:48:31.804894114,1744181311,804677193,,148.25172424316406,15.299155235290533,0.0,0.0,0.0,12.2491006851196
2025/04/09 08:48:31.911312921,1744181311,911000792,,148.62086486816406,15.654742240905767,0.0,0.0,0.0,11.999099731445312
2025/04/09 08:48:32.10063814,1744181312,7130764,,150.62689208984375,15.751889228820804,0.0,0.0,0.0,12.057157516479492
2025/04/09 08:48:32.105420388,1744181312,104489844,,151.00062561035156,15.358922004699714,0.0,0.0,0.0,13.130601882934556
2025/04/09 08:48:32.205349909,1744181312,205122393,,150.88905334472656,14.726110458374029,0.0,0.0,0.0,12.556197166442885
2025/04/09 08:48:32.304668982,1744181312,304422896,,152.9654998779297,14.827630996704107,0.0,0.0,0.0,12.617591857910185
2025/04/09 08:48:32.408085345,1744181312,407538957,,153.2665557861328,16.07711601257324,0.0,0.0,0.0,15.957307815551758
2025/04/09 08:48:32.506736708,1744181312,506460620,,153.66659545898438,17.475057601928718,0.0,0.0,0.0,17.574754714965806
2025/04/09 08:48:32.606477661,1744181312,606246416,,155.80784606933594,17.607969284057628,0.0,0.0,0.0,17.653099060058622
2025/04/09 08:48:32.707193250,1744181312,706995143,,156.61073303222656,17.396821975708015,0.0,0.0,0.0,17.240493774414077
2025/04/09 08:48:32.811124705,1744181312,810808780,,158.79927062988284,17.531717300415046,0.0,0.0,0.0,17.32050514221193
2025/04/09 08:48:32.904425153,1744181312,904212112,,159.5434112548828,17.00656127929688,0.0,0.0,0.0,18.08737945556645
2025/04/09 08:48:33.5435766,1744181313,5212966,,159.56744384765625,17.530300140380863,0.0,0.0,0.0,17.38141059875491
2025/04/09 08:48:33.113852898,1744181313,113590516,,161.82688903808594,17.667520523071293,0.0,0.0,0.0,17.463520050048842
2025/04/09 08:48:33.207502928,1744181313,207296276,,162.06622314453068,21.26890945434322,0.0,0.0,0.0,21.517446517939874
2025/04/09 08:48:33.307763182,1744181313,306791801,,162.34844970703122,24.6788005828857,0.0,0.0,0.0,23.522146224975515
2025/04/09 08:48:33.415758328,1744181313,413545735,,164.6685791015625,24.85784530639649,0.0,0.0,0.0,23.625873565673828
2025/04/09 08:48:33.505577499,1744181313,504784809,,163.30380249023438,22.505941390991214,0.0,0.0,0.0,23.151321411132812
2025/04/09 08:48:33.604768436,1744181313,604619768,,160.74217224121094,21.98499488830567,0.0,0.0,0.0,23.25530433654788
2025/04/09 08:48:33.711905047,1744181313,711668718,,154.4884643554687,19.26559066772459,0.0,0.0,0.0,24.615921020507955
2025/04/09 08:48:33.807615019,1744181313,807351378,,147.2000579833986,21.429885864255528,0.0,0.0,0.0,26.80068016051849
2025/04/09 08:48:33.912689185,1744181313,912475359,,141.28475952148435,20.33222961425781,0.0,0.0,0.0,26.90046882629396
2025/04/09 08:48:34.11139172,1744181314,10648845,,133.59983825683594,19.00722503662111,0.0,0.0,0.0,26.31589126586917
2025/04/09 08:48:34.107032635,1744181314,106682405,,125.66184997558594,16.83771324157717,0.0,0.0,0.0,28.44848060607915
2025/04/09 08:48:34.208867901,1744181314,208524129,,119.47516632080077,15.665959358215353,0.0,0.0,0.0,28.53027534484869
2025/04/09 08:48:34.313242060,1744181314,312963982,,111.73250579833984,14.633489608764696,0.0,0.0,0.0,27.527338027954194
2025/04/09 08:48:34.419401084,1744181314,417656528,,105.98627471923828,13.565644264221232,0.0,0.0,0.0,27.543849945068438
2025/04/09 08:48:34.510746980,1744181314,510521780,,98.82962799072168,15.918853759761655,0.0,0.0,0.0,31.923980712882724
2025/04/09 08:48:34.607714255,1744181314,607461742,,94.97869873046827,15.079365730284753,0.0,0.0,0.0,31.941255569456082
2025/04/09 08:48:34.710427750,1744181314,709877273,,89.19044494628905,15.035783767700076,0.0,0.0,0.0,34.60185623168954
2025/04/09 08:48:34.807952182,1744181314,807699824,,84.82725524902341,13.87308406829831,0.0,0.0,0.0,34.851211547851506
2025/04/09 08:48:34.907296762,1744181314,907077624,,81.98287200927732,13.15015411376951,0.0,0.0,0.0,34.869224548339844
2025/04/09 08:48:35.8444123,1744181315,7386874,,77.87727355957028,12.329549789428674,0.0,0.0,0.0,34.125099182128864
2025/04/09 08:48:35.107210102,1744181315,106945176,,73.72393035888669,13.401546478271225,0.0,0.0,0.0,36.788898468018
2025/04/09 08:48:35.208078874,1744181315,207855651,,71.15679168701169,12.707032203674276,0.0,0.0,0.0,36.80716705322264
2025/04/09 08:48:35.310789270,1744181315,309277384,,66.79951477050675,10.007415771482089,0.0,0.0,0.0,35.637264251713376
2025/04/09 08:48:35.407739762,1744181315,405823241,,64.29217529293106,9.32514572142215,0.0,0.0,0.0,35.655445098909055
2025/04/09 08:48:35.508202274,1744181315,507527990,,60.219951629638636,8.681111335754363,0.0,0.0,0.0,40.01442337036138
2025/04/09 08:48:35.610145886,1744181315,609800763,,56.499904632568345,7.661647796630844,0.0,0.0,0.0,41.65687561035158
2025/04/09 08:48:35.706660732,1744181315,706212736,,54.072132110595696,6.906883239746082,0.0,0.0,0.0,41.66451263427735
2025/04/09 08:48:35.809014510,1744181315,807217166,,50.426124572753906,7.2275419235229394,0.0,0.0,0.0,41.028564453125014
2025/04/09 08:48:35.916400190,1744181315,914660669,,48.230762481689446,6.533041000366204,0.0,0.0,0.0,41.02556991577149
2025/04/09 08:48:36.6246716,1744181316,6088831,,45.016849517822266,4.644357681274406,0.0,0.0,0.0,40.83403396606445
2025/04/09 08:48:36.105059068,1744181316,104338351,,42.01809310913086,4.063992977142317,0.0,0.0,0.0,41.512580871582
2025/04/09 08:48:36.206155357,1744181316,205955487,,40.2827262878418,3.48307037353515,0.0,0.0,0.0,41.495285034179695
2025/04/09 08:48:36.304917313,1744181316,304282397,,37.66530609130859,3.6818809509277175,0.0,0.0,0.0,41.149841308593736
2025/04/09 08:48:36.407511837,1744181316,406352228,,35.22642135620118,2.7589380741119296,0.0,0.0,0.0,40.90768051147461
2025/04/09 08:48:36.510696771,1744181316,509266846,,33.95508575439454,2.30173516273498,0.0,0.0,0.0,40.87901306152344
2025/04/09 08:48:36.605409958,1744181316,605058083,,31.418712615966808,-0.0728139579296041,0.0,0.0,0.0,40.45709991455075
2025/04/09 08:48:36.705219107,1744181316,705015247,,30.43418312072754,-0.45895811915398,0.0,0.0,0.0,40.421936035156236
2025/04/09 08:48:36.807458192,1744181316,807126902,,28.48938941955563,-0.26705011725440286,0.0,0.0,0.0,41.30168151855442
2025/04/09 08:48:36.908500217,1744181316,907262765,,26.87189865112299,0.5055984854696511,0.0,0.0,0.0,41.500888824462564
2025/04/09 08:48:37.4822176,1744181317,4605074,,26.273029327392578,0.208053499460215,0.0,0.0,0.0,41.456634521484375
2025/04/09 08:48:37.104950905,1744181317,104559310,,24.65557289123536,-0.9241034388542229,0.0,0.0,0.0,40.892326354980455
2025/04/09 08:48:37.208822220,1744181317,208549814,,24.281782150268555,-1.1616629362106377,0.0,0.0,0.0,40.844276428222635
2025/04/09 08:48:37.306898191,1744181317,305932597,,23.259391784667972,-0.2810273468494504,0.0,0.0,0.0,40.74931335449217
2025/04/09 08:48:37.406833334,1744181317,406149157,,22.307723999023438,0.15844625234602283,0.0,0.0,0.0,40.29986953735348
2025/04/09 08:48:37.507496391,1744181317,506981742,,22.2662239074707,0.2983848452567983,0.0,0.0,0.0,40.25484085083007
2025/04/09 08:48:37.607376385,1744181317,605670186,,21.221778869628913,-0.15910190343858055,0.0,0.0,0.0,40.194412231445284
2025/04/09 08:48:37.706657988,1744181317,705536607,,21.314834594726566,-0.2769421637058329,0.0,0.0,0.0,40.13939285278319
2025/04/09 08:48:37.810270893,1744181317,808635632,,20.709417343139663,-1.294744849205026,0.0,0.0,0.0,39.59395217895505
2025/04/09 08:48:37.906331411,1744181317,906096837,,20.17213058471681,-2.067987918853765,0.0,0.0,0.0,39.18017196655269
2025/04/09 08:48:38.5207898,1744181318,4919819,,20.48789787292481,-2.128509283065805,0.0,0.0,0.0,39.12357330322262
2025/04/09 08:48:38.111753035,1744181318,110753072,,20.112373352050795,-2.918217182159432,0.0,0.0,0.0,39.16104888916011
2025/04/09 08:48:38.204409342,1744181318,204133825,,20.556413650512702,-2.9469053745269838,0.0,0.0,0.0,39.103302001953075
2025/04/09 08:48:38.304965070,1744181318,304757835,,20.190774917602546,-2.8152415752410986,0.0,0.0,0.0,38.30104827880856
2025/04/09 08:48:38.406170302,1744181318,405941749,,20.16657257080081,-4.841188430786143,0.0,0.0,0.0,37.704757690429616
2025/04/09 08:48:38.506272580,1744181318,506061005,,20.769319534301765,-4.828778743743913,0.0,0.0,0.0,37.647701263427685
2025/04/09 08:48:38.604976075,1744181318,604809738,,20.91200256347657,-4.230931282043468,0.0,0.0,0.0,37.7642440795898
2025/04/09 08:48:38.710383273,1744181318,709438849,,21.609199523925785,-4.195313453674324,0.0,0.0,0.0,37.706989288330035
2025/04/09 08:48:38.804243450,1744181318,804097661,,21.766002655029304,-4.022305965423591,0.0,0.0,0.0,36.9166221618652
2025/04/09 08:48:38.904789811,1744181318,904582450,,21.73835945129395,-2.5969460010528653,0.0,0.0,0.0,37.16543960571286
2025/04/09 08:48:39.5551906,1744181319,5088224,,22.556781768798828,-2.531905412673959,0.0,0.0,0.0,37.109054565429666
2025/04/09 08:48:39.104585550,1744181319,104371945,,22.92588806152344,-2.7848682403564524,0.0,0.0,0.0,35.53833007812498
2025/04/09 08:48:39.204402660,1744181319,204177538,,23.181762695312507,-2.77396965026856,0.0,0.0,0.0,34.8094902038574
2025/04/09 08:48:39.313279123,1744181319,312568178,,24.10088348388672,-2.6884381771087726,0.0,0.0,0.0,34.756752014160135
2025/04/09 08:48:39.406462722,1744181319,406171677,,24.199342727661147,-3.757895469665538,0.0,0.0,0.0,34.950302124023416
2025/04/09 08:48:39.504526094,1744181319,504341315,,25.174386978149414,-3.6591768264770597,0.0,0.0,0.0,34.89824676513669
2025/04/09 08:48:39.610842646,1744181319,608562027,,25.584436416625973,-2.9702305793762243,0.0,0.0,0.0,34.06167221069334
2025/04/09 08:48:39.705730530,1744181319,705313272,,26.608194351196286,-2.8605861663818466,0.0,0.0,0.0,34.01086044311519
2025/04/09 08:48:39.806038878,1744181319,805450938,,26.977146148681648,-4.213533878326427,0.0,0.0,0.0,33.106216430664034
2025/04/09 08:48:39.909700439,1744181319,907620004,,27.523523330688487,-5.0969729423523065,0.0,0.0,0.0,33.2540588378906
2025/04/09 08:48:40.4300302,1744181320,3986222,,28.608488082885735,-4.975888729095475,0.0,0.0,0.0,33.20603561401363
2025/04/09 08:48:40.104779728,1744181320,104405063,,29.263961791992195,-5.5104279518127495,0.0,0.0,0.0,33.39682006835936
2025/04/09 08:48:40.209346953,1744181320,208759338,,30.3819694519043,-5.381435394287115,0.0,0.0,0.0,33.349872589111314
2025/04/09 08:48:40.305149615,1744181320,304919748,,30.900005340576158,-2.885570049285872,0.0,0.0,0.0,32.17584228515621
2025/04/09 08:48:40.404400890,1744181320,404088614,,31.56077766418457,-2.0719151496887225,0.0,0.0,0.0,31.47086524963378
2025/04/09 08:48:40.507090193,1744181320,506848301,,32.72024536132812,-1.9389243125915696,0.0,0.0,0.0,31.42775535583494
2025/04/09 08:48:40.607148487,1744181320,605651649,,33.347084045410156,-1.6292972564697328,0.0,0.0,0.0,31.644622802734375
2025/04/09 08:48:40.705983697,1744181320,705838209,,34.5276985168457,-1.4914513826370452,0.0,0.0,0.0,31.60268211364742
2025/04/09 08:48:40.804261976,1744181320,804030303,,35.22871017456055,-2.382625818252569,0.0,0.0,0.0,31.0177993774414
2025/04/09 08:48:40.905081427,1744181320,904803291,,35.77532196044922,-1.8102092742919957,0.0,0.0,0.0,31.33673667907714
2025/04/09 08:48:41.4787073,1744181321,4520771,,36.98053741455078,-1.6667861938476598,0.0,0.0,0.0,31.296863555908196
2025/04/09 08:48:41.106778689,1744181321,106570835,,37.81011962890625,-2.467324972152716,0.0,0.0,0.0,29.72753524780273
2025/04/09 08:48:41.207335557,1744181321,207083280,,38.51228332519531,-1.4840970039367685,0.0,0.0,0.0,29.001752853393555
2025/04/09 08:48:41.305858717,1744181321,305647475,,39.736244201660156,-1.3445048332214409,0.0,0.0,0.0,28.96622848510742
2025/04/09 08:48:41.404796979,1744181321,404584474,,40.21759796142578,-0.6280874013900783,0.0,0.0,0.0,29.16577911376954
2025/04/09 08:48:41.505084053,1744181321,504852314,,41.449161529541016,-0.48620358109474804,0.0,0.0,0.0,29.131446838378913
2025/04/09 08:48:41.607835452,1744181321,607620354,,42.185749053955064,1.5967344045639038,0.0,0.0,0.0,28.548179626464837
2025/04/09 08:48:41.705002363,1744181321,704745027,,42.86283874511719,-0.04938304796815984,0.0,0.0,0.0,27.81468772888183
2025/04/09 08:48:41.808072931,1744181321,807833749,,44.10202407836914,0.0904114469885764,0.0,0.0,0.0,27.783338546752923
2025/04/09 08:48:41.906594397,1744181321,906348252,,44.68091201782226,0.26330330967902604,0.0,0.0,0.0,27.984920501708995
2025/04/09 08:48:42.5933303,1744181322,4771408,,45.921752929687486,0.40426793694495533,0.0,0.0,0.0,27.95471954345703
2025/04/09 08:48:42.108485002,1744181322,108284986,,46.39068603515625,-0.6317858695983949,0.0,0.0,0.0,27.486267089843754
2025/04/09 08:48:42.205357022,1744181322,205103598,,47.63131713867187,-0.4904324710369181,0.0,0.0,0.0,27.457309722900394
2025/04/09 08:48:42.304690371,1744181322,304490490,,48.133140563964844,0.8929647803306553,0.0,0.0,0.0,26.73642539978028
2025/04/09 08:48:42.407523530,1744181322,407274420,,48.7476692199707,2.635538578033443,0.0,0.0,0.0,26.582231521606452
2025/04/09 08:48:42.507143644,1744181322,506896685,,49.98552703857422,2.773113250732414,0.0,0.0,0.0,26.555938720703125
2025/04/09 08:48:42.605090805,1744181322,604650146,,50.64238739013671,4.110229969024651,0.0,0.0,0.0,26.766159057617205
2025/04/09 08:48:42.711611696,1744181322,711371319,,51.8759422302246,4.247879981994619,0.0,0.0,0.0,26.74094009399415
2025/04/09 08:48:42.806739548,1744181322,805722471,,52.58372116088864,5.333803653717029,0.0,0.0,0.0,25.94493865966799
2025/04/09 08:48:42.904543611,1744181322,904335032,,53.06399536132812,3.6000478267669536,0.0,0.0,0.0,26.2662925720215
2025/04/09 08:48:43.4749053,1744181323,4526377,,54.28907775878906,3.7353665828704745,0.0,0.0,0.0,26.243061065673842
2025/04/09 08:48:43.106309086,1744181323,106085443,,54.931301116943345,4.32321596145629,0.0,0.0,0.0,24.87073898315431
2025/04/09 08:48:43.205865435,1744181323,205613157,,55.539218902587876,3.7808406352996706,0.0,0.0,0.0,24.036308288574237
2025/04/09 08:48:43.305531287,1744181323,305320575,,56.716701507568345,3.4788119792938126,0.0,0.0,0.0,24.25965118408204
2025/04/09 08:48:43.407927458,1744181323,407687785,,56.921768188476555,2.8100829124450595,0.0,0.0,0.0,24.486295700073256
2025/04/09 08:48:43.506480379,1744181323,506268033,,58.128318786621094,2.9360246658325098,0.0,0.0,0.0,24.467018127441406
2025/04/09 08:48:43.606600029,1744181323,605989754,,58.552387237548814,3.503030538558952,0.0,0.0,0.0,23.681467056274432
2025/04/09 08:48:43.708490869,1744181323,708198988,,59.09537506103514,1.4451874494552452,0.0,0.0,0.0,23.038108825683587
2025/04/09 08:48:43.806430346,1744181323,806204133,,60.28836441040039,1.5643880367278964,0.0,0.0,0.0,23.021133422851577
2025/04/09 08:48:43.906938978,1744181323,906573423,,60.47823333740233,2.6424505710601744,0.0,0.0,0.0,23.2358627319336
2025/04/09 08:48:44.6425001,1744181324,6237688,,61.66067504882812,2.76075816154479,0.0,0.0,0.0,23.21971702575684
2025/04/09 08:48:44.105622640,1744181324,105355323,,62.104701995849595,3.110589027404777,0.0,0.0,0.0,22.490041732788093
2025/04/09 08:48:44.204855569,1744181324,204606744,,62.68070983886717,3.1366989612579244,0.0,0.0,0.0,21.8977508544922
2025/04/09 08:48:44.307057684,1744181324,306808053,,63.8471221923828,3.248576879501332,0.0,0.0,0.0,21.883588790893562
2025/04/09 08:48:44.406435528,1744181324,406213481,,64.23496246337889,4.150177955627429,0.0,0.0,0.0,22.119567871093768
2025/04/09 08:48:44.506015634,1744181324,505791201,,65.38952636718749,4.261013031005845,0.0,0.0,0.0,22.10614585876466
2025/04/09 08:48:44.604695022,1744181324,604482374,,65.54855346679685,3.8365221023559433,0.0,0.0,0.0,21.587999343872085
2025/04/09 08:48:44.706796353,1744181324,706441779,,66.69098663330077,3.94550824165343,0.0,0.0,0.0,21.575407028198256
2025/04/09 08:48:44.804696232,1744181324,804497434,,66.87677764892575,3.9292566776275497,0.0,0.0,0.0,20.896612167358413
2025/04/09 08:48:44.904664599,1744181324,904442382,,67.1777648925781,3.974113941192612,0.0,0.0,0.0,20.795516967773466
2025/04/09 08:48:45.10916169,1744181325,10716193,,68.30185699462888,4.077380657196031,0.0,0.0,0.0,20.784513473510756
2025/04/09 08:48:45.106584235,1744181325,105320534,,68.6836013793945,4.069318294525135,0.0,0.0,0.0,21.01426887512209
2025/04/09 08:48:45.207261283,1744181325,204562953,,69.79467773437497,4.171419620513902,0.0,0.0,0.0,21.003904342651396
2025/04/09 08:48:45.307323843,1744181325,307071639,,69.83676910400388,4.065499782562241,0.0,0.0,0.0,20.093393325805682
2025/04/09 08:48:45.404921982,1744181325,404733949,,70.1145248413086,2.761351346969592,0.0,0.0,0.0,19.56458473205567
2025/04/09 08:48:45.505624165,1744181325,504546379,,71.20652770996094,2.8562970161437873,0.0,0.0,0.0,19.555818557739272
2025/04/09 08:48:45.608283716,1744181325,607787636,,71.3520584106445,3.2736651897430313,0.0,0.0,0.0,19.785373687744162
2025/04/09 08:48:45.705920821,1744181325,705710319,,72.43057250976562,3.367438554763782,0.0,0.0,0.0,19.77716636657716
2025/04/09 08:48:45.805412219,1744181325,805178084,,72.40309143066402,3.8076200485229337,0.0,0.0,0.0,18.960210800170934
2025/04/09 08:48:45.908005389,1744181325,907763381,,72.58609771728516,2.61308169364928,0.0,0.0,0.0,18.418243408203132
2025/04/09 08:48:46.5373165,1744181326,5166964,,73.64488983154295,2.7001297473907355,0.0,0.0,0.0,18.411405563354506
2025/04/09 08:48:46.108477554,1744181326,108237062,,73.73245239257808,3.9893751144408975,0.0,0.0,0.0,18.631017684936563
2025/04/09 08:48:46.207398627,1744181326,207172805,,74.7774963378906,4.075273990631084,0.0,0.0,0.0,18.624666213989286
2025/04/09 08:48:46.305004694,1744181326,304269495,,74.60282897949213,4.109469413757303,0.0,0.0,0.0,17.955593109130902
2025/04/09 08:48:46.404530637,1744181326,404220952,,74.73265075683585,4.294486045837367,0.0,0.0,0.0,17.44882011413582
2025/04/09 08:48:46.515833731,1744181326,513746439,,75.75756072998037,4.374586582183801,0.0,0.0,0.0,17.443584442138743
2025/04/09 08:48:46.605296765,1744181326,605057942,,75.80692291259763,3.376764535903915,0.0,0.0,0.0,17.658271789550803
2025/04/09 08:48:46.706480878,1744181326,706289708,,76.81799316406247,3.455757379531845,0.0,0.0,0.0,17.65345764160159
2025/04/09 08:48:46.807763515,1744181326,804856966,,76.52741241455072,3.87141561508176,0.0,0.0,0.0,17.003511428833058
2025/04/09 08:48:46.904656927,1744181326,904403606,,77.52483367919913,3.9479060173034397,0.0,0.0,0.0,16.999237060546925
2025/04/09 08:48:47.6010850,1744181327,5777290,,77.27749633782072,6.0445599555696115,0.0,0.0,0.0,16.377618789728928
2025/04/09 08:48:47.109483606,1744181327,109059701,,77.29264068603463,4.452392578124803,0.0,0.0,0.0,16.3112449646
2025/04/09 08:48:47.208284626,1744181327,205853551,,78.26977539062378,4.524085521697538,0.0,0.0,0.0,16.30782508850191
2025/04/09 08:48:47.306962287,1744181327,306721439,,77.900772094719,4.8290529251068905,0.0,0.0,0.0,16.532634735113483
2025/04/09 08:48:47.410722287,1744181327,406902156,,78.86415100096119,4.89970302581181,0.0,0.0,0.0,16.529563903820993
2025/04/09 08:48:47.505652249,1744181327,505223781,,78.79418945312347,5.110283374785829,0.0,0.0,0.0,15.476751327515771
2025/04/09 08:48:47.609445460,1744181327,606513577,,78.77018737792937,4.093997478485004,0.0,0.0,0.0,14.709801673889356
2025/04/09 08:48:47.707043476,1744181327,706832485,,79.70845794677714,3.6040165424346124,0.0,0.0,0.0,14.950472831726227
2025/04/09 08:48:47.805130287,1744181327,804923471,,79.254280090332,2.6236209869384575,0.0,0.0,0.0,15.15056800842288
2025/04/09 08:48:47.904671516,1744181327,904491327,,80.18422698974605,2.6862883567809885,0.0,0.0,0.0,15.148715972900423
2025/04/09 08:48:48.7760084,1744181328,7516823,,80.0258789062485,4.514759540557314,0.0,0.0,0.0,14.579178810120723
2025/04/09 08:48:48.108776744,1744181328,108514885,,79.93773651123044,4.767445564270005,0.0,0.0,0.0,13.814755439758326
2025/04/09 08:48:48.210026060,1744181328,209773715,,80.84764862060455,4.981707572936642,0.0,0.0,0.0,14.045491218567655
2025/04/09 08:48:48.307182968,1744181328,306977687,,80.39052581784401,5.228400707234586,0.0,0.0,0.0,14.250581741354011
2025/04/09 08:48:48.406431022,1744181328,405871299,,81.28729248046217,5.2853174209571305,0.0,0.0,0.0,14.24962997437003
2025/04/09 08:48:48.506925721,1744181328,506743564,,81.09727478027258,5.5238056182859285,0.0,0.0,0.0,13.705181121826598
2025/04/09 08:48:48.609302137,1744181328,609060468,,81.98083496093588,5.57941150665241,0.0,0.0,0.0,13.704495429993557
2025/04/09 08:48:48.705079524,1744181328,704865798,,81.51371002197118,3.866743087768025,0.0,0.0,0.0,13.141328811646591
2025/04/09 08:48:48.808163610,1744181328,807895240,,81.22256469725704,4.397945880886667,0.0,0.0,0.0,13.295311927801961
2025/04/09 08:48:48.906189674,1744181328,905007788,,82.08672332761111,4.449870586385405,0.0,0.0,0.0,13.295095443745652
2025/04/09 08:48:49.5306458,1744181329,5039038,,81.82751464843473,4.301792621611542,0.0,0.0,0.0,13.481046676637796
2025/04/09 08:48:49.107222109,1744181329,107040313,,82.67871093749561,4.3529071807845074,0.0,0.0,0.0,13.481036186221566
2025/04/09 08:48:49.206684375,1744181329,206414322,,82.48200225830075,4.7354512214660645,0.0,0.0,0.0,12.86777210235595
2025/04/09 08:48:49.310056123,1744181329,309668124,,81.93689727783203,4.193826675415039,0.0,0.0,0.0,12.163947105407715
2025/04/09 08:48:49.410777758,1744181329,409313828,,82.7693328857422,4.239606857299804,0.0,0.0,0.0,12.164412498474125
2025/04/09 08:48:49.505059207,1744181329,504844580,,82.02843475340595,4.668009281154198,0.0,0.0,0.0,12.315746307381687
2025/04/09 08:48:49.608748210,1744181329,608545095,,82.84822845458984,4.713054180145264,0.0,0.0,0.0,12.316380500793457
2025/04/09 08:48:49.706351583,1744181329,705761204,,82.4495849609375,6.662897109985354,0.0,0.0,0.0,11.703911781311028
2025/04/09 08:48:49.809626141,1744181329,807783906,,83.25695037841791,6.706511497497582,0.0,0.0,0.0,11.70473384857172
2025/04/09 08:48:49.908027398,1744181329,907829760,,82.64753723139302,6.369792461415058,0.0,0.0,0.0,11.193023681602728
2025/04/09 08:48:50.5395215,1744181330,5162719,,82.23572540283203,6.210571765899659,0.0,0.0,0.0,11.336862564086914
2025/04/09 08:48:50.104969250,1744181330,104761182,,83.02479553222128,6.25111675262624,0.0,0.0,0.0,11.337974548336554
2025/04/09 08:48:50.213352703,1744181330,213007584,,82.65644836425781,4.3140196800231925,0.0,0.0,0.0,11.513529777526845
2025/04/09 08:48:50.305155573,1744181330,304735052,,83.43336486816405,4.353917598724365,0.0,0.0,0.0,11.514777183532722
2025/04/09 08:48:50.404790481,1744181330,404618875,,82.74259948730351,4.567182540893338,0.0,0.0,0.0,10.86915683746384
2025/04/09 08:48:50.506091540,1744181330,505769198,,82.39361572265489,4.4306607246395515,0.0,0.0,0.0,11.129549026489954
2025/04/09 08:48:50.605646779,1744181330,605118094,,83.15270233154173,4.468340873717971,0.0,0.0,0.0,11.131016731262804
2025/04/09 08:48:50.705923103,1744181330,705748513,,82.84979248046776,5.005812168121454,0.0,0.0,0.0,10.241246223449501
2025/04/09 08:48:50.808819258,1744181330,808262087,,83.5972290039055,5.041292667388996,0.0,0.0,0.0,10.2428588867186
2025/04/09 08:48:50.904694199,1744181330,904443529,,82.79715728759524,3.3797914981834216,0.0,0.0,0.0,9.718993186952254
2025/04/09 08:48:51.4401879,1744181331,4186522,,82.27562713619744,3.7272074222446956,0.0,0.0,0.0,9.919578552269861
2025/04/09 08:48:51.106635798,1744181331,106392741,,83.00580596922859,3.7600989341703794,0.0,0.0,0.0,9.921370506293101
2025/04/09 08:48:51.208149709,1744181331,205147477,,82.53891754150277,4.175569057464381,0.0,0.0,0.0,10.090647697449171
2025/04/09 08:48:51.306471424,1744181331,304885486,,83.25767517089771,4.207928657531622,0.0,0.0,0.0,10.092533111572507
2025/04/09 08:48:51.407668622,1744181331,406729981,,82.50132751464726,4.709211349487475,0.0,0.0,0.0,9.431259155273121
2025/04/09 08:48:51.506797338,1744181331,506548549,,82.0486602783183,4.827187538147454,0.0,0.0,0.0,9.070892333983466
2025/04/09 08:48:51.607523191,1744181331,605803101,,82.75077056884474,4.8561472892768975,0.0,0.0,0.0,9.072918891905267
2025/04/09 08:48:51.706452060,1744181331,705361946,,82.2468643188461,4.832975864410729,0.0,0.0,0.0,9.232435226439812
2025/04/09 08:48:51.806619909,1744181331,805241896,,82.93792724609196,4.8614649772648155,0.0,0.0,0.0,9.234536170958698
2025/04/09 08:48:51.904298066,1744181331,904097053,,82.08989715575481,6.303883075716631,0.0,0.0,0.0,8.796390533442434
2025/04/09 08:48:52.4841391,1744181332,4613895,,82.77010345458932,6.331310272216942,0.0,0.0,0.0,8.798560142516827
2025/04/09 08:48:52.108518081,1744181332,107705607,,81.95912170410087,6.086154460907185,0.0,0.0,0.0,8.384420394897077
2025/04/09 08:48:52.207702058,1744181332,207464503,,81.38876342773283,6.611224651337203,0.0,0.0,0.0,8.337200164793899
2025/04/09 08:48:52.307204620,1744181332,305964333,,82.05300903320189,6.636410713196218,0.0,0.0,0.0,8.339452743529467
2025/04/09 08:48:52.405793001,1744181332,405316906,,81.43870544433489,4.665162563324205,0.0,0.0,0.0,8.49141025543171
2025/04/09 08:48:52.505384544,1744181332,505182163,,82.09241485594862,4.689936637881105,0.0,0.0,0.0,8.49371910094699
2025/04/09 08:48:52.607582318,1744181332,607325602,,81.20031738280707,4.295779705049158,0.0,0.0,0.0,7.93734264373483
2025/04/09 08:48:52.709227850,1744181332,707023934,,80.64398193359182,2.4189963340752842,0.0,0.0,0.0,7.6142191886914645
2025/04/09 08:48:52.805121106,1744181332,804474859,,81.28230285643863,2.4411358833289496,0.0,0.0,0.0,7.61656951904768
2025/04/09 08:48:52.905164303,1744181332,904883443,,80.33745574943823,2.7525432109563543,0.0,0.0,0.0,7.761906147057193
2025/04/09 08:48:53.8674218,1744181333,8423437,,80.96559906003776,2.7743182182239927,0.0,0.0,0.0,7.764300823226151
2025/04/09 08:48:53.106555273,1744181333,106368505,,80.462043762207,4.705341815948501,0.0,0.0,0.0,7.200623035430873
2025/04/09 08:48:53.207870267,1744181333,207677242,,79.94325256344916,5.532319545756384,0.0,0.0,0.0,6.690453529337617
2025/04/09 08:48:53.310206759,1744181333,309405604,,80.5677947998034,5.974594116211374,0.0,0.0,0.0,6.866260051726453
2025/04/09 08:48:53.406346742,1744181333,405041536,,79.61239624023412,5.8668689727783825,0.0,0.0,0.0,7.006597518920778
2025/04/09 08:48:53.504552613,1744181333,504336280,,80.21586608886153,5.885775566103151,0.0,0.0,0.0,7.009028911586576
2025/04/09 08:48:53.609926394,1744181333,608581695,,79.58892822265591,5.564121246337978,0.0,0.0,0.0,6.680116176605047
2025/04/09 08:48:53.707251522,1744181333,706483449,,80.18272399902312,5.582604885101397,0.0,0.0,0.0,6.682574272155595
2025/04/09 08:48:53.804309150,1744181333,804091727,,79.18444061275198,3.4086561203113988,0.0,0.0,0.0,6.30350399015196
2025/04/09 08:48:53.908135360,1744181333,907856881,,78.5830841064273,2.0051267146998892,0.0,0.0,0.0,6.44057273866051
2025/04/09 08:48:54.8098122,1744181334,6149253,,79.1626892089833,2.0221626758572064,0.0,0.0,0.0,6.443032264710137
2025/04/09 08:48:54.105135310,1744181334,104937912,,78.5434265136706,2.438421010970745,0.0,0.0,0.0,6.58019590377873
2025/04/09 08:48:54.209277558,1744181334,208984044,,79.11370849609233,2.4551773071285528,0.0,0.0,0.0,6.582679748535867
2025/04/09 08:48:54.311714716,1744181334,309050019,,78.13812255858224,4.424781799320574,0.0,0.0,0.0,6.059620857230726
2025/04/09 08:48:54.406909537,1744181334,406027622,,78.69926452636716,4.440453052520755,0.0,0.0,0.0,6.06208753585814
2025/04/09 08:48:54.504573798,1744181334,504357540,,77.76866149902332,6.018054485321061,0.0,0.0,0.0,5.739296436309775
2025/04/09 08:48:54.605196718,1744181334,604962812,,77.17794799804624,5.6135163307191975,0.0,0.0,0.0,5.7319598197933175
2025/04/09 08:48:54.705632228,1744181334,705392095,,77.725608825683,5.627865791320984,0.0,0.0,0.0,5.734403610229155
2025/04/09 08:48:54.805763612,1744181334,805570474,,76.67948150634723,5.175838470459096,0.0,0.0,0.0,5.864755630492947
2025/04/09 08:48:54.907852500,1744181334,905633751,,77.2182846069332,5.189957141876324,0.0,0.0,0.0,5.867213726043499
2025/04/09 08:48:55.5921989,1744181335,5750148,,76.59322357177723,5.929378986358664,0.0,0.0,0.0,5.33365726470943
2025/04/09 08:48:55.106698742,1744181335,106415542,,75.95210266111536,4.86156225205134,0.0,0.0,0.0,4.927997112261291
2025/04/09 08:48:55.207411171,1744181335,207180694,,76.47962188720406,4.1868224143991775,0.0,0.0,0.0,5.063922405241016
2025/04/09 08:48:55.308513080,1744181335,308255562,,75.44122314453122,3.842480659484877,0.0,0.0,0.0,5.174980163574201
2025/04/09 08:48:55.407299928,1744181335,407078871,,75.95855712888826,3.8544695377422213,0.0,0.0,0.0,5.177365779862615
2025/04/09 08:48:55.509680577,1744181335,508249250,,75.29557800292966,3.658933639526372,0.0,0.0,0.0,4.896551609039303
2025/04/09 08:48:55.608285657,1744181335,606590267,,75.80451202392545,3.6706161499024783,0.0,0.0,0.0,4.898936748504376
2025/04/09 08:48:55.707465259,1744181335,705389730,,75.17269134518787,3.4848337173561323,0.0,0.0,0.0,4.634466171245361
2025/04/09 08:48:55.808628224,1744181335,807442915,,74.1221923828125,3.418702363967896,0.0,0.0,0.0,4.747813701629642
2025/04/09 08:48:55.904897763,1744181335,904723715,,74.61881256102981,3.429270267488304,0.0,0.0,0.0,4.750144481655592
2025/04/09 08:48:56.4591356,1744181336,4341931,,74.00940704345594,1.8336168527601817,0.0,0.0,0.0,4.438882350921897
2025/04/09 08:48:56.105914431,1744181336,105712182,,74.49794769287057,1.8438704013823568,0.0,0.0,0.0,4.441205024719405
2025/04/09 08:48:56.204773985,1744181336,204537892,,73.45513916015366,0.6504873037326828,0.0,0.0,0.0,4.134316444399179
2025/04/09 08:48:56.307051685,1744181336,306875970,,72.7817916870103,-0.17401018738851548,0.0,0.0,0.0,4.277438163759239
2025/04/09 08:48:56.411115091,1744181336,410881709,,73.2584686279279,-0.1646514683973973,0.0,0.0,0.0,4.27970838546975
2025/04/09 08:48:56.508137628,1744181336,507934277,,72.23999786376805,2.650310039520517,0.0,0.0,0.0,4.383741855620819
2025/04/09 08:48:56.607217822,1744181336,607004298,,72.7089004516584,2.659518718719832,0.0,0.0,0.0,4.386012554168037
2025/04/09 08:48:56.709714145,1744181336,709423996,,72.14741516113263,4.886991977691685,0.0,0.0,0.0,3.909320354461588
2025/04/09 08:48:56.810217269,1744181336,809504964,,71.5020065307616,5.210106372833275,0.0,0.0,0.0,3.552969932556106
2025/04/09 08:48:56.904646194,1744181336,904169583,,71.96312713623026,5.067732334137014,0.0,0.0,0.0,3.6780202388762433
2025/04/09 08:48:57.12199775,1744181337,10722020,,72.41687774658185,5.075436592102092,0.0,0.0,0.0,3.680171728134077
2025/04/09 08:48:57.108080405,1744181337,107008341,,71.3068923950076,3.5130875110669493,0.0,0.0,0.0,3.7325880527412423
2025/04/09 08:48:57.207964186,1744181337,207161695,,70.26444244384717,2.0204863548278675,0.0,0.0,0.0,3.6714875698089813
2025/04/09 08:48:57.310806739,1744181337,308428072,,70.70710754394472,2.0279211997985813,0.0,0.0,0.0,3.673624753952023
2025/04/09 08:48:57.405758400,1744181337,404823764,,70.01003265380504,2.4397113323220467,0.0,0.0,0.0,3.740427494047399
2025/04/09 08:48:57.504590723,1744181337,504318370,,70.44544219970501,2.447023868561218,0.0,0.0,0.0,3.7425601482383186
2025/04/09 08:48:57.607253398,1744181337,606704157,,69.43035888670218,2.826638460165087,0.0,0.0,0.0,3.409878015506969
2025/04/09 08:48:57.704742710,1744181337,704541499,,68.8254852294919,4.408913135528629,0.0,0.0,0.0,3.2367019653319
2025/04/09 08:48:57.805322469,1744181337,805105390,,69.2502593994138,4.4152755737305265,0.0,0.0,0.0,3.238739490508916
2025/04/09 08:48:57.908597603,1744181337,908202919,,68.19190216064447,5.808125495910649,0.0,0.0,0.0,3.3295202255248597
2025/04/09 08:48:58.6235146,1744181338,6031685,,68.60970306396479,5.814389705657971,0.0,0.0,0.0,3.331552028655981
2025/04/09 08:48:58.106988009,1744181338,106737445,,67.96427154532013,3.3805739879960504,0.0,0.0,0.0,3.0403203963546908
2025/04/09 08:48:58.213276967,1744181338,207454065,,68.37522125234983,3.386509895360514,0.0,0.0,0.0,3.042317867209306
2025/04/09 08:48:58.304623038,1744181338,304426500,,67.67462158202981,2.0095891952516767,0.0,0.0,0.0,2.882266283034866
2025/04/09 08:48:58.404550161,1744181338,404332062,,66.58256530761608,2.0982980728150826,0.0,0.0,0.0,2.9526169300076575
2025/04/09 08:48:58.509395782,1744181338,509183534,,66.98342895507686,2.1036467552186897,0.0,0.0,0.0,2.954546689986831
2025/04/09 08:48:58.604441896,1744181338,604203602,,66.30417633056604,0.7122031450268395,0.0,0.0,0.0,2.762160301209015
2025/04/09 08:48:58.707021287,1744181338,706765847,,66.69844818115178,0.7173989415164718,0.0,0.0,0.0,2.764072895050738
2025/04/09 08:48:58.806189485,1744181338,805704092,,65.7206268310215,2.665268182766804,0.0,0.0,0.0,2.5681111812352597
2025/04/09 08:48:58.908221189,1744181338,907778022,,65.04756164550196,2.985978841784011,0.0,0.0,0.0,2.586334228510939
2025/04/09 08:48:59.6429610,1744181339,6211605,,65.43214416503885,2.9906225204468657,0.0,0.0,0.0,2.588175058364694
2025/04/09 08:48:59.111729915,1744181339,108824480,,64.78815460205061,4.6262297630310405,0.0,0.0,0.0,2.669855594634935
2025/04/09 08:48:59.206539201,1744181339,205478778,,65.1663970947259,4.630801200866904,0.0,0.0,0.0,2.6716876029964283
2025/04/09 08:48:59.305374712,1744181339,305148717,,64.16252136230469,3.0234079360961914,0.0,0.0,0.0,2.4154238700866593
2025/04/09 08:48:59.408543845,1744181339,408312809,,63.53402709959286,2.0918586254173577,0.0,0.0,0.0,2.256866216649147
2025/04/09 08:48:59.506624165,1744181339,506382874,,63.895996093749474,1.6037575006484435,0.0,0.0,0.0,2.2952136993409127
2025/04/09 08:48:59.607934224,1744181339,606177479,,64.26187133789008,1.6076912879943337,0.0,0.0,0.0,2.2969527244568617
2025/04/09 08:48:59.711727818,1744181339,707885477,,62.836265563962755,1.9818047285083842,0.0,0.0,0.0,2.1916511058799877
2025/04/09 08:48:59.805562198,1744181339,805345009,,62.163459777815945,2.6719982624111394,0.0,0.0,0.0,2.169416904438325
2025/04/09 08:48:59.909242291,1744181339,905833226,,62.520309448222335,2.6756303310466087,0.0,0.0,0.0,2.1711077689984997
2025/04/09 08:49:00.8026987,1744181340,7593709,,61.85311508178707,2.9811041355133265,0.0,0.0,0.0,2.23557114601131
2025/04/09 08:49:00.106727486,1744181340,106458927,,62.20406723022459,2.9846761226654146,0.0,0.0,0.0,2.2372515201568532
2025/04/09 08:49:00.204934288,1744181340,204704234,,61.22102737426707,1.3791993856428708,0.0,0.0,0.0,1.9822105169298396
2025/04/09 08:49:00.307644913,1744181340,307189639,,60.58301162717642,3.0287144184190966,0.0,0.0,0.0,1.862282156929055
2025/04/09 08:49:00.405858768,1744181340,405669716,,60.925296783447266,3.0317318439483643,0.0,0.0,0.0,1.863867163658142
2025/04/09 08:49:00.506099776,1744181340,505884545,,59.96923065185533,4.609403133392361,0.0,0.0,0.0,1.9212735891341453
2025/04/09 08:49:00.606351178,1744181340,606100578,,60.305847167968466,4.6123695373535885,0.0,0.0,0.0,1.922847270965427
2025/04/09 08:49:00.705949430,1744181340,705746741,,59.634449005126896,5.716629981994635,0.0,0.0,0.0,1.7273366451263108
2025/04/09 08:49:00.806506439,1744181340,806337277,,59.96549606323237,5.719436168670664,0.0,0.0,0.0,1.7288789749145295
2025/04/09 08:49:00.909730473,1744181340,909043218,,59.29993057241727,3.270510435141342,0.0,0.0,0.0,1.6143164633984597
2025/04/09 08:49:01.5240335,1744181341,5029163,,58.27315521240189,1.3364770412442974,0.0,0.0,0.0,1.6684939861300592
2025/04/09 08:49:01.105570467,1744181341,105335426,,58.596004486083686,1.3389673233030286,0.0,0.0,0.0,1.6699734926226455
2025/04/09 08:49:01.208298819,1744181341,207250085,,57.95126342770752,2.974741697321648,0.0,0.0,0.0,1.571834087351931
2025/04/09 08:49:01.306744124,1744181341,304974941,,58.268756866449465,2.9771976470966255,0.0,0.0,0.0,1.5733034610711591
2025/04/09 08:49:01.405448771,1744181341,405133076,,57.29761886591899,2.489738225954929,0.0,0.0,0.0,1.4020352363235524
2025/04/09 08:49:01.506475229,1744181341,506205333,,56.66902160644503,4.085421562194891,0.0,0.0,0.0,1.4590833187101921
2025/04/09 08:49:01.605133464,1744181341,604920521,,56.978645324706775,4.087589263916069,0.0,0.0,0.0,1.460490465164078
2025/04/09 08:49:01.705367122,1744181341,704860635,,56.05245971677527,2.329554557807859,0.0,0.0,0.0,1.5090947151037533
2025/04/09 08:49:01.806004188,1744181341,805765097,,56.35694122314134,2.33168768882835,0.0,0.0,0.0,1.510490655897442
2025/04/09 08:49:01.906662470,1744181341,906508042,,55.71302795398261,2.124177932784206,0.0,0.0,0.0,1.3258802889902874
2025/04/09 08:49:02.5140129,1744181342,4615665,,56.01245117175682,2.126155853316131,0.0,0.0,0.0,1.327239751728861
2025/04/09 08:49:02.106973129,1744181342,106130221,,55.064010620116996,0.6176730990412882,0.0,0.0,0.0,1.2036789655678746
2025/04/09 08:49:02.205345654,1744181342,205058629,,55.35845565795854,0.619401454925578,0.0,0.0,0.0,1.2049807310103695
2025/04/09 08:49:02.308544119,1744181342,308319378,,54.44880294799752,-0.44935172796250156,0.0,0.0,0.0,1.212868452072147
2025/04/09 08:49:02.408194777,1744181342,407362683,,53.825134277337476,-0.9529674053195818,0.0,0.0,0.0,1.169353842735923
2025/04/09 08:49:02.506784650,1744181342,506537822,,54.11226272580883,-0.9514178037656345,0.0,0.0,0.0,1.1706277132056648
2025/04/09 08:49:02.607101275,1744181342,604448126,,53.19151687621907,-1.4754668474198303,0.0,0.0,0.0,1.2120605707170071
2025/04/09 08:49:02.708116074,1744181342,707125277,,53.47386550902779,-1.474031090736729,0.0,0.0,0.0,1.21332335472162
2025/04/09 08:49:02.804330057,1744181342,804102093,,52.82732009886863,-0.46879690885567593,0.0,0.0,0.0,0.9605560898787537
2025/04/09 08:49:02.905440296,1744181342,905173297,,53.10496902465898,-0.46749511359812423,0.0,0.0,0.0,0.9617668390501493
2025/04/09 08:49:03.11367040,1744181343,9570836,,52.23614501952929,0.7911311984073359,0.0,0.0,0.0,0.7841182351125617
2025/04/09 08:49:03.106062355,1744181343,105083031,,51.61011886595261,1.8240946531303452,0.0,0.0,0.0,0.80784773826581
2025/04/09 08:49:03.204750888,1744181343,204519722,,51.88085556030191,1.8253375291825078,0.0,0.0,0.0,0.8089842200278561
2025/04/09 08:49:03.308053053,1744181343,307242333,,51.01877212524825,2.574285745627588,0.0,0.0,0.0,0.8611943125827288
2025/04/09 08:49:03.406597561,1744181343,405222434,,51.28499603271476,2.5756065845489675,0.0,0.0,0.0,0.8623194694518865
2025/04/09 08:49:03.504948472,1744181343,504717813,,50.70083999633887,2.96333217620987,0.0,0.0,0.0,0.8650398254415634
2025/04/09 08:49:03.607850988,1744181343,607643629,,50.09025955200191,2.941402435302741,0.0,0.0,0.0,0.924723684787768
2025/04/09 08:49:03.707043041,1744181343,706632031,,50.34984970092769,2.9425575733184948,0.0,0.0,0.0,0.9258480072021342
2025/04/09 08:49:03.804899164,1744181343,804723757,,49.4563369750976,2.794916629791278,0.0,0.0,0.0,0.9178789854049647
2025/04/09 08:49:03.910051991,1744181343,909799406,,49.71158981323236,2.796047687530532,0.0,0.0,0.0,0.9189910292625356
2025/04/09 08:49:04.8893161,1744181344,6904319,,49.113605499267294,1.3591363430023404,0.0,0.0,0.0,1.2136526107787873
2025/04/09 08:49:04.106274670,1744181344,106098503,,49.36459732055662,1.3605027198791522,0.0,0.0,0.0,1.214820981025703
2025/04/09 08:49:04.212686601,1744181344,212430460,,48.509536743139876,1.4537780284898503,0.0,0.0,0.0,1.3712404966340053
2025/04/09 08:49:04.305338089,1744181344,305133119,,47.98827743530075,1.6509952545167212,0.0,0.0,0.0,1.3910351991652874
2025/04/09 08:49:04.408716616,1744181344,405411229,,48.23300170898254,1.6525206565858541,0.0,0.0,0.0,1.3922406435011325
2025/04/09 08:49:04.525088014,1744181344,522527054,,47.38391494751335,3.2627637386357087,0.0,0.0,0.0,1.355748772625077
2025/04/09 08:49:04.604189088,1744181344,603974953,,47.62454605102535,3.2642705440521285,0.0,0.0,0.0,1.356946229934696
2025/04/09 08:49:04.707466554,1744181344,707267413,,46.85428237915043,1.5473912954331281,0.0,0.0,0.0,1.626885652542228
2025/04/09 08:49:04.806418160,1744181344,806184352,,47.09088897705078,1.549067735671997,0.0,0.0,0.0,1.6281287670135534
2025/04/09 08:49:04.905440173,1744181344,905229713,,46.308917999262064,1.8711198568347611,0.0,0.0,0.0,1.5599933862685411
2025/04/09 08:49:05.8711970,1744181345,6495358,,46.54156875609801,1.8727740049367627,0.0,0.0,0.0,1.561228632926472
2025/04/09 08:49:05.107954641,1744181345,107587980,,45.925460815429616,3.566395998001033,0.0,0.0,0.0,1.985555291175725
2025/04/09 08:49:05.209706938,1744181345,208358472,,46.1542129516601,3.56828403472896,0.0,0.0,0.0,1.9868589639664798
2025/04/09 08:49:05.305411363,1744181345,304308727,,45.63821792602529,3.4114451408385835,0.0,0.0,0.0,2.145536184311002
2025/04/09 08:49:05.407984350,1744181345,405230753,,44.88031005859369,4.5289216041564915,0.0,0.0,0.0,2.077542066574093
2025/04/09 08:49:05.504580367,1744181345,504337226,,45.10333633422843,4.530990123748771,0.0,0.0,0.0,2.0789022445678746
2025/04/09 08:49:05.605040839,1744181345,604840480,,44.3156547546386,5.290606975555429,0.0,0.0,0.0,2.532610416412325
2025/04/09 08:49:05.713237273,1744181345,712998643,,44.53493881225576,5.292875289917004,0.0,0.0,0.0,2.534035444259608
2025/04/09 08:49:05.805536415,1744181345,805350318,,43.96640396117937,4.30490303039626,0.0,0.0,0.0,2.685848712919725
2025/04/09 08:49:05.908797994,1744181345,908537109,,44.18201065063252,4.307327747345783,0.0,0.0,0.0,2.6873276233657553
2025/04/09 08:49:06.9705962,1744181346,9408464,,43.65753173826181,4.613777160652807,0.0,0.0,0.0,2.731690883620608
2025/04/09 08:49:06.105938562,1744181346,104979276,,42.84378814696379,2.52923393249803,0.0,0.0,0.0,2.808509111398882
2025/04/09 08:49:06.204117678,1744181346,203917721,,43.05398941040009,2.5317687988281254,0.0,0.0,0.0,2.8100326061248566
2025/04/09 08:49:06.308133506,1744181346,306258694,,42.58248138427721,0.9983919262882,0.0,0.0,0.0,2.746234655380695
