time,header_stamp_secs,header_stamp_nsecs,header_frame_id,wrench_force_x,wrench_force_y,wrench_force_z,wrench_torque_x,wrench_torque_y,wrench_torque_z
2025/04/05 15:58:41.646556976,1743861521,646450746,,0.06387564727720019,0.004760002565530996,0.0,0.0,0.0,0.0006616847768583511
2025/04/05 15:58:41.741458438,1743861521,741293628,,0.06417238702363193,0.004574924863083751,0.0,0.0,0.0,0.000677409472630508
2025/04/05 15:58:41.861522755,1743861521,861359935,,0.06411338497181873,0.004133832356853162,0.0,0.0,0.0,0.0007249465302390234
2025/04/05 15:58:41.936835483,1743861521,936530976,,0.06422148229376035,0.004092626577081759,0.0,0.0,0.0,0.0007181108636498124
2025/04/05 15:58:42.36894984,1743861522,36700620,,0.06452610937429881,0.0043551573790772125,0.0,0.0,0.0,0.000710247374227535
2025/04/05 15:58:42.136094862,1743861522,135928976,,0.06449146275022599,0.004053060070789982,0.0,0.0,0.0,0.0007105861962086735
2025/04/05 15:58:42.237424733,1743861522,237262309,,0.06465570987984393,0.003726212984503263,0.0,0.0,0.0,0.0006927982533833088
2025/04/05 15:58:42.337869511,1743861522,337538293,,0.06501324483994608,0.003716137930051211,0.0,0.0,0.0,0.0006947752024464293
2025/04/05 15:58:42.468322948,1743861522,447676205,,0.06500543483457477,0.0035737893906615525,0.0,0.0,0.0,0.0007210762748179889
2025/04/05 15:58:42.546185031,1743861522,546025355,,0.06517037572530171,0.0034999917297007244,0.0,0.0,0.0,0.0007138742017991362
2025/04/05 15:58:42.637405655,1743861522,637131443,,0.06530639277394812,0.002722076056067557,0.0,0.0,0.0,0.0007153856902126776
2025/04/05 15:58:42.736854561,1743861522,736689217,,0.06543666335898024,0.0032541292814265432,0.0,0.0,0.0,0.000716928077425294
2025/04/05 15:58:42.837237552,1743861522,836981171,,0.06561527498155328,0.0032511949893985204,0.0,0.0,0.0,0.0007255163477717375
2025/04/05 15:58:42.937924480,1743861522,937675452,,0.06580850850610886,0.004051983428466244,0.0,0.0,0.0,0.0007434156909411627
2025/04/05 15:58:43.61774601,1743861523,61628573,,0.06596764585822257,0.0034804889080453094,0.0,0.0,0.0,0.0007406400901199817
2025/04/05 15:58:43.140124107,1743861523,139942876,,0.06610723097321625,0.0038078327514066146,0.0,0.0,0.0,0.0007320846434328843
2025/04/05 15:58:43.241347379,1743861523,240440765,,0.06651605439986952,0.004306467468561337,0.0,0.0,0.0,0.0007350745358971622
2025/04/05 15:58:43.335451687,1743861523,335166583,,0.06647870580559356,0.0030830640871775117,0.0,0.0,0.0,0.0007329896916772327
2025/04/05 15:58:43.435899089,1743861523,435741191,,0.06670142550541414,0.0031295424239230485,0.0,0.0,0.0,0.0007351826744166345
2025/04/05 15:58:43.536743649,1743861523,536144969,,0.06716565579554867,0.0031537047958467568,0.0,0.0,0.0,0.0007385044866135004
2025/04/05 15:58:43.636473573,1743861523,636314730,,0.06717789049122302,0.002463753743678687,0.0,0.0,0.0,0.000719048941276057
2025/04/05 15:58:43.740101246,1743861523,739945992,,0.06743808202134005,0.0037103415553367824,0.0,0.0,0.0,0.000716494334282558
2025/04/05 15:58:43.836292445,1743861523,836198756,,0.06763516477090548,0.002596285199868653,0.0,0.0,0.0,0.0007061209710643723
2025/04/05 15:58:43.942258081,1743861523,941969884,,0.06785886895272597,0.0032603157431596586,0.0,0.0,0.0,0.0007125948372168622
2025/04/05 15:58:44.36032174,1743861524,35761092,,0.06835216563831636,0.0033041027101461395,0.0,0.0,0.0,0.0007254570364461088
2025/04/05 15:58:44.135338299,1743861524,134507243,,0.06835769120559121,0.003298424537736544,0.0,0.0,0.0,0.000631186955708074
2025/04/05 15:58:44.265883578,1743861524,265740961,,0.06857678914190046,0.002286064982559566,0.0,0.0,0.0,0.000676035991731716
2025/04/05 15:58:44.338420622,1743861524,338249018,,0.06884082437861139,0.00328438592814706,0.0,0.0,0.0,0.0007102620972956331
2025/04/05 15:58:44.435021140,1743861524,434868266,,0.06912591349117747,0.002928445917477873,0.0,0.0,0.0,0.0006832204419602306
2025/04/05 15:58:44.537488656,1743861524,536424049,,0.06966582694423096,0.0027874757456789467,0.0,0.0,0.0,0.0007006125091493232
2025/04/05 15:58:44.634931536,1743861524,634774052,,0.06971752281955901,0.002980401673438493,0.0,0.0,0.0,0.0006346150338796264
2025/04/05 15:58:44.739892313,1743861524,739719118,,0.07002317569714478,0.002960577177649526,0.0,0.0,0.0,0.000658365366499325
2025/04/05 15:58:44.836265133,1743861524,836177331,,0.07040977125774361,0.002850287665332907,0.0,0.0,0.0,0.0005636040371359563
2025/04/05 15:58:44.944031599,1743861524,943541118,,0.07069580404956355,0.001276527839095376,0.0,0.0,0.0,0.000607550924244471
2025/04/05 15:58:45.36492470,1743861525,36336763,,0.07128839031989287,0.0011664747511832552,0.0,0.0,0.0,0.000611518936645794
2025/04/05 15:58:45.135343164,1743861525,135168075,,0.07137293078574203,0.0011572868004461334,0.0,0.0,0.0,0.0005032866514365075
2025/04/05 15:58:45.235901625,1743861525,234942987,,0.07171522116635742,0.0020044701073729243,0.0,0.0,0.0,0.0005470887343927977
2025/04/05 15:58:45.337897653,1743861525,337602875,,0.07201485769746796,0.0007298666462767223,0.0,0.0,0.0,0.0006191778758886102
2025/04/05 15:58:45.468376382,1743861525,468243674,,0.07238082749475439,0.001749158012311014,0.0,0.0,0.0,0.000622109442435459
2025/04/05 15:58:45.537456244,1743861525,536777906,,0.07275556216416135,0.003185930647525481,0.0,0.0,0.0,0.0006133839335209501
2025/04/05 15:58:45.636137116,1743861525,635984710,,0.07313194263983291,0.0020915914463595087,0.0,0.0,0.0,0.0005745138545254491
2025/04/05 15:58:45.741243773,1743861525,741084907,,0.0737847179815958,0.0028851173023616283,0.0,0.0,0.0,0.0005974435738966832
2025/04/05 15:58:45.838640607,1743861525,838493610,,0.07389752452058929,0.0023169983648525516,0.0,0.0,0.0,0.0004466747373728097
2025/04/05 15:58:45.943658748,1743861525,943241327,,0.07430569271696186,0.0028394588574247592,0.0,0.0,0.0,0.00048360643674127957
2025/04/05 15:58:46.37206266,1743861526,37040095,,0.07498702211779573,0.0019169999963897233,0.0,0.0,0.0,0.000531923368278342
2025/04/05 15:58:46.140675093,1743861526,140528081,,0.0751749401530617,0.0014651369786062851,0.0,0.0,0.0,0.0004145700609221592
2025/04/05 15:58:46.236265127,1743861526,235889435,,0.07560449684268633,0.0006675973332510576,0.0,0.0,0.0,0.0004465134080020583
2025/04/05 15:58:46.336664410,1743861526,336365155,,0.07603736565249619,0.0026773424067130236,0.0,0.0,0.0,0.0005224373103143165
2025/04/05 15:58:46.438731600,1743861526,438287499,,0.07650623148509794,0.0017364742164027724,0.0,0.0,0.0,0.0004958041849545403
2025/04/05 15:58:46.536934094,1743861526,536766803,,0.0772584272967265,0.0017722939511193303,0.0,0.0,0.0,0.0005192963221527513
2025/04/05 15:58:46.661653843,1743861526,661502353,,0.07741495931821873,0.0019423156496745086,0.0,0.0,0.0,0.0003468064928253689
2025/04/05 15:58:46.738215738,1743861526,738015050,,0.07814796733259755,0.0011288746433355534,0.0,0.0,0.0,0.00044959379884801365
2025/04/05 15:58:46.835503463,1743861526,835353042,,0.07832256548709893,0.0008111402540549317,0.0,0.0,0.0,0.00032370366142497886
2025/04/05 15:58:46.940631348,1743861526,940511201,,0.07907290314938109,0.0010444364665826988,0.0,0.0,0.0,0.0004281583993868132
2025/04/05 15:58:47.35752088,1743861527,35614182,,0.07926526602483364,0.001349708694464713,0.0,0.0,0.0,0.0003307324842460879
2025/04/05 15:58:47.135945397,1743861527,135670012,,0.08007541575352661,0.0011898507605261344,0.0,0.0,0.0,0.0004154327354366494
2025/04/05 15:58:47.236607347,1743861527,236189675,,0.08031682130680906,0.0007425839859178662,0.0,0.0,0.0,0.00028651243057908893
2025/04/05 15:58:47.342228069,1743861527,342018187,,0.08114776038621585,0.00034810947459740227,0.0,0.0,0.0,0.0003908268281724858
2025/04/05 15:58:47.436271557,1743861527,436094393,,0.0814133719277379,0.000674500844421333,0.0,0.0,0.0,0.0002574490827005338
2025/04/05 15:58:47.535708784,1743861527,535517428,,0.08196900021377473,0.001412253214652992,0.0,0.0,0.0,0.0003126106186512878
2025/04/05 15:58:47.634780171,1743861527,634629988,,0.08251761238042832,0.0017421190421491595,0.0,0.0,0.0,0.0003961998644284037
2025/04/05 15:58:47.737398494,1743861527,736326431,,0.0831259348026947,0.002098814251667136,0.0,0.0,0.0,0.0003750878440373917
2025/04/05 15:58:47.867437427,1743861527,867195816,,0.0836487293302639,0.0030767688865429577,0.0,0.0,0.0,0.00037795723635847267
2025/04/05 15:58:47.942935794,1743861527,942766016,,0.08452191158488631,0.0026117206913554014,0.0,0.0,0.0,0.00038187902597819345
2025/04/05 15:58:48.37271323,1743861528,37111890,,0.08475819773977378,0.0004818621041280391,0.0,0.0,0.0,0.00022664356236412608
2025/04/05 15:58:48.138924350,1743861528,138765484,,0.08563209109718173,0.0006035755471942572,0.0,0.0,0.0,0.0003186198075355584
2025/04/05 15:58:48.237263715,1743861528,237128505,,0.08589021718859158,0.0006198045313836609,0.0,0.0,0.0,0.0002299786670287851
2025/04/05 15:58:48.338231008,1743861528,338061426,,0.08681677738681515,0.0013263782734900254,0.0,0.0,0.0,0.0003025006263313035
2025/04/05 15:58:48.438316941,1743861528,436888968,,0.08674821340065364,0.00039331386173513394,0.0,0.0,0.0,0.00015671972063135975
2025/04/05 15:58:48.539016446,1743861528,538810995,,0.08698108897840484,0.0010841108537054112,0.0,0.0,0.0,0.00020494294130357638
2025/04/05 15:58:48.640021751,1743861528,639516837,,0.0871962196471543,0.0005368645927652516,0.0,0.0,0.0,0.0002922229263950804
2025/04/05 15:58:48.738124434,1743861528,737907653,,0.08776253158987402,0.0007615965835081617,0.0,0.0,0.0,0.00029372404534644403
2025/04/05 15:58:48.840590915,1743861528,840324215,,0.08767975429182684,0.000635080477277894,0.0,0.0,0.0,0.00015723864140926302
2025/04/05 15:58:48.940330774,1743861528,940165663,,0.08820916904394949,0.00015397390257004817,0.0,0.0,0.0,0.0002289136471986808
2025/04/05 15:58:49.62127539,1743861529,61849340,,0.08809368565925979,0.0014101473373240303,0.0,0.0,0.0,0.000127963390535335
2025/04/05 15:58:49.144350678,1743861529,142315571,,0.08826561382346654,0.0019366158608282724,0.0,0.0,0.0,0.00011993011403832465
2025/04/05 15:58:49.236073069,1743861529,235953521,,0.08845289307174653,0.0025313528207808744,0.0,0.0,0.0,0.00016766984154692466
2025/04/05 15:58:49.335571927,1743861529,335360740,,0.08863729093440043,0.002062482319086456,0.0,0.0,0.0,8.22305623905395e-05
2025/04/05 15:58:49.435869996,1743861529,435668867,,0.08880876246152525,0.0011376674828262878,0.0,0.0,0.0,0.00011302369901522447
2025/04/05 15:58:49.534959113,1743861529,534862355,,0.08894920835979292,0.0014518124998605941,0.0,0.0,0.0,0.00018829228887207172
2025/04/05 15:58:49.638955198,1743861529,638752936,,0.08913654571608731,0.0005750890280051824,0.0,0.0,0.0,0.00016452265216293505
2025/04/05 15:58:49.743011057,1743861529,742770829,,0.0893379933976064,0.0011151604945847104,0.0,0.0,0.0,0.0001662518045961736
2025/04/05 15:58:49.840149734,1743861529,839886038,,0.0895656748694762,0.0012752076286779435,0.0,0.0,0.0,7.005095909295989e-05
2025/04/05 15:58:49.937720609,1743861529,937555103,,0.08974178609531691,0.0011061149447195717,0.0,0.0,0.0,7.591284513275287e-05
2025/04/05 15:58:50.35685530,1743861530,35577335,,0.08990258668904971,0.0017551195577940604,0.0,0.0,0.0,0.00013319291444968684
2025/04/05 15:58:50.136835260,1743861530,134939828,,0.09008831863107503,0.001327502901797395,0.0,0.0,0.0,0.00010915896621110921
2025/04/05 15:58:50.261815506,1743861530,261438410,,0.0902664930177366,0.00045727828348152144,0.0,0.0,0.0,0.0001111707674285034
2025/04/05 15:58:50.339520302,1743861530,339307610,,0.09044589419073645,0.0011302848255185793,0.0,0.0,0.0,8.791005455133227e-05
2025/04/05 15:58:50.436530945,1743861530,436146929,,0.09061259390125542,0.0010157249174920224,0.0,0.0,0.0,8.98547683163553e-05
2025/04/05 15:58:50.537328002,1743861530,536644947,,0.09113817177848205,0.0007431402396631537,0.0,0.0,0.0,9.110091603126147e-05
2025/04/05 15:58:50.635201579,1743861530,635040611,,0.09131062538239121,-0.00027002787097607506,0.0,0.0,0.0,-7.67163395439252e-05
2025/04/05 15:58:50.744083011,1743861530,742780960,,0.09110619040848178,0.0005729966734553393,0.0,0.0,0.0,-0.00010767849349957448
2025/04/05 15:58:50.835945694,1743861530,835806676,,0.09158193686613458,-0.00020144855410569873,0.0,0.0,0.0,-3.0135641737510932e-05
2025/04/05 15:58:50.941686052,1743861530,941412032,,0.09138134316913238,0.00020234797481266664,0.0,0.0,0.0,-5.515136399625309e-05
2025/04/05 15:58:51.35310996,1743861531,35038470,,0.0914916517050699,0.0009646474346376444,0.0,0.0,0.0,-9.524724346274271e-06
2025/04/05 15:58:51.136590577,1743861531,136423095,,0.09165340961783386,0.0010251378809762457,0.0,0.0,0.0,1.1441573667003713e-05
2025/04/05 15:58:51.237073618,1743861531,236933059,,0.09181145002173707,0.000799004305033435,0.0,0.0,0.0,1.4256583894506347e-05
2025/04/05 15:58:51.338409613,1743861531,337898579,,0.0919800662597936,0.00137025802813584,0.0,0.0,0.0,1.6506901665491736e-05
2025/04/05 15:58:51.463252658,1743861531,463080286,,0.09212361162815341,0.001168308139376073,0.0,0.0,0.0,-1.2715006995345224e-05
2025/04/05 15:58:51.538963840,1743861531,538593119,,0.0922627191822869,0.0006559610953584816,0.0,0.0,0.0,-1.0723403975981816e-05
2025/04/05 15:58:51.636210133,1743861531,636064279,,0.09278011568454758,0.0013381973410528936,0.0,0.0,0.0,-9.769369551757001e-06
2025/04/05 15:58:51.736322878,1743861531,736171741,,0.09292073903850451,0.0009407538319146092,0.0,0.0,0.0,-0.00013874267905678028
2025/04/05 15:58:51.837461940,1743861531,837281461,,0.09271521998761045,-3.047933776229028e-06,0.0,0.0,0.0,-0.00012349687181179014
2025/04/05 15:58:51.939726669,1743861531,939592395,,0.09319927375591419,0.0003792982897790065,0.0,0.0,0.0,-6.541508918650463e-05
2025/04/05 15:58:52.34852741,1743861532,34692933,,0.09333113879321786,0.0003092461406599689,0.0,0.0,0.0,-0.00016593397585462633
2025/04/05 15:58:52.138400745,1743861532,137869828,,0.09309122457545982,0.00041374649495418137,0.0,0.0,0.0,-9.488268895208041e-05
2025/04/05 15:58:52.238794217,1743861532,238403241,,0.09358682905474325,0.000490386010469801,0.0,0.0,0.0,-9.398810320271345e-05
2025/04/05 15:58:52.337669506,1743861532,336804565,,0.09334985913028504,0.0003873584275075892,0.0,0.0,0.0,-0.0001496729777601402
2025/04/05 15:58:52.441530399,1743861532,438484995,,0.09346572605255687,0.0004088128638163324,0.0,0.0,0.0,-0.00011053568233831967
2025/04/05 15:58:52.536299001,1743861532,536138692,,0.09359166705553434,-0.0008339027844679325,0.0,0.0,0.0,-7.800796265911014e-05
2025/04/05 15:58:52.664018775,1743861532,663432272,,0.09374398636663273,0.0011491868514368342,0.0,0.0,0.0,-8.3926252622879e-05
2025/04/05 15:58:52.737192077,1743861532,736950396,,0.09423195108547588,0.0008558667574809498,0.0,0.0,0.0,-8.312446736058465e-05
2025/04/05 15:58:52.838892217,1743861532,838740608,,0.0943453658840383,-0.00017114518111160937,0.0,0.0,0.0,-0.00018811681246222456
2025/04/05 15:58:52.939263079,1743861532,936875769,,0.09405527331912822,0.0001430988259527588,0.0,0.0,0.0,-0.0001392507289109668
2025/04/05 15:58:53.37946825,1743861533,37484452,,0.09417734876529948,8.393396203715264e-05,0.0,0.0,0.0,-0.00010832209547384508
2025/04/05 15:58:53.138336097,1743861533,138168564,,0.094701714739017,0.00010712792620135025,0.0,0.0,0.0,-0.00010747802460686628
2025/04/05 15:58:53.236776381,1743861533,236607210,,0.09484593044967937,-3.0169835832927205e-05,0.0,0.0,0.0,-0.00020523711770414899
2025/04/05 15:58:53.345095309,1743861533,344913980,,0.09462844543514848,0.0001856778113933366,0.0,0.0,0.0,-0.00014563883332296967
2025/04/05 15:58:53.436267766,1743861533,436159638,,0.09471194770165425,5.1162710595964445e-05,0.0,0.0,0.0,-0.00015199599888537918
2025/04/05 15:58:53.536127487,1743861533,535470285,,0.09482334316538754,-0.0005738017165826115,0.0,0.0,0.0,-0.0001467758750484105
2025/04/05 15:58:53.635867711,1743861533,635396225,,0.09494509791164774,6.917789303692579e-05,0.0,0.0,0.0,-0.0001291172012078956
2025/04/05 15:58:53.736035070,1743861533,735864620,,0.09506640244779874,0.00038592894040301307,0.0,0.0,0.0,-0.0001264276141711429
2025/04/05 15:58:53.867695222,1743861533,867515946,,0.09556405103450061,0.0003997451539067276,0.0,0.0,0.0,-0.00012569922171357106
2025/04/05 15:58:53.937887549,1743861533,937183083,,0.09567960126159392,0.00012049992493137762,0.0,0.0,0.0,-0.00013962872587436337
2025/04/05 15:58:54.39780743,1743861534,37661227,,0.09543286009142093,-6.928933332756015e-05,0.0,0.0,0.0,-0.00012615749510946905
2025/04/05 15:58:54.135084397,1743861534,134942330,,0.09549408191239195,-0.000636660774996356,0.0,0.0,0.0,-0.00012456454641229797
2025/04/05 15:58:54.237234642,1743861534,237079777,,0.09560706356447213,-0.00016193255174068444,0.0,0.0,0.0,-0.00012650662851354522
2025/04/05 15:58:54.336347115,1743861534,336248954,,0.09571727146800413,0.0005271359260274888,0.0,0.0,0.0,-0.00012268215810562477
2025/04/05 15:58:54.441536929,1743861534,441198780,,0.095827303039556,0.0006194700949238019,0.0,0.0,0.0,-0.00011916456220284477
2025/04/05 15:58:54.544476272,1743861534,544071795,,0.09594874716239588,0.0006305036437135314,0.0,0.0,0.0,-0.00011659085592441443
2025/04/05 15:58:54.638784886,1743861534,636826134,,0.09643033453653516,0.0006300060115629336,0.0,0.0,0.0,-0.00011585975176708896
2025/04/05 15:58:54.736184584,1743861534,736035403,,0.0965200224513012,0.0006763190686536191,0.0,0.0,0.0,-9.060988719356011e-05
2025/04/05 15:58:54.844770569,1743861534,844671512,,0.09628828169701364,0.0005924350302333181,0.0,0.0,0.0,-0.00010323285536628646
2025/04/05 15:58:54.945455332,1743861534,945354142,,0.09636200603642919,-0.000483428717349077,0.0,0.0,0.0,-0.00010986438986759772
2025/04/05 15:58:55.63480238,1743861535,62958951,,0.09645787427041341,-0.0002751759413474053,0.0,0.0,0.0,-0.00011031458652799309
2025/04/05 15:58:55.137820146,1743861535,136099003,,0.09695365954632962,5.311164511007105e-05,0.0,0.0,0.0,-0.00010955968711590103
2025/04/05 15:58:55.235871029,1743861535,235432475,,0.097054652265399,0.0002702337645624775,0.0,0.0,0.0,-0.00011565912830657776
2025/04/05 15:58:55.339536785,1743861535,338122934,,0.09678968534444721,0.0005911674564167413,0.0,0.0,0.0,-0.00011024186673669334
2025/04/05 15:58:55.440284659,1743861535,439600228,,0.09694973744956314,0.0018970499944983565,0.0,0.0,0.0,-0.00010531533235225154
2025/04/05 15:58:55.537387596,1743861535,537238544,,0.09698366914875578,0.0014303789984193571,0.0,0.0,0.0,-9.657632663429006e-05
2025/04/05 15:58:55.635228485,1743861535,635093308,,0.09706379871127524,0.001892207203255225,0.0,0.0,0.0,-9.825488238945912e-05
2025/04/05 15:58:55.751000338,1743861535,749929721,,0.09714063101262127,0.0022463214727022063,0.0,0.0,0.0,-0.00010113972114023095
2025/04/05 15:58:55.836366450,1743861535,836061829,,0.097208344396563,0.0023961656973039425,0.0,0.0,0.0,-0.00010353127001239137
2025/04/05 15:58:55.942701288,1743861535,942165281,,0.0972979230852502,0.000414195009788787,0.0,0.0,0.0,-0.00010428321889088821
2025/04/05 15:58:56.35646878,1743861536,35000664,,0.0974448651540456,-0.0004851708109564479,0.0,0.0,0.0,-0.00010737611309974415
2025/04/05 15:58:56.137093486,1743861536,136466768,,0.09751274847027958,0.0003495266389335061,0.0,0.0,0.0,-0.00010759212775546256
2025/04/05 15:58:56.261966697,1743861536,261832792,,0.09761114421746697,-0.0001454702119261797,0.0,0.0,0.0,-0.00010890693277698649
2025/04/05 15:58:56.337381857,1743861536,337230277,,0.09774373510481382,0.0005808120027137598,0.0,0.0,0.0,-0.00013457562426910652
2025/04/05 15:58:56.436400140,1743861536,436009307,,0.09783418204145278,-0.00028885426110059065,0.0,0.0,0.0,-0.00012970098272857555
2025/04/05 15:58:56.535504509,1743861536,535188315,,0.09793280721694941,0.0006344633243740017,0.0,0.0,0.0,-0.00012020073789442698
2025/04/05 15:58:56.638814255,1743861536,638490564,,0.09800028144292128,0.00017592662626209066,0.0,0.0,0.0,-0.0001164825566674077
2025/04/05 15:58:56.741431876,1743861536,740212121,,0.09810132340453492,-0.0002816438249912956,0.0,0.0,0.0,-0.0001336610959782325
2025/04/05 15:58:56.839155580,1743861536,838984378,,0.09817298605520364,-0.000626636951018833,0.0,0.0,0.0,-0.00013194869525134933
2025/04/05 15:58:56.938333988,1743861536,938180674,,0.09824782824773592,0.00046680521392972185,0.0,0.0,0.0,-0.00012832277789931457
2025/04/05 15:58:57.35566300,1743861537,34913959,,0.09836755951027953,0.0013206677549715273,0.0,0.0,0.0,-0.0001198181768551354
2025/04/05 15:58:57.137667556,1743861537,136087426,,0.09845144211041656,0.0004098877588827321,0.0,0.0,0.0,-0.00011676741694210957
2025/04/05 15:58:57.235227430,1743861537,234805890,,0.09849747081398164,0.0005177510412945896,0.0,0.0,0.0,-0.00011514951375324323
2025/04/05 15:58:57.336738615,1743861537,336615460,,0.09856984959890269,0.0005097688841040338,0.0,0.0,0.0,-0.00011838545658804378
2025/04/05 15:58:57.467711377,1743861537,467563712,,0.0990421050163377,0.0005201854377294701,0.0,0.0,0.0,-0.00011568090128899478
2025/04/05 15:58:57.539591060,1743861537,538772422,,0.09913351607522713,0.0006481636198094609,0.0,0.0,0.0,-0.00012587951566822575
2025/04/05 15:58:57.637823645,1743861537,635725957,,0.09922226395818257,-0.00010027301104756359,0.0,0.0,0.0,-0.00012680448995305849
2025/04/05 15:58:57.738245272,1743861537,735559884,,0.09895525515514692,0.0019548036665097968,0.0,0.0,0.0,-0.00012722730649650238
2025/04/05 15:58:57.837240541,1743861537,836979371,,0.09902625634668993,0.0010974090111934842,0.0,0.0,0.0,-0.0001223479350842549
2025/04/05 15:58:57.940461007,1743861537,939454767,,0.09912205709929367,0.000770061367017183,0.0,0.0,0.0,-0.0001242979422162449
2025/04/05 15:58:58.36387533,1743861538,36167802,,0.0991828084298163,0.0010142916906938915,0.0,0.0,0.0,-0.0001214208943252082
2025/04/05 15:58:58.138028044,1743861538,137520469,,0.09925487546030354,0.00102026009817191,0.0,0.0,0.0,-0.00012001048951060245
2025/04/05 15:58:58.239683381,1743861538,239519745,,0.09973569240690949,0.0010354009007644827,0.0,0.0,0.0,-0.000120677591698648
2025/04/05 15:58:58.336698242,1743861538,335147568,,0.09941847068358811,0.00039366689430009316,0.0,0.0,0.0,-0.0001289448831555129
2025/04/05 15:58:58.444632104,1743861538,443660568,,0.09947222644876774,0.0011378867196429887,0.0,0.0,0.0,-0.00012516523360006637
2025/04/05 15:58:58.542452882,1743861538,540675384,,0.09953800475005892,0.0011838754835382659,0.0,0.0,0.0,-0.00013220983654338436
2025/04/05 15:58:58.663815031,1743861538,663694310,,0.1000221813205826,0.0014857307656148677,0.0,0.0,0.0,-0.00012420086351472293
2025/04/05 15:58:58.739982491,1743861538,739861490,,0.10010245848633303,0.001100920583601006,0.0,0.0,0.0,-0.00014245452889216637
2025/04/05 15:58:58.836922657,1743861538,836760125,,0.1001722713451727,0.0016520860049071828,0.0,0.0,0.0,-0.00014413914068200917
2025/04/05 15:58:58.947174311,1743861538,946995035,,0.10025856620552531,0.0011493693723951814,0.0,0.0,0.0,-0.00014868160191028323
2025/04/05 15:58:59.36326475,1743861539,36232156,,0.10037774241067154,0.0008954644169045789,0.0,0.0,0.0,-0.00014994579392724194
2025/04/05 15:58:59.136466462,1743861539,135848961,,0.10000840652531906,0.0005322550364561529,0.0,0.0,0.0,-0.00015180315884921747
2025/04/05 15:58:59.237469303,1743861539,237211852,,0.10007714760905628,0.0007731490311082556,0.0,0.0,0.0,-0.00014108432942361304
2025/04/05 15:58:59.340923732,1743861539,340572718,,0.10014409292290338,-4.148023288463865e-06,0.0,0.0,0.0,-0.00015614290518084495
2025/04/05 15:58:59.440122296,1743861539,439979665,,0.1002170809528593,0.00028747308087506696,0.0,0.0,0.0,-0.00015993378079515175
2025/04/05 15:58:59.538283522,1743861539,538127820,,0.10028090604816953,-0.00016166780352655508,0.0,0.0,0.0,-0.00015748193408993139
2025/04/05 15:58:59.635684818,1743861539,635530049,,0.101158133122766,-0.00015870501409059878,0.0,0.0,0.0,-0.0001570217003672436
2025/04/05 15:58:59.738035540,1743861539,737489364,,0.10048887532593653,-0.0002948851242904338,0.0,0.0,0.0,-0.0001426225838139228
2025/04/05 15:58:59.865649783,1743861539,865287691,,0.10051053167171631,-0.0004345356475865536,0.0,0.0,0.0,-0.00013835808361328805
2025/04/05 15:58:59.941305924,1743861539,940723080,,0.10056695544525951,0.0003150409706870194,0.0,0.0,0.0,-0.00013725569182176933
2025/04/05 15:59:00.36452494,1743861540,36283937,,0.10062456850590706,0.001352741664362167,0.0,0.0,0.0,-0.00013536275232073347
2025/04/05 15:59:00.135013530,1743861540,134858367,,0.10070486659753897,0.0006017969603353546,0.0,0.0,0.0,-0.00013328548395030726
2025/04/05 15:59:00.236857999,1743861540,236703195,,0.10076465380117838,0.00011580962471424705,0.0,0.0,0.0,-0.0001155147441608273
2025/04/05 15:59:00.335713828,1743861540,335397744,,0.10083070829784901,0.00011597196842694224,0.0,0.0,0.0,-0.0001197353932698153
2025/04/05 15:59:00.435977736,1743861540,435806121,,0.1009060399030659,-0.0003467464573082557,0.0,0.0,0.0,-0.00012266188949539014
2025/04/05 15:59:00.541549238,1743861540,541235441,,0.1010333624612656,-2.919996353406562e-06,0.0,0.0,0.0,-0.00012544988639939803
2025/04/05 15:59:00.636432196,1743861540,635957674,,0.10107290008673431,0.00026884609402633153,0.0,0.0,0.0,-0.00012127673792738936
2025/04/05 15:59:00.738532136,1743861540,736902487,,0.10113758120738225,0.00037416662672706824,0.0,0.0,0.0,-0.00011611269189226725
2025/04/05 15:59:00.837433503,1743861540,837293532,,0.1011941926164468,0.0006034396862426572,0.0,0.0,0.0,-0.00011009079942814193
2025/04/05 15:59:00.952107057,1743861540,951198909,,0.10165415926309151,0.0005978164913815753,0.0,0.0,0.0,-0.00010798235536269019
2025/04/05 15:59:01.78512213,1743861541,78334271,,0.10171246872602069,0.00024153028527623688,0.0,0.0,0.0,-0.00010933661224399316
2025/04/05 15:59:01.136968399,1743861541,136212022,,0.10139346704596619,0.0010203547509628486,0.0,0.0,0.0,-0.00010508010679333157
2025/04/05 15:59:01.235978612,1743861541,235769107,,0.10144141536591178,0.0012803385292956548,0.0,0.0,0.0,-0.00010289079109404575
2025/04/05 15:59:01.335587046,1743861541,335414617,,0.10149722908391823,0.0004172615659406853,0.0,0.0,0.0,-0.00010295796568393634
2025/04/05 15:59:01.437936504,1743861541,435928722,,0.10155471284406303,0.0008906971349567083,0.0,0.0,0.0,-0.00010296724358427323
2025/04/05 15:59:01.537303345,1743861541,537120766,,0.10203064416481311,0.0017661035124363345,0.0,0.0,0.0,-0.00010459427755982187
2025/04/05 15:59:01.637746737,1743861541,636771446,,0.10176463087026377,0.0002273932872404738,0.0,0.0,0.0,-0.00010538401994708568
2025/04/05 15:59:01.741850879,1743861541,740837079,,0.10177027388795068,0.0001853311666594193,0.0,0.0,0.0,-0.00010504385313192532
2025/04/05 15:59:01.836402483,1743861541,836162122,,0.10180388199330537,0.0012755829554795817,0.0,0.0,0.0,-0.0001046275804597041
2025/04/05 15:59:01.940616115,1743861541,940310163,,0.10187219702240213,0.00021581054416108802,0.0,0.0,0.0,-0.00010470399836592925
2025/04/05 15:59:02.42134573,1743861542,41942309,,0.10194682736175764,0.0009006913225879654,0.0,0.0,0.0,-0.00010448461361611816
2025/04/05 15:59:02.135641104,1743861542,135119824,,0.10199521019734448,0.0007060825157807482,0.0,0.0,0.0,-0.00010413898451278047
2025/04/05 15:59:02.262584092,1743861542,262458509,,0.10206239982079524,0.0011449803616461196,0.0,0.0,0.0,-0.00010689879768654986
2025/04/05 15:59:02.338216711,1743861542,337883808,,0.10216588506307289,0.00038888737193054634,0.0,0.0,0.0,-0.00010740632214334411
2025/04/05 15:59:02.439159406,1743861542,438717853,,0.1021809446979205,0.000944417245318574,0.0,0.0,0.0,-0.00010631924912274382
2025/04/05 15:59:02.538019422,1743861542,537835589,,0.10221908212551511,0.00029636868185412,0.0,0.0,0.0,-0.0001047649933301198
2025/04/05 15:59:02.637371199,1743861542,636349262,,0.10227898155690696,0.000913223967679011,0.0,0.0,0.0,-0.00011318511164870593
2025/04/05 15:59:02.738445220,1743861542,738292066,,0.10233336718331998,0.00029292163255567605,0.0,0.0,0.0,-0.00011485224322171916
2025/04/05 15:59:02.840395815,1743861542,836038081,,0.10239662892576007,0.0009314956105599403,0.0,0.0,0.0,-0.00011599416646246308
2025/04/05 15:59:02.949102752,1743861542,948089807,,0.10245280387260891,0.00031254614363218636,0.0,0.0,0.0,-0.00011620863303907214
2025/04/05 15:59:03.35907917,1743861543,35772163,,0.10256372373930844,0.0011539221955731982,0.0,0.0,0.0,-0.00011431000154749071
2025/04/05 15:59:03.142807423,1743861543,142473119,,0.10260193064385703,0.0002555666639177945,0.0,0.0,0.0,-0.0001125195354312325
2025/04/05 15:59:03.238392196,1743861543,238181979,,0.10263271117628392,0.0011043835655559775,0.0,0.0,0.0,-0.00011300803591807185
2025/04/05 15:59:03.337913937,1743861543,337637239,,0.10268625291951139,0.0002027334206823883,0.0,0.0,0.0,-0.00011437834318905882
2025/04/05 15:59:03.465633750,1743861543,465352104,,0.10315346935249181,0.0010806522463515655,0.0,0.0,0.0,-0.00011474083643026045
2025/04/05 15:59:03.545696113,1743861543,543903203,,0.10325611879909502,0.0008815883782662404,0.0,0.0,0.0,-0.00011278941136161347
2025/04/05 15:59:03.637063406,1743861543,636782289,,0.10327881318565346,0.0008028548928045165,0.0,0.0,0.0,-0.00013190198423695954
2025/04/05 15:59:03.738107763,1743861543,737876161,,0.10332443206414155,-6.442977992340837e-05,0.0,0.0,0.0,-0.00013020919937412057
2025/04/05 15:59:03.840605592,1743861543,840338126,,0.10335124074151736,0.00020578095719242517,0.0,0.0,0.0,-0.00012696398360367844
2025/04/05 15:59:03.938448460,1743861543,937986970,,0.1034067785068089,-3.594206704443659e-05,0.0,0.0,0.0,-0.00012295465968104047
2025/04/05 15:59:04.37415115,1743861544,37241810,,0.10344669817999375,0.0009109524636967681,0.0,0.0,0.0,-0.00012120426335104906
2025/04/05 15:59:04.139359919,1743861544,138819343,,0.1035436203604263,0.0008344470396541848,0.0,0.0,0.0,-0.00012797026008848356
2025/04/05 15:59:04.238538940,1743861544,238050725,,0.10359230091091831,0.0016205173912249293,0.0,0.0,0.0,-0.00011748991099191919
2025/04/05 15:59:04.341196590,1743861544,340953561,,0.10364418804999787,0.0004973617954704412,0.0,0.0,0.0,-0.00010520552778625625
2025/04/05 15:59:04.436610375,1743861544,436299880,,0.10368163750433723,0.001363265161084648,0.0,0.0,0.0,-0.00010128290434796572
2025/04/05 15:59:04.539671099,1743861544,539534614,,0.10371675319146334,0.0003613789421228475,0.0,0.0,0.0,-0.00010740718698165619
2025/04/05 15:59:04.664253002,1743861544,664099907,,0.10380208187223161,0.0010625934874579634,0.0,0.0,0.0,-0.00011060439395016441
2025/04/05 15:59:04.738729948,1743861544,737249070,,0.10383414000224889,0.0016975955654849884,0.0,0.0,0.0,-0.00011597469805757488
2025/04/05 15:59:04.837275046,1743861544,837108908,,0.10385454687622087,0.0007499895541627222,0.0,0.0,0.0,-0.00012001156168028881
2025/04/05 15:59:04.939556857,1743861544,938192725,,0.1039050485043731,0.0005691916506802563,0.0,0.0,0.0,-0.0001207770365748706
2025/04/05 15:59:05.37482559,1743861545,37339718,,0.10395851581489524,0.0009882498125892702,0.0,0.0,0.0,-0.00012224854575892952
2025/04/05 15:59:05.138541170,1743861545,137748591,,0.10405298012088338,0.0005406931117397651,0.0,0.0,0.0,-0.00012135251104461453
2025/04/05 15:59:05.234853478,1743861545,234645283,,0.10366697144445425,0.0013498455798224285,0.0,0.0,0.0,-0.0001254492030478005
2025/04/05 15:59:05.348353207,1743861545,348073312,,0.1037038425496064,-0.0003036264898162999,0.0,0.0,0.0,-0.00012104857915529177
2025/04/05 15:59:05.436919020,1743861545,436485941,,0.10374914589658601,-0.0007373431456323409,0.0,0.0,0.0,-0.00011825687084432435
2025/04/05 15:59:05.539415164,1743861545,539040470,,0.10421948630664701,-0.0010706896682046718,0.0,0.0,0.0,-0.0001193099344741766
2025/04/05 15:59:05.637205707,1743861545,637019808,,0.10428100614251434,8.975430746349655e-05,0.0,0.0,0.0,-0.0001192782950236726
2025/04/05 15:59:05.742817444,1743861545,741014275,,0.1039202133724757,-0.00010869193905405083,0.0,0.0,0.0,-0.00011791412103123733
2025/04/05 15:59:05.863576358,1743861545,863442271,,0.1040077708004219,0.00024907491723408226,0.0,0.0,0.0,-0.00011523050261741385
2025/04/05 15:59:05.936652136,1743861545,936538666,,0.10403534113135038,0.00045904049991019047,0.0,0.0,0.0,-0.00011117045851583018
2025/04/05 15:59:06.37008170,1743861546,36331197,,0.10406692495109837,0.00059632253393338,0.0,0.0,0.0,-0.00010671728430988736
2025/04/05 15:59:06.135803736,1743861546,135151581,,0.10409659988769704,0.0014874143363745596,0.0,0.0,0.0,-0.00010312253230837509
2025/04/05 15:59:06.235738699,1743861546,235582636,,0.10413713428118854,0.0006255448288117194,0.0,0.0,0.0,-0.0001018246940984735
2025/04/05 15:59:06.335558702,1743861546,335311038,,0.10418054750897454,0.0013335807561167812,0.0,0.0,0.0,-0.00010201359532058252
2025/04/05 15:59:06.435571425,1743861546,435379738,,0.10426835509093735,0.0012730188692766653,0.0,0.0,0.0,-0.00010314342487627304
2025/04/05 15:59:06.544077299,1743861546,543935215,,0.10429518392379578,0.001082463639231701,0.0,0.0,0.0,-0.00010455689749799824
2025/04/05 15:59:06.636708900,1743861546,636278398,,0.10433652388655901,0.000916141567983253,0.0,0.0,0.0,-0.00010621287727430317
2025/04/05 15:59:06.737238226,1743861546,737067562,,0.10437123565503725,0.0008862381304270972,0.0,0.0,0.0,-0.00010730002440417774
2025/04/05 15:59:06.837683660,1743861546,837268619,,0.10442302306023521,0.0008884567684424027,0.0,0.0,0.0,-0.0001082185718751516
2025/04/05 15:59:06.937920993,1743861546,937735590,,0.10447056555645418,0.0007044738609600643,0.0,0.0,0.0,-0.0001092096821347921
2025/04/05 15:59:07.64330610,1743861547,64053328,,0.1045615563527349,0.0007541493074634253,0.0,0.0,0.0,-0.00011046964986349828
2025/04/05 15:59:07.136744278,1743861547,136617846,,0.10457427577210865,0.0012302845936837947,0.0,0.0,0.0,-0.00011116230155816531
2025/04/05 15:59:07.236366379,1743861547,235277631,,0.10458464257962419,0.0002862866908798223,0.0,0.0,0.0,-0.00011244280440358967
2025/04/05 15:59:07.336105095,1743861547,335957193,,0.10461730107783751,0.0009623412853090318,0.0,0.0,0.0,-0.00011361885815619477
2025/04/05 15:59:07.439460690,1743861547,439311543,,0.10465299311488252,0.0008396652302826713,0.0,0.0,0.0,-0.00011496536379074218
2025/04/05 15:59:07.541260921,1743861547,541101389,,0.10469514936534097,0.0007308210752907662,0.0,0.0,0.0,-0.00011626451291157913
2025/04/05 15:59:07.638269754,1743861547,638114549,,0.10516611498903217,0.0006697276087743731,0.0,0.0,0.0,-0.00011658819620963268
2025/04/05 15:59:07.746602476,1743861547,746459734,,0.10521945250286535,0.0018959814204770886,0.0,0.0,0.0,-0.00011684494256913869
2025/04/05 15:59:07.837400546,1743861547,837237199,,0.10489857442334483,0.0008603336658130623,0.0,0.0,0.0,-0.00011932333582553856
2025/04/05 15:59:07.936497379,1743861547,936333308,,0.10491659288106803,0.0006451227639823198,0.0,0.0,0.0,-0.00012279276025661812
2025/04/05 15:59:08.36490689,1743861548,34702651,,0.10493947464706821,0.0006379241831375726,0.0,0.0,0.0,-0.00012362996884707211
2025/04/05 15:59:08.137536849,1743861548,137396271,,0.10497372635521174,0.000479594968455177,0.0,0.0,0.0,-0.00012603242016218097
2025/04/05 15:59:08.261813899,1743861548,261656485,,0.10500645182702328,0.000526873894789448,0.0,0.0,0.0,-0.00012865304767750718
2025/04/05 15:59:08.337177283,1743861548,336646711,,0.10504534530352316,0.00042793343261549044,0.0,0.0,0.0,-0.00013083490247223217
2025/04/05 15:59:08.434955840,1743861548,434480846,,0.10507923536511043,0.0004991852818184705,0.0,0.0,0.0,-0.00013285174370647468
2025/04/05 15:59:08.536037019,1743861548,535859900,,0.1051180938108871,0.0004220057359085594,0.0,0.0,0.0,-0.00013477149790974696
2025/04/05 15:59:08.640666338,1743861548,640520688,,0.10520092300839679,0.0005075797817453154,0.0,0.0,0.0,-0.0001363535392312487
2025/04/05 15:59:08.737182557,1743861548,736664897,,0.10520842964828603,0.0004316158809516413,0.0,0.0,0.0,-0.0001386608006325174
2025/04/05 15:59:08.836750844,1743861548,836603380,,0.10522017559173946,0.0012595139354356633,0.0,0.0,0.0,-0.00015552330927648406
2025/04/05 15:59:08.940640410,1743861548,938173576,,0.10524921614859295,2.3454054970450944e-05,0.0,0.0,0.0,-0.0001572609261244473
2025/04/05 15:59:09.40549593,1743861549,40383736,,0.10529503406706908,0.0007572745111856793,0.0,0.0,0.0,-0.00014494778008788956
2025/04/05 15:59:09.139566924,1743861549,139306268,,0.10575980164418297,0.0007966930850535903,0.0,0.0,0.0,-0.0001534210781345413
2025/04/05 15:59:09.235405907,1743861549,234763644,,0.1053928781295781,0.00017071699937609708,0.0,0.0,0.0,-0.0001453281181259536
2025/04/05 15:59:09.336671126,1743861549,336480109,,0.10543377939515608,0.0002093074457336086,0.0,0.0,0.0,-0.0001481424933014175
2025/04/05 15:59:09.462859351,1743861549,462496400,,0.10548052348315196,0.00038701050226264133,0.0,0.0,0.0,-0.00015003649937883612
2025/04/05 15:59:09.543246756,1743861549,540979302,,0.10556473790757082,0.0003781375297902123,0.0,0.0,0.0,-0.0001508786584237809
2025/04/05 15:59:09.642167820,1743861549,642027311,,0.10558677260516447,0.0005103858837136599,0.0,0.0,0.0,-0.00014932447593940523
2025/04/05 15:59:09.736261256,1743861549,736133011,,0.10557926117564875,0.00046886231187326377,0.0,0.0,0.0,-0.00014816250453320023
2025/04/05 15:59:09.841272988,1743861549,840755269,,0.10603551076457052,0.0005691555178430896,0.0,0.0,0.0,-0.0001473792244058858
2025/04/05 15:59:09.938977542,1743861549,938710705,,0.10610622153927807,0.0012958408949828026,0.0,0.0,0.0,-0.00015557362637896865
2025/04/05 15:59:10.39185784,1743861550,39044208,,0.10610975219577767,0.0002932317809610785,0.0,0.0,0.0,-0.00016453856781017961
2025/04/05 15:59:10.137971189,1743861550,135497052,,0.1061303120565924,0.001066495921967725,0.0,0.0,0.0,-0.00016660433843451727
2025/04/05 15:59:10.235208415,1743861550,235046422,,0.10615532651087278,0.00012369476431897675,0.0,0.0,0.0,-0.00016268154283305414
2025/04/05 15:59:10.336496548,1743861550,336384245,,0.10618004893180455,0.0009300488567516307,0.0,0.0,0.0,-0.00017170641489649974
2025/04/05 15:59:10.441915791,1743861550,440784283,,0.10585305707613202,0.0009135674085534173,0.0,0.0,0.0,-0.00016306843483993028
2025/04/05 15:59:10.540515867,1743861550,539924505,,0.10587776124279458,-0.00016849362752774377,0.0,0.0,0.0,-0.0001616965053841124
2025/04/05 15:59:10.672535544,1743861550,672340840,,0.10631925853374469,8.563625604765535e-05,0.0,0.0,0.0,-0.000159046887928449
2025/04/05 15:59:10.741559474,1743861550,741359946,,0.10591721752132344,0.0007483741275164935,0.0,0.0,0.0,-0.00015702632325242938
2025/04/05 15:59:10.837289626,1743861550,836896887,,0.1059601775800445,0.0007064742768094767,0.0,0.0,0.0,-0.00015788371216651775
2025/04/05 15:59:10.937613720,1743861550,937292783,,0.10600052727647835,0.0005348811561980416,0.0,0.0,0.0,-0.00015581388401120222
2025/04/05 15:59:11.35500802,1743861551,35314781,,0.1060285611602012,0.0005504582516668854,0.0,0.0,0.0,-0.00015454652492974397
2025/04/05 15:59:11.136692427,1743861551,134710258,,0.10605089288529257,0.0004211109938490054,0.0,0.0,0.0,-0.0001556469696275542
2025/04/05 15:59:11.240155253,1743861551,240025719,,0.10612520555639549,0.0004697175435703915,0.0,0.0,0.0,-0.0001570285997185561
2025/04/05 15:59:11.374912466,1743861551,370480884,,0.10611294067498989,-0.0003887094175875072,0.0,0.0,0.0,-0.00016242248733333575
2025/04/05 15:59:11.436482047,1743861551,436174545,,0.10613217882456638,-8.760822745282337e-05,0.0,0.0,0.0,-0.00015824319742852033
2025/04/05 15:59:11.548825732,1743861551,548680307,,0.10619468312859226,2.5719506696497696e-05,0.0,0.0,0.0,-0.00016046643759914936
2025/04/05 15:59:11.636850929,1743861551,636671882,,0.10622261778723896,0.0011121227949222323,0.0,0.0,0.0,-0.00016104404659555982
2025/04/05 15:59:11.737648783,1743861551,737440854,,0.10668690318348695,0.000860950055159071,0.0,0.0,0.0,-0.00015846841003264167
2025/04/05 15:59:11.864686326,1743861551,864503297,,0.1067235237564148,0.00024136240133126874,0.0,0.0,0.0,-0.0001529226882325263
2025/04/05 15:59:11.941275228,1743861551,940899580,,0.10676291082162948,0.0010763143715188939,0.0,0.0,0.0,-0.00015373234769944233
2025/04/05 15:59:12.36379876,1743861552,36261669,,0.10682702445012637,0.00018089068484666848,0.0,0.0,0.0,-0.00014045870908696578
2025/04/05 15:59:12.136952976,1743861552,136385351,,0.10639358646068331,8.593449112082041e-05,0.0,0.0,0.0,-0.00014620128698938917
2025/04/05 15:59:12.236096957,1743861552,235925709,,0.10683639123300281,0.0002876011985486482,0.0,0.0,0.0,-0.0001499817915352475
2025/04/05 15:59:12.336966741,1743861552,336779841,,0.1068498506330684,0.0011089353498094923,0.0,0.0,0.0,-0.00014148657051582525
2025/04/05 15:59:12.436601521,1743861552,436406564,,0.10689684639959296,0.00017778891583786205,0.0,0.0,0.0,-0.00013975179828651374
2025/04/05 15:59:12.538805869,1743861552,538649865,,0.10693786348178946,0.0010227821508199675,0.0,0.0,0.0,-0.00012876896459634857
2025/04/05 15:59:12.637968288,1743861552,637816410,,0.1065798097030779,0.0009731006483277849,0.0,0.0,0.0,-0.00013506469259894072
2025/04/05 15:59:12.739037008,1743861552,738882257,,0.10703275620878117,0.0007442410964868529,0.0,0.0,0.0,-0.00013825819307944354
2025/04/05 15:59:12.840690596,1743861552,840330585,,0.10661404977273037,0.00011516044015197346,0.0,0.0,0.0,-0.00014104620103982946
2025/04/05 15:59:12.938481265,1743861552,937013695,,0.10662267558126359,0.000175069351569912,0.0,0.0,0.0,-0.00014031960067462101
2025/04/05 15:59:13.62148990,1743861553,61296812,,0.10666116154050087,0.0003668511007709485,0.0,0.0,0.0,-0.0001411130695464502
2025/04/05 15:59:13.135036897,1743861553,134856842,,0.10670751940691048,0.00037082453316994446,0.0,0.0,0.0,-0.0001399679900094819
2025/04/05 15:59:13.236241081,1743861553,234758899,,0.10674755962864424,0.0005182012656097523,0.0,0.0,0.0,-0.00013648464963222917
2025/04/05 15:59:13.336904126,1743861553,336735834,,0.10676497101314908,-0.0002355147908255084,0.0,0.0,0.0,-0.00012270806532088674
2025/04/05 15:59:13.437038499,1743861553,436886924,,0.10721198514687558,0.00011252367564176802,0.0,0.0,0.0,-0.00012836495486279187
2025/04/05 15:59:13.536196335,1743861553,536060583,,0.10728318589428909,0.0010208532606812426,0.0,0.0,0.0,-0.00012985654165831306
2025/04/05 15:59:13.638186636,1743861553,637623634,,0.10729207739029789,0.0001634001416207509,0.0,0.0,0.0,-0.00012200712483700915
2025/04/05 15:59:13.737194803,1743861553,736864955,,0.10730877928256177,0.0010442752603374572,0.0,0.0,0.0,-0.00011724205207541694
2025/04/05 15:59:13.840318239,1743861553,839795021,,0.10692501580348335,0.0010516313392741061,0.0,0.0,0.0,-0.00011044179726749093
2025/04/05 15:59:13.943095115,1743861553,941221638,,0.10738068734912076,0.0008410168733679058,0.0,0.0,0.0,-0.00011664059568639029
2025/04/05 15:59:14.35516181,1743861554,35330837,,0.1069664658681404,0.0002173515888700961,0.0,0.0,0.0,-0.0001222446543370781
2025/04/05 15:59:14.136000650,1743861554,135840507,,0.10699128428672111,0.0002803178012551477,0.0,0.0,0.0,-0.00012027196471275925
2025/04/05 15:59:14.259954313,1743861554,259822120,,0.10702691790169183,0.00046945484525173775,0.0,0.0,0.0,-0.00012051519104661068
2025/04/05 15:59:14.335997338,1743861554,335842039,,0.10707452707345055,0.0004684257613589704,0.0,0.0,0.0,-0.00011893228448445203
2025/04/05 15:59:14.438090193,1743861554,437947639,,0.10752872633366906,0.00060447554723142,0.0,0.0,0.0,-0.00012043502888314794
2025/04/05 15:59:14.538543498,1743861554,538368915,,0.10717936073834267,0.0011160845389741603,0.0,0.0,0.0,-0.00011019914316234836
2025/04/05 15:59:14.637356754,1743861554,637200468,,0.10718027374255712,0.0010148214978560333,0.0,0.0,0.0,-0.00011449859811230034
2025/04/05 15:59:14.739875618,1743861554,739722353,,0.1076149884049471,0.0007809315814977236,0.0,0.0,0.0,-0.00011474449012560672
2025/04/05 15:59:14.841684334,1743861554,839365798,,0.10719294966693838,0.00014871111572578588,0.0,0.0,0.0,-0.000114637554410435
2025/04/05 15:59:14.937082038,1743861554,936830875,,0.1072114388006753,0.0002035404355852921,0.0,0.0,0.0,-0.00011352513474749415
2025/04/05 15:59:15.36630921,1743861555,36441558,,0.10727591564528893,0.0003950049429034541,0.0,0.0,0.0,-0.00011377511450127997
2025/04/05 15:59:15.137167576,1743861555,137004285,,0.10730005083271976,-0.0003024568417290263,0.0,0.0,0.0,-0.00010795716531963873
2025/04/05 15:59:15.235955738,1743861555,235838653,,0.10775733847634683,8.305399594510376e-05,0.0,0.0,0.0,-0.00010735245029513951
2025/04/05 15:59:15.338103775,1743861555,336331827,,0.10734754362641752,0.0008792785423061833,0.0,0.0,0.0,-0.0001076759632770985
2025/04/05 15:59:15.460938974,1743861555,460705385,,0.10738288598065537,0.000891827434608583,0.0,0.0,0.0,-0.00010438554858316351
2025/04/05 15:59:15.534564110,1743861555,534395708,,0.10741789074006647,0.0007526593062066045,0.0,0.0,0.0,-0.00010040181918102853
2025/04/05 15:59:15.635875884,1743861555,635721362,,0.10743746765649576,0.0007857797728858529,0.0,0.0,0.0,-9.71763359929323e-05
2025/04/05 15:59:15.745085433,1743861555,744918262,,0.10788603594835422,0.0006556749088626468,0.0,0.0,0.0,-9.989889082051562e-05
2025/04/05 15:59:15.842732871,1743861555,842564382,,0.10790610991890048,0.00019409400692205203,0.0,0.0,0.0,-8.999677790189065e-05
2025/04/05 15:59:15.946933637,1743861555,945436901,,0.10798049144915467,0.0010795033522974506,0.0,0.0,0.0,-9.150075745101294e-05
2025/04/05 15:59:16.39973633,1743861556,38911132,,0.107964021749126,0.00019760975782290302,0.0,0.0,0.0,-8.71951559080486e-05
2025/04/05 15:59:16.139505693,1743861556,139359421,,0.10755821575796176,0.00016620408565454214,0.0,0.0,0.0,-9.149033191346856e-05
2025/04/05 15:59:16.237456107,1743861556,237284592,,0.10762200070342942,0.00037874995358821995,0.0,0.0,0.0,-9.427370902537202e-05
2025/04/05 15:59:16.337316376,1743861556,337012090,,0.10762799355455854,0.00039679569543216164,0.0,0.0,0.0,-9.683923373715597e-05
2025/04/05 15:59:16.436035762,1743861556,435894255,,0.10764237100909213,0.0005539265832088525,0.0,0.0,0.0,-9.716247167990133e-05
2025/04/05 15:59:16.538026667,1743861556,537817203,,0.10765928623612808,0.0005305332642100424,0.0,0.0,0.0,-9.644456613544516e-05
2025/04/05 15:59:16.669307724,1743861556,669136686,,0.1076821609431704,0.0011404089734265987,0.0,0.0,0.0,-9.603592840601305e-05
2025/04/05 15:59:16.741493274,1743861556,741263753,,0.1077152874894125,0.0011217319450489427,0.0,0.0,0.0,-9.426934664380493e-05
2025/04/05 15:59:16.838865190,1743861556,838735398,,0.10773511415555959,0.001030186889519502,0.0,0.0,0.0,-9.416663031880379e-05
2025/04/05 15:59:16.937332756,1743861556,936782412,,0.10775598698967315,0.0007992704611821111,0.0,0.0,0.0,-9.453189051178423e-05
2025/04/05 15:59:17.37072862,1743861557,36918872,,0.10778491744889607,0.0014318396076826723,0.0,0.0,0.0,-9.524483270417772e-05
2025/04/05 15:59:17.140019782,1743861557,139529254,,0.10823673341525364,0.0010567914192147754,0.0,0.0,0.0,-9.59455873711379e-05
2025/04/05 15:59:17.240112359,1743861557,239757752,,0.1082602089772422,0.00010229573810546788,0.0,0.0,0.0,-9.556598974147512e-05
2025/04/05 15:59:17.338482754,1743861557,338138471,,0.10833259437555398,0.0009373580995639674,0.0,0.0,0.0,-0.00010018671143630087
2025/04/05 15:59:17.435243660,1743861557,435094697,,0.10788323106834241,0.00022108350823096812,0.0,0.0,0.0,-0.00010145138174022517
2025/04/05 15:59:17.536065784,1743861557,535465403,,0.10790587457711354,0.0002470486710373643,0.0,0.0,0.0,-9.95714072734577e-05
2025/04/05 15:59:17.640060664,1743861557,639891465,,0.10791522253134644,0.0004203831953550896,0.0,0.0,0.0,-9.969810704468784e-05
2025/04/05 15:59:17.736322802,1743861557,736161130,,0.10792818652686265,0.00041124537105696746,0.0,0.0,0.0,-0.00010019969067243117
2025/04/05 15:59:17.867290898,1743861557,867147084,,0.10838827492699465,0.0005520046042211124,0.0,0.0,0.0,-9.944537164674472e-05
2025/04/05 15:59:17.936428946,1743861557,935785451,,0.10803977715744395,0.001037503304911258,0.0,0.0,0.0,-0.00010368751997447134
2025/04/05 15:59:18.35166481,1743861558,35030980,,0.10803256047185528,0.0009670389361584597,0.0,0.0,0.0,-9.993150814491258e-05
2025/04/05 15:59:18.137860073,1743861558,137582704,,0.10803711854288167,-0.0001016414610079952,0.0,0.0,0.0,-0.00010343161335990558
2025/04/05 15:59:18.236781543,1743861558,236670722,,0.10849264712311424,0.00015380464647679615,0.0,0.0,0.0,-0.00010176267562278518
2025/04/05 15:59:18.335428004,1743861558,335278625,,0.10851453776001563,0.0010055871144505346,0.0,0.0,0.0,-0.00010165922509874914
2025/04/05 15:59:18.435390949,1743861558,435242840,,0.10852559381777382,0.00011634465677667905,0.0,0.0,0.0,-0.00010199779861741476
2025/04/05 15:59:18.534756847,1743861558,534484690,,0.10855377823264689,0.0006680907636933409,0.0,0.0,0.0,-0.00018230666297891496
2025/04/05 15:59:18.642035991,1743861558,640827345,,0.1085907139255653,0.0004995626081581994,0.0,0.0,0.0,-0.00023503331254781656
2025/04/05 15:59:18.738719158,1743861558,738220203,,0.10862863171672643,0.000417627293746059,0.0,0.0,0.0,-0.00022910587918212322
2025/04/05 15:59:18.842515731,1743861558,842346046,,0.10865142501336322,0.000358996501933162,0.0,0.0,0.0,-0.00023062033859022613
2025/04/05 15:59:18.935564556,1743861558,934751852,,0.10822890562522502,0.00015813351645521667,0.0,0.0,0.0,-0.000219014431399156
2025/04/05 15:59:19.63668353,1743861559,63492343,,0.10870897257174761,-0.000436547634510398,0.0,0.0,0.0,-0.00019406735298210798
2025/04/05 15:59:19.146821524,1743861559,145987778,,0.10875473307703487,-0.0002706915395043197,0.0,0.0,0.0,-0.0001858260380607213
2025/04/05 15:59:19.244479438,1743861559,243814038,,0.1088146582256968,-0.0008802923468322899,0.0,0.0,0.0,-0.00022689718305834994
2025/04/05 15:59:19.342183900,1743861559,340972792,,0.10890343119999102,0.00027353820924480576,0.0,0.0,0.0,-0.00021516247073360972
2025/04/05 15:59:19.440570832,1743861559,440399103,,0.10893831238004736,-0.0004097300930725467,0.0,0.0,0.0,-0.00021600548892286575
2025/04/05 15:59:19.538750865,1743861559,538447410,,0.10897461994341029,-0.00011630952041130627,0.0,0.0,0.0,-0.00020671618367429367
2025/04/05 15:59:19.637313567,1743861559,637155545,,0.10901874828459768,0.0001064300023737863,0.0,0.0,0.0,-0.0001973097585685757
2025/04/05 15:59:19.737292886,1743861559,737139492,,0.10904121383114784,0.00025960468251451374,0.0,0.0,0.0,-0.00018868625055712407
2025/04/05 15:59:19.836919336,1743861559,836670836,,0.1086530844586946,0.0005423595003257731,0.0,0.0,0.0,-0.00016435592392372023
2025/04/05 15:59:19.936469488,1743861559,936343306,,0.10866529160620075,0.0013084609785711798,0.0,0.0,0.0,-0.00016238255895051346
2025/04/05 15:59:20.35446816,1743861560,35214478,,0.1086752479333768,0.000342891205401874,0.0,0.0,0.0,-0.00015962099159438914
2025/04/05 15:59:20.138438053,1743861560,136013913,,0.10868490153058019,0.0011237257375187326,0.0,0.0,0.0,-0.00015764390719930077
2025/04/05 15:59:20.262125308,1743861560,261581505,,0.10912827168098715,0.00014354710070973997,0.0,0.0,0.0,-0.00015910095650051304
2025/04/05 15:59:20.334443363,1743861560,334294486,,0.10872694719384413,0.0010925560091803455,0.0,0.0,0.0,-0.00015512561062069885
2025/04/05 15:59:20.436140489,1743861560,435650026,,0.10881446861679933,0.00014362882613927486,0.0,0.0,0.0,-0.00016001406367571747
2025/04/05 15:59:20.538534817,1743861560,538260743,,0.10884763746457793,0.000715086958537059,0.0,0.0,0.0,-0.00015908261086128306
2025/04/05 15:59:20.637079864,1743861560,636342497,,0.10887467090492464,-0.00015913801281453033,0.0,0.0,0.0,-0.00015848552504538205
2025/04/05 15:59:20.739887607,1743861560,738544581,,0.1089223290357495,0.0007291186224793744,0.0,0.0,0.0,-0.00015860062336292557
2025/04/05 15:59:20.839097306,1743861560,836873589,,0.10895529403515525,-0.00013350558522956524,0.0,0.0,0.0,-0.00015772666965729876
2025/04/05 15:59:20.942915622,1743861560,942647726,,0.10942790835906635,0.0007791504241014824,0.0,0.0,0.0,-0.00015831739833860325
2025/04/05 15:59:21.38383104,1743861561,35858943,,0.10904311692323176,-0.00022521115980111972,0.0,0.0,0.0,-0.00015355182839993375
2025/04/05 15:59:21.135932941,1743861561,135780326,,0.10907320842943591,0.0006982962063442066,0.0,0.0,0.0,-0.00015487011162096387
2025/04/05 15:59:21.234981113,1743861561,234835463,,0.10908840364851358,-0.0001366994902080032,0.0,0.0,0.0,-0.00015345408382527737
2025/04/05 15:59:21.335522238,1743861561,335354060,,0.10954238448780984,0.0007952989747035399,0.0,0.0,0.0,-0.00015308284484460977
2025/04/05 15:59:21.466653635,1743861561,465913193,,0.10956183160533328,0.0006320353084801056,0.0,0.0,0.0,-0.00015410630530676706
2025/04/05 15:59:21.536901068,1743861561,536496016,,0.10916689460128737,0.0005161973025229472,0.0,0.0,0.0,-0.00013803152843971933
2025/04/05 15:59:21.636646417,1743861561,636541435,,0.10958828840449542,-0.00011238128308721507,0.0,0.0,0.0,-0.00014492552301603734
2025/04/05 15:59:21.736013260,1743861561,735667681,,0.1095868401662301,0.0007750314637686717,0.0,0.0,0.0,-0.00014645345664643372
2025/04/05 15:59:21.843976695,1743861561,843816091,,0.1095851473243954,-8.857597173761445e-05,0.0,0.0,0.0,-0.0001413384812047891
2025/04/05 15:59:21.940875415,1743861561,940725570,,0.10960256769840271,-0.0006678298342839284,0.0,0.0,0.0,-0.00014515002464954296
2025/04/05 15:59:22.36331540,1743861562,36145178,,0.10927436942216673,-0.0008322932784750048,0.0,0.0,0.0,-0.0001396815049532485
2025/04/05 15:59:22.137647931,1743861562,137324179,,0.10931308536913775,0.000329664070786273,0.0,0.0,0.0,-0.00014665985083939237
2025/04/05 15:59:22.237414281,1743861562,237095091,,0.10935308483675499,0.000463787380432068,0.0,0.0,0.0,-0.00014292378526092886
2025/04/05 15:59:22.334846980,1743861562,334678613,,0.10939745908854093,0.0005505624282213795,0.0,0.0,0.0,-0.0001381647284619536
2025/04/05 15:59:22.438509906,1743861562,438374337,,0.10941872725274493,0.00060668137364428,0.0,0.0,0.0,-0.0001346665275356873
2025/04/05 15:59:22.539593839,1743861562,538625004,,0.109862127307224,0.0006122053292232366,0.0,0.0,0.0,-0.00013749580261679384
2025/04/05 15:59:22.663965297,1743861562,663476530,,0.109915789823674,0.0006572425375754865,0.0,0.0,0.0,-0.00011582624495787286
2025/04/05 15:59:22.736196929,1743861562,736042970,,0.10947607568891726,0.00017123872690738562,0.0,0.0,0.0,-0.0001262362510510151
2025/04/05 15:59:22.840644513,1743861562,840451522,,0.10991259779825668,0.0007205089203377035,0.0,0.0,0.0,-0.00013130406553274465
2025/04/05 15:59:22.937402566,1743861562,936724833,,0.10991425493637053,0.00018363347357330806,0.0,0.0,0.0,-0.00013195079387784414
2025/04/05 15:59:23.34588840,1743861563,34264509,,0.10992557506614276,0.0010472249368067565,0.0,0.0,0.0,-0.0001320392422552441
2025/04/05 15:59:23.138245019,1743861563,138100287,,0.10999175361155267,0.0001563713846842174,0.0,0.0,0.0,-0.0001322356495702115
2025/04/05 15:59:23.238493403,1743861563,237472266,,0.10998914035027951,0.0010141599124020573,0.0,0.0,0.0,-0.00013233950278501716
2025/04/05 15:59:23.338078100,1743861563,337747767,,0.11000782331632308,0.00011877173582253153,0.0,0.0,0.0,-0.00012587548432951845
2025/04/05 15:59:23.437705502,1743861563,437486706,,0.10926532484245399,0.0009829705588437765,0.0,0.0,0.0,-0.00012109960929806984
2025/04/05 15:59:23.536860109,1743861563,536687946,,0.10764667372404801,0.00026605683005331837,0.0,0.0,0.0,-0.00012617771193979
2025/04/05 15:59:23.637241077,1743861563,637072021,,0.10613788150902792,0.00027447870799590657,0.0,0.0,0.0,-0.00012829783307799492
2025/04/05 15:59:23.738492266,1743861563,738344525,,0.10489002074217524,0.0004405997039567122,0.0,0.0,0.0,-0.00012949660859862266
2025/04/05 15:59:23.869988525,1743861563,869284092,,0.10300339694072136,0.001307735626490114,0.0,0.0,0.0,-0.00011487445041813427
2025/04/05 15:59:23.936289602,1743861563,935025873,,0.1010443104172225,0.0002791887583991626,0.0,0.0,0.0,-0.00011884387403060526
2025/04/05 15:59:24.35664859,1743861564,35505250,,0.09900789080455752,0.0011412162409625282,0.0,0.0,0.0,-0.000124753205070105
2025/04/05 15:59:24.135535653,1743861564,135281137,,0.09701349924011993,0.00036753168934067215,0.0,0.0,0.0,-0.000127286179775421
2025/04/05 15:59:24.239052767,1743861564,238781020,,0.09492689391171893,0.0006848460960198199,0.0,0.0,0.0,-0.0001299205034689388
2025/04/05 15:59:24.338711864,1743861564,338566924,,0.09238463553163001,0.00022171448792235315,0.0,0.0,0.0,-0.00013147683649461506
2025/04/05 15:59:24.435525943,1743861564,434773337,,0.09028799849130564,-0.00037597803820654807,0.0,0.0,0.0,-0.00013204357627116803
2025/04/05 15:59:24.535523007,1743861564,535351416,,0.08818451797316129,0.0005872831638038534,0.0,0.0,0.0,-0.00013202033314219097
2025/04/05 15:59:24.638222619,1743861564,637862877,,0.08608938810331779,0.001279895898525396,0.0,0.0,0.0,-0.00013072920852497116
2025/04/05 15:59:24.738194450,1743861564,738044594,,0.08442514799060064,0.0003205701801731742,0.0,0.0,0.0,-0.00012807388096558459
2025/04/05 15:59:24.838410101,1743861564,838255428,,0.08237541415547867,-0.0003537124837807992,0.0,0.0,0.0,-0.00012899655277187616
2025/04/05 15:59:24.934649220,1743861564,934500091,,0.07980903048360233,-0.00017126673005279924,0.0,0.0,0.0,-0.00012675678186957473
2025/04/05 15:59:25.60538459,1743861565,60400402,,0.07772147737932755,5.03761131440128e-05,0.0,0.0,0.0,-0.0001269009117923492
2025/04/05 15:59:25.137769803,1743861565,137440592,,0.07607750775588329,0.0006597980372826662,0.0,0.0,0.0,-0.0001267386729731923
2025/04/05 15:59:25.236593354,1743861565,236435808,,0.07361009022395137,0.0004942009750744658,0.0,0.0,0.0,-0.00012164059963093443
2025/04/05 15:59:25.334566071,1743861565,334411585,,0.07159343744893931,0.0004910016237886783,0.0,0.0,0.0,-0.00011847036515377773
2025/04/05 15:59:25.436760956,1743861565,436583830,,0.06991883569969559,0.0012019288523208438,0.0,0.0,0.0,-0.00012088650608332863
2025/04/05 15:59:25.536185370,1743861565,536020508,,0.06782644812460603,0.0016159017032260081,0.0,0.0,0.0,-9.41915619631084e-05
2025/04/05 15:59:25.640512754,1743861565,638697011,,0.06575921424604303,0.0017139957753848911,0.0,0.0,0.0,-9.810715173008688e-05
2025/04/05 15:59:25.739541184,1743861565,737998900,,0.06371136093829932,0.0020881577640139426,0.0,0.0,0.0,-9.354090157343009e-05
2025/04/05 15:59:25.839015659,1743861565,838800511,,0.06166458707542688,0.0013863440688650641,0.0,0.0,0.0,-7.524425831978432e-05
2025/04/05 15:59:25.939015112,1743861565,938856212,,0.05961934960663484,0.000966548516460719,0.0,0.0,0.0,-6.051930822292828e-05
2025/04/05 15:59:26.39178723,1743861566,39003353,,0.057563812727863706,0.00020863551110894551,0.0,0.0,0.0,-6.393087138345521e-05
2025/04/05 15:59:26.137113385,1743861566,136847426,,0.0555655207544703,0.0005552739260292761,0.0,0.0,0.0,-6.84086297675357e-05
2025/04/05 15:59:26.262720082,1743861566,262402280,,0.053171807376003244,-0.0005310362073465136,0.0,0.0,0.0,-7.972558171764899e-05
2025/04/05 15:59:26.338576232,1743861566,337315433,,0.051183609984917666,-0.0003274662984060761,0.0,0.0,0.0,-8.335280090099317e-05
2025/04/05 15:59:26.434713914,1743861566,434408673,,0.04920927884064952,0.0006495883776955758,0.0,0.0,0.0,-8.745928341247211e-05
2025/04/05 15:59:26.541231470,1743861566,540045159,,0.047940347342716905,0.0006547174483508833,0.0,0.0,0.0,-8.776936836740745e-05
2025/04/05 15:59:26.637365833,1743861566,637009006,,0.0452964172072825,0.0013077547088053976,0.0,0.0,0.0,-7.68166784188562e-05
2025/04/05 15:59:26.735463577,1743861566,735283252,,0.04344761292571775,0.0003957145205883972,0.0,0.0,0.0,-7.307141302104192e-05
2025/04/05 15:59:26.840262695,1743861566,840120593,,0.041974787401443336,0.0009863193222032773,0.0,0.0,0.0,-7.773915448872071e-05
2025/04/05 15:59:26.937268363,1743861566,937092972,,0.04021393032687115,0.0013736230955427864,0.0,0.0,0.0,-3.4613658922766355e-05
2025/04/05 15:59:27.40100261,1743861567,39893163,,0.03815800512421674,0.0011251495523674215,0.0,0.0,0.0,-4.72741032609969e-05
2025/04/05 15:59:27.136972276,1743861567,136606358,,0.03698347898625798,0.0016557253170947916,0.0,0.0,0.0,-5.3989671260079586e-05
2025/04/05 15:59:27.235749402,1743861567,235571981,,0.03551925408609691,0.0014235710847763094,0.0,0.0,0.0,-5.795873879166358e-05
2025/04/05 15:59:27.335496791,1743861567,335337220,,0.03416102748676053,0.0016546760044957587,0.0,0.0,0.0,-2.4011959522063364e-05
2025/04/05 15:59:27.461768052,1743861567,461594079,,0.032520862589763055,0.0009121911632978819,0.0,0.0,0.0,-4.328514414264628e-05
