time,header_stamp_secs,header_stamp_nsecs,header_frame_id,wrench_force_x,wrench_force_y,wrench_force_z,wrench_torque_x,wrench_torque_y,wrench_torque_z
2025/04/05 15:58:41.646479029,1743861521,646225435,,127.20155098846499,9.520206237363668,0.0,0.0,0.0,4.695428536628171
2025/04/05 15:58:41.741438022,1743861521,741147682,,127.7946990729373,9.150065272890822,0.0,0.0,0.0,4.815900978741481
2025/04/05 15:58:41.861505049,1743861521,861222421,,127.67724251102428,8.2678245187784,0.0,0.0,0.0,5.19036849829398
2025/04/05 15:58:41.936672813,1743861521,936391156,,127.89308442590936,8.18541581153327,0.0,0.0,0.0,5.136028772528684
2025/04/05 15:58:42.36885255,1743861522,36550125,,128.50252100976633,8.710472380157544,0.0,0.0,0.0,5.075792552613565
2025/04/05 15:58:42.136077500,1743861522,135793734,,128.43323497767946,8.106280382617198,0.0,0.0,0.0,5.078391929978108
2025/04/05 15:58:42.237401028,1743861522,237121457,,128.76163823543266,7.452587397092401,0.0,0.0,0.0,4.94015793645731
2025/04/05 15:58:42.337765107,1743861522,337384418,,129.47639910867568,7.432436797098025,0.0,0.0,0.0,4.954478240392036
2025/04/05 15:58:42.468316930,1743861522,447554589,,129.46085821262636,7.147789583412073,0.0,0.0,0.0,5.155015370105797
2025/04/05 15:58:42.546166878,1743861522,545879773,,129.7909545022044,7.000144951507604,0.0,0.0,0.0,5.103835056920027
2025/04/05 15:58:42.637261342,1743861522,636989154,,130.06314209355418,5.44432134282821,0.0,0.0,0.0,5.116151679739475
2025/04/05 15:58:42.736835942,1743861522,736553575,,130.3231589176957,6.508471296438788,0.0,0.0,0.0,5.12219309465817
2025/04/05 15:58:42.837100109,1743861522,836841656,,130.6804937338075,6.502602457964703,0.0,0.0,0.0,5.189209214182013
2025/04/05 15:58:42.937805162,1743861522,937538345,,131.06698873270483,8.104182422089112,0.0,0.0,0.0,5.3281883927807385
2025/04/05 15:58:43.61758598,1743861523,61487486,,131.3852347467199,6.961185400831945,0.0,0.0,0.0,5.306813604904997
2025/04/05 15:58:43.140105498,1743861523,139784689,,131.6644378129721,7.615878293957578,0.0,0.0,0.0,5.2403505836610105
2025/04/05 15:58:43.240516877,1743861523,240300445,,132.48206792997513,8.6131461539914,0.0,0.0,0.0,5.2636191544374915
2025/04/05 15:58:43.335292259,1743861523,335006398,,132.40741350610847,6.166331456176494,0.0,0.0,0.0,5.247233299828586
2025/04/05 15:58:43.435880863,1743861523,435607543,,132.8526406155102,6.259294449733059,0.0,0.0,0.0,5.26387176999282
2025/04/05 15:58:43.536307347,1743861523,536014683,,133.7812382748685,6.307615376319876,0.0,0.0,0.0,5.2897959918207595
2025/04/05 15:58:43.636456455,1743861523,636173252,,133.8055332911494,4.927713458017796,0.0,0.0,0.0,5.138669989144661
2025/04/05 15:58:43.740082588,1743861523,739816505,,134.32633022852553,7.420883107083579,0.0,0.0,0.0,5.119969083058296
2025/04/05 15:58:43.836234288,1743861523,836060984,,134.72035921999472,5.192772481584799,0.0,0.0,0.0,5.03880889749207
2025/04/05 15:58:43.942239134,1743861523,941812319,,135.16778261053946,6.52083283534937,0.0,0.0,0.0,5.089030542522402
2025/04/05 15:58:44.35894443,1743861524,35631402,,136.15424304920543,6.608410260387998,0.0,0.0,0.0,5.1883371383309855
2025/04/05 15:58:44.134684431,1743861524,134354104,,136.16537643965378,6.597051955406111,0.0,0.0,0.0,4.457094337946636
2025/04/05 15:58:44.265824582,1743861524,265605909,,136.60352709269404,4.572332751393173,0.0,0.0,0.0,4.804967045673307
2025/04/05 15:58:44.338398414,1743861524,338108930,,137.13158336995733,6.56897408651448,0.0,0.0,0.0,5.07008098240954
2025/04/05 15:58:44.434890189,1743861524,434726868,,137.70182440389164,5.857094098943362,0.0,0.0,0.0,4.860810367051936
2025/04/05 15:58:44.537482476,1743861524,536266996,,138.78162201485264,5.575153465111255,0.0,0.0,0.0,4.995468954599005
2025/04/05 15:58:44.634913837,1743861524,634636806,,138.88510120276638,5.961004564604638,0.0,0.0,0.0,4.483769948869929
2025/04/05 15:58:44.739872126,1743861524,739577981,,139.49635255672473,5.921356305909509,0.0,0.0,0.0,4.667848733785112
2025/04/05 15:58:44.836194647,1743861524,836042295,,140.26967811936726,5.70077539135078,0.0,0.0,0.0,3.9331982310611306
2025/04/05 15:58:44.943680693,1743861524,943393871,,140.8416729703645,2.5532560000844886,0.0,0.0,0.0,4.273726879770336
2025/04/05 15:58:45.36475522,1743861525,36198744,,142.02691717608636,2.333149540492347,0.0,0.0,0.0,4.305120731276977
2025/04/05 15:58:45.135324857,1743861525,135021080,,142.19599157116738,2.3147735565528254,0.0,0.0,0.0,3.4651522786104043
2025/04/05 15:58:45.235895686,1743861525,234806540,,142.88052476906802,4.009140644791309,0.0,0.0,0.0,3.804761730082746
2025/04/05 15:58:45.337743894,1743861525,337461842,,143.48013968331816,1.4597300809397828,0.0,0.0,0.0,4.36729835981332
2025/04/05 15:58:45.468171831,1743861525,468004352,,144.21163101332556,3.498516440284808,0.0,0.0,0.0,4.386118098229684
2025/04/05 15:58:45.537449970,1743861525,536630132,,144.9613173138124,6.372059640488949,0.0,0.0,0.0,4.31972534211018
2025/04/05 15:58:45.636121211,1743861525,635849620,,145.7142520905633,4.183381850631277,0.0,0.0,0.0,4.019435003815152
2025/04/05 15:58:45.741226408,1743861525,740959367,,147.0195990710809,5.770434603919562,0.0,0.0,0.0,4.196132693297441
2025/04/05 15:58:45.838624353,1743861525,838345386,,147.24549944813566,4.634194804308487,0.0,0.0,0.0,3.0277117515474172
2025/04/05 15:58:45.943284397,1743861525,943117198,,148.06178744693148,5.679114448155515,0.0,0.0,0.0,3.3139239806146503
2025/04/05 15:58:46.37188103,1743861526,36883089,,149.42423477964002,3.8342000291936738,0.0,0.0,0.0,3.6878783587667314
2025/04/05 15:58:46.140656113,1743861526,140389372,,149.8004506701985,2.9304680276179513,0.0,0.0,0.0,2.7797260682905183
2025/04/05 15:58:46.236250313,1743861526,235739401,,150.65924352561825,1.335194800814332,0.0,0.0,0.0,3.0259852855269345
2025/04/05 15:58:46.336484321,1743861526,336221393,,151.52529625251157,5.3548794775090585,0.0,0.0,0.0,3.615999398016834
2025/04/05 15:58:46.438570089,1743861526,438149941,,152.46287670308521,3.4731477974053013,0.0,0.0,0.0,3.4090732208547183
2025/04/05 15:58:46.536916652,1743861526,536622045,,153.96719042524234,3.544788708780204,0.0,0.0,0.0,3.5910808833500885
2025/04/05 15:58:46.661594831,1743861526,661360108,,154.28031209146303,3.8848279327634114,0.0,0.0,0.0,2.25196847632883
2025/04/05 15:58:46.738197001,1743861526,737883654,,155.7463149232924,2.2579489127559564,0.0,0.0,0.0,3.050336424572734
2025/04/05 15:58:46.835484986,1743861526,835217033,,156.0952614188879,1.6224816635102883,0.0,0.0,0.0,2.1006644459815194
2025/04/05 15:58:46.940614267,1743861526,940373982,,157.59620480681156,2.0890723028064886,0.0,0.0,0.0,2.8842113431722685
2025/04/05 15:58:47.35735197,1743861527,35477761,,157.98039659920954,2.699617603164666,0.0,0.0,0.0,2.1431800859971992
2025/04/05 15:58:47.135763806,1743861527,135533280,,159.6010311516293,2.3799010286797815,0.0,0.0,0.0,2.7837334987678592
2025/04/05 15:58:47.236586297,1743861527,236056234,,160.083699902326,1.4853681032699415,0.0,0.0,0.0,1.856757469121545
2025/04/05 15:58:47.342210242,1743861527,341874166,,161.74568024254347,0.696218949088635,0.0,0.0,0.0,2.593143881194899
2025/04/05 15:58:47.436253060,1743861527,435943818,,162.27700032436132,1.349199637987671,0.0,0.0,0.0,1.668421311445864
2025/04/05 15:58:47.535645367,1743861527,535377030,,163.3880169617003,2.82470573918647,0.0,0.0,0.0,2.0258729019240733
2025/04/05 15:58:47.634763548,1743861527,634474593,,164.48542977531488,3.4844353254158587,0.0,0.0,0.0,2.633351139384229
2025/04/05 15:58:47.737392761,1743861527,736183151,,165.70186246851762,4.197827562091106,0.0,0.0,0.0,2.4693509978188044
2025/04/05 15:58:47.867362495,1743861527,867058756,,166.74780268668536,6.153729223239922,0.0,0.0,0.0,2.492456133950165
2025/04/05 15:58:47.942916755,1743861527,942623089,,168.4938930054073,5.223643696178762,0.0,0.0,0.0,2.5231302459892806
2025/04/05 15:58:48.37253426,1743861528,36969753,,168.96516856007273,0.963926416361143,0.0,0.0,0.0,1.4687690467834
2025/04/05 15:58:48.138871490,1743861528,138628260,,170.71427940792626,1.2073513080282452,0.0,0.0,0.0,2.0685640839735924
2025/04/05 15:58:48.237248466,1743861528,236984306,,171.23033292734266,1.23980995449419,0.0,0.0,0.0,1.491724824799768
2025/04/05 15:58:48.338213849,1743861528,337920662,,173.08360863765225,2.652956668448922,0.0,0.0,0.0,1.9602067996056023
2025/04/05 15:58:48.438297200,1743861528,436704831,,172.94601240671653,0.7868291311494038,0.0,0.0,0.0,1.017433803045482
2025/04/05 15:58:48.538996371,1743861528,538671774,,173.41233226551378,2.1684248231672907,0.0,0.0,0.0,1.3341928498748585
2025/04/05 15:58:48.639632948,1743861528,639371405,,173.84246076277472,1.0739274565437094,0.0,0.0,0.0,1.8936872072722744
2025/04/05 15:58:48.738012834,1743861528,737772672,,174.97517997329294,1.5233930665024293,0.0,0.0,0.0,1.9033311681894558
2025/04/05 15:58:48.840426241,1743861528,840172610,,174.80947600742692,1.2703613709005908,0.0,0.0,0.0,1.0189093335479218
2025/04/05 15:58:48.940273920,1743861528,940030026,,175.868318540917,0.30794791856874343,0.0,0.0,0.0,1.4837222973284483
2025/04/05 15:58:49.62110448,1743861529,61713030,,175.63753802820793,2.820494511933916,0.0,0.0,0.0,0.8291913348768292
2025/04/05 15:58:49.144342208,1743861529,142173728,,175.98129920551247,3.873432932936779,0.0,0.0,0.0,0.7771487776381895
2025/04/05 15:58:49.236058260,1743861529,235820124,,176.35592882079544,5.062903579887959,0.0,0.0,0.0,1.0865079740793515
2025/04/05 15:58:49.335565969,1743861529,335220494,,176.7245951309406,4.1251653008840385,0.0,0.0,0.0,0.5328558325822933
2025/04/05 15:58:49.435864124,1743861529,435534936,,177.06757856664004,2.275535172635582,0.0,0.0,0.0,0.732393966733724
2025/04/05 15:58:49.534885881,1743861529,534724959,,177.34844398011677,2.903825439697405,0.0,0.0,0.0,1.2201350319146191
2025/04/05 15:58:49.638949470,1743861529,638623546,,177.7232871603386,1.1501453880761818,0.0,0.0,0.0,1.0674625496821266
2025/04/05 15:58:49.743005020,1743861529,742621456,,178.12593300269614,2.230521602124434,0.0,0.0,0.0,1.07731489882254
2025/04/05 15:58:49.840031371,1743861529,839731946,,178.5813785389977,2.5506154040198816,0.0,0.0,0.0,0.4539310479121381
2025/04/05 15:58:49.937660114,1743861529,937422386,,178.93361941995937,2.2124299091489084,0.0,0.0,0.0,0.4919157560944577
2025/04/05 15:58:50.35600778,1743861530,35440983,,179.25523596311564,3.5104392755075136,0.0,0.0,0.0,0.8630902405801182
2025/04/05 15:58:50.136829173,1743861530,134790377,,179.62669329757986,2.6552059767887544,0.0,0.0,0.0,0.7073505292204344
2025/04/05 15:58:50.261582121,1743861530,261291736,,179.98305198842758,0.9147564854303551,0.0,0.0,0.0,0.7203870930684785
2025/04/05 15:58:50.339508776,1743861530,339107695,,180.3417898235827,2.2607696632945986,0.0,0.0,0.0,0.5696576901689899
2025/04/05 15:58:50.436287016,1743861530,436012931,,180.6752718055128,2.031649766186634,0.0,0.0,0.0,0.5822589091744022
2025/04/05 15:58:50.536763692,1743861530,536491355,,181.7264124874012,1.4864804849434423,0.0,0.0,0.0,0.5903340923937527
2025/04/05 15:58:50.635184785,1743861530,634900950,,182.07124125450042,-0.540255706553615,0.0,0.0,0.0,-0.49711912354235305
2025/04/05 15:58:50.742930213,1743861530,742635442,,181.66229651955246,1.1461937851334905,0.0,0.0,0.0,-0.6977587017211916
2025/04/05 15:58:50.835930314,1743861530,835674417,,182.61378610512605,-0.40309713805287367,0.0,0.0,0.0,-0.19527600156243272
2025/04/05 15:58:50.941512543,1743861530,941276886,,182.21252795858868,0.40489594127651485,0.0,0.0,0.0,-0.36140550456366183
2025/04/05 15:58:51.35173741,1743861531,34892836,,182.4330597398965,1.9294949711337828,0.0,0.0,0.0,-0.06171907941355122
2025/04/05 15:58:51.136528492,1743861531,136284503,,182.7568420737806,2.050475420972173,0.0,0.0,0.0,0.07414371772093825
2025/04/05 15:58:51.237055119,1743861531,236806410,,183.072922436697,1.5982086022013142,0.0,0.0,0.0,0.0923839920289862
2025/04/05 15:58:51.337996790,1743861531,337764694,,183.41017142299802,2.740715437238588,0.0,0.0,0.0,0.10696592540414734
2025/04/05 15:58:51.463234947,1743861531,462938338,,183.6973661344656,2.3368157769436317,0.0,0.0,0.0,-0.08239303842670903
2025/04/05 15:58:51.538772703,1743861531,538432863,,183.97551682183334,1.312122034967874,0.0,0.0,0.0,-0.0694868022880101
2025/04/05 15:58:51.636192802,1743861531,635920387,,185.01033878079983,2.6765943034981805,0.0,0.0,0.0,-0.06330539865355768
2025/04/05 15:58:51.736305429,1743861531,736032680,,185.29163126291462,1.8817072373485053,0.0,0.0,0.0,-0.899051683193746
2025/04/05 15:58:51.837440600,1743861531,837136658,,184.88052086399676,-0.006095866026382596,0.0,0.0,0.0,-0.8006182352487021
2025/04/05 15:58:51.939709901,1743861531,939452713,,185.84842059929096,0.758796419540879,0.0,0.0,0.0,-0.4238908598970806
2025/04/05 15:58:52.34833516,1743861532,34546711,,186.1121894910896,0.6186920828044999,0.0,0.0,0.0,-1.0752484851983397
2025/04/05 15:58:52.138394921,1743861532,137738668,,185.63247945413548,0.8276921204140729,0.0,0.0,0.0,-0.6148373563666815
2025/04/05 15:58:52.238783379,1743861532,238263516,,186.62357625688276,0.9809716753947121,0.0,0.0,0.0,-0.6090402091319047
2025/04/05 15:58:52.337664095,1743861532,336670546,,186.14992101489315,0.7749167802329233,0.0,0.0,0.0,-0.9696000161244127
2025/04/05 15:58:52.441524575,1743861532,438328033,,186.38149460109588,0.8178249155449971,0.0,0.0,0.0,-0.7162674378741802
2025/04/05 15:58:52.536235911,1743861532,535995891,,186.63329126751478,-1.6680045981920946,0.0,0.0,0.0,-0.5054888274407833
2025/04/05 15:58:52.663832505,1743861532,663291418,,186.93808584761774,2.298572769401615,0.0,0.0,0.0,-0.5438424915749833
2025/04/05 15:58:52.737083577,1743861532,736813303,,187.91406883016452,1.711932595881374,0.0,0.0,0.0,-0.5386446358475808
2025/04/05 15:58:52.838875257,1743861532,838606168,,188.14088412630346,-0.34229023220116683,0.0,0.0,0.0,-1.21935474417234
2025/04/05 15:58:52.939256845,1743861532,936740108,,187.560516259884,0.2861976146750238,0.0,0.0,0.0,-0.9027113175656142
2025/04/05 15:58:53.37748580,1743861533,37334590,,187.80483998521908,0.1678677244060735,0.0,0.0,0.0,-0.7022847924713291
2025/04/05 15:58:53.138315326,1743861533,138034885,,188.8535709903391,0.21425561259046125,0.0,0.0,0.0,-0.6968153010586451
2025/04/05 15:58:53.236757285,1743861533,236468556,,189.14216884005813,-0.060339597412797596,0.0,0.0,0.0,-1.3302891667214072
2025/04/05 15:58:53.344941420,1743861533,344776494,,188.7067784149164,0.3713555540592579,0.0,0.0,0.0,-0.9441029778620811
2025/04/05 15:58:53.436220116,1743861533,436012234,,188.8741753813999,0.10232527596671498,0.0,0.0,0.0,-0.9852892714915016
2025/04/05 15:58:53.536121738,1743861533,535322278,,189.0967507535143,-1.1478025439178778,0.0,0.0,0.0,-0.9511056846046879
2025/04/05 15:58:53.635847100,1743861533,635248334,,189.34037289525241,0.13835572526133624,0.0,0.0,0.0,-0.8370385630623114
2025/04/05 15:58:53.736017308,1743861533,735725167,,189.5829884071225,0.7720570079568748,0.0,0.0,0.0,-0.8192483721142224
2025/04/05 15:58:53.867627032,1743861533,867357655,,190.5783403679108,0.7996893757109614,0.0,0.0,0.0,-0.8145269225243497
2025/04/05 15:58:53.937868255,1743861533,937024725,,190.80942598955872,0.24099958519526973,0.0,0.0,0.0,-0.9051499616328598
2025/04/05 15:58:54.39774758,1743861534,37503949,,190.3157304699867,-0.13857857989598915,0.0,0.0,0.0,-0.8178590195449906
2025/04/05 15:58:54.135067918,1743861534,134813748,,190.43842620617355,-1.2735200288688635,0.0,0.0,0.0,-0.8071760626851856
2025/04/05 15:58:54.237217516,1743861534,236940986,,190.66435692569334,-0.3238649798990497,0.0,0.0,0.0,-0.8201219779829977
2025/04/05 15:58:54.336334573,1743861534,336118940,,190.8846294082195,1.054471261901121,0.0,0.0,0.0,-0.7949796757062743
2025/04/05 15:58:54.441347539,1743861534,441058454,,191.10476473797607,1.239139140630479,0.0,0.0,0.0,-0.7721832841873394
2025/04/05 15:58:54.544197489,1743861534,543921196,,191.34759373330635,1.2612066211808104,0.0,0.0,0.0,-0.7555064517275412
2025/04/05 15:58:54.637252848,1743861534,636656833,,192.3108267455416,1.2602112444080538,0.0,0.0,0.0,-0.7507690308045684
2025/04/05 15:58:54.736167758,1743861534,735899042,,192.49021093457995,1.352837279373424,0.0,0.0,0.0,-0.5871502648801099
2025/04/05 15:58:54.844698269,1743861534,844550267,,192.0266365229905,1.1850695961434727,0.0,0.0,0.0,-0.6689448976568713
2025/04/05 15:58:54.945387748,1743861534,945121058,,192.17422210040888,-0.9670566565983553,0.0,0.0,0.0,-0.7119186986327459
2025/04/05 15:58:55.63075245,1743861535,62819843,,192.3659444694796,-0.5505516716119058,0.0,0.0,0.0,-0.7148379223557633
2025/04/05 15:58:55.136228545,1743861535,135964751,,193.3574988551021,0.1062232291375323,0.0,0.0,0.0,-0.7103056844153621
2025/04/05 15:58:55.235571206,1743861535,235298906,,193.5597294053518,0.5406668323136236,0.0,0.0,0.0,-0.7494680620325821
2025/04/05 15:58:55.339531139,1743861535,337900210,,193.0296598996165,1.1825336131984905,0.0,0.0,0.0,-0.7143644957774589
2025/04/05 15:58:55.439741377,1743861535,439433977,,193.3498428650895,3.794295596032113,0.0,0.0,0.0,-0.6824402869892725
2025/04/05 15:58:55.537369057,1743861535,537082068,,193.41761899198406,2.86095680132995,0.0,0.0,0.0,-0.625813825017665
2025/04/05 15:58:55.635178604,1743861535,634941795,,193.57793925304654,3.784611584605827,0.0,0.0,0.0,-0.6366899345287739
2025/04/05 15:58:55.749853596,1743861535,749659591,,193.73156420297175,4.492840825286331,0.0,0.0,0.0,-0.6553844903142602
2025/04/05 15:58:55.836211961,1743861535,835927737,,193.86704031283,4.792528093488487,0.0,0.0,0.0,-0.6708811541509776
2025/04/05 15:58:55.942695013,1743861535,942028702,,194.0461957292585,0.82858949666349,0.0,0.0,0.0,-0.6757539759821589
2025/04/05 15:58:56.35126526,1743861536,34850796,,194.34005513484595,-0.9705406537358575,0.0,0.0,0.0,-0.695794852242308
2025/04/05 15:58:56.136606391,1743861536,136309617,,194.47579047418597,0.6992527196455514,0.0,0.0,0.0,-0.6972000541468112
2025/04/05 15:58:56.261948774,1743861536,261695167,,194.67272882160285,-0.29094007103639535,0.0,0.0,0.0,-0.7060741093674244
2025/04/05 15:58:56.337365067,1743861536,337088692,,194.93776346704362,1.1618231291517662,0.0,0.0,0.0,-0.8720479128171982
2025/04/05 15:58:56.436389088,1743861536,435872681,,195.1187338111226,-0.5779079693358538,0.0,0.0,0.0,-0.8404597627280563
2025/04/05 15:58:56.535294384,1743861536,535036827,,195.31585503457993,1.2691259069301426,0.0,0.0,0.0,-0.7788993934546105
2025/04/05 15:58:56.638605349,1743861536,638322731,,195.4508583611352,0.35185297971910534,0.0,0.0,0.0,-0.7551650254122352
2025/04/05 15:58:56.741405671,1743861536,740032114,,195.65318041487672,-0.5634869814344081,0.0,0.0,0.0,-0.866120728190063
2025/04/05 15:58:56.839075777,1743861536,838842925,,195.79626671121042,-1.253473089725922,0.0,0.0,0.0,-0.8550258438729554
2025/04/05 15:58:56.938313046,1743861536,938029946,,195.9459263660882,0.9338100140151963,0.0,0.0,0.0,-0.8315305770061888
2025/04/05 15:58:57.35062907,1743861537,34761425,,196.18556798736472,2.6415328307038908,0.0,0.0,0.0,-0.7764193883279666
2025/04/05 15:58:57.137662025,1743861537,135949794,,196.35317819656146,0.8199752106984537,0.0,0.0,0.0,-0.7566520552530408
2025/04/05 15:58:57.234909632,1743861537,234680024,,196.4454173241079,1.0357010113564715,0.0,0.0,0.0,-0.7461665339312236
2025/04/05 15:58:57.336725684,1743861537,336474416,,196.5901050771589,1.0197368560624902,0.0,0.0,0.0,-0.7671356690897682
2025/04/05 15:58:57.467692691,1743861537,467407472,,197.53462488717116,1.0405700645775293,0.0,0.0,0.0,-0.7496105549652576
2025/04/05 15:58:57.538910044,1743861537,538625577,,197.71744058060446,1.296526290115542,0.0,0.0,0.0,-0.815697556267718
2025/04/05 15:58:57.637817712,1743861537,635574020,,197.89487258467463,-0.20054590392319468,0.0,0.0,0.0,-0.8220516785193853
2025/04/05 15:58:57.738239149,1743861537,735411568,,197.3609446471886,3.909803857603632,0.0,0.0,0.0,-0.824430792331565
2025/04/05 15:58:57.837080753,1743861537,836846540,,197.50279564306737,2.1950173695074833,0.0,0.0,0.0,-0.7928139771381579
2025/04/05 15:58:57.940455174,1743861537,939296753,,197.6943807505179,1.540322215206164,0.0,0.0,0.0,-0.8054498807534625
2025/04/05 15:58:58.36366479,1743861538,35940187,,197.8159325480155,2.028782308651103,0.0,0.0,0.0,-0.7868061599391099
2025/04/05 15:58:58.137646855,1743861538,137381792,,197.96004077883657,2.0407192037079804,0.0,0.0,0.0,-0.7776667212304601
2025/04/05 15:58:58.239664994,1743861538,239378665,,198.92164187106965,2.071001103844719,0.0,0.0,0.0,-0.781990013478858
2025/04/05 15:58:58.335125410,1743861538,334786574,,198.2872239853711,0.7875334838320183,0.0,0.0,0.0,-0.8355619110967639
2025/04/05 15:58:58.444626136,1743861538,443509075,,198.39491253917623,2.2759717362356793,0.0,0.0,0.0,-0.8110690758133055
2025/04/05 15:58:58.542446398,1743861538,540507261,,198.52627071107025,2.367950312214826,0.0,0.0,0.0,-0.8567190698990218
2025/04/05 15:58:58.663749666,1743861538,663424774,,199.4946280872341,2.971660707833018,0.0,0.0,0.0,-0.8048209700158493
2025/04/05 15:58:58.739889056,1743861538,739683271,,199.65523811768554,2.202040291879778,0.0,0.0,0.0,-0.9231043463706134
2025/04/05 15:58:58.836902175,1743861538,836629261,,199.7948625186939,3.3043703196194825,0.0,0.0,0.0,-0.934020146519108
2025/04/05 15:58:58.947036295,1743861538,946865368,,199.96750571602104,2.298937367306682,0.0,0.0,0.0,-0.963455172577472
2025/04/05 15:58:59.36277718,1743861539,36080143,,200.2058661540737,1.7911277174983786,0.0,0.0,0.0,-0.971646447600543
2025/04/05 15:58:59.136456407,1743861539,135705115,,199.46711500656062,1.0647095586232118,0.0,0.0,0.0,-0.9836830595501962
2025/04/05 15:58:59.237203564,1743861539,237032539,,199.60475683676594,1.546496910554463,0.0,0.0,0.0,-0.9142246244985488
2025/04/05 15:58:59.340709426,1743861539,340440961,,199.73853998910835,-0.008296041836876655,0.0,0.0,0.0,-1.0121643755884715
2025/04/05 15:58:59.440103390,1743861539,439846173,,199.88461568271902,0.5749457479732021,0.0,0.0,0.0,-1.036728904033536
2025/04/05 15:58:59.538128200,1743861539,537820462,,200.01229843965496,-0.323335389157533,0.0,0.0,0.0,-1.0208412344202802
2025/04/05 15:58:59.635629372,1743861539,635370008,,201.7667770475413,-0.31740971634973997,0.0,0.0,0.0,-1.0178577669272573
2025/04/05 15:58:59.738029208,1743861539,737266371,,200.4281060953772,-0.5899698524817582,0.0,0.0,0.0,-0.9241924995246455
2025/04/05 15:58:59.865629750,1743861539,865139013,,200.47148043512516,-0.869270664547726,0.0,0.0,0.0,-0.8965585670796558
2025/04/05 15:58:59.940934743,1743861539,940398925,,200.58427801525787,0.6302815371504983,0.0,0.0,0.0,-0.8894152779347346
2025/04/05 15:59:00.36381393,1743861540,36091565,,200.69969891782222,2.705680892521429,0.0,0.0,0.0,-0.8771485680261827
2025/04/05 15:59:00.134995273,1743861540,134724544,,200.86006478672277,1.2037933780198282,0.0,0.0,0.0,-0.8636888766673864
2025/04/05 15:59:00.236840257,1743861540,236563463,,200.97978649365976,0.2316190324372822,0.0,0.0,0.0,-0.7488934984318035
2025/04/05 15:59:00.335559001,1743861540,335258649,,201.11201414033496,0.2319437005064342,0.0,0.0,0.0,-0.7762432201769511
2025/04/05 15:59:00.435958011,1743861540,435660405,,201.26269564466725,-0.693692181097776,0.0,0.0,0.0,-0.7948467776170354
2025/04/05 15:59:00.541284185,1743861540,541042664,,201.51713070003873,-0.00583998782354353,0.0,0.0,0.0,-0.8132733285521687
2025/04/05 15:59:00.636078349,1743861540,635820382,,201.59639108917108,0.5378915972119429,0.0,0.0,0.0,-0.7858708091957579
2025/04/05 15:59:00.738525812,1743861540,736745783,,201.7258124920348,0.7485324457695132,0.0,0.0,0.0,-0.752408024805056
2025/04/05 15:59:00.837376273,1743861540,837160505,,201.83903713062574,1.2070778585696778,0.0,0.0,0.0,-0.713385819368266
2025/04/05 15:59:00.951305526,1743861540,951003535,,202.75891102628378,1.1958314361331301,0.0,0.0,0.0,-0.6997229073464806
2025/04/05 15:59:01.78494405,1743861541,78192178,,202.87547564162554,0.4832599636455404,0.0,0.0,0.0,-0.7084984562420651
2025/04/05 15:59:01.136956496,1743861541,136070003,,202.23764156713372,2.0409072213141006,0.0,0.0,0.0,-0.6809170274943724
2025/04/05 15:59:01.235958999,1743861541,235628856,,202.3332051910794,2.5608753850424817,0.0,0.0,0.0,-0.6667300330980661
2025/04/05 15:59:01.335568334,1743861541,335279184,,202.44481319572077,0.8347227282869646,0.0,0.0,0.0,-0.6671667487603903
2025/04/05 15:59:01.436058804,1743861541,435788530,,202.56011215727312,1.7815918077097088,0.0,0.0,0.0,-0.6672249732204355
2025/04/05 15:59:01.537283768,1743861541,536974382,,203.51170836950706,3.5324040472443996,0.0,0.0,0.0,-0.6777688979633459
2025/04/05 15:59:01.637005015,1743861541,636590573,,202.9797478203016,0.4549861832680116,0.0,0.0,0.0,-0.6828862994631767
2025/04/05 15:59:01.741844856,1743861541,740691848,,202.99132359818236,0.3706618642202272,0.0,0.0,0.0,-0.681041756664904
2025/04/05 15:59:01.836284539,1743861541,836026796,,203.05856599105357,2.5513627093571425,0.0,0.0,0.0,-0.6779843950559539
2025/04/05 15:59:01.940373370,1743861541,939321470,,203.19474340356354,0.4318208873203714,0.0,0.0,0.0,-0.6784810637476058
2025/04/05 15:59:02.42037065,1743861542,41810857,,203.34446430545074,1.801580244727827,0.0,0.0,0.0,-0.6770577454011849
2025/04/05 15:59:02.135501028,1743861542,134977326,,203.44082095191203,1.4123638809394194,0.0,0.0,0.0,-0.6748185657121425
2025/04/05 15:59:02.262533371,1743861542,262316503,,203.57536679939795,2.2901579390261713,0.0,0.0,0.0,-0.692701431261365
2025/04/05 15:59:02.338203594,1743861542,337743866,,203.78218775263224,0.777974280867663,0.0,0.0,0.0,-0.6959911597331545
2025/04/05 15:59:02.438861342,1743861542,438577061,,203.81261397717708,1.8890314881730774,0.0,0.0,0.0,-0.6889451896543807
2025/04/05 15:59:02.537954641,1743861542,537695791,,203.88864090322605,0.5929368590479432,0.0,0.0,0.0,-0.6788749894546069
2025/04/05 15:59:02.637365280,1743861542,636197351,,204.00878974402903,1.8266452934883757,0.0,0.0,0.0,-0.7334362905582121
2025/04/05 15:59:02.738308674,1743861542,738126136,,204.1171795722698,0.5860427373945439,0.0,0.0,0.0,-0.744239991850101
2025/04/05 15:59:02.840389461,1743861542,835910321,,204.24411521189455,1.8631885109507194,0.0,0.0,0.0,-0.7516388857850146
2025/04/05 15:59:02.949096942,1743861542,947944403,,204.35605854866645,0.6252917257451007,0.0,0.0,0.0,-0.7530293072856926
2025/04/05 15:59:03.35891300,1743861543,35635797,,204.57832922059663,2.308040881042342,0.0,0.0,0.0,-0.7407253501661466
2025/04/05 15:59:03.142549011,1743861543,142332063,,204.6542950420124,0.5113330067918928,0.0,0.0,0.0,-0.729124321666351
2025/04/05 15:59:03.238373801,1743861543,238038483,,204.71632175659715,2.208964080713619,0.0,0.0,0.0,-0.7322887801987926
2025/04/05 15:59:03.337738855,1743861543,337503427,,204.82291189161174,0.40546659812991576,0.0,0.0,0.0,-0.7415291696685907
2025/04/05 15:59:03.465476285,1743861543,465206109,,205.75786947986626,2.161501506796007,0.0,0.0,0.0,-0.7435169797064775
2025/04/05 15:59:03.545690006,1743861543,543776670,,205.96267710873997,1.763375604233428,0.0,0.0,0.0,-0.7308725540449067
2025/04/05 15:59:03.636859963,1743861543,636645693,,206.00817138212685,1.6059080559043146,0.0,0.0,0.0,-0.8547209532212989
2025/04/05 15:59:03.737996481,1743861543,737740400,,206.0994953921546,-0.12885938868912414,0.0,0.0,0.0,-0.844111231096799
2025/04/05 15:59:03.840587056,1743861543,840172700,,206.15334736765692,0.4115613143701849,0.0,0.0,0.0,-0.8230829774035728
2025/04/05 15:59:03.938120408,1743861543,937837210,,206.26449788457913,-0.07188403559790307,0.0,0.0,0.0,-0.7971021630237296
2025/04/05 15:59:04.37356350,1743861544,37108784,,206.34429194928094,1.8221021147817866,0.0,0.0,0.0,-0.7853998857673191
2025/04/05 15:59:04.138926085,1743861544,138657738,,206.5377985427255,1.6690923155412174,0.0,0.0,0.0,-0.8292432436528754
2025/04/05 15:59:04.238243264,1743861544,237927064,,206.63523826549533,3.241230739932994,0.0,0.0,0.0,-0.7613305357924383
2025/04/05 15:59:04.341029996,1743861544,340822108,,206.7389308851922,0.9949227961139229,0.0,0.0,0.0,-0.681729611404892
2025/04/05 15:59:04.436395384,1743861544,436152545,,206.81424133612848,2.7267253521637445,0.0,0.0,0.0,-0.6563088747761635
2025/04/05 15:59:04.539650071,1743861544,539377380,,206.88390836887885,0.72295755549849,0.0,0.0,0.0,-0.6959977153792415
2025/04/05 15:59:04.664235812,1743861544,663948326,,207.05517924136996,2.125383415194793,0.0,0.0,0.0,-0.7167120198125928
2025/04/05 15:59:04.738723813,1743861544,737099378,,207.11874581605244,3.3953887863467465,0.0,0.0,0.0,-0.7515126626157852
2025/04/05 15:59:04.837255573,1743861544,836971721,,207.15958844628784,1.50017805476499,0.0,0.0,0.0,-0.7776733958785053
2025/04/05 15:59:04.939550480,1743861544,938028087,,207.26082578645656,1.1385816662747348,0.0,0.0,0.0,-0.7826303063374486
2025/04/05 15:59:05.37465312,1743861545,37205461,,207.36798057109917,1.9766961288113731,0.0,0.0,0.0,-0.7921653395737479
2025/04/05 15:59:05.138535361,1743861545,137583459,,207.55645422202755,1.0815852090641636,0.0,0.0,0.0,-0.7863599087423123
2025/04/05 15:59:05.234685473,1743861545,234509620,,206.78491335082117,2.699886879273693,0.0,0.0,0.0,-0.8129061646237039
2025/04/05 15:59:05.348135824,1743861545,347942924,,206.85822547873946,-0.6074526901720184,0.0,0.0,0.0,-0.784390279164375
2025/04/05 15:59:05.436902607,1743861545,436353871,,206.9489547115253,-1.4748841187226538,0.0,0.0,0.0,-0.7663024055322624
2025/04/05 15:59:05.539097558,1743861545,538913501,,207.88943285744335,-2.1415782456497885,0.0,0.0,0.0,-0.7731309122716415
2025/04/05 15:59:05.637184290,1743861545,636871389,,208.01246398897467,0.17950853244046894,0.0,0.0,0.0,-0.7732833529877827
2025/04/05 15:59:05.741169895,1743861545,740873692,,207.29140449365877,-0.21738357555037924,0.0,0.0,0.0,-0.7644395666910415
2025/04/05 15:59:05.863511937,1743861545,863294695,,207.46647257587927,0.49834902383764873,0.0,0.0,0.0,-0.7466903777699351
2025/04/05 15:59:05.936599123,1743861545,936358970,,207.52172759832177,0.9182797419059431,0.0,0.0,0.0,-0.7203808944943345
2025/04/05 15:59:06.36446798,1743861546,36091713,,207.58488266000984,1.1928429226900656,0.0,0.0,0.0,-0.6915234077614665
2025/04/05 15:59:06.135275261,1743861546,134993948,,207.64410286300293,2.9750235872505395,0.0,0.0,0.0,-0.6682292158008215
2025/04/05 15:59:06.235719064,1743861546,235447952,,207.72490339306256,1.2512888371520843,0.0,0.0,0.0,-0.6598181524940119
2025/04/05 15:59:06.335541487,1743861546,335163528,,207.8119724065926,2.6673571007014028,0.0,0.0,0.0,-0.6610432562754375
2025/04/05 15:59:06.435555537,1743861546,435239069,,207.9874369671747,2.546236889806871,0.0,0.0,0.0,-0.6683433974076433
2025/04/05 15:59:06.544056245,1743861546,543780231,,208.04095322916214,2.165126995665578,0.0,0.0,0.0,-0.6775093571154109
2025/04/05 15:59:06.636444300,1743861546,636125267,,208.12353823197282,1.832481962146006,0.0,0.0,0.0,-0.688254835821151
2025/04/05 15:59:06.737220035,1743861546,736922288,,208.1930530807512,1.7726744050656789,0.0,0.0,0.0,-0.6952991368957618
2025/04/05 15:59:06.837438197,1743861546,837119011,,208.2966847650257,1.7771115403705346,0.0,0.0,0.0,-0.7012511130359435
2025/04/05 15:59:06.937856890,1743861546,937558463,,208.39174525475605,1.4091461235206317,0.0,0.0,0.0,-0.7076732972606142
2025/04/05 15:59:07.64145638,1743861547,63886844,,208.57398153446758,1.508496253143098,0.0,0.0,0.0,-0.7158374563946006
2025/04/05 15:59:07.136728838,1743861547,136444815,,208.5993594400482,2.460765555478948,0.0,0.0,0.0,-0.7203257087502302
2025/04/05 15:59:07.236259930,1743861547,235139988,,208.61889558202975,0.5727734509914627,0.0,0.0,0.0,-0.7277100397815034
2025/04/05 15:59:07.336088216,1743861547,335804425,,208.6857269372034,1.924879943870941,0.0,0.0,0.0,-0.7362461562082195
2025/04/05 15:59:07.439231392,1743861547,439022680,,208.75656832036168,1.679528877440921,0.0,0.0,0.0,-0.7449695587908723
2025/04/05 15:59:07.541243320,1743861547,540961284,,208.84089200883778,1.4618402038194236,0.0,0.0,0.0,-0.7533874753209202
2025/04/05 15:59:07.638252764,1743861547,637974714,,209.78310903149534,1.3396538397816675,0.0,0.0,0.0,-0.75548416225011
2025/04/05 15:59:07.746501285,1743861547,746308823,,209.889867217419,3.7921563810215395,0.0,0.0,0.0,-0.7571479479765898
2025/04/05 15:59:07.837381160,1743861547,837083001,,209.24779307596728,1.7208660838756908,0.0,0.0,0.0,-0.7732094577921041
2025/04/05 15:59:07.936481001,1743861547,936198907,,209.28390787000956,1.290443935158381,0.0,0.0,0.0,-0.7956896352373325
2025/04/05 15:59:08.36484905,1743861548,34570958,,209.3299665312123,1.276046240817778,0.0,0.0,0.0,-0.8011149068658697
2025/04/05 15:59:08.137519821,1743861548,137260099,,209.3984747599729,0.9593881804717609,0.0,0.0,0.0,-0.816682191304203
2025/04/05 15:59:08.261795503,1743861548,261508573,,209.46410060383704,1.0539460493840191,0.0,0.0,0.0,-0.8336653447169099
2025/04/05 15:59:08.337157119,1743861548,336455095,,209.54185101700116,0.8560653608064287,0.0,0.0,0.0,-0.8478027555096677
2025/04/05 15:59:08.434594650,1743861548,434331489,,209.60968822068958,0.9985689557017631,0.0,0.0,0.0,-0.86087245450019
2025/04/05 15:59:08.536017048,1743861548,535709593,,209.68739289251724,0.8442099641928329,0.0,0.0,0.0,-0.8733117526453092
2025/04/05 15:59:08.640643951,1743861548,640374044,,209.85306628890567,1.0153579845645682,0.0,0.0,0.0,-0.88356348080754
2025/04/05 15:59:08.736804485,1743861548,736511033,,209.86807343070328,0.863430362173095,0.0,0.0,0.0,-0.8985146080134544
2025/04/05 15:59:08.836731866,1743861548,836466996,,209.89151444354889,2.519224456706654,0.0,0.0,0.0,-1.007782384863331
2025/04/05 15:59:08.940633868,1743861548,938034192,,209.94888896744516,0.0469080958517602,0.0,0.0,0.0,-1.019402241675499
2025/04/05 15:59:09.40532451,1743861549,40246009,,210.04117408214387,1.5147464896413412,0.0,0.0,0.0,-0.9392554271092859
2025/04/05 15:59:09.139401455,1743861549,139169067,,210.97056466124644,1.5935845201031178,0.0,0.0,0.0,-0.9941571367641201
2025/04/05 15:59:09.234905448,1743861549,234627704,,210.2366939138626,0.34143348598638745,0.0,0.0,0.0,-0.9420760153991775
2025/04/05 15:59:09.336606091,1743861549,336335846,,210.31863848622984,0.41861456059053653,0.0,0.0,0.0,-0.9603168714875641
2025/04/05 15:59:09.462614524,1743861549,462335341,,210.41217389546216,0.7742202902560992,0.0,0.0,0.0,-0.9722289922977708
2025/04/05 15:59:09.543240430,1743861549,540792455,,210.58076033533462,0.7564737740150096,0.0,0.0,0.0,-0.9776834056471487
2025/04/05 15:59:09.642153143,1743861549,641892509,,210.62439369614484,1.020971962558364,0.0,0.0,0.0,-0.9676171392806219
2025/04/05 15:59:09.736243497,1743861549,735992997,,210.6097680288634,0.9379231808018352,0.0,0.0,0.0,-0.9600836185013262
2025/04/05 15:59:09.841252585,1743861549,840603407,,211.52236719919637,1.138509223159525,0.0,0.0,0.0,-0.9550059072326559
2025/04/05 15:59:09.938844741,1743861549,938573901,,211.66365391029666,2.5918790934922242,0.0,0.0,0.0,-1.0081056301394902
2025/04/05 15:59:10.39169228,1743861550,38908854,,211.66990648315578,0.5864635936661214,0.0,0.0,0.0,-1.0665559471194457
2025/04/05 15:59:10.137964620,1743861550,135329927,,211.71158819380278,2.1331922511788624,0.0,0.0,0.0,-1.079587390603277
2025/04/05 15:59:10.235190090,1743861550,234907555,,211.76130683169225,0.24738934613591143,0.0,0.0,0.0,-1.0545211229691909
2025/04/05 15:59:10.336447708,1743861550,336247410,,211.81120886708382,1.860296509828551,0.0,0.0,0.0,-1.1126487996809897
2025/04/05 15:59:10.440890035,1743861550,440650218,,211.15690329058012,1.827332072392472,0.0,0.0,0.0,-1.0566698411492055
2025/04/05 15:59:10.540509680,1743861550,539786610,,211.20627128660877,-0.33698705709077975,0.0,0.0,0.0,-1.048140953946276
2025/04/05 15:59:10.672515950,1743861550,672198462,,212.0895425578725,0.17127224874704225,0.0,0.0,0.0,-1.030983068705028
2025/04/05 15:59:10.741537831,1743861550,741182485,,211.2853944279865,1.4969479063519147,0.0,0.0,0.0,-1.0175260028515523
2025/04/05 15:59:10.836889766,1743861550,836727634,,211.3714415558184,1.4131464557921602,0.0,0.0,0.0,-1.023073026589042
2025/04/05 15:59:10.937607823,1743861550,937154675,,211.4521964942079,1.0699606051032624,0.0,0.0,0.0,-1.0096604750640479
2025/04/05 15:59:11.35481523,1743861551,35165938,,211.5083970980195,1.1011151577837945,0.0,0.0,0.0,-1.0014503681402924
2025/04/05 15:59:11.136686266,1743861551,134548568,,211.55308301824752,0.8424208122429979,0.0,0.0,0.0,-1.0085808442336806
2025/04/05 15:59:11.240042854,1743861551,239825385,,211.70164456983423,0.9396342305727321,0.0,0.0,0.0,-1.0175333915510383
2025/04/05 15:59:11.370114315,1743861551,369789532,,211.67715121948126,-0.7776178442323148,0.0,0.0,0.0,-1.0524844528941364
2025/04/05 15:59:11.436316068,1743861551,436025176,,211.71509584851918,-0.17521629797486346,0.0,0.0,0.0,-1.0257843208131916
2025/04/05 15:59:11.548808656,1743861551,548542058,,211.84047584909797,0.05143894244913694,0.0,0.0,0.0,-1.0401790034720688
2025/04/05 15:59:11.636832280,1743861551,636528738,,211.89629508240807,2.224444250801269,0.0,0.0,0.0,-1.0435606318262072
2025/04/05 15:59:11.737583377,1743861551,737291178,,212.82435862904308,1.722099402842485,0.0,0.0,0.0,-1.0268551910672012
2025/04/05 15:59:11.864669503,1743861551,864348125,,212.8979914420639,0.48272425597063223,0.0,0.0,0.0,-0.9912789692299498
2025/04/05 15:59:11.941067650,1743861551,940710227,,212.97702309992056,2.152828362065859,0.0,0.0,0.0,-0.996176350068835
2025/04/05 15:59:12.36364924,1743861552,36116650,,213.10456823922175,0.36178127872395155,0.0,0.0,0.0,-0.9105107482611279
2025/04/05 15:59:12.136889294,1743861552,136247912,,212.23834823482838,0.171868920831717,0.0,0.0,0.0,-0.9477375834839762
2025/04/05 15:59:12.236079125,1743861552,235789792,,213.123876499392,0.5754023702484423,0.0,0.0,0.0,-0.9718789889268485
2025/04/05 15:59:12.336948654,1743861552,336632145,,213.15076428510912,2.218071410185469,0.0,0.0,0.0,-0.916824474885783
2025/04/05 15:59:12.436584029,1743861552,436258642,,213.2441773723504,0.35557774883249893,0.0,0.0,0.0,-0.9059297057326888
2025/04/05 15:59:12.538739472,1743861552,538488937,,213.32686950956509,2.0457644798120707,0.0,0.0,0.0,-0.8344179758588595
2025/04/05 15:59:12.637949615,1743861552,637669813,,212.61024758287505,1.9463999319215575,0.0,0.0,0.0,-0.8752008074807104
2025/04/05 15:59:12.739019091,1743861552,738742877,,213.51616670668184,1.4886814180832006,0.0,0.0,0.0,-0.8958896644372306
2025/04/05 15:59:12.840447436,1743861552,840176994,,212.6791372930007,0.23032062819128724,0.0,0.0,0.0,-0.9143216989886269
2025/04/05 15:59:12.938472807,1743861552,936592482,,212.69655420430155,0.3501385643287737,0.0,0.0,0.0,-0.9096268312782316
2025/04/05 15:59:13.61441604,1743861553,61159341,,212.77348105037356,0.7339021122361736,0.0,0.0,0.0,-0.9144069263667939
2025/04/05 15:59:13.135016426,1743861553,134711011,,212.8662691651634,0.7418488619750088,0.0,0.0,0.0,-0.9069834188698843
2025/04/05 15:59:13.236235008,1743861553,234621626,,212.94639880267604,1.036602140989029,0.0,0.0,0.0,-0.8844118218155167
2025/04/05 15:59:13.336850639,1743861553,336599628,,212.98129350066654,-0.4712290297438577,0.0,0.0,0.0,-0.7951341450383168
2025/04/05 15:59:13.436985218,1743861553,436745492,,213.87516411348594,0.22504706180027986,0.0,0.0,0.0,-0.8321756358996294
2025/04/05 15:59:13.536180016,1743861553,535921982,,214.0175184498479,2.0419068887437133,0.0,0.0,0.0,-0.8414674621076337
2025/04/05 15:59:13.637876747,1743861553,637456657,,214.03470621362533,0.3268001735526084,0.0,0.0,0.0,-0.7909396922655744
2025/04/05 15:59:13.737018657,1743861553,736732125,,214.06876238770963,2.088751075768105,0.0,0.0,0.0,-0.7597267630558042
2025/04/05 15:59:13.840298811,1743861553,839618533,,213.30056094611058,2.103461775414266,0.0,0.0,0.0,-0.715641265756596
2025/04/05 15:59:13.941349389,1743861553,941085369,,214.21175688589307,1.6822338150892175,0.0,0.0,0.0,-0.7558026370723129
2025/04/05 15:59:14.35497807,1743861554,35191772,,213.38375619038186,0.43470281037363906,0.0,0.0,0.0,-0.7924838706868494
2025/04/05 15:59:14.135981169,1743861554,135701832,,213.4336123534086,0.5608359603702842,0.0,0.0,0.0,-0.7793600661319059
2025/04/05 15:59:14.259939771,1743861554,259685658,,213.50504888776237,0.9391098531877378,0.0,0.0,0.0,-0.780932670271905
2025/04/05 15:59:14.335978501,1743861554,335697700,,213.60039922780936,0.9370507669342587,0.0,0.0,0.0,-0.7706667570694584
2025/04/05 15:59:14.438072334,1743861554,437800970,,214.50880428147883,1.2091504683004248,0.0,0.0,0.0,-0.7804018518630541
2025/04/05 15:59:14.538525251,1743861554,538227160,,213.81002644980853,2.2323657994637114,0.0,0.0,0.0,-0.7140706876022905
2025/04/05 15:59:14.637340229,1743861554,637059185,,213.8108495114137,2.02984345677668,0.0,0.0,0.0,-0.7419250626735552
2025/04/05 15:59:14.739812629,1743861554,739577829,,214.68050146667318,1.5620627488002772,0.0,0.0,0.0,-0.7435141150298329
2025/04/05 15:59:14.841630817,1743861554,839203280,,213.8368378120518,0.2974219644957702,0.0,0.0,0.0,-0.7431881845586267
2025/04/05 15:59:14.936996509,1743861554,936673585,,213.87426439127745,0.4070807193605573,0.0,0.0,0.0,-0.7360003807719298
2025/04/05 15:59:15.36568257,1743861555,36301672,,214.0025110716594,0.7902112553567792,0.0,0.0,0.0,-0.7372642260985725
2025/04/05 15:59:15.137150516,1743861555,136861444,,214.0514218729954,-0.605113483443,0.0,0.0,0.0,-0.699550079066675
2025/04/05 15:59:15.235907424,1743861555,235704296,,214.96455406289084,0.16610806197943484,0.0,0.0,0.0,-0.6960084989519876
2025/04/05 15:59:15.338098256,1743861555,336203604,,214.14652818879546,1.7587561699135044,0.0,0.0,0.0,-0.6977416573230083
2025/04/05 15:59:15.460822620,1743861555,460562125,,214.21643913550372,1.783853984981468,0.0,0.0,0.0,-0.6763910473051156
2025/04/05 15:59:15.534548052,1743861555,534249780,,214.28648774890837,1.505517630114875,0.0,0.0,0.0,-0.6505771003361229
2025/04/05 15:59:15.635858134,1743861555,635577251,,214.3259121417185,1.5717578412903466,0.0,0.0,0.0,-0.6296775133383845
2025/04/05 15:59:15.745068213,1743861555,744777437,,215.22197846600477,1.3115503549831051,0.0,0.0,0.0,-0.6473422035414305
2025/04/05 15:59:15.842714632,1743861555,842426984,,215.26210426605766,0.38838816540965815,0.0,0.0,0.0,-0.5831769171129367
2025/04/05 15:59:15.946926499,1743861555,945266968,,215.41066574878522,2.1592083537033666,0.0,0.0,0.0,-0.5929254813211012
2025/04/05 15:59:16.38999700,1743861556,38780866,,215.3780284098915,0.3954196070676623,0.0,0.0,0.0,-0.5650239055177675
2025/04/05 15:59:16.139487505,1743861556,139225409,,214.5674295772108,0.3326085244509513,0.0,0.0,0.0,-0.5928548602425799
2025/04/05 15:59:16.237437433,1743861556,237161382,,214.69425788210907,0.7576999443899787,0.0,0.0,0.0,-0.611226043082509
2025/04/05 15:59:16.337151436,1743861556,336857525,,214.707206601172,0.7937914653366723,0.0,0.0,0.0,-0.6275043074642609
2025/04/05 15:59:16.436020580,1743861556,435750655,,214.73499373738935,1.1080537232199528,0.0,0.0,0.0,-0.6263402631417234
2025/04/05 15:59:16.537849181,1743861556,537671066,,214.76975160243575,1.0612658935088612,0.0,0.0,0.0,-0.6249375896860313
2025/04/05 15:59:16.669288837,1743861556,668997031,,214.8155050949162,2.2810153432085802,0.0,0.0,0.0,-0.6242655387214048
2025/04/05 15:59:16.741380006,1743861556,741132369,,214.8805659625106,2.243664292148579,0.0,0.0,0.0,-0.6108643664603935
2025/04/05 15:59:16.838798013,1743861556,838529612,,214.920234246196,2.060574074508796,0.0,0.0,0.0,-0.6101989833178013
2025/04/05 15:59:16.937313509,1743861556,936651789,,214.9619614202369,1.598741320778747,0.0,0.0,0.0,-0.6125662337573764
2025/04/05 15:59:17.37057172,1743861557,36781657,,215.01974804153548,2.8638804982676835,0.0,0.0,0.0,-0.6171844635527634
2025/04/05 15:59:17.139620700,1743861557,139377868,,215.92357784178006,2.113783000832372,0.0,0.0,0.0,-0.6215129673574226
2025/04/05 15:59:17.239867790,1743861557,239621903,,215.97039884863995,0.2045915283147052,0.0,0.0,0.0,-0.6196269791572007
2025/04/05 15:59:17.338255205,1743861557,337994555,,216.113972703476,1.8749154651578823,0.0,0.0,0.0,-0.6493393269718828
2025/04/05 15:59:17.435228799,1743861557,434960148,,215.21642707166603,0.4423671563999874,0.0,0.0,0.0,-0.6574040012511638
2025/04/05 15:59:17.535494939,1743861557,535323021,,215.2626995941729,0.49429727858802636,0.0,0.0,0.0,-0.6448585074539631
2025/04/05 15:59:17.640002854,1743861557,639752062,,215.2798869014921,0.8409731471734498,0.0,0.0,0.0,-0.6425777878357959
2025/04/05 15:59:17.736305012,1743861557,736018493,,215.30630216015282,0.8226910500276552,0.0,0.0,0.0,-0.6492942528811965
2025/04/05 15:59:17.867224665,1743861557,866971860,,216.2264505922605,1.1042097150994532,0.0,0.0,0.0,-0.6444061150264551
2025/04/05 15:59:17.935901537,1743861557,935643994,,215.5293503595613,2.075207566198873,0.0,0.0,0.0,-0.666781688456588
2025/04/05 15:59:18.35150534,1743861558,34902347,,215.51512112605158,1.934278236561278,0.0,0.0,0.0,-0.6475554959477572
2025/04/05 15:59:18.137697282,1743861558,137444625,,215.5242108062618,-0.2032829814704724,0.0,0.0,0.0,-0.6705961051870246
2025/04/05 15:59:18.236720432,1743861558,236532599,,216.43520852475189,0.3076094142332229,0.0,0.0,0.0,-0.6597835246092283
2025/04/05 15:59:18.335406328,1743861558,335137827,,216.47873521809936,2.0113757281168727,0.0,0.0,0.0,-0.6587533021701649
2025/04/05 15:59:18.435376346,1743861558,435107129,,216.50116984075254,0.23268936935441564,0.0,0.0,0.0,-0.6613046980441255
2025/04/05 15:59:18.534751108,1743861558,534342440,,216.55621062606423,1.3363810358613677,0.0,0.0,0.0,-1.1813062072835543
2025/04/05 15:59:18.642030263,1743861558,640687207,,216.63135374408225,0.999325497759426,0.0,0.0,0.0,-1.523015665730726
2025/04/05 15:59:18.738414614,1743861558,738073544,,216.7060228575411,0.8320476637295083,0.0,0.0,0.0,-1.5005365753876025
2025/04/05 15:59:18.842448460,1743861558,842191559,,216.75263092361945,0.7179930828895463,0.0,0.0,0.0,-1.49477772908005
2025/04/05 15:59:18.935558760,1743861558,934616599,,215.91368271546852,0.31626683234200426,0.0,0.0,0.0,-1.4198372094379246
2025/04/05 15:59:19.63649245,1743861559,63338742,,216.86785352742825,-0.873295661571117,0.0,0.0,0.0,-1.2575581127465052
2025/04/05 15:59:19.146815651,1743861559,145831104,,216.95942153645422,-0.5413832396013953,0.0,0.0,0.0,-1.2045161936534066
2025/04/05 15:59:19.244473649,1743861559,243629199,,217.0792956933368,-1.7607855287286072,0.0,0.0,0.0,-1.4703000364869856
2025/04/05 15:59:19.341065736,1743861559,340706762,,217.2569412953625,0.5470763319956807,0.0,0.0,0.0,-1.3946163757296448
2025/04/05 15:59:19.440551550,1743861559,440260182,,217.31929960265902,-0.8211002868251098,0.0,0.0,0.0,-1.3957346695217583
2025/04/05 15:59:19.538744998,1743861559,538308294,,217.40451414958784,-0.23261889219601173,0.0,0.0,0.0,-1.3265633510312915
2025/04/05 15:59:19.637293895,1743861559,637000223,,217.48747783374665,0.21285999720461932,0.0,0.0,0.0,-1.2789286191202156
2025/04/05 15:59:19.737274762,1743861559,737010508,,217.53243827835635,0.5192095372776295,0.0,0.0,0.0,-1.2230917435895308
2025/04/05 15:59:19.836787586,1743861559,836533678,,216.7558488686663,1.0849196146436562,0.0,0.0,0.0,-1.0650288203456075
2025/04/05 15:59:19.936454400,1743861559,936208724,,216.78047960585474,2.6171231071671808,0.0,0.0,0.0,-1.0522390408953342
2025/04/05 15:59:20.35430632,1743861560,35070772,,216.80048918077756,0.6859824800600095,0.0,0.0,0.0,-1.0343420507994823
2025/04/05 15:59:20.138432969,1743861560,135880628,,216.8190189558913,2.2476510411844783,0.0,0.0,0.0,-1.0211137040923735
2025/04/05 15:59:20.262119085,1743861560,261450287,,217.70653029765495,0.28709424610645884,0.0,0.0,0.0,-1.0313320594362607
2025/04/05 15:59:20.334426703,1743861560,334154839,,216.90203049909522,2.1853104801083734,0.0,0.0,0.0,-1.006273831374853
2025/04/05 15:59:20.435969081,1743861560,435512810,,217.07891441321914,0.287257719526293,0.0,0.0,0.0,-1.0372497683459923
2025/04/05 15:59:20.538388333,1743861560,538130007,,217.1510095402698,1.430372764565816,0.0,0.0,0.0,-1.027432741920694
2025/04/05 15:59:20.637074233,1743861560,636201095,,217.19932235057945,-0.31827605409533977,0.0,0.0,0.0,-1.0273454817601109
2025/04/05 15:59:20.738941040,1743861560,737144201,,217.29459634772206,1.4584375273812438,0.0,0.0,0.0,-1.0277335121085707
2025/04/05 15:59:20.837937033,1743861560,836716010,,217.36049661026172,-0.26701123404260857,0.0,0.0,0.0,-1.022427069282186
2025/04/05 15:59:20.942735440,1743861560,942520570,,218.3057484832425,1.5585011258744215,0.0,0.0,0.0,-1.0258988067395398
2025/04/05 15:59:21.35989916,1743861561,35714734,,217.53617477858458,-0.45042235158243216,0.0,0.0,0.0,-0.9953734772090757
2025/04/05 15:59:21.135916642,1743861561,135629085,,217.59632535114088,1.3967926820346226,0.0,0.0,0.0,-1.003561360280835
2025/04/05 15:59:21.234964421,1743861561,234705881,,217.6267514401015,-0.27339902896438184,0.0,0.0,0.0,-0.9947415869050968
2025/04/05 15:59:21.335505062,1743861561,335212281,,218.53469894852,1.5907982049773228,0.0,0.0,0.0,-0.9919793424633829
2025/04/05 15:59:21.466647785,1743861561,465737025,,218.57354363714467,1.2642709140247108,0.0,0.0,0.0,-0.9986045077579562
2025/04/05 15:59:21.536633521,1743861561,536346924,,217.78376218254715,1.0325947789166543,0.0,0.0,0.0,-0.8944440016289089
2025/04/05 15:59:21.636568659,1743861561,636390830,,218.62643466081425,-0.2247626665198379,0.0,0.0,0.0,-0.939474317621973
2025/04/05 15:59:21.735833710,1743861561,735516533,,218.62364375065408,1.5502632337645028,0.0,0.0,0.0,-0.9490192484095035
2025/04/05 15:59:21.843924990,1743861561,843687822,,218.62021221595685,-0.17715195964513708,0.0,0.0,0.0,-0.9162298878295252
2025/04/05 15:59:21.940857083,1743861561,940593095,,218.65413034245785,-1.3358590408932551,0.0,0.0,0.0,-0.9422440997769862
2025/04/05 15:59:22.36270573,1743861562,36003419,,217.9988951862419,-1.6647856495315836,0.0,0.0,0.0,-0.9051429351103422
2025/04/05 15:59:22.137437378,1743861562,137182682,,218.07618801326367,0.6595281454728233,0.0,0.0,0.0,-0.9503581199648344
2025/04/05 15:59:22.237202694,1743861562,236958577,,218.15776727649137,0.9277743660772095,0.0,0.0,0.0,-0.9257408462037527
2025/04/05 15:59:22.334828145,1743861562,334532330,,218.24465222352865,1.1013258156311658,0.0,0.0,0.0,-0.8947163808647998
2025/04/05 15:59:22.438491164,1743861562,438238689,,218.28735556473944,1.2135631785125252,0.0,0.0,0.0,-0.8726377886879184
2025/04/05 15:59:22.539587760,1743861562,538480399,,219.1742260074584,1.2246108590933842,0.0,0.0,0.0,-0.8909724475872758
2025/04/05 15:59:22.663942746,1743861562,663325592,,219.2815331847857,1.314685302971763,0.0,0.0,0.0,-0.7505531762880011
2025/04/05 15:59:22.736095658,1743861562,735903776,,218.40212060399858,0.3424774760539001,0.0,0.0,0.0,-0.8183696333854846
2025/04/05 15:59:22.840536602,1743861562,840307939,,219.27927807602987,1.4412170568831901,0.0,0.0,0.0,-0.851338927944355
2025/04/05 15:59:22.936865534,1743861562,936572446,,219.27846770307144,0.36726696142846527,0.0,0.0,0.0,-0.855399205269202
2025/04/05 15:59:23.34370968,1743861563,34122224,,219.30662410755104,2.09464874750582,0.0,0.0,0.0,-0.8555470555491571
2025/04/05 15:59:23.138226153,1743861563,137963708,,219.43346527763845,0.31274283072369896,0.0,0.0,0.0,-0.8572428497042811
2025/04/05 15:59:23.237575304,1743861563,237325676,,219.4255028030091,2.0285187494809085,0.0,0.0,0.0,-0.8584967679724957
2025/04/05 15:59:23.337876571,1743861563,337613177,,219.4655842176993,0.23754349892934623,0.0,0.0,0.0,-0.8160259222871243
2025/04/05 15:59:23.437586915,1743861563,437338150,,217.98219585679817,1.9661393458016299,0.0,0.0,0.0,-0.7856248191414649
2025/04/05 15:59:23.536799262,1743861563,536534041,,214.74391582627595,0.5323134843763065,0.0,0.0,0.0,-0.8176005535884142
2025/04/05 15:59:23.637182957,1743861563,636934403,,211.72699200130347,0.5491571433203549,0.0,0.0,0.0,-0.8313643049920868
2025/04/05 15:59:23.738474360,1743861563,738165151,,209.23110851441407,0.8813985564468612,0.0,0.0,0.0,-0.8391328696862622
2025/04/05 15:59:23.869983028,1743861563,869129952,,205.45768080716084,2.615666856582372,0.0,0.0,0.0,-0.7443821267206939
2025/04/05 15:59:23.936284460,1743861563,934896993,,201.53898559680934,0.558577238911126,0.0,0.0,0.0,-0.7701072770747609
2025/04/05 15:59:24.35608035,1743861564,35366990,,197.46629972638294,2.2826302986516156,0.0,0.0,0.0,-0.8083986037094502
2025/04/05 15:59:24.135391040,1743861564,135143002,,193.47726628591613,0.7352630997574977,0.0,0.0,0.0,-0.8248135144870337
2025/04/05 15:59:24.238914573,1743861564,238652701,,189.30393785218203,1.369890701122303,0.0,0.0,0.0,-0.8418804583341165
2025/04/05 15:59:24.338659043,1743861564,338431361,,184.21921509591368,0.44342903781806214,0.0,0.0,0.0,-0.8523273578116377
2025/04/05 15:59:24.435519957,1743861564,434619782,,180.02650277299307,-0.7521544179464431,0.0,0.0,0.0,-0.855641047739952
2025/04/05 15:59:24.535504440,1743861564,535208883,,175.8189352330034,1.1747668399517357,0.0,0.0,0.0,-0.855494562766223
2025/04/05 15:59:24.638003143,1743861564,637712836,,171.62880013826387,2.5599927252562598,0.0,0.0,0.0,-0.8465042548078935
2025/04/05 15:59:24.738171277,1743861564,737879666,,168.29925710298596,0.641341729452853,0.0,0.0,0.0,-0.8296450541517187
2025/04/05 15:59:24.838393360,1743861564,838080534,,164.20169746182108,-0.7076242380891867,0.0,0.0,0.0,-0.834627914248162
2025/04/05 15:59:24.934629180,1743861564,934341593,,159.06817070584452,-0.3425334466145212,0.0,0.0,0.0,-0.8217453583533233
2025/04/05 15:59:25.60520330,1743861565,60264423,,154.89269173062848,0.10075225407293692,0.0,0.0,0.0,-0.8227676722998776
2025/04/05 15:59:25.137543300,1743861565,137272637,,151.6057309639238,1.3198004022724708,0.0,0.0,0.0,-0.824448625916718
2025/04/05 15:59:25.236531267,1743861565,236288826,,146.66999647715886,0.9886029174026111,0.0,0.0,0.0,-0.7874519353738798
2025/04/05 15:59:25.334434780,1743861565,334273021,,142.63668903325419,0.9822028493703214,0.0,0.0,0.0,-0.7643600342925916
2025/04/05 15:59:25.436635596,1743861565,436448826,,139.28735045140968,2.4040603029744614,0.0,0.0,0.0,-0.7804190433607074
2025/04/05 15:59:25.536166217,1743861565,535870547,,135.1030262130082,3.2320049803310757,0.0,0.0,0.0,-0.6081735925566892
2025/04/05 15:59:25.640507365,1743861565,638554667,,130.96813055626177,3.428196664014654,0.0,0.0,0.0,-0.6347666999771762
2025/04/05 15:59:25.739535264,1743861565,737765758,,126.87289599990154,4.17651549137539,0.0,0.0,0.0,-0.6059856798702161
2025/04/05 15:59:25.838995507,1743861565,838658315,,122.77938460726051,2.7728877667252023,0.0,0.0,0.0,-0.4871130353704339
2025/04/05 15:59:25.938997661,1743861565,938715768,,118.68882425390899,1.9332972769001042,0.0,0.0,0.0,-0.3906661960180863
2025/04/05 15:59:26.39161125,1743861566,38862087,,114.57757565260417,0.41747141939192145,0.0,0.0,0.0,-0.4113463710523684
2025/04/05 15:59:26.136976600,1743861566,136709002,,110.58113034106194,1.1107573538663291,0.0,0.0,0.0,-0.4420120891119317
2025/04/05 15:59:26.262545251,1743861566,262226136,,105.79389697924509,-1.062274020364614,0.0,0.0,0.0,-0.5126261369404076
2025/04/05 15:59:26.338570064,1743861566,337154577,,101.81747636315961,-0.65513277215832,0.0,0.0,0.0,-0.5415603263410973
2025/04/05 15:59:26.434572683,1743861566,434249818,,97.86910279391326,1.2993795702145285,0.0,0.0,0.0,-0.56840262870258
2025/04/05 15:59:26.541177980,1743861566,539912167,,95.33103456720806,1.3096349039047985,0.0,0.0,0.0,-0.5681623503177593
2025/04/05 15:59:26.637095622,1743861566,636852177,,90.04314352419897,2.615709752844295,0.0,0.0,0.0,-0.49697552502118136
2025/04/05 15:59:26.735397780,1743861566,735140137,,86.34557521422272,0.7916291363247485,0.0,0.0,0.0,-0.47223276288034444
2025/04/05 15:59:26.840243252,1743861566,839984969,,83.4000036671884,1.9728378240875257,0.0,0.0,0.0,-0.5026342721827916
2025/04/05 15:59:26.937249766,1743861566,936953111,,79.87813628939969,2.7474457281007463,0.0,0.0,0.0,-0.22352208370969906
2025/04/05 15:59:27.39911076,1743861567,39751576,,75.76622431909453,2.2504989578084724,0.0,0.0,0.0,-0.3054930789565077
2025/04/05 15:59:27.136733730,1743861567,136453436,,73.41719437745905,3.3116501294802685,0.0,0.0,0.0,-0.3491710545792282
2025/04/05 15:59:27.235687755,1743861567,235439273,,70.48878036749593,2.8473420405637833,0.0,0.0,0.0,-0.37479365549804
2025/04/05 15:59:27.335432426,1743861567,335182288,,67.77232700962261,3.309550949529562,0.0,0.0,0.0,-0.15502385176232547
2025/04/05 15:59:27.461748454,1743861567,461445902,,64.49650898360164,1.8245807869327104,0.0,0.0,0.0,-0.2829936025015788
2025/04/05 15:59:27.534451085,1743861567,534123825,,62.057286318800124,0.5446884926813638,0.0,0.0,0.0,-0.3560279892030227
2025/04/05 15:59:27.635666543,1743861567,635397655,,60.451551192879016,0.44841126392978287,0.0,0.0,0.0,-0.37148622843725126
2025/04/05 15:59:27.735861169,1743861567,735602776,,57.78770296042357,1.6084129411707593,0.0,0.0,0.0,-0.3575942644104569
2025/04/05 15:59:27.838060535,1743861567,837835801,,55.91246125121137,0.9816299778815103,0.0,0.0,0.0,-0.369328988487016
2025/04/05 15:59:27.940998525,1743861567,940735826,,54.18309023583596,2.2124504040936848,0.0,0.0,0.0,-0.3566974056449362
2025/04/05 15:59:28.39778347,1743861568,39514855,,53.16732868233457,2.3878430712835503,0.0,0.0,0.0,-0.36321669236022874
2025/04/05 15:59:28.135325755,1743861568,135067868,,51.15322146263544,2.3712700608402795,0.0,0.0,0.0,-0.30579283910071425
2025/04/05 15:59:28.240348754,1743861568,240044536,,49.85406705485407,3.236357756196376,0.0,0.0,0.0,-0.3281676535707846
2025/04/05 15:59:28.365443510,1743861568,365241067,,49.140064416763536,2.5235047920356313,0.0,0.0,0.0,-0.32672924554276134
2025/04/05 15:59:28.449638689,1743861568,449360847,,47.92562558741862,1.5461366018098888,0.0,0.0,0.0,-0.3350582106694127
2025/04/05 15:59:28.539205910,1743861568,538923696,,46.409057897871605,0.30274004392343773,0.0,0.0,0.0,-0.3167155816682473
2025/04/05 15:59:28.663998041,1743861568,663709577,,45.54426711812258,0.2783047906980794,0.0,0.0,0.0,-0.3027615962230875
2025/04/05 15:59:28.737949536,1743861568,737635638,,44.700389753056555,1.5460043459451556,0.0,0.0,0.0,-0.29512874091898866
2025/04/05 15:59:28.843157910,1743861568,842894900,,44.49798008923612,1.0533998676187553,0.0,0.0,0.0,-0.3017454452313637
2025/04/05 15:59:28.935237458,1743861568,935027093,,43.895989994778176,0.7112626534988261,0.0,0.0,0.0,-0.31143610944896905
2025/04/05 15:59:29.35364320,1743861569,35152258,,42.84995841745442,0.7228668825518866,0.0,0.0,0.0,-0.30690320191290027
2025/04/05 15:59:29.134461110,1743861569,134156759,,42.3909212343342,1.38795975577181,0.0,0.0,0.0,-0.3011085755597233
2025/04/05 15:59:29.236712068,1743861569,236438277,,42.00685888608348,2.4064511592132685,0.0,0.0,0.0,-0.30848327906771994
2025/04/05 15:59:29.339972789,1743861569,339679355,,42.17368750670788,2.036589236072929,0.0,0.0,0.0,-0.30797392051594963
2025/04/05 15:59:29.435166867,1743861569,434940451,,41.58305187566424,0.40578974270585555,0.0,0.0,0.0,-0.2978164588757514
2025/04/05 15:59:29.537974429,1743861569,537715408,,41.37907139885948,1.119849067888722,0.0,0.0,0.0,-0.29436589738326424
2025/04/05 15:59:29.638019892,1743861569,637765381,,41.3072956179821,2.9148470255540566,0.0,0.0,0.0,-0.2969427998135039
2025/04/05 15:59:29.735328827,1743861569,735071704,,41.278432596074765,0.6540260495068138,0.0,0.0,0.0,-0.312620797258335
2025/04/05 15:59:29.866605901,1743861569,866316344,,41.7363947557241,-0.6439466988386231,0.0,0.0,0.0,-0.30910289130706475
2025/04/05 15:59:29.935189972,1743861569,934957347,,41.79174119612772,-0.05397332766061112,0.0,0.0,0.0,-0.3632484822049196
2025/04/05 15:59:30.34961925,1743861570,34617921,,41.896711141770325,0.41349360592419765,0.0,0.0,0.0,-0.3358491523729286
2025/04/05 15:59:30.140387941,1743861570,140089116,,41.744352029323956,0.8823237542387684,0.0,0.0,0.0,-0.32994346452618306
2025/04/05 15:59:30.235397467,1743861570,235139770,,41.94495055905547,0.6302255368044496,0.0,0.0,0.0,-0.3170513836040575
2025/04/05 15:59:30.337591934,1743861570,336996227,,42.53401149783343,0.8120924442667902,0.0,0.0,0.0,-0.3155377849574669
2025/04/05 15:59:30.437917373,1743861570,437643575,,42.78206402006082,1.1516559649703497,0.0,0.0,0.0,-0.30916673990428345
2025/04/05 15:59:30.535797840,1743861570,535543031,,42.735303966825754,1.4637151442986656,0.0,0.0,0.0,-0.32043867812733945
