time,header_stamp_secs,header_stamp_nsecs,header_frame_id,status_status,status_service,latitude,longitude,altitude,position_covariance_0,position_covariance_1,position_covariance_2,position_covariance_3,position_covariance_4,position_covariance_5,position_covariance_6,position_covariance_7,position_covariance_8,position_covariance_type
2025/04/05 15:11:51.744851027,1743858711,505533966,mA1/gps,0,1,63.436211516790365,10.393095060347322,0.0,1.4400000000000002e-10,0.0,0.0,0.0,1.4400000000000002e-10,0.0,0.0,0.0,1.0,2
2025/04/05 15:11:51.745027605,1743858711,552681976,mA1/gps,0,1,63.4362115159533,10.393095022470074,0.0,1.4400000000000002e-10,0.0,0.0,0.0,1.4400000000000002e-10,0.0,0.0,0.0,1.0,2
2025/04/05 15:11:51.745144689,1743858711,592251684,mA1/gps,0,1,63.43621151679823,10.393094981448685,0.0,1.4400000000000002e-10,0.0,0.0,0.0,1.4400000000000002e-10,0.0,0.0,0.0,1.0,2
2025/04/05 15:11:51.745196791,1743858711,648267186,mA1/gps,0,1,63.43621151772072,10.393094937284905,0.0,1.4400000000000002e-10,0.0,0.0,0.0,1.4400000000000002e-10,0.0,0.0,0.0,1.0,2
2025/04/05 15:11:51.745248484,1743858711,698450544,mA1/gps,0,1,63.4362115183652,10.393094890520269,0.0,1.4400000000000002e-10,0.0,0.0,0.0,1.4400000000000002e-10,0.0,0.0,0.0,1.0,2
2025/04/05 15:11:51.765499193,1743858711,753528339,mA1/gps,0,1,63.436211518916515,10.393094839990416,0.0,1.4400000000000002e-10,0.0,0.0,0.0,1.4400000000000002e-10,0.0,0.0,0.0,1.0,2
2025/04/05 15:11:51.801108208,1743858711,797755657,mA1/gps,0,1,63.436211520405564,10.393094788115883,0.0,1.4400000000000002e-10,0.0,0.0,0.0,1.4400000000000002e-10,0.0,0.0,0.0,1.0,2
2025/04/05 15:11:51.854458925,1743858711,846289727,mA1/gps,0,1,63.43621152272614,10.393094734785729,0.0,1.4400000000000002e-10,0.0,0.0,0.0,1.4400000000000002e-10,0.0,0.0,0.0,1.0,2
2025/04/05 15:11:51.902732492,1743858711,897316928,mA1/gps,0,1,63.43621152358872,10.393094680121443,0.0,1.4400000000000002e-10,0.0,0.0,0.0,1.4400000000000002e-10,0.0,0.0,0.0,1.0,2
2025/04/05 15:11:51.954716671,1743858711,952125835,mA1/gps,0,1,63.43621152487806,10.393094624597632,0.0,1.4400000000000002e-10,0.0,0.0,0.0,1.4400000000000002e-10,0.0,0.0,0.0,1.0,2
2025/04/05 15:11:52.23114034,1743858712,2675196,mA1/gps,0,1,63.43621152660099,10.39309456861339,0.0,1.4400000000000002e-10,0.0,0.0,0.0,1.4400000000000002e-10,0.0,0.0,0.0,1.0,2
2025/04/05 15:11:52.51232312,1743858712,46923703,mA1/gps,0,1,63.43621152862328,10.393094511854022,0.0,1.4400000000000002e-10,0.0,0.0,0.0,1.4400000000000002e-10,0.0,0.0,0.0,1.0,2
2025/04/05 15:11:52.104454902,1743858712,100486936,mA1/gps,0,1,63.43621153062599,10.393094454013042,0.0,1.4400000000000002e-10,0.0,0.0,0.0,1.4400000000000002e-10,0.0,0.0,0.0,1.0,2
2025/04/05 15:11:52.151164918,1743858712,146790181,mA1/gps,0,1,63.43621153293583,10.393094396078713,0.0,1.4400000000000002e-10,0.0,0.0,0.0,1.4400000000000002e-10,0.0,0.0,0.0,1.0,2
2025/04/05 15:11:52.205284931,1743858712,199619330,mA1/gps,0,1,63.43621153491589,10.393094337300948,0.0,1.4400000000000002e-10,0.0,0.0,0.0,1.4400000000000002e-10,0.0,0.0,0.0,1.0,2
2025/04/05 15:11:52.260158685,1743858712,254634119,mA1/gps,0,1,63.436211537536835,10.393094278167624,0.0,1.4400000000000002e-10,0.0,0.0,0.0,1.4400000000000002e-10,0.0,0.0,0.0,1.0,2
2025/04/05 15:11:52.302303544,1743858712,301151659,mA1/gps,0,1,63.43621153987697,10.393094217968649,0.0,1.4400000000000002e-10,0.0,0.0,0.0,1.4400000000000002e-10,0.0,0.0,0.0,1.0,2
2025/04/05 15:11:52.353222425,1743858712,351955072,mA1/gps,0,1,63.436211542418334,10.39309415678703,0.0,1.4400000000000002e-10,0.0,0.0,0.0,1.4400000000000002e-10,0.0,0.0,0.0,1.0,2
2025/04/05 15:11:52.400879580,1743858712,396245572,mA1/gps,0,1,63.4362115446708,10.393094094975627,0.0,1.4400000000000002e-10,0.0,0.0,0.0,1.4400000000000002e-10,0.0,0.0,0.0,1.0,2
2025/04/05 15:11:52.456790606,1743858712,450316991,mA1/gps,0,1,63.43621154694793,10.393094031687287,0.0,1.4400000000000002e-10,0.0,0.0,0.0,1.4400000000000002e-10,0.0,0.0,0.0,1.0,2
2025/04/05 15:11:52.497240373,1743858712,492812940,mA1/gps,0,1,63.436211549511846,10.393093966156181,0.0,1.4400000000000002e-10,0.0,0.0,0.0,1.4400000000000002e-10,0.0,0.0,0.0,1.0,2
2025/04/05 15:11:52.554508419,1743858712,550310666,mA1/gps,0,1,63.43621155162793,10.393093899850786,0.0,1.4400000000000002e-10,0.0,0.0,0.0,1.4400000000000002e-10,0.0,0.0,0.0,1.0,2
2025/04/05 15:11:52.595233448,1743858712,592820286,mA1/gps,0,1,63.436211553637875,10.393093831140234,0.0,1.4400000000000002e-10,0.0,0.0,0.0,1.4400000000000002e-10,0.0,0.0,0.0,1.0,2
2025/04/05 15:11:52.655946334,1743858712,650230283,mA1/gps,0,1,63.43621155592359,10.393093760600765,0.0,1.4400000000000002e-10,0.0,0.0,0.0,1.4400000000000002e-10,0.0,0.0,0.0,1.0,2
2025/04/05 15:11:52.698886794,1743858712,697087337,mA1/gps,0,1,63.436211558206026,10.393093687608907,0.0,1.4400000000000002e-10,0.0,0.0,0.0,1.4400000000000002e-10,0.0,0.0,0.0,1.0,2
2025/04/05 15:11:52.749188720,1743858712,744558597,mA1/gps,0,1,63.43621156050634,10.393093612667911,0.0,1.4400000000000002e-10,0.0,0.0,0.0,1.4400000000000002e-10,0.0,0.0,0.0,1.0,2
2025/04/05 15:11:52.802216159,1743858712,800394975,mA1/gps,0,1,63.436211562885475,10.393093535356483,0.0,1.4400000000000002e-10,0.0,0.0,0.0,1.4400000000000002e-10,0.0,0.0,0.0,1.0,2
2025/04/05 15:11:52.851576113,1743858712,846176013,mA1/gps,0,1,63.436211565150195,10.393093452385115,0.0,1.4400000000000002e-10,0.0,0.0,0.0,1.4400000000000002e-10,0.0,0.0,0.0,1.0,2
2025/04/05 15:11:52.899927912,1743858712,897716969,mA1/gps,0,1,63.43621156761917,10.393093366033586,0.0,1.4400000000000002e-10,0.0,0.0,0.0,1.4400000000000002e-10,0.0,0.0,0.0,1.0,2
2025/04/05 15:11:52.958743512,1743858712,950772819,mA1/gps,0,1,63.436211569875134,10.393093274828074,0.0,1.4400000000000002e-10,0.0,0.0,0.0,1.4400000000000002e-10,0.0,0.0,0.0,1.0,2
2025/04/05 15:11:52.998689503,1743858712,994166326,mA1/gps,0,1,63.436211572700564,10.393093179720045,0.0,1.4400000000000002e-10,0.0,0.0,0.0,1.4400000000000002e-10,0.0,0.0,0.0,1.0,2
2025/04/05 15:11:53.54589400,1743858713,49513878,mA1/gps,0,1,63.43621157501402,10.39309308087581,0.0,1.4400000000000002e-10,0.0,0.0,0.0,1.4400000000000002e-10,0.0,0.0,0.0,1.0,2
2025/04/05 15:11:53.99552952,1743858713,95937375,mA1/gps,0,1,63.436211578699215,10.393092981526397,0.0,1.4400000000000002e-10,0.0,0.0,0.0,1.4400000000000002e-10,0.0,0.0,0.0,1.0,2
2025/04/05 15:11:53.151252476,1743858713,147404606,mA1/gps,0,1,63.43621158130505,10.393092885182927,0.0,1.4400000000000002e-10,0.0,0.0,0.0,1.4400000000000002e-10,0.0,0.0,0.0,1.0,2
2025/04/05 15:11:53.203215446,1743858713,201522880,mA1/gps,0,1,63.43621158401095,10.3930927912666,0.0,1.4400000000000002e-10,0.0,0.0,0.0,1.4400000000000002e-10,0.0,0.0,0.0,1.0,2
2025/04/05 15:11:53.255232576,1743858713,251864805,mA1/gps,0,1,63.43621158976618,10.393092701836544,0.0,1.4400000000000002e-10,0.0,0.0,0.0,1.4400000000000002e-10,0.0,0.0,0.0,1.0,2
2025/04/05 15:11:53.303641988,1743858713,301193832,mA1/gps,0,1,63.43621159519308,10.393092618004314,0.0,1.4400000000000002e-10,0.0,0.0,0.0,1.4400000000000002e-10,0.0,0.0,0.0,1.0,2
2025/04/05 15:11:53.345536157,1743858713,343366716,mA1/gps,0,1,63.4362116000442,10.393092540326933,0.0,1.4400000000000002e-10,0.0,0.0,0.0,1.4400000000000002e-10,0.0,0.0,0.0,1.0,2
2025/04/05 15:11:53.401977967,1743858713,396949448,mA1/gps,0,1,63.43621160709742,10.393092469750671,0.0,1.4400000000000002e-10,0.0,0.0,0.0,1.4400000000000002e-10,0.0,0.0,0.0,1.0,2
2025/04/05 15:11:53.455725337,1743858713,451758654,mA1/gps,0,1,63.43621161530702,10.39309240616909,0.0,1.4400000000000002e-10,0.0,0.0,0.0,1.4400000000000002e-10,0.0,0.0,0.0,1.0,2
2025/04/05 15:11:53.512103161,1743858713,502488767,mA1/gps,0,1,63.436211622952925,10.393092350058643,0.0,1.4400000000000002e-10,0.0,0.0,0.0,1.4400000000000002e-10,0.0,0.0,0.0,1.0,2
2025/04/05 15:11:53.555661377,1743858713,553114517,mA1/gps,0,1,63.43621163216207,10.393092301086522,0.0,1.4400000000000002e-10,0.0,0.0,0.0,1.4400000000000002e-10,0.0,0.0,0.0,1.0,2
2025/04/05 15:11:53.598249023,1743858713,595778768,mA1/gps,0,1,63.436211643015625,10.393092256916301,0.0,1.4400000000000002e-10,0.0,0.0,0.0,1.4400000000000002e-10,0.0,0.0,0.0,1.0,2
2025/04/05 15:11:53.648514898,1743858713,641556046,mA1/gps,0,1,63.436211655219154,10.39309221869776,0.0,1.4400000000000002e-10,0.0,0.0,0.0,1.4400000000000002e-10,0.0,0.0,0.0,1.0,2
2025/04/05 15:11:53.699244911,1743858713,694618712,mA1/gps,0,1,63.436211669550175,10.393092182523477,0.0,1.4400000000000002e-10,0.0,0.0,0.0,1.4400000000000002e-10,0.0,0.0,0.0,1.0,2
2025/04/05 15:11:53.755702789,1743858713,752454681,mA1/gps,0,1,63.43621168495588,10.393092148992096,0.0,1.4400000000000002e-10,0.0,0.0,0.0,1.4400000000000002e-10,0.0,0.0,0.0,1.0,2
2025/04/05 15:11:53.803897456,1743858713,793704319,mA1/gps,0,1,63.43621170173436,10.393092114555865,0.0,1.4400000000000002e-10,0.0,0.0,0.0,1.4400000000000002e-10,0.0,0.0,0.0,1.0,2
2025/04/05 15:11:53.856578427,1743858713,848181336,mA1/gps,0,1,63.43621172089215,10.393092078017006,0.0,1.4400000000000002e-10,0.0,0.0,0.0,1.4400000000000002e-10,0.0,0.0,0.0,1.0,2
2025/04/05 15:11:53.901994756,1743858713,897698666,mA1/gps,0,1,63.43621174141909,10.393092042173858,0.0,1.4400000000000002e-10,0.0,0.0,0.0,1.4400000000000002e-10,0.0,0.0,0.0,1.0,2
2025/04/05 15:11:53.946460592,1743858713,944519716,mA1/gps,0,1,63.43621176385046,10.39309200747373,0.0,1.4400000000000002e-10,0.0,0.0,0.0,1.4400000000000002e-10,0.0,0.0,0.0,1.0,2
2025/04/05 15:11:53.993862751,1743858713,991578103,mA1/gps,0,1,63.43621178869071,10.393091973590137,0.0,1.4400000000000002e-10,0.0,0.0,0.0,1.4400000000000002e-10,0.0,0.0,0.0,1.0,2
2025/04/05 15:11:54.43671129,1743858714,42470434,mA1/gps,0,1,63.43621181526194,10.393091938924181,0.0,1.4400000000000002e-10,0.0,0.0,0.0,1.4400000000000002e-10,0.0,0.0,0.0,1.0,2
2025/04/05 15:11:54.94635058,1743858714,92383767,mA1/gps,0,1,63.436211845353874,10.39309190526507,0.0,1.4400000000000002e-10,0.0,0.0,0.0,1.4400000000000002e-10,0.0,0.0,0.0,1.0,2
2025/04/05 15:11:54.145602339,1743858714,143458338,mA1/gps,0,1,63.436211877104675,10.393091871936042,0.0,1.4400000000000002e-10,0.0,0.0,0.0,1.4400000000000002e-10,0.0,0.0,0.0,1.0,2
2025/04/05 15:11:54.195289272,1743858714,193337843,mA1/gps,0,1,63.436211910480516,10.393091839172913,0.0,1.4400000000000002e-10,0.0,0.0,0.0,1.4400000000000002e-10,0.0,0.0,0.0,1.0,2
2025/04/05 15:11:54.247633297,1743858714,246309260,mA1/gps,0,1,63.43621194559698,10.393091805896823,0.0,1.4400000000000002e-10,0.0,0.0,0.0,1.4400000000000002e-10,0.0,0.0,0.0,1.0,2
2025/04/05 15:11:54.296794244,1743858714,295923623,mA1/gps,0,1,63.43621198251042,10.393091773619656,0.0,1.4400000000000002e-10,0.0,0.0,0.0,1.4400000000000002e-10,0.0,0.0,0.0,1.0,2
2025/04/05 15:11:54.349301022,1743858714,346973622,mA1/gps,0,1,63.43621202249851,10.393091740673942,0.0,1.4400000000000002e-10,0.0,0.0,0.0,1.4400000000000002e-10,0.0,0.0,0.0,1.0,2
2025/04/05 15:11:54.399669552,1743858714,397207705,mA1/gps,0,1,63.43621206390796,10.393091708223453,0.0,1.4400000000000002e-10,0.0,0.0,0.0,1.4400000000000002e-10,0.0,0.0,0.0,1.0,2
2025/04/05 15:11:54.449822878,1743858714,448168030,mA1/gps,0,1,63.436212107703206,10.3930916745364,0.0,1.4400000000000002e-10,0.0,0.0,0.0,1.4400000000000002e-10,0.0,0.0,0.0,1.0,2
2025/04/05 15:11:54.498877890,1743858714,497949815,mA1/gps,0,1,63.43621215403346,10.393091641529908,0.0,1.4400000000000002e-10,0.0,0.0,0.0,1.4400000000000002e-10,0.0,0.0,0.0,1.0,2
2025/04/05 15:11:54.552851438,1743858714,549809065,mA1/gps,0,1,63.43621220153195,10.39309160919773,0.0,1.4400000000000002e-10,0.0,0.0,0.0,1.4400000000000002e-10,0.0,0.0,0.0,1.0,2
2025/04/05 15:11:54.599973738,1743858714,598887027,mA1/gps,0,1,63.43621224968863,10.393091578217303,0.0,1.4400000000000002e-10,0.0,0.0,0.0,1.4400000000000002e-10,0.0,0.0,0.0,1.0,2
2025/04/05 15:11:54.652319886,1743858714,650104298,mA1/gps,0,1,63.43621230000068,10.393091548376615,0.0,1.4400000000000002e-10,0.0,0.0,0.0,1.4400000000000002e-10,0.0,0.0,0.0,1.0,2
2025/04/05 15:11:54.702439340,1743858714,700015247,mA1/gps,0,1,63.43621235228578,10.393091520785662,0.0,1.4400000000000002e-10,0.0,0.0,0.0,1.4400000000000002e-10,0.0,0.0,0.0,1.0,2
2025/04/05 15:11:54.742554182,1743858714,740981577,mA1/gps,0,1,63.436212405531606,10.393091496113902,0.0,1.4400000000000002e-10,0.0,0.0,0.0,1.4400000000000002e-10,0.0,0.0,0.0,1.0,2
2025/04/05 15:11:54.792037924,1743858714,790872624,mA1/gps,0,1,63.43621245960964,10.39309147458705,0.0,1.4400000000000002e-10,0.0,0.0,0.0,1.4400000000000002e-10,0.0,0.0,0.0,1.0,2
2025/04/05 15:11:54.843373298,1743858714,842021534,mA1/gps,0,1,63.436212515525554,10.393091455496418,0.0,1.4400000000000002e-10,0.0,0.0,0.0,1.4400000000000002e-10,0.0,0.0,0.0,1.0,2
2025/04/05 15:11:54.896016718,1743858714,892458746,mA1/gps,0,1,63.43621257271169,10.393091438318223,0.0,1.4400000000000002e-10,0.0,0.0,0.0,1.4400000000000002e-10,0.0,0.0,0.0,1.0,2
2025/04/05 15:11:54.948618565,1743858714,946797585,mA1/gps,0,1,63.43621263041663,10.393091424958998,0.0,1.4400000000000002e-10,0.0,0.0,0.0,1.4400000000000002e-10,0.0,0.0,0.0,1.0,2
2025/04/05 15:11:55.3987772,1743858714,997136620,mA1/gps,0,1,63.43621268916871,10.39309141273711,0.0,1.4400000000000002e-10,0.0,0.0,0.0,1.4400000000000002e-10,0.0,0.0,0.0,1.0,2
2025/04/05 15:11:55.58860908,1743858715,52474961,mA1/gps,0,1,63.43621275262983,10.393091403740955,0.0,1.4400000000000002e-10,0.0,0.0,0.0,1.4400000000000002e-10,0.0,0.0,0.0,1.0,2
2025/04/05 15:11:55.98655573,1743858715,94911401,mA1/gps,0,1,63.43621281083641,10.393091395743959,0.0,1.4400000000000002e-10,0.0,0.0,0.0,1.4400000000000002e-10,0.0,0.0,0.0,1.0,2
2025/04/05 15:11:55.158278293,1743858715,151611190,mA1/gps,0,1,63.43621287349447,10.393091387605505,0.0,1.4400000000000002e-10,0.0,0.0,0.0,1.4400000000000002e-10,0.0,0.0,0.0,1.0,2
2025/04/05 15:11:55.198122466,1743858715,192784192,mA1/gps,0,1,63.43621293930542,10.393091379459063,0.0,1.4400000000000002e-10,0.0,0.0,0.0,1.4400000000000002e-10,0.0,0.0,0.0,1.0,2
2025/04/05 15:11:55.287823517,1743858715,253024121,mA1/gps,0,1,63.43621300225146,10.393091370820954,0.0,1.4400000000000002e-10,0.0,0.0,0.0,1.4400000000000002e-10,0.0,0.0,0.0,1.0,2
2025/04/05 15:11:55.299773523,1743858715,290458955,mA1/gps,0,1,63.43621306773384,10.393091361830917,0.0,1.4400000000000002e-10,0.0,0.0,0.0,1.4400000000000002e-10,0.0,0.0,0.0,1.0,2
2025/04/05 15:11:55.350046783,1743858715,343194874,mA1/gps,0,1,63.436213134799345,10.393091350532075,0.0,1.4400000000000002e-10,0.0,0.0,0.0,1.4400000000000002e-10,0.0,0.0,0.0,1.0,2
2025/04/05 15:11:55.440128499,1743858715,402602643,mA1/gps,0,1,63.43621320427569,10.393091336522676,0.0,1.4400000000000002e-10,0.0,0.0,0.0,1.4400000000000002e-10,0.0,0.0,0.0,1.0,2
2025/04/05 15:11:55.489670850,1743858715,452863478,mA1/gps,0,1,63.4362132736085,10.393091319196287,0.0,1.4400000000000002e-10,0.0,0.0,0.0,1.4400000000000002e-10,0.0,0.0,0.0,1.0,2
2025/04/05 15:11:55.509991811,1743858715,492060953,mA1/gps,0,1,63.436213344995636,10.39309129885749,0.0,1.4400000000000002e-10,0.0,0.0,0.0,1.4400000000000002e-10,0.0,0.0,0.0,1.0,2
2025/04/05 15:11:55.570496567,1743858715,546240572,mA1/gps,0,1,63.43621341846785,10.3930912751397,0.0,1.4400000000000002e-10,0.0,0.0,0.0,1.4400000000000002e-10,0.0,0.0,0.0,1.0,2
2025/04/05 15:11:55.603640894,1743858715,597709096,mA1/gps,0,1,63.436213492597325,10.393091247914741,0.0,1.4400000000000002e-10,0.0,0.0,0.0,1.4400000000000002e-10,0.0,0.0,0.0,1.0,2
2025/04/05 15:11:55.655328795,1743858715,646745344,mA1/gps,0,1,63.436213567916965,10.393091217956442,0.0,1.4400000000000002e-10,0.0,0.0,0.0,1.4400000000000002e-10,0.0,0.0,0.0,1.0,2
2025/04/05 15:11:55.705249010,1743858715,697179062,mA1/gps,0,1,63.43621364594624,10.393091185020445,0.0,1.4400000000000002e-10,0.0,0.0,0.0,1.4400000000000002e-10,0.0,0.0,0.0,1.0,2
2025/04/05 15:11:55.772890831,1743858715,753458143,mA1/gps,0,1,63.43621372570319,10.393091148860822,0.0,1.4400000000000002e-10,0.0,0.0,0.0,1.4400000000000002e-10,0.0,0.0,0.0,1.0,2
2025/04/05 15:11:55.801239784,1743858715,791918745,mA1/gps,0,1,63.43621380661451,10.393091111309394,0.0,1.4400000000000002e-10,0.0,0.0,0.0,1.4400000000000002e-10,0.0,0.0,0.0,1.0,2
2025/04/05 15:11:55.883075310,1743858715,849446939,mA1/gps,0,1,63.436213889278584,10.393091073360118,0.0,1.4400000000000002e-10,0.0,0.0,0.0,1.4400000000000002e-10,0.0,0.0,0.0,1.0,2
2025/04/05 15:11:55.898106562,1743858715,890521066,mA1/gps,0,1,63.43621397369133,10.393091034643787,0.0,1.4400000000000002e-10,0.0,0.0,0.0,1.4400000000000002e-10,0.0,0.0,0.0,1.0,2
2025/04/05 15:11:55.952003577,1743858715,946597255,mA1/gps,0,1,63.43621406045759,10.393090995415067,0.0,1.4400000000000002e-10,0.0,0.0,0.0,1.4400000000000002e-10,0.0,0.0,0.0,1.0,2
2025/04/05 15:11:56.3819736,1743858715,996391363,mA1/gps,0,1,63.4362141483558,10.393090957108736,0.0,1.4400000000000002e-10,0.0,0.0,0.0,1.4400000000000002e-10,0.0,0.0,0.0,1.0,2
2025/04/05 15:11:56.97361108,1743858716,52907393,mA1/gps,0,1,63.43621423647419,10.393090920993956,0.0,1.4400000000000002e-10,0.0,0.0,0.0,1.4400000000000002e-10,0.0,0.0,0.0,1.0,2
2025/04/05 15:11:56.102243736,1743858716,96011834,mA1/gps,0,1,63.43621432822553,10.393090885793768,0.0,1.4400000000000002e-10,0.0,0.0,0.0,1.4400000000000002e-10,0.0,0.0,0.0,1.0,2
2025/04/05 15:11:56.170011798,1743858716,150452866,mA1/gps,0,1,63.43621441922739,10.39309085287876,0.0,1.4400000000000002e-10,0.0,0.0,0.0,1.4400000000000002e-10,0.0,0.0,0.0,1.0,2
2025/04/05 15:11:56.211674306,1743858716,195246104,mA1/gps,0,1,63.43621451222503,10.393090822161705,0.0,1.4400000000000002e-10,0.0,0.0,0.0,1.4400000000000002e-10,0.0,0.0,0.0,1.0,2
2025/04/05 15:11:56.252081955,1743858716,249261405,mA1/gps,0,1,63.43621460671029,10.393090793141749,0.0,1.4400000000000002e-10,0.0,0.0,0.0,1.4400000000000002e-10,0.0,0.0,0.0,1.0,2
2025/04/05 15:11:56.309603273,1743858716,296468257,mA1/gps,0,1,63.43621470267996,10.39309076588693,0.0,1.4400000000000002e-10,0.0,0.0,0.0,1.4400000000000002e-10,0.0,0.0,0.0,1.0,2
2025/04/05 15:11:56.414990915,1743858716,351543256,mA1/gps,0,1,63.436214797722926,10.39309074083466,0.0,1.4400000000000002e-10,0.0,0.0,0.0,1.4400000000000002e-10,0.0,0.0,0.0,1.0,2
2025/04/05 15:11:56.446926514,1743858716,392254469,mA1/gps,0,1,63.436214894244095,10.393090716025982,0.0,1.4400000000000002e-10,0.0,0.0,0.0,1.4400000000000002e-10,0.0,0.0,0.0,1.0,2
2025/04/05 15:11:56.480661707,1743858716,442946763,mA1/gps,0,1,63.43621499319581,10.393090691762538,0.0,1.4400000000000002e-10,0.0,0.0,0.0,1.4400000000000002e-10,0.0,0.0,0.0,1.0,2
2025/04/05 15:11:56.506327368,1743858716,493482452,mA1/gps,0,1,63.43621509087755,10.393090668961124,0.0,1.4400000000000002e-10,0.0,0.0,0.0,1.4400000000000002e-10,0.0,0.0,0.0,1.0,2
2025/04/05 15:11:56.564363782,1743858716,547184832,mA1/gps,0,1,63.436215189775304,10.39309064420202,0.0,1.4400000000000002e-10,0.0,0.0,0.0,1.4400000000000002e-10,0.0,0.0,0.0,1.0,2
2025/04/05 15:11:56.638856851,1743858716,598372148,mA1/gps,0,1,63.43621528884638,10.393090619713167,0.0,1.4400000000000002e-10,0.0,0.0,0.0,1.4400000000000002e-10,0.0,0.0,0.0,1.0,2
2025/04/05 15:11:56.725651870,1743858716,658427272,mA1/gps,0,1,63.436215389656034,10.393090592988257,0.0,1.4400000000000002e-10,0.0,0.0,0.0,1.4400000000000002e-10,0.0,0.0,0.0,1.0,2
2025/04/05 15:11:56.759823073,1743858716,693979146,mA1/gps,0,1,63.436215490551795,10.393090565016994,0.0,1.4400000000000002e-10,0.0,0.0,0.0,1.4400000000000002e-10,0.0,0.0,0.0,1.0,2
2025/04/05 15:11:56.830606493,1743858716,751732810,mA1/gps,0,1,63.43621559156495,10.393090534208214,0.0,1.4400000000000002e-10,0.0,0.0,0.0,1.4400000000000002e-10,0.0,0.0,0.0,1.0,2
2025/04/05 15:11:56.876757061,1743858716,791827998,mA1/gps,0,1,63.43621569426212,10.393090501676582,0.0,1.4400000000000002e-10,0.0,0.0,0.0,1.4400000000000002e-10,0.0,0.0,0.0,1.0,2
2025/04/05 15:11:56.936216365,1743858716,851748480,mA1/gps,0,1,63.43621579729455,10.393090466009836,0.0,1.4400000000000002e-10,0.0,0.0,0.0,1.4400000000000002e-10,0.0,0.0,0.0,1.0,2
2025/04/05 15:11:56.963802457,1743858716,893351541,mA1/gps,0,1,63.43621589961244,10.3930904277555,0.0,1.4400000000000002e-10,0.0,0.0,0.0,1.4400000000000002e-10,0.0,0.0,0.0,1.0,2
2025/04/05 15:11:57.2193990,1743858716,949897169,mA1/gps,0,1,63.43621600397214,10.393090387956391,0.0,1.4400000000000002e-10,0.0,0.0,0.0,1.4400000000000002e-10,0.0,0.0,0.0,1.0,2
2025/04/05 15:11:57.47790053,1743858716,992775068,mA1/gps,0,1,63.43621611022755,10.393090345379798,0.0,1.4400000000000002e-10,0.0,0.0,0.0,1.4400000000000002e-10,0.0,0.0,0.0,1.0,2
2025/04/05 15:11:57.209751752,1743858717,52828399,mA1/gps,0,1,63.43621621752122,10.393090300952501,0.0,1.4400000000000002e-10,0.0,0.0,0.0,1.4400000000000002e-10,0.0,0.0,0.0,1.0,2
2025/04/05 15:11:57.280177278,1743858717,91718473,mA1/gps,0,1,63.43621632552959,10.393090255128289,0.0,1.4400000000000002e-10,0.0,0.0,0.0,1.4400000000000002e-10,0.0,0.0,0.0,1.0,2
2025/04/05 15:11:57.324585175,1743858717,150097083,mA1/gps,0,1,63.436216434452696,10.393090209505157,0.0,1.4400000000000002e-10,0.0,0.0,0.0,1.4400000000000002e-10,0.0,0.0,0.0,1.0,2
2025/04/05 15:11:57.350692948,1743858717,199112778,mA1/gps,0,1,63.436216544860045,10.393090161633259,0.0,1.4400000000000002e-10,0.0,0.0,0.0,1.4400000000000002e-10,0.0,0.0,0.0,1.0,2
2025/04/05 15:11:57.387273091,1743858717,247781214,mA1/gps,0,1,63.436216658600365,10.393090115062318,0.0,1.4400000000000002e-10,0.0,0.0,0.0,1.4400000000000002e-10,0.0,0.0,0.0,1.0,2
2025/04/05 15:11:57.413140290,1743858717,293883392,mA1/gps,0,1,63.43621677201572,10.39309006795508,0.0,1.4400000000000002e-10,0.0,0.0,0.0,1.4400000000000002e-10,0.0,0.0,0.0,1.0,2
2025/04/05 15:11:57.482587550,1743858717,351135368,mA1/gps,0,1,63.43621688749758,10.393090021882097,0.0,1.4400000000000002e-10,0.0,0.0,0.0,1.4400000000000002e-10,0.0,0.0,0.0,1.0,2
2025/04/05 15:11:57.610156193,1743858717,399722138,mA1/gps,0,1,63.43621700384757,10.393089976608472,0.0,1.4400000000000002e-10,0.0,0.0,0.0,1.4400000000000002e-10,0.0,0.0,0.0,1.0,2
2025/04/05 15:11:57.687764073,1743858717,442867140,mA1/gps,0,1,63.43621712114095,10.393089933065932,0.0,1.4400000000000002e-10,0.0,0.0,0.0,1.4400000000000002e-10,0.0,0.0,0.0,1.0,2
2025/04/05 15:11:57.741999901,1743858717,495853500,mA1/gps,0,1,63.436217240825066,10.393089890698093,0.0,1.4400000000000002e-10,0.0,0.0,0.0,1.4400000000000002e-10,0.0,0.0,0.0,1.0,2
2025/04/05 15:11:57.785193874,1743858717,548468264,mA1/gps,0,1,63.4362173596805,10.393089850632025,0.0,1.4400000000000002e-10,0.0,0.0,0.0,1.4400000000000002e-10,0.0,0.0,0.0,1.0,2
2025/04/05 15:11:57.823665758,1743858717,600522437,mA1/gps,0,1,63.43621748071916,10.393089810522106,0.0,1.4400000000000002e-10,0.0,0.0,0.0,1.4400000000000002e-10,0.0,0.0,0.0,1.0,2
2025/04/05 15:11:57.863914281,1743858717,693450072,mA1/gps,0,1,63.436217727398144,10.393089733340156,0.0,1.4400000000000002e-10,0.0,0.0,0.0,1.4400000000000002e-10,0.0,0.0,0.0,1.0,2
2025/04/05 15:11:57.906674512,1743858717,741840847,mA1/gps,0,1,63.43621785060459,10.393089695069257,0.0,1.4400000000000002e-10,0.0,0.0,0.0,1.4400000000000002e-10,0.0,0.0,0.0,1.0,2
2025/04/05 15:11:58.20680071,1743858717,798570730,mA1/gps,0,1,63.43621797492951,10.393089657254917,0.0,1.4400000000000002e-10,0.0,0.0,0.0,1.4400000000000002e-10,0.0,0.0,0.0,1.0,2
2025/04/05 15:11:58.100619650,1743858717,843814393,mA1/gps,0,1,63.436218100253384,10.393089618437292,0.0,1.4400000000000002e-10,0.0,0.0,0.0,1.4400000000000002e-10,0.0,0.0,0.0,1.0,2
2025/04/05 15:11:58.133647287,1743858717,896760447,mA1/gps,0,1,63.43621822526389,10.393089579392496,0.0,1.4400000000000002e-10,0.0,0.0,0.0,1.4400000000000002e-10,0.0,0.0,0.0,1.0,2
2025/04/05 15:11:58.189353309,1743858717,951874761,mA1/gps,0,1,63.4362183512823,10.393089538644906,0.0,1.4400000000000002e-10,0.0,0.0,0.0,1.4400000000000002e-10,0.0,0.0,0.0,1.0,2
2025/04/05 15:11:58.197661919,1743858717,992546678,mA1/gps,0,1,63.436218478336066,10.393089496282556,0.0,1.4400000000000002e-10,0.0,0.0,0.0,1.4400000000000002e-10,0.0,0.0,0.0,1.0,2
2025/04/05 15:11:58.263600511,1743858718,97374067,mA1/gps,0,1,63.43621873254545,10.393089406628333,0.0,1.4400000000000002e-10,0.0,0.0,0.0,1.4400000000000002e-10,0.0,0.0,0.0,1.0,2
2025/04/05 15:11:58.455403064,1743858718,151666733,mA1/gps,0,1,63.43621885949763,10.393089359894024,0.0,1.4400000000000002e-10,0.0,0.0,0.0,1.4400000000000002e-10,0.0,0.0,0.0,1.0,2
2025/04/05 15:11:58.478675557,1743858718,192966713,mA1/gps,0,1,63.43621898698868,10.393089309620445,0.0,1.4400000000000002e-10,0.0,0.0,0.0,1.4400000000000002e-10,0.0,0.0,0.0,1.0,2
2025/04/05 15:11:58.524881613,1743858718,247822757,mA1/gps,0,1,63.43621911447865,10.393089258315513,0.0,1.4400000000000002e-10,0.0,0.0,0.0,1.4400000000000002e-10,0.0,0.0,0.0,1.0,2
2025/04/05 15:11:58.569460440,1743858718,341514285,mA1/gps,0,1,63.43621937205339,10.393089150996163,0.0,1.4400000000000002e-10,0.0,0.0,0.0,1.4400000000000002e-10,0.0,0.0,0.0,1.0,2
2025/04/05 15:11:58.585078434,1743858718,453692717,mA1/gps,0,1,63.43621963263687,10.393089039854566,0.0,1.4400000000000002e-10,0.0,0.0,0.0,1.4400000000000002e-10,0.0,0.0,0.0,1.0,2
2025/04/05 15:11:58.633924929,1743858718,495791554,mA1/gps,0,1,63.436219764698386,10.393088983935998,0.0,1.4400000000000002e-10,0.0,0.0,0.0,1.4400000000000002e-10,0.0,0.0,0.0,1.0,2
2025/04/05 15:11:58.682621002,1743858718,552079885,mA1/gps,0,1,63.436219896830046,10.393088927586728,0.0,1.4400000000000002e-10,0.0,0.0,0.0,1.4400000000000002e-10,0.0,0.0,0.0,1.0,2
2025/04/05 15:11:58.809595988,1743858718,599397139,mA1/gps,0,1,63.43622003063768,10.393088871772125,0.0,1.4400000000000002e-10,0.0,0.0,0.0,1.4400000000000002e-10,0.0,0.0,0.0,1.0,2
2025/04/05 15:11:58.919635379,1743858718,644982702,mA1/gps,0,1,63.436220165921995,10.393088815571732,0.0,1.4400000000000002e-10,0.0,0.0,0.0,1.4400000000000002e-10,0.0,0.0,0.0,1.0,2
2025/04/05 15:11:59.14409594,1743858718,701270541,mA1/gps,0,1,63.436220302043715,10.393088760537115,0.0,1.4400000000000002e-10,0.0,0.0,0.0,1.4400000000000002e-10,0.0,0.0,0.0,1.0,2
2025/04/05 15:11:59.77365682,1743858718,754215160,mA1/gps,0,1,63.43622043929792,10.39308870680573,0.0,1.4400000000000002e-10,0.0,0.0,0.0,1.4400000000000002e-10,0.0,0.0,0.0,1.0,2
2025/04/05 15:11:59.370945761,1743858719,2297514,mA1/gps,0,1,63.43622113722111,10.39308843581375,0.0,1.4400000000000002e-10,0.0,0.0,0.0,1.4400000000000002e-10,0.0,0.0,0.0,1.0,2
2025/04/05 15:11:59.421229867,1743858719,50921037,mA1/gps,0,1,63.43622127819615,10.393088379373925,0.0,1.4400000000000002e-10,0.0,0.0,0.0,1.4400000000000002e-10,0.0,0.0,0.0,1.0,2
2025/04/05 15:11:59.478867080,1743858719,90999978,mA1/gps,0,1,63.43622141864573,10.393088321061084,0.0,1.4400000000000002e-10,0.0,0.0,0.0,1.4400000000000002e-10,0.0,0.0,0.0,1.0,2
2025/04/05 15:11:59.547408907,1743858719,291052897,mA1/gps,0,1,63.43622196359782,10.393088088643687,0.0,1.4400000000000002e-10,0.0,0.0,0.0,1.4400000000000002e-10,0.0,0.0,0.0,1.0,2
2025/04/05 15:11:59.665787304,1743858719,443961778,mA1/gps,0,1,63.43622235379567,10.393087924948277,0.0,1.4400000000000002e-10,0.0,0.0,0.0,1.4400000000000002e-10,0.0,0.0,0.0,1.0,2
2025/04/05 15:11:59.688946688,1743858719,490956101,mA1/gps,0,1,63.43622247988455,10.393087877627583,0.0,1.4400000000000002e-10,0.0,0.0,0.0,1.4400000000000002e-10,0.0,0.0,0.0,1.0,2
2025/04/05 15:11:59.733429787,1743858719,549328541,mA1/gps,0,1,63.436222603339004,10.39308783469858,0.0,1.4400000000000002e-10,0.0,0.0,0.0,1.4400000000000002e-10,0.0,0.0,0.0,1.0,2
2025/04/05 15:11:59.824955109,1743858719,595190068,mA1/gps,0,1,63.4362227244708,10.393087796813345,0.0,1.4400000000000002e-10,0.0,0.0,0.0,1.4400000000000002e-10,0.0,0.0,0.0,1.0,2
2025/04/05 15:12:00.92063837,1743858719,699133024,mA1/gps,0,1,63.43622296155397,10.393087736890966,0.0,1.4400000000000002e-10,0.0,0.0,0.0,1.4400000000000002e-10,0.0,0.0,0.0,1.0,2
2025/04/05 15:12:00.129661638,1743858719,748791083,mA1/gps,0,1,63.43622307848006,10.393087715227578,0.0,1.4400000000000002e-10,0.0,0.0,0.0,1.4400000000000002e-10,0.0,0.0,0.0,1.0,2
2025/04/05 15:12:00.187784126,1743858719,952487332,mA1/gps,0,1,63.436223538259526,10.393087680988284,0.0,1.4400000000000002e-10,0.0,0.0,0.0,1.4400000000000002e-10,0.0,0.0,0.0,1.0,2
2025/04/05 15:12:00.222031057,1743858719,998779009,mA1/gps,0,1,63.43622365326724,10.393087680907806,0.0,1.4400000000000002e-10,0.0,0.0,0.0,1.4400000000000002e-10,0.0,0.0,0.0,1.0,2
2025/04/05 15:12:00.301236511,1743858720,101758138,mA1/gps,0,1,63.436223884719986,10.393087688401241,0.0,1.4400000000000002e-10,0.0,0.0,0.0,1.4400000000000002e-10,0.0,0.0,0.0,1.0,2
2025/04/05 15:12:00.458092696,1743858720,200700772,mA1/gps,0,1,63.436224120007694,10.393087694026288,0.0,1.4400000000000002e-10,0.0,0.0,0.0,1.4400000000000002e-10,0.0,0.0,0.0,1.0,2
2025/04/05 15:12:00.583204421,1743858720,297331554,mA1/gps,0,1,63.43622435535907,10.393087696036995,0.0,1.4400000000000002e-10,0.0,0.0,0.0,1.4400000000000002e-10,0.0,0.0,0.0,1.0,2
2025/04/05 15:12:00.688777029,1743858720,345927178,mA1/gps,0,1,63.43622447697297,10.39308769362039,0.0,1.4400000000000002e-10,0.0,0.0,0.0,1.4400000000000002e-10,0.0,0.0,0.0,1.0,2
2025/04/05 15:12:00.745926191,1743858720,396309042,mA1/gps,0,1,63.43622459858134,10.393087689304217,0.0,1.4400000000000002e-10,0.0,0.0,0.0,1.4400000000000002e-10,0.0,0.0,0.0,1.0,2
2025/04/05 15:12:00.830687429,1743858720,450109053,mA1/gps,0,1,63.43622472139296,10.393087684153155,0.0,1.4400000000000002e-10,0.0,0.0,0.0,1.4400000000000002e-10,0.0,0.0,0.0,1.0,2
2025/04/05 15:12:00.876584546,1743858720,550534199,mA1/gps,0,1,63.43622496465716,10.393087671345963,0.0,1.4400000000000002e-10,0.0,0.0,0.0,1.4400000000000002e-10,0.0,0.0,0.0,1.0,2
2025/04/05 15:12:00.911561837,1743858720,697127011,mA1/gps,0,1,63.436225330635125,10.393087659562257,0.0,1.4400000000000002e-10,0.0,0.0,0.0,1.4400000000000002e-10,0.0,0.0,0.0,1.0,2
2025/04/05 15:12:00.984867770,1743858720,746491965,mA1/gps,0,1,63.43622545187441,10.393087660436871,0.0,1.4400000000000002e-10,0.0,0.0,0.0,1.4400000000000002e-10,0.0,0.0,0.0,1.0,2
2025/04/05 15:12:01.28092466,1743858720,797577779,mA1/gps,0,1,63.43622557169569,10.393087665605115,0.0,1.4400000000000002e-10,0.0,0.0,0.0,1.4400000000000002e-10,0.0,0.0,0.0,1.0,2
2025/04/05 15:12:01.169816072,1743858720,901739385,mA1/gps,0,1,63.4362258052027,10.393087692696191,0.0,1.4400000000000002e-10,0.0,0.0,0.0,1.4400000000000002e-10,0.0,0.0,0.0,1.0,2
2025/04/05 15:12:01.507512110,1743858721,50726309,mA1/gps,0,1,63.436226152188674,10.393087772144698,0.0,1.4400000000000002e-10,0.0,0.0,0.0,1.4400000000000002e-10,0.0,0.0,0.0,1.0,2
2025/04/05 15:12:01.534649640,1743858721,94838666,mA1/gps,0,1,63.436226264885114,10.393087811094006,0.0,1.4400000000000002e-10,0.0,0.0,0.0,1.4400000000000002e-10,0.0,0.0,0.0,1.0,2
2025/04/05 15:12:01.584761345,1743858721,201746728,mA1/gps,0,1,63.436226489012476,10.393087902614589,0.0,1.4400000000000002e-10,0.0,0.0,0.0,1.4400000000000002e-10,0.0,0.0,0.0,1.0,2
2025/04/05 15:12:01.726908361,1743858721,497919353,mA1/gps,0,1,63.4362271701499,10.393088245522335,0.0,1.4400000000000002e-10,0.0,0.0,0.0,1.4400000000000002e-10,0.0,0.0,0.0,1.0,2
2025/04/05 15:12:01.807206760,1743858721,545500028,mA1/gps,0,1,63.436227287776106,10.393088304470831,0.0,1.4400000000000002e-10,0.0,0.0,0.0,1.4400000000000002e-10,0.0,0.0,0.0,1.0,2
2025/04/05 15:12:01.922317707,1743858721,592510594,mA1/gps,0,1,63.43622740571964,10.393088362925575,0.0,1.4400000000000002e-10,0.0,0.0,0.0,1.4400000000000002e-10,0.0,0.0,0.0,1.0,2
2025/04/05 15:12:02.31086046,1743858721,646914574,mA1/gps,0,1,63.436227526925556,10.393088420011956,0.0,1.4400000000000002e-10,0.0,0.0,0.0,1.4400000000000002e-10,0.0,0.0,0.0,1.0,2
2025/04/05 15:12:02.107959310,1743858721,697934257,mA1/gps,0,1,63.43622764953768,10.393088477181909,0.0,1.4400000000000002e-10,0.0,0.0,0.0,1.4400000000000002e-10,0.0,0.0,0.0,1.0,2
2025/04/05 15:12:02.183255222,1743858721,753255620,mA1/gps,0,1,63.436227774322845,10.393088532581782,0.0,1.4400000000000002e-10,0.0,0.0,0.0,1.4400000000000002e-10,0.0,0.0,0.0,1.0,2
2025/04/05 15:12:02.277518692,1743858721,894709003,mA1/gps,0,1,63.43622815784311,10.393088696676417,0.0,1.4400000000000002e-10,0.0,0.0,0.0,1.4400000000000002e-10,0.0,0.0,0.0,1.0,2
2025/04/05 15:12:02.393863025,1743858721,948601338,mA1/gps,0,1,63.43622828931274,10.393088752810806,0.0,1.4400000000000002e-10,0.0,0.0,0.0,1.4400000000000002e-10,0.0,0.0,0.0,1.0,2
2025/04/05 15:12:02.592113454,1743858722,92733035,mA1/gps,0,1,63.43622868900948,10.39308893490308,0.0,1.4400000000000002e-10,0.0,0.0,0.0,1.4400000000000002e-10,0.0,0.0,0.0,1.0,2
2025/04/05 15:12:02.763635909,1743858722,199566092,mA1/gps,0,1,63.4362289573668,10.393089080172553,0.0,1.4400000000000002e-10,0.0,0.0,0.0,1.4400000000000002e-10,0.0,0.0,0.0,1.0,2
2025/04/05 15:12:02.903579768,1743858722,294791658,mA1/gps,0,1,63.43622922665649,10.393089247897526,0.0,1.4400000000000002e-10,0.0,0.0,0.0,1.4400000000000002e-10,0.0,0.0,0.0,1.0,2
2025/04/05 15:12:03.169544546,1743858722,644693842,mA1/gps,0,1,63.43623015581534,10.39308987521466,0.0,1.4400000000000002e-10,0.0,0.0,0.0,1.4400000000000002e-10,0.0,0.0,0.0,1.0,2
2025/04/05 15:12:03.774286329,1743858723,91028614,mA1/gps,0,1,63.43623138722469,10.393090407551622,0.0,1.4400000000000002e-10,0.0,0.0,0.0,1.4400000000000002e-10,0.0,0.0,0.0,1.0,2
2025/04/05 15:12:03.887891460,1743858723,342387677,mA1/gps,0,1,63.43623214616208,10.393090666727641,0.0,1.4400000000000002e-10,0.0,0.0,0.0,1.4400000000000002e-10,0.0,0.0,0.0,1.0,2
2025/04/05 15:12:03.963085830,1743858723,591437750,mA1/gps,0,1,63.43623294760096,10.393091029599649,0.0,1.4400000000000002e-10,0.0,0.0,0.0,1.4400000000000002e-10,0.0,0.0,0.0,1.0,2
2025/04/05 15:12:03.998824747,1743858723,648445683,mA1/gps,0,1,63.436233109917175,10.393091113057503,0.0,1.4400000000000002e-10,0.0,0.0,0.0,1.4400000000000002e-10,0.0,0.0,0.0,1.0,2
2025/04/05 15:12:04.45644175,1743858723,696760557,mA1/gps,0,1,63.436233270631156,10.393091199149165,0.0,1.4400000000000002e-10,0.0,0.0,0.0,1.4400000000000002e-10,0.0,0.0,0.0,1.0,2
2025/04/05 15:12:04.75033159,1743858723,750313813,mA1/gps,0,1,63.43623343127833,10.393091285444786,0.0,1.4400000000000002e-10,0.0,0.0,0.0,1.4400000000000002e-10,0.0,0.0,0.0,1.0,2
2025/04/05 15:12:04.125621864,1743858723,794432885,mA1/gps,0,1,63.436233591616286,10.393091371202688,0.0,1.4400000000000002e-10,0.0,0.0,0.0,1.4400000000000002e-10,0.0,0.0,0.0,1.0,2
2025/04/05 15:12:04.293896049,1743858723,850181951,mA1/gps,0,1,63.43623375300918,10.39309145576321,0.0,1.4400000000000002e-10,0.0,0.0,0.0,1.4400000000000002e-10,0.0,0.0,0.0,1.0,2
2025/04/05 15:12:04.311286419,1743858723,890941824,mA1/gps,0,1,63.436233910451456,10.393091539076247,0.0,1.4400000000000002e-10,0.0,0.0,0.0,1.4400000000000002e-10,0.0,0.0,0.0,1.0,2
2025/04/05 15:12:04.461327216,1743858723,945620683,mA1/gps,0,1,63.4362340685687,10.393091619215548,0.0,1.4400000000000002e-10,0.0,0.0,0.0,1.4400000000000002e-10,0.0,0.0,0.0,1.0,2
2025/04/05 15:12:04.591300405,1743858723,994120006,mA1/gps,0,1,63.43623422647613,10.39309169633057,0.0,1.4400000000000002e-10,0.0,0.0,0.0,1.4400000000000002e-10,0.0,0.0,0.0,1.0,2
2025/04/05 15:12:04.628199260,1743858724,52960858,mA1/gps,0,1,63.436234383383606,10.393091771166212,0.0,1.4400000000000002e-10,0.0,0.0,0.0,1.4400000000000002e-10,0.0,0.0,0.0,1.0,2
2025/04/05 15:12:04.663992676,1743858724,101023322,mA1/gps,0,1,63.436234540313514,10.393091841983319,0.0,1.4400000000000002e-10,0.0,0.0,0.0,1.4400000000000002e-10,0.0,0.0,0.0,1.0,2
2025/04/05 15:12:04.882095831,1743858724,300505934,mA1/gps,0,1,63.436235170738215,10.393092094810578,0.0,1.4400000000000002e-10,0.0,0.0,0.0,1.4400000000000002e-10,0.0,0.0,0.0,1.0,2
2025/04/05 15:12:04.947175074,1743858724,548109840,mA1/gps,0,1,63.43623598901861,10.39309239935986,0.0,1.4400000000000002e-10,0.0,0.0,0.0,1.4400000000000002e-10,0.0,0.0,0.0,1.0,2
2025/04/05 15:12:04.971156256,1743858724,592505172,mA1/gps,0,1,63.436236157915886,10.393092467025136,0.0,1.4400000000000002e-10,0.0,0.0,0.0,1.4400000000000002e-10,0.0,0.0,0.0,1.0,2
2025/04/05 15:12:05.9686106,1743858724,644688197,mA1/gps,0,1,63.43623632943658,10.393092537503172,0.0,1.4400000000000002e-10,0.0,0.0,0.0,1.4400000000000002e-10,0.0,0.0,0.0,1.0,2
2025/04/05 15:12:05.119096118,1743858724,942562087,mA1/gps,0,1,63.43623739442337,10.393093036212843,0.0,1.4400000000000002e-10,0.0,0.0,0.0,1.4400000000000002e-10,0.0,0.0,0.0,1.0,2
2025/04/05 15:12:05.147575599,1743858724,992906438,mA1/gps,0,1,63.43623757516025,10.393093128895153,0.0,1.4400000000000002e-10,0.0,0.0,0.0,1.4400000000000002e-10,0.0,0.0,0.0,1.0,2
2025/04/05 15:12:05.196933498,1743858725,48492199,mA1/gps,0,1,63.436237757181516,10.393093224896608,0.0,1.4400000000000002e-10,0.0,0.0,0.0,1.4400000000000002e-10,0.0,0.0,0.0,1.0,2
2025/04/05 15:12:05.234353564,1743858725,95430369,mA1/gps,0,1,63.43623793718516,10.393093323641219,0.0,1.4400000000000002e-10,0.0,0.0,0.0,1.4400000000000002e-10,0.0,0.0,0.0,1.0,2
2025/04/05 15:12:05.296543564,1743858725,151413244,mA1/gps,0,1,63.4362381171034,10.39309342308613,0.0,1.4400000000000002e-10,0.0,0.0,0.0,1.4400000000000002e-10,0.0,0.0,0.0,1.0,2
2025/04/05 15:12:05.336735090,1743858725,199461264,mA1/gps,0,1,63.43623829745233,10.393093521918127,0.0,1.4400000000000002e-10,0.0,0.0,0.0,1.4400000000000002e-10,0.0,0.0,0.0,1.0,2
2025/04/05 15:12:05.370672325,1743858725,244537296,mA1/gps,0,1,63.43623847657794,10.393093619450367,0.0,1.4400000000000002e-10,0.0,0.0,0.0,1.4400000000000002e-10,0.0,0.0,0.0,1.0,2
2025/04/05 15:12:05.421960447,1743858725,297512094,mA1/gps,0,1,63.436238653744,10.393093714521491,0.0,1.4400000000000002e-10,0.0,0.0,0.0,1.4400000000000002e-10,0.0,0.0,0.0,1.0,2
2025/04/05 15:12:05.464973785,1743858725,342018185,mA1/gps,0,1,63.436238829830714,10.39309380568906,0.0,1.4400000000000002e-10,0.0,0.0,0.0,1.4400000000000002e-10,0.0,0.0,0.0,1.0,2
2025/04/05 15:12:05.502567923,1743858725,394861715,mA1/gps,0,1,63.43623900635099,10.393093890674809,0.0,1.4400000000000002e-10,0.0,0.0,0.0,1.4400000000000002e-10,0.0,0.0,0.0,1.0,2
2025/04/05 15:12:05.550715063,1743858725,447624763,mA1/gps,0,1,63.436239181618085,10.393093971153078,0.0,1.4400000000000002e-10,0.0,0.0,0.0,1.4400000000000002e-10,0.0,0.0,0.0,1.0,2
2025/04/05 15:12:05.592544586,1743858725,497979032,mA1/gps,0,1,63.43623935502906,10.393094045761842,0.0,1.4400000000000002e-10,0.0,0.0,0.0,1.4400000000000002e-10,0.0,0.0,0.0,1.0,2
2025/04/05 15:12:05.641646224,1743858725,554223915,mA1/gps,0,1,63.43623952808574,10.393094114575097,0.0,1.4400000000000002e-10,0.0,0.0,0.0,1.4400000000000002e-10,0.0,0.0,0.0,1.0,2
2025/04/05 15:12:05.676675320,1743858725,595786681,mA1/gps,0,1,63.43623970147442,10.393094178699,0.0,1.4400000000000002e-10,0.0,0.0,0.0,1.4400000000000002e-10,0.0,0.0,0.0,1.0,2
2025/04/05 15:12:05.727607559,1743858725,648120448,mA1/gps,0,1,63.43623987397006,10.393094238338806,0.0,1.4400000000000002e-10,0.0,0.0,0.0,1.4400000000000002e-10,0.0,0.0,0.0,1.0,2
2025/04/05 15:12:05.771588053,1743858725,698187834,mA1/gps,0,1,63.4362400466864,10.393094295127007,0.0,1.4400000000000002e-10,0.0,0.0,0.0,1.4400000000000002e-10,0.0,0.0,0.0,1.0,2
2025/04/05 15:12:05.827682972,1743858725,745320005,mA1/gps,0,1,63.43624022044355,10.393094348282782,0.0,1.4400000000000002e-10,0.0,0.0,0.0,1.4400000000000002e-10,0.0,0.0,0.0,1.0,2
2025/04/05 15:12:05.867537605,1743858725,790965035,mA1/gps,0,1,63.43624039540072,10.393094401180559,0.0,1.4400000000000002e-10,0.0,0.0,0.0,1.4400000000000002e-10,0.0,0.0,0.0,1.0,2
2025/04/05 15:12:05.911543521,1743858725,844681558,mA1/gps,0,1,63.436240569912265,10.393094453801618,0.0,1.4400000000000002e-10,0.0,0.0,0.0,1.4400000000000002e-10,0.0,0.0,0.0,1.0,2
2025/04/05 15:12:05.949575796,1743858725,896310564,mA1/gps,0,1,63.436240748035345,10.393094508156038,0.0,1.4400000000000002e-10,0.0,0.0,0.0,1.4400000000000002e-10,0.0,0.0,0.0,1.0,2
2025/04/05 15:12:06.3021364,1743858725,949952328,mA1/gps,0,1,63.436240926706446,10.393094564621958,0.0,1.4400000000000002e-10,0.0,0.0,0.0,1.4400000000000002e-10,0.0,0.0,0.0,1.0,2
2025/04/05 15:12:06.47174664,1743858726,2717430,mA1/gps,0,1,63.436241106628216,10.393094624358135,0.0,1.4400000000000002e-10,0.0,0.0,0.0,1.4400000000000002e-10,0.0,0.0,0.0,1.0,2
2025/04/05 15:12:06.81984541,1743858726,46840213,mA1/gps,0,1,63.436241288996285,10.393094688289345,0.0,1.4400000000000002e-10,0.0,0.0,0.0,1.4400000000000002e-10,0.0,0.0,0.0,1.0,2
2025/04/05 15:12:06.123059792,1743858726,99482509,mA1/gps,0,1,63.436241473453926,10.39309475600519,0.0,1.4400000000000002e-10,0.0,0.0,0.0,1.4400000000000002e-10,0.0,0.0,0.0,1.0,2
2025/04/05 15:12:06.163747975,1743858726,150493487,mA1/gps,0,1,63.43624166065153,10.393094828551384,0.0,1.4400000000000002e-10,0.0,0.0,0.0,1.4400000000000002e-10,0.0,0.0,0.0,1.0,2
2025/04/05 15:12:06.201550011,1743858726,193441304,mA1/gps,0,1,63.43624184832525,10.3930949062855,0.0,1.4400000000000002e-10,0.0,0.0,0.0,1.4400000000000002e-10,0.0,0.0,0.0,1.0,2
2025/04/05 15:12:06.256885239,1743858726,249529504,mA1/gps,0,1,63.43624203730406,10.393094987310695,0.0,1.4400000000000002e-10,0.0,0.0,0.0,1.4400000000000002e-10,0.0,0.0,0.0,1.0,2
2025/04/05 15:12:06.308117803,1743858726,292766545,mA1/gps,0,1,63.43624222854218,10.393095071580063,0.0,1.4400000000000002e-10,0.0,0.0,0.0,1.4400000000000002e-10,0.0,0.0,0.0,1.0,2
2025/04/05 15:12:06.354428864,1743858726,347312506,mA1/gps,0,1,63.43624242007979,10.393095158886922,0.0,1.4400000000000002e-10,0.0,0.0,0.0,1.4400000000000002e-10,0.0,0.0,0.0,1.0,2
2025/04/05 15:12:06.407144621,1743858726,395537698,mA1/gps,0,1,63.436242612415235,10.3930952479683,0.0,1.4400000000000002e-10,0.0,0.0,0.0,1.4400000000000002e-10,0.0,0.0,0.0,1.0,2
2025/04/05 15:12:06.463447000,1743858726,442616128,mA1/gps,0,1,63.43624280556779,10.393095337561899,0.0,1.4400000000000002e-10,0.0,0.0,0.0,1.4400000000000002e-10,0.0,0.0,0.0,1.0,2
2025/04/05 15:12:06.506033993,1743858726,493276302,mA1/gps,0,1,63.43624299939148,10.39309542623313,0.0,1.4400000000000002e-10,0.0,0.0,0.0,1.4400000000000002e-10,0.0,0.0,0.0,1.0,2
2025/04/05 15:12:06.563811427,1743858726,548808427,mA1/gps,0,1,63.436243192652654,10.393095514313218,0.0,1.4400000000000002e-10,0.0,0.0,0.0,1.4400000000000002e-10,0.0,0.0,0.0,1.0,2
2025/04/05 15:12:06.607869578,1743858726,599967446,mA1/gps,0,1,63.43624338563549,10.393095600507944,0.0,1.4400000000000002e-10,0.0,0.0,0.0,1.4400000000000002e-10,0.0,0.0,0.0,1.0,2
2025/04/05 15:12:06.658863279,1743858726,644220705,mA1/gps,0,1,63.43624357963899,10.393095682977487,0.0,1.4400000000000002e-10,0.0,0.0,0.0,1.4400000000000002e-10,0.0,0.0,0.0,1.0,2
2025/04/05 15:12:06.707046774,1743858726,700821765,mA1/gps,0,1,63.43624377057754,10.393095762274747,0.0,1.4400000000000002e-10,0.0,0.0,0.0,1.4400000000000002e-10,0.0,0.0,0.0,1.0,2
2025/04/05 15:12:06.752547454,1743858726,747613729,mA1/gps,0,1,63.43624396239845,10.39309583950522,0.0,1.4400000000000002e-10,0.0,0.0,0.0,1.4400000000000002e-10,0.0,0.0,0.0,1.0,2
2025/04/05 15:12:06.808580347,1743858726,795528946,mA1/gps,0,1,63.43624415337212,10.393095911308642,0.0,1.4400000000000002e-10,0.0,0.0,0.0,1.4400000000000002e-10,0.0,0.0,0.0,1.0,2
2025/04/05 15:12:06.850393790,1743858726,848240912,mA1/gps,0,1,63.43624434273617,10.393095980325475,0.0,1.4400000000000002e-10,0.0,0.0,0.0,1.4400000000000002e-10,0.0,0.0,0.0,1.0,2
2025/04/05 15:12:06.897139480,1743858726,891848868,mA1/gps,0,1,63.4362445316352,10.393096045838302,0.0,1.4400000000000002e-10,0.0,0.0,0.0,1.4400000000000002e-10,0.0,0.0,0.0,1.0,2
2025/04/05 15:12:06.953360189,1743858726,948474639,mA1/gps,0,1,63.436244719716846,10.393096109599677,0.0,1.4400000000000002e-10,0.0,0.0,0.0,1.4400000000000002e-10,0.0,0.0,0.0,1.0,2
2025/04/05 15:12:07.3313750,1743858726,992004712,mA1/gps,0,1,63.43624490753278,10.393096170953534,0.0,1.4400000000000002e-10,0.0,0.0,0.0,1.4400000000000002e-10,0.0,0.0,0.0,1.0,2
2025/04/05 15:12:07.53270610,1743858727,48499301,mA1/gps,0,1,63.436245095743956,10.393096231420714,0.0,1.4400000000000002e-10,0.0,0.0,0.0,1.4400000000000002e-10,0.0,0.0,0.0,1.0,2
2025/04/05 15:12:07.115795226,1743858727,98011538,mA1/gps,0,1,63.43624528360349,10.393096291816967,0.0,1.4400000000000002e-10,0.0,0.0,0.0,1.4400000000000002e-10,0.0,0.0,0.0,1.0,2
2025/04/05 15:12:07.149535972,1743858727,143266696,mA1/gps,0,1,63.43624547176871,10.393096352442974,0.0,1.4400000000000002e-10,0.0,0.0,0.0,1.4400000000000002e-10,0.0,0.0,0.0,1.0,2
2025/04/05 15:12:07.207540468,1743858727,199943567,mA1/gps,0,1,63.43624565967271,10.393096414977903,0.0,1.4400000000000002e-10,0.0,0.0,0.0,1.4400000000000002e-10,0.0,0.0,0.0,1.0,2
2025/04/05 15:12:07.253691078,1743858727,242381756,mA1/gps,0,1,63.43624584773379,10.393096479950161,0.0,1.4400000000000002e-10,0.0,0.0,0.0,1.4400000000000002e-10,0.0,0.0,0.0,1.0,2
2025/04/05 15:12:07.303541248,1743858727,295721563,mA1/gps,0,1,63.436246037331614,10.393096547794102,0.0,1.4400000000000002e-10,0.0,0.0,0.0,1.4400000000000002e-10,0.0,0.0,0.0,1.0,2
2025/04/05 15:12:07.359720198,1743858727,350518725,mA1/gps,0,1,63.43624623004766,10.393096618610446,0.0,1.4400000000000002e-10,0.0,0.0,0.0,1.4400000000000002e-10,0.0,0.0,0.0,1.0,2
2025/04/05 15:12:07.402820823,1743858727,394672180,mA1/gps,0,1,63.43624642224459,10.39309669522018,0.0,1.4400000000000002e-10,0.0,0.0,0.0,1.4400000000000002e-10,0.0,0.0,0.0,1.0,2
2025/04/05 15:12:07.458126986,1743858727,449562620,mA1/gps,0,1,63.43624661476252,10.39309677739427,0.0,1.4400000000000002e-10,0.0,0.0,0.0,1.4400000000000002e-10,0.0,0.0,0.0,1.0,2
2025/04/05 15:12:07.499088305,1743858727,492514090,mA1/gps,0,1,63.43624680841219,10.393096867815062,0.0,1.4400000000000002e-10,0.0,0.0,0.0,1.4400000000000002e-10,0.0,0.0,0.0,1.0,2
2025/04/05 15:12:07.555136679,1743858727,547930300,mA1/gps,0,1,63.4362470050991,10.393096965153301,0.0,1.4400000000000002e-10,0.0,0.0,0.0,1.4400000000000002e-10,0.0,0.0,0.0,1.0,2
2025/04/05 15:12:07.603431003,1743858727,596919052,mA1/gps,0,1,63.43624720147506,10.3930970679983,0.0,1.4400000000000002e-10,0.0,0.0,0.0,1.4400000000000002e-10,0.0,0.0,0.0,1.0,2
2025/04/05 15:12:07.655912034,1743858727,643616259,mA1/gps,0,1,63.43624739874237,10.393097173389824,0.0,1.4400000000000002e-10,0.0,0.0,0.0,1.4400000000000002e-10,0.0,0.0,0.0,1.0,2
2025/04/05 15:12:07.705501451,1743858727,698357199,mA1/gps,0,1,63.43624759671887,10.393097278896441,0.0,1.4400000000000002e-10,0.0,0.0,0.0,1.4400000000000002e-10,0.0,0.0,0.0,1.0,2
2025/04/05 15:12:07.746789929,1743858727,743226101,mA1/gps,0,1,63.436247795566324,10.393097380878556,0.0,1.4400000000000002e-10,0.0,0.0,0.0,1.4400000000000002e-10,0.0,0.0,0.0,1.0,2
2025/04/05 15:12:07.803883344,1743858727,798541385,mA1/gps,0,1,63.436247993898064,10.393097477542286,0.0,1.4400000000000002e-10,0.0,0.0,0.0,1.4400000000000002e-10,0.0,0.0,0.0,1.0,2
2025/04/05 15:12:07.865638739,1743858727,854150322,mA1/gps,0,1,63.43624819316794,10.393097567363451,0.0,1.4400000000000002e-10,0.0,0.0,0.0,1.4400000000000002e-10,0.0,0.0,0.0,1.0,2
2025/04/05 15:12:07.901638381,1743858727,892173026,mA1/gps,0,1,63.43624839182718,10.393097649315475,0.0,1.4400000000000002e-10,0.0,0.0,0.0,1.4400000000000002e-10,0.0,0.0,0.0,1.0,2
2025/04/05 15:12:07.948567984,1743858727,945595438,mA1/gps,0,1,63.43624858930138,10.393097721329218,0.0,1.4400000000000002e-10,0.0,0.0,0.0,1.4400000000000002e-10,0.0,0.0,0.0,1.0,2
2025/04/05 15:12:08.5488294,1743858727,998175735,mA1/gps,0,1,63.43624878594398,10.393097783245594,0.0,1.4400000000000002e-10,0.0,0.0,0.0,1.4400000000000002e-10,0.0,0.0,0.0,1.0,2
2025/04/05 15:12:08.54260944,1743858728,42729918,mA1/gps,0,1,63.43624898196361,10.393097835716143,0.0,1.4400000000000002e-10,0.0,0.0,0.0,1.4400000000000002e-10,0.0,0.0,0.0,1.0,2
2025/04/05 15:12:08.102008438,1743858728,94922650,mA1/gps,0,1,63.43624917688579,10.393097878537882,0.0,1.4400000000000002e-10,0.0,0.0,0.0,1.4400000000000002e-10,0.0,0.0,0.0,1.0,2
2025/04/05 15:12:08.168621331,1743858728,148042716,mA1/gps,0,1,63.436249371136206,10.393097912734452,0.0,1.4400000000000002e-10,0.0,0.0,0.0,1.4400000000000002e-10,0.0,0.0,0.0,1.0,2
2025/04/05 15:12:08.211109197,1743858728,198390863,mA1/gps,0,1,63.43624956352531,10.393097940435025,0.0,1.4400000000000002e-10,0.0,0.0,0.0,1.4400000000000002e-10,0.0,0.0,0.0,1.0,2
2025/04/05 15:12:08.259198167,1743858728,241151615,mA1/gps,0,1,63.43624975424885,10.393097962268184,0.0,1.4400000000000002e-10,0.0,0.0,0.0,1.4400000000000002e-10,0.0,0.0,0.0,1.0,2
2025/04/05 15:12:08.302544779,1743858728,292761976,mA1/gps,0,1,63.4362499437818,10.393097981493979,0.0,1.4400000000000002e-10,0.0,0.0,0.0,1.4400000000000002e-10,0.0,0.0,0.0,1.0,2
2025/04/05 15:12:08.383914273,1743858728,347387273,mA1/gps,0,1,63.436250133073315,10.39309799954269,0.0,1.4400000000000002e-10,0.0,0.0,0.0,1.4400000000000002e-10,0.0,0.0,0.0,1.0,2
2025/04/05 15:12:08.418257658,1743858728,400563959,mA1/gps,0,1,63.4362503210929,10.39309801783709,0.0,1.4400000000000002e-10,0.0,0.0,0.0,1.4400000000000002e-10,0.0,0.0,0.0,1.0,2
2025/04/05 15:12:08.456039564,1743858728,445246055,mA1/gps,0,1,63.436250507601756,10.39309803918193,0.0,1.4400000000000002e-10,0.0,0.0,0.0,1.4400000000000002e-10,0.0,0.0,0.0,1.0,2
2025/04/05 15:12:08.531733912,1743858728,501144517,mA1/gps,0,1,63.43625069425201,10.393098064499648,0.0,1.4400000000000002e-10,0.0,0.0,0.0,1.4400000000000002e-10,0.0,0.0,0.0,1.0,2
2025/04/05 15:12:08.567095815,1743858728,550570991,mA1/gps,0,1,63.43625088077311,10.393098095383989,0.0,1.4400000000000002e-10,0.0,0.0,0.0,1.4400000000000002e-10,0.0,0.0,0.0,1.0,2
2025/04/05 15:12:08.605634438,1743858728,599183738,mA1/gps,0,1,63.43625106733946,10.39309813337765,0.0,1.4400000000000002e-10,0.0,0.0,0.0,1.4400000000000002e-10,0.0,0.0,0.0,1.0,2
2025/04/05 15:12:08.653216659,1743858728,644126039,mA1/gps,0,1,63.43625125440826,10.393098177671252,0.0,1.4400000000000002e-10,0.0,0.0,0.0,1.4400000000000002e-10,0.0,0.0,0.0,1.0,2
2025/04/05 15:12:08.701487377,1743858728,697494752,mA1/gps,0,1,63.43625144231548,10.393098228889084,0.0,1.4400000000000002e-10,0.0,0.0,0.0,1.4400000000000002e-10,0.0,0.0,0.0,1.0,2
2025/04/05 15:12:08.750708488,1743858728,746438814,mA1/gps,0,1,63.43625163102925,10.39309828599991,0.0,1.4400000000000002e-10,0.0,0.0,0.0,1.4400000000000002e-10,0.0,0.0,0.0,1.0,2
2025/04/05 15:12:08.821135615,1743858728,800296478,mA1/gps,0,1,63.43625182027038,10.393098349715665,0.0,1.4400000000000002e-10,0.0,0.0,0.0,1.4400000000000002e-10,0.0,0.0,0.0,1.0,2
2025/04/05 15:12:08.858997866,1743858728,848595446,mA1/gps,0,1,63.43625201081904,10.393098416978088,0.0,1.4400000000000002e-10,0.0,0.0,0.0,1.4400000000000002e-10,0.0,0.0,0.0,1.0,2
2025/04/05 15:12:08.899837433,1743858728,895646830,mA1/gps,0,1,63.43625220220308,10.393098486685377,0.0,1.4400000000000002e-10,0.0,0.0,0.0,1.4400000000000002e-10,0.0,0.0,0.0,1.0,2
2025/04/05 15:12:08.958755517,1743858728,943145092,mA1/gps,0,1,63.43625239755631,10.393098557898401,0.0,1.4400000000000002e-10,0.0,0.0,0.0,1.4400000000000002e-10,0.0,0.0,0.0,1.0,2
2025/04/05 15:12:09.13210584,1743858728,994489832,mA1/gps,0,1,63.43625259305604,10.39309862888283,0.0,1.4400000000000002e-10,0.0,0.0,0.0,1.4400000000000002e-10,0.0,0.0,0.0,1.0,2
2025/04/05 15:12:09.53763168,1743858729,45414937,mA1/gps,0,1,63.43625279053862,10.393098696737482,0.0,1.4400000000000002e-10,0.0,0.0,0.0,1.4400000000000002e-10,0.0,0.0,0.0,1.0,2
2025/04/05 15:12:09.105903581,1743858729,98431964,mA1/gps,0,1,63.43625298884308,10.393098760979191,0.0,1.4400000000000002e-10,0.0,0.0,0.0,1.4400000000000002e-10,0.0,0.0,0.0,1.0,2
2025/04/05 15:12:09.155232554,1743858729,143566129,mA1/gps,0,1,63.43625318847331,10.393098819453748,0.0,1.4400000000000002e-10,0.0,0.0,0.0,1.4400000000000002e-10,0.0,0.0,0.0,1.0,2
2025/04/05 15:12:09.197113213,1743858729,191904535,mA1/gps,0,1,63.43625338949357,10.393098871652736,0.0,1.4400000000000002e-10,0.0,0.0,0.0,1.4400000000000002e-10,0.0,0.0,0.0,1.0,2
2025/04/05 15:12:09.265588917,1743858729,246671992,mA1/gps,0,1,63.43625359177565,10.393098916396502,0.0,1.4400000000000002e-10,0.0,0.0,0.0,1.4400000000000002e-10,0.0,0.0,0.0,1.0,2
2025/04/05 15:12:09.317083121,1743858729,300730632,mA1/gps,0,1,63.43625379565431,10.393098953606454,0.0,1.4400000000000002e-10,0.0,0.0,0.0,1.4400000000000002e-10,0.0,0.0,0.0,1.0,2
2025/04/05 15:12:09.367268357,1743858729,347932863,mA1/gps,0,1,63.43625399859182,10.3930989831542,0.0,1.4400000000000002e-10,0.0,0.0,0.0,1.4400000000000002e-10,0.0,0.0,0.0,1.0,2
2025/04/05 15:12:09.396606554,1743858729,393508405,mA1/gps,0,1,63.436254202834235,10.393099005783075,0.0,1.4400000000000002e-10,0.0,0.0,0.0,1.4400000000000002e-10,0.0,0.0,0.0,1.0,2
2025/04/05 15:12:09.458932846,1743858729,447519236,mA1/gps,0,1,63.436254408415905,10.39309902267943,0.0,1.4400000000000002e-10,0.0,0.0,0.0,1.4400000000000002e-10,0.0,0.0,0.0,1.0,2
2025/04/05 15:12:09.503979715,1743858729,497881465,mA1/gps,0,1,63.43625461086056,10.393099033818885,0.0,1.4400000000000002e-10,0.0,0.0,0.0,1.4400000000000002e-10,0.0,0.0,0.0,1.0,2
2025/04/05 15:12:09.555610091,1743858729,548463934,mA1/gps,0,1,63.43625481409014,10.393099041438704,0.0,1.4400000000000002e-10,0.0,0.0,0.0,1.4400000000000002e-10,0.0,0.0,0.0,1.0,2
2025/04/05 15:12:09.605306455,1743858729,601148069,mA1/gps,0,1,63.43625501656463,10.393099046456758,0.0,1.4400000000000002e-10,0.0,0.0,0.0,1.4400000000000002e-10,0.0,0.0,0.0,1.0,2
2025/04/05 15:12:09.648725616,1743858729,642264149,mA1/gps,0,1,63.436255219054075,10.393099051584711,0.0,1.4400000000000002e-10,0.0,0.0,0.0,1.4400000000000002e-10,0.0,0.0,0.0,1.0,2
2025/04/05 15:12:09.701547663,1743858729,695394781,mA1/gps,0,1,63.43625541951283,10.3930990577308,0.0,1.4400000000000002e-10,0.0,0.0,0.0,1.4400000000000002e-10,0.0,0.0,0.0,1.0,2
2025/04/05 15:12:09.754917421,1743858729,748637867,mA1/gps,0,1,63.43625561973829,10.39309906555355,0.0,1.4400000000000002e-10,0.0,0.0,0.0,1.4400000000000002e-10,0.0,0.0,0.0,1.0,2
2025/04/05 15:12:09.794912851,1743858729,792573129,mA1/gps,0,1,63.43625581842346,10.393099078436268,0.0,1.4400000000000002e-10,0.0,0.0,0.0,1.4400000000000002e-10,0.0,0.0,0.0,1.0,2
2025/04/05 15:12:09.857295526,1743858729,848725865,mA1/gps,0,1,63.436256016560336,10.393099096517068,0.0,1.4400000000000002e-10,0.0,0.0,0.0,1.4400000000000002e-10,0.0,0.0,0.0,1.0,2
2025/04/05 15:12:09.897021796,1743858729,892722518,mA1/gps,0,1,63.43625621363396,10.393099122388332,0.0,1.4400000000000002e-10,0.0,0.0,0.0,1.4400000000000002e-10,0.0,0.0,0.0,1.0,2
2025/04/05 15:12:09.948802688,1743858729,947061962,mA1/gps,0,1,63.43625640958694,10.393099154941881,0.0,1.4400000000000002e-10,0.0,0.0,0.0,1.4400000000000002e-10,0.0,0.0,0.0,1.0,2
2025/04/05 15:12:10.15254740,1743858730,2887992,mA1/gps,0,1,63.43625660539229,10.39309919377181,0.0,1.4400000000000002e-10,0.0,0.0,0.0,1.4400000000000002e-10,0.0,0.0,0.0,1.0,2
2025/04/05 15:12:10.55927765,1743858730,47602077,mA1/gps,0,1,63.436256800543404,10.393099239152841,0.0,1.4400000000000002e-10,0.0,0.0,0.0,1.4400000000000002e-10,0.0,0.0,0.0,1.0,2
2025/04/05 15:12:10.102504674,1743858730,94834190,mA1/gps,0,1,63.436256997262234,10.393099292053789,0.0,1.4400000000000002e-10,0.0,0.0,0.0,1.4400000000000002e-10,0.0,0.0,0.0,1.0,2
2025/04/05 15:12:10.163481189,1743858730,151278916,mA1/gps,0,1,63.436257191985504,10.393099347431981,0.0,1.4400000000000002e-10,0.0,0.0,0.0,1.4400000000000002e-10,0.0,0.0,0.0,1.0,2
2025/04/05 15:12:10.200855344,1743858730,194185226,mA1/gps,0,1,63.436257386319554,10.393099403080791,0.0,1.4400000000000002e-10,0.0,0.0,0.0,1.4400000000000002e-10,0.0,0.0,0.0,1.0,2
2025/04/05 15:12:10.259621928,1743858730,246470435,mA1/gps,0,1,63.43625758335894,10.393099456928768,0.0,1.4400000000000002e-10,0.0,0.0,0.0,1.4400000000000002e-10,0.0,0.0,0.0,1.0,2
2025/04/05 15:12:10.297842332,1743858730,294282255,mA1/gps,0,1,63.4362577811672,10.393099506487786,0.0,1.4400000000000002e-10,0.0,0.0,0.0,1.4400000000000002e-10,0.0,0.0,0.0,1.0,2
2025/04/05 15:12:10.359939434,1743858730,350880184,mA1/gps,0,1,63.43625797787735,10.39309954770801,0.0,1.4400000000000002e-10,0.0,0.0,0.0,1.4400000000000002e-10,0.0,0.0,0.0,1.0,2
2025/04/05 15:12:10.394062946,1743858730,390655976,mA1/gps,0,1,63.43625817789478,10.393099579712104,0.0,1.4400000000000002e-10,0.0,0.0,0.0,1.4400000000000002e-10,0.0,0.0,0.0,1.0,2
2025/04/05 15:12:10.453642836,1743858730,443893032,mA1/gps,0,1,63.43625837903889,10.393099601214056,0.0,1.4400000000000002e-10,0.0,0.0,0.0,1.4400000000000002e-10,0.0,0.0,0.0,1.0,2
2025/04/05 15:12:10.506069729,1743858730,499168375,mA1/gps,0,1,63.43625858100558,10.393099610421672,0.0,1.4400000000000002e-10,0.0,0.0,0.0,1.4400000000000002e-10,0.0,0.0,0.0,1.0,2
2025/04/05 15:12:10.561766189,1743858730,552336805,mA1/gps,0,1,63.43625878511633,10.393099606593442,0.0,1.4400000000000002e-10,0.0,0.0,0.0,1.4400000000000002e-10,0.0,0.0,0.0,1.0,2
2025/04/05 15:12:10.598519736,1743858730,592693158,mA1/gps,0,1,63.43625899062411,10.393099590804313,0.0,1.4400000000000002e-10,0.0,0.0,0.0,1.4400000000000002e-10,0.0,0.0,0.0,1.0,2
2025/04/05 15:12:10.671184531,1743858730,651169293,mA1/gps,0,1,63.43625919826017,10.39309956322725,0.0,1.4400000000000002e-10,0.0,0.0,0.0,1.4400000000000002e-10,0.0,0.0,0.0,1.0,2
2025/04/05 15:12:10.702592922,1743858730,692905416,mA1/gps,0,1,63.436259406401895,10.393099524582098,0.0,1.4400000000000002e-10,0.0,0.0,0.0,1.4400000000000002e-10,0.0,0.0,0.0,1.0,2
2025/04/05 15:12:10.758545321,1743858730,748957100,mA1/gps,0,1,63.43625961622939,10.393099477900332,0.0,1.4400000000000002e-10,0.0,0.0,0.0,1.4400000000000002e-10,0.0,0.0,0.0,1.0,2
2025/04/05 15:12:10.802340005,1743858730,793869971,mA1/gps,0,1,63.43625982525469,10.393099423826717,0.0,1.4400000000000002e-10,0.0,0.0,0.0,1.4400000000000002e-10,0.0,0.0,0.0,1.0,2
2025/04/05 15:12:10.863287017,1743858730,851733179,mA1/gps,0,1,63.43626003536578,10.393099366448073,0.0,1.4400000000000002e-10,0.0,0.0,0.0,1.4400000000000002e-10,0.0,0.0,0.0,1.0,2
2025/04/05 15:12:10.905472736,1743858730,899065214,mA1/gps,0,1,63.43626024631348,10.393099306310855,0.0,1.4400000000000002e-10,0.0,0.0,0.0,1.4400000000000002e-10,0.0,0.0,0.0,1.0,2
2025/04/05 15:12:10.952671828,1743858730,947885209,mA1/gps,0,1,63.436260457556436,10.393099247933598,0.0,1.4400000000000002e-10,0.0,0.0,0.0,1.4400000000000002e-10,0.0,0.0,0.0,1.0,2
2025/04/05 15:12:11.2824155,1743858730,998159961,mA1/gps,0,1,63.43626066808665,10.393099192776303,0.0,1.4400000000000002e-10,0.0,0.0,0.0,1.4400000000000002e-10,0.0,0.0,0.0,1.0,2
2025/04/05 15:12:11.67664334,1743858731,53592004,mA1/gps,0,1,63.4362608773851,10.393099142563194,0.0,1.4400000000000002e-10,0.0,0.0,0.0,1.4400000000000002e-10,0.0,0.0,0.0,1.0,2
2025/04/05 15:12:11.110190174,1743858731,101722005,mA1/gps,0,1,63.43626108686918,10.393099099035508,0.0,1.4400000000000002e-10,0.0,0.0,0.0,1.4400000000000002e-10,0.0,0.0,0.0,1.0,2
2025/04/05 15:12:11.161951750,1743858731,148921302,mA1/gps,0,1,63.43626129498932,10.393099062276177,0.0,1.4400000000000002e-10,0.0,0.0,0.0,1.4400000000000002e-10,0.0,0.0,0.0,1.0,2
2025/04/05 15:12:11.200720989,1743858731,195979456,mA1/gps,0,1,63.43626150336452,10.393099033666628,0.0,1.4400000000000002e-10,0.0,0.0,0.0,1.4400000000000002e-10,0.0,0.0,0.0,1.0,2
2025/04/05 15:12:11.260760702,1743858731,247199941,mA1/gps,0,1,63.43626170938678,10.393099012139233,0.0,1.4400000000000002e-10,0.0,0.0,0.0,1.4400000000000002e-10,0.0,0.0,0.0,1.0,2
2025/04/05 15:12:11.319140044,1743858731,300683471,mA1/gps,0,1,63.43626191663146,10.393098998699159,0.0,1.4400000000000002e-10,0.0,0.0,0.0,1.4400000000000002e-10,0.0,0.0,0.0,1.0,2
2025/04/05 15:12:11.355916765,1743858731,347382577,mA1/gps,0,1,63.43626212276169,10.393098990484258,0.0,1.4400000000000002e-10,0.0,0.0,0.0,1.4400000000000002e-10,0.0,0.0,0.0,1.0,2
2025/04/05 15:12:11.398234219,1743858731,396323016,mA1/gps,0,1,63.436262327303695,10.393098986289909,0.0,1.4400000000000002e-10,0.0,0.0,0.0,1.4400000000000002e-10,0.0,0.0,0.0,1.0,2
2025/04/05 15:12:11.459643968,1743858731,443954799,mA1/gps,0,1,63.436262532162296,10.393098983714754,0.0,1.4400000000000002e-10,0.0,0.0,0.0,1.4400000000000002e-10,0.0,0.0,0.0,1.0,2
2025/04/05 15:12:11.498402907,1743858731,494473550,mA1/gps,0,1,63.43626273635714,10.393098979901854,0.0,1.4400000000000002e-10,0.0,0.0,0.0,1.4400000000000002e-10,0.0,0.0,0.0,1.0,2
2025/04/05 15:12:11.554943668,1743858731,548342643,mA1/gps,0,1,63.43626294107485,10.393098973977821,0.0,1.4400000000000002e-10,0.0,0.0,0.0,1.4400000000000002e-10,0.0,0.0,0.0,1.0,2
