time,header_stamp_secs,header_stamp_nsecs,header_frame_id,quaternion_x,quaternion_y,quaternion_z,quaternion_w
2025/04/05 15:11:51.744873247,1743858711,508168358,,0.0006609084085823612,6.577283317603856e-05,0.03489702551446681,0.9993906926143812
2025/04/05 15:11:51.745042003,1743858711,604182735,,0.0005260365492541107,7.521430928544537e-05,0.03378565752163122,0.9994289604440065
2025/04/05 15:11:51.745151819,1743858711,709263109,,0.00036146997302863727,7.894858761669645e-05,0.03255275614198679,0.9994699501106271
2025/04/05 15:11:51.821538375,1743858711,816460788,,0.00017979890230122685,6.982816074306631e-05,0.03121088139027797,0.9995128031592315
2025/04/05 15:11:51.917429229,1743858711,916215853,,2.408470396250189e-05,5.92257296804321e-05,0.029755157828902815,0.999557215218227
2025/04/05 15:11:52.10569283,1743858712,7842203,,-9.174296429808953e-05,4.489213136615665e-05,0.028195864622839753,0.9996024123550801
2025/04/05 15:11:52.118256451,1743858712,117663943,,-0.00017123463409861794,2.199417325011654e-05,0.026546273125939185,0.999647570685829
2025/04/05 15:11:52.216793670,1743858712,216611366,,-0.0002111045101624495,-1.9522785457555025e-06,0.0248097979307337,0.9996921672983692
2025/04/05 15:11:52.309292634,1743858712,307991706,,-0.0002160089543167887,-2.3119063901750875e-05,0.022989486223667834,0.9997356832327294
2025/04/05 15:11:52.412039337,1743858712,410934781,,-0.0001984927455099418,-3.829059288638905e-05,0.021088488204330465,0.9997775926673473
2025/04/05 15:11:52.510172868,1743858712,504614008,,-0.00017547034195785212,-4.482710531225376e-05,0.019109572935467906,0.9998173790362487
2025/04/05 15:11:52.610514011,1743858712,609971526,,-0.00016259414757291115,-4.062360213819946e-05,0.017055130114948424,0.9998545366450203
2025/04/05 15:11:52.717646382,1743858712,716661102,,-0.0001732134389778789,-2.9813133383466406e-05,0.01492779972531067,0.9998885587422444
2025/04/05 15:11:52.816065052,1743858712,815394643,,-0.00022371059919396526,-1.3942634221901984e-05,0.01273080439938721,0.9999189349034827
2025/04/05 15:11:52.914618790,1743858712,910630217,,-0.0004245365999311407,1.0503968971445233e-05,0.010522998449982649,0.9999445415431616
2025/04/05 15:11:53.14400048,1743858713,9108412,,-0.0007906382650719152,3.9638360575145915e-05,0.008341098992317397,0.9999648990777299
2025/04/05 15:11:53.113106162,1743858713,111726469,,-0.0012878967402149071,8.481345057546256e-05,0.00619134706185224,0.9999800004751219
2025/04/05 15:11:53.217590954,1743858713,217288157,,-0.0017382463727916237,0.000151225498028794,0.004004184594343576,0.9999904610225693
2025/04/05 15:11:53.316373965,1743858713,315184444,,-0.002075321409731857,0.0002093138626754302,0.0018084335973877635,0.9999961893910781
2025/04/05 15:11:53.411208381,1743858713,409866021,,-0.002232339754894441,0.0002992127274927072,-0.00038609530311114906,0.9999973890272811
2025/04/05 15:11:53.509835133,1743858713,509043197,,-0.002188914726397666,0.00035133043517768914,-0.002588930755115708,0.9999941913115251
2025/04/05 15:11:53.606933321,1743858713,604301327,,-0.001976424550187373,0.0004123002749425341,-0.004800484401843062,0.9999864394600501
2025/04/05 15:11:53.711860414,1743858713,710453335,,-0.001670839684099437,0.0004667730498554887,-0.0070574310054616765,0.999973591193924
2025/04/05 15:11:53.819116334,1743858713,813469020,,-0.0014159534273096906,0.0005292795579397184,-0.009339143750040805,0.9999552466650982
2025/04/05 15:11:53.917921958,1743858713,914491278,,-0.0012723347041101517,0.000593882364202658,-0.011612869638139258,0.9999315825229773
2025/04/05 15:11:54.3762048,1743858714,2923511,,-0.001162275504116816,0.000651022897682581,-0.013916579394276278,0.999902272276047
2025/04/05 15:11:54.109305382,1743858714,105116501,,-0.0010862775414850886,0.0006735040897318309,-0.016236037405449953,0.9998673699459908
2025/04/05 15:11:54.207812852,1743858714,206156222,,-0.0010370069141886,0.0006572599286939546,-0.01855982181460284,0.9998269978552571
2025/04/05 15:11:54.309069785,1743858714,308520774,,-0.001013765600090048,0.0006135180117711441,-0.020868507944816456,0.999781526760279
2025/04/05 15:11:54.409463807,1743858714,409012607,,-0.0010348783417782161,0.0005341912634859712,-0.023146157469735938,0.9997314134610845
2025/04/05 15:11:54.510877971,1743858714,509928745,,-0.001098762395553542,0.0004352957126056374,-0.025377177687054445,0.9996772489616238
2025/04/05 15:11:54.611677697,1743858714,611215698,,-0.0011729763723650028,0.0003214658558774916,-0.02755064608287236,0.9996196690174467
2025/04/05 15:11:54.713615034,1743858714,712650915,,-0.0012145722504795864,0.00021444236593888764,-0.02966089598637456,0.9995592579122088
2025/04/05 15:11:54.802977186,1743858714,802472905,,-0.0011910513872087527,0.000133860519930246,-0.031702209277302884,0.9994966400168098
2025/04/05 15:11:54.914813317,1743858714,907839877,,-0.001089916231809658,7.223655801027585e-05,-0.03366898580073844,0.9994324420688159
2025/04/05 15:11:55.13085113,1743858715,12626805,,-0.0009119918014599565,7.061443158284203e-05,-0.035556091692488564,0.9993672636364028
2025/04/05 15:11:55.109367911,1743858715,108879018,,-0.0006777880348610661,6.953417760100789e-05,-0.0373556830013506,0.9993018006167509
2025/04/05 15:11:55.215187266,1743858715,211871002,,-0.00042580280008510383,0.0001060491483650906,-0.03906365362954013,0.9992366278368027
2025/04/05 15:11:55.310229808,1743858715,308559696,,-0.0001940738196875507,0.00017647374323488297,-0.04067842952573434,0.9991722557015333
2025/04/05 15:11:55.439009986,1743858715,404844849,,-1.967989818358043e-05,0.0002457904787941152,-0.04221203520867499,0.999108644384225
2025/04/05 15:11:55.510004239,1743858715,507195804,,6.234917072335338e-05,0.0003100981103717453,-0.0436763586294384,0.9990456824633274
2025/04/05 15:11:55.615191665,1743858715,613700782,,4.121912792601961e-05,0.0003630504426648133,-0.04507730327842214,0.9989834349099612
2025/04/05 15:11:55.717944037,1743858715,712384456,,-6.867452440917474e-05,0.00038486048094836566,-0.04642202139113766,0.9989218403339576
2025/04/05 15:11:55.813884115,1743858715,808586814,,-0.0002399700046933222,0.0003714280047419378,-0.0477127728989165,0.9988609992175741
2025/04/05 15:11:55.917411553,1743858715,904414049,,-0.00042826425054963077,0.0003435039452402459,-0.04895291909343069,0.9988009362765953
2025/04/05 15:11:56.55884724,1743858716,14152644,,-0.0005908632468477512,0.0002779596133656405,-0.05014605926650199,0.998741681496831
2025/04/05 15:11:56.114600938,1743858716,113610420,,-0.0006877336504338046,0.00019593716965891724,-0.05129785898686033,0.9986831420898301
2025/04/05 15:11:56.218457345,1743858716,210164124,,-0.0007015335903361469,0.00012783209379998948,-0.05240927625359961,0.9986254349214981
2025/04/05 15:11:56.372347898,1743858716,311135494,,-0.0006335773747068185,4.542323716431932e-05,-0.053482716973934356,0.9985685732595062
2025/04/05 15:11:56.455714218,1743858716,403739028,,-0.0005021606603383038,8.827491395792106e-06,-0.054519754781642976,0.9985125658174243
2025/04/05 15:11:56.515328247,1743858716,512998215,,-0.00034037769085714146,-1.1234140840155207e-05,-0.055523474078846856,0.9984573239968934
2025/04/05 15:11:56.647591365,1743858716,612869269,,-0.00018399824383253123,9.952156007808365e-07,-0.056497645243169275,0.9984027154538557
2025/04/05 15:11:56.777031607,1743858716,706472516,,-6.85876723295584e-05,5.013803011904326e-05,-0.057441951823242486,0.9983488443187809
2025/04/05 15:11:56.886623589,1743858716,810829582,,-1.574811791684051e-05,0.00011989152681107983,-0.05836089481136258,0.998295543080723
2025/04/05 15:11:56.973774865,1743858716,906961511,,-3.604510894277306e-05,0.00018685561259356432,-0.05925456375805072,0.998242886505871
2025/04/05 15:11:57.73549362,1743858717,9896517,,-0.00011836924852468109,0.0002748659871385951,-0.06012461404917842,0.9981908340707439
2025/04/05 15:11:57.285163017,1743858717,107584129,,-0.00024286934771261428,0.000323946160409748,-0.0609726858409009,0.998139352823398
2025/04/05 15:11:57.363111571,1743858717,215923670,,-0.0003769508189500575,0.00037674934405066514,-0.061800368463953155,0.9980883880828048
2025/04/05 15:11:57.415087765,1743858717,307927560,,-0.0004917870430654079,0.00036906554618352437,-0.06260869220820926,0.9980379620014985
2025/04/05 15:11:57.610180692,1743858717,412299767,,-0.0005613607100872251,0.0003283237074683192,-0.0633985981400133,0.9979880734916512
2025/04/05 15:11:57.758709696,1743858717,508379100,,-0.0005702133255645844,0.00026670099942678296,-0.06417090464018232,0.9979387249350538
2025/04/05 15:11:57.823673967,1743858717,603153729,,-0.0005174704069133949,0.000206729405368675,-0.06492650002348345,0.9978898932658009
2025/04/05 15:11:58.76160702,1743858717,810322455,,-0.0003036875567871641,4.379929705737242e-05,-0.0663901361931294,0.9977936939426643
2025/04/05 15:11:58.140701073,1743858717,911554514,,-0.00019259164367721817,-4.705194025578774e-06,-0.06709942627568401,0.9977462753023907
2025/04/05 15:11:58.284998896,1743858718,113295739,,-7.988299777049679e-05,-1.5898255175525043e-06,-0.06847738769227604,0.9976526655058968
2025/04/05 15:11:58.484506544,1743858718,206913469,,-0.00010054891960721625,5.246640815924259e-05,-0.06914799365405898,0.9976064064102681
2025/04/05 15:11:58.633932151,1743858718,512471566,,-0.00035477245183354226,0.0002969847394774155,-0.07109552696440043,0.9974694040331393
2025/04/05 15:11:58.819823287,1743858718,614893185,,-0.00043408148827963933,0.0003610913876900318,-0.07172534016121651,0.9974242611672473
2025/04/05 15:11:59.26497585,1743858718,720600262,,-0.0004787982685419316,0.0003840742423267687,-0.07234641153465707,0.997379376153955
2025/04/05 15:11:59.187587860,1743858718,817024003,,-0.0004824713836345255,0.0003609869053613105,-0.07294319695888812,0.9973359147886107
2025/04/05 15:11:59.383724809,1743858719,10055326,,-0.0005488496046934326,-1.0627898525309066e-05,-0.07389120254924864,0.9972661574710059
2025/04/05 15:11:59.514613078,1743858719,105595494,,-0.0006702778134210711,-0.0002886241555802541,-0.07427213390698645,0.9972377437445157
2025/04/05 15:11:59.556791104,1743858719,307552955,,-0.0011184077808271188,-0.00074377897813253,-0.07494927154708678,0.9971864432749918
2025/04/05 15:11:59.633344567,1743858719,412369969,,-0.001395522981596262,-0.0008436285246577361,-0.07527562611518836,0.9971614317248169
2025/04/05 15:11:59.846899927,1743858719,610653315,,-0.0017793757130412406,-0.0007188724619574285,-0.07595181804010807,0.9971096421060512
2025/04/05 15:12:00.92079244,1743858719,716372801,,-0.0018214362054817506,-0.0004936942762610877,-0.0762973079836648,0.9970833262223157
2025/04/05 15:12:00.320674636,1743858720,109446313,,-0.0010756863585015717,0.0004903856552178353,-0.07770507075161205,0.9969756889715287
2025/04/05 15:12:00.458100733,1743858720,205582538,,-0.0009085652909743185,0.0005476990686865645,-0.07804121374200934,0.9969495691821709
2025/04/05 15:12:00.760950789,1743858720,408278181,,-0.0009266372535648875,0.0003842094332972574,-0.07863542936584474,0.9969029355834804
2025/04/05 15:12:00.920037872,1743858720,717130709,,-0.0016326426023094594,-0.0002418389763539243,-0.07922611019167493,0.996855305175199
2025/04/05 15:12:01.44114893,1743858720,811715432,,-0.0018601057251235262,-0.00038637180961900437,-0.07931572143695695,0.996847735141356
2025/04/05 15:12:01.130722273,1743858720,906397779,,-0.0019994419948119687,-0.0004142052823432654,-0.0793409352969272,0.9968454477259262
2025/04/05 15:12:01.543818913,1743858721,111950952,,-0.0019374804991539071,-0.00020454427088509877,-0.07917466128206294,0.9968588552758245
2025/04/05 15:12:01.584768221,1743858721,206176446,,-0.0017499303622908928,1.245602501029357e-05,-0.07897457210345041,0.9968750947584414
2025/04/05 15:12:01.940959188,1743858721,611314783,,-0.0009516035313178117,0.0007649657894288903,-0.07729758092586989,0.997007318559432
2025/04/05 15:12:02.112458465,1743858721,711960077,,-0.0009145552036304609,0.0007452714034199086,-0.07665759961565162,0.9970567790153584
2025/04/05 15:12:02.314327177,1743858721,915363573,,-0.0010724613738285508,0.0004135476549995867,-0.07509643055321173,0.997175613883084
2025/04/05 15:12:02.431690002,1743858722,11116757,,-0.001186204237466981,0.00015406795535950302,-0.0741879640202283,0.9972435586039679
2025/04/05 15:12:02.627482799,1743858722,106074513,,-0.0012395694745472288,-0.0001080645467000789,-0.07321014536768168,0.9973157606319146
2025/04/05 15:12:02.803850938,1743858722,208468420,,-0.001125814648905572,-0.0003261215197462579,-0.07218010211649935,0.9973909258884314
2025/04/05 15:12:02.939680629,1743858722,309646274,,-0.0008323727734794393,-0.00046807666845947494,-0.07110370631108325,0.9974684711852428
2025/04/05 15:12:03.697172616,1743858723,5284146,,1.857017381415335e-05,0.0006698271724651513,-0.06222808861944395,0.9980617295405522
2025/04/05 15:12:03.786267668,1743858723,108395248,,-0.0003473146271481979,0.0007055050050008693,-0.0608059295268615,0.9981492977353699
2025/04/05 15:12:03.915460528,1743858723,410553215,,-0.0010004619255827478,0.0001763165114569442,-0.05634568565884918,0.9984108030745948
2025/04/05 15:12:03.915570723,1743858723,514295410,,-0.0009286384872752402,-0.00011378902865647173,-0.054801312403839994,0.9984968406767413
2025/04/05 15:12:03.982913648,1743858723,608175180,,-0.0007266875148991591,-0.00037952069307975965,-0.05322986515414901,0.9985819492385041
2025/04/05 15:12:04.126431286,1743858723,814376856,,-0.00016880117855044163,-0.0006601290860933555,-0.05000949384483661,0.9987485100169787
2025/04/05 15:12:04.327738834,1743858723,911384219,,4.885414664133568e-05,-0.0006398263274363809,-0.048361847866915185,0.9988296751230614
2025/04/05 15:12:04.606196162,1743858724,15730727,,0.00016230966261159994,-0.000510038648203092,-0.04669450147382095,0.9989090734637773
2025/04/05 15:12:04.654740799,1743858724,105232231,,0.0001548521610313967,-0.00030067163064446896,-0.04502429972813932,0.9989858347601178
2025/04/05 15:12:04.935774359,1743858724,412533628,,-0.0004802214109982865,0.0003927583334814865,-0.03992714684823902,0.9992024009543047
2025/04/05 15:12:04.984862165,1743858724,607798981,,-0.0008764254304013264,0.00046718539771768556,-0.03646909816244039,0.9993342876612847
2025/04/05 15:12:05.75889120,1743858724,906399674,,-0.0007121727913167635,-8.684647502955488e-05,-0.031201170854854906,0.9995128674533866
2025/04/05 15:12:05.164541286,1743858725,11984370,,-0.0004924390974686928,-0.0003472505464059138,-0.029432154240558332,0.9995665986904291
2025/04/05 15:12:05.247241834,1743858725,110313850,,-0.00016913774758563107,-0.0005682837650139532,-0.02768204618423901,0.9996166028858456
2025/04/05 15:12:05.349958011,1743858725,215887018,,0.000194477237399175,-0.0007269140693992246,-0.025956685617110686,0.9996627852662688
2025/04/05 15:12:05.430054711,1743858725,311003555,,0.0005101608481152801,-0.0007774291265615272,-0.024262506651529868,0.999705189598837
2025/04/05 15:12:05.521614090,1743858725,411654558,,0.0006856804942518137,-0.0007328712153310163,-0.02258563053563618,0.9997444083541299
2025/04/05 15:12:05.612665275,1743858725,514181657,,0.0006839576789524324,-0.0005714578132121106,-0.020926165661902082,0.999780626551921
2025/04/05 15:12:05.687481214,1743858725,610073132,,0.0005078594598721511,-0.0003490162901736447,-0.019283571916597388,0.9998138647370998
2025/04/05 15:12:05.783288465,1743858725,712430617,,0.0001995780936579259,-9.3685500679684e-05,-0.017656463786731438,0.9998440881848326
2025/04/05 15:12:05.877695340,1743858725,805492855,,-0.00016943499661223687,0.00014501695921133212,-0.01604363645363595,0.9998712677096022
2025/04/05 15:12:05.955720471,1743858725,912102656,,-0.0005171975471571104,0.00032653704674047993,-0.014444661582978887,0.9998954833541391
2025/04/05 15:12:06.42641947,1743858726,4976381,,-0.0007689314118717814,0.0004229118884046775,-0.012859302411634414,0.9999169306654951
2025/04/05 15:12:06.133885787,1743858726,112678432,,-0.000876786300552149,0.0004129181093324042,-0.011286575964340186,0.9999358349151306
2025/04/05 15:12:06.217596088,1743858726,209003966,,-0.0008283451805921853,0.0002948638035016992,-0.009725645888516243,0.9999523182190491
2025/04/05 15:12:06.311006584,1743858726,308292917,,-0.0006470648376462443,0.00010795266316460523,-0.0081751995280339,0.999966367317419
2025/04/05 15:12:06.442096784,1743858726,412116901,,-0.000387244713883544,-0.00011790712737662035,-0.006634079990415379,0.999977912317128
2025/04/05 15:12:06.519296548,1743858726,507830349,,-0.00011749070772570893,-0.00035327403992943453,-0.00510074588050383,0.9999869218069048
2025/04/05 15:12:06.615963535,1743858726,614198317,,9.766537087572115e-05,-0.0005410800525701564,-0.003574145190368893,0.9999934615686296
2025/04/05 15:12:06.721542576,1743858726,707273408,,0.00020724839263996142,-0.0006464299140186855,-0.002052973833362822,0.9999976622347222
2025/04/05 15:12:06.813313102,1743858726,809207627,,0.0001877971007217666,-0.0006740957634894327,-0.0005368263679373859,0.999999611072225
2025/04/05 15:12:06.911055031,1743858726,909730504,,4.6337020348008916e-05,-0.0006029360951225189,0.0009750596004845193,0.999999341789644
2025/04/05 15:12:07.12732441,1743858727,6844800,,-0.00018253714095774572,-0.0004401049049800177,0.00248244520101819,0.9999968052217411
2025/04/05 15:12:07.127651259,1743858727,117293164,,-0.0004454326705672804,-0.00024439496939493953,0.003985589626963578,0.9999919284355051
2025/04/05 15:12:07.220905908,1743858727,215686554,,-0.0006840463970007968,-2.9251977890753723e-05,0.0054850964076205815,0.9999847223544206
2025/04/05 15:12:07.311644559,1743858727,308469474,,-0.0008484362181622586,0.00016750866737416084,0.006981854701116845,0.9999752525946642
2025/04/05 15:12:07.413694270,1743858727,410283263,,-0.0008805649684071825,0.000284764443048928,0.008467920144285383,0.999963718263307
2025/04/05 15:12:07.508389100,1743858727,504752552,,-0.0006549112863667501,0.0002829598391573072,0.009911833311929925,0.9999506220735767
2025/04/05 15:12:07.617702578,1743858727,608976193,,-0.00013834932748561614,0.00016778752760346254,0.01124986735195589,0.9999366945918989
2025/04/05 15:12:07.715377178,1743858727,714271455,,0.000501511271058249,-2.32994594360305e-05,0.012499293283452464,0.9999217547443372
2025/04/05 15:12:07.820843550,1743858727,813484988,,0.001060542882347452,-0.0002475755755045318,0.013695480796400785,0.999905619426596
2025/04/05 15:12:07.913526292,1743858727,905422799,,0.0014095253752903951,-0.00047227446799827106,0.01483975547155889,0.9998887797413208
2025/04/05 15:12:08.20055686,1743858728,13697190,,0.0014719981467494956,-0.0006427446031834413,0.01593319099444638,0.9998717685411292
2025/04/05 15:12:08.121060878,1743858728,114626000,,0.0012386849785891241,-0.0007289374305960492,0.01697668100083152,0.9998548527721122
2025/04/05 15:12:08.219084704,1743858728,216628732,,0.0007684125035291245,-0.0007197305770266876,0.01797085188559352,0.9998379568773267
2025/04/05 15:12:08.322968774,1743858728,307820210,,0.00017621759435834747,-0.0006143680535230834,0.018915572655323364,0.9998208802632477
2025/04/05 15:12:08.413921447,1743858728,404348424,,-0.0004037716938319791,-0.0004229948784166452,0.019811187375879148,0.9998035681565204
2025/04/05 15:12:08.522565117,1743858728,512258328,,-0.0008440680301708895,-0.00017718375044373827,0.02065928076990118,0.9997862022818426
2025/04/05 15:12:08.621599167,1743858728,612776898,,-0.0010539801827962256,8.249096440771804e-05,0.021461227661188596,0.999769122361903
2025/04/05 15:12:08.716290554,1743858728,714110750,,-0.0009987512265153828,0.00031760485075060216,0.022218077392996468,0.9997525987263575
2025/04/05 15:12:08.821155338,1743858728,807606205,,-0.000704695651130356,0.0004957226160624841,0.022930872040387282,0.9997366817170382
2025/04/05 15:12:08.908779865,1743858728,907539792,,-0.0002511116701313021,0.0005932151054615286,0.023600160166457267,0.9997212698942067
2025/04/05 15:12:09.13216306,1743858729,6163813,,0.0002499187181345032,0.0005916870667941613,0.024225736351518836,0.9997063074449796
2025/04/05 15:12:09.112892096,1743858729,111409154,,0.0006781466903491428,0.0004895462521125062,0.024809370808914315,0.9996918503126847
2025/04/05 15:12:09.210648450,1743858729,203874606,,0.0009352678607336345,0.00032831288754589635,0.025351187994089537,0.9996781155711897
2025/04/05 15:12:09.307796804,1743858729,305170621,,0.0009693855402788205,0.00013036415502941102,0.025849680105697586,0.9996653626765781
2025/04/05 15:12:09.409249007,1743858729,408232174,,0.0007764179324288213,-6.987482140554783e-05,0.026303743320350896,0.9996536927256562
2025/04/05 15:12:09.517985270,1743858729,510444766,,0.00040708279577071263,-0.000251705149817937,0.02671226781031755,0.9996430491313111
2025/04/05 15:12:09.617642696,1743858729,606345405,,-4.7942648748169175e-05,-0.000355593441294749,0.027073343573065765,0.9996333854581797
2025/04/05 15:12:09.719445574,1743858729,710795626,,-0.0004790486197872412,-0.0003692032290111791,0.027382297661864893,0.9996248516199228
2025/04/05 15:12:09.809527483,1743858729,804222634,,-0.000775457601052674,-0.00031295611433491716,0.027634403563445212,0.9996177471732243
2025/04/05 15:12:09.907272204,1743858729,905337568,,-0.0008186791437354241,-0.0001877774154286172,0.027837927348660675,0.9996120969181158
2025/04/05 15:12:10.13876687,1743858730,8608684,,-0.0005624049486639203,-8.172577904419986e-06,0.02800571401704263,0.999607604821151
2025/04/05 15:12:10.127563974,1743858730,109279702,,-6.063501706344384e-06,0.00018824839303345863,0.028114301582281082,0.9996046971539885
2025/04/05 15:12:10.214487501,1743858730,209696207,,0.0007369376708908788,0.0003943917001211474,0.028140718691775844,0.9996036221070662
2025/04/05 15:12:10.308948782,1743858730,308173569,,0.0014576142291238504,0.0005419211878256826,0.02810504118223185,0.9996037656703431
2025/04/05 15:12:10.408265713,1743858730,405219734,,0.001980914688329089,0.0006367684519039171,0.028005856385394923,0.9996055934772758
2025/04/05 15:12:10.517583006,1743858730,511993180,,0.0021889831143471527,0.0006352408192011892,0.027842051586847046,0.9996097363398688
2025/04/05 15:12:10.633272841,1743858730,611548078,,0.002036817437813529,0.0005483422590089856,0.027612897420127264,0.999616465746517
2025/04/05 15:12:10.711622324,1743858730,708620924,,0.0015632996642802382,0.000382778378009564,0.02731712956068977,0.9996255218867901
2025/04/05 15:12:10.816388905,1743858730,810386745,,0.0008744085278193771,0.00018388103859486284,0.026960797254018308,0.9996360922900482
2025/04/05 15:12:10.920511525,1743858730,910330740,,0.00012292985270829243,-5.9178097676648775e-06,0.02655037874656283,0.999647468981763
2025/04/05 15:12:11.19289003,1743858731,10009590,,-0.0005153190593732611,-0.0001757867376455781,0.02608179515760856,0.999659663838972
2025/04/05 15:12:11.110197121,1743858731,106498338,,-0.0009077655126913542,-0.0002904246295658426,0.025549861963738416,0.9996730946509176
2025/04/05 15:12:11.216217685,1743858731,211290605,,-0.0009941520062093795,-0.00034001683963727145,0.02496613337888874,0.9996877453657441
2025/04/05 15:12:11.309776739,1743858731,302833044,,-0.000767729952686046,-0.00031334928246152984,0.024329442175225195,0.9997036514119518
2025/04/05 15:12:11.421568786,1743858731,407974689,,-0.00030820952526776894,-0.000247095209077081,0.02364543525825253,0.9997203295633704
2025/04/05 15:12:11.510560760,1743858731,506158665,,0.00020935861746075438,-0.00014644929802776468,0.022936612867397458,0.9997368886420784
2025/04/05 15:12:11.615341317,1743858731,610431039,,0.0006515157997876904,-4.1132494006936654e-05,0.02220672875547791,0.9997531870583165
2025/04/05 15:12:11.720539142,1743858731,711386615,,0.000915586741271513,3.4934097034427105e-05,0.02145942079573836,0.9997693002586344
2025/04/05 15:12:11.819607628,1743858731,817659702,,0.0009489917252554241,9.847891173520887e-05,0.020692402540358767,0.999785434077591
2025/04/05 15:12:11.916784357,1743858731,907501823,,0.0007498840702160807,0.0001090563729084976,0.019907674349030142,0.9998015354472115
2025/04/05 15:12:12.17321156,1743858732,16077126,,0.000371282747680873,0.00010022319046033318,0.01910515380344627,0.999817405930993
2025/04/05 15:12:12.114373096,1743858732,108300618,,-9.229621850005297e-05,4.280929293563823e-05,0.018284615584035855,0.999832817265825
2025/04/05 15:12:12.221898277,1743858732,217298337,,-0.0005327226978319984,-2.6623411776482187e-05,0.017446193338013026,0.9998476613143293
2025/04/05 15:12:12.311535543,1743858732,306270868,,-0.0008517233088912158,-0.00010891087001480056,0.016591120228145274,0.9998619891942101
2025/04/05 15:12:12.417746316,1743858732,412099084,,-0.000976764566276401,-0.00018090031201287206,0.015715930847999122,0.9998760036742756
2025/04/05 15:12:12.507474648,1743858732,506103554,,-0.0008759877031047761,-0.00024723933449423625,0.01480333040456818,0.9998900104147399
2025/04/05 15:12:12.618807033,1743858732,613830816,,-0.0006137887763531199,-0.00028837693233644044,0.01387446567899434,0.9999035149974248
2025/04/05 15:12:12.718944250,1743858732,715561385,,-0.00025521560236138163,-0.00030465629971465126,0.012927812341065834,0.9999163533604246
2025/04/05 15:12:12.814369374,1743858732,809799766,,0.0001116016298260338,-0.00028385465845029255,0.011963774133292564,0.9999283849756925
2025/04/05 15:12:12.914290323,1743858732,911376550,,0.00039664730670896847,-0.00025390646494915825,0.010987947584601077,0.9999395197762209
2025/04/05 15:12:13.20363573,1743858733,14165088,,0.0005397819057188311,-0.00019268819111226923,0.009999234696548781,0.9999498421482143
2025/04/05 15:12:13.118632438,1743858733,111674899,,0.0005143627664433787,-0.00013817103619384068,0.00899779236814227,0.999959377210999
2025/04/05 15:12:13.239735067,1743858733,206519282,,0.00033458658426429677,-7.057038949200906e-05,0.007981867838377113,0.99996808591947
2025/04/05 15:12:13.316271800,1743858733,312349276,,4.984985257692524e-05,-2.8826907746522726e-05,0.006949464692627099,0.9999758505206451
2025/04/05 15:12:13.415598115,1743858733,409204216,,-0.0002759779636545037,1.14269050684842e-05,0.005904869109168947,0.9999825279605604
2025/04/05 15:12:13.514236215,1743858733,509294649,,-0.0005656000960892234,1.3456471338333726e-05,0.004848606371193145,0.999988085394877
2025/04/05 15:12:13.614951836,1743858733,609857962,,-0.0007754876447664463,-5.3997423524971055e-06,0.0037875305736978573,0.9999925265730284
2025/04/05 15:12:13.711908336,1743858733,710047117,,-0.0009374633734228998,-6.966805052632654e-05,0.002740602325813954,0.9999958026950303
2025/04/05 15:12:13.811519737,1743858733,810258199,,-0.001054940665158505,-0.00016564430404335777,0.0017050919495388624,0.9999979761597526
2025/04/05 15:12:13.909834844,1743858733,903523235,,-0.001140514934157032,-0.0002625329529722588,0.0007001287656312045,0.9999990700604902
2025/04/05 15:12:14.15566104,1743858734,12203628,,-0.001169129854526754,-0.0003527461926009276,-0.0002749363632705174,0.9999992165574446
2025/04/05 15:12:14.120503244,1743858734,107151284,,-0.0011303972962388353,-0.0004045310373186719,-0.0012212107279525274,0.9999985335994
2025/04/05 15:12:14.220692877,1743858734,216540610,,-0.0010301741652644948,-0.0004124679209492222,-0.0021393139718996674,0.9999970959693498
2025/04/05 15:12:14.307302401,1743858734,305769756,,-0.0008846948799034115,-0.0003772623974894121,-0.0030323222779158124,0.999994939992026
2025/04/05 15:12:14.412649537,1743858734,407268773,,-0.0007204628096745453,-0.00029342475021680695,-0.003903101868968684,0.9999920802841672
2025/04/05 15:12:14.515929422,1743858734,510918311,,-0.0005741736907647696,-0.0001682701317102153,-0.004749845549965994,0.9999885404228326
2025/04/05 15:12:14.611701026,1743858734,606954832,,-0.0004726236665915583,-4.6008687390537805e-05,-0.005574543262157805,0.9999843493662732
2025/04/05 15:12:14.719499962,1743858734,711266104,,-0.0004298088455751434,8.656515350260826e-05,-0.006380148390967298,0.9999795505295794
2025/04/05 15:12:14.819845962,1743858734,817547566,,-0.000450914267126942,0.00017957555675683984,-0.00716616377664624,0.9999742049301419
2025/04/05 15:12:14.909072879,1743858734,906850456,,-0.0005217238959652698,0.00024392810812835574,-0.007935573309807273,0.999968346988793
2025/04/05 15:12:15.11039773,1743858735,2693128,,-0.0006246809334607257,0.00025630422151694314,-0.008685831786713425,0.9999620494839043
2025/04/05 15:12:15.116368109,1743858735,109307871,,-0.0007295778574588451,0.0002198335457450125,-0.009418937558503501,0.9999553505055269
2025/04/05 15:12:15.218824962,1743858735,217326006,,-0.0008083976842896655,0.00014229840510441818,-0.010135941559101446,0.999948293129729
2025/04/05 15:12:15.313373576,1743858735,311936513,,-0.0008384499665831481,4.184715052300945e-05,-0.010837999302159689,0.9999409147652655
2025/04/05 15:12:15.412752738,1743858735,408626494,,-0.0008116845172200134,-5.783647403831105e-05,-0.01152566480948484,0.9999332462089088
2025/04/05 15:12:15.513312430,1743858735,510876087,,-0.0007337115548851873,-0.0001567902803515877,-0.012198919844055566,0.9999253089300223
2025/04/05 15:12:15.615734108,1743858735,604174658,,-0.0006218408054792177,-0.0002051828800140829,-0.012858931028742963,0.9999171061177003
2025/04/05 15:12:15.713070463,1743858735,711131107,,-0.000496423289586409,-0.00022234315114621575,-0.013508199076763728,0.9999086121667036
2025/04/05 15:12:15.818404277,1743858735,813139551,,-0.00039367886735554975,-0.00019602221726339647,-0.014141473734024284,0.9998999076471953
2025/04/05 15:12:15.914918033,1743858735,911606284,,-0.00036811220087642024,-0.00014339719929250296,-0.0147551568998109,0.9998910587036534
2025/04/05 15:12:16.19000884,1743858736,10239759,,-0.0004290853284734912,-7.089614366036746e-05,-0.01534365620817844,0.9998821845966068
2025/04/05 15:12:16.109515521,1743858736,108586172,,-0.0005555953288702337,-6.020586490761538e-06,-0.015912346236632503,0.9998732362228867
2025/04/05 15:12:16.211687484,1743858736,208239428,,-0.0007098144648861171,6.274656399415357e-05,-0.01645766535146217,0.9998643095327853
2025/04/05 15:12:16.313946006,1743858736,306611802,,-0.0008456313911977756,0.00011635139789408745,-0.01698253975006293,0.9998554219053573
2025/04/05 15:12:16.426680854,1743858736,414538527,,-0.0009253037675140701,0.00014508104813554332,-0.017492297332004518,0.9998465593772257
2025/04/05 15:12:16.528508654,1743858736,507360749,,-0.0009321536539504239,0.00014942817601541316,-0.017986564116596902,0.9998377829788516
2025/04/05 15:12:16.618365932,1743858736,615919443,,-0.0008697033858294487,0.0001354747920083894,-0.018462839673989796,0.9998291598137024
2025/04/05 15:12:16.716637530,1743858736,712213963,,-0.0007539071773583026,9.43097244911808e-05,-0.018919179677908095,0.9998207276156855
2025/04/05 15:12:16.811386299,1743858736,806405777,,-0.0006124976504741943,5.785739624290571e-05,-0.019354376219785287,0.9998124972315023
2025/04/05 15:12:16.906192591,1743858736,904213847,,-0.0004799897047742139,1.6452649287442446e-05,-0.01976672464705167,0.99980450385859
2025/04/05 15:12:17.25225316,1743858737,10039130,,-0.00038732330431948115,-2.288807993833396e-05,-0.020154896878867234,0.9997967941479888
2025/04/05 15:12:17.125765729,1743858737,109739343,,-0.0003553497617633774,-2.598577974415781e-05,-0.02051791502318394,0.9997894219356331
2025/04/05 15:12:17.214599218,1743858737,208232091,,-0.00039028319489507556,-7.760050087901551e-06,-0.02085472128858867,0.999782440443312
2025/04/05 15:12:17.318572720,1743858737,309750457,,-0.0004824088605741575,2.5616584286059145e-05,-0.021164339566026546,0.9997758935662611
2025/04/05 15:12:17.414656589,1743858737,410986302,,-0.0006097890428941619,8.985547705201279e-05,-0.02144587524454175,0.9997698207679165
2025/04/05 15:12:17.520267745,1743858737,516413793,,-0.0007421001038329761,0.0001723998759604948,-0.021698724629973448,0.9997642646720032
2025/04/05 15:12:17.608801216,1743858737,605678791,,-0.0008509708064124455,0.0002434920349328432,-0.021921020971908508,0.9997593137349933
2025/04/05 15:12:17.795359701,1743858737,705789302,,-0.0009124514932647009,0.0002911816001852404,-0.02211195467081351,0.9997550420508936
2025/04/05 15:12:17.884431168,1743858737,804934855,,-0.0009140807807007622,0.00035381067646346936,-0.02227303883278711,0.9997514446178534
2025/04/05 15:12:17.976012356,1743858737,910668569,,-0.0008637401632419189,0.0003632495252888084,-0.022406613902361424,0.999748501202249
2025/04/05 15:12:18.39345398,1743858738,8551407,,-0.0007644717150675204,0.0003565367486485225,-0.0225026763274906,0.9997464268616537
2025/04/05 15:12:18.114233678,1743858738,112751545,,-0.0006333409054316375,0.00030682216286299766,-0.022567591603975232,0.9997450717801284
2025/04/05 15:12:18.216095110,1743858738,211350071,,-0.0005021138363395055,0.0002565396545786239,-0.02260114474569303,0.999744402497601
2025/04/05 15:12:18.319345911,1743858738,315505505,,-0.00040032758376653914,0.00019223369008947676,-0.02260258826522709,0.9997444302359212
2025/04/05 15:12:18.410105724,1743858738,405353156,,-0.00035192649586932544,0.00013280225460189117,-0.02257124951408418,0.999745166133188
2025/04/05 15:12:18.519639568,1743858738,513663214,,-0.0003635881376949471,9.573681037473127e-05,-0.022507328188571755,0.9997466073040414
2025/04/05 15:12:18.616003646,1743858738,609024605,,-0.0004299775720276576,7.492995684274966e-05,-0.022410598418094764,0.9997487557298244
2025/04/05 15:12:18.717308228,1743858738,711086739,,-0.000535795136573862,7.462847094163877e-05,-0.022280869612910564,0.9997516042515038
2025/04/05 15:12:18.817348807,1743858738,807691856,,-0.0006532277175707868,0.0001061331299457206,-0.022119468901410835,0.9997551155782236
2025/04/05 15:12:18.915158081,1743858738,905684935,,-0.0007546492057818731,0.00014718556697285496,-0.021925951309434526,0.9997593017822647
2025/04/05 15:12:19.28736785,1743858739,12660102,,-0.0008179628066512796,0.0001848454381480859,-0.021699447300487576,0.9997641875741821
2025/04/05 15:12:19.110579988,1743858739,106883027,,-0.0008259965828284121,0.00022361733353964128,-0.02144096070400205,0.9997697499569702
2025/04/05 15:12:19.211372423,1743858739,208309429,,-0.0007746533291789453,0.0002530965585975329,-0.021153431328612395,0.9997759089902983
2025/04/05 15:12:19.311320603,1743858739,304970034,,-0.0006747771059844027,0.00025990665596948605,-0.020839966366640716,0.9997825628236495
2025/04/05 15:12:19.421447914,1743858739,413230273,,-0.0005504567272234017,0.00024277738785189455,-0.020501066951627,0.9997896500316336
2025/04/05 15:12:19.533867889,1743858739,517289032,,-0.00043152898517024446,0.0002154517533878812,-0.02013750538319208,0.999797103536622
2025/04/05 15:12:19.620087488,1743858739,612675874,,-0.00034414696381862743,0.00016911472486698116,-0.01974995792775154,0.9998048770259771
2025/04/05 15:12:19.720800859,1743858739,717612853,,-0.00030637599380340383,0.00011603783829557113,-0.01933911796788967,0.9998129280946484
2025/04/05 15:12:19.811817390,1743858739,803839011,,-0.00032633001143904134,5.305779362540093e-05,-0.01890549524427603,0.9998212204905249
2025/04/05 15:12:19.908525343,1743858739,906232294,,-0.0003970534481274876,1.5932340468801426e-05,-0.018449871558575585,0.9998297076673567
2025/04/05 15:12:20.17885398,1743858740,12964087,,-0.000500649575470821,-2.4645038996139876e-05,-0.0179732049254485,0.999838343257215
2025/04/05 15:12:20.111729631,1743858740,105761596,,-0.0006124908620588975,-3.34397032038529e-05,-0.017476364134860818,0.9998470885257185
2025/04/05 15:12:20.222094706,1743858740,215007896,,-0.0007073162141326322,-3.9640877299479793e-05,-0.016960771720832213,0.99985590479579
2025/04/05 15:12:20.311569376,1743858740,309059959,,-0.0007703656757676862,-2.4277269405541883e-05,-0.016432253303557555,0.9998646843441904
2025/04/05 15:12:20.412493922,1743858740,410488171,,-0.000788167183600508,-2.2591393111551945e-05,-0.01589107215255587,0.999873418042485
2025/04/05 15:12:20.517002396,1743858740,515163488,,-0.0007573577239815739,-3.33794006700786e-06,-0.015337836505855854,0.9998820816323571
2025/04/05 15:12:20.619096875,1743858740,613615703,,-0.0006874614241512095,1.8299656444359215e-07,-0.014772432431812017,0.9998906453391813
2025/04/05 15:12:20.724726622,1743858740,715803720,,-0.0005953364316068116,1.811238945481743e-05,-0.014195300475447056,0.9998990642514305
2025/04/05 15:12:20.814802851,1743858740,811629508,,-0.0005029534906103112,1.7043983770551417e-05,-0.013606575158428268,0.9999072996331945
2025/04/05 15:12:20.912382947,1743858740,911924969,,-0.00043106625211499806,2.7422129503076885e-05,-0.013006624204653086,0.9999153169927502
2025/04/05 15:12:21.8216504,1743858741,5996349,,-0.00039581571626190904,1.66619969322117e-05,-0.012395803904244992,0.9999230905914035
2025/04/05 15:12:21.116347915,1743858741,113345873,,-0.0004044548071443131,1.6506691511990513e-05,-0.011774322518598035,0.999930598328237
2025/04/05 15:12:21.213926113,1743858741,211330927,,-0.00045343692021988655,-2.8916862764217716e-06,-0.011142497887395568,0.9999378176303899
2025/04/05 15:12:21.311587070,1743858741,309443505,,-0.0005292733437466084,-1.3333873799197159e-05,-0.010501038221550855,0.9999447224162968
2025/04/05 15:12:21.426710667,1743858741,416907081,,-0.0006124463649687694,-3.5638251679045016e-05,-0.009851130620306561,0.9999512882460159
2025/04/05 15:12:21.531282578,1743858741,515399728,,-0.0006838642823467693,-4.687837277871947e-05,-0.009193509497212891,0.9999575038546319
2025/04/05 15:12:21.620610692,1743858741,610678687,,-0.0007274658681834491,-7.524315718623684e-05,-0.008527895183244608,0.9999633693969102
2025/04/05 15:12:21.720380427,1743858741,715499311,,-0.0007318866869515905,-7.959022703472114e-05,-0.007855156211062333,0.9999688767797591
2025/04/05 15:12:21.820092253,1743858741,810164898,,-0.0006963312628125635,-9.663464676218651e-05,-0.007176105535943184,0.9999740043090393
2025/04/05 15:12:21.909376720,1743858741,908731761,,-0.0006291745262527105,-9.076669375525137e-05,-0.0064913593322166365,0.9999787288511905
2025/04/05 15:12:22.9110051,1743858742,6946094,,-0.0005469759541689845,-9.66471681335914e-05,-0.005801111411098569,0.9999830191473386
2025/04/05 15:12:22.109867700,1743858742,109475344,,-0.0004681772714556507,-8.163222492068991e-05,-0.005105867696922627,0.9999868520442076
2025/04/05 15:12:22.217191633,1743858742,211972076,,-0.0003951768689644652,-9.494293092699109e-05,-0.004410094069502052,0.9999901928976005
2025/04/05 15:12:22.305730526,1743858742,303625776,,-0.00028478383556388993,-0.00013359775479096966,-0.003738266272747342,0.9999929631827821
2025/04/05 15:12:22.405456027,1743858742,404293048,,-0.00015911986845493188,-0.00021509662865005878,-0.003097737570691195,0.9999951662064427
2025/04/05 15:12:22.514748378,1743858742,511106680,,-4.7873907481245945e-05,-0.0002970907273664011,-0.0024879991872401464,0.9999968596476856
2025/04/05 15:12:22.616957391,1743858742,607612003,,1.9924927688909013e-05,-0.00039304591199473664,-0.001908767197435729,0.9999981008610438
2025/04/05 15:12:22.712119324,1743858742,710661880,,2.6674664706011284e-05,-0.00045969320837018363,-0.0013593802523676523,0.9999989700274425
2025/04/05 15:12:22.813967961,1743858742,811690684,,-2.6710789197910625e-05,-0.000495636735064321,-0.0008383467374413985,0.9999995254026416
2025/04/05 15:12:22.906089132,1743858742,904104543,,-0.00012935486084243532,-0.0005061128266028373,-0.00034554465215501254,0.9999998038579908
2025/04/05 15:12:23.6376788,1743858743,6058871,,-0.00025634127801119994,-0.00046145889618862704,0.00012034529631270582,0.9999998534309122
2025/04/05 15:12:23.113397947,1743858743,110822732,,-0.00038227485421444434,-0.0003825555697318858,0.0005609621278436074,0.9999996964192854
2025/04/05 15:12:23.209726354,1743858743,208277365,,-0.0004791962598089286,-0.00028088939083850174,0.000975947860405646,0.9999993694987355
2025/04/05 15:12:23.311251223,1743858743,310286252,,-0.0005254612606217435,-0.00018411418415397482,0.0013656486608477874,0.9999989124974916
2025/04/05 15:12:23.405870977,1743858743,403446803,,-0.0005128000407464426,-9.775681983616813e-05,0.0017314934016698694,0.9999983647038241
2025/04/05 15:12:23.508745499,1743858743,505311183,,-0.0004484021212240111,-2.4093821076110668e-05,0.002073800018547379,0.9999977488517204
2025/04/05 15:12:23.611948263,1743858743,609069718,,-0.00035175152123017184,1.1908822483001183e-06,0.0023950526848741677,0.9999970699917504
2025/04/05 15:12:23.715137318,1743858743,712439884,,-0.0002488516791935402,-1.1382257950199175e-05,0.002699029491261163,0.9999963265847986
2025/04/05 15:12:23.803768310,1743858743,802171343,,-0.00015378417317231163,-0.00010395799086367608,0.0029870575631581143,0.9999955215051108
2025/04/05 15:12:23.910480838,1743858743,908876660,,-7.789550577053087e-05,-0.0002313335297431321,0.0032524095627771946,0.9999946811104168
2025/04/05 15:12:24.13713032,1743858744,11383318,,-4.045018704636121e-05,-0.00040282726000671237,0.0034971621810889622,0.9999938029561284
2025/04/05 15:12:24.106011620,1743858744,104287689,,-5.019873068533545e-05,-0.000559705945945851,0.003722077176202215,0.9999929151503204
2025/04/05 15:12:24.220191359,1743858744,212448419,,-0.00010373584127891957,-0.0006658099860903915,0.003925921552428047,0.9999920665064808
2025/04/05 15:12:24.306733733,1743858744,304086772,,-0.00018700086844390196,-0.000746836890830493,0.0041072486442799245,0.9999912688488374
2025/04/05 15:12:24.410113735,1743858744,406514629,,-0.00028314893040879986,-0.0007331482457714054,0.004266119961920867,0.9999905912261392
2025/04/05 15:12:24.514169998,1743858744,512242598,,-0.0003699402326544268,-0.0006705395358301415,0.004403004052169572,0.9999900134882707
2025/04/05 15:12:24.604486032,1743858744,602486494,,-0.0004277553753006401,-0.0005461134749694896,0.004518773060630863,0.9999895496831144
2025/04/05 15:12:24.706666346,1743858744,705282225,,-0.0004464295047015616,-0.00037722358332643413,0.004614368877355547,0.9999891829429602
2025/04/05 15:12:24.815051404,1743858744,812832079,,-0.00042474329782385406,-0.00021241587278187247,0.004690815064332904,0.9999888853015618
2025/04/05 15:12:24.904521706,1743858744,902593883,,-0.00036884170167751987,-5.6336594141465855e-05,0.00474722223386426,0.9999886622672527
2025/04/05 15:12:25.7382606,1743858745,5931196,,-0.0002919237691403728,4.133626094791998e-05,0.0047824210612822,0.9999885206944223
2025/04/05 15:12:25.112893154,1743858745,112339575,,-0.00021887139491402483,7.250895288960268e-05,0.004800220129824813,0.99998845229556
2025/04/05 15:12:25.204062380,1743858745,202088883,,-0.00017614432675764225,8.300772797372905e-06,0.004812573109755944,0.9999884039549342
2025/04/05 15:12:25.305376711,1743858745,303478487,,-0.00015055161107721974,-0.0001386659385045968,0.004805767402416864,0.9999884312859043
2025/04/05 15:12:25.405619512,1743858745,404656034,,-0.00014887274171164293,-0.0003436932253265837,0.004778967878267915,0.999988510522942
2025/04/05 15:12:25.508980109,1743858745,507122894,,-0.00017087203183544913,-0.0005614399284360938,0.00473163290714581,0.9999886335543957
2025/04/05 15:12:25.612518909,1743858745,609873755,,-0.0002175528590375388,-0.0007548796652908217,0.004668771696367439,0.9999887926363433
2025/04/05 15:12:25.706094336,1743858745,705599366,,-0.00028544769837329456,-0.0008865457225142937,0.0045961729292257015,0.999989003814891
2025/04/05 15:12:25.811995924,1743858745,809136601,,-0.0003581881388161333,-0.0009372124568219348,0.004514289188955927,0.9999893072064253
2025/04/05 15:12:25.905057364,1743858745,903138616,,-0.0004204604436181579,-0.0008802350565104289,0.004423150305666011,0.999989742017704
2025/04/05 15:12:26.10464146,1743858746,8094777,,-0.0004579914334221255,-0.0007321290599322825,0.004323028479922133,0.999990282780612
2025/04/05 15:12:26.115669239,1743858746,112957866,,-0.0004632956213681495,-0.0005361985427571232,0.004214001202367921,0.9999908699793996
2025/04/05 15:12:26.204913708,1743858746,204176448,,-0.0004361972946859687,-0.0003007901983733335,0.004096459185508149,0.999991469103271
2025/04/05 15:12:26.364055510,1743858746,304666870,,-0.00038540206511982215,-8.068983408151409e-05,0.003970707094789065,0.9999920391880959
2025/04/05 15:12:26.409800431,1743858746,408123186,,-0.0003240383388604198,0.00010026455460452843,0.003837115569291049,0.9999925807176181
2025/04/05 15:12:26.510995519,1743858746,509320087,,-0.0002708389086475823,0.00018287493149667295,0.0036980415580193543,0.9999931088220959
2025/04/05 15:12:26.613320409,1743858746,611103446,,-0.00024489608916160045,0.00016536782377963883,0.0035545436486580716,0.9999936389291875
2025/04/05 15:12:26.708949081,1743858746,707475945,,-0.00024968015686515184,2.6024235722285763e-05,0.0034031603455524756,0.999994177724161
2025/04/05 15:12:26.808358152,1743858746,807433812,,-0.00029614672642677275,-0.00017986718077145296,0.0032518955178625518,0.9999946525459297
2025/04/05 15:12:26.911808943,1743858746,909278408,,-0.0003722708855159443,-0.00043264197870715584,0.0031007994569397356,0.9999950296266646
2025/04/05 15:12:27.15805688,1743858747,5507205,,-0.0004591801108262188,-0.0006728485933543417,0.0029498895804209737,0.9999953172789658
2025/04/05 15:12:27.108333098,1743858747,106675218,,-0.0005351167539576315,-0.0008548218738472733,0.00279923576075942,0.9999955735945931
2025/04/05 15:12:27.207883508,1743858747,207364696,,-0.0005833894413951326,-0.0009418943379036745,0.002648832307073977,0.9999958780811173
2025/04/05 15:12:27.313033306,1743858747,310288710,,-0.000592000188352638,-0.0009240921959854674,0.002498805152713686,0.9999962757741646
2025/04/05 15:12:27.404251179,1743858747,402080803,,-0.0005605026325687107,-0.0007983002563483271,0.002349206416617428,0.9999967648861229
2025/04/05 15:12:27.508171945,1743858747,506110174,,-0.0004974168287363367,-0.000584121345276065,0.0021999925246875226,0.9999972857021382
2025/04/05 15:12:27.610218335,1743858747,607404471,,-0.0004185300943245478,-0.0003103398957665222,0.0020512167754712825,0.999997760513217
2025/04/05 15:12:27.712185651,1743858747,709726638,,-0.00034249653860905164,-3.514108280652071e-05,0.0019029315209715565,0.9999981301546778
2025/04/05 15:12:27.829201560,1743858747,817549880,,-0.0002861462006079848,0.00019538153654318705,0.0017551638869067107,0.999998399671788
2025/04/05 15:12:27.907726074,1743858747,907110347,,-0.00026168352106107007,0.0003548737893649912,0.0016078389659334028,0.9999986102191283
2025/04/05 15:12:28.13010153,1743858748,9764107,,-0.00027365412844777576,0.000420344888721066,0.001461121001364154,0.999998806773794
2025/04/05 15:12:28.104499194,1743858748,102489087,,-0.000316899551560202,0.00034816494448707257,0.0013144808681272665,0.9999990252474714
2025/04/05 15:12:28.206908248,1743858748,205755187,,-0.00038695226136564953,0.0001906027274521313,0.0011672289122147154,0.9999992257573074
2025/04/05 15:12:28.312365809,1743858748,310319960,,-0.0004843006709843166,-5.6497682555753696e-05,0.0010285952880446302,0.9999993521260928
2025/04/05 15:12:28.404893981,1743858748,404386532,,-0.0005853793936676616,-0.000330618378322003,0.0008986756549422995,0.999999370202062
2025/04/05 15:12:28.507476638,1743858748,505326906,,-0.0006656988992332518,-0.0005842089303962425,0.0007772571601152469,0.9999993057078631
2025/04/05 15:12:28.612938852,1743858748,608704901,,-0.0007065534619578517,-0.0007628794433164064,0.0006643732309729102,0.9999992387023954
2025/04/05 15:12:28.713535051,1743858748,710071385,,-0.0006983299909730746,-0.0008348206248661713,0.0005607432248659087,0.999999250488111
2025/04/05 15:12:28.819688337,1743858748,815026949,,-0.0006461595219954501,-0.000783419547469579,0.0004653372459173781,0.9999993760962715
2025/04/05 15:12:28.902582875,1743858748,902108047,,-0.0005615184130107107,-0.0006248557337170356,0.00037793755776773555,0.9999995757077031
2025/04/05 15:12:29.3555509,1743858749,3179613,,-0.00046196064353037035,-0.00037610403117011466,0.0002982868997805466,0.9999997780814989
2025/04/05 15:12:29.108031370,1743858749,106770053,,-0.000371962079693657,-6.88605714489598e-05,0.00022678384995959605,0.9999999027357545
2025/04/05 15:12:29.210639809,1743858749,207394086,,-0.00031040939564515275,0.00021962994283223174,0.00016270857062415555,0.9999999144673045
2025/04/05 15:12:29.313655821,1743858749,310794238,,-0.0002908779999864031,0.00045784720058764144,0.00010643940019402961,0.9999998472182804
2025/04/05 15:12:29.404708944,1743858749,403790705,,-0.0003172708787434972,0.0006118781082651688,5.863120783968689e-05,0.9999997607533472
2025/04/05 15:12:29.510394445,1743858749,506723997,,-0.00038932637983253674,0.0006323712605059806,2.427828045161106e-05,0.9999997239710239
2025/04/05 15:12:29.609808565,1743858749,609455131,,-0.0005109422915597166,0.0005514007965392946,1.8692241908776488e-05,0.9999997172728282
2025/04/05 15:12:29.712981778,1743858749,709340459,,-0.000617836563416102,0.00035475473982460505,2.0978049374773612e-05,0.9999997459934562
2025/04/05 15:12:29.817064834,1743858749,806216253,,-0.0006835337276619973,8.817270896261727e-05,3.111169891673188e-05,0.999999762019611
2025/04/05 15:12:29.912790186,1743858749,912309231,,-0.0006930979478836719,-0.00017519373684531252,4.96764745720521e-05,0.9999997432272856
2025/04/05 15:12:30.11670868,1743858750,9975211,,-0.0006459249468445379,-0.0004241689890298326,7.683688080056753e-05,0.9999996984788173
2025/04/05 15:12:30.113591005,1743858750,112406967,,-0.0005543149544082241,-0.0005821132374507191,0.00011244899380643175,0.9999996706171127
2025/04/05 15:12:30.207127032,1743858750,204241322,,-0.00044037286519349396,-0.0006340182120906688,0.00015614615884305925,0.9999996898554636
2025/04/05 15:12:30.307658829,1743858750,305831129,,-0.000331178537014989,-0.0005728557336794409,0.0002079032270862131,0.9999997594666377
2025/04/05 15:12:30.412366982,1743858750,408448650,,-0.00025045938215580935,-0.00040202708740207874,0.00026746274941212355,0.9999998520539873
2025/04/05 15:12:30.510185835,1743858750,505857710,,-0.00021648835709060286,-0.00014939924806558192,0.00033429473824153665,0.9999999095298379
2025/04/05 15:12:30.608137207,1743858750,607425520,,-0.00023708683622482128,0.0001336698108889453,0.00040864936823680663,0.9999998794639465
2025/04/05 15:12:30.716500329,1743858750,715058327,,-0.00030619913820070354,0.00040050960324094023,0.0004904664593586617,0.9999997526383683
2025/04/05 15:12:30.805259979,1743858750,804469147,,-0.0004053797595135846,0.0006028615669771664,0.0005788664651818601,0.9999995685693055
2025/04/05 15:12:30.912311011,1743858750,911135022,,-0.0004928362895207591,0.0007063113373077955,0.0006612244152457899,0.9999994105093059
2025/04/05 15:12:31.16671230,1743858751,13411447,,-0.0005444824173432841,0.0006857875107174287,0.0007348821623732379,0.9999993465910839
2025/04/05 15:12:31.104825398,1743858751,102901850,,-0.0005488295438892246,0.0005500431264434658,0.000799131896443166,0.9999993788132585
2025/04/05 15:12:31.205135296,1743858751,203607824,,-0.0005080566485281754,0.00032865788388049337,0.0008553331311458677,0.9999994511336854
2025/04/05 15:12:31.311528423,1743858751,306538149,,-0.00043414467047001867,6.232709925862273e-05,0.0009044657776881317,0.9999994947875698
2025/04/05 15:12:31.412663195,1743858751,409653316,,-0.00034386319289814225,-0.0002000767380770944,0.0009458286893918384,0.9999994735676083
2025/04/05 15:12:31.518423051,1743858751,514671036,,-0.0002567736175546517,-0.0004119761631380056,0.0009788843778694302,0.9999994030639844
2025/04/05 15:12:31.617168191,1743858751,609724852,,-0.0001951453906130428,-0.0005365470981991111,0.0010043028486626557,0.9999993327054154
2025/04/05 15:12:31.712299987,1743858751,710170695,,-0.00017293181387804208,-0.0005339136623637611,0.001022367138792071,0.9999993198978799
2025/04/05 15:12:31.813347265,1743858751,811376458,,-0.00017000101617080601,-0.0004276795905474764,0.0010179739880271344,0.9999993759591963
2025/04/05 15:12:31.913523285,1743858751,911549383,,-0.00017459482912785432,-0.00021867372804725853,0.0009801296945250748,0.9999994805219792
2025/04/05 15:12:32.6749694,1743858752,5252511,,-0.0002296682947476372,4.882843739748841e-05,0.0009348521279221391,0.9999995354597706
2025/04/05 15:12:32.178811423,1743858752,109243794,,-0.0003189932795740099,0.00032734260758496,0.000881556999106412,0.9999995069735595
2025/04/05 15:12:32.234580313,1743858752,206810901,,-0.0004213180083980478,0.0005685598414595951,0.0008204198518287772,0.9999994130708824
2025/04/05 15:12:32.307434203,1743858752,305987570,,-0.0005163272747508097,0.000730025977059243,0.000754400640408028,0.9999993156737118
2025/04/05 15:12:32.411010924,1743858752,409201026,,-0.0005789660581433807,0.0007742855168879826,0.0006866831233214647,0.9999992968730178
2025/04/05 15:12:32.511579924,1743858752,506659855,,-0.0005874518814149963,0.0006879488987627517,0.0006128986494256452,0.9999994029907444
2025/04/05 15:12:32.609928578,1743858752,607756298,,-0.0005411409217818846,0.0004986957399639757,0.0005323469599020464,0.9999995875378029
2025/04/05 15:12:32.705819746,1743858752,703107621,,-0.0004550027220618616,0.0002489701439560873,0.00044599420483627724,0.9999997660377524
2025/04/05 15:12:32.813286849,1743858752,809839734,,-0.0003492913622043511,-4.451420848426687e-05,0.0003534904200096895,0.9999998755292685
2025/04/05 15:12:32.911466485,1743858752,910959754,,-0.00024967307042264185,-0.0003146867140627106,0.0002551944353846324,0.9999998867557086
2025/04/05 15:12:33.5235078,1743858753,2023734,,-0.00017990722969549378,-0.0005035556818573015,0.0001516481893104167,0.9999998455339334
2025/04/05 15:12:33.105200128,1743858753,104525034,,-0.00015532310478161344,-0.0005809539624896254,4.338017652248879e-05,0.9999998182426769
2025/04/05 15:12:33.209882116,1743858753,208339388,,-0.00018106224891361531,-0.0005456476919987012,-6.96763188847303e-05,0.9999998323151204
2025/04/05 15:12:33.314829333,1743858753,313233918,,-0.0002503510249364436,-0.000382549394750878,-0.00018738070310734246,0.999999877934391
2025/04/05 15:12:33.415346967,1743858753,414218026,,-0.0003462460949114625,-0.0001350994258156964,-0.00031001317520222864,0.9999998828768022
2025/04/05 15:12:33.507749614,1743858753,505462787,,-0.0004464529748801458,0.00015301124269323613,-0.0004371912477806774,0.9999997930655354
2025/04/05 15:12:33.608386757,1743858753,605332537,,-0.0005347813672712787,0.0004411500170897366,-0.0005626414322068396,0.9999996014150058
2025/04/05 15:12:33.711097547,1743858753,709038538,,-0.0005935030603475529,0.000669436772500721,-0.0006848982159002626,0.999999365261278
2025/04/05 15:12:33.814950610,1743858753,811265238,,-0.000609668852694274,0.0008010941780498205,-0.000803901478169128,0.9999991701468663
2025/04/05 15:12:33.912674517,1743858753,909975210,,-0.0005824647828134028,0.0008036682880475837,-0.0009189595499826764,0.9999990851822841
2025/04/05 15:12:34.20135226,1743858754,14306607,,-0.0005180217056278769,0.0006687568710496366,-0.0010300102725570603,0.9999991117479047
2025/04/05 15:12:34.105614514,1743858754,104361809,,-0.00043208252824484156,0.00043608845360552126,-0.001137045486759485,0.9999991651292067
2025/04/05 15:12:34.210720836,1743858754,207393457,,-0.0003448379068047837,0.00014786013694378765,-0.0012400712780260797,0.9999991607233595
2025/04/05 15:12:34.311147174,1743858754,310232737,,-0.000276310536240978,-0.00015359139366249067,-0.0013391084854885238,0.9999990534248697
2025/04/05 15:12:34.421946397,1743858754,412555998,,-0.00024119025570014925,-0.0004066226833869386,-0.0014342931381254112,0.9999988596435737
2025/04/05 15:12:34.512947450,1743858754,508355923,,-0.0002464922936339769,-0.0005648203780365512,-0.0015257369445534625,0.9999986461722165
2025/04/05 15:12:34.616104782,1743858754,610920951,,-0.0002900778902538038,-0.0005977028890063239,-0.001613584583626949,0.9999984774742737
2025/04/05 15:12:34.719194067,1743858754,715766854,,-0.0003604551506408446,-0.0005012911507811274,-0.0016979307000296823,0.9999983679039703
2025/04/05 15:12:34.804679013,1743858754,802608862,,-0.00044096963838711177,-0.00029263020949133644,-0.001778847279425504,0.9999982778063645
2025/04/05 15:12:34.909859933,1743858754,904551020,,-0.0005126005234568202,-1.1349931184795023e-05,-0.0018564539575887092,0.999998145343573
2025/04/05 15:12:35.13789292,1743858755,10517608,,-0.0005590212422042757,0.00030693556255614044,-0.0019309274681290286,0.9999979324003245
2025/04/05 15:12:35.118946259,1743858755,112393608,,-0.0005711038155337113,0.0005808926147421793,-0.00200138199945851,0.999997665434422
2025/04/05 15:12:35.205337878,1743858755,204721635,,-0.0005470690800001609,0.0007902986467734479,-0.002067487801129182,0.9999974008154535
2025/04/05 15:12:35.311081560,1743858755,308664145,,-0.0004890935851108531,0.0008749672779278878,-0.002132088370979427,0.9999972247056018
2025/04/05 15:12:35.414543364,1743858755,412140316,,-0.0004155956200544963,0.0008380055294465171,-0.0021927464199316543,0.9999971584410383
2025/04/05 15:12:35.512714145,1743858755,506317360,,-0.0003293591587616449,0.0006607748813661492,-0.0022595813481110236,0.9999971745916245
2025/04/05 15:12:35.614665736,1743858755,609534554,,-0.0002279016660466681,0.00037820798717810817,-0.002353950685397741,0.9999971319637471
2025/04/05 15:12:35.711762724,1743858755,705181652,,-0.0001841406976757107,4.789549757250651e-05,-0.002442785377264225,0.9999969982944076
2025/04/05 15:12:35.804606301,1743858755,803925569,,-0.00019988680098651895,-0.0002762451445609603,-0.002531459281032936,0.9999967377185764
2025/04/05 15:12:35.909374015,1743858755,906513910,,-0.0002813998795494227,-0.0005266068438472969,-0.0026113085971491397,0.9999964122769393
2025/04/05 15:12:36.22678096,1743858756,13328638,,-0.00040958289984403134,-0.0006616035124014986,-0.0026808979823358175,0.9999961036467336
2025/04/05 15:12:36.116524249,1743858756,113288679,,-0.0005515646254976974,-0.0006539661951011689,-0.0027414347263823493,0.9999958763116579
2025/04/05 15:12:36.212667628,1743858756,208184205,,-0.0006625055339355827,-0.0005129179823045209,-0.002801995167672808,0.999995723403176
2025/04/05 15:12:36.319383277,1743858756,313494217,,-0.0007255840652349297,-0.0002585702300819151,-0.002855167231654652,0.9999956273350797
2025/04/05 15:12:36.417842673,1743858756,414883765,,-0.0007293968401182342,7.981764976402081e-05,-0.002899181167097495,0.9999955281689777
2025/04/05 15:12:36.518010249,1743858756,515365327,,-0.0006755318445604911,0.0004183435736368873,-0.002934444603431292,0.9999953788294478
2025/04/05 15:12:36.606151954,1743858756,603443788,,-0.000577186319439824,0.000712345319955174,-0.0029609025776174834,0.9999951962264737
2025/04/05 15:12:36.709984004,1743858756,708083674,,-0.00045850974914176084,0.0008940124372613298,-0.0029779560391549453,0.9999950611320042
2025/04/05 15:12:36.810510753,1743858756,808540903,,-0.0003470076039286039,0.0009602999388075231,-0.002985604623275244,0.9999950217750005
2025/04/05 15:12:36.914927679,1743858756,912823636,,-0.0002633034952553662,0.0008740733636947682,-0.0029864843291005595,0.9999951237772994
2025/04/05 15:12:37.4777688,1743858757,3456794,,-0.00021003482409354728,0.0006666356453449861,-0.0029931026421733454,0.999995276398275
2025/04/05 15:12:37.111242858,1743858757,108936859,,-0.0002021175108744079,0.0003600255854784659,-0.0030029131164060517,0.9999954060109001
2025/04/05 15:12:37.211497622,1743858757,209795503,,-0.0002571614908902615,2.3075770587802653e-06,-0.0030034508386430343,0.9999954565625299
2025/04/05 15:12:37.305236154,1743858757,304313728,,-0.0003625242691181451,-0.0003239562759494244,-0.0029930004083764577,0.9999954027779533
2025/04/05 15:12:37.420950132,1743858757,407667022,,-0.0004907172203797935,-0.0005658646322891574,-0.0029727472562048095,0.9999953008727482
2025/04/05 15:12:37.521905389,1743858757,508076240,,-0.0005963758432136851,-0.0006915896295484677,-0.002953661917402938,0.9999952209490381
2025/04/05 15:12:37.613308600,1743858757,607956423,,-0.000666108838172367,-0.000670290946115645,-0.0029277066150957443,0.9999952677603225
2025/04/05 15:12:37.727962586,1743858757,712300449,,-0.0006892469022161633,-0.0004952390070777723,-0.002891523274910772,0.9999954593747835
