time,header_stamp_secs,header_stamp_nsecs,header_frame_id,orientation_x,orientation_y,orientation_z,orientation_w,orientation_covariance_0,orientation_covariance_1,orientation_covariance_2,orientation_covariance_3,orientation_covariance_4,orientation_covariance_5,orientation_covariance_6,orientation_covariance_7,orientation_covariance_8,angular_velocity_x,angular_velocity_y,angular_velocity_z,angular_velocity_covariance_0,angular_velocity_covariance_1,angular_velocity_covariance_2,angular_velocity_covariance_3,angular_velocity_covariance_4,angular_velocity_covariance_5,angular_velocity_covariance_6,angular_velocity_covariance_7,angular_velocity_covariance_8,linear_acceleration_x,linear_acceleration_y,linear_acceleration_z,linear_acceleration_covariance_0,linear_acceleration_covariance_1,linear_acceleration_covariance_2,linear_acceleration_covariance_3,linear_acceleration_covariance_4,linear_acceleration_covariance_5,linear_acceleration_covariance_6,linear_acceleration_covariance_7,linear_acceleration_covariance_8
2025/04/09 09:49:46.908133095,1744184986,900982225,mA1/imu,0.7074412772202331,0.7067715600352293,0.00028072288981875504,0.0008499441351556034,0.0,0.0,0.0,0.0,0.0,0.0,0.0,0.0,0.0,-7.318381034036686e-05,2.751404714779672e-06,-5.216244456030563e-06,0.0,0.0,0.0,0.0,0.0,0.0,0.0,0.0,0.0,0.007909563989096898,-0.015645551607259157,9.810171735461921,0.0,0.0,0.0,0.0,0.0,0.0,0.0,0.0,0.0
2025/04/09 09:49:46.950964513,1744184986,949986688,mA1/imu,0.7074411846761681,0.70677165073974,0.00028198298849281534,0.0008511287781305461,0.0,0.0,0.0,0.0,0.0,0.0,0.0,0.0,0.0,-6.603640078414822e-05,1.8532625464719297e-06,-5.1125247788633015e-06,0.0,0.0,0.0,0.0,0.0,0.0,0.0,0.0,0.0,0.00790451356619828,-0.01562595064340583,9.810235994369263,0.0,0.0,0.0,0.0,0.0,0.0,0.0,0.0,0.0
2025/04/09 09:49:47.4971844,1744184987,1429725,mA1/imu,0.7074410940577185,0.7067717397498992,0.00028307275687372975,0.0008521731828657466,0.0,0.0,0.0,0.0,0.0,0.0,0.0,0.0,0.0,-5.6217950238904036e-05,9.829800585580181e-07,-5.018743005608952e-06,0.0,0.0,0.0,0.0,0.0,0.0,0.0,0.0,0.0,0.007901864877139862,-0.015631458365577326,9.810299088574565,0.0,0.0,0.0,0.0,0.0,0.0,0.0,0.0,0.0
2025/04/09 09:49:47.55009440,1744184987,52356590,mA1/imu,0.7074410052214305,0.7067718272870157,0.00028393989988958877,0.0008530315339408429,0.0,0.0,0.0,0.0,0.0,0.0,0.0,0.0,0.0,-4.3567441977228834e-05,-3.4892773440551393e-07,-4.936965237522917e-06,0.0,0.0,0.0,0.0,0.0,0.0,0.0,0.0,0.0,0.00791381465498418,-0.015608595261165368,9.810330761399825,0.0,0.0,0.0,0.0,0.0,0.0,0.0,0.0,0.0
2025/04/09 09:49:47.105021343,1744184987,103566547,mA1/imu,0.7074409180392458,0.7067719135422837,0.0002845491253466182,0.0008536646665520844,0.0,0.0,0.0,0.0,0.0,0.0,0.0,0.0,0.0,-2.9327851980089477e-05,-9.25063084403369e-07,-4.863007451652068e-06,0.0,0.0,0.0,0.0,0.0,0.0,0.0,0.0,0.0,0.007902774410317323,-0.015615965384872041,9.810361645656723,0.0,0.0,0.0,0.0,0.0,0.0,0.0,0.0,0.0
2025/04/09 09:49:47.148488155,1744184987,146501242,mA1/imu,0.70744083241901,0.706771998659676,0.0002848783398562413,0.00085403819385112,0.0,0.0,0.0,0.0,0.0,0.0,0.0,0.0,0.0,-1.3449866856195914e-05,-1.4244939568103869e-06,-4.795698869509233e-06,0.0,0.0,0.0,0.0,0.0,0.0,0.0,0.0,0.0,0.00789969687932018,-0.015594385107532919,9.810356281969446,0.0,0.0,0.0,0.0,0.0,0.0,0.0,0.0,0.0
2025/04/09 09:49:47.203000331,1744184987,197339337,mA1/imu,0.7074407482799977,0.7067720827412366,0.000284913465734543,0.0008541398998825661,0.0,0.0,0.0,0.0,0.0,0.0,0.0,0.0,0.0,2.5266893526277817e-06,-2.1492857225177684e-06,-4.733311686298955e-06,0.0,0.0,0.0,0.0,0.0,0.0,0.0,0.0,0.0,0.00789922048889783,-0.015626342018972127,9.81032471294059,0.0,0.0,0.0,0.0,0.0,0.0,0.0,0.0,0.0
2025/04/09 09:49:47.248990054,1744184987,247205874,mA1/imu,0.707440665556358,0.7067721658591005,0.00028465116676715864,0.0008539658813245491,0.0,0.0,0.0,0.0,0.0,0.0,0.0,0.0,0.0,1.8810537029042876e-05,-2.8001429763535974e-06,-4.674336928368696e-06,0.0,0.0,0.0,0.0,0.0,0.0,0.0,0.0,0.0,0.007906066682460708,-0.01560851837964002,9.810281994402828,0.0,0.0,0.0,0.0,0.0,0.0,0.0,0.0,0.0
2025/04/09 09:49:47.300476890,1744184987,298077161,mA1/imu,0.7074405841888259,0.7067722480485764,0.0002841017298084461,0.0008535321560653882,0.0,0.0,0.0,0.0,0.0,0.0,0.0,0.0,0.0,3.3622658931584566e-05,-3.528304894331294e-06,-4.617063832766727e-06,0.0,0.0,0.0,0.0,0.0,0.0,0.0,0.0,0.0,0.00790583475049321,-0.01564402464708103,9.810209181499642,0.0,0.0,0.0,0.0,0.0,0.0,0.0,0.0,0.0
2025/04/09 09:49:47.349385261,1744184987,347893536,mA1/imu,0.7074405041179931,0.7067723293205622,0.00028330283911810343,0.000852865503926233,0.0,0.0,0.0,0.0,0.0,0.0,0.0,0.0,0.0,4.483931021318308e-05,-3.878406172960199e-06,-4.560648504589084e-06,0.0,0.0,0.0,0.0,0.0,0.0,0.0,0.0,0.0,0.007904530326254856,-0.014768900802591097,9.810147262463474,0.0,0.0,0.0,0.0,0.0,0.0,0.0,0.0,0.0
2025/04/09 09:49:47.405698660,1744184987,399354575,mA1/imu,0.7074404252784482,0.7067724096542365,0.0002823162201304411,0.0008520158121986509,0.0,0.0,0.0,0.0,0.0,0.0,0.0,0.0,0.0,5.4013803992700973e-05,-3.9533853822501016e-06,-4.503249663542624e-06,0.0,0.0,0.0,0.0,0.0,0.0,0.0,0.0,0.0,0.007905129373714,-0.014577955115614563,9.810027711652635,0.0,0.0,0.0,0.0,0.0,0.0,0.0,0.0,0.0
2025/04/09 09:49:47.450406712,1744184987,449170570,mA1/imu,0.7074403476547497,0.7067724890341641,0.00028116421936755345,0.0008510001532190398,0.0,0.0,0.0,0.0,0.0,0.0,0.0,0.0,0.0,6.549679203892846e-05,-3.6703563185179054e-06,-4.4450405188941005e-06,0.0,0.0,0.0,0.0,0.0,0.0,0.0,0.0,0.0,0.007894423032029816,-0.01575292854858749,9.809930779570696,0.0,0.0,0.0,0.0,0.0,0.0,0.0,0.0,0.0
2025/04/09 09:49:47.503490689,1744184987,501340791,mA1/imu,0.7074402712540424,0.7067725674301708,0.0002798730143190992,0.0008498277870310261,0.0,0.0,0.0,0.0,0.0,0.0,0.0,0.0,0.0,7.192971513395155e-05,-3.2570361177014703e-06,-4.3850576837759225e-06,0.0,0.0,0.0,0.0,0.0,0.0,0.0,0.0,0.0,0.007901688101447068,-0.015708145686510327,9.809818144638148,0.0,0.0,0.0,0.0,0.0,0.0,0.0,0.0,0.0
2025/04/09 09:49:47.552122432,1744184987,551177207,mA1/imu,0.7074401960109553,0.7067726447936091,0.0002785092315583728,0.0008485705839204078,0.0,0.0,0.0,0.0,0.0,0.0,0.0,0.0,0.0,7.509610420834389e-05,-2.6889040726983377e-06,-4.323854888149312e-06,0.0,0.0,0.0,0.0,0.0,0.0,0.0,0.0,0.0,0.007890666935250973,-0.015650307332851818,9.809748201492464,0.0,0.0,0.0,0.0,0.0,0.0,0.0,0.0,0.0
2025/04/09 09:49:47.606288379,1744184987,602273913,mA1/imu,0.7074401218885528,0.7067727210616126,0.00027715129484536427,0.0008472854496332865,0.0,0.0,0.0,0.0,0.0,0.0,0.0,0.0,0.0,7.40561213135903e-05,-1.749850259515913e-06,-4.259743444130709e-06,0.0,0.0,0.0,0.0,0.0,0.0,0.0,0.0,0.0,0.00789788105751559,-0.015662317721147005,9.809667550221917,0.0,0.0,0.0,0.0,0.0,0.0,0.0,0.0,0.0
2025/04/09 09:49:47.652846156,1744184987,652041166,mA1/imu,0.7074400488471083,0.7067727961792404,0.00027585894977209,0.0008460319252529361,0.0,0.0,0.0,0.0,0.0,0.0,0.0,0.0,0.0,7.019273524898055e-05,-6.817309444675708e-07,-4.194021793992437e-06,0.0,0.0,0.0,0.0,0.0,0.0,0.0,0.0,0.0,0.007894393142327236,-0.015627853748414702,9.80964345340036,0.0,0.0,0.0,0.0,0.0,0.0,0.0,0.0,0.0
2025/04/09 09:49:47.703932052,1744184987,703385087,mA1/imu,0.7074399768501978,0.7067728700878672,0.00027469278753013403,0.0008448702995834274,0.0,0.0,0.0,0.0,0.0,0.0,0.0,0.0,0.0,6.253874892900353e-05,2.2801545006809251e-07,-4.126195637270944e-06,0.0,0.0,0.0,0.0,0.0,0.0,0.0,0.0,0.0,0.007891530937685461,-0.015646255102110544,9.809614881448036,0.0,0.0,0.0,0.0,0.0,0.0,0.0,0.0,0.0
2025/04/09 09:49:47.754219505,1744184987,753207997,mA1/imu,0.7074399058696063,0.7067729427382106,0.0002737043755306239,0.0008438496829885299,0.0,0.0,0.0,0.0,0.0,0.0,0.0,0.0,0.0,5.2642354603783554e-05,1.2697264263944722e-06,-4.056898148058787e-06,0.0,0.0,0.0,0.0,0.0,0.0,0.0,0.0,0.0,0.007895326196314854,-0.01562180465235967,9.80961785159657,0.0,0.0,0.0,0.0,0.0,0.0,0.0,0.0,0.0
2025/04/09 09:49:47.803845123,1744184987,799774646,mA1/imu,0.7074398358778395,0.7067730140821817,0.00027293962674214097,0.0008430197410299622,0.0,0.0,0.0,0.0,0.0,0.0,0.0,0.0,0.0,3.9809287219376996e-05,2.275381174335121e-06,-3.985633646100727e-06,0.0,0.0,0.0,0.0,0.0,0.0,0.0,0.0,0.0,0.007892821687959874,-0.01565574783957621,9.809644609655294,0.0,0.0,0.0,0.0,0.0,0.0,0.0,0.0,0.0
2025/04/09 09:49:47.850582538,1744184987,849595465,mA1/imu,0.7074397668581761,0.7067730840844085,0.0002724317661168486,0.0008424146224196982,0.0,0.0,0.0,0.0,0.0,0.0,0.0,0.0,0.0,2.573957515453053e-05,2.853432881321844e-06,-3.914173088416185e-06,0.0,0.0,0.0,0.0,0.0,0.0,0.0,0.0,0.0,0.00790506447851759,-0.01564112737136952,9.80968127318854,0.0,0.0,0.0,0.0,0.0,0.0,0.0,0.0,0.0
2025/04/09 09:49:47.905107692,1744184987,902750494,mA1/imu,0.7074396987900208,0.7067731527187826,0.0002721973746778767,0.0008420691340457313,0.0,0.0,0.0,0.0,0.0,0.0,0.0,0.0,0.0,1.0078149238112817e-05,3.273114479038864e-06,-3.84166774752022e-06,0.0,0.0,0.0,0.0,0.0,0.0,0.0,0.0,0.0,0.007901539738629646,-0.015669038657258563,9.809766285783692,0.0,0.0,0.0,0.0,0.0,0.0,0.0,0.0,0.0
2025/04/09 09:49:47.954964284,1744184987,952673767,mA1/imu,0.707439631667597,0.7067732199726758,0.00027224512446412933,0.0008419964743194683,0.0,0.0,0.0,0.0,0.0,0.0,0.0,0.0,0.0,-5.54377752183673e-06,3.5818609489787175e-06,-3.7692863378822047e-06,0.0,0.0,0.0,0.0,0.0,0.0,0.0,0.0,0.0,0.007895665336492377,-0.015650960831483176,9.809842300487814,0.0,0.0,0.0,0.0,0.0,0.0,0.0,0.0,0.0
2025/04/09 09:49:48.5406663,1744184988,3561927,mA1/imu,0.7074395654956964,0.706773285840018,0.000272574684171545,0.0008421978426577041,0.0,0.0,0.0,0.0,0.0,0.0,0.0,0.0,0.0,-2.1228950402420162e-05,3.4859472452903452e-06,-3.6969777771155045e-06,0.0,0.0,0.0,0.0,0.0,0.0,0.0,0.0,0.0,0.00790772891860671,-0.015668399692290468,9.809945829308838,0.0,0.0,0.0,0.0,0.0,0.0,0.0,0.0,0.0
2025/04/09 09:49:48.54265236,1744184988,53436339,mA1/imu,0.7074395002788024,0.7067733503312483,0.0002731626254802363,0.0008426677881638176,0.0,0.0,0.0,0.0,0.0,0.0,0.0,0.0,0.0,-3.55447604450065e-05,3.308583093755451e-06,-3.6253181922818788e-06,0.0,0.0,0.0,0.0,0.0,0.0,0.0,0.0,0.0,0.007901408441192,-0.015651302836360768,9.81004741565696,0.0,0.0,0.0,0.0,0.0,0.0,0.0,0.0,0.0
2025/04/09 09:49:48.105444564,1744184988,104391401,mA1/imu,0.7074394360428329,0.7067734134578135,0.0002739857084664544,0.0008433815393310178,0.0,0.0,0.0,0.0,0.0,0.0,0.0,0.0,0.0,-4.8477967837097944e-05,3.030935416295821e-06,-3.5537660981708777e-06,0.0,0.0,0.0,0.0,0.0,0.0,0.0,0.0,0.0,0.007896600390227517,-0.01565877431172392,9.810151213178141,0.0,0.0,0.0,0.0,0.0,0.0,0.0,0.0,0.0
2025/04/09 09:49:48.156255933,1744184988,154226583,mA1/imu,0.7074393728222028,0.7067734752407058,0.00027500449613148976,0.000844304228951721,0.0,0.0,0.0,0.0,0.0,0.0,0.0,0.0,0.0,-5.887172494053602e-05,2.4220411743480652e-06,-3.483343000172788e-06,0.0,0.0,0.0,0.0,0.0,0.0,0.0,0.0,0.0,0.007906473801136066,-0.01564146170254859,9.810217091603445,0.0,0.0,0.0,0.0,0.0,0.0,0.0,0.0,0.0
2025/04/09 09:49:48.206854100,1744184988,206053873,mA1/imu,0.7074393106513885,0.706773535708279,0.00027616730609988823,0.0008453987963861903,0.0,0.0,0.0,0.0,0.0,0.0,0.0,0.0,0.0,-6.677240014324867e-05,1.7505332187338999e-06,-3.413593030234734e-06,0.0,0.0,0.0,0.0,0.0,0.0,0.0,0.0,0.0,0.007901365434617494,-0.01564207028823596,9.810278486070908,0.0,0.0,0.0,0.0,0.0,0.0,0.0,0.0,0.0
2025/04/09 09:49:48.257621717,1744184988,255782230,mA1/imu,0.707439249574528,0.706773594901618,0.000277424156570018,0.0008466091836310999,0.0,0.0,0.0,0.0,0.0,0.0,0.0,0.0,0.0,-7.137003733055549e-05,1.0330651322721066e-06,-3.345440198695085e-06,0.0,0.0,0.0,0.0,0.0,0.0,0.0,0.0,0.0,0.007903503188962685,-0.015623318969911643,9.810311686736048,0.0,0.0,0.0,0.0,0.0,0.0,0.0,0.0,0.0
2025/04/09 09:49:48.299730422,1744184988,297284576,mA1/imu,0.7074391896149281,0.7067736528842559,0.0002787170071254514,0.0008478811528553371,0.0,0.0,0.0,0.0,0.0,0.0,0.0,0.0,0.0,-7.288921450156886e-05,4.532188421599196e-07,-3.2803239518186204e-06,0.0,0.0,0.0,0.0,0.0,0.0,0.0,0.0,0.0,0.007897747229434619,-0.015621107527856027,9.810331105154374,0.0,0.0,0.0,0.0,0.0,0.0,0.0,0.0,0.0
2025/04/09 09:49:48.349376203,1744184988,348208977,mA1/imu,0.7074391307844401,0.7067737097413188,0.0002799906354579938,0.000849151749587372,0.0,0.0,0.0,0.0,0.0,0.0,0.0,0.0,0.0,-7.089783024584547e-05,-1.3703943463767594e-07,-3.218734426539931e-06,0.0,0.0,0.0,0.0,0.0,0.0,0.0,0.0,0.0,0.007900328214164769,-0.015607602618187274,9.81033773122305,0.0,0.0,0.0,0.0,0.0,0.0,0.0,0.0,0.0
2025/04/09 09:49:48.402063623,1744184988,399250451,mA1/imu,0.7074390730774658,0.7067737655692925,0.00028118574550277197,0.00085036514232941,0.0,0.0,0.0,0.0,0.0,0.0,0.0,0.0,0.0,-6.586441352626217e-05,-6.14699688421918e-07,-3.161884780380427e-06,0.0,0.0,0.0,0.0,0.0,0.0,0.0,0.0,0.0,0.007896437633139892,-0.015620509212183142,9.810300802293938,0.0,0.0,0.0,0.0,0.0,0.0,0.0,0.0,0.0
2025/04/09 09:49:48.449653498,1744184988,449047332,mA1/imu,0.7074390164559484,0.7067738204984544,0.0002822511763248019,0.0008514623493473964,0.0,0.0,0.0,0.0,0.0,0.0,0.0,0.0,0.0,-5.765740888794682e-05,-1.0782937100878385e-06,-3.1115420918982747e-06,0.0,0.0,0.0,0.0,0.0,0.0,0.0,0.0,0.0,0.007900201333520955,-0.015614678247403601,9.810271899807521,0.0,0.0,0.0,0.0,0.0,0.0,0.0,0.0,0.0
2025/04/09 09:49:48.508318868,1744184988,504146867,mA1/imu,0.7074389608666269,0.7067738746567797,0.00028313489506394,0.0008523996838038788,0.0,0.0,0.0,0.0,0.0,0.0,0.0,0.0,0.0,-4.7106226842312064e-05,-1.7082911497249573e-06,-3.067548011790547e-06,0.0,0.0,0.0,0.0,0.0,0.0,0.0,0.0,0.0,0.00789631763589157,-0.015628994845898546,9.810198717011081,0.0,0.0,0.0,0.0,0.0,0.0,0.0,0.0,0.0
2025/04/09 09:49:48.557305848,1744184988,555682209,mA1/imu,0.7074389062506212,0.7067739281740057,0.000283799597670261,0.0008531319936580651,0.0,0.0,0.0,0.0,0.0,0.0,0.0,0.0,0.0,-3.420665814382461e-05,-2.048388613923633e-06,-3.0291551708953608e-06,0.0,0.0,0.0,0.0,0.0,0.0,0.0,0.0,0.0,0.007899702241216581,-0.015616440483722198,9.810145092355718,0.0,0.0,0.0,0.0,0.0,0.0,0.0,0.0,0.0
2025/04/09 09:49:48.599684802,1744184988,596622631,mA1/imu,0.7074388525624725,0.7067739811436881,0.0002842142928775786,0.0008536308509435436,0.0,0.0,0.0,0.0,0.0,0.0,0.0,0.0,0.0,-2.0114539529130703e-05,-2.5208492168814393e-06,-2.9946253271907774e-06,0.0,0.0,0.0,0.0,0.0,0.0,0.0,0.0,0.0,0.00789604554990785,-0.015632621820176378,9.810024059232278,0.0,0.0,0.0,0.0,0.0,0.0,0.0,0.0,0.0
2025/04/09 09:49:48.649238017,1744184988,646486832,mA1/imu,0.7074387997775046,0.7067740336282224,0.00028436240639838166,0.000853871347396876,0.0,0.0,0.0,0.0,0.0,0.0,0.0,0.0,0.0,-4.835826873171255e-06,-2.6959556290162783e-06,-2.962502899836386e-06,0.0,0.0,0.0,0.0,0.0,0.0,0.0,0.0,0.0,0.007899662439453793,-0.015614684577869013,9.809948073350172,0.0,0.0,0.0,0.0,0.0,0.0,0.0,0.0,0.0
2025/04/09 09:49:48.702073685,1744184988,700974912,mA1/imu,0.7074387478741481,0.7067740856635811,0.0002842435510181908,0.000853842064060064,0.0,0.0,0.0,0.0,0.0,0.0,0.0,0.0,0.0,1.0172965144285293e-05,-2.4590882346009925e-06,-2.9311438745336544e-06,0.0,0.0,0.0,0.0,0.0,0.0,0.0,0.0,0.0,0.00789625230552166,-0.01563336126675818,9.809838741997225,0.0,0.0,0.0,0.0,0.0,0.0,0.0,0.0,0.0
2025/04/09 09:49:48.752026403,1744184988,751202744,mA1/imu,0.7074386968272962,0.7067741372699807,0.0002838611167691816,0.0008535458027189853,0.0,0.0,0.0,0.0,0.0,0.0,0.0,0.0,0.0,2.5105080028782708e-05,-2.467365940824909e-06,-2.90131490113414e-06,0.0,0.0,0.0,0.0,0.0,0.0,0.0,0.0,0.0,0.007899732489270362,-0.015609630807765208,9.809769555089115,0.0,0.0,0.0,0.0,0.0,0.0,0.0,0.0,0.0
2025/04/09 09:49:48.806294055,1744184988,803166477,mA1/imu,0.7074386466036927,0.7067741884473873,0.00028322940531101036,0.0008530047928940347,0.0,0.0,0.0,0.0,0.0,0.0,0.0,0.0,0.0,3.833191664068453e-05,-2.594645020870512e-06,-2.8714820553238133e-06,0.0,0.0,0.0,0.0,0.0,0.0,0.0,0.0,0.0,0.007896019069764322,-0.015630868303881083,9.809687755121839,0.0,0.0,0.0,0.0,0.0,0.0,0.0,0.0,0.0
2025/04/09 09:49:48.853582076,1744184988,852874536,mA1/imu,0.7074385971858349,0.7067742391782295,0.00028238334496203055,0.0008522355423181743,0.0,0.0,0.0,0.0,0.0,0.0,0.0,0.0,0.0,5.032067856107226e-05,-1.8583541004579992e-06,-2.840188399336957e-06,0.0,0.0,0.0,0.0,0.0,0.0,0.0,0.0,0.0,0.007890691160641533,-0.015600484782980728,9.809666620553314,0.0,0.0,0.0,0.0,0.0,0.0,0.0,0.0,0.0
2025/04/09 09:49:48.906628368,1744184988,904662112,mA1/imu,0.7074385485488722,0.7067742894277501,0.00028136779075216495,0.0008512714784819325,0.0,0.0,0.0,0.0,0.0,0.0,0.0,0.0,0.0,5.9409544455006334e-05,-1.261941851080328e-06,-2.807538967475531e-06,0.0,0.0,0.0,0.0,0.0,0.0,0.0,0.0,0.0,0.007895309924934691,-0.015625877324699854,9.809635003901272,0.0,0.0,0.0,0.0,0.0,0.0,0.0,0.0,0.0
2025/04/09 09:49:48.954965539,1744184988,954427361,mA1/imu,0.7074385006585334,0.7067743391544364,0.0002802222849717321,0.000850161329781137,0.0,0.0,0.0,0.0,0.0,0.0,0.0,0.0,0.0,6.634445633277251e-05,-9.044753091305517e-07,-2.7740692900800167e-06,0.0,0.0,0.0,0.0,0.0,0.0,0.0,0.0,0.0,0.007898201959239003,-0.015597127104204711,9.809634261922696,0.0,0.0,0.0,0.0,0.0,0.0,0.0,0.0,0.0
2025/04/09 09:49:49.7396234,1744184989,5996159,mA1/imu,0.7074384534797203,0.7067743883053084,0.00027899891936526466,0.0008489602356960898,0.0,0.0,0.0,0.0,0.0,0.0,0.0,0.0,0.0,6.96325100613636e-05,-3.940742482251608e-07,-2.738155660293897e-06,0.0,0.0,0.0,0.0,0.0,0.0,0.0,0.0,0.0,0.007894067402592995,-0.015639652507569993,9.809660007866563,0.0,0.0,0.0,0.0,0.0,0.0,0.0,0.0,0.0
2025/04/09 09:49:49.47971571,1744184989,46535566,mA1/imu,0.7074384069651537,0.7067744368161915,0.0002777731138290639,0.0008477357242799004,0.0,0.0,0.0,0.0,0.0,0.0,0.0,0.0,0.0,6.964972532750944e-05,1.1185441562672709e-07,-2.700486106191586e-06,0.0,0.0,0.0,0.0,0.0,0.0,0.0,0.0,0.0,0.00789753913207146,-0.015668529415568882,9.809699331460354,0.0,0.0,0.0,0.0,0.0,0.0,0.0,0.0,0.0
2025/04/09 09:49:49.98900338,1744184989,97607191,mA1/imu,0.7074383611131118,0.7067744846369081,0.0002765710988215726,0.0008465224477543578,0.0,0.0,0.0,0.0,0.0,0.0,0.0,0.0,0.0,6.696589198036036e-05,3.773744507136513e-07,-2.660738037004167e-06,0.0,0.0,0.0,0.0,0.0,0.0,0.0,0.0,0.0,0.007900739660262756,-0.015679451985346943,9.809771424410867,0.0,0.0,0.0,0.0,0.0,0.0,0.0,0.0,0.0
2025/04/09 09:49:49.149183427,1744184989,147428972,mA1/imu,0.70743831588919,0.7067745317103774,0.0002754520924031033,0.0008453777781395513,0.0,0.0,0.0,0.0,0.0,0.0,0.0,0.0,0.0,6.165681335516377e-05,9.714720302675626e-07,-2.6188443042839864e-06,0.0,0.0,0.0,0.0,0.0,0.0,0.0,0.0,0.0,0.007894629958501993,-0.01564279190756301,9.809847778106008,0.0,0.0,0.0,0.0,0.0,0.0,0.0,0.0,0.0
2025/04/09 09:49:49.204378778,1744184989,200135565,mA1/imu,0.707438271266279,0.7067745779785458,0.0002744750573316394,0.0008443544695812236,0.0,0.0,0.0,0.0,0.0,0.0,0.0,0.0,0.0,5.285163634997223e-05,1.462468274354183e-06,-2.574882502963696e-06,0.0,0.0,0.0,0.0,0.0,0.0,0.0,0.0,0.0,0.007897530993546713,-0.015671035043568277,9.80994984634993,0.0,0.0,0.0,0.0,0.0,0.0,0.0,0.0,0.0
2025/04/09 09:49:49.253585758,1744184989,251631202,mA1/imu,0.707438227217195,0.706774623397985,0.0002736793357279438,0.0008434998815889472,0.0,0.0,0.0,0.0,0.0,0.0,0.0,0.0,0.0,4.225916340894234e-05,1.737374788409032e-06,-2.530025233956907e-06,0.0,0.0,0.0,0.0,0.0,0.0,0.0,0.0,0.0,0.007898977741952848,-0.015643222676846612,9.810034609096332,0.0,0.0,0.0,0.0,0.0,0.0,0.0,0.0,0.0
2025/04/09 09:49:49.304131378,1744184989,302570808,mA1/imu,0.7074381837254506,0.7067746679265791,0.00027310768459478947,0.000842850343871672,0.0,0.0,0.0,0.0,0.0,0.0,0.0,0.0,0.0,2.9190745747704214e-05,2.459543519456522e-06,-2.4828603017683786e-06,0.0,0.0,0.0,0.0,0.0,0.0,0.0,0.0,0.0,0.00789311390617435,-0.015667849742082286,9.810134582418161,0.0,0.0,0.0,0.0,0.0,0.0,0.0,0.0,0.0
2025/04/09 09:49:49.354523106,1744184989,352373043,mA1/imu,0.7074381407784012,0.7067747115388359,0.00027278412751406266,0.0008424310145329403,0.0,0.0,0.0,0.0,0.0,0.0,0.0,0.0,0.0,1.543593451343486e-05,2.6974014892975686e-06,-2.435944240746273e-06,0.0,0.0,0.0,0.0,0.0,0.0,0.0,0.0,0.0,0.007902128392569074,-0.015640023863628717,9.810201180666139,0.0,0.0,0.0,0.0,0.0,0.0,0.0,0.0,0.0
2025/04/09 09:49:49.405302646,1744184989,403351133,mA1/imu,0.7074380983517775,0.7067747542224115,0.00027271364249474166,0.000842271654371282,0.0,0.0,0.0,0.0,0.0,0.0,0.0,0.0,0.0,5.168776206805738e-07,2.453936835555127e-06,-2.389123808477492e-06,0.0,0.0,0.0,0.0,0.0,0.0,0.0,0.0,0.0,0.007895311903273698,-0.01565721071076741,9.810261983205391,0.0,0.0,0.0,0.0,0.0,0.0,0.0,0.0,0.0
2025/04/09 09:49:49.454356722,1744184989,453106326,mA1/imu,0.7074380564481578,0.7067747959742882,0.0002729022950421076,0.0008423708767326275,0.0,0.0,0.0,0.0,0.0,0.0,0.0,0.0,0.0,-1.3881073191611251e-05,2.5619495389601427e-06,-2.342072596197364e-06,0.0,0.0,0.0,0.0,0.0,0.0,0.0,0.0,0.0,0.007895642747571548,-0.015629100600864157,9.810291818733166,0.0,0.0,0.0,0.0,0.0,0.0,0.0,0.0,0.0
2025/04/09 09:49:49.504941085,1744184989,504101299,mA1/imu,0.7074380150675595,0.706774836802839,0.00027334314259188464,0.0008427236308374648,0.0,0.0,0.0,0.0,0.0,0.0,0.0,0.0,0.0,-2.800498715850607e-05,2.349819007411004e-06,-2.2959330404529127e-06,0.0,0.0,0.0,0.0,0.0,0.0,0.0,0.0,0.0,0.007904855598843956,-0.015641136232845212,9.810313585175232,0.0,0.0,0.0,0.0,0.0,0.0,0.0,0.0,0.0
2025/04/09 09:49:49.555191807,1744184989,553918984,mA1/imu,0.707437974206044,0.7067748767360754,0.0002740048502171683,0.0008433192134714087,0.0,0.0,0.0,0.0,0.0,0.0,0.0,0.0,0.0,-4.0373302688856674e-05,1.694024407601718e-06,-2.251729961543643e-06,0.0,0.0,0.0,0.0,0.0,0.0,0.0,0.0,0.0,0.00789723362406654,-0.015619488965802049,9.810310687827462,0.0,0.0,0.0,0.0,0.0,0.0,0.0,0.0,0.0
2025/04/09 09:49:49.605753727,1744184989,604847080,mA1/imu,0.7074379338796105,0.7067749158054468,0.00027486136683838307,0.0008441253343616534,0.0,0.0,0.0,0.0,0.0,0.0,0.0,0.0,0.0,-5.11713491445197e-05,1.262858179790369e-06,-2.208389025042414e-06,0.0,0.0,0.0,0.0,0.0,0.0,0.0,0.0,0.0,0.007899022284915054,-0.01563903953861881,9.810291796451887,0.0,0.0,0.0,0.0,0.0,0.0,0.0,0.0,0.0
2025/04/09 09:49:49.655791915,1744184989,654659811,mA1/imu,0.7074378941065138,0.7067749540530849,0.000275871302063883,0.0008451037958817312,0.0,0.0,0.0,0.0,0.0,0.0,0.0,0.0,0.0,-5.92836746640894e-05,6.643875711579399e-07,-2.1668169605893904e-06,0.0,0.0,0.0,0.0,0.0,0.0,0.0,0.0,0.0,0.007900594210343639,-0.01562872414939816,9.810252324720167,0.0,0.0,0.0,0.0,0.0,0.0,0.0,0.0,0.0
2025/04/09 09:49:49.706822894,1744184989,705734135,mA1/imu,0.7074378549232413,0.7067749915092977,0.00027698789900112134,0.0008462129395774676,0.0,0.0,0.0,0.0,0.0,0.0,0.0,0.0,0.0,-6.500401799676792e-05,3.026686301168005e-08,-2.125597419461851e-06,0.0,0.0,0.0,0.0,0.0,0.0,0.0,0.0,0.0,0.00789437991675675,-0.015643367245515846,9.8101859184097,0.0,0.0,0.0,0.0,0.0,0.0,0.0,0.0,0.0
2025/04/09 09:49:49.747822647,1744184989,746480474,mA1/imu,0.7074378163802132,0.7067750282103294,0.00027816488404197327,0.0008473947020084798,0.0,0.0,0.0,0.0,0.0,0.0,0.0,0.0,0.0,-6.745689947859232e-05,-2.1147223733862947e-07,-2.0857443553620857e-06,0.0,0.0,0.0,0.0,0.0,0.0,0.0,0.0,0.0,0.007895904633295934,-0.015629560735807888,9.810130001660474,0.0,0.0,0.0,0.0,0.0,0.0,0.0,0.0,0.0
2025/04/09 09:49:49.800678982,1744184989,796843415,mA1/imu,0.7074377784926288,0.7067750642249784,0.0002793494254761035,0.0008485959525326536,0.0,0.0,0.0,0.0,0.0,0.0,0.0,0.0,0.0,-6.708314789932791e-05,-6.107249748723858e-07,-2.0490896355618943e-06,0.0,0.0,0.0,0.0,0.0,0.0,0.0,0.0,0.0,0.007898025461423154,-0.01563984227883954,9.810023302862437,0.0,0.0,0.0,0.0,0.0,0.0,0.0,0.0,0.0
2025/04/09 09:49:49.847436875,1744184989,846775947,mA1/imu,0.7074377412635043,0.7067750996362192,0.00028048386258010765,0.0008497640888684302,0.0,0.0,0.0,0.0,0.0,0.0,0.0,0.0,0.0,-6.342933889985058e-05,-1.146179426717112e-06,-2.016299936738013e-06,0.0,0.0,0.0,0.0,0.0,0.0,0.0,0.0,0.0,0.00789960807734071,-0.015623867493518236,9.809939747385133,0.0,0.0,0.0,0.0,0.0,0.0,0.0,0.0,0.0
2025/04/09 09:49:49.899765983,1744184989,897840272,mA1/imu,0.7074377046854786,0.7067751345315044,0.0002815148611055745,0.0008508505734855835,0.0,0.0,0.0,0.0,0.0,0.0,0.0,0.0,0.0,-5.717432290243058e-05,-1.8191383356854535e-06,-1.987492058099595e-06,0.0,0.0,0.0,0.0,0.0,0.0,0.0,0.0,0.0,0.007901840994410686,-0.015632169552576257,9.809842850880344,0.0,0.0,0.0,0.0,0.0,0.0,0.0,0.0,0.0
2025/04/09 09:49:49.953094937,1744184989,951093738,mA1/imu,0.7074376687378154,0.7067751690102482,0.00028239275504518617,0.0008518072971476782,0.0,0.0,0.0,0.0,0.0,0.0,0.0,0.0,0.0,-4.8053119607970056e-05,-2.341042407393124e-06,-1.9635585221897966e-06,0.0,0.0,0.0,0.0,0.0,0.0,0.0,0.0,0.0,0.007895653586343487,-0.0156126212170705,9.809780958851649,0.0,0.0,0.0,0.0,0.0,0.0,0.0,0.0,0.0
2025/04/09 09:49:50.7101905,1744184990,3563985,mA1/imu,0.7074376333938599,0.7067752031721377,0.00028308739919386406,0.0008525846599249196,0.0,0.0,0.0,0.0,0.0,0.0,0.0,0.0,0.0,-3.71117667021988e-05,-2.1866017511506283e-06,-1.942823830961431e-06,0.0,0.0,0.0,0.0,0.0,0.0,0.0,0.0,0.0,0.007890434208514237,-0.015621885095494895,9.809709102007297,0.0,0.0,0.0,0.0,0.0,0.0,0.0,0.0,0.0
2025/04/09 09:49:50.59669228,1744184990,53769331,mA1/imu,0.7074375986505342,0.7067752370824997,0.00028357226788285506,0.0008531408507105948,0.0,0.0,0.0,0.0,0.0,0.0,0.0,0.0,0.0,-2.4148569152566144e-05,-1.897586975456275e-06,-1.9243734436912353e-06,0.0,0.0,0.0,0.0,0.0,0.0,0.0,0.0,0.0,0.007892575488258228,-0.015595512156022926,9.80967888592045,0.0,0.0,0.0,0.0,0.0,0.0,0.0,0.0,0.0
2025/04/09 09:49:50.106810135,1744184990,105130645,mA1/imu,0.7074375644972892,0.7067752707855622,0.0002838240023682893,0.0008534565451592375,0.0,0.0,0.0,0.0,0.0,0.0,0.0,0.0,0.0,-1.0556309207533017e-05,-1.7533995418463697e-06,-1.907720764379983e-06,0.0,0.0,0.0,0.0,0.0,0.0,0.0,0.0,0.0,0.00789540050275073,-0.015610478191693415,9.809659025099158,0.0,0.0,0.0,0.0,0.0,0.0,0.0,0.0,0.0
2025/04/09 09:49:50.156707414,1744184990,154924665,mA1/imu,0.7074375309230755,0.7067753043128856,0.00028382659293831004,0.0008535205655379821,0.0,0.0,0.0,0.0,0.0,0.0,0.0,0.0,0.0,3.914784808223454e-06,-1.740917694288082e-06,-1.892582655882133e-06,0.0,0.0,0.0,0.0,0.0,0.0,0.0,0.0,0.0,0.007897557284223266,-0.015587645247777634,9.809658595481734,0.0,0.0,0.0,0.0,0.0,0.0,0.0,0.0,0.0
2025/04/09 09:49:50.207120124,1744184990,206060889,mA1/imu,0.7074374979147003,0.7067753376755953,0.0002835820790169069,0.0008533340149386223,0.0,0.0,0.0,0.0,0.0,0.0,0.0,0.0,0.0,1.7624816387462575e-05,-1.4615670101539403e-06,-1.8772606024398494e-06,0.0,0.0,0.0,0.0,0.0,0.0,0.0,0.0,0.0,0.007892234854566808,-0.015620697588315522,9.809687308943008,0.0,0.0,0.0,0.0,0.0,0.0,0.0,0.0,0.0
2025/04/09 09:49:50.247732166,1744184990,246450646,mA1/imu,0.7074374654657826,0.7067753708699173,0.000283105812214547,0.000852899841667721,0.0,0.0,0.0,0.0,0.0,0.0,0.0,0.0,0.0,3.101268278482322e-05,-1.046699921234022e-06,-1.8618186845478253e-06,0.0,0.0,0.0,0.0,0.0,0.0,0.0,0.0,0.0,0.007894530963564175,-0.015602534589282974,9.80972257029186,0.0,0.0,0.0,0.0,0.0,0.0,0.0,0.0,0.0
2025/04/09 09:49:50.299995084,1744184990,296683551,mA1/imu,0.7074374335573989,0.7067754038758661,0.0002824226986434501,0.0008522413077163532,0.0,0.0,0.0,0.0,0.0,0.0,0.0,0.0,0.0,4.233454184382842e-05,-3.7154205086493666e-07,-1.8450033050813227e-06,0.0,0.0,0.0,0.0,0.0,0.0,0.0,0.0,0.0,0.00788897254322356,-0.01563916647796013,9.809793376468246,0.0,0.0,0.0,0.0,0.0,0.0,0.0,0.0,0.0
2025/04/09 09:49:50.347525000,1744184990,346494410,mA1/imu,0.7074374021775219,0.7067754366624774,0.0002815679583504975,0.0008513814470937503,0.0,0.0,0.0,0.0,0.0,0.0,0.0,0.0,0.0,5.230881588364244e-05,4.341842580255731e-07,-1.8270817992200428e-06,0.0,0.0,0.0,0.0,0.0,0.0,0.0,0.0,0.0,0.007890560823939267,-0.015613219609879903,9.809862928400536,0.0,0.0,0.0,0.0,0.0,0.0,0.0,0.0,0.0
2025/04/09 09:49:50.400959892,1744184990,397479148,mA1/imu,0.7074373712483778,0.7067754691710986,0.00028062225923551696,0.000850405965390201,0.0,0.0,0.0,0.0,0.0,0.0,0.0,0.0,0.0,5.763712863636333e-05,1.0377858968653821e-06,-1.8075665624208154e-06,0.0,0.0,0.0,0.0,0.0,0.0,0.0,0.0,0.0,0.007893194760826233,-0.015759255862952612,9.809959249263255,0.0,0.0,0.0,0.0,0.0,0.0,0.0,0.0,0.0
2025/04/09 09:49:50.451031529,1744184990,449768122,mA1/imu,0.7074373408243885,0.7067755013788927,0.00027956039848289456,0.000849296129998724,0.0,0.0,0.0,0.0,0.0,0.0,0.0,0.0,0.0,6.346208247130207e-05,1.5117458374717307e-06,-1.7866961369272283e-06,0.0,0.0,0.0,0.0,0.0,0.0,0.0,0.0,0.0,0.007893632787927884,-0.015667956511582454,9.810040934913266,0.0,0.0,0.0,0.0,0.0,0.0,0.0,0.0,0.0
2025/04/09 09:49:50.503441168,1744184990,500710613,mA1/imu,0.7074373108175143,0.7067755332153627,0.00027847350736944626,0.0008481532463189686,0.0,0.0,0.0,0.0,0.0,0.0,0.0,0.0,0.0,6.360401730294213e-05,1.4178907616844122e-06,-1.7643991268218934e-06,0.0,0.0,0.0,0.0,0.0,0.0,0.0,0.0,0.0,0.007903377767774441,-0.0157831883953209,9.810127211705066,0.0,0.0,0.0,0.0,0.0,0.0,0.0,0.0,0.0
2025/04/09 09:49:50.555255953,1744184990,550893185,mA1/imu,0.7074372812423589,0.706775564641335,0.00027736711003687993,0.0008469957663413337,0.0,0.0,0.0,0.0,0.0,0.0,0.0,0.0,0.0,6.380542849276907e-05,1.496436553992024e-06,-1.7400824033227508e-06,0.0,0.0,0.0,0.0,0.0,0.0,0.0,0.0,0.0,0.007895215827209335,-0.015679766760563603,9.810191790543216,0.0,0.0,0.0,0.0,0.0,0.0,0.0,0.0,0.0
2025/04/09 09:49:50.603604086,1744184990,601926613,mA1/imu,0.7074372520718504,0.7067755955972566,0.000276303686178444,0.0008458755499138615,0.0,0.0,0.0,0.0,0.0,0.0,0.0,0.0,0.0,5.997707188713505e-05,1.620632378582559e-06,-1.7134621098482733e-06,0.0,0.0,0.0,0.0,0.0,0.0,0.0,0.0,0.0,0.007895834320853523,-0.015670791374731607,9.810252151895778,0.0,0.0,0.0,0.0,0.0,0.0,0.0,0.0,0.0
2025/04/09 09:49:50.652814052,1744184990,651707116,mA1/imu,0.7074372232735163,0.7067756260290082,0.0002753352872488079,0.0008448484126723077,0.0,0.0,0.0,0.0,0.0,0.0,0.0,0.0,0.0,5.371893880160506e-05,1.6369709229847117e-06,-1.6853331691928973e-06,0.0,0.0,0.0,0.0,0.0,0.0,0.0,0.0,0.0,0.007895700141241921,-0.015629140803831116,9.810276399722454,0.0,0.0,0.0,0.0,0.0,0.0,0.0,0.0,0.0
2025/04/09 09:49:50.704976875,1744184990,703584142,mA1/imu,0.7074371948189339,0.7067756558865851,0.00027450950099601874,0.0008439652475720574,0.0,0.0,0.0,0.0,0.0,0.0,0.0,0.0,0.0,4.4445876300261947e-05,1.5642612881192745e-06,-1.6554477745717567e-06,0.0,0.0,0.0,0.0,0.0,0.0,0.0,0.0,0.0,0.00789633023960048,-0.015644368431125346,9.810294769934279,0.0,0.0,0.0,0.0,0.0,0.0,0.0,0.0,0.0
2025/04/09 09:49:50.754822571,1744184990,753398597,mA1/imu,0.7074371666876229,0.7067756851307968,0.00027386212705809813,0.0008432653298879347,0.0,0.0,0.0,0.0,0.0,0.0,0.0,0.0,0.0,3.3645055804724096e-05,1.3930433605120723e-06,-1.6245753304118037e-06,0.0,0.0,0.0,0.0,0.0,0.0,0.0,0.0,0.0,0.007896551383765306,-0.015621342807233315,9.810295220319842,0.0,0.0,0.0,0.0,0.0,0.0,0.0,0.0,0.0
2025/04/09 09:49:50.805455848,1744184990,804759301,mA1/imu,0.7074371388694539,0.7067757137264673,0.00027342986992593185,0.0008427756225664511,0.0,0.0,0.0,0.0,0.0,0.0,0.0,0.0,0.0,2.0882799088208232e-05,1.6566459776964995e-06,-1.5917674037343716e-06,0.0,0.0,0.0,0.0,0.0,0.0,0.0,0.0,0.0,0.007897326333403691,-0.015648124476116094,9.810266886443474,0.0,0.0,0.0,0.0,0.0,0.0,0.0,0.0,0.0
2025/04/09 09:49:50.854941377,1744184990,854329315,mA1/imu,0.7074371113482729,0.706775741656886,0.00027322553110166074,0.0008425202546174617,0.0,0.0,0.0,0.0,0.0,0.0,0.0,0.0,0.0,7.66059980499252e-06,1.2792146196926357e-06,-1.559639109210936e-06,0.0,0.0,0.0,0.0,0.0,0.0,0.0,0.0,0.0,0.007897749081240671,-0.01563583370407347,9.810240075791102,0.0,0.0,0.0,0.0,0.0,0.0,0.0,0.0,0.0
2025/04/09 09:49:50.906080502,1744184990,905310374,mA1/imu,0.7074370841114545,0.7067757689144621,0.0002732552394528456,0.0008425145863773019,0.0,0.0,0.0,0.0,0.0,0.0,0.0,0.0,0.0,-6.233693011135706e-06,8.062880646691316e-07,-1.52740204630223e-06,0.0,0.0,0.0,0.0,0.0,0.0,0.0,0.0,0.0,0.007898312952994604,-0.015656592551341685,9.810168061348282,0.0,0.0,0.0,0.0,0.0,0.0,0.0,0.0,0.0
2025/04/09 09:49:50.956024334,1744184990,955103957,mA1/imu,0.7074370571558136,0.7067757955052003,0.0002735149672945124,0.0008427575428583768,0.0,0.0,0.0,0.0,0.0,0.0,0.0,0.0,0.0,-1.9458543660985326e-05,2.5579928175195904e-07,-1.4958660986907384e-06,0.0,0.0,0.0,0.0,0.0,0.0,0.0,0.0,0.0,0.007898691341627788,-0.015641947064610494,9.810105181396384,0.0,0.0,0.0,0.0,0.0,0.0,0.0,0.0,0.0
2025/04/09 09:49:51.291924,1744184990,996655730,mA1/imu,0.7074370304808222,0.7067758214459143,0.00027399203961717714,0.0008432391662247105,0.0,0.0,0.0,0.0,0.0,0.0,0.0,0.0,0.0,-3.204983802872484e-05,-3.713821149072133e-07,-1.4652158481361468e-06,0.0,0.0,0.0,0.0,0.0,0.0,0.0,0.0,0.0,0.007899495668335466,-0.015654682909233584,9.81000854248427,0.0,0.0,0.0,0.0,0.0,0.0,0.0,0.0,0.0
2025/04/09 09:49:51.48793706,1744184991,46491573,mA1/imu,0.7074370040915097,0.7067758467665692,0.0002746619161824861,0.0008439373554812531,0.0,0.0,0.0,0.0,0.0,0.0,0.0,0.0,0.0,-4.289997699011061e-05,-1.0636647276445778e-06,-1.4361069869049366e-06,0.0,0.0,0.0,0.0,0.0,0.0,0.0,0.0,0.0,0.007900302301168572,-0.01564057454682639,9.809932067265756,0.0,0.0,0.0,0.0,0.0,0.0,0.0,0.0,0.0
2025/04/09 09:49:51.100089103,1744184991,97546391,mA1/imu,0.7074369779965034,0.7067758715059876,0.00027549293225788136,0.0008448217391681514,0.0,0.0,0.0,0.0,0.0,0.0,0.0,0.0,0.0,-5.1966908224787746e-05,-1.684625712704051e-06,-1.4083453239101942e-06,0.0,0.0,0.0,0.0,0.0,0.0,0.0,0.0,0.0,0.007893426782148088,-0.015645124884529005,9.80983644733786,0.0,0.0,0.0,0.0,0.0,0.0,0.0,0.0,0.0
2025/04/09 09:49:51.148799532,1744184991,147403480,mA1/imu,0.7074369522317872,0.7067758956974629,0.00027645201696318336,0.0008458441532091199,0.0,0.0,0.0,0.0,0.0,0.0,0.0,0.0,0.0,-5.84284491558649e-05,-1.8260172962550145e-06,-1.3810894044903058e-06,0.0,0.0,0.0,0.0,0.0,0.0,0.0,0.0,0.0,0.007894881856817908,-0.015630728123835643,9.80978244047776,0.0,0.0,0.0,0.0,0.0,0.0,0.0,0.0,0.0
2025/04/09 09:49:51.201930316,1744184991,200410158,mA1/imu,0.7074369268270295,0.706775919388999,0.0002775029451479651,0.0008469506945083325,0.0,0.0,0.0,0.0,0.0,0.0,0.0,0.0,0.0,-6.237690586442222e-05,-1.3657120388117165e-06,-1.355127309563767e-06,0.0,0.0,0.0,0.0,0.0,0.0,0.0,0.0,0.0,0.007888561456971097,-0.015630298945935133,9.809712709162785,0.0,0.0,0.0,0.0,0.0,0.0,0.0,0.0,0.0
2025/04/09 09:49:51.251007229,1744184991,250283575,mA1/imu,0.7074369018029938,0.7067759426417292,0.00027859900792993317,0.0008480877721528677,0.0,0.0,0.0,0.0,0.0,0.0,0.0,0.0,0.0,-6.3311955952116e-05,-9.825730051287348e-07,-1.3318358666799898e-06,0.0,0.0,0.0,0.0,0.0,0.0,0.0,0.0,0.0,0.007889811695848991,-0.015613707725532028,9.809687659418618,0.0,0.0,0.0,0.0,0.0,0.0,0.0,0.0,0.0
2025/04/09 09:49:51.304859551,1744184991,301318693,mA1/imu,0.707436877159807,0.7067759655341842,0.00027968864962512577,0.0008492066067923461,0.0,0.0,0.0,0.0,0.0,0.0,0.0,0.0,0.0,-6.151379222397325e-05,-6.811404213043681e-07,-1.3124840163177284e-06,0.0,0.0,0.0,0.0,0.0,0.0,0.0,0.0,0.0,0.007891319010875895,-0.015613242049413481,9.809673124412315,0.0,0.0,0.0,0.0,0.0,0.0,0.0,0.0,0.0
2025/04/09 09:49:51.355642822,1744184991,354613951,mA1/imu,0.7074368529002919,0.7067759881442387,0.00028071948906523646,0.0008502575103651061,0.0,0.0,0.0,0.0,0.0,0.0,0.0,0.0,0.0,-5.676454097484611e-05,-4.544479757388065e-07,-1.296042290985992e-06,0.0,0.0,0.0,0.0,0.0,0.0,0.0,0.0,0.0,0.007892370018953862,-0.015603401179475415,9.809677655134632,0.0,0.0,0.0,0.0,0.0,0.0,0.0,0.0,0.0
2025/04/09 09:49:51.406249607,1744184991,405569587,mA1/imu,0.7074368290313197,0.7067760105386923,0.00028164388634533994,0.0008511955374812439,0.0,0.0,0.0,0.0,0.0,0.0,0.0,0.0,0.0,-4.963962670388732e-05,-3.067984743061183e-07,-1.2823239487304378e-06,0.0,0.0,0.0,0.0,0.0,0.0,0.0,0.0,0.0,0.007893700460856374,-0.015616196431636484,9.80970658956786,0.0,0.0,0.0,0.0,0.0,0.0,0.0,0.0,0.0
2025/04/09 09:49:51.457255957,1744184991,455427244,mA1/imu,0.7074368055584931,0.7067760327797261,0.000282418195043925,0.0008519796416588879,0.0,0.0,0.0,0.0,0.0,0.0,0.0,0.0,0.0,-4.0096473388042386e-05,-2.3143459697350298e-07,-1.2711574539524914e-06,0.0,0.0,0.0,0.0,0.0,0.0,0.0,0.0,0.0,0.007894734413101527,-0.015610743647522822,9.809740378077871,0.0,0.0,0.0,0.0,0.0,0.0,0.0,0.0,0.0
2025/04/09 09:49:51.499752556,1744184991,497810564,mA1/imu,0.7074367824838496,0.706776054919863,0.00028300711757557763,0.0008525771427901579,0.0,0.0,0.0,0.0,0.0,0.0,0.0,0.0,0.0,-2.8999634294507415e-05,-2.3160802151384726e-07,-1.2620340554128537e-06,0.0,0.0,0.0,0.0,0.0,0.0,0.0,0.0,0.0,0.007895920347131848,-0.015625936495065655,9.809816501178371,0.0,0.0,0.0,0.0,0.0,0.0,0.0,0.0,0.0
2025/04/09 09:49:51.547003316,1744184991,546150276,mA1/imu,0.7074367598080851,0.7067760770013303,0.000283382713326802,0.000852962534527271,0.0,0.0,0.0,0.0,0.0,0.0,0.0,0.0,0.0,-1.64059450300017e-05,-2.979020540160345e-07,-1.2546141496316356e-06,0.0,0.0,0.0,0.0,0.0,0.0,0.0,0.0,0.0,0.007896750671124192,-0.015613720881579592,9.809884857984574,0.0,0.0,0.0,0.0,0.0,0.0,0.0,0.0,0.0
2025/04/09 09:49:51.600052007,1744184991,598083863,mA1/imu,0.7074367375273634,0.7067760990520023,0.0002835286924950198,0.0008531218876260405,0.0,0.0,0.0,0.0,0.0,0.0,0.0,0.0,0.0,-3.414591293780901e-06,-4.3191512041511533e-07,-1.2482021878290064e-06,0.0,0.0,0.0,0.0,0.0,0.0,0.0,0.0,0.0,0.007897860427649122,-0.0156307027575047,9.809971443542098,0.0,0.0,0.0,0.0,0.0,0.0,0.0,0.0,0.0
2025/04/09 09:49:51.649131290,1744184991,647889968,mA1/imu,0.7074367156364316,0.7067761210875827,0.00028343707753231227,0.0008530494431324343,0.0,0.0,0.0,0.0,0.0,0.0,0.0,0.0,0.0,9.990570724457622e-06,-6.25796804759122e-07,-1.2424686568281193e-06,0.0,0.0,0.0,0.0,0.0,0.0,0.0,0.0,0.0,0.007898735433223798,-0.015613251921760215,9.81004988210024,0.0,0.0,0.0,0.0,0.0,0.0,0.0,0.0,0.0
2025/04/09 09:49:51.704398615,1744184991,702412487,mA1/imu,0.7074366941250173,0.7067761431072521,0.0002831137852397228,0.0008527523019989866,0.0,0.0,0.0,0.0,0.0,0.0,0.0,0.0,0.0,2.2475312986816536e-05,-7.449291310167047e-07,-1.2363669759008522e-06,0.0,0.0,0.0,0.0,0.0,0.0,0.0,0.0,0.0,0.007891737616046378,-0.01563221195683599,9.810135753946014,0.0,0.0,0.0,0.0,0.0,0.0,0.0,0.0,0.0
2025/04/09 09:49:51.753146960,1744184991,752298452,mA1/imu,0.7074366729916872,0.7067761650963359,0.00028257983272427217,0.0008522363567695834,0.0,0.0,0.0,0.0,0.0,0.0,0.0,0.0,0.0,3.43362898609769e-05,-3.8271608337653426e-07,-1.2291090743058593e-06,0.0,0.0,0.0,0.0,0.0,0.0,0.0,0.0,0.0,0.007892750794072515,-0.01560966813231715,9.810187989770847,0.0,0.0,0.0,0.0,0.0,0.0,0.0,0.0,0.0
2025/04/09 09:49:51.804161212,1744184991,803271760,mA1/imu,0.7074366522222081,0.7067761870272399,0.00028186325237282314,0.0008515262636003469,0.0,0.0,0.0,0.0,0.0,0.0,0.0,0.0,0.0,4.410231522490558e-05,-8.910148054179902e-08,-1.2207086595352412e-06,0.0,0.0,0.0,0.0,0.0,0.0,0.0,0.0,0.0,0.007893870519855328,-0.01563123782111051,9.810247023794927,0.0,0.0,0.0,0.0,0.0,0.0,0.0,0.0,0.0
2025/04/09 09:49:51.853829233,1744184991,853016148,mA1/imu,0.7074366317986829,0.7067762088652444,0.00028099449380957186,0.0008506547488776661,0.0,0.0,0.0,0.0,0.0,0.0,0.0,0.0,0.0,5.2347291868093135e-05,1.4454786006741435e-07,-1.2111999154696092e-06,0.0,0.0,0.0,0.0,0.0,0.0,0.0,0.0,0.0,0.007894382595278223,-0.01560220392017263,9.810265269424077,0.0,0.0,0.0,0.0,0.0,0.0,0.0,0.0,0.0
2025/04/09 09:49:51.904798113,1744184991,904030675,mA1/imu,0.7074366116984921,0.7067762305647882,0.00028001383769670504,0.0008496643083451343,0.0,0.0,0.0,0.0,0.0,0.0,0.0,0.0,0.0,5.767500088732756e-05,3.1510864839159354e-07,-1.1998482650845942e-06,0.0,0.0,0.0,0.0,0.0,0.0,0.0,0.0,0.0,0.007895133908767445,-0.01562720442602489,9.810278338056117,0.0,0.0,0.0,0.0,0.0,0.0,0.0,0.0,0.0
2025/04/09 09:49:51.956481263,1744184991,954580174,mA1/imu,0.7074365919004608,0.7067762520764915,0.00027896330584593437,0.0008485991058851742,0.0,0.0,0.0,0.0,0.0,0.0,0.0,0.0,0.0,6.0922552042814135e-05,4.28813949007694e-07,-1.1868587451207443e-06,0.0,0.0,0.0,0.0,0.0,0.0,0.0,0.0,0.0,0.0078955260378323,-0.015604240875509658,9.810274290562587,0.0,0.0,0.0,0.0,0.0,0.0,0.0,0.0,0.0
2025/04/09 09:49:52.7443801,1744184992,5495222,mA1/imu,0.7074365723793287,0.7067762733431976,0.0002778926970148653,0.00084751102492331,0.0,0.0,0.0,0.0,0.0,0.0,0.0,0.0,0.0,6.077377613710061e-05,4.846054312220875e-07,-1.1716214035798628e-06,0.0,0.0,0.0,0.0,0.0,0.0,0.0,0.0,0.0,0.007896073587547972,-0.01564161969204536,9.81025040736672,0.0,0.0,0.0,0.0,0.0,0.0,0.0,0.0,0.0
2025/04/09 09:49:52.56158469,1744184992,55316930,mA1/imu,0.707436553113567,0.7067762943108492,0.00027684798681276967,0.0008464479966497889,0.0,0.0,0.0,0.0,0.0,0.0,0.0,0.0,0.0,5.848447489152185e-05,4.881156337905948e-07,-1.154650579995167e-06,0.0,0.0,0.0,0.0,0.0,0.0,0.0,0.0,0.0,0.007896445955355566,-0.015622025118451578,9.810211711439255,0.0,0.0,0.0,0.0,0.0,0.0,0.0,0.0,0.0
2025/04/09 09:49:52.107280000,1744184992,106348408,mA1/imu,0.7074365340792339,0.7067763149237695,0.0002758780638541089,0.0008454608395986357,0.0,0.0,0.0,0.0,0.0,0.0,0.0,0.0,0.0,5.293012414126593e-05,4.391963235811289e-07,-1.1355270367837043e-06,0.0,0.0,0.0,0.0,0.0,0.0,0.0,0.0,0.0,0.007896830315902425,-0.01565728267119836,9.81015203126346,0.0,0.0,0.0,0.0,0.0,0.0,0.0,0.0,0.0
2025/04/09 09:49:52.146867839,1744184992,146069820,mA1/imu,0.7074365152576131,0.7067763351337829,0.00027502428326687574,0.0008445926043764021,0.0,0.0,0.0,0.0,0.0,0.0,0.0,0.0,0.0,4.5589651699162476e-05,3.4636688296775665e-07,-1.114919865388341e-06,0.0,0.0,0.0,0.0,0.0,0.0,0.0,0.0,0.0,0.007897011226417165,-0.015633382353512304,9.810091217246349,0.0,0.0,0.0,0.0,0.0,0.0,0.0,0.0,0.0
2025/04/09 09:49:52.200704453,1744184992,198398213,mA1/imu,0.707436496629075,0.7067763548960516,0.0002743267626074274,0.0008438849791818953,0.0,0.0,0.0,0.0,0.0,0.0,0.0,0.0,0.0,3.561061567846244e-05,2.1064895274511607e-07,-1.0926412788335646e-06,0.0,0.0,0.0,0.0,0.0,0.0,0.0,0.0,0.0,0.007897318899350162,-0.015662757795450316,9.809995399822428,0.0,0.0,0.0,0.0,0.0,0.0,0.0,0.0,0.0
2025/04/09 09:49:52.249250310,1744184992,248316268,mA1/imu,0.7074364781805212,0.706776374177851,0.00027381402723048224,0.0008433679088339096,0.0,0.0,0.0,0.0,0.0,0.0,0.0,0.0,0.0,2.46180277378432e-05,3.780551040362829e-08,-1.0694803063918588e-06,0.0,0.0,0.0,0.0,0.0,0.0,0.0,0.0,0.0,0.007897532554968535,-0.015637874223539648,9.809922911116924,0.0,0.0,0.0,0.0,0.0,0.0,0.0,0.0,0.0
2025/04/09 09:49:52.300810847,1744184992,299453961,mA1/imu,0.7074364598990879,0.706776392954011,0.0002735096869997599,0.0008430663170009221,0.0,0.0,0.0,0.0,0.0,0.0,0.0,0.0,0.0,1.20471818410287e-05,-1.7114043797998714e-07,-1.0454798687788928e-06,0.0,0.0,0.0,0.0,0.0,0.0,0.0,0.0,0.0,0.007897898909085677,-0.01565950479666549,9.809840455908704,0.0,0.0,0.0,0.0,0.0,0.0,0.0,0.0,0.0
2025/04/09 09:49:52.350401821,1744184992,349244650,mA1/imu,0.7074364417845083,0.7067764112111435,0.0002734290468782996,0.0008429871450313562,0.0,0.0,0.0,0.0,0.0,0.0,0.0,0.0,0.0,-5.300626057902076e-07,1.2772256593653113e-07,-1.020539387540588e-06,0.0,0.0,0.0,0.0,0.0,0.0,0.0,0.0,0.0,0.007890111413649165,-0.015634396150131718,9.809779278497023,0.0,0.0,0.0,0.0,0.0,0.0,0.0,0.0,0.0
2025/04/09 09:49:52.402673430,1744184992,401554920,mA1/imu,0.7074364238402052,0.7067764289446387,0.0002735826954275922,0.0008431280770996696,0.0,0.0,0.0,0.0,0.0,0.0,0.0,0.0,0.0,-1.3476208594824493e-05,5.134229273151786e-07,-9.954979163830057e-07,0.0,0.0,0.0,0.0,0.0,0.0,0.0,0.0,0.0,0.007890819729396502,-0.015648389598447405,9.809719669416438,0.0,0.0,0.0,0.0,0.0,0.0,0.0,0.0,0.0
2025/04/09 09:49:52.452248017,1744184992,451466416,mA1/imu,0.7074364060680082,0.7067764461665403,0.0002739603794566397,0.000843480578388772,0.0,0.0,0.0,0.0,0.0,0.0,0.0,0.0,0.0,-2.5317902512973767e-05,8.59826846333822e-07,-9.712869902343439e-07,0.0,0.0,0.0,0.0,0.0,0.0,0.0,0.0,0.0,0.007890554722078915,-0.015622780831217955,9.809699054017592,0.0,0.0,0.0,0.0,0.0,0.0,0.0,0.0,0.0
2025/04/09 09:49:52.503555916,1744184992,502457556,mA1/imu,0.7074363937282476,0.7067764580542595,0.0002742913408275368,0.0008437614044551968,0.0,0.0,0.0,0.0,0.0,0.0,0.0,0.0,0.0,3.74692183067958e-05,3.061367125044178e-06,4.524586762498968e-07,0.0,0.0,0.0,0.0,0.0,0.0,0.0,0.0,0.0,0.0076430797305884176,0.026200442099393192,9.80975611552351,0.0,0.0,0.0,0.0,0.0,0.0,0.0,0.0,0.0
2025/04/09 09:49:52.553253791,1744184992,552280230,mA1/imu,0.7074363416951409,0.7067765185684605,0.00027126614660172754,0.0008376538188340551,0.0,0.0,0.0,0.0,0.0,0.0,0.0,0.0,0.0,0.0004063809741514532,0.00016803465692873798,-8.152535651509172e-06,0.0,0.0,0.0,0.0,0.0,0.0,0.0,0.0,0.0,0.0017528461691006724,0.021869984450322538,9.809600926297579,0.0,0.0,0.0,0.0,0.0,0.0,0.0,0.0,0.0
2025/04/09 09:49:52.606572071,1744184992,603282300,mA1/imu,0.7074360654729066,0.7067768213009612,0.00026196247851611857,0.0008182393185018867,0.0,0.0,0.0,0.0,0.0,0.0,0.0,0.0,0.0,0.0018298129043252287,0.000356842551964203,-2.3233368891234704e-05,0.0,0.0,0.0,0.0,0.0,0.0,0.0,0.0,0.0,0.0020710239576490043,-0.4978453048767987,9.809599380307993,0.0,0.0,0.0,0.0,0.0,0.0,0.0,0.0,0.0
2025/04/09 09:49:52.657602246,1744184992,653214324,mA1/imu,0.7074356105889954,0.7067773229343813,0.00024276720886390232,0.000783403067885657,0.0,0.0,0.0,0.0,0.0,0.0,0.0,0.0,0.0,0.0025366708104346395,0.0004973911631531808,-2.7277869673484086e-05,0.0,0.0,0.0,0.0,0.0,0.0,0.0,0.0,0.0,0.002648688381538343,0.1257764312736705,9.810839880232573,0.0,0.0,0.0,0.0,0.0,0.0,0.0,0.0,0.0
2025/04/09 09:49:52.708489366,1744184992,706412360,mA1/imu,0.7074350067744872,0.7067779852134958,0.00021886712871515022,0.0007368206787440133,0.0,0.0,0.0,0.0,0.0,0.0,0.0,0.0,0.0,0.002397172056639286,0.0006897225053523574,-3.79677139539335e-05,0.0,0.0,0.0,0.0,0.0,0.0,0.0,0.0,0.0,0.0024357151540658397,0.09969991961805903,9.810790399513522,0.0,0.0,0.0,0.0,0.0,0.0,0.0,0.0,0.0
2025/04/09 09:49:52.755709338,1744184992,754839189,mA1/imu,0.7074344199352554,0.7067786565290055,0.00017334364769942882,0.0006649194707553099,0.0,0.0,0.0,0.0,0.0,0.0,0.0,0.0,0.0,0.003612588349684509,0.0007722583870220794,-3.238110285963013e-05,0.0,0.0,0.0,0.0,0.0,0.0,0.0,0.0,0.0,0.003034195588967459,0.3009605417551874,9.810372307995447,0.0,0.0,0.0,0.0,0.0,0.0,0.0,0.0,0.0
2025/04/09 09:49:52.810185016,1744184992,808985763,mA1/imu,0.7074339375232246,0.7067792289499121,0.00011362369845665837,0.0005767625243719179,0.0,0.0,0.0,0.0,0.0,0.0,0.0,0.0,0.0,0.0045401488006001686,0.0008177258555805516,-3.0118256141359464e-05,0.0,0.0,0.0,0.0,0.0,0.0,0.0,0.0,0.0,0.0021427857373186717,0.1288111123118045,9.812933791510158,0.0,0.0,0.0,0.0,0.0,0.0,0.0,0.0,0.0
2025/04/09 09:49:52.848377759,1744184992,846464046,mA1/imu,0.7074335377318998,0.7067797151579148,3.75159301944482e-05,0.000471726595072826,0.0,0.0,0.0,0.0,0.0,0.0,0.0,0.0,0.0,0.005419981282899395,0.0008062870264358709,-2.1063972044957717e-05,0.0,0.0,0.0,0.0,0.0,0.0,0.0,0.0,0.0,0.0029473099203239025,-0.24163403768115296,9.811030359917789,0.0,0.0,0.0,0.0,0.0,0.0,0.0,0.0,0.0
2025/04/09 09:49:52.898262385,1744184992,897540661,mA1/imu,0.7074332345840562,0.7067800882838687,-5.6713139561060636e-05,0.0003495640232111983,0.0,0.0,0.0,0.0,0.0,0.0,0.0,0.0,0.0,0.0048467099560474515,0.0007819729070670444,-2.1611644824839788e-05,0.0,0.0,0.0,0.0,0.0,0.0,0.0,0.0,0.0,0.003983505353918443,0.6620443051977133,9.812470517427448,0.0,0.0,0.0,0.0,0.0,0.0,0.0,0.0,0.0
2025/04/09 09:49:52.948798019,1744184992,947331015,mA1/imu,0.7074327118320293,0.7067806474026272,-0.0001577990845304715,0.00022312900515608232,0.0,0.0,0.0,0.0,0.0,0.0,0.0,0.0,0.0,0.0053975490889009835,0.0007136599069790593,-4.4540143235550296e-05,0.0,0.0,0.0,0.0,0.0,0.0,0.0,0.0,0.0,0.0004549564442958105,0.5824533998189525,9.808897677021088,0.0,0.0,0.0,0.0,0.0,0.0,0.0,0.0,0.0
2025/04/09 09:49:53.1524765,1744184992,998325490,mA1/imu,-0.7074318229907138,-0.7067815342118747,0.00026344629070197727,-9.650489955525579e-05,0.0,0.0,0.0,0.0,0.0,0.0,0.0,0.0,0.0,0.005872796500388498,0.0005096660520916531,-5.203255721321593e-05,0.0,0.0,0.0,0.0,0.0,0.0,0.0,0.0,0.0,0.005486645915216891,0.10700857191553587,9.810362238045062,0.0,0.0,0.0,0.0,0.0,0.0,0.0,0.0,0.0
2025/04/09 09:49:53.50213029,1744184993,48309223,mA1/imu,-0.7074309835751115,-0.7067823322337173,0.0003711132838948158,2.4395666517011043e-05,0.0,0.0,0.0,0.0,0.0,0.0,0.0,0.0,0.0,0.006147390846413182,0.00029111561671215904,-3.5148943689571876e-05,0.0,0.0,0.0,0.0,0.0,0.0,0.0,0.0,0.0,0.003621541394365816,0.12279636934880234,9.810299926185193,0.0,0.0,0.0,0.0,0.0,0.0,0.0,0.0,0.0
2025/04/09 09:49:53.102483313,1744184993,100818087,mA1/imu,-0.7074308152673429,-0.7067824321884512,0.00046797585327101074,0.00012711632752372245,0.0,0.0,0.0,0.0,0.0,0.0,0.0,0.0,0.0,0.004356197300825203,8.21681278953665e-05,9.905168444711026e-06,0.0,0.0,0.0,0.0,0.0,0.0,0.0,0.0,0.0,0.003409230356395939,0.5796176721217093,9.81122824314793,0.0,0.0,0.0,0.0,0.0,0.0,0.0,0.0,0.0
2025/04/09 09:49:53.151500116,1744184993,150685309,mA1/imu,-0.7074335438047106,-0.7067796156235512,0.00055499179658084,0.00021914159700855133,0.0,0.0,0.0,0.0,0.0,0.0,0.0,0.0,0.0,0.004957715286356602,0.0002113571448732882,0.00028915173424793494,0.0,0.0,0.0,0.0,0.0,0.0,0.0,0.0,0.0,-0.009237097322614346,0.011953653735635403,9.809346616564223,0.0,0.0,0.0,0.0,0.0,0.0,0.0,0.0,0.0
2025/04/09 09:49:53.205961403,1744184993,202598021,mA1/imu,-0.7074424436644154,-0.7067706349066482,0.0006122300646309535,0.0002893270154788855,0.0,0.0,0.0,0.0,0.0,0.0,0.0,0.0,0.0,0.0025290512901447243,0.0004470941339551883,0.0006421563829858976,0.0,0.0,0.0,0.0,0.0,0.0,0.0,0.0,0.0,-0.01050728855535558,0.5283447734037288,9.811413914669323,0.0,0.0,0.0,0.0,0.0,0.0,0.0,0.0,0.0
2025/04/09 09:49:53.253624079,1744184993,252405067,mA1/imu,-0.707457490124328,-0.70675552592423,0.0006415854402334884,0.0003385419829446568,0.0,0.0,0.0,0.0,0.0,0.0,0.0,0.0,0.0,0.001410639997140664,0.0006352003413193289,0.0009901983741192385,0.0,0.0,0.0,0.0,0.0,0.0,0.0,0.0,0.0,-0.010064243056904513,0.08696523954110075,9.811033516243103,0.0,0.0,0.0,0.0,0.0,0.0,0.0,0.0,0.0
2025/04/09 09:49:53.304848340,1744184993,303476362,mA1/imu,-0.7074778986966664,-0.706735086162994,0.0006400743343557478,0.000362141935202197,0.0,0.0,0.0,0.0,0.0,0.0,0.0,0.0,0.0,-0.0017430102114917023,0.000773717813473257,0.0012626158885902551,0.0,0.0,0.0,0.0,0.0,0.0,0.0,0.0,0.0,-0.008157551620477866,0.4950102046833278,9.810594438550488,0.0,0.0,0.0,0.0,0.0,0.0,0.0,0.0,0.0
2025/04/09 09:49:53.353988286,1744184993,353281753,mA1/imu,-0.7075031989223631,-0.7067097786764247,0.0006151511606005014,0.000365823442962246,0.0,0.0,0.0,0.0,0.0,0.0,0.0,0.0,0.0,-0.0019938034639562507,0.000866697720440794,0.0015360237702145346,0.0,0.0,0.0,0.0,0.0,0.0,0.0,0.0,0.0,-0.010486653638163061,0.06333121985473485,9.806884699094816,0.0,0.0,0.0,0.0,0.0,0.0,0.0,0.0,0.0
2025/04/09 09:49:53.406034865,1744184993,404323050,mA1/imu,-0.7075330105800833,-0.7066799801482021,0.0005685179553663237,0.00034840286258043724,0.0,0.0,0.0,0.0,0.0,0.0,0.0,0.0,0.0,-0.001731170611855712,0.0007810173983131463,0.001746310990037383,0.0,0.0,0.0,0.0,0.0,0.0,0.0,0.0,0.0,0.0004075057808221984,0.1843047608797784,9.806655879909082,0.0,0.0,0.0,0.0,0.0,0.0,0.0,0.0,0.0
2025/04/09 09:49:53.456320193,1744184993,454170177,mA1/imu,-0.7075638435654622,-0.7066491943221298,0.0004897216081549368,0.00028916345071737726,0.0,0.0,0.0,0.0,0.0,0.0,0.0,0.0,0.0,-0.0035834018660544273,0.00036479694203617955,0.0017435245876339215,0.0,0.0,0.0,0.0,0.0,0.0,0.0,0.0,0.0,0.005464818080859125,0.2748075095669114,9.80997241651141,0.0,0.0,0.0,0.0,0.0,0.0,0.0,0.0,0.0
2025/04/09 09:49:53.506055164,1744184993,505264603,mA1/imu,-0.70759457447669,-0.7066185098425912,0.0003985038206598518,0.0002022713346761961,0.0,0.0,0.0,0.0,0.0,0.0,0.0,0.0,0.0,-0.0058906193025723575,-4.10895945683898e-05,0.0017265661797786632,0.0,0.0,0.0,0.0,0.0,0.0,0.0,0.0,0.0,0.004303872214894108,0.699243402946878,9.808521300576242,0.0,0.0,0.0,0.0,0.0,0.0,0.0,0.0,0.0
2025/04/09 09:49:53.556070713,1744184993,555043743,mA1/imu,-0.7076243657739495,-0.7065887488394588,0.0002980913131169747,9.010035041396413e-05,0.0,0.0,0.0,0.0,0.0,0.0,0.0,0.0,0.0,-0.006805748387485481,-0.0004976070896427049,0.0016596898289952373,0.0,0.0,0.0,0.0,0.0,0.0,0.0,0.0,0.0,0.004305052743420337,0.7004160079862286,9.808833307976291,0.0,0.0,0.0,0.0,0.0,0.0,0.0,0.0,0.0
2025/04/09 09:49:53.606806820,1744184993,606009218,mA1/imu,-0.7076532909457972,-0.7065598216301463,0.0001902864081831243,-4.541631226209925e-05,0.0,0.0,0.0,0.0,0.0,0.0,0.0,0.0,0.0,-0.005912453907622933,-0.0009519054805035772,0.001626807213168383,0.0,0.0,0.0,0.0,0.0,0.0,0.0,0.0,0.0,0.004326360570040799,-0.45342014494913246,9.809764078418802,0.0,0.0,0.0,0.0,0.0,0.0,0.0,0.0,0.0
2025/04/09 09:49:53.651634659,1744184993,646493356,mA1/imu,0.7076820284307307,0.7065310333897498,-7.780878864480344e-05,0.00019859297848092707,0.0,0.0,0.0,0.0,0.0,0.0,0.0,0.0,0.0,-0.006278083343216828,-0.001287782556105372,0.001639172735679946,0.0,0.0,0.0,0.0,0.0,0.0,0.0,0.0,0.0,0.0018700264344941892,-0.4589594180732215,9.808827414052994,0.0,0.0,0.0,0.0,0.0,0.0,0.0,0.0,0.0
2025/04/09 09:49:53.700786613,1744184993,697076811,mA1/imu,0.7077111470362993,0.7065018108958284,2.4856870409686757e-05,0.00035063316518007246,0.0,0.0,0.0,0.0,0.0,0.0,0.0,0.0,0.0,-0.006423449595071422,-0.0014875329222245055,0.0016638864404114806,0.0,0.0,0.0,0.0,0.0,0.0,0.0,0.0,0.0,0.003397202085255658,-0.24202091102207302,9.80908228865463,0.0,0.0,0.0,0.0,0.0,0.0,0.0,0.0,0.0
2025/04/09 09:49:53.748453831,1744184993,746820014,mA1/imu,0.7077426182902687,0.7064701776136268,0.00012929602730854355,0.0005076226383788658,0.0,0.0,0.0,0.0,0.0,0.0,0.0,0.0,0.0,-0.006884213066335953,-0.0014574786424989576,0.001868076996676899,0.0,0.0,0.0,0.0,0.0,0.0,0.0,0.0,0.0,-0.001897447491805808,-0.07178485024889253,9.810786182417111,0.0,0.0,0.0,0.0,0.0,0.0,0.0,0.0,0.0
2025/04/09 09:49:53.800488840,1744184993,797808910,mA1/imu,0.7077757261172304,0.7064368638908807,0.00022318868053783703,0.0006550130208687788,0.0,0.0,0.0,0.0,0.0,0.0,0.0,0.0,0.0,-0.005949149386661798,-0.001529136841508161,0.0018906652517801613,0.0,0.0,0.0,0.0,0.0,0.0,0.0,0.0,0.0,0.0006375429462475296,0.13819816538003107,9.809203382100746,0.0,0.0,0.0,0.0,0.0,0.0,0.0,0.0,0.0
2025/04/09 09:49:53.848655357,1744184993,847623779,mA1/imu,0.7078112323645266,0.7064011158914407,0.00031091377526619804,0.0007912891771948411,0.0,0.0,0.0,0.0,0.0,0.0,0.0,0.0,0.0,-0.005745644183654853,-0.0012794555071520713,0.0021006050412762955,0.0,0.0,0.0,0.0,0.0,0.0,0.0,0.0,0.0,-0.0026959254550369587,0.08433701543255924,9.813125119568186,0.0,0.0,0.0,0.0,0.0,0.0,0.0,0.0,0.0
2025/04/09 09:49:53.900500233,1744184993,898914657,mA1/imu,0.7078488852440553,0.7063632149090803,0.0003810010319128782,0.0009050526341015442,0.0,0.0,0.0,0.0,0.0,0.0,0.0,0.0,0.0,-0.004467474690507188,-0.0012042379370881438,0.0021516097501485423,0.0,0.0,0.0,0.0,0.0,0.0,0.0,0.0,0.0,0.0017259571460559583,-0.42987468394768824,9.813183055508595,0.0,0.0,0.0,0.0,0.0,0.0,0.0,0.0,0.0
2025/04/09 09:49:53.952220198,1744184993,949465195,mA1/imu,0.7078865601380884,0.7063253165348622,0.0004259670144142807,0.0009918416678274952,0.0,0.0,0.0,0.0,0.0,0.0,0.0,0.0,0.0,-0.002711589536612745,-0.0011569302415456635,0.0021288681781089793,0.0,0.0,0.0,0.0,0.0,0.0,0.0,0.0,0.0,0.0051078990779144014,-0.16021904674479298,9.810313244201911,0.0,0.0,0.0,0.0,0.0,0.0,0.0,0.0,0.0
2025/04/09 09:49:54.3282037,1744184994,1785132,mA1/imu,0.7079246009583171,0.7062870785927207,0.000454607371921974,0.0010560791187054078,0.0,0.0,0.0,0.0,0.0,0.0,0.0,0.0,0.0,-0.0013165794014352024,-0.0009168961936771586,0.002164544487283295,0.0,0.0,0.0,0.0,0.0,0.0,0.0,0.0,0.0,0.002005736852568046,-0.5085492683329415,9.811507970163477,0.0,0.0,0.0,0.0,0.0,0.0,0.0,0.0,0.0
2025/04/09 09:49:54.54305387,1744184994,51548055,mA1/imu,0.7079651275870679,0.7062464005773604,0.0004626678302142845,0.001088912589801877,0.0,0.0,0.0,0.0,0.0,0.0,0.0,0.0,0.0,-0.0009152384463238399,-0.0006203870504907334,0.002381605385682689,0.0,0.0,0.0,0.0,0.0,0.0,0.0,0.0,0.0,0.009108689340491423,0.04598411031551712,9.810529793746122,0.0,0.0,0.0,0.0,0.0,0.0,0.0,0.0,0.0
2025/04/09 09:49:54.104195139,1744184994,102600936,mA1/imu,0.7080073758805868,0.7062040564272196,0.0004411311367354045,0.001091690315968836,0.0,0.0,0.0,0.0,0.0,0.0,0.0,0.0,0.0,0.00045659357626366557,-0.0007284833154930448,0.002395207639148295,0.0,0.0,0.0,0.0,0.0,0.0,0.0,0.0,0.0,0.01419112284578631,0.031683927106973306,9.811002801219392,0.0,0.0,0.0,0.0,0.0,0.0,0.0,0.0,0.0
2025/04/09 09:49:54.153344585,1744184994,152414467,mA1/imu,0.7080473984138991,0.7061639964748155,0.00038593278086459886,0.0010689892023199399,0.0,0.0,0.0,0.0,0.0,0.0,0.0,0.0,0.0,0.0031292407206915504,-0.0010315190583451792,0.0021812748086207034,0.0,0.0,0.0,0.0,0.0,0.0,0.0,0.0,0.0,0.015944829774743124,-0.27448762980464814,9.80936718767685,0.0,0.0,0.0,0.0,0.0,0.0,0.0,0.0,0.0
2025/04/09 09:49:54.205677983,1744184994,203491899,mA1/imu,0.7080855089470762,0.7061258900443224,0.0003051811810250698,0.00102288450980877,0.0,0.0,0.0,0.0,0.0,0.0,0.0,0.0,0.0,0.00513844795974127,-0.000943401234815928,0.0021080545674979903,0.0,0.0,0.0,0.0,0.0,0.0,0.0,0.0,0.0,0.009237822219660666,-0.020829897395695185,9.810802022875155,0.0,0.0,0.0,0.0,0.0,0.0,0.0,0.0,0.0
2025/04/09 09:49:54.255074999,1744184994,253289256,mA1/imu,0.7081207244166773,0.706090699484778,0.00021194243881474253,0.0009585578229206735,0.0,0.0,0.0,0.0,0.0,0.0,0.0,0.0,0.0,0.004537422534330919,-0.0007429371767200248,0.0019393929655335388,0.0,0.0,0.0,0.0,0.0,0.0,0.0,0.0,0.0,0.009381828094667215,0.66904171303138,9.811609035228967,0.0,0.0,0.0,0.0,0.0,0.0,0.0,0.0,0.0
2025/04/09 09:49:54.305664256,1744184994,304948340,mA1/imu,0.7081542563801495,0.7060572060785638,0.00010392571899072106,0.0008718455453042783,0.0,0.0,0.0,0.0,0.0,0.0,0.0,0.0,0.0,0.007088350042465533,-0.0005195632719811635,0.001857725699894488,0.0,0.0,0.0,0.0,0.0,0.0,0.0,0.0,0.0,0.008634789395419963,-0.4751799709117918,9.810572334692672,0.0,0.0,0.0,0.0,0.0,0.0,0.0,0.0,0.0
2025/04/09 09:49:54.355365007,1744184994,354110302,mA1/imu,0.7081805660998352,0.7060309395566869,-2.2114985457034712e-05,0.0007731094011981506,0.0,0.0,0.0,0.0,0.0,0.0,0.0,0.0,0.0,0.007253406223603356,-0.0008782760821721899,0.0012684466367291853,0.0,0.0,0.0,0.0,0.0,0.0,0.0,0.0,0.0,0.013140211106564787,-0.39668930755834286,9.809409500460296,0.0,0.0,0.0,0.0,0.0,0.0,0.0,0.0,0.0
2025/04/09 09:49:54.407039440,1744184994,405095595,mA1/imu,0.7082020439711534,0.7060094891070497,-0.00014993911038234771,0.0006661262241609203,0.0,0.0,0.0,0.0,0.0,0.0,0.0,0.0,0.0,0.006271300702309761,-0.00033753114609362067,0.0012235739235998428,0.0,0.0,0.0,0.0,0.0,0.0,0.0,0.0,0.0,-0.01135852261253642,0.43379892114798313,9.810828376147452,0.0,0.0,0.0,0.0,0.0,0.0,0.0,0.0,0.0
2025/04/09 09:49:54.455690781,1744184994,454928552,mA1/imu,0.7082258599671414,0.7059856693682393,-0.0002679760396986493,0.0005423184712874878,0.0,0.0,0.0,0.0,0.0,0.0,0.0,0.0,0.0,0.0070594984819123035,0.00035039401318703194,0.0013553404966076203,0.0,0.0,0.0,0.0,0.0,0.0,0.0,0.0,0.0,0.008191274863765748,-0.5453297392553372,9.808950787899539,0.0,0.0,0.0,0.0,0.0,0.0,0.0,0.0,0.0
2025/04/09 09:49:54.507092244,1744184994,505964921,mA1/imu,0.7082491602829648,0.7059623319728169,-0.000381200766042972,0.0004092431471645926,0.0,0.0,0.0,0.0,0.0,0.0,0.0,0.0,0.0,0.008035209483376016,0.0006864147310504868,0.0012982615126598631,0.0,0.0,0.0,0.0,0.0,0.0,0.0,0.0,0.0,0.005917803942063323,-0.458273948517072,9.808329587701932,0.0,0.0,0.0,0.0,0.0,0.0,0.0,0.0,0.0
2025/04/09 09:49:54.557026450,1744184994,555755549,mA1/imu,-0.7082719768764184,-0.7059394463562629,0.00047208535402253906,-0.0002863305815576747,0.0,0.0,0.0,0.0,0.0,0.0,0.0,0.0,0.0,0.00569521956921497,0.001016919898791844,0.0012720161278794646,0.0,0.0,0.0,0.0,0.0,0.0,0.0,0.0,0.0,0.008804385342578961,0.27055538542590923,9.81004846370738,0.0,0.0,0.0,0.0,0.0,0.0,0.0,0.0,0.0
2025/04/09 09:49:54.597919285,1744184994,596614985,mA1/imu,-0.708293837513749,-0.7059174977300237,0.0005442092520141908,-0.00017313266305861072,0.0,0.0,0.0,0.0,0.0,0.0,0.0,0.0,0.0,0.004519925710891866,0.0012365465715919075,0.0012121640641146387,0.0,0.0,0.0,0.0,0.0,0.0,0.0,0.0,0.0,0.00959527026444164,0.03470081327465478,9.808472035247672,0.0,0.0,0.0,0.0,0.0,0.0,0.0,0.0,0.0
