time,header_stamp_secs,header_stamp_nsecs,header_frame_id,status_status,status_service,latitude,longitude,altitude,position_covariance_0,position_covariance_1,position_covariance_2,position_covariance_3,position_covariance_4,position_covariance_5,position_covariance_6,position_covariance_7,position_covariance_8,position_covariance_type
2025/04/09 09:59:47.403981707,1744185587,402773178,mA1/gps,0,1,63.434596573681816,10.39309130795593,0.0,1.4400000000000002e-10,0.0,0.0,0.0,1.4400000000000002e-10,0.0,0.0,0.0,1.0,2
2025/04/09 09:59:47.451254660,1744185587,449870219,mA1/gps,0,1,63.434596573196366,10.393091309996242,0.0,1.4400000000000002e-10,0.0,0.0,0.0,1.4400000000000002e-10,0.0,0.0,0.0,1.0,2
2025/04/09 09:59:47.501253562,1744185587,500668993,mA1/gps,0,1,63.43459657356135,10.393091312330428,0.0,1.4400000000000002e-10,0.0,0.0,0.0,1.4400000000000002e-10,0.0,0.0,0.0,1.0,2
2025/04/09 09:59:47.551300367,1744185587,550499982,mA1/gps,0,1,63.434596574226774,10.393091313510672,0.0,1.4400000000000002e-10,0.0,0.0,0.0,1.4400000000000002e-10,0.0,0.0,0.0,1.0,2
2025/04/09 09:59:47.602680490,1744185587,601462154,mA1/gps,0,1,63.43459657372609,10.393091314570553,0.0,1.4400000000000002e-10,0.0,0.0,0.0,1.4400000000000002e-10,0.0,0.0,0.0,1.0,2
2025/04/09 09:59:47.652341430,1744185587,651253909,mA1/gps,0,1,63.43459657312238,10.393091315262804,0.0,1.4400000000000002e-10,0.0,0.0,0.0,1.4400000000000002e-10,0.0,0.0,0.0,1.0,2
2025/04/09 09:59:47.702878252,1744185587,702206699,mA1/gps,0,1,63.43459657376938,10.393091316062206,0.0,1.4400000000000002e-10,0.0,0.0,0.0,1.4400000000000002e-10,0.0,0.0,0.0,1.0,2
2025/04/09 09:59:47.756341164,1744185587,752513122,mA1/gps,0,1,63.4345965740645,10.39309131548588,0.0,1.4400000000000002e-10,0.0,0.0,0.0,1.4400000000000002e-10,0.0,0.0,0.0,1.0,2
2025/04/09 09:59:47.804823738,1744185587,803509976,mA1/gps,0,1,63.43459657335092,10.39309131587171,0.0,1.4400000000000002e-10,0.0,0.0,0.0,1.4400000000000002e-10,0.0,0.0,0.0,1.0,2
2025/04/09 09:59:47.854300711,1744185587,853657188,mA1/gps,0,1,63.43459657285344,10.393091316249533,0.0,1.4400000000000002e-10,0.0,0.0,0.0,1.4400000000000002e-10,0.0,0.0,0.0,1.0,2
2025/04/09 09:59:47.907701372,1744185587,905708663,mA1/gps,0,1,63.434596573454286,10.393091316613457,0.0,1.4400000000000002e-10,0.0,0.0,0.0,1.4400000000000002e-10,0.0,0.0,0.0,1.0,2
2025/04/09 09:59:47.956220014,1744185587,955539692,mA1/gps,0,1,63.434596573666056,10.393091315885673,0.0,1.4400000000000002e-10,0.0,0.0,0.0,1.4400000000000002e-10,0.0,0.0,0.0,1.0,2
2025/04/09 09:59:47.997272585,1744185587,996494141,mA1/gps,0,1,63.434596572884075,10.393091316023277,0.0,1.4400000000000002e-10,0.0,0.0,0.0,1.4400000000000002e-10,0.0,0.0,0.0,1.0,2
2025/04/09 09:59:48.47157663,1744185588,46271422,mA1/gps,0,1,63.43459657203664,10.393091316204636,0.0,1.4400000000000002e-10,0.0,0.0,0.0,1.4400000000000002e-10,0.0,0.0,0.0,1.0,2
2025/04/09 09:59:48.98206957,1744185588,97238976,mA1/gps,0,1,63.43459657243435,10.393091316370507,0.0,1.4400000000000002e-10,0.0,0.0,0.0,1.4400000000000002e-10,0.0,0.0,0.0,1.0,2
2025/04/09 09:59:48.150394352,1744185588,148685664,mA1/gps,0,1,63.43459657266213,10.393091316418069,0.0,1.4400000000000002e-10,0.0,0.0,0.0,1.4400000000000002e-10,0.0,0.0,0.0,1.0,2
2025/04/09 09:59:48.201251719,1744185588,199095587,mA1/gps,0,1,63.43459657204969,10.39309131721133,0.0,1.4400000000000002e-10,0.0,0.0,0.0,1.4400000000000002e-10,0.0,0.0,0.0,1.0,2
2025/04/09 09:59:48.255582372,1744185588,249314880,mA1/gps,0,1,63.434596571206235,10.393091318173314,0.0,1.4400000000000002e-10,0.0,0.0,0.0,1.4400000000000002e-10,0.0,0.0,0.0,1.0,2
2025/04/09 09:59:48.302769638,1744185588,300709062,mA1/gps,0,1,63.43459657150692,10.393091319123513,0.0,1.4400000000000002e-10,0.0,0.0,0.0,1.4400000000000002e-10,0.0,0.0,0.0,1.0,2
2025/04/09 09:59:48.352688755,1744185588,351432167,mA1/gps,0,1,63.43459657166873,10.393091319474504,0.0,1.4400000000000002e-10,0.0,0.0,0.0,1.4400000000000002e-10,0.0,0.0,0.0,1.0,2
2025/04/09 09:59:48.403217884,1744185588,402284030,mA1/gps,0,1,63.434596570659046,10.393091319619238,0.0,1.4400000000000002e-10,0.0,0.0,0.0,1.4400000000000002e-10,0.0,0.0,0.0,1.0,2
2025/04/09 09:59:48.452730778,1744185588,452139023,mA1/gps,0,1,63.43459657002369,10.393091320850463,0.0,1.4400000000000002e-10,0.0,0.0,0.0,1.4400000000000002e-10,0.0,0.0,0.0,1.0,2
2025/04/09 09:59:48.504052382,1744185588,503093547,mA1/gps,0,1,63.43459657027255,10.393091321504311,0.0,1.4400000000000002e-10,0.0,0.0,0.0,1.4400000000000002e-10,0.0,0.0,0.0,1.0,2
2025/04/09 09:59:48.554376394,1744185588,552972338,mA1/gps,0,1,63.434596570611134,10.393091321548646,0.0,1.4400000000000002e-10,0.0,0.0,0.0,1.4400000000000002e-10,0.0,0.0,0.0,1.0,2
2025/04/09 09:59:48.604733120,1744185588,603876461,mA1/gps,0,1,63.43459656966079,10.39309132205791,0.0,1.4400000000000002e-10,0.0,0.0,0.0,1.4400000000000002e-10,0.0,0.0,0.0,1.0,2
2025/04/09 09:59:48.657756649,1744185588,655682642,mA1/gps,0,1,63.43459656901055,10.393091323162066,0.0,1.4400000000000002e-10,0.0,0.0,0.0,1.4400000000000002e-10,0.0,0.0,0.0,1.0,2
2025/04/09 09:59:48.706300455,1744185588,705306563,mA1/gps,0,1,63.43459656937146,10.393091323160757,0.0,1.4400000000000002e-10,0.0,0.0,0.0,1.4400000000000002e-10,0.0,0.0,0.0,1.0,2
2025/04/09 09:59:48.756060688,1744185588,755140084,mA1/gps,0,1,63.434596569721634,10.393091322957634,0.0,1.4400000000000002e-10,0.0,0.0,0.0,1.4400000000000002e-10,0.0,0.0,0.0,1.0,2
2025/04/09 09:59:48.807670258,1744185588,806158728,mA1/gps,0,1,63.43459656891005,10.393091323320228,0.0,1.4400000000000002e-10,0.0,0.0,0.0,1.4400000000000002e-10,0.0,0.0,0.0,1.0,2
2025/04/09 09:59:48.846803506,1744185588,845927024,mA1/gps,0,1,63.434596568542844,10.393091324244121,0.0,1.4400000000000002e-10,0.0,0.0,0.0,1.4400000000000002e-10,0.0,0.0,0.0,1.0,2
2025/04/09 09:59:48.897665472,1744185588,896909480,mA1/gps,0,1,63.434596568923276,10.393091324615966,0.0,1.4400000000000002e-10,0.0,0.0,0.0,1.4400000000000002e-10,0.0,0.0,0.0,1.0,2
2025/04/09 09:59:48.947449884,1744185588,946757260,mA1/gps,0,1,63.434596569290356,10.393091325582716,0.0,1.4400000000000002e-10,0.0,0.0,0.0,1.4400000000000002e-10,0.0,0.0,0.0,1.0,2
2025/04/09 09:59:48.998260313,1744185588,997718398,mA1/gps,0,1,63.434596568727336,10.393091325357382,0.0,1.4400000000000002e-10,0.0,0.0,0.0,1.4400000000000002e-10,0.0,0.0,0.0,1.0,2
2025/04/09 09:59:49.50971481,1744185589,49655499,mA1/gps,0,1,63.43459656825004,10.393091325522272,0.0,1.4400000000000002e-10,0.0,0.0,0.0,1.4400000000000002e-10,0.0,0.0,0.0,1.0,2
2025/04/09 09:59:49.101139416,1744185589,100326454,mA1/gps,0,1,63.434596568718355,10.393091325494666,0.0,1.4400000000000002e-10,0.0,0.0,0.0,1.4400000000000002e-10,0.0,0.0,0.0,1.0,2
2025/04/09 09:59:49.150792278,1744185589,150123825,mA1/gps,0,1,63.43459656913525,10.393091325437593,0.0,1.4400000000000002e-10,0.0,0.0,0.0,1.4400000000000002e-10,0.0,0.0,0.0,1.0,2
2025/04/09 09:59:49.203149412,1744185589,201811480,mA1/gps,0,1,63.43459656865814,10.393091326127147,0.0,1.4400000000000002e-10,0.0,0.0,0.0,1.4400000000000002e-10,0.0,0.0,0.0,1.0,2
2025/04/09 09:59:49.252125660,1744185589,250906709,mA1/gps,0,1,63.43459656790397,10.393091327403797,0.0,1.4400000000000002e-10,0.0,0.0,0.0,1.4400000000000002e-10,0.0,0.0,0.0,1.0,2
2025/04/09 09:59:49.304228496,1744185589,302865306,mA1/gps,0,1,63.43459656857253,10.393091328400809,0.0,1.4400000000000002e-10,0.0,0.0,0.0,1.4400000000000002e-10,0.0,0.0,0.0,1.0,2
2025/04/09 09:59:49.354550113,1744185589,351959975,mA1/gps,0,1,63.43459656896227,10.393091328917505,0.0,1.4400000000000002e-10,0.0,0.0,0.0,1.4400000000000002e-10,0.0,0.0,0.0,1.0,2
2025/04/09 09:59:49.404674562,1744185589,403762573,mA1/gps,0,1,63.43459656832883,10.393091329992329,0.0,1.4400000000000002e-10,0.0,0.0,0.0,1.4400000000000002e-10,0.0,0.0,0.0,1.0,2
2025/04/09 09:59:49.455157785,1744185589,454280179,mA1/gps,0,1,63.434596567718195,10.393091331022996,0.0,1.4400000000000002e-10,0.0,0.0,0.0,1.4400000000000002e-10,0.0,0.0,0.0,1.0,2
2025/04/09 09:59:49.505815524,1744185589,505246147,mA1/gps,0,1,63.43459656820418,10.393091332785676,0.0,1.4400000000000002e-10,0.0,0.0,0.0,1.4400000000000002e-10,0.0,0.0,0.0,1.0,2
2025/04/09 09:59:49.558028385,1744185589,555322060,mA1/gps,0,1,63.43459656862652,10.393091333306835,0.0,1.4400000000000002e-10,0.0,0.0,0.0,1.4400000000000002e-10,0.0,0.0,0.0,1.0,2
2025/04/09 09:59:49.606726293,1744185589,606208157,mA1/gps,0,1,63.43459656770769,10.393091334649604,0.0,1.4400000000000002e-10,0.0,0.0,0.0,1.4400000000000002e-10,0.0,0.0,0.0,1.0,2
2025/04/09 09:59:49.646679839,1744185589,645963336,mA1/gps,0,1,63.43459656719066,10.393091335702483,0.0,1.4400000000000002e-10,0.0,0.0,0.0,1.4400000000000002e-10,0.0,0.0,0.0,1.0,2
2025/04/09 09:59:49.699009058,1744185589,697019771,mA1/gps,0,1,63.434596567307764,10.393091336934564,0.0,1.4400000000000002e-10,0.0,0.0,0.0,1.4400000000000002e-10,0.0,0.0,0.0,1.0,2
2025/04/09 09:59:49.747573435,1744185589,746980590,mA1/gps,0,1,63.43459656781458,10.39309133905577,0.0,1.4400000000000002e-10,0.0,0.0,0.0,1.4400000000000002e-10,0.0,0.0,0.0,1.0,2
2025/04/09 09:59:49.802622850,1744185589,799444889,mA1/gps,0,1,63.43459656691239,10.393091339548818,0.0,1.4400000000000002e-10,0.0,0.0,0.0,1.4400000000000002e-10,0.0,0.0,0.0,1.0,2
2025/04/09 09:59:49.850840341,1744185589,849273910,mA1/gps,0,1,63.43459656629701,10.393091339504224,0.0,1.4400000000000002e-10,0.0,0.0,0.0,1.4400000000000002e-10,0.0,0.0,0.0,1.0,2
2025/04/09 09:59:49.901205565,1744185589,900218776,mA1/gps,0,1,63.434596566494385,10.393091339489173,0.0,1.4400000000000002e-10,0.0,0.0,0.0,1.4400000000000002e-10,0.0,0.0,0.0,1.0,2
2025/04/09 09:59:49.953264864,1744185589,952729093,mA1/gps,0,1,63.43459656632305,10.39309133995764,0.0,1.4400000000000002e-10,0.0,0.0,0.0,1.4400000000000002e-10,0.0,0.0,0.0,1.0,2
2025/04/09 09:59:50.4107945,1744185590,3627862,mA1/gps,0,1,63.43459656589956,10.393091339701943,0.0,1.4400000000000002e-10,0.0,0.0,0.0,1.4400000000000002e-10,0.0,0.0,0.0,1.0,2
2025/04/09 09:59:50.56729551,1744185590,53578298,mA1/gps,0,1,63.43459656530114,10.393091338862533,0.0,1.4400000000000002e-10,0.0,0.0,0.0,1.4400000000000002e-10,0.0,0.0,0.0,1.0,2
2025/04/09 09:59:50.105825187,1744185590,105084277,mA1/gps,0,1,63.43459656569338,10.393091338378868,0.0,1.4400000000000002e-10,0.0,0.0,0.0,1.4400000000000002e-10,0.0,0.0,0.0,1.0,2
2025/04/09 09:59:50.155488694,1744185590,154942160,mA1/gps,0,1,63.43459656592093,10.393091337777493,0.0,1.4400000000000002e-10,0.0,0.0,0.0,1.4400000000000002e-10,0.0,0.0,0.0,1.0,2
2025/04/09 09:59:50.207035049,1744185590,205850498,mA1/gps,0,1,63.43459656530085,10.39309133773026,0.0,1.4400000000000002e-10,0.0,0.0,0.0,1.4400000000000002e-10,0.0,0.0,0.0,1.0,2
2025/04/09 09:59:50.248832983,1744185590,246490617,mA1/gps,0,1,63.43459656478759,10.39309133713197,0.0,1.4400000000000002e-10,0.0,0.0,0.0,1.4400000000000002e-10,0.0,0.0,0.0,1.0,2
2025/04/09 09:59:50.299621549,1744185590,298337620,mA1/gps,0,1,63.434596565242835,10.393091336229018,0.0,1.4400000000000002e-10,0.0,0.0,0.0,1.4400000000000002e-10,0.0,0.0,0.0,1.0,2
2025/04/09 09:59:50.351128444,1744185590,350404821,mA1/gps,0,1,63.43459656589063,10.393091337364497,0.0,1.4400000000000002e-10,0.0,0.0,0.0,1.4400000000000002e-10,0.0,0.0,0.0,1.0,2
2025/04/09 09:59:50.402246909,1744185590,401426486,mA1/gps,0,1,63.43459656518972,10.393091337264387,0.0,1.4400000000000002e-10,0.0,0.0,0.0,1.4400000000000002e-10,0.0,0.0,0.0,1.0,2
2025/04/09 09:59:50.452054833,1744185590,451302380,mA1/gps,0,1,63.43459656490382,10.39309133736035,0.0,1.4400000000000002e-10,0.0,0.0,0.0,1.4400000000000002e-10,0.0,0.0,0.0,1.0,2
2025/04/09 09:59:50.502961942,1744185590,502291846,mA1/gps,0,1,63.43459656538253,10.393091337358625,0.0,1.4400000000000002e-10,0.0,0.0,0.0,1.4400000000000002e-10,0.0,0.0,0.0,1.0,2
2025/04/09 09:59:50.553429893,1744185590,552133541,mA1/gps,0,1,63.434596566093,10.39309133758608,0.0,1.4400000000000002e-10,0.0,0.0,0.0,1.4400000000000002e-10,0.0,0.0,0.0,1.0,2
2025/04/09 09:59:50.605457216,1744185590,603103841,mA1/gps,0,1,63.434596565666055,10.393091338504048,0.0,1.4400000000000002e-10,0.0,0.0,0.0,1.4400000000000002e-10,0.0,0.0,0.0,1.0,2
2025/04/09 09:59:50.653558297,1744185590,652973427,mA1/gps,0,1,63.434596565215536,10.393091339541662,0.0,1.4400000000000002e-10,0.0,0.0,0.0,1.4400000000000002e-10,0.0,0.0,0.0,1.0,2
2025/04/09 09:59:50.704785774,1744185590,703925944,mA1/gps,0,1,63.43459656582383,10.393091340973342,0.0,1.4400000000000002e-10,0.0,0.0,0.0,1.4400000000000002e-10,0.0,0.0,0.0,1.0,2
2025/04/09 09:59:50.754491050,1744185590,753771097,mA1/gps,0,1,63.434596566283844,10.393091342017014,0.0,1.4400000000000002e-10,0.0,0.0,0.0,1.4400000000000002e-10,0.0,0.0,0.0,1.0,2
2025/04/09 09:59:50.805561989,1744185590,804791370,mA1/gps,0,1,63.434596566018655,10.39309134392672,0.0,1.4400000000000002e-10,0.0,0.0,0.0,1.4400000000000002e-10,0.0,0.0,0.0,1.0,2
2025/04/09 09:59:50.849834055,1744185590,848574662,mA1/gps,0,1,63.43459656537547,10.393091345697819,0.0,1.4400000000000002e-10,0.0,0.0,0.0,1.4400000000000002e-10,0.0,0.0,0.0,1.0,2
2025/04/09 09:59:50.900402814,1744185590,899728273,mA1/gps,0,1,63.434596566042025,10.393091347813302,0.0,1.4400000000000002e-10,0.0,0.0,0.0,1.4400000000000002e-10,0.0,0.0,0.0,1.0,2
2025/04/09 09:59:50.953427688,1744185590,949638702,mA1/gps,0,1,63.434596566686345,10.39309135061339,0.0,1.4400000000000002e-10,0.0,0.0,0.0,1.4400000000000002e-10,0.0,0.0,0.0,1.0,2
2025/04/09 09:59:51.2385184,1744185591,578437,mA1/gps,0,1,63.43459656585388,10.393091352566802,0.0,1.4400000000000002e-10,0.0,0.0,0.0,1.4400000000000002e-10,0.0,0.0,0.0,1.0,2
2025/04/09 09:59:51.51140487,1744185591,50370848,mA1/gps,0,1,63.434596565308375,10.393091354401578,0.0,1.4400000000000002e-10,0.0,0.0,0.0,1.4400000000000002e-10,0.0,0.0,0.0,1.0,2
2025/04/09 09:59:51.101939719,1744185591,101305946,mA1/gps,0,1,63.43459656601098,10.39309135620654,0.0,1.4400000000000002e-10,0.0,0.0,0.0,1.4400000000000002e-10,0.0,0.0,0.0,1.0,2
2025/04/09 09:59:51.153536241,1744185591,152062599,mA1/gps,0,1,63.43459656614643,10.393091357271162,0.0,1.4400000000000002e-10,0.0,0.0,0.0,1.4400000000000002e-10,0.0,0.0,0.0,1.0,2
2025/04/09 09:59:51.203780226,1744185591,203002413,mA1/gps,0,1,63.434596565346695,10.393091358499149,0.0,1.4400000000000002e-10,0.0,0.0,0.0,1.4400000000000002e-10,0.0,0.0,0.0,1.0,2
2025/04/09 09:59:51.254036990,1744185591,253232196,mA1/gps,0,1,63.434596564658804,10.393091357657962,0.0,1.4400000000000002e-10,0.0,0.0,0.0,1.4400000000000002e-10,0.0,0.0,0.0,1.0,2
2025/04/09 09:59:51.304919129,1744185591,304203531,mA1/gps,0,1,63.434596565169116,10.39309135717734,0.0,1.4400000000000002e-10,0.0,0.0,0.0,1.4400000000000002e-10,0.0,0.0,0.0,1.0,2
2025/04/09 09:59:51.355698627,1744185591,354065195,mA1/gps,0,1,63.43459656527001,10.393091357331187,0.0,1.4400000000000002e-10,0.0,0.0,0.0,1.4400000000000002e-10,0.0,0.0,0.0,1.0,2
2025/04/09 09:59:51.406037597,1744185591,405569978,mA1/gps,0,1,63.434596564591736,10.393091356544208,0.0,1.4400000000000002e-10,0.0,0.0,0.0,1.4400000000000002e-10,0.0,0.0,0.0,1.0,2
2025/04/09 09:59:51.456293044,1744185591,455394540,mA1/gps,0,1,63.43459656383401,10.393091354803778,0.0,1.4400000000000002e-10,0.0,0.0,0.0,1.4400000000000002e-10,0.0,0.0,0.0,1.0,2
2025/04/09 09:59:51.508416313,1744185591,506322957,mA1/gps,0,1,63.43459656430647,10.393091353167293,0.0,1.4400000000000002e-10,0.0,0.0,0.0,1.4400000000000002e-10,0.0,0.0,0.0,1.0,2
2025/04/09 09:59:51.546737208,1744185591,546080500,mA1/gps,0,1,63.434596564817596,10.393091349475332,0.0,1.4400000000000002e-10,0.0,0.0,0.0,1.4400000000000002e-10,0.0,0.0,0.0,1.0,2
2025/04/09 09:59:51.598305869,1744185591,597396489,mA1/gps,0,1,63.43459656455042,10.393091347717084,0.0,1.4400000000000002e-10,0.0,0.0,0.0,1.4400000000000002e-10,0.0,0.0,0.0,1.0,2
2025/04/09 09:59:51.648496024,1744185591,647767593,mA1/gps,0,1,63.434596564495905,10.393091348579322,0.0,1.4400000000000002e-10,0.0,0.0,0.0,1.4400000000000002e-10,0.0,0.0,0.0,1.0,2
2025/04/09 09:59:51.699395455,1744185591,698742771,mA1/gps,0,1,63.43459656687655,10.393091352144229,0.0,1.4400000000000002e-10,0.0,0.0,0.0,1.4400000000000002e-10,0.0,0.0,0.0,1.0,2
2025/04/09 09:59:51.749900460,1744185591,748592385,mA1/gps,0,1,63.434596569599044,10.39309135505765,0.0,1.4400000000000002e-10,0.0,0.0,0.0,1.4400000000000002e-10,0.0,0.0,0.0,1.0,2
2025/04/09 09:59:51.801957882,1744185591,799559753,mA1/gps,0,1,63.43459657228256,10.393091357520657,0.0,1.4400000000000002e-10,0.0,0.0,0.0,1.4400000000000002e-10,0.0,0.0,0.0,1.0,2
2025/04/09 09:59:51.853386864,1744185591,849395740,mA1/gps,0,1,63.43459657801266,10.393091359881058,0.0,1.4400000000000002e-10,0.0,0.0,0.0,1.4400000000000002e-10,0.0,0.0,0.0,1.0,2
2025/04/09 09:59:51.901711760,1744185591,900364641,mA1/gps,0,1,63.434596584687725,10.393091361539474,0.0,1.4400000000000002e-10,0.0,0.0,0.0,1.4400000000000002e-10,0.0,0.0,0.0,1.0,2
2025/04/09 09:59:51.951091411,1744185591,950250737,mA1/gps,0,1,63.43459659397841,10.393091362538629,0.0,1.4400000000000002e-10,0.0,0.0,0.0,1.4400000000000002e-10,0.0,0.0,0.0,1.0,2
2025/04/09 09:59:52.3109547,1744185592,1244900,mA1/gps,0,1,63.4345966055721,10.393091363403066,0.0,1.4400000000000002e-10,0.0,0.0,0.0,1.4400000000000002e-10,0.0,0.0,0.0,1.0,2
2025/04/09 09:59:52.51584415,1744185592,51012601,mA1/gps,0,1,63.43459661983481,10.393091363563817,0.0,1.4400000000000002e-10,0.0,0.0,0.0,1.4400000000000002e-10,0.0,0.0,0.0,1.0,2
2025/04/09 09:59:52.107987536,1744185592,104427339,mA1/gps,0,1,63.43459663710821,10.39309136292792,0.0,1.4400000000000002e-10,0.0,0.0,0.0,1.4400000000000002e-10,0.0,0.0,0.0,1.0,2
2025/04/09 09:59:52.159411192,1744185592,153210687,mA1/gps,0,1,63.43459665777919,10.393091361375072,0.0,1.4400000000000002e-10,0.0,0.0,0.0,1.4400000000000002e-10,0.0,0.0,0.0,1.0,2
2025/04/09 09:59:52.206964880,1744185592,204337844,mA1/gps,0,1,63.434596683412224,10.393091359007672,0.0,1.4400000000000002e-10,0.0,0.0,0.0,1.4400000000000002e-10,0.0,0.0,0.0,1.0,2
2025/04/09 09:59:52.254072280,1744185592,250211188,mA1/gps,0,1,63.43459671127165,10.393091357027737,0.0,1.4400000000000002e-10,0.0,0.0,0.0,1.4400000000000002e-10,0.0,0.0,0.0,1.0,2
2025/04/09 09:59:52.308505546,1744185592,303936809,mA1/gps,0,1,63.434596743455245,10.3930913542643,0.0,1.4400000000000002e-10,0.0,0.0,0.0,1.4400000000000002e-10,0.0,0.0,0.0,1.0,2
2025/04/09 09:59:52.347326630,1744185592,346312185,mA1/gps,0,1,63.43459677946975,10.39309135110192,0.0,1.4400000000000002e-10,0.0,0.0,0.0,1.4400000000000002e-10,0.0,0.0,0.0,1.0,2
2025/04/09 09:59:52.398814184,1744185592,397415738,mA1/gps,0,1,63.434596820173354,10.393091346915242,0.0,1.4400000000000002e-10,0.0,0.0,0.0,1.4400000000000002e-10,0.0,0.0,0.0,1.0,2
2025/04/09 09:59:52.448599453,1744185592,447801089,mA1/gps,0,1,63.43459686326527,10.393091340893216,0.0,1.4400000000000002e-10,0.0,0.0,0.0,1.4400000000000002e-10,0.0,0.0,0.0,1.0,2
2025/04/09 09:59:52.499570976,1744185592,498688453,mA1/gps,0,1,63.434596910704705,10.39309133452707,0.0,1.4400000000000002e-10,0.0,0.0,0.0,1.4400000000000002e-10,0.0,0.0,0.0,1.0,2
2025/04/09 09:59:52.549962651,1744185592,548585809,mA1/gps,0,1,63.43459696058224,10.393091327376418,0.0,1.4400000000000002e-10,0.0,0.0,0.0,1.4400000000000002e-10,0.0,0.0,0.0,1.0,2
2025/04/09 09:59:52.601471445,1744185592,599477515,mA1/gps,0,1,63.43459701349269,10.393091320190992,0.0,1.4400000000000002e-10,0.0,0.0,0.0,1.4400000000000002e-10,0.0,0.0,0.0,1.0,2
2025/04/09 09:59:52.657173830,1744185592,649760796,mA1/gps,0,1,63.43459706828384,10.393091313914471,0.0,1.4400000000000002e-10,0.0,0.0,0.0,1.4400000000000002e-10,0.0,0.0,0.0,1.0,2
2025/04/09 09:59:52.701787115,1744185592,700713518,mA1/gps,0,1,63.43459712493414,10.393091306557455,0.0,1.4400000000000002e-10,0.0,0.0,0.0,1.4400000000000002e-10,0.0,0.0,0.0,1.0,2
2025/04/09 09:59:52.751199948,1744185592,750542042,mA1/gps,0,1,63.434597182049416,10.393091297136532,0.0,1.4400000000000002e-10,0.0,0.0,0.0,1.4400000000000002e-10,0.0,0.0,0.0,1.0,2
2025/04/09 09:59:52.805018629,1744185592,803476031,mA1/gps,0,1,63.434597241149525,10.393091285730229,0.0,1.4400000000000002e-10,0.0,0.0,0.0,1.4400000000000002e-10,0.0,0.0,0.0,1.0,2
2025/04/09 09:59:52.855460005,1744185592,854097390,mA1/gps,0,1,63.43459730197489,10.393091274738849,0.0,1.4400000000000002e-10,0.0,0.0,0.0,1.4400000000000002e-10,0.0,0.0,0.0,1.0,2
2025/04/09 09:59:52.910201768,1744185592,906599461,mA1/gps,0,1,63.43459736229748,10.393091262764111,0.0,1.4400000000000002e-10,0.0,0.0,0.0,1.4400000000000002e-10,0.0,0.0,0.0,1.0,2
2025/04/09 09:59:52.947049490,1744185592,945864360,mA1/gps,0,1,63.43459742132383,10.393091250629732,0.0,1.4400000000000002e-10,0.0,0.0,0.0,1.4400000000000002e-10,0.0,0.0,0.0,1.0,2
2025/04/09 09:59:52.998428576,1744185592,996835522,mA1/gps,0,1,63.434597480587044,10.393091239709106,0.0,1.4400000000000002e-10,0.0,0.0,0.0,1.4400000000000002e-10,0.0,0.0,0.0,1.0,2
2025/04/09 09:59:53.47254255,1744185593,46657890,mA1/gps,0,1,63.43459754047982,10.393091229225156,0.0,1.4400000000000002e-10,0.0,0.0,0.0,1.4400000000000002e-10,0.0,0.0,0.0,1.0,2
2025/04/09 09:59:53.98528003,1744185593,97628628,mA1/gps,0,1,63.434597599626734,10.393091218997084,0.0,1.4400000000000002e-10,0.0,0.0,0.0,1.4400000000000002e-10,0.0,0.0,0.0,1.0,2
2025/04/09 09:59:53.150253359,1744185593,149078983,mA1/gps,0,1,63.4345976577746,10.393091210003826,0.0,1.4400000000000002e-10,0.0,0.0,0.0,1.4400000000000002e-10,0.0,0.0,0.0,1.0,2
2025/04/09 09:59:53.201737487,1744185593,200059615,mA1/gps,0,1,63.434597716110126,10.393091203535906,0.0,1.4400000000000002e-10,0.0,0.0,0.0,1.4400000000000002e-10,0.0,0.0,0.0,1.0,2
2025/04/09 09:59:53.250593718,1744185593,249861943,mA1/gps,0,1,63.43459777527679,10.393091197658267,0.0,1.4400000000000002e-10,0.0,0.0,0.0,1.4400000000000002e-10,0.0,0.0,0.0,1.0,2
2025/04/09 09:59:53.301456769,1744185593,300844383,mA1/gps,0,1,63.434597833247196,10.393091192701439,0.0,1.4400000000000002e-10,0.0,0.0,0.0,1.4400000000000002e-10,0.0,0.0,0.0,1.0,2
2025/04/09 09:59:53.352309036,1744185593,350713582,mA1/gps,0,1,63.43459789390735,10.393091187899294,0.0,1.4400000000000002e-10,0.0,0.0,0.0,1.4400000000000002e-10,0.0,0.0,0.0,1.0,2
2025/04/09 09:59:53.402174185,1744185593,401647487,mA1/gps,0,1,63.43459795493291,10.393091184092148,0.0,1.4400000000000002e-10,0.0,0.0,0.0,1.4400000000000002e-10,0.0,0.0,0.0,1.0,2
2025/04/09 09:59:53.452276176,1744185593,451544013,mA1/gps,0,1,63.43459801604258,10.393091180740688,0.0,1.4400000000000002e-10,0.0,0.0,0.0,1.4400000000000002e-10,0.0,0.0,0.0,1.0,2
2025/04/09 09:59:53.503020124,1744185593,502452184,mA1/gps,0,1,63.43459808061348,10.393091177897984,0.0,1.4400000000000002e-10,0.0,0.0,0.0,1.4400000000000002e-10,0.0,0.0,0.0,1.0,2
2025/04/09 09:59:53.555261952,1744185593,552346504,mA1/gps,0,1,63.43459814591423,10.393091176829428,0.0,1.4400000000000002e-10,0.0,0.0,0.0,1.4400000000000002e-10,0.0,0.0,0.0,1.0,2
2025/04/09 09:59:53.603781513,1744185593,603198610,mA1/gps,0,1,63.434598214343055,10.39309117425622,0.0,1.4400000000000002e-10,0.0,0.0,0.0,1.4400000000000002e-10,0.0,0.0,0.0,1.0,2
2025/04/09 09:59:53.653604323,1744185593,653068770,mA1/gps,0,1,63.43459828729905,10.393091171033012,0.0,1.4400000000000002e-10,0.0,0.0,0.0,1.4400000000000002e-10,0.0,0.0,0.0,1.0,2
2025/04/09 09:59:53.704999755,1744185593,704096293,mA1/gps,0,1,63.43459835993328,10.393091166023398,0.0,1.4400000000000002e-10,0.0,0.0,0.0,1.4400000000000002e-10,0.0,0.0,0.0,1.0,2
2025/04/09 09:59:53.754762373,1744185593,753909163,mA1/gps,0,1,63.43459843628645,10.393091160085525,0.0,1.4400000000000002e-10,0.0,0.0,0.0,1.4400000000000002e-10,0.0,0.0,0.0,1.0,2
2025/04/09 09:59:53.806957398,1744185593,805060753,mA1/gps,0,1,63.43459851759207,10.393091152659006,0.0,1.4400000000000002e-10,0.0,0.0,0.0,1.4400000000000002e-10,0.0,0.0,0.0,1.0,2
2025/04/09 09:59:53.855371319,1744185593,854758140,mA1/gps,0,1,63.43459860197509,10.393091143808153,0.0,1.4400000000000002e-10,0.0,0.0,0.0,1.4400000000000002e-10,0.0,0.0,0.0,1.0,2
2025/04/09 09:59:53.908180697,1744185593,905903713,mA1/gps,0,1,63.434598687051164,10.393091132561036,0.0,1.4400000000000002e-10,0.0,0.0,0.0,1.4400000000000002e-10,0.0,0.0,0.0,1.0,2
2025/04/09 09:59:53.956295317,1744185593,955671191,mA1/gps,0,1,63.43459877649848,10.393091121675058,0.0,1.4400000000000002e-10,0.0,0.0,0.0,1.4400000000000002e-10,0.0,0.0,0.0,1.0,2
2025/04/09 09:59:53.997086506,1744185593,996520993,mA1/gps,0,1,63.4345988686309,10.393091110076199,0.0,1.4400000000000002e-10,0.0,0.0,0.0,1.4400000000000002e-10,0.0,0.0,0.0,1.0,2
2025/04/09 09:59:54.50729889,1744185594,46982503,mA1/gps,0,1,63.4345989626491,10.3930910978947,0.0,1.4400000000000002e-10,0.0,0.0,0.0,1.4400000000000002e-10,0.0,0.0,0.0,1.0,2
2025/04/09 09:59:54.98517374,1744185594,97986490,mA1/gps,0,1,63.43459905757798,10.393091087475995,0.0,1.4400000000000002e-10,0.0,0.0,0.0,1.4400000000000002e-10,0.0,0.0,0.0,1.0,2
2025/04/09 09:59:54.148501917,1744185594,147912207,mA1/gps,0,1,63.43459915368134,10.393091077690833,0.0,1.4400000000000002e-10,0.0,0.0,0.0,1.4400000000000002e-10,0.0,0.0,0.0,1.0,2
2025/04/09 09:59:54.199947049,1744185594,198894631,mA1/gps,0,1,63.43459925219384,10.393091067845761,0.0,1.4400000000000002e-10,0.0,0.0,0.0,1.4400000000000002e-10,0.0,0.0,0.0,1.0,2
2025/04/09 09:59:54.249436370,1744185594,248682237,mA1/gps,0,1,63.43459935109628,10.393091056730837,0.0,1.4400000000000002e-10,0.0,0.0,0.0,1.4400000000000002e-10,0.0,0.0,0.0,1.0,2
2025/04/09 09:59:54.301840400,1744185594,300401994,mA1/gps,0,1,63.434599449668056,10.39309104722356,0.0,1.4400000000000002e-10,0.0,0.0,0.0,1.4400000000000002e-10,0.0,0.0,0.0,1.0,2
2025/04/09 09:59:54.352181459,1744185594,350194911,mA1/gps,0,1,63.43459954792215,10.393091041243158,0.0,1.4400000000000002e-10,0.0,0.0,0.0,1.4400000000000002e-10,0.0,0.0,0.0,1.0,2
2025/04/09 09:59:54.401885206,1744185594,401137879,mA1/gps,0,1,63.434599646316826,10.393091036280055,0.0,1.4400000000000002e-10,0.0,0.0,0.0,1.4400000000000002e-10,0.0,0.0,0.0,1.0,2
2025/04/09 09:59:54.451717095,1744185594,450963751,mA1/gps,0,1,63.43459974394501,10.39309103272113,0.0,1.4400000000000002e-10,0.0,0.0,0.0,1.4400000000000002e-10,0.0,0.0,0.0,1.0,2
2025/04/09 09:59:54.502466447,1744185594,501901843,mA1/gps,0,1,63.434599840911794,10.393091029472213,0.0,1.4400000000000002e-10,0.0,0.0,0.0,1.4400000000000002e-10,0.0,0.0,0.0,1.0,2
2025/04/09 09:59:54.554704526,1744185594,552272273,mA1/gps,0,1,63.43459993652584,10.393091027129822,0.0,1.4400000000000002e-10,0.0,0.0,0.0,1.4400000000000002e-10,0.0,0.0,0.0,1.0,2
2025/04/09 09:59:54.603921416,1744185594,603193537,mA1/gps,0,1,63.43460002890808,10.393091025630632,0.0,1.4400000000000002e-10,0.0,0.0,0.0,1.4400000000000002e-10,0.0,0.0,0.0,1.0,2
2025/04/09 09:59:54.654095510,1744185594,652988879,mA1/gps,0,1,63.434600123891265,10.39309102529282,0.0,1.4400000000000002e-10,0.0,0.0,0.0,1.4400000000000002e-10,0.0,0.0,0.0,1.0,2
2025/04/09 09:59:54.705025284,1744185594,703916360,mA1/gps,0,1,63.43460021771884,10.393091026632018,0.0,1.4400000000000002e-10,0.0,0.0,0.0,1.4400000000000002e-10,0.0,0.0,0.0,1.0,2
2025/04/09 09:59:54.754197945,1744185594,753694727,mA1/gps,0,1,63.4346003116574,10.393091027228525,0.0,1.4400000000000002e-10,0.0,0.0,0.0,1.4400000000000002e-10,0.0,0.0,0.0,1.0,2
2025/04/09 09:59:54.807903154,1744185594,805234917,mA1/gps,0,1,63.434600403791634,10.393091028735778,0.0,1.4400000000000002e-10,0.0,0.0,0.0,1.4400000000000002e-10,0.0,0.0,0.0,1.0,2
2025/04/09 09:59:54.857163745,1744185594,855006930,mA1/gps,0,1,63.434600496874666,10.393091029558944,0.0,1.4400000000000002e-10,0.0,0.0,0.0,1.4400000000000002e-10,0.0,0.0,0.0,1.0,2
2025/04/09 09:59:54.899330047,1744185594,898599739,mA1/gps,0,1,63.434600590861145,10.393091030110867,0.0,1.4400000000000002e-10,0.0,0.0,0.0,1.4400000000000002e-10,0.0,0.0,0.0,1.0,2
2025/04/09 09:59:54.950496102,1744185594,948375187,mA1/gps,0,1,63.43460068665932,10.393091030179919,0.0,1.4400000000000002e-10,0.0,0.0,0.0,1.4400000000000002e-10,0.0,0.0,0.0,1.0,2
2025/04/09 09:59:55.3293197,1744185595,1793922,mA1/gps,0,1,63.43460078230154,10.393091031493334,0.0,1.4400000000000002e-10,0.0,0.0,0.0,1.4400000000000002e-10,0.0,0.0,0.0,1.0,2
2025/04/09 09:59:55.50651274,1744185595,49803548,mA1/gps,0,1,63.434600878741776,10.393091032227142,0.0,1.4400000000000002e-10,0.0,0.0,0.0,1.4400000000000002e-10,0.0,0.0,0.0,1.0,2
2025/04/09 09:59:55.102548967,1744185595,100729024,mA1/gps,0,1,63.43460097871628,10.393091032593786,0.0,1.4400000000000002e-10,0.0,0.0,0.0,1.4400000000000002e-10,0.0,0.0,0.0,1.0,2
2025/04/09 09:59:55.152043211,1744185595,150577343,mA1/gps,0,1,63.43460108140007,10.393091030394507,0.0,1.4400000000000002e-10,0.0,0.0,0.0,1.4400000000000002e-10,0.0,0.0,0.0,1.0,2
2025/04/09 09:59:55.199964647,1744185595,196648287,mA1/gps,0,1,63.43460118621218,10.393091026737453,0.0,1.4400000000000002e-10,0.0,0.0,0.0,1.4400000000000002e-10,0.0,0.0,0.0,1.0,2
2025/04/09 09:59:55.246821373,1744185595,246268811,mA1/gps,0,1,63.43460129371828,10.393091021601206,0.0,1.4400000000000002e-10,0.0,0.0,0.0,1.4400000000000002e-10,0.0,0.0,0.0,1.0,2
2025/04/09 09:59:55.298105697,1744185595,297466310,mA1/gps,0,1,63.434601403680055,10.393091014361598,0.0,1.4400000000000002e-10,0.0,0.0,0.0,1.4400000000000002e-10,0.0,0.0,0.0,1.0,2
2025/04/09 09:59:55.349249234,1744185595,347726013,mA1/gps,0,1,63.434601515459924,10.393091007791016,0.0,1.4400000000000002e-10,0.0,0.0,0.0,1.4400000000000002e-10,0.0,0.0,0.0,1.0,2
2025/04/09 09:59:55.399448834,1744185595,398639428,mA1/gps,0,1,63.434601630157715,10.393090998692182,0.0,1.4400000000000002e-10,0.0,0.0,0.0,1.4400000000000002e-10,0.0,0.0,0.0,1.0,2
2025/04/09 09:59:55.451668652,1744185595,448407855,mA1/gps,0,1,63.4346017469728,10.393090985958793,0.0,1.4400000000000002e-10,0.0,0.0,0.0,1.4400000000000002e-10,0.0,0.0,0.0,1.0,2
2025/04/09 09:59:55.500648920,1744185595,499364669,mA1/gps,0,1,63.43460186688391,10.393090972895369,0.0,1.4400000000000002e-10,0.0,0.0,0.0,1.4400000000000002e-10,0.0,0.0,0.0,1.0,2
2025/04/09 09:59:55.550845010,1744185595,549124666,mA1/gps,0,1,63.43460198653195,10.39309096003839,0.0,1.4400000000000002e-10,0.0,0.0,0.0,1.4400000000000002e-10,0.0,0.0,0.0,1.0,2
2025/04/09 09:59:55.602042029,1744185595,600110873,mA1/gps,0,1,63.43460210797449,10.393090947779308,0.0,1.4400000000000002e-10,0.0,0.0,0.0,1.4400000000000002e-10,0.0,0.0,0.0,1.0,2
2025/04/09 09:59:55.651422375,1744185595,649924814,mA1/gps,0,1,63.434602229656186,10.393090936461249,0.0,1.4400000000000002e-10,0.0,0.0,0.0,1.4400000000000002e-10,0.0,0.0,0.0,1.0,2
2025/04/09 09:59:55.703867713,1744185595,700826607,mA1/gps,0,1,63.43460235301887,10.393090927038815,0.0,1.4400000000000002e-10,0.0,0.0,0.0,1.4400000000000002e-10,0.0,0.0,0.0,1.0,2
2025/04/09 09:59:55.751298452,1744185595,750723486,mA1/gps,0,1,63.43460247531449,10.393090921165498,0.0,1.4400000000000002e-10,0.0,0.0,0.0,1.4400000000000002e-10,0.0,0.0,0.0,1.0,2
2025/04/09 09:59:55.802661004,1744185595,801827930,mA1/gps,0,1,63.434602598704,10.393090916848411,0.0,1.4400000000000002e-10,0.0,0.0,0.0,1.4400000000000002e-10,0.0,0.0,0.0,1.0,2
2025/04/09 09:59:55.854320284,1744185595,851700860,mA1/gps,0,1,63.43460272115103,10.393090914044489,0.0,1.4400000000000002e-10,0.0,0.0,0.0,1.4400000000000002e-10,0.0,0.0,0.0,1.0,2
2025/04/09 09:59:55.904627982,1744185595,902714278,mA1/gps,0,1,63.43460284165424,10.393090913868871,0.0,1.4400000000000002e-10,0.0,0.0,0.0,1.4400000000000002e-10,0.0,0.0,0.0,1.0,2
2025/04/09 09:59:55.954322318,1744185595,952490082,mA1/gps,0,1,63.43460296085982,10.39309091463471,0.0,1.4400000000000002e-10,0.0,0.0,0.0,1.4400000000000002e-10,0.0,0.0,0.0,1.0,2
2025/04/09 09:59:56.4503296,1744185596,3486694,mA1/gps,0,1,63.434603079308076,10.39309091601335,0.0,1.4400000000000002e-10,0.0,0.0,0.0,1.4400000000000002e-10,0.0,0.0,0.0,1.0,2
2025/04/09 09:59:56.54224120,1744185596,53326900,mA1/gps,0,1,63.434603196689096,10.393090918136672,0.0,1.4400000000000002e-10,0.0,0.0,0.0,1.4400000000000002e-10,0.0,0.0,0.0,1.0,2
2025/04/09 09:59:56.107490379,1744185596,106033839,mA1/gps,0,1,63.43460331284231,10.393090921433325,0.0,1.4400000000000002e-10,0.0,0.0,0.0,1.4400000000000002e-10,0.0,0.0,0.0,1.0,2
2025/04/09 09:59:56.157689352,1744185596,155791304,mA1/gps,0,1,63.4346034285993,10.393090924362394,0.0,1.4400000000000002e-10,0.0,0.0,0.0,1.4400000000000002e-10,0.0,0.0,0.0,1.0,2
2025/04/09 09:59:56.197229253,1744185596,196591042,mA1/gps,0,1,63.434603542177086,10.393090927263586,0.0,1.4400000000000002e-10,0.0,0.0,0.0,1.4400000000000002e-10,0.0,0.0,0.0,1.0,2
2025/04/09 09:59:56.251351543,1744185596,246616141,mA1/gps,0,1,63.43460365725748,10.393090929397843,0.0,1.4400000000000002e-10,0.0,0.0,0.0,1.4400000000000002e-10,0.0,0.0,0.0,1.0,2
2025/04/09 09:59:56.304324880,1744185596,302069943,mA1/gps,0,1,63.43460377041637,10.393090930886684,0.0,1.4400000000000002e-10,0.0,0.0,0.0,1.4400000000000002e-10,0.0,0.0,0.0,1.0,2
2025/04/09 09:59:56.359521431,1744185596,355121614,mA1/gps,0,1,63.434603884379264,10.393090931446263,0.0,1.4400000000000002e-10,0.0,0.0,0.0,1.4400000000000002e-10,0.0,0.0,0.0,1.0,2
2025/04/09 09:59:56.403821137,1744185596,400404302,mA1/gps,0,1,63.434603998353744,10.393090930472932,0.0,1.4400000000000002e-10,0.0,0.0,0.0,1.4400000000000002e-10,0.0,0.0,0.0,1.0,2
2025/04/09 09:59:56.452158270,1744185596,450164298,mA1/gps,0,1,63.434604114099315,10.393090929022135,0.0,1.4400000000000002e-10,0.0,0.0,0.0,1.4400000000000002e-10,0.0,0.0,0.0,1.0,2
2025/04/09 09:59:56.512120633,1744185596,506051086,mA1/gps,0,1,63.43460423045202,10.393090925831652,0.0,1.4400000000000002e-10,0.0,0.0,0.0,1.4400000000000002e-10,0.0,0.0,0.0,1.0,2
2025/04/09 09:59:56.551375184,1744185596,549918305,mA1/gps,0,1,63.43460434841123,10.393090922451446,0.0,1.4400000000000002e-10,0.0,0.0,0.0,1.4400000000000002e-10,0.0,0.0,0.0,1.0,2
2025/04/09 09:59:56.601508753,1744185596,600835498,mA1/gps,0,1,63.43460446848908,10.393090918028712,0.0,1.4400000000000002e-10,0.0,0.0,0.0,1.4400000000000002e-10,0.0,0.0,0.0,1.0,2
2025/04/09 09:59:56.651354865,1744185596,650744786,mA1/gps,0,1,63.434604590901216,10.393090911973452,0.0,1.4400000000000002e-10,0.0,0.0,0.0,1.4400000000000002e-10,0.0,0.0,0.0,1.0,2
2025/04/09 09:59:56.703377408,1744185596,701669077,mA1/gps,0,1,63.43460471435753,10.393090905656399,0.0,1.4400000000000002e-10,0.0,0.0,0.0,1.4400000000000002e-10,0.0,0.0,0.0,1.0,2
2025/04/09 09:59:56.752364230,1744185596,751536086,mA1/gps,0,1,63.43460484015493,10.393090899874226,0.0,1.4400000000000002e-10,0.0,0.0,0.0,1.4400000000000002e-10,0.0,0.0,0.0,1.0,2
2025/04/09 09:59:56.804504984,1744185596,802452698,mA1/gps,0,1,63.434604968786516,10.393090893828786,0.0,1.4400000000000002e-10,0.0,0.0,0.0,1.4400000000000002e-10,0.0,0.0,0.0,1.0,2
2025/04/09 09:59:56.853694618,1744185596,852287916,mA1/gps,0,1,63.43460510016278,10.393090887795125,0.0,1.4400000000000002e-10,0.0,0.0,0.0,1.4400000000000002e-10,0.0,0.0,0.0,1.0,2
2025/04/09 09:59:56.904221710,1744185596,903337215,mA1/gps,0,1,63.434605233088796,10.393090883114688,0.0,1.4400000000000002e-10,0.0,0.0,0.0,1.4400000000000002e-10,0.0,0.0,0.0,1.0,2
2025/04/09 09:59:56.955232801,1744185596,954597213,mA1/gps,0,1,63.43460536792988,10.393090878644973,0.0,1.4400000000000002e-10,0.0,0.0,0.0,1.4400000000000002e-10,0.0,0.0,0.0,1.0,2
2025/04/09 09:59:57.6165190,1744185597,5538411,mA1/gps,0,1,63.43460550357548,10.393090875609737,0.0,1.4400000000000002e-10,0.0,0.0,0.0,1.4400000000000002e-10,0.0,0.0,0.0,1.0,2
2025/04/09 09:59:57.55905383,1744185597,55332393,mA1/gps,0,1,63.43460564007517,10.393090873634984,0.0,1.4400000000000002e-10,0.0,0.0,0.0,1.4400000000000002e-10,0.0,0.0,0.0,1.0,2
2025/04/09 09:59:57.107055245,1744185597,106260812,mA1/gps,0,1,63.434605777224704,10.393090873397847,0.0,1.4400000000000002e-10,0.0,0.0,0.0,1.4400000000000002e-10,0.0,0.0,0.0,1.0,2
2025/04/09 09:59:57.147934043,1744185597,146974126,mA1/gps,0,1,63.43460591470855,10.393090874337458,0.0,1.4400000000000002e-10,0.0,0.0,0.0,1.4400000000000002e-10,0.0,0.0,0.0,1.0,2
2025/04/09 09:59:57.198559746,1744185597,197893226,mA1/gps,0,1,63.43460605206481,10.393090875140171,0.0,1.4400000000000002e-10,0.0,0.0,0.0,1.4400000000000002e-10,0.0,0.0,0.0,1.0,2
2025/04/09 09:59:57.252711289,1744185597,250050071,mA1/gps,0,1,63.43460618967265,10.393090876636998,0.0,1.4400000000000002e-10,0.0,0.0,0.0,1.4400000000000002e-10,0.0,0.0,0.0,1.0,2
2025/04/09 09:59:57.301820699,1744185597,301004017,mA1/gps,0,1,63.4346063253008,10.39309087909138,0.0,1.4400000000000002e-10,0.0,0.0,0.0,1.4400000000000002e-10,0.0,0.0,0.0,1.0,2
2025/04/09 09:59:57.352052109,1744185597,350910892,mA1/gps,0,1,63.434606460485114,10.393090885011661,0.0,1.4400000000000002e-10,0.0,0.0,0.0,1.4400000000000002e-10,0.0,0.0,0.0,1.0,2
2025/04/09 09:59:57.404516813,1744185597,402248574,mA1/gps,0,1,63.43460659475147,10.393090890873939,0.0,1.4400000000000002e-10,0.0,0.0,0.0,1.4400000000000002e-10,0.0,0.0,0.0,1.0,2
2025/04/09 09:59:57.453293342,1744185597,451968587,mA1/gps,0,1,63.43460672642405,10.393090896759903,0.0,1.4400000000000002e-10,0.0,0.0,0.0,1.4400000000000002e-10,0.0,0.0,0.0,1.0,2
2025/04/09 09:59:57.506296242,1744185597,502912201,mA1/gps,0,1,63.43460685862399,10.393090903185351,0.0,1.4400000000000002e-10,0.0,0.0,0.0,1.4400000000000002e-10,0.0,0.0,0.0,1.0,2
2025/04/09 09:59:57.555466465,1744185597,553578629,mA1/gps,0,1,63.434606988724774,10.3930909083909,0.0,1.4400000000000002e-10,0.0,0.0,0.0,1.4400000000000002e-10,0.0,0.0,0.0,1.0,2
2025/04/09 09:59:57.605966904,1744185597,604449354,mA1/gps,0,1,63.43460711772093,10.393090911979733,0.0,1.4400000000000002e-10,0.0,0.0,0.0,1.4400000000000002e-10,0.0,0.0,0.0,1.0,2
2025/04/09 09:59:57.658458731,1744185597,655584457,mA1/gps,0,1,63.434607245448376,10.393090913179591,0.0,1.4400000000000002e-10,0.0,0.0,0.0,1.4400000000000002e-10,0.0,0.0,0.0,1.0,2
2025/04/09 09:59:57.697483136,1744185597,696766876,mA1/gps,0,1,63.43460737380316,10.393090913010166,0.0,1.4400000000000002e-10,0.0,0.0,0.0,1.4400000000000002e-10,0.0,0.0,0.0,1.0,2
2025/04/09 09:59:57.747696532,1744185597,746602568,mA1/gps,0,1,63.434607499674584,10.393090910469066,0.0,1.4400000000000002e-10,0.0,0.0,0.0,1.4400000000000002e-10,0.0,0.0,0.0,1.0,2
2025/04/09 09:59:57.799770452,1744185597,798382109,mA1/gps,0,1,63.434607625778774,10.393090906733542,0.0,1.4400000000000002e-10,0.0,0.0,0.0,1.4400000000000002e-10,0.0,0.0,0.0,1.0,2
2025/04/09 09:59:57.848914750,1744185597,848157499,mA1/gps,0,1,63.43460775184214,10.393090901258573,0.0,1.4400000000000002e-10,0.0,0.0,0.0,1.4400000000000002e-10,0.0,0.0,0.0,1.0,2
2025/04/09 09:59:57.900858181,1744185597,899405862,mA1/gps,0,1,63.4346078825693,10.39309089379241,0.0,1.4400000000000002e-10,0.0,0.0,0.0,1.4400000000000002e-10,0.0,0.0,0.0,1.0,2
2025/04/09 09:59:57.949649911,1744185597,949047666,mA1/gps,0,1,63.4346080104578,10.393090886794688,0.0,1.4400000000000002e-10,0.0,0.0,0.0,1.4400000000000002e-10,0.0,0.0,0.0,1.0,2
2025/04/09 09:59:58.1560500,1744185598,2590,mA1/gps,0,1,63.434608139733356,10.393090878973052,0.0,1.4400000000000002e-10,0.0,0.0,0.0,1.4400000000000002e-10,0.0,0.0,0.0,1.0,2
2025/04/09 09:59:58.52847408,1744185598,51355376,mA1/gps,0,1,63.43460827102408,10.393090871698138,0.0,1.4400000000000002e-10,0.0,0.0,0.0,1.4400000000000002e-10,0.0,0.0,0.0,1.0,2
2025/04/09 09:59:58.103089371,1744185598,102304371,mA1/gps,0,1,63.43460840415596,10.393090865240321,0.0,1.4400000000000002e-10,0.0,0.0,0.0,1.4400000000000002e-10,0.0,0.0,0.0,1.0,2
2025/04/09 09:59:58.155088729,1744185598,153194888,mA1/gps,0,1,63.434608539360056,10.393090860605273,0.0,1.4400000000000002e-10,0.0,0.0,0.0,1.4400000000000002e-10,0.0,0.0,0.0,1.0,2
2025/04/09 09:59:58.204994262,1744185598,204125082,mA1/gps,0,1,63.43460867621886,10.39309085703407,0.0,1.4400000000000002e-10,0.0,0.0,0.0,1.4400000000000002e-10,0.0,0.0,0.0,1.0,2
2025/04/09 09:59:58.254559612,1744185598,253887989,mA1/gps,0,1,63.43460881568017,10.393090853941747,0.0,1.4400000000000002e-10,0.0,0.0,0.0,1.4400000000000002e-10,0.0,0.0,0.0,1.0,2
2025/04/09 09:59:58.306130571,1744185598,304909643,mA1/gps,0,1,63.43460895631941,10.393090852767372,0.0,1.4400000000000002e-10,0.0,0.0,0.0,1.4400000000000002e-10,0.0,0.0,0.0,1.0,2
2025/04/09 09:59:58.357167001,1744185598,354820872,mA1/gps,0,1,63.4346091007896,10.393090850534348,0.0,1.4400000000000002e-10,0.0,0.0,0.0,1.4400000000000002e-10,0.0,0.0,0.0,1.0,2
2025/04/09 09:59:58.407774734,1744185598,405703186,mA1/gps,0,1,63.434609244193695,10.393090851981178,0.0,1.4400000000000002e-10,0.0,0.0,0.0,1.4400000000000002e-10,0.0,0.0,0.0,1.0,2
2025/04/09 09:59:58.456486490,1744185598,455503893,mA1/gps,0,1,63.43460938874959,10.393090855531643,0.0,1.4400000000000002e-10,0.0,0.0,0.0,1.4400000000000002e-10,0.0,0.0,0.0,1.0,2
2025/04/09 09:59:58.497389526,1744185598,496449583,mA1/gps,0,1,63.434609533934676,10.39309086162815,0.0,1.4400000000000002e-10,0.0,0.0,0.0,1.4400000000000002e-10,0.0,0.0,0.0,1.0,2
2025/04/09 09:59:58.550010674,1744185598,546345863,mA1/gps,0,1,63.43460968386842,10.393090869471576,0.0,1.4400000000000002e-10,0.0,0.0,0.0,1.4400000000000002e-10,0.0,0.0,0.0,1.0,2
2025/04/09 09:59:58.597750753,1744185598,597203759,mA1/gps,0,1,63.43460983031107,10.393090879875801,0.0,1.4400000000000002e-10,0.0,0.0,0.0,1.4400000000000002e-10,0.0,0.0,0.0,1.0,2
2025/04/09 09:59:58.650579937,1744185598,647875456,mA1/gps,0,1,63.43460997676084,10.39309089074761,0.0,1.4400000000000002e-10,0.0,0.0,0.0,1.4400000000000002e-10,0.0,0.0,0.0,1.0,2
2025/04/09 09:59:58.699777351,1744185598,698805569,mA1/gps,0,1,63.43461012300591,10.39309090264951,0.0,1.4400000000000002e-10,0.0,0.0,0.0,1.4400000000000002e-10,0.0,0.0,0.0,1.0,2
2025/04/09 09:59:58.752439073,1744185598,748660937,mA1/gps,0,1,63.43461026861808,10.393090914449662,0.0,1.4400000000000002e-10,0.0,0.0,0.0,1.4400000000000002e-10,0.0,0.0,0.0,1.0,2
2025/04/09 09:59:58.801047965,1744185598,800297987,mA1/gps,0,1,63.434610413203465,10.393090925234016,0.0,1.4400000000000002e-10,0.0,0.0,0.0,1.4400000000000002e-10,0.0,0.0,0.0,1.0,2
2025/04/09 09:59:58.850682527,1744185598,850142429,mA1/gps,0,1,63.4346105578944,10.393090933953479,0.0,1.4400000000000002e-10,0.0,0.0,0.0,1.4400000000000002e-10,0.0,0.0,0.0,1.0,2
2025/04/09 09:59:58.907434990,1744185598,901233351,mA1/gps,0,1,63.4346107005644,10.393090940417265,0.0,1.4400000000000002e-10,0.0,0.0,0.0,1.4400000000000002e-10,0.0,0.0,0.0,1.0,2
2025/04/09 09:59:58.952251641,1744185598,951298412,mA1/gps,0,1,63.43461084146698,10.393090944619006,0.0,1.4400000000000002e-10,0.0,0.0,0.0,1.4400000000000002e-10,0.0,0.0,0.0,1.0,2
2025/04/09 09:59:59.4436007,1744185599,2537260,mA1/gps,0,1,63.43461098040589,10.393090945297436,0.0,1.4400000000000002e-10,0.0,0.0,0.0,1.4400000000000002e-10,0.0,0.0,0.0,1.0,2
2025/04/09 09:59:59.54270544,1744185599,52936344,mA1/gps,0,1,63.43461111905404,10.393090943274311,0.0,1.4400000000000002e-10,0.0,0.0,0.0,1.4400000000000002e-10,0.0,0.0,0.0,1.0,2
2025/04/09 09:59:59.104790867,1744185599,103816992,mA1/gps,0,1,63.43461125707257,10.39309093856272,0.0,1.4400000000000002e-10,0.0,0.0,0.0,1.4400000000000002e-10,0.0,0.0,0.0,1.0,2
2025/04/09 09:59:59.158818067,1744185599,153693171,mA1/gps,0,1,63.43461139548992,10.393090932195172,0.0,1.4400000000000002e-10,0.0,0.0,0.0,1.4400000000000002e-10,0.0,0.0,0.0,1.0,2
2025/04/09 09:59:59.206228686,1744185599,204952708,mA1/gps,0,1,63.43461153196856,10.393090924598166,0.0,1.4400000000000002e-10,0.0,0.0,0.0,1.4400000000000002e-10,0.0,0.0,0.0,1.0,2
2025/04/09 09:59:59.257453557,1744185599,255274846,mA1/gps,0,1,63.43461166828105,10.393090915246226,0.0,1.4400000000000002e-10,0.0,0.0,0.0,1.4400000000000002e-10,0.0,0.0,0.0,1.0,2
2025/04/09 09:59:59.307685362,1744185599,306291483,mA1/gps,0,1,63.43461180474666,10.393090906695434,0.0,1.4400000000000002e-10,0.0,0.0,0.0,1.4400000000000002e-10,0.0,0.0,0.0,1.0,2
2025/04/09 09:59:59.346698401,1744185599,346007059,mA1/gps,0,1,63.43461194160111,10.393090897799025,0.0,1.4400000000000002e-10,0.0,0.0,0.0,1.4400000000000002e-10,0.0,0.0,0.0,1.0,2
2025/04/09 09:59:59.397587926,1744185599,396992299,mA1/gps,0,1,63.43461207926992,10.393090891551745,0.0,1.4400000000000002e-10,0.0,0.0,0.0,1.4400000000000002e-10,0.0,0.0,0.0,1.0,2
2025/04/09 09:59:59.447910418,1744185599,447063208,mA1/gps,0,1,63.4346122191145,10.393090885246938,0.0,1.4400000000000002e-10,0.0,0.0,0.0,1.4400000000000002e-10,0.0,0.0,0.0,1.0,2
2025/04/09 09:59:59.498569731,1744185599,498011060,mA1/gps,0,1,63.434612359664214,10.393090882539173,0.0,1.4400000000000002e-10,0.0,0.0,0.0,1.4400000000000002e-10,0.0,0.0,0.0,1.0,2
2025/04/09 09:59:59.549345570,1744185599,548023391,mA1/gps,0,1,63.43461250299537,10.393090881255736,0.0,1.4400000000000002e-10,0.0,0.0,0.0,1.4400000000000002e-10,0.0,0.0,0.0,1.0,2
2025/04/09 09:59:59.600812314,1744185599,598991597,mA1/gps,0,1,63.434612646024036,10.393090883632185,0.0,1.4400000000000002e-10,0.0,0.0,0.0,1.4400000000000002e-10,0.0,0.0,0.0,1.0,2
2025/04/09 09:59:59.650939755,1744185599,648740414,mA1/gps,0,1,63.43461279086725,10.393090887474179,0.0,1.4400000000000002e-10,0.0,0.0,0.0,1.4400000000000002e-10,0.0,0.0,0.0,1.0,2
2025/04/09 09:59:59.700472224,1744185599,699949396,mA1/gps,0,1,63.43461293880198,10.393090893258735,0.0,1.4400000000000002e-10,0.0,0.0,0.0,1.4400000000000002e-10,0.0,0.0,0.0,1.0,2
2025/04/09 09:59:59.751992514,1744185599,750169521,mA1/gps,0,1,63.43461308813744,10.393090900442402,0.0,1.4400000000000002e-10,0.0,0.0,0.0,1.4400000000000002e-10,0.0,0.0,0.0,1.0,2
2025/04/09 09:59:59.802759347,1744185599,801374634,mA1/gps,0,1,63.43461323903863,10.393090909514907,0.0,1.4400000000000002e-10,0.0,0.0,0.0,1.4400000000000002e-10,0.0,0.0,0.0,1.0,2
2025/04/09 09:59:59.853689567,1744185599,851271649,mA1/gps,0,1,63.43461339097386,10.39309091927196,0.0,1.4400000000000002e-10,0.0,0.0,0.0,1.4400000000000002e-10,0.0,0.0,0.0,1.0,2
2025/04/09 09:59:59.904116265,1744185599,902218784,mA1/gps,0,1,63.4346135453273,10.39309092904854,0.0,1.4400000000000002e-10,0.0,0.0,0.0,1.4400000000000002e-10,0.0,0.0,0.0,1.0,2
2025/04/09 09:59:59.955008536,1744185599,952375498,mA1/gps,0,1,63.4346136995114,10.393090939856172,0.0,1.4400000000000002e-10,0.0,0.0,0.0,1.4400000000000002e-10,0.0,0.0,0.0,1.0,2
2025/04/09 10:00:00.6136896,1744185600,4185016,mA1/gps,0,1,63.43461385358108,10.393090949113557,0.0,1.4400000000000002e-10,0.0,0.0,0.0,1.4400000000000002e-10,0.0,0.0,0.0,1.0,2
2025/04/09 10:00:00.57473245,1744185600,54412160,mA1/gps,0,1,63.43461401021814,10.393090957165198,0.0,1.4400000000000002e-10,0.0,0.0,0.0,1.4400000000000002e-10,0.0,0.0,0.0,1.0,2
2025/04/09 10:00:00.107442905,1744185600,105420795,mA1/gps,0,1,63.43461416568521,10.393090963616437,0.0,1.4400000000000002e-10,0.0,0.0,0.0,1.4400000000000002e-10,0.0,0.0,0.0,1.0,2
2025/04/09 10:00:00.158156175,1744185600,155214420,mA1/gps,0,1,63.43461432068253,10.39309096833358,0.0,1.4400000000000002e-10,0.0,0.0,0.0,1.4400000000000002e-10,0.0,0.0,0.0,1.0,2
2025/04/09 10:00:00.200051835,1744185600,198963747,mA1/gps,0,1,63.4346144756796,10.393090970759152,0.0,1.4400000000000002e-10,0.0,0.0,0.0,1.4400000000000002e-10,0.0,0.0,0.0,1.0,2
2025/04/09 10:00:00.250499686,1744185600,248632599,mA1/gps,0,1,63.43461462973405,10.39309097094425,0.0,1.4400000000000002e-10,0.0,0.0,0.0,1.4400000000000002e-10,0.0,0.0,0.0,1.0,2
2025/04/09 10:00:00.300347639,1744185600,299574888,mA1/gps,0,1,63.4346147824923,10.393090969174034,0.0,1.4400000000000002e-10,0.0,0.0,0.0,1.4400000000000002e-10,0.0,0.0,0.0,1.0,2
2025/04/09 10:00:00.349955131,1744185600,349384827,mA1/gps,0,1,63.43461493504507,10.393090965049096,0.0,1.4400000000000002e-10,0.0,0.0,0.0,1.4400000000000002e-10,0.0,0.0,0.0,1.0,2
2025/04/09 10:00:00.401288778,1744185600,400360818,mA1/gps,0,1,63.43461508507165,10.393090960355222,0.0,1.4400000000000002e-10,0.0,0.0,0.0,1.4400000000000002e-10,0.0,0.0,0.0,1.0,2
2025/04/09 10:00:00.452060001,1744185600,450185108,mA1/gps,0,1,63.43461523522038,10.393090952536982,0.0,1.4400000000000002e-10,0.0,0.0,0.0,1.4400000000000002e-10,0.0,0.0,0.0,1.0,2
2025/04/09 10:00:00.502775970,1744185600,501129961,mA1/gps,0,1,63.43461538378963,10.393090945872276,0.0,1.4400000000000002e-10,0.0,0.0,0.0,1.4400000000000002e-10,0.0,0.0,0.0,1.0,2
2025/04/09 10:00:00.551527829,1744185600,550952063,mA1/gps,0,1,63.434615531681104,10.393090939605482,0.0,1.4400000000000002e-10,0.0,0.0,0.0,1.4400000000000002e-10,0.0,0.0,0.0,1.0,2
2025/04/09 10:00:00.603716608,1744185600,602277963,mA1/gps,0,1,63.4346156787415,10.393090934122332,0.0,1.4400000000000002e-10,0.0,0.0,0.0,1.4400000000000002e-10,0.0,0.0,0.0,1.0,2
2025/04/09 10:00:00.654001400,1744185600,652031190,mA1/gps,0,1,63.434615826133026,10.393090930628723,0.0,1.4400000000000002e-10,0.0,0.0,0.0,1.4400000000000002e-10,0.0,0.0,0.0,1.0,2
2025/04/09 10:00:00.703710769,1744185600,702996114,mA1/gps,0,1,63.434615973545654,10.39309092837443,0.0,1.4400000000000002e-10,0.0,0.0,0.0,1.4400000000000002e-10,0.0,0.0,0.0,1.0,2
2025/04/09 10:00:00.753407021,1744185600,752838783,mA1/gps,0,1,63.43461611955681,10.393090929658364,0.0,1.4400000000000002e-10,0.0,0.0,0.0,1.4400000000000002e-10,0.0,0.0,0.0,1.0,2
2025/04/09 10:00:00.805901293,1744185600,803948070,mA1/gps,0,1,63.43461626675837,10.393090932053955,0.0,1.4400000000000002e-10,0.0,0.0,0.0,1.4400000000000002e-10,0.0,0.0,0.0,1.0,2
2025/04/09 10:00:00.855299198,1744185600,853930172,mA1/gps,0,1,63.43461641500253,10.393090938577448,0.0,1.4400000000000002e-10,0.0,0.0,0.0,1.4400000000000002e-10,0.0,0.0,0.0,1.0,2
2025/04/09 10:00:00.906084696,1744185600,905442675,mA1/gps,0,1,63.434616564728735,10.39309094732764,0.0,1.4400000000000002e-10,0.0,0.0,0.0,1.4400000000000002e-10,0.0,0.0,0.0,1.0,2
2025/04/09 10:00:00.957552209,1744185600,955345418,mA1/gps,0,1,63.43461671544923,10.393090958148557,0.0,1.4400000000000002e-10,0.0,0.0,0.0,1.4400000000000002e-10,0.0,0.0,0.0,1.0,2
2025/04/09 10:00:01.7014157,1744185601,6310814,mA1/gps,0,1,63.43461686553831,10.393090970335537,0.0,1.4400000000000002e-10,0.0,0.0,0.0,1.4400000000000002e-10,0.0,0.0,0.0,1.0,2
2025/04/09 10:00:01.47583571,1744185601,46068353,mA1/gps,0,1,63.43461701836388,10.39309098116598,0.0,1.4400000000000002e-10,0.0,0.0,0.0,1.4400000000000002e-10,0.0,0.0,0.0,1.0,2
2025/04/09 10:00:01.98294292,1744185601,97684365,mA1/gps,0,1,63.43461717319407,10.393090992549682,0.0,1.4400000000000002e-10,0.0,0.0,0.0,1.4400000000000002e-10,0.0,0.0,0.0,1.0,2
2025/04/09 10:00:01.149263277,1744185601,147546849,mA1/gps,0,1,63.434617330157856,10.393091003782159,0.0,1.4400000000000002e-10,0.0,0.0,0.0,1.4400000000000002e-10,0.0,0.0,0.0,1.0,2
2025/04/09 10:00:01.200175158,1744185601,198762825,mA1/gps,0,1,63.434617488520566,10.393091014218005,0.0,1.4400000000000002e-10,0.0,0.0,0.0,1.4400000000000002e-10,0.0,0.0,0.0,1.0,2
2025/04/09 10:00:01.254339559,1744185601,250550204,mA1/gps,0,1,63.434617648389086,10.393091023875577,0.0,1.4400000000000002e-10,0.0,0.0,0.0,1.4400000000000002e-10,0.0,0.0,0.0,1.0,2
2025/04/09 10:00:01.302557228,1744185601,301024044,mA1/gps,0,1,63.434617808819404,10.393091032425241,0.0,1.4400000000000002e-10,0.0,0.0,0.0,1.4400000000000002e-10,0.0,0.0,0.0,1.0,2
2025/04/09 10:00:01.351487863,1744185601,350885586,mA1/gps,0,1,63.434617969693306,10.393091039816978,0.0,1.4400000000000002e-10,0.0,0.0,0.0,1.4400000000000002e-10,0.0,0.0,0.0,1.0,2
2025/04/09 10:00:01.402979135,1744185601,401865279,mA1/gps,0,1,63.43461813243457,10.393091044475767,0.0,1.4400000000000002e-10,0.0,0.0,0.0,1.4400000000000002e-10,0.0,0.0,0.0,1.0,2
2025/04/09 10:00:01.452347367,1744185601,451653989,mA1/gps,0,1,63.43461829626466,10.393091047963619,0.0,1.4400000000000002e-10,0.0,0.0,0.0,1.4400000000000002e-10,0.0,0.0,0.0,1.0,2
2025/04/09 10:00:01.503226249,1744185601,502617828,mA1/gps,0,1,63.4346184604801,10.393091049669069,0.0,1.4400000000000002e-10,0.0,0.0,0.0,1.4400000000000002e-10,0.0,0.0,0.0,1.0,2
2025/04/09 10:00:01.554512660,1744185601,552672954,mA1/gps,0,1,63.43461862329813,10.39309105088818,0.0,1.4400000000000002e-10,0.0,0.0,0.0,1.4400000000000002e-10,0.0,0.0,0.0,1.0,2
2025/04/09 10:00:01.604670652,1744185601,603590110,mA1/gps,0,1,63.43461878410919,10.393091051433435,0.0,1.4400000000000002e-10,0.0,0.0,0.0,1.4400000000000002e-10,0.0,0.0,0.0,1.0,2
2025/04/09 10:00:01.654170493,1744185601,653593458,mA1/gps,0,1,63.43461894492936,10.393091051891009,0.0,1.4400000000000002e-10,0.0,0.0,0.0,1.4400000000000002e-10,0.0,0.0,0.0,1.0,2
2025/04/09 10:00:01.706539599,1744185601,704580885,mA1/gps,0,1,63.43461910579001,10.39309105187882,0.0,1.4400000000000002e-10,0.0,0.0,0.0,1.4400000000000002e-10,0.0,0.0,0.0,1.0,2
2025/04/09 10:00:01.756052364,1744185601,754484022,mA1/gps,0,1,63.434619264590815,10.393091052306731,0.0,1.4400000000000002e-10,0.0,0.0,0.0,1.4400000000000002e-10,0.0,0.0,0.0,1.0,2
2025/04/09 10:00:01.806410042,1744185601,805412403,mA1/gps,0,1,63.434619421600814,10.393091051611455,0.0,1.4400000000000002e-10,0.0,0.0,0.0,1.4400000000000002e-10,0.0,0.0,0.0,1.0,2
2025/04/09 10:00:01.856125649,1744185601,855242356,mA1/gps,0,1,63.43461957581232,10.3930910523608,0.0,1.4400000000000002e-10,0.0,0.0,0.0,1.4400000000000002e-10,0.0,0.0,0.0,1.0,2
2025/04/09 10:00:01.899269815,1744185601,897778728,mA1/gps,0,1,63.434619728546465,10.393091053331556,0.0,1.4400000000000002e-10,0.0,0.0,0.0,1.4400000000000002e-10,0.0,0.0,0.0,1.0,2
2025/04/09 10:00:01.948331648,1744185601,946191094,mA1/gps,0,1,63.43461987861536,10.393091055014628,0.0,1.4400000000000002e-10,0.0,0.0,0.0,1.4400000000000002e-10,0.0,0.0,0.0,1.0,2
2025/04/09 10:00:02.1450279,1744185602,403557,mA1/gps,0,1,63.4346200265558,10.393091057477053,0.0,1.4400000000000002e-10,0.0,0.0,0.0,1.4400000000000002e-10,0.0,0.0,0.0,1.0,2
2025/04/09 10:00:02.48263267,1744185602,47755371,mA1/gps,0,1,63.43462017242575,10.393091060978344,0.0,1.4400000000000002e-10,0.0,0.0,0.0,1.4400000000000002e-10,0.0,0.0,0.0,1.0,2
2025/04/09 10:00:02.101067186,1744185602,99205644,mA1/gps,0,1,63.434620315854666,10.393091065828978,0.0,1.4400000000000002e-10,0.0,0.0,0.0,1.4400000000000002e-10,0.0,0.0,0.0,1.0,2
2025/04/09 10:00:02.151562056,1744185602,149253519,mA1/gps,0,1,63.4346204578385,10.393091072106417,0.0,1.4400000000000002e-10,0.0,0.0,0.0,1.4400000000000002e-10,0.0,0.0,0.0,1.0,2
2025/04/09 10:00:02.200930915,1744185602,200370144,mA1/gps,0,1,63.434620598292156,10.393091079220545,0.0,1.4400000000000002e-10,0.0,0.0,0.0,1.4400000000000002e-10,0.0,0.0,0.0,1.0,2
2025/04/09 10:00:02.250905092,1744185602,250231918,mA1/gps,0,1,63.43462073758401,10.39309108708188,0.0,1.4400000000000002e-10,0.0,0.0,0.0,1.4400000000000002e-10,0.0,0.0,0.0,1.0,2
2025/04/09 10:00:02.301782826,1744185602,301158071,mA1/gps,0,1,63.43462087542245,10.393091096278283,0.0,1.4400000000000002e-10,0.0,0.0,0.0,1.4400000000000002e-10,0.0,0.0,0.0,1.0,2
2025/04/09 10:00:02.352199248,1744185602,351050306,mA1/gps,0,1,63.43462101257093,10.393091103919549,0.0,1.4400000000000002e-10,0.0,0.0,0.0,1.4400000000000002e-10,0.0,0.0,0.0,1.0,2
2025/04/09 10:00:02.402963767,1744185602,402032019,mA1/gps,0,1,63.43462114895719,10.39309111348939,0.0,1.4400000000000002e-10,0.0,0.0,0.0,1.4400000000000002e-10,0.0,0.0,0.0,1.0,2
2025/04/09 10:00:02.452724860,1744185602,451902548,mA1/gps,0,1,63.434621285269394,10.393091122672287,0.0,1.4400000000000002e-10,0.0,0.0,0.0,1.4400000000000002e-10,0.0,0.0,0.0,1.0,2
2025/04/09 10:00:02.506468608,1744185602,503813111,mA1/gps,0,1,63.43462142104767,10.393091130850252,0.0,1.4400000000000002e-10,0.0,0.0,0.0,1.4400000000000002e-10,0.0,0.0,0.0,1.0,2
2025/04/09 10:00:02.553877391,1744185602,553457977,mA1/gps,0,1,63.43462155631732,10.393091138835594,0.0,1.4400000000000002e-10,0.0,0.0,0.0,1.4400000000000002e-10,0.0,0.0,0.0,1.0,2
2025/04/09 10:00:02.605966390,1744185602,604741721,mA1/gps,0,1,63.43462169275728,10.393091145280914,0.0,1.4400000000000002e-10,0.0,0.0,0.0,1.4400000000000002e-10,0.0,0.0,0.0,1.0,2
2025/04/09 10:00:02.655229920,1744185602,654625602,mA1/gps,0,1,63.43462183087988,10.393091150708994,0.0,1.4400000000000002e-10,0.0,0.0,0.0,1.4400000000000002e-10,0.0,0.0,0.0,1.0,2
2025/04/09 10:00:02.706249518,1744185602,705575551,mA1/gps,0,1,63.434621967223904,10.393091155522919,0.0,1.4400000000000002e-10,0.0,0.0,0.0,1.4400000000000002e-10,0.0,0.0,0.0,1.0,2
2025/04/09 10:00:02.757655676,1744185602,755436362,mA1/gps,0,1,63.434622104497315,10.393091158484944,0.0,1.4400000000000002e-10,0.0,0.0,0.0,1.4400000000000002e-10,0.0,0.0,0.0,1.0,2
2025/04/09 10:00:02.807426699,1744185602,806356797,mA1/gps,0,1,63.43462224166517,10.393091161725474,0.0,1.4400000000000002e-10,0.0,0.0,0.0,1.4400000000000002e-10,0.0,0.0,0.0,1.0,2
2025/04/09 10:00:02.846911128,1744185602,846211933,mA1/gps,0,1,63.43462237872408,10.393091163864538,0.0,1.4400000000000002e-10,0.0,0.0,0.0,1.4400000000000002e-10,0.0,0.0,0.0,1.0,2
2025/04/09 10:00:02.899235178,1744185602,897146381,mA1/gps,0,1,63.43462251585175,10.39309116563284,0.0,1.4400000000000002e-10,0.0,0.0,0.0,1.4400000000000002e-10,0.0,0.0,0.0,1.0,2
2025/04/09 10:00:02.947825767,1744185602,946975995,mA1/gps,0,1,63.434622651679135,10.393091167046464,0.0,1.4400000000000002e-10,0.0,0.0,0.0,1.4400000000000002e-10,0.0,0.0,0.0,1.0,2
2025/04/09 10:00:03.429121,1744185602,997910760,mA1/gps,0,1,63.43462278693936,10.39309116899283,0.0,1.4400000000000002e-10,0.0,0.0,0.0,1.4400000000000002e-10,0.0,0.0,0.0,1.0,2
2025/04/09 10:00:03.49321078,1744185603,47762062,mA1/gps,0,1,63.43462292049029,10.393091170039881,0.0,1.4400000000000002e-10,0.0,0.0,0.0,1.4400000000000002e-10,0.0,0.0,0.0,1.0,2
2025/04/09 10:00:03.99760543,1744185603,98712208,mA1/gps,0,1,63.43462305230979,10.393091172751616,0.0,1.4400000000000002e-10,0.0,0.0,0.0,1.4400000000000002e-10,0.0,0.0,0.0,1.0,2
2025/04/09 10:00:03.149563973,1744185603,148533327,mA1/gps,0,1,63.434623184150844,10.393091174171774,0.0,1.4400000000000002e-10,0.0,0.0,0.0,1.4400000000000002e-10,0.0,0.0,0.0,1.0,2
2025/04/09 10:00:03.200446847,1744185603,199511913,mA1/gps,0,1,63.4346233123887,10.393091177112227,0.0,1.4400000000000002e-10,0.0,0.0,0.0,1.4400000000000002e-10,0.0,0.0,0.0,1.0,2
2025/04/09 10:00:03.250416436,1744185603,249285222,mA1/gps,0,1,63.434623437987135,10.393091180379988,0.0,1.4400000000000002e-10,0.0,0.0,0.0,1.4400000000000002e-10,0.0,0.0,0.0,1.0,2
2025/04/09 10:00:03.301329756,1744185603,300362369,mA1/gps,0,1,63.43462356229285,10.393091182642639,0.0,1.4400000000000002e-10,0.0,0.0,0.0,1.4400000000000002e-10,0.0,0.0,0.0,1.0,2
2025/04/09 10:00:03.350923517,1744185603,350232832,mA1/gps,0,1,63.43462368267003,10.393091186127572,0.0,1.4400000000000002e-10,0.0,0.0,0.0,1.4400000000000002e-10,0.0,0.0,0.0,1.0,2
2025/04/09 10:00:03.402122127,1744185603,401173436,mA1/gps,0,1,63.43462380083775,10.393091189427626,0.0,1.4400000000000002e-10,0.0,0.0,0.0,1.4400000000000002e-10,0.0,0.0,0.0,1.0,2
2025/04/09 10:00:03.451762870,1744185603,450988273,mA1/gps,0,1,63.434623915716145,10.393091193822615,0.0,1.4400000000000002e-10,0.0,0.0,0.0,1.4400000000000002e-10,0.0,0.0,0.0,1.0,2
2025/04/09 10:00:03.504390695,1744185603,502040582,mA1/gps,0,1,63.434624028917554,10.393091198406088,0.0,1.4400000000000002e-10,0.0,0.0,0.0,1.4400000000000002e-10,0.0,0.0,0.0,1.0,2
2025/04/09 10:00:03.552418491,1744185603,551875046,mA1/gps,0,1,63.43462413826087,10.393091202271405,0.0,1.4400000000000002e-10,0.0,0.0,0.0,1.4400000000000002e-10,0.0,0.0,0.0,1.0,2
2025/04/09 10:00:03.604053676,1744185603,602986814,mA1/gps,0,1,63.434624246248354,10.393091205981074,0.0,1.4400000000000002e-10,0.0,0.0,0.0,1.4400000000000002e-10,0.0,0.0,0.0,1.0,2
2025/04/09 10:00:03.654438180,1744185603,653828845,mA1/gps,0,1,63.43462435088824,10.393091210836698,0.0,1.4400000000000002e-10,0.0,0.0,0.0,1.4400000000000002e-10,0.0,0.0,0.0,1.0,2
2025/04/09 10:00:03.706754397,1744185603,704835908,mA1/gps,0,1,63.434624453753706,10.393091215493747,0.0,1.4400000000000002e-10,0.0,0.0,0.0,1.4400000000000002e-10,0.0,0.0,0.0,1.0,2
2025/04/09 10:00:03.758744247,1744185603,755542027,mA1/gps,0,1,63.43462455645073,10.393091219889346,0.0,1.4400000000000002e-10,0.0,0.0,0.0,1.4400000000000002e-10,0.0,0.0,0.0,1.0,2
2025/04/09 10:00:03.797594279,1744185603,796366462,mA1/gps,0,1,63.43462465570926,10.39309122442088,0.0,1.4400000000000002e-10,0.0,0.0,0.0,1.4400000000000002e-10,0.0,0.0,0.0,1.0,2
2025/04/09 10:00:03.847094790,1744185603,846175723,mA1/gps,0,1,63.43462475453198,10.393091230092466,0.0,1.4400000000000002e-10,0.0,0.0,0.0,1.4400000000000002e-10,0.0,0.0,0.0,1.0,2
