time,header_stamp_secs,header_stamp_nsecs,header_frame_id,quaternion_x,quaternion_y,quaternion_z,quaternion_w
2025/04/09 09:59:47.461559438,1744185587,461379508,,-0.00032087418519542753,5.561376016222204e-06,0.002661810018541789,0.9999964058816679
2025/04/09 09:59:47.561975660,1744185587,561846903,,-0.0003182829397346762,2.3168436173953786e-06,0.0026370858874631025,0.9999964722280897
2025/04/09 09:59:47.663235745,1744185587,662637175,,-0.00033199682144815265,-2.6458947422003946e-06,0.002612242052876738,0.9999965329752734
2025/04/09 09:59:47.764700361,1744185587,764451101,,-0.00034833301201432214,-7.0031324687391315e-06,0.002589209082670942,0.9999965872998743
2025/04/09 09:59:47.865622271,1744185587,865311470,,-0.00036149806501044324,-1.1965054338907493e-05,0.0025665906724880796,0.9999966408885114
2025/04/09 09:59:47.967324962,1744185587,967125151,,-0.00037992137844682197,-1.2167309241133505e-05,0.0025418236338605464,0.9999966973167047
2025/04/09 09:59:48.58371910,1744185588,58075786,,-0.00039428487165491736,-1.1896214757516718e-05,0.002518212291288035,0.9999967514971116
2025/04/09 09:59:48.161798283,1744185588,160742009,,-0.00040640243603577594,-7.78277003732975e-06,0.0024941882494566438,0.9999968068956344
2025/04/09 09:59:48.262507585,1744185588,262291657,,-0.0003930193273980089,-4.988121199127743e-06,0.0024574828073664953,0.999996903139794
2025/04/09 09:59:48.364268547,1744185588,362632487,,-0.00039964722218863836,8.987703871646886e-07,0.002429276247950271,0.9999969694445084
2025/04/09 09:59:48.464010864,1744185588,463781181,,-0.00038925998754165943,4.520467564980738e-06,0.0023931973141092396,0.9999970605271014
2025/04/09 09:59:48.564667216,1744185588,564501096,,-0.0003990620071490321,9.588030703553414e-06,0.0023656137835704094,0.9999971222603649
2025/04/09 09:59:48.666899312,1744185588,666387649,,-0.0003918132790386209,1.081028535712651e-05,0.0023301379406003423,0.9999972084074384
2025/04/09 09:59:48.766794781,1744185588,766493649,,-0.0004039639272055884,1.2394313185482251e-05,0.0023031252481866284,0.9999972661330718
2025/04/09 09:59:48.859334319,1744185588,858009957,,-0.0003977676776922615,9.701034206891552e-06,0.0022681805256584264,0.9999973485184186
2025/04/09 09:59:48.958246993,1744185588,958104439,,-0.00039619362880499845,7.3921250713732865e-06,0.002235708701215442,0.9999974222879618
2025/04/09 09:59:49.63277671,1744185589,62087605,,-0.00040724821862240114,3.4875821381005886e-06,0.0022071570016197937,0.9999974812941758
2025/04/09 09:59:49.162825653,1744185589,162165868,,-0.0004185416176248401,4.072637543956788e-07,0.002178968066903235,0.9999975384574263
2025/04/09 09:59:49.264782235,1744185589,262957121,,-0.0004173239266083838,-5.295465321630335e-06,0.00215292694834257,0.9999975953562356
2025/04/09 09:59:49.363739737,1744185589,363584377,,-0.00041212894160573885,-7.9691904272606e-06,0.0021254999367561847,0.9999976561653764
2025/04/09 09:59:49.465965874,1744185589,465790713,,-0.00040036201207471837,-1.0975966694026212e-05,0.002099198901108789,0.9999977164742733
2025/04/09 09:59:49.568892817,1744185589,567601567,,-0.00039099055282683403,-1.0000742349261614e-05,0.0020715400237621005,0.9999977778716824
2025/04/09 09:59:49.659085439,1744185589,657485338,,-0.0003810895558075063,-9.080346166779768e-06,0.002045270481685607,0.9999978357761353
2025/04/09 09:59:49.759691524,1744185589,758263358,,-0.00036027841427671825,-5.082639142451489e-06,0.0020137537282784285,0.9999979074825871
2025/04/09 09:59:49.860784746,1744185589,860627413,,-0.000368360126388978,8.862782933062908e-07,0.0019909506811082427,0.9999979502106078
2025/04/09 09:59:49.964436995,1744185589,964154238,,-0.000368496554117057,6.2874385540031205e-06,0.0019596621573604468,0.9999980119455172
2025/04/09 09:59:50.65480645,1744185590,65286023,,-0.0003917966615134034,1.0789246751205273e-05,0.0019365392738752351,0.9999980480953995
2025/04/09 09:59:50.166815082,1744185590,166628865,,-0.0003997937023515543,1.294219724228284e-05,0.001904924533876529,0.9999981056282133
2025/04/09 09:59:50.258999024,1744185590,258849008,,-0.0004229039423151194,1.2983250227317253e-05,0.0018815622668033184,0.9999981403518343
2025/04/09 09:59:50.362052343,1744185590,361914382,,-0.00042331176899710373,1.0467597788362671e-05,0.0018499037779671863,0.9999981992751726
2025/04/09 09:59:50.462925638,1744185590,462749549,,-0.0004332299771127198,6.3872535940589745e-06,0.001826755471350621,0.9999982376161659
2025/04/09 09:59:50.565165879,1744185590,563977501,,-0.00044385996576884056,3.189166566774565e-06,0.0018072710732104542,0.9999982683732147
2025/04/09 09:59:50.665033950,1744185590,664861163,,-0.00043881180373485644,-2.223330755929269e-06,0.0017852066262270944,0.999998310236852
2025/04/09 09:59:50.765881088,1744185590,765686328,,-0.0004262525786724345,-5.844461950717635e-06,0.0017645611362099016,0.9999983522979315
2025/04/09 09:59:50.860115010,1744185590,859981092,,-0.0004112359142132675,-9.605934286470655e-06,0.001744360273946757,0.9999983939987022
2025/04/09 09:59:50.962992629,1744185590,962003908,,-0.00037003381104641,-1.2654485045525096e-05,0.0017118444361062992,0.9999984662505584
2025/04/09 09:59:51.62036517,1744185591,61772437,,-0.00035291334657440275,-1.3235593411151637e-05,0.001687860759621904,0.9999985132004172
2025/04/09 09:59:51.163746703,1744185591,163225373,,-0.0003309488917102165,-1.1867711859815757e-05,0.0016555955603303376,0.9999985746666488
2025/04/09 09:59:51.265293288,1744185591,264675338,,-0.0003411950803413708,-8.126768963170011e-06,0.001631980972223268,0.9999986100780236
2025/04/09 09:59:51.365444670,1744185591,365263305,,-0.0003482520516281904,-3.2292549496762987e-06,0.0016002661475085168,0.9999986589282696
2025/04/09 09:59:51.469724464,1744185591,469538120,,-0.00038210618173689474,2.478925292596296e-06,0.0015771941150152131,0.9999986832228552
2025/04/09 09:59:51.557738341,1744185591,557519117,,-0.0004496927009215095,3.0306149520679642e-05,0.0015762451825938233,0.9999986561536652
2025/04/09 09:59:51.659331209,1744185591,659145327,,-0.00044558890026421676,0.0001228593801651921,0.0015435714465778766,0.9999987018708044
2025/04/09 09:59:51.760513658,1744185591,760364265,,-0.0003717827408590861,0.0003001691029985651,0.0014702627915593666,0.9999988050009995
2025/04/09 09:59:51.860781372,1744185591,860655925,,-0.00031595041673101223,0.0005588047352671637,0.0014057099392322016,0.9999988059453715
2025/04/09 09:59:51.962053783,1744185591,961492506,,-0.00026772853573980447,0.0008653139912870468,0.0013385359848081281,0.9999986939364196
2025/04/09 09:59:52.63894713,1744185592,62837257,,-0.00023635869713471057,0.001161955757455215,0.0012688452996947302,0.9999984920113577
2025/04/09 09:59:52.171785595,1744185592,167561075,,-0.0002192915979693579,0.0013770541396236776,0.0011881606050488033,0.9999983219523262
2025/04/09 09:59:52.263345387,1744185592,261140728,,-0.00020622878727435324,0.0014621019988599897,0.001087890636651092,0.9999983181092831
2025/04/09 09:59:52.358677259,1744185592,357879440,,-0.00019087800044248688,0.0014012246971623701,0.0009590270693073219,0.9999985401999432
2025/04/09 09:59:52.460239233,1744185592,459186305,,-0.00020077205698501598,0.0012084261366286254,0.000817360528142554,0.9999989156587223
2025/04/09 09:59:52.560197055,1744185592,560030846,,-0.0002341038628656925,0.0009021694928191614,0.0006675161365084473,0.9999993428536816
2025/04/09 09:59:52.661843461,1744185592,661685462,,-0.00024156834955837804,0.0005479784086339165,0.0004690109396230336,0.9999997106965255
2025/04/09 09:59:52.762251145,1744185592,762036047,,-0.0002787479448453549,0.0002056731520741439,0.00024720009141827024,0.9999999094451222
2025/04/09 09:59:52.866625683,1744185592,865415146,,-0.0003662222886651076,-8.720190372997008e-05,3.860240606980955e-05,0.9999999283934562
2025/04/09 09:59:52.958584841,1744185592,957486870,,-0.0004548438666692177,-0.0002629557933579725,-0.00017416658845844334,0.9999998468186418
2025/04/09 09:59:53.58661492,1744185593,58491328,,-0.000526787920927976,-0.0003019184336129,-0.0003880934651432225,0.9999997403615704
2025/04/09 09:59:53.162210913,1744185593,160371540,,-0.0005676532212061336,-0.00020012866580221145,-0.0005940950398296973,0.9999996423846467
2025/04/09 09:59:53.262269378,1744185593,261213384,,-0.0005544227776499578,2.336349302259155e-05,-0.0007981238672503327,0.9999995275338001
2025/04/09 09:59:53.362101538,1744185593,361983108,,-0.0005103056875058674,0.0003211404925314874,-0.0009951502248823007,0.9999993230662305
2025/04/09 09:59:53.462825695,1744185593,462683058,,-0.00045568015021732174,0.0006555989419793852,-0.0011874735151923398,0.9999989762256153
2025/04/09 09:59:53.565240276,1744185593,563718961,,-0.00036020429188519314,0.0009340472120331624,-0.0014104716550350565,0.9999985041880733
2025/04/09 09:59:53.666807814,1744185593,666440232,,-0.0002864256833735344,0.0011235964829656147,-0.0016476320757357924,0.9999979703978475
2025/04/09 09:59:53.765307861,1744185593,765106876,,-0.00026667078907138825,0.0011984204382959915,-0.0018876675367773697,0.9999974646899931
2025/04/09 09:59:53.866463011,1744185593,866190047,,-0.0003033550665748937,0.0011070045777439646,-0.0021304639247144725,0.9999970718157298
2025/04/09 09:59:53.968269366,1744185593,967218112,,-0.0003849662656918008,0.0009050945541450676,-0.002376757999806418,0.9999966918076443
2025/04/09 09:59:54.59925047,1744185594,58828220,,-0.0004893894506350473,0.0005949207392961091,-0.0026268829650359015,0.9999962530195639
2025/04/09 09:59:54.160150755,1744185594,159524956,,-0.0005475999288406927,0.00026163855671654376,-0.0029167012853911125,0.9999955622567509
2025/04/09 09:59:54.260085117,1744185594,259846188,,-0.0006428972641180935,-7.716502241763384e-05,-0.003185155077648537,0.9999947177439481
2025/04/09 09:59:54.363045151,1744185594,361428984,,-0.0006713774144522874,-0.0003337218517794518,-0.003480080099463429,0.9999936634422212
2025/04/09 09:59:54.462247214,1744185594,462117591,,-0.0006502279556816743,-0.0004701034941290945,-0.0037893917879813256,0.9999924983299563
2025/04/09 09:59:54.564963943,1744185594,563873816,,-0.0006161967637108326,-0.00047859245141107444,-0.004090055485996676,0.9999913313108946
2025/04/09 09:59:54.666254847,1744185594,664766837,,-0.0005529557074572941,-0.0003441853915445191,-0.004380520314509049,0.9999901933610029
2025/04/09 09:59:54.765173538,1744185594,765038551,,-0.0004658244876781472,-0.00010343177782690802,-0.00466556263914126,0.999989002356863
2025/04/09 09:59:54.866648002,1744185594,866520600,,-0.0003907886778099998,0.00020749462015108716,-0.0049346055532388635,0.9999877268737981
2025/04/09 09:59:54.960408418,1744185594,959986799,,-0.0003278529652658574,0.0005187361625073989,-0.005192629238504972,0.9999863299199736
2025/04/09 09:59:55.62722116,1744185595,61438487,,-0.00023639628534890305,0.0007991030928193543,-0.005482872757917909,0.999984621710436
2025/04/09 09:59:55.162262623,1744185595,162061727,,-0.00018462428167234638,0.000974371948526885,-0.005786563492433857,0.999982765949558
2025/04/09 09:59:55.258170935,1744185595,257825753,,-0.00019936290023636852,0.0010161866698897458,-0.006092410055093602,0.9999809048970918
2025/04/09 09:59:55.359721006,1744185595,359224314,,-0.00022901843899720016,0.0009252304893566889,-0.006437840533033207,0.9999788226299432
2025/04/09 09:59:55.460127804,1744185595,460004016,,-0.00035794443800024785,0.0006898703521209925,-0.006764645521705627,0.9999768174941068
2025/04/09 09:59:55.560878606,1744185595,560582155,,-0.0005224521978972739,0.00038107848821456787,-0.007082203072174018,0.9999747117915189
2025/04/09 09:59:55.661545439,1744185595,661416131,,-0.0006657382721537874,4.463344430513801e-05,-0.0074026780381378846,0.9999723771976265
2025/04/09 09:59:55.766199276,1744185595,765529636,,-0.000713131024967747,-0.0002633207006294613,-0.007762010903592198,0.9999695861840411
2025/04/09 09:59:55.863354062,1744185595,863090303,,-0.0006944811173128136,-0.0005051594430658736,-0.008134983477861426,0.9999665417171365
2025/04/09 09:59:55.965454730,1744185595,963799766,,-0.0006267999842637763,-0.0006077475692681951,-0.00851872999779188,0.9999633338297442
2025/04/09 09:59:56.65216067,1744185596,64921992,,-0.0005316138369431975,-0.0005700906319825764,-0.008914606816470645,0.9999599602827642
2025/04/09 09:59:56.168722321,1744185596,167042483,,-0.0004305096459776478,-0.00040113470568180665,-0.009320422271775191,0.9999563907896526
2025/04/09 09:59:56.262849070,1744185596,260421253,,-0.00034665126946793853,-0.00014176807200585157,-0.009735865787146386,0.9999525351995893
2025/04/09 09:59:56.372351314,1744185596,371953094,,-0.00029857315703433747,0.00017460847916279918,-0.010160517173571606,0.999948320792987
2025/04/09 09:59:56.468037418,1744185596,466728104,,-0.0002914133145208055,0.0004740802686545806,-0.01058695315373177,0.9999438017954307
2025/04/09 09:59:56.561369686,1744185596,561191296,,-0.0003225319596243122,0.0007173150753366263,-0.011023270358205408,0.9999389326068006
2025/04/09 09:59:56.664302346,1744185596,662301142,,-0.00038715594228600083,0.0008445608641620461,-0.01147146395264129,0.999933768977729
2025/04/09 09:59:56.763586471,1744185596,763359313,,-0.00046809962580659847,0.0008489138550298748,-0.01192928087797416,0.9999283736777057
2025/04/09 09:59:56.863958286,1744185596,863772924,,-0.0005446115789765812,0.000712596924001816,-0.01239694364616051,0.9999227527124712
2025/04/09 09:59:56.966208549,1744185596,966065885,,-0.0005995480361964426,0.0004646951426645932,-0.012875415428661175,0.9999168206796584
2025/04/09 09:59:57.67223355,1744185597,67001284,,-0.0006158899731235058,0.00014766721652147616,-0.013356414376791333,0.9999105985381541
2025/04/09 09:59:57.158333203,1744185597,158156195,,-0.0005877779428728541,-0.00017203069367522798,-0.013840830778481352,0.9999040235572071
2025/04/09 09:59:57.261853581,1744185597,261619899,,-0.0005650818250236805,-0.00044117801980594754,-0.014289934390449706,0.9998976366706757
2025/04/09 09:59:57.363694484,1744185597,362500727,,-0.00046919160205544504,-0.0006174883351685306,-0.014761969847944163,0.9998907354374301
2025/04/09 09:59:57.463360329,1744185597,463217013,,-0.00034001983151130897,-0.0006616603222233114,-0.015271112110528017,0.9998831130322383
2025/04/09 09:59:57.565363136,1744185597,565177839,,-0.00022941602895281663,-0.000579008629986348,-0.01581467260058963,0.9998747462796669
2025/04/09 09:59:57.667456741,1744185597,667303809,,-0.00017953015723376256,-0.00037785660077008785,-0.01638228651804296,0.9998657138244879
2025/04/09 09:59:57.760812647,1744185597,759387187,,-0.00020299949161422108,-0.00010927839444440825,-0.016969436609752017,0.9998559821647248
2025/04/09 09:59:57.859681592,1744185597,859520079,,-0.0002897254431304243,0.00020383588025434427,-0.017575243849830648,0.9998454807187561
2025/04/09 09:59:57.960728440,1744185597,960485118,,-0.0004200493625686487,0.0004548600293247008,-0.018196085541748546,0.9998342458286994
2025/04/09 09:59:58.63045093,1744185598,62849170,,-0.0005528441866481672,0.0006546709398142479,-0.018824926705760397,0.9998224281860197
2025/04/09 09:59:58.165527890,1744185598,165110383,,-0.0006458390392729824,0.0007247948810000839,-0.019481188924468887,0.9998097523241134
2025/04/09 09:59:58.268707271,1744185598,267637332,,-0.0007042437244439971,0.0006730310791665064,-0.020146078820732223,0.999796572597692
2025/04/09 09:59:58.366549251,1744185598,366365935,,-0.0007512573864942307,0.0004794204502641761,-0.020771578174521348,0.9997838502939077
2025/04/09 09:59:58.467211103,1744185598,466875868,,-0.0007251995321015286,0.00022254952838128084,-0.021387015216142356,0.9997709838445455
2025/04/09 09:59:58.558248152,1744185598,558085842,,-0.0006145757103005169,-7.110540972246881e-05,-0.022005561560257004,0.9997576568854748
2025/04/09 09:59:58.660459790,1744185598,659373246,,-0.00044207945198591875,-0.00035067267812421423,-0.02263517995301387,0.999743632249251
2025/04/09 09:59:58.762213388,1744185598,760982817,,-0.000245877067619421,-0.0005478773045107188,-0.023294791054218993,0.9997284591751238
2025/04/09 09:59:58.863130705,1744185598,861974962,,-9.602140474233276e-05,-0.0006514728044582948,-0.023980133558690844,0.9997122183696577
2025/04/09 09:59:58.964639937,1744185598,962669229,,-3.522959623319075e-05,-0.0006372325934558489,-0.024688123810349648,0.9996949981050332
2025/04/09 09:59:59.64738111,1744185599,64522777,,-7.813129895323494e-05,-0.0005048942027094898,-0.025408746013904783,0.9996770151420633
2025/04/09 09:59:59.170282184,1744185599,169501287,,-0.0002108385744933153,-0.00028782375503838824,-0.026137595811710858,0.9996582910123665
2025/04/09 09:59:59.267615452,1744185599,267031845,,-0.0003941164629846042,-3.224261328276957e-05,-0.026867879702836626,0.9996389151453146
2025/04/09 09:59:59.357778912,1744185599,357536355,,-0.0005734840564332227,0.0002409645681906308,-0.0275950626786859,0.9996189901997027
2025/04/09 09:59:59.458439560,1744185599,458296558,,-0.0007036162989812326,0.00045936285162240313,-0.028320883582661778,0.9995985301424626
2025/04/09 09:59:59.561491856,1744185599,559243386,,-0.0007569799441847163,0.0005889610998707632,-0.02904542516105749,0.9995776324945453
2025/04/09 09:59:59.660164955,1744185599,659964671,,-0.0007258612087382685,0.0006205485360473948,-0.029766032664660453,0.999556437298278
2025/04/09 09:59:59.763077832,1744185599,761927956,,-0.0006259885857933332,0.0005442385808875662,-0.0304786383719895,0.9995350741948213
2025/04/09 09:59:59.865426430,1744185599,863080169,,-0.00048263640671110733,0.00036758233959843914,-0.031173002601474327,0.9995138197414436
2025/04/09 09:59:59.966056220,1744185599,964601309,,-0.00032620619534418213,0.00013223283159617902,-0.03184871391663312,0.9994926390553623
2025/04/09 10:00:00.66435647,1744185600,66239473,,-0.00020064876795759727,-0.00011003711492028213,-0.03250322652658404,0.9994716043476507
2025/04/09 10:00:00.167160666,1744185600,166934783,,-0.000138648453454757,-0.0003299710046405994,-0.03313416678511115,0.9994508486600023
2025/04/09 10:00:00.260304307,1744185600,260155916,,-0.00015588656779336155,-0.0004756787402815694,-0.03373838767162212,0.9994305731897706
2025/04/09 10:00:00.362615799,1744185600,361267370,,-0.0002514043773437683,-0.0005322971038877965,-0.034312742428763816,0.9994109711038045
2025/04/09 10:00:00.462744840,1744185600,461698451,,-0.0004121865331033303,-0.00047652422143131277,-0.03484567671599958,0.9993925063963269
2025/04/09 10:00:00.563351045,1744185600,562704741,,-0.000584438983386372,-0.00031840372210079326,-0.035341443676917765,0.9993750744385091
2025/04/09 10:00:00.663917788,1744185600,663792471,,-0.0007224032761657848,-0.0001029912087278881,-0.03580410722238142,0.9993585609941638
2025/04/09 10:00:00.764578949,1744185600,764436872,,-0.000786381974689998,0.00016185165160242715,-0.036228202662353125,0.9993432206901132
2025/04/09 10:00:00.867780183,1744185600,866886214,,-0.0007624704089699509,0.00040199892994707625,-0.03661640043583218,0.999329023022377
2025/04/09 10:00:00.970021125,1744185600,969536720,,-0.0006330959334121261,0.0005922103099404812,-0.0369983593099638,0.9993149502958808
2025/04/09 10:00:01.57750467,1744185601,57595948,,-0.0005013760447917595,0.0007153455091576664,-0.037325186800239614,0.9993027906161333
2025/04/09 10:00:01.159483683,1744185601,159328627,,-0.0003773184040110114,0.0007170435729620763,-0.03761247153731518,0.999292072151176
2025/04/09 10:00:01.262098846,1744185601,261637110,,-0.000275389177085156,0.0006049976174065649,-0.037874797846973424,0.9992822713461572
2025/04/09 10:00:01.364442339,1744185601,363386466,,-0.00021482409450838513,0.0003939452391426792,-0.03811231950970335,0.9992733608774664
2025/04/09 10:00:01.463779057,1744185601,463396896,,-0.0002147842014423079,0.00012511682465835876,-0.03831689427275865,0.9992656072470508
2025/04/09 10:00:01.564627912,1744185601,564459783,,-0.00025698456968624716,-0.00017563348764996204,-0.038491779799674615,0.9992588683617786
2025/04/09 10:00:01.665432153,1744185601,665258933,,-0.00031882004958731086,-0.00044315343268852634,-0.03864091086189391,0.9992530119927456
2025/04/09 10:00:01.766066016,1744185601,765942543,,-0.00037958978011616763,-0.0006573730439788732,-0.038777363454032314,0.9992475868651541
2025/04/09 10:00:01.868323620,1744185601,867672852,,-0.00044649534514902995,-0.0007665604035360059,-0.038887685098272055,0.9992431941097983
2025/04/09 10:00:01.958760663,1744185601,957727415,,-0.000492981952559643,-0.0007681105082048747,-0.0389741768338777,0.9992398013065549
2025/04/09 10:00:02.61092511,1744185602,59295660,,-0.0005089186219044594,-0.0006600458500333264,-0.03903956365989063,0.9992373180634105
2025/04/09 10:00:02.161789759,1744185602,160709899,,-0.0004903400187242159,-0.00046934317840575593,-0.03908172925530493,0.9992357868501618
2025/04/09 10:00:02.263511884,1744185602,262282817,,-0.000434656070861919,-0.0002309687819840989,-0.03910813636840497,0.9992348629813274
2025/04/09 10:00:02.363711578,1744185602,362493101,,-0.00036871156677153094,4.3227119590550275e-06,-0.03911237078399251,0.9992347504389297
2025/04/09 10:00:02.464836852,1744185602,463728062,,-0.00029507353998720054,0.00020338710364400066,-0.03910523676156255,0.9992350334246264
2025/04/09 10:00:02.565688624,1744185602,565455614,,-0.0002349387703671096,0.00032412609765182206,-0.03909065689299135,0.9992355879819941
2025/04/09 10:00:02.667165952,1744185602,666056720,,-0.0002079644581727498,0.00033065238986109866,-0.03906620891292621,0.9992365479409532
2025/04/09 10:00:02.768392851,1744185602,766930124,,-0.00021840946539318108,0.00023574213767515315,-0.03902704576304575,0.9992381029674354
2025/04/09 10:00:02.858227522,1744185602,857990878,,-0.0002474295680878186,4.437883005782985e-05,-0.03897774091414029,0.999240047497276
2025/04/09 10:00:02.959808471,1744185602,958243884,,-0.0002789894512915503,-0.0002060179919587424,-0.038924198039512733,0.9992421060626168
2025/04/09 10:00:03.60432425,1744185603,59231585,,-0.00031240870739583377,-0.00048443286313449565,-0.03886955307122227,0.9992441271129113
2025/04/09 10:00:03.160326598,1744185603,160202221,,-0.0003327276259174759,-0.0007228764485063703,-0.03881919973523339,0.999245933929122
2025/04/09 10:00:03.262031620,1744185603,261803810,,-0.000345298506331838,-0.0008944522394881071,-0.03877306627757467,0.9992475819613313
2025/04/09 10:00:03.363244262,1744185603,362039088,,-0.00035152423495243357,-0.0009738783094981377,-0.03872956537964219,0.9992491925226933
2025/04/09 10:00:03.465579985,1744185603,464348546,,-0.00034540627572589603,-0.0009395092966800034,-0.03869742411265013,0.9992504727964014
2025/04/09 10:00:03.563642364,1744185603,563408856,,-0.0003444991168551542,-0.0008036103692640638,-0.038671080423195274,0.9992516114921385
2025/04/09 10:00:03.666721804,1744185603,665561710,,-0.0003508442308967948,-0.0005929231892109703,-0.03864062034770313,0.999252934851613
2025/04/09 10:00:03.768716244,1744185603,767635823,,-0.0003553264526302311,-0.0003463197937103127,-0.0386118379255981,0.9992541617515135
2025/04/09 10:00:03.858385908,1744185603,857841847,,-0.0003573049596769816,-0.00010088967514671717,-0.038578438384545936,0.9992555059874572
2025/04/09 10:00:03.959696398,1744185603,958749324,,-0.00034025334263878724,8.512199817803806e-05,-0.03855745384894651,0.9992563233398098
2025/04/09 10:00:04.62130651,1744185604,59668825,,-0.0003274208607234965,0.0001808433547000248,-0.03853812333908156,0.9992570605908986
2025/04/09 10:00:04.160625133,1744185604,160383704,,-0.000322541708444858,0.00017353942601215365,-0.038511011681287614,0.9992581087137585
2025/04/09 10:00:04.263811977,1744185604,260780679,,-0.0003089120468255339,8.564000959655826e-05,-0.03849025741513594,0.9992589240648555
2025/04/09 10:00:04.363031364,1744185604,361949792,,-0.0003051139870691967,-0.00010681821670433225,-0.03846908756594396,0.9992597384049691
2025/04/09 10:00:04.463366510,1744185604,462802391,,-0.00031959690601222657,-0.00033997998138965,-0.038433383476803105,0.9992610556335891
2025/04/09 10:00:04.563581957,1744185604,563361630,,-0.00034669569927161696,-0.0005703783463187033,-0.038373264372649214,0.9992632521272965
2025/04/09 10:00:04.666721066,1744185604,666492299,,-0.0003710498516492884,-0.0007790865064561923,-0.03829373092947281,0.9992661534935146
2025/04/09 10:00:04.765478588,1744185604,765324389,,-0.00035085560625406595,-0.000913203902884254,-0.03822014231597374,0.9992688645606457
2025/04/09 10:00:04.866385960,1744185604,866188751,,-0.00030719236464507794,-0.0009450561053772041,-0.038137196177684435,0.9992720184061563
2025/04/09 10:00:04.968225470,1744185604,968031059,,-0.0002451044356163606,-0.000875748592219174,-0.03805369694846852,0.9992752819602679
2025/04/09 10:00:05.58281198,1744185605,58061884,,-0.00019645379407892102,-0.0007194374217323567,-0.037959248861978837,0.9992790097072676
2025/04/09 10:00:05.160947614,1744185605,159839169,,-0.00016089148985949542,-0.0004959056816968858,-0.03786178907780259,0.9992828494071693
2025/04/09 10:00:05.260576075,1744185605,260309468,,-0.0001528798011730399,-0.00024654075480338636,-0.037758390669452115,0.9992868556022718
2025/04/09 10:00:05.361423952,1744185605,360874351,,-0.00015784951081084344,-1.8038857489058497e-05,-0.03765601074796115,0.9992907482873445
2025/04/09 10:00:05.462807100,1744185605,461796402,,-0.00017428429985467232,0.00015186579645753536,-0.03755607220393827,0.9992944951326287
2025/04/09 10:00:05.566142756,1744185605,564657596,,-0.00020739859296774944,0.00023794686081397699,-0.03745480108789423,0.9992982729108368
2025/04/09 10:00:05.665401017,1744185605,665240594,,-0.0002675227461272128,0.0002343414648271675,-0.03733743742510111,0.9993026514936227
2025/04/09 10:00:05.766338955,1744185605,766195253,,-0.0003253355599227898,0.00012478473358254388,-0.037213348781901856,0.9993072827003615
2025/04/09 10:00:05.867152102,1744185605,866929796,,-0.00035521154924560107,-5.5742880815316425e-05,-0.0371037986245178,0.9993113523047348
2025/04/09 10:00:05.958350796,1744185605,958022285,,-0.0003679471407959065,-0.0002807487788784371,-0.036993907169777476,0.999315383964111
2025/04/09 10:00:06.58646746,1744185606,58459744,,-0.00036178215019253533,-0.0004902898064993227,-0.036883598729648547,0.9993193828172912
2025/04/09 10:00:06.160345309,1744185606,160082721,,-0.00034966895475511907,-0.0006633599079199816,-0.036766932913835586,0.9993235863970009
2025/04/09 10:00:06.262228541,1744185606,262072174,,-0.00031827147515983267,-0.0007543107461696057,-0.036647087083560605,0.9993279345274284
2025/04/09 10:00:06.363010307,1744185606,362803076,,-0.0002753694067695301,-0.0007583295349573411,-0.0365271963057721,0.999332333629832
2025/04/09 10:00:06.464191775,1744185606,463792583,,-0.00030169271916992337,-0.0006530748383111124,-0.036355996418428016,0.9993386433032508
2025/04/09 10:00:06.564778249,1744185606,564563327,,-0.00041297307277249345,-0.0004942259472392121,-0.036104109039223405,0.9993478265871388
2025/04/09 10:00:06.657800335,1744185606,657674116,,-0.0004704623804535297,-0.00028745916008588416,-0.03585179568756316,0.9993569656425861
2025/04/09 10:00:06.759645053,1744185606,759494073,,-0.00036392112302471234,-5.4414703778524225e-05,-0.03567543847018989,0.9993633611907212
2025/04/09 10:00:06.860818638,1744185606,860673733,,-0.0002165406820407198,0.00015024244596073687,-0.035514946049166746,0.9993691105614908
2025/04/09 10:00:06.961856573,1744185606,961672846,,-0.0001345340221168768,0.000286621419297394,-0.0353194489996132,0.9993760234622014
2025/04/09 10:00:07.64007024,1744185607,63521681,,-3.83507005103481e-05,0.00034789654303968054,-0.03515691104331174,0.9993817434309633
2025/04/09 10:00:07.166005818,1744185607,165801291,,4.910851078680877e-05,0.00032520987292058534,-0.03503288393883998,0.9993861060019898
2025/04/09 10:00:07.267766936,1744185607,267546690,,8.974697763998751e-05,0.00023318731202543182,-0.034937854354098796,0.9993894555688935
2025/04/09 10:00:07.359688966,1744185607,358588102,,4.427551095895232e-05,7.17387341252471e-05,-0.034851872706849106,0.9993924853940311
2025/04/09 10:00:07.458858897,1744185607,458657323,,-8.793540723670922e-05,-0.00010324166210068966,-0.03477011765421733,0.9993953274489706
2025/04/09 10:00:07.564521380,1744185607,564205390,,-0.0002764076884718467,-0.0002813896228575726,-0.034689798768413875,0.999398049968118
2025/04/09 10:00:07.665643899,1744185607,665452669,,-0.0004642088626271058,-0.00040901695266202837,-0.03461292658864266,0.9994006016249107
2025/04/09 10:00:07.768039763,1744185607,766906764,,-0.0006014206387833955,-0.0004819716798533767,-0.0345518637021799,0.9994026089175578
2025/04/09 10:00:07.857867679,1744185607,857636437,,-0.0006523211125573112,-0.00047231835869933033,-0.034515057756370975,0.9994038533949169
2025/04/09 10:00:07.958338985,1744185607,957963524,,-0.0006246032092029441,-0.0003755803453335758,-0.03449551018781612,0.9994045870352595
2025/04/09 10:00:08.62974427,1744185608,62858629,,-0.0005501684906246626,-0.0002208354984575579,-0.03447770866432866,0.9994052912365294
2025/04/09 10:00:08.165203638,1744185608,163642027,,-0.00043222349618625243,-2.5446507894960735e-05,-0.03447416967764892,0.9994054953622985
2025/04/09 10:00:08.266401992,1744185608,266280494,,-0.00031303587314363587,0.00016846484163621778,-0.03447369830722417,0.9994055421865349
2025/04/09 10:00:08.357845923,1744185608,357656487,,-0.0002191809166451719,0.00033877671437073986,-0.034471524493701694,0.9994055989382608
2025/04/09 10:00:08.458415193,1744185608,458224673,,-0.00018672049424030938,0.0004704522476776934,-0.0344553098263612,0.9994061113655995
2025/04/09 10:00:08.559427633,1744185608,559321015,,-0.00018668708660274198,0.0005028847278504001,-0.034450064987998345,0.9994062763847368
2025/04/09 10:00:08.660733401,1744185608,660466416,,-0.00021474256494228742,0.00045539755171666917,-0.03445967303988997,0.9994059622759335
2025/04/09 10:00:08.762849999,1744185608,762490636,,-0.0002627699850255461,0.000351702351624625,-0.034488119153928985,0.9994050114416153
2025/04/09 10:00:08.862617601,1744185608,862469929,,-0.00032896517241270143,0.00018881608542856425,-0.03453088470647674,0.9994035591950777
2025/04/09 10:00:08.964019334,1744185608,963880363,,-0.00040117791555884175,1.5649747408990064e-06,-0.03459011108311393,0.9994015025349365
2025/04/09 10:00:09.66029795,1744185609,65286749,,-0.0004759579935206925,-0.0001740560029538273,-0.03465458703691984,0.999399220915144
2025/04/09 10:00:09.167155105,1744185609,165777611,,-0.0005359767207090909,-0.0002944810741647267,-0.03471970272086241,0.9993969022629732
2025/04/09 10:00:09.260987153,1744185609,259090397,,-0.0006115269521709024,-0.0003651274733481062,-0.03475584881679942,0.9993955791826071
2025/04/09 10:00:09.358818794,1744185609,358679120,,-0.0006912801624114714,-0.00034834866714230083,-0.03475008668945899,0.9993957335610445
2025/04/09 10:00:09.460466600,1744185609,460295360,,-0.0007576118581899419,-0.00026516772342691946,-0.03469245678843434,0.9993977132014729
2025/04/09 10:00:09.563857079,1744185609,563206557,,-0.0006589759797591069,-0.0001053628337385014,-0.03467324755687279,0.9993984793630573
2025/04/09 10:00:09.662152820,1744185609,662023279,,-0.000370034728664527,7.547238121020763e-05,-0.03475025339687843,0.9993959561990793
2025/04/09 10:00:09.764363379,1744185609,763251434,,-5.5216782652653604e-05,0.00026931967763678085,-0.03486808966042261,0.9993918854690841
2025/04/09 10:00:09.864268793,1744185609,864003280,,0.00016256192890140396,0.0004214742848373223,-0.03499129643031696,0.9993875149846391
2025/04/09 10:00:09.965271822,1744185609,965093316,,0.00024009329117812676,0.0005132507705774377,-0.035119632834870636,0.9993829547868034
2025/04/09 10:00:10.66285408,1744185610,66023199,,0.00011476632620863461,0.0005377212750912202,-0.03522154216437174,0.9993793777400473
2025/04/09 10:00:10.167644168,1744185610,166602282,,-0.00012982270626249963,0.0004680060858273593,-0.03532961003508019,0.9993755964456695
2025/04/09 10:00:10.260584451,1744185610,259840331,,-0.00043013031437388644,0.0003591203507944865,-0.03544347099377392,0.9993715257022284
2025/04/09 10:00:10.361276963,1744185610,361036630,,-0.0007730830126825005,0.00018528205670863528,-0.03552514303293503,0.999368466695695
2025/04/09 10:00:10.462904228,1744185610,461828362,,-0.0010294296063120126,2.6244182696015627e-06,-0.0355959181002428,0.999365734294707
2025/04/09 10:00:10.563293832,1744185610,563160685,,-0.0010613500560901113,-0.00015301219553799428,-0.03571662644989343,0.9993613824429906
2025/04/09 10:00:10.667491954,1744185610,665591608,,-0.0008941266802986642,-0.0002582725169553698,-0.03587591433069299,0.9993558188171635
2025/04/09 10:00:10.767158149,1744185610,766011902,,-0.0006114417877550042,-0.0003044667445733833,-0.03605452984817748,0.9993495906420178
2025/04/09 10:00:10.858301327,1744185610,858158436,,-0.0003432938161384605,-0.00027557709235094356,-0.03621690942295018,0.9993438555764836
2025/04/09 10:00:10.959859925,1744185610,959713517,,-0.0001279973492459994,-0.00018117653858044347,-0.03637599297449123,0.9993381499406796
2025/04/09 10:00:11.62302081,1744185611,62050055,,-3.436280832688208e-06,-2.7821910451906232e-05,-0.03654032545278969,0.999332178922473
2025/04/09 10:00:11.164037318,1744185611,162435815,,-4.2176073035406516e-05,0.00014385625116236352,-0.03667578471629768,0.9993272058450133
2025/04/09 10:00:11.265375359,1744185611,264227945,,-0.00017982572253055694,0.00031959736990871626,-0.03680492875608248,0.9993224018000849
2025/04/09 10:00:11.365602592,1744185611,364437471,,-0.0003711105760561201,0.0004675830193026245,-0.036942191956051716,0.9993172259580752
2025/04/09 10:00:11.466485382,1744185611,465025577,,-0.0005706828244506987,0.0005562548523733547,-0.037082386074761955,0.9993118940274129
2025/04/09 10:00:11.568514128,1744185611,566310696,,-0.0007165797162232826,0.0005669194812106095,-0.03723763050464051,0.9993060211918129
2025/04/09 10:00:11.657858114,1744185611,657705328,,-0.0007931277372428667,0.000498049424642618,-0.03740181645229974,0.9992998684185
2025/04/09 10:00:11.758249013,1744185611,758049464,,-0.0008089029652895428,0.00036770637337014094,-0.03755286099804688,0.9992942475061473
2025/04/09 10:00:11.861148754,1744185611,860934654,,-0.0007383638390471726,0.00019799674263590487,-0.03769460807574595,0.9992890133180425
2025/04/09 10:00:11.962682084,1744185611,962554217,,-0.0005470813004046561,2.6487194954256398e-05,-0.037870174772707335,0.9992825175410425
2025/04/09 10:00:12.63734711,1744185612,63541235,,-0.00032217068219445293,-0.00012871461639988915,-0.038059934508706206,0.999275397987858
2025/04/09 10:00:12.167771202,1744185612,164458576,,-0.0001305901978517957,-0.00023678411950000083,-0.03824820734341153,0.9992682330157886
2025/04/09 10:00:12.265031315,1744185612,264793588,,-1.4302106549583853e-05,-0.00027745226753686465,-0.03843789466440582,0.9992609524390799
2025/04/09 10:00:12.367407762,1744185612,365805947,,6.588003445929429e-06,-0.00024322041734805753,-0.03863242660796845,0.9992534595460787
2025/04/09 10:00:12.467800729,1744185612,466204758,,-5.088541372781629e-05,-0.00013920193754894105,-0.03884447234986855,0.999245257682695
2025/04/09 10:00:12.563724311,1744185612,562336972,,-0.00018582264772725322,1.1170665943425475e-05,-0.039067271419001584,0.9992365654083291
2025/04/09 10:00:12.660722529,1744185612,660466274,,-0.00036793780190910865,0.00018533419069286381,-0.039301663705849976,0.999227306223646
2025/04/09 10:00:12.764384531,1744185612,763176323,,-0.0006026899726822257,0.0003478729762664546,-0.039512083327482087,0.9992188504128169
2025/04/09 10:00:12.863489095,1744185612,863207831,,-0.000802866746913247,0.0004615051335796193,-0.03971491283507499,0.9992106224998315
2025/04/09 10:00:12.965518916,1744185612,965138227,,-0.000905911603430272,0.0005192538462342813,-0.039921489186918326,0.9992022740169824
2025/04/09 10:00:13.67144735,1744185613,65517237,,-0.0008949152579154517,0.0005126149337539099,-0.04012895574917076,0.9991939767948423
2025/04/09 10:00:13.168729435,1744185613,168612452,,-0.000758068126376456,0.0004339830793955733,-0.040351145335510645,0.9991851790641788
2025/04/09 10:00:13.257635485,1744185613,257388575,,-0.0005045645328545627,0.00031258551378109334,-0.0406121014490718,0.9991748119927859
2025/04/09 10:00:13.359885405,1744185613,358849407,,-0.00024576636359226493,0.00014733614069715553,-0.04088683358091222,0.9991637427022074
2025/04/09 10:00:13.459364001,1744185613,459189572,,-5.653945727551907e-05,-2.16881230506594e-05,-0.04115676397154576,0.9991526995971665
2025/04/09 10:00:13.561887267,1744185613,559903529,,-1.2611683146036466e-05,-0.00014907005126959537,-0.04139167329595056,0.9991429862641416
2025/04/09 10:00:13.663166341,1744185613,662973947,,-8.353588649904335e-05,-0.00023579479458853576,-0.04161352495011386,0.9991337507880498
2025/04/09 10:00:13.764161852,1744185613,763016521,,-0.00022410130499632167,-0.0002567990539257506,-0.04184263008760338,0.9991241555183235
2025/04/09 10:00:13.863889714,1744185613,863705060,,-0.0004477761555828034,-0.00019466005997206031,-0.04204260259691174,0.9991156995918209
2025/04/09 10:00:13.966649177,1744185613,965569342,,-0.0006732889103711432,-9.883922094849993e-05,-0.04222875239376386,0.9991077366250938
2025/04/09 10:00:14.67516691,1744185614,66482920,,-0.000798313371522347,5.183680649826002e-05,-0.042440531220530535,0.999098674465353
2025/04/09 10:00:14.167822746,1744185614,167569343,,-0.0008662285789449509,0.00022082048951758816,-0.04262872253919183,0.9990905829308157
2025/04/09 10:00:14.258948900,1744185614,257708904,,-0.0008435110626190525,0.0003600965365419232,-0.042802129862442896,0.9990831479405556
2025/04/09 10:00:14.359866138,1744185614,358733886,,-0.0007191713028252941,0.00045803892224266745,-0.04297615458697105,0.9990757344315293
2025/04/09 10:00:14.460374453,1744185614,460132493,,-0.0005337082866958893,0.0005124888289520495,-0.04314876926205304,0.9990683841568779
2025/04/09 10:00:14.560742499,1744185614,560149924,,-0.00033654701386710785,0.0004991046117906471,-0.04331652804098618,0.9990612173581599
2025/04/09 10:00:14.664114614,1744185614,663917277,,-0.0001773656191471993,0.0004194358324502521,-0.04347813825272003,0.999054274856525
2025/04/09 10:00:14.766404185,1744185614,766013997,,-9.300733568103853e-05,0.00029041602989281955,-0.04363249529565972,0.9990476026508643
2025/04/09 10:00:14.868356009,1744185614,865783937,,-9.57777593035628e-05,0.00014618768820689578,-0.04377374535531781,0.9990414549323509
2025/04/09 10:00:14.967041368,1744185614,966863200,,-0.0001879132708556232,-1.623179360678007e-05,-0.04390690051354578,0.9990356092314353
2025/04/09 10:00:15.57950953,1744185615,57773432,,-0.0003509264525426568,-0.0001295231036851422,-0.044030034768161905,0.9990301377399508
2025/04/09 10:00:15.159563350,1744185615,158353080,,-0.0005418489878487588,-0.00020538631747387304,-0.044135978425253145,0.9990253648554578
2025/04/09 10:00:15.262678307,1744185615,261964019,,-0.0007264734076264426,-0.00024336987141376857,-0.04419868498721183,0.9990224668409089
2025/04/09 10:00:15.363894547,1744185615,362184020,,-0.0008377102345900464,-0.00024229531146493607,-0.04423958729358117,0.9990205695833487
2025/04/09 10:00:15.463141780,1744185615,462985589,,-0.0008546444134507192,-0.0001611475168959513,-0.04428011161120267,0.9990187762650429
2025/04/09 10:00:15.566589891,1744185615,565299473,,-0.0007852290342854413,-1.7139882882474407e-05,-0.04430900268780588,0.9990175651120455
2025/04/09 10:00:15.665723230,1744185615,665571946,,-0.0006469961792624951,0.0001598652434445923,-0.04432508872796696,0.9990169379686742
2025/04/09 10:00:15.768736582,1744185615,767236658,,-0.0004734578200107279,0.0003283570141068583,-0.04433040219803389,0.9990167583480892
2025/04/09 10:00:15.858347311,1744185615,858049178,,-0.0003003300253250507,0.0004940366279294323,-0.04432718200567122,0.9990169000898445
2025/04/09 10:00:15.960318024,1744185615,959295422,,-0.00016878747478446464,0.0005887399014331576,-0.04431543023568586,0.9990174010191929
2025/04/09 10:00:16.60035802,1744185616,59902268,,-0.00010477340781420139,0.0006176112890091591,-0.04429648436169994,0.9990182325923899
2025/04/09 10:00:16.161010848,1744185616,160825300,,-0.00011786621940359702,0.0005595874671246032,-0.04427305055890964,0.99901930409959
2025/04/09 10:00:16.262660141,1744185616,262416018,,-0.0001996455321324169,0.00043775038805125334,-0.04424716502102815,0.999020498740572
2025/04/09 10:00:16.366914912,1744185616,366823102,,-0.0003274144965663322,0.0002696859390966082,-0.04422058827258371,0.9990217012868481
2025/04/09 10:00:16.467644127,1744185616,467457074,,-0.00045885624995657524,8.315065241829231e-05,-0.04420467900435456,0.9990223865815184
2025/04/09 10:00:16.560038680,1744185616,558599470,,-0.0005964198975970297,-9.916974652054746e-05,-0.044179972581552415,0.9990234053671417
2025/04/09 10:00:16.659764894,1744185616,659562171,,-0.0006944901476261518,-0.00021781783775637982,-0.044151827751693344,0.9990245674381633
2025/04/09 10:00:16.761307317,1744185616,760935099,,-0.000744035049646484,-0.0002869640120604576,-0.044114818257856854,0.9990261492441411
2025/04/09 10:00:16.862861490,1744185616,862423764,,-0.00073373897216624,-0.00026991670382225323,-0.04405919035798877,0.9990286164655606
2025/04/09 10:00:16.963231130,1744185616,962831705,,-0.0006595674417407679,-0.0001898857073400849,-0.043989884097219226,0.9990317407426659
2025/04/09 10:00:17.63150455,1744185617,63030324,,-0.0005338968751148527,-4.443710375767541e-05,-0.043911277514278584,0.9990352910115511
2025/04/09 10:00:17.167848216,1744185617,166796449,,-0.00038332885973224443,0.00012989622548861552,-0.04382650108158973,0.9990390753063172
2025/04/09 10:00:17.258598666,1744185617,257411149,,-0.00024111949735620836,0.0003095536064636626,-0.04373709735897827,0.9990429982501073
2025/04/09 10:00:17.359203760,1744185617,358907182,,-0.00012365200260491571,0.0004531202726443702,-0.04366161110402005,0.9990462667504454
2025/04/09 10:00:17.462573223,1744185617,461787985,,-7.06341528730117e-05,0.0005320494808150479,-0.04359775040687684,0.9990490218671084
2025/04/09 10:00:17.563104688,1744185617,562785906,,-9.854803884617753e-05,0.0005532105389214522,-0.04353254722837161,0.9990518512961143
2025/04/09 10:00:17.664272505,1744185617,662535292,,-0.00019601338048816635,0.0004820403365123865,-0.04347326287327053,0.999054455288109
2025/04/09 10:00:17.764712168,1744185617,764506497,,-0.00034171418991162024,0.00036593264790577267,-0.04341935081795896,0.9990568098457948
2025/04/09 10:00:17.862634031,1744185617,862352736,,-0.000498827889954224,0.000197229342227991,-0.043365076883082034,0.9990591485884343
2025/04/09 10:00:17.965405578,1744185617,964352061,,-0.0006359140359674694,2.3732718052437346e-05,-0.04330529381924448,0.9990616830693317
2025/04/09 10:00:18.65333360,1744185618,64856234,,-0.0006725761403991811,-0.0001397830853111488,-0.04327651539840089,0.9990628965770856
2025/04/09 10:00:18.166194089,1744185618,165741696,,-0.0006408834806486843,-0.00024890621567110117,-0.043260526836048516,0.9990635886328395
2025/04/09 10:00:18.267196551,1744185618,266986455,,-0.0005688507078981225,-0.00028478426653914736,-0.043244977796404,0.9990642958299442
2025/04/09 10:00:18.368604001,1744185618,366864378,,-0.0004761248080057541,-0.0002478741819185229,-0.04322757131496369,0.9990651074588517
2025/04/09 10:00:18.458329341,1744185618,457782842,,-0.0003886409943824811,-0.00014820634970085455,-0.04320526082613716,0.99906613015856
2025/04/09 10:00:18.563320454,1744185618,562227461,,-0.00032988295108575246,8.183482000855945e-06,-0.04317531682447792,0.9990674567452266
2025/04/09 10:00:18.663778459,1744185618,663129321,,-0.00031279805338884053,0.0001846762082460667,-0.04313628447965221,0.9990691312483668
2025/04/09 10:00:18.765031930,1744185618,764824699,,-0.00034160975188493565,0.0003474305629365207,-0.04308575953788368,0.9990712586796925
2025/04/09 10:00:18.859490812,1744185618,859212339,,-0.0004094885755207236,0.0004724507422216329,-0.043022221429954495,0.9990739199742102
2025/04/09 10:00:18.963269876,1744185618,961529093,,-0.0005347822606633112,0.0005290218828696835,-0.04291459690558847,0.9990784611411718
2025/04/09 10:00:19.62829458,1744185619,62704182,,-0.0006452487363686716,0.0004926187389428614,-0.042784774500657805,0.9990839824818403
2025/04/09 10:00:19.164861340,1744185619,163560839,,-0.0006990044042983396,0.00039479719648935247,-0.04264472139519615,0.9990899775621526
2025/04/09 10:00:19.263707685,1744185619,263537218,,-0.000655430998315661,0.00024059660923826372,-0.04252386802658059,0.9990952072608176
2025/04/09 10:00:19.366190926,1744185619,366017682,,-0.0005892855633181953,4.702189021006573e-05,-0.042380242179605655,0.9991013790423195
2025/04/09 10:00:19.467426245,1744185619,466599348,,-0.0004588066062889333,-0.00013856716322813669,-0.04225165019131318,0.9991068853489852
2025/04/09 10:00:19.559055220,1744185619,558464343,,-0.0003472370795988017,-0.0002813775874525384,-0.042103574563980936,0.9991131513807628
2025/04/09 10:00:19.659330733,1744185619,659191173,,-0.00025687639949247356,-0.00036468388642214346,-0.04194680463761271,0.9991197458767754
2025/04/09 10:00:19.759924386,1744185619,759719476,,-0.0001912887943904077,-0.0003640519519434374,-0.041793164084795865,0.9991261993915257
2025/04/09 10:00:19.860872290,1744185619,860744488,,-0.00012635962536410462,-0.0002912157478678711,-0.04167467446654493,0.9991311829458336
2025/04/09 10:00:19.962495285,1744185619,962292928,,-0.00011447042840476967,-0.00015208147861691992,-0.041573189406646824,0.999135443115849
2025/04/09 10:00:20.66478036,1744185620,66272859,,-0.00017340891188610295,4.354150875360732e-05,-0.0414760464381216,0.9991394825575401
2025/04/09 10:00:20.167386672,1744185620,167185717,,-0.00028840451028165013,0.0002256734519404328,-0.041383311154907634,0.9991432767387206
2025/04/09 10:00:20.259098641,1744185620,258936454,,-0.0004288009922608295,0.00038508817020314196,-0.04129568069377663,0.9991468033241401
2025/04/09 10:00:20.360138578,1744185620,359827891,,-0.000558423894451936,0.0005009374090015138,-0.04121427792802217,0.9991500490513615
2025/04/09 10:00:20.461353224,1744185620,461217559,,-0.0006457043545344698,0.0005253221130069475,-0.041140989567254205,0.9991530043391709
2025/04/09 10:00:20.562123479,1744185620,561977707,,-0.000673289310576859,0.0004757722824275856,-0.04107483071598173,0.9991557329084856
2025/04/09 10:00:20.666539684,1744185620,666303174,,-0.0006399234832933095,0.0003513141877699432,-0.04101350567296996,0.9991583255063685
2025/04/09 10:00:20.766586009,1744185620,766392059,,-0.0005574795334834324,0.00017785320988455327,-0.04095552125593286,0.9991607993028251
2025/04/09 10:00:20.860743009,1744185620,859996401,,-0.00045261409615973756,4.24250632694601e-06,-0.04090194423918411,0.9991630628080362
2025/04/09 10:00:20.959116173,1744185620,958921764,,-0.0003590089282869111,-0.00016768566992991874,-0.0408488117175727,0.9991652603925778
2025/04/09 10:00:21.59945947,1744185621,59766227,,-0.00029845054654600297,-0.0002901801700254694,-0.04078691427307017,0.9991677808790781
2025/04/09 10:00:21.162111354,1744185621,161068763,,-0.00027863735621668113,-0.00034545482653937777,-0.040719417278233645,0.9991705220224962
2025/04/09 10:00:21.262946317,1744185621,261864394,,-0.00029823288400715405,-0.00033142421565034917,-0.04065113143084077,0.9991733016491827
2025/04/09 10:00:21.362539556,1744185621,362379654,,-0.00035166392824705355,-0.00023638214590921433,-0.04058192300893145,0.9991761246050967
2025/04/09 10:00:21.463960535,1744185621,463813938,,-0.00042760591018130734,-9.166471487294802e-05,-0.04051021928435469,0.9991790284450025
2025/04/09 10:00:21.565974653,1744185621,565797047,,-0.0005114294740522771,7.388356696272053e-05,-0.040438184357483344,0.9991819084766206
2025/04/09 10:00:21.659932572,1744185621,659439584,,-0.0006215877944415342,0.0002354329163484175,-0.04033201008356787,0.9991861123747541
2025/04/09 10:00:21.759201451,1744185621,758896823,,-0.0006914759455136238,0.00036147606292792666,-0.040215742745944374,0.9991907151447439
2025/04/09 10:00:21.859853327,1744185621,859642933,,-0.0007089137254099167,0.0004317292415247425,-0.040090199116404976,0.9991957200598884
2025/04/09 10:00:21.964536279,1744185621,964212471,,-0.0006456126274383868,0.00043183362890461915,-0.039971864817569466,0.9992005037664153
2025/04/09 10:00:22.64404387,1744185622,64110185,,-0.0005315682134879478,0.00034856992142177885,-0.039860065920451014,0.9992050695823463
2025/04/09 10:00:22.168072860,1744185622,166972947,,-0.00040249878788068717,0.00022858660898909035,-0.03974304148272101,0.9992098260108287
2025/04/09 10:00:22.267827798,1744185622,267377143,,-0.00028795029529505634,6.46206737399997e-05,-0.03962101205691426,0.9992147358362875
2025/04/09 10:00:22.359477235,1744185622,359351397,,-0.0002199413326940961,-9.330495205143244e-05,-0.039488992632838234,0.9992199769724581
2025/04/09 10:00:22.461996476,1744185622,461801068,,-0.00019804172809947395,-0.00023083661697967392,-0.03935375813305765,0.9992252945230795
2025/04/09 10:00:22.562847701,1744185622,562706978,,-0.00022129979118671716,-0.00031079504789949724,-0.03922365049663152,0.9992303836826414
2025/04/09 10:00:22.665990220,1744185622,665161886,,-0.0002833418631804773,-0.0003434395382835662,-0.03910010775346363,0.9992351992100457
2025/04/09 10:00:22.767270905,1744185622,765822152,,-0.0003530339279576918,-0.0002946672539313581,-0.03899381220493711,0.9992393462769474
2025/04/09 10:00:22.871850027,1744185622,871541814,,-0.00044592665941927344,-0.00020154832524567375,-0.0388874130220295,0.9992434786557984
2025/04/09 10:00:22.957824323,1744185622,957596649,,-0.0005155386783864146,-6.419825536952343e-05,-0.03879483950935859,0.9992470618049863
2025/04/09 10:00:23.58224299,1744185623,57940644,,-0.0005629298430690667,9.358951338215988e-05,-0.038706454787046415,0.9992504614503879
2025/04/09 10:00:23.159055379,1744185623,158787913,,-0.0005609205160444893,0.0002276199972238779,-0.038635846752604376,0.9992531735766571
2025/04/09 10:00:23.263092855,1744185623,262634765,,-0.0005208606552975561,0.0003425131160680987,-0.03857249929632896,0.9992556097850929
2025/04/09 10:00:23.364556658,1744185623,362952526,,-0.00046378523177216383,0.0003922291364036978,-0.038508640441394,0.9992580826147561
2025/04/09 10:00:23.464535098,1744185623,463473019,,-0.0004172142891816155,0.00037961403958831425,-0.03843639037995977,0.9992608897179841
2025/04/09 10:00:23.565362188,1744185623,565139257,,-0.00037611276744593493,0.0003147398400136924,-0.03836122683895711,0.9992638168939318
2025/04/09 10:00:23.666055574,1744185623,665698844,,-0.00034272808713861755,0.00019470380147412864,-0.038287291344730225,0.9992666951066526
2025/04/09 10:00:23.769709738,1744185623,769534749,,-0.0003241562011946756,5.718519162047753e-05,-0.038219263850392135,0.9992693228170998
2025/04/09 10:00:23.860060121,1744185623,859919398,,-0.00032815019371173945,-8.698875439129463e-05,-0.03815658626492545,0.9992717146377227
2025/04/09 10:00:23.961314748,1744185623,960708876,,-0.00035739274756493405,-0.00020590032104471836,-0.038096744797799405,0.9992739703961537
2025/04/09 10:00:24.62829799,1744185624,61134228,,-0.0004053705683750396,-0.0002768587229771926,-0.03803772512252705,0.9992761832904119
2025/04/09 10:00:24.162484340,1744185624,162304020,,-0.00046049749439087923,-0.0002902456314847474,-0.03797994008613268,0.9992783535384847
2025/04/09 10:00:24.263227663,1744185624,263071290,,-0.000508113086899511,-0.0002619899826078446,-0.037924659940604434,0.999280437790478
2025/04/09 10:00:24.364516280,1744185624,364297631,,-0.000536822996488148,-0.00016678492241487553,-0.03787101504156404,0.9992824776926601
2025/04/09 10:00:24.464760901,1744185624,464491737,,-0.0005439165605402393,-3.4570583429558174e-05,-0.037817057332358156,0.9992845306189679
2025/04/09 10:00:24.569019113,1744185624,568733265,,-0.0005260288906484333,0.00010011499780101873,-0.037764134912911654,0.9992865371778371
2025/04/09 10:00:24.659444849,1744185624,658415839,,-0.00048360728955969615,0.0002277213825659268,-0.037714092976323936,0.9992884275612995
2025/04/09 10:00:24.759203085,1744185624,759027912,,-0.0004297901976496051,0.00032215974278312426,-0.03766585273038796,0.9992902456401638
2025/04/09 10:00:24.861546778,1744185624,860032835,,-0.0003815017169235638,0.00035979682316404263,-0.03761671592487586,0.9992921032839763
2025/04/09 10:00:24.961103203,1744185624,960949389,,-0.0003498723046953643,0.0003422667227548124,-0.037565966689222914,0.9992940300980313
2025/04/09 10:00:25.61821767,1744185625,61544825,,-0.0003388179948171582,0.0002690069553085168,-0.03751535839474329,0.9992959575231646
2025/04/09 10:00:25.163320566,1744185625,163064386,,-0.00034831935594915577,0.00015525373088920923,-0.03747158741979209,0.9992976206847218
2025/04/09 10:00:25.263486356,1744185625,263333235,,-0.0003743711253675973,1.9414707313502908e-05,-0.03743545251657996,0.9992989774658075
2025/04/09 10:00:25.365529956,1744185625,364962848,,-0.0004087958291468218,-0.00011165097560377342,-0.03740668024788893,0.9993000353711902
2025/04/09 10:00:25.466852893,1744185625,466145025,,-0.0004430269641844087,-0.0002187733450654165,-0.03738564734763439,0.9993007901716734
2025/04/09 10:00:25.567696944,1744185625,567544479,,-0.00046917894826545926,-0.0002777746272019837,-0.03737222179613125,0.9993012657604271
2025/04/09 10:00:25.658294845,1744185625,658155340,,-0.00048245231756372095,-0.0002883122792642771,-0.03736609657321626,0.9993014855100897
2025/04/09 10:00:25.761472675,1744185625,761340532,,-0.0004954024013221235,-0.0002369809731846661,-0.037352710749433776,0.9993019931012588
2025/04/09 10:00:25.862954216,1744185625,862142607,,-0.0004486891409573093,-0.00013780298591580537,-0.03736757898223856,0.9993014778981356
2025/04/09 10:00:25.964068458,1744185625,962858203,,-0.00038681462432273633,-6.688405981917594e-06,-0.037401375083061954,0.9993002489100099
2025/04/09 10:00:26.64043832,1744185626,63834997,,-0.00034609979262609225,0.00011746327303690133,-0.03743366094437944,0.9992990480559932
2025/04/09 10:00:26.167667694,1744185626,165854520,,-0.0003358581862787043,0.00023150911215464605,-0.03746748442910379,0.9992977640390098
2025/04/09 10:00:26.268338223,1744185626,267226756,,-0.0003938350370328997,0.00030838297465706724,-0.03747283632223085,0.9992975214278638
2025/04/09 10:00:26.358073412,1744185626,357893446,,-0.00046659943237489267,0.00032193194732891683,-0.037470094951095684,0.9992975886237027
2025/04/09 10:00:26.459320956,1744185626,459063205,,-0.0005230933622354479,0.00029978585130512606,-0.03746916574780043,0.9992976023787616
2025/04/09 10:00:26.560110975,1744185626,559989731,,-0.0005554146098004284,0.00021816048765528807,-0.03747357955821701,0.9992974405829862
2025/04/09 10:00:26.662374863,1744185626,661981369,,-0.000556107268293365,0.00010267201872656146,-0.037476432405071515,0.9992973517513948
2025/04/09 10:00:26.766668328,1744185626,766490128,,-0.000520106629540555,-2.5345115339754985e-05,-0.037480283153042894,0.9992972316690799
2025/04/09 10:00:26.865584965,1744185626,865042737,,-0.00045269373810594816,-0.00014040910814135308,-0.03748898575339246,0.9992969284956518
2025/04/09 10:00:26.966517172,1744185626,966367945,,-0.0003677183720741163,-0.00022631250487891336,-0.037504573181206806,0.9992963627254652
2025/04/09 10:00:27.67249139,1744185627,67088778,,-0.00028497256405764844,-0.0002614316637233077,-0.03753255778042056,0.999295330495736
2025/04/09 10:00:27.160358223,1744185627,158712194,,-0.00022801975994460314,-0.0002454823847696217,-0.03757034166290304,0.9992939293184566
2025/04/09 10:00:27.259519573,1744185627,259357895,,-0.00021176697900877816,-0.00018748008875376078,-0.03761460577223937,0.999292280285684
2025/04/09 10:00:27.360876630,1744185627,360682594,,-0.00023926532936571095,-8.840814367227792e-05,-0.03766389581763526,0.9992904312000294
2025/04/09 10:00:27.464657900,1744185627,463682415,,-0.00030226333109040747,3.1404097441401464e-05,-0.03771881754646097,0.999288346001072
2025/04/09 10:00:27.566694161,1744185627,566515405,,-0.00038496090299493306,0.00013896810887130466,-0.037779650917481866,0.9992860103441462
2025/04/09 10:00:27.667198196,1744185627,666111010,,-0.0004694675865179969,0.0002288610066735974,-0.03784937409517657,0.9992833192360554
2025/04/09 10:00:27.767090380,1744185627,766795529,,-0.0005399508202790791,0.00027430367651593387,-0.03791884891737274,0.9992806383130748
2025/04/09 10:00:27.859789634,1744185627,858259204,,-0.0005788053434278706,0.0002665882381135587,-0.03798907999072031,0.9992779511810237
2025/04/09 10:00:27.959014281,1744185627,958866861,,-0.000572533998741563,0.00021670452447530608,-0.03806890511896173,0.9992749289895213
2025/04/09 10:00:28.60003736,1744185628,59747540,,-0.0005262515175418622,0.00012690445009920972,-0.03815159740365863,0.999271816159222
2025/04/09 10:00:28.163589466,1744185628,162143425,,-0.0004573007455951898,6.7674176355345e-06,-0.038239072736720094,0.9992685145377422
2025/04/09 10:00:28.262454361,1744185628,262302732,,-0.00039995434780612494,-0.00010307445319107059,-0.03831896614459066,0.9992654733581995
2025/04/09 10:00:28.368760922,1744185628,367641707,,-0.0003547133313876686,-0.00019648671186881683,-0.0383950852155508,0.9992625545884901
2025/04/09 10:00:28.466575495,1744185628,466387262,,-0.00032531825571913153,-0.00025668349289416923,-0.03847085122386091,0.9992596368750859
2025/04/09 10:00:28.568640721,1744185628,566881392,,-0.0003172896458461357,-0.00026915582915267646,-0.0385467942887726,0.9992567095258752
2025/04/09 10:00:28.658546616,1744185628,658325445,,-0.0003310056614780561,-0.00023731136206063365,-0.038623633604478375,0.9992537460754183
2025/04/09 10:00:28.760296699,1744185628,760175028,,-0.0003635132866368699,-0.00015561185451808704,-0.038700423802731074,0.9992507797547772
2025/04/09 10:00:28.865413520,1744185628,863538917,,-0.0004064853564043256,-5.5026190165898183e-05,-0.03877734006697989,0.9992477919110471
2025/04/09 10:00:28.961380081,1744185628,961230286,,-0.00044698910461653875,5.525102516399159e-05,-0.038855516703584426,0.9992447377743663
2025/04/09 10:00:29.62577830,1744185629,62451462,,-0.00047403690068461814,0.00015362451431267542,-0.038935551854111974,0.9992415996596324
2025/04/09 10:00:29.164023389,1744185629,162970297,,-0.0004816170026114852,0.00022383693917058352,-0.03901748421899866,0.9992383869064017
2025/04/09 10:00:29.265380785,1744185629,264135463,,-0.0004814374706982679,0.000253264740326233,-0.0390911189581131,0.9992355020181858
2025/04/09 10:00:29.365912284,1744185629,364816114,,-0.00045834596050516935,0.0002323425124066805,-0.03916352532089832,0.999232682722286
2025/04/09 10:00:29.465864602,1744185629,465228475,,-0.0004154337237534519,0.00017003226580996323,-0.03924173715906039,0.9992296455613139
2025/04/09 10:00:29.567505103,1744185629,567276459,,-0.0003582308792181234,7.684766365378941e-05,-0.03931998370838944,0.9992266032518579
2025/04/09 10:00:29.658807966,1744185629,657863845,,-0.00029954950229887093,-2.0206176018129203e-05,-0.039403880978679334,0.9992233203972094
2025/04/09 10:00:29.758316170,1744185629,758145949,,-0.0002588840202002446,-0.00013543187451659622,-0.03949318566882223,0.9992197971032196
2025/04/09 10:00:29.860656898,1744185629,859159175,,-0.00024442834201812496,-0.00020646131641846634,-0.039586263103171225,0.9992161054556902
2025/04/09 10:00:29.959667893,1744185629,959528241,,-0.0002608171198422192,-0.00025377744090079066,-0.03968232912138447,0.9992122799120028
2025/04/09 10:00:30.60380041,1744185630,60235941,,-0.00030332793690155996,-0.00024713411242767734,-0.03978045624325624,0.9992083677681906
2025/04/09 10:00:30.163109662,1744185630,162058336,,-0.0003691474708137791,-0.00020953832858500407,-0.03988320067141191,0.9992042584617209
2025/04/09 10:00:30.264312986,1744185630,262659906,,-0.0004450366743953762,-0.0001307776613792463,-0.03998240854896396,0.9992002761439698
2025/04/09 10:00:30.364278907,1744185630,363506189,,-0.0005154470949422469,-3.9660713461369394e-05,-0.04008063731440912,0.9991963146718421
