time,header_stamp_secs,header_stamp_nsecs,header_frame_id,status_status,status_service,latitude,longitude,altitude,position_covariance_0,position_covariance_1,position_covariance_2,position_covariance_3,position_covariance_4,position_covariance_5,position_covariance_6,position_covariance_7,position_covariance_8,position_covariance_type
2025/05/06 15:48:32.58623633,1746539312,57734394,mA1/gps,0,1,63.43453329482963,10.392614004095218,0.0,1.4400000000000002e-10,0.0,0.0,0.0,1.4400000000000002e-10,0.0,0.0,0.0,1.0,2
2025/05/06 15:48:32.108597802,1746539312,107565880,mA1/gps,0,1,63.434533294849246,10.39261400388161,0.0,1.4400000000000002e-10,0.0,0.0,0.0,1.4400000000000002e-10,0.0,0.0,0.0,1.0,2
2025/05/06 15:48:32.162696635,1746539312,161833147,mA1/gps,0,1,63.43453329478159,10.392614003834309,0.0,1.4400000000000002e-10,0.0,0.0,0.0,1.4400000000000002e-10,0.0,0.0,0.0,1.0,2
2025/05/06 15:48:32.219067038,1746539312,214212792,mA1/gps,0,1,63.43453329443856,10.392614004108136,0.0,1.4400000000000002e-10,0.0,0.0,0.0,1.4400000000000002e-10,0.0,0.0,0.0,1.0,2
2025/05/06 15:48:32.268334496,1746539312,262786483,mA1/gps,0,1,63.43453329450336,10.39261400381128,0.0,1.4400000000000002e-10,0.0,0.0,0.0,1.4400000000000002e-10,0.0,0.0,0.0,1.0,2
2025/05/06 15:48:32.313848928,1746539312,312734872,mA1/gps,0,1,63.434533294108476,10.39261400398947,0.0,1.4400000000000002e-10,0.0,0.0,0.0,1.4400000000000002e-10,0.0,0.0,0.0,1.0,2
2025/05/06 15:48:32.366065577,1746539312,364571448,mA1/gps,0,1,63.43453329409884,10.392614004469849,0.0,1.4400000000000002e-10,0.0,0.0,0.0,1.4400000000000002e-10,0.0,0.0,0.0,1.0,2
2025/05/06 15:48:32.407630810,1746539312,405446583,mA1/gps,0,1,63.43453329379612,10.392614004410591,0.0,1.4400000000000002e-10,0.0,0.0,0.0,1.4400000000000002e-10,0.0,0.0,0.0,1.0,2
2025/05/06 15:48:32.459949275,1746539312,456438354,mA1/gps,0,1,63.43453329358757,10.392614004587529,0.0,1.4400000000000002e-10,0.0,0.0,0.0,1.4400000000000002e-10,0.0,0.0,0.0,1.0,2
2025/05/06 15:48:32.507282921,1746539312,506334329,mA1/gps,0,1,63.43453329344678,10.392614004741182,0.0,1.4400000000000002e-10,0.0,0.0,0.0,1.4400000000000002e-10,0.0,0.0,0.0,1.0,2
2025/05/06 15:48:32.559786205,1746539312,558141658,mA1/gps,0,1,63.43453329306011,10.392614004658817,0.0,1.4400000000000002e-10,0.0,0.0,0.0,1.4400000000000002e-10,0.0,0.0,0.0,1.0,2
2025/05/06 15:48:32.609888278,1746539312,608265575,mA1/gps,0,1,63.434533292831624,10.392614004586816,0.0,1.4400000000000002e-10,0.0,0.0,0.0,1.4400000000000002e-10,0.0,0.0,0.0,1.0,2
2025/05/06 15:48:32.663403808,1746539312,659872996,mA1/gps,0,1,63.434533292639124,10.392614004820153,0.0,1.4400000000000002e-10,0.0,0.0,0.0,1.4400000000000002e-10,0.0,0.0,0.0,1.0,2
2025/05/06 15:48:32.722328642,1746539312,717619412,mA1/gps,0,1,63.43453329237466,10.392614005026498,0.0,1.4400000000000002e-10,0.0,0.0,0.0,1.4400000000000002e-10,0.0,0.0,0.0,1.0,2
2025/05/06 15:48:32.761701270,1746539312,760270951,mA1/gps,0,1,63.43453329221765,10.392614004549126,0.0,1.4400000000000002e-10,0.0,0.0,0.0,1.4400000000000002e-10,0.0,0.0,0.0,1.0,2
2025/05/06 15:48:32.814124152,1746539312,813114786,mA1/gps,0,1,63.4345332918779,10.392614005527268,0.0,1.4400000000000002e-10,0.0,0.0,0.0,1.4400000000000002e-10,0.0,0.0,0.0,1.0,2
2025/05/06 15:48:32.855512398,1746539312,854703194,mA1/gps,0,1,63.434533291708654,10.392614005841587,0.0,1.4400000000000002e-10,0.0,0.0,0.0,1.4400000000000002e-10,0.0,0.0,0.0,1.0,2
2025/05/06 15:48:32.908479115,1746539312,907534019,mA1/gps,0,1,63.43453329158607,10.39261400564866,0.0,1.4400000000000002e-10,0.0,0.0,0.0,1.4400000000000002e-10,0.0,0.0,0.0,1.0,2
2025/05/06 15:48:32.959841540,1746539312,959242838,mA1/gps,0,1,63.43453329148058,10.392614005813362,0.0,1.4400000000000002e-10,0.0,0.0,0.0,1.4400000000000002e-10,0.0,0.0,0.0,1.0,2
2025/05/06 15:48:33.13169810,1746539313,10768300,mA1/gps,0,1,63.43453329128715,10.392614005813627,0.0,1.4400000000000002e-10,0.0,0.0,0.0,1.4400000000000002e-10,0.0,0.0,0.0,1.0,2
2025/05/06 15:48:33.68024266,1746539313,64786933,mA1/gps,0,1,63.43453329090629,10.392614005615444,0.0,1.4400000000000002e-10,0.0,0.0,0.0,1.4400000000000002e-10,0.0,0.0,0.0,1.0,2
2025/05/06 15:48:33.129322286,1746539313,114443996,mA1/gps,0,1,63.43453329079556,10.39261400588488,0.0,1.4400000000000002e-10,0.0,0.0,0.0,1.4400000000000002e-10,0.0,0.0,0.0,1.0,2
2025/05/06 15:48:33.173476962,1746539313,162409351,mA1/gps,0,1,63.43453329086113,10.392614006100542,0.0,1.4400000000000002e-10,0.0,0.0,0.0,1.4400000000000002e-10,0.0,0.0,0.0,1.0,2
2025/05/06 15:48:33.211411582,1746539313,207058733,mA1/gps,0,1,63.43453329067524,10.392614006139066,0.0,1.4400000000000002e-10,0.0,0.0,0.0,1.4400000000000002e-10,0.0,0.0,0.0,1.0,2
2025/05/06 15:48:33.265379457,1746539313,257725845,mA1/gps,0,1,63.43453329059745,10.392614006005726,0.0,1.4400000000000002e-10,0.0,0.0,0.0,1.4400000000000002e-10,0.0,0.0,0.0,1.0,2
2025/05/06 15:48:33.318589636,1746539313,314409737,mA1/gps,0,1,63.434533290498464,10.392614005615982,0.0,1.4400000000000002e-10,0.0,0.0,0.0,1.4400000000000002e-10,0.0,0.0,0.0,1.0,2
2025/05/06 15:48:33.362397094,1746539313,361023108,mA1/gps,0,1,63.43453329046241,10.392614006382654,0.0,1.4400000000000002e-10,0.0,0.0,0.0,1.4400000000000002e-10,0.0,0.0,0.0,1.0,2
2025/05/06 15:48:33.411960728,1746539313,406800510,mA1/gps,0,1,63.43453329045247,10.392614006406047,0.0,1.4400000000000002e-10,0.0,0.0,0.0,1.4400000000000002e-10,0.0,0.0,0.0,1.0,2
2025/05/06 15:48:33.464867355,1746539313,460359045,mA1/gps,0,1,63.43453329018923,10.392614006416009,0.0,1.4400000000000002e-10,0.0,0.0,0.0,1.4400000000000002e-10,0.0,0.0,0.0,1.0,2
2025/05/06 15:48:33.516282924,1746539313,512395045,mA1/gps,0,1,63.43453329013276,10.392614006126117,0.0,1.4400000000000002e-10,0.0,0.0,0.0,1.4400000000000002e-10,0.0,0.0,0.0,1.0,2
2025/05/06 15:48:33.561740509,1746539313,556116331,mA1/gps,0,1,63.43453328993985,10.39261400646259,0.0,1.4400000000000002e-10,0.0,0.0,0.0,1.4400000000000002e-10,0.0,0.0,0.0,1.0,2
2025/05/06 15:48:33.608173576,1746539313,607060569,mA1/gps,0,1,63.43453328995977,10.392614006339146,0.0,1.4400000000000002e-10,0.0,0.0,0.0,1.4400000000000002e-10,0.0,0.0,0.0,1.0,2
2025/05/06 15:48:33.662227335,1746539313,659669902,mA1/gps,0,1,63.43453328978551,10.392614006611186,0.0,1.4400000000000002e-10,0.0,0.0,0.0,1.4400000000000002e-10,0.0,0.0,0.0,1.0,2
2025/05/06 15:48:33.714073441,1746539313,710276829,mA1/gps,0,1,63.434533289659335,10.392614006786442,0.0,1.4400000000000002e-10,0.0,0.0,0.0,1.4400000000000002e-10,0.0,0.0,0.0,1.0,2
2025/05/06 15:48:33.762705958,1746539313,761522512,mA1/gps,0,1,63.43453328986318,10.392614006403461,0.0,1.4400000000000002e-10,0.0,0.0,0.0,1.4400000000000002e-10,0.0,0.0,0.0,1.0,2
2025/05/06 15:48:33.815039157,1746539313,812916482,mA1/gps,0,1,63.434533289958296,10.392614006784171,0.0,1.4400000000000002e-10,0.0,0.0,0.0,1.4400000000000002e-10,0.0,0.0,0.0,1.0,2
2025/05/06 15:48:33.856792380,1746539313,855237572,mA1/gps,0,1,63.43453328991938,10.392614006576975,0.0,1.4400000000000002e-10,0.0,0.0,0.0,1.4400000000000002e-10,0.0,0.0,0.0,1.0,2
2025/05/06 15:48:33.906735414,1746539313,904979010,mA1/gps,0,1,63.43453329031346,10.39261400660044,0.0,1.4400000000000002e-10,0.0,0.0,0.0,1.4400000000000002e-10,0.0,0.0,0.0,1.0,2
2025/05/06 15:48:33.958231676,1746539313,957127923,mA1/gps,0,1,63.43453329034746,10.392614007085816,0.0,1.4400000000000002e-10,0.0,0.0,0.0,1.4400000000000002e-10,0.0,0.0,0.0,1.0,2
2025/05/06 15:48:34.8614764,1746539314,6969984,mA1/gps,0,1,63.434533290456095,10.392614006903617,0.0,1.4400000000000002e-10,0.0,0.0,0.0,1.4400000000000002e-10,0.0,0.0,0.0,1.0,2
2025/05/06 15:48:34.59339293,1746539314,58171063,mA1/gps,0,1,63.43453329031553,10.392614007810117,0.0,1.4400000000000002e-10,0.0,0.0,0.0,1.4400000000000002e-10,0.0,0.0,0.0,1.0,2
2025/05/06 15:48:34.110188752,1746539314,108440283,mA1/gps,0,1,63.434533290192036,10.392614008072783,0.0,1.4400000000000002e-10,0.0,0.0,0.0,1.4400000000000002e-10,0.0,0.0,0.0,1.0,2
2025/05/06 15:48:34.160947116,1746539314,159399099,mA1/gps,0,1,63.43453328987393,10.392614008739345,0.0,1.4400000000000002e-10,0.0,0.0,0.0,1.4400000000000002e-10,0.0,0.0,0.0,1.0,2
2025/05/06 15:48:34.214001342,1746539314,212332447,mA1/gps,0,1,63.434533289492734,10.392614009647428,0.0,1.4400000000000002e-10,0.0,0.0,0.0,1.4400000000000002e-10,0.0,0.0,0.0,1.0,2
2025/05/06 15:48:34.265519737,1746539314,264072669,mA1/gps,0,1,63.4345332886243,10.392614010567438,0.0,1.4400000000000002e-10,0.0,0.0,0.0,1.4400000000000002e-10,0.0,0.0,0.0,1.0,2
2025/05/06 15:48:34.309321179,1746539314,305012576,mA1/gps,0,1,63.434533287209256,10.392614011307694,0.0,1.4400000000000002e-10,0.0,0.0,0.0,1.4400000000000002e-10,0.0,0.0,0.0,1.0,2
2025/05/06 15:48:34.360170699,1746539314,357264616,mA1/gps,0,1,63.43453328545724,10.392614013124923,0.0,1.4400000000000002e-10,0.0,0.0,0.0,1.4400000000000002e-10,0.0,0.0,0.0,1.0,2
2025/05/06 15:48:34.409369119,1746539314,406806013,mA1/gps,0,1,63.43453328334249,10.392614013785082,0.0,1.4400000000000002e-10,0.0,0.0,0.0,1.4400000000000002e-10,0.0,0.0,0.0,1.0,2
2025/05/06 15:48:34.463100416,1746539314,461411904,mA1/gps,0,1,63.43453328127773,10.392614014964861,0.0,1.4400000000000002e-10,0.0,0.0,0.0,1.4400000000000002e-10,0.0,0.0,0.0,1.0,2
2025/05/06 15:48:34.515097783,1746539314,513627996,mA1/gps,0,1,63.43453327864016,10.392614017092212,0.0,1.4400000000000002e-10,0.0,0.0,0.0,1.4400000000000002e-10,0.0,0.0,0.0,1.0,2
2025/05/06 15:48:34.561862152,1746539314,560252278,mA1/gps,0,1,63.43453327597452,10.392614018317209,0.0,1.4400000000000002e-10,0.0,0.0,0.0,1.4400000000000002e-10,0.0,0.0,0.0,1.0,2
2025/05/06 15:48:34.613911201,1746539314,612907688,mA1/gps,0,1,63.434533273857475,10.392614019635984,0.0,1.4400000000000002e-10,0.0,0.0,0.0,1.4400000000000002e-10,0.0,0.0,0.0,1.0,2
2025/05/06 15:48:34.658357429,1746539314,655765741,mA1/gps,0,1,63.43453327182598,10.392614021256783,0.0,1.4400000000000002e-10,0.0,0.0,0.0,1.4400000000000002e-10,0.0,0.0,0.0,1.0,2
2025/05/06 15:48:34.710854909,1746539314,709494896,mA1/gps,0,1,63.43453327038955,10.392614022443853,0.0,1.4400000000000002e-10,0.0,0.0,0.0,1.4400000000000002e-10,0.0,0.0,0.0,1.0,2
2025/05/06 15:48:34.761427307,1746539314,759962621,mA1/gps,0,1,63.434533269143735,10.392614023873538,0.0,1.4400000000000002e-10,0.0,0.0,0.0,1.4400000000000002e-10,0.0,0.0,0.0,1.0,2
2025/05/06 15:48:34.812722456,1746539314,810647634,mA1/gps,0,1,63.43453326862678,10.392614025303832,0.0,1.4400000000000002e-10,0.0,0.0,0.0,1.4400000000000002e-10,0.0,0.0,0.0,1.0,2
2025/05/06 15:48:34.862358768,1746539314,860712339,mA1/gps,0,1,63.43453326845053,10.392614026156535,0.0,1.4400000000000002e-10,0.0,0.0,0.0,1.4400000000000002e-10,0.0,0.0,0.0,1.0,2
2025/05/06 15:48:34.912600435,1746539314,910967614,mA1/gps,0,1,63.43453326915391,10.392614026976444,0.0,1.4400000000000002e-10,0.0,0.0,0.0,1.4400000000000002e-10,0.0,0.0,0.0,1.0,2
2025/05/06 15:48:34.963860535,1746539314,962932399,mA1/gps,0,1,63.43453327021653,10.392614028480883,0.0,1.4400000000000002e-10,0.0,0.0,0.0,1.4400000000000002e-10,0.0,0.0,0.0,1.0,2
2025/05/06 15:48:35.12499717,1746539315,9422364,mA1/gps,0,1,63.434533271919165,10.392614028966225,0.0,1.4400000000000002e-10,0.0,0.0,0.0,1.4400000000000002e-10,0.0,0.0,0.0,1.0,2
2025/05/06 15:48:35.63973821,1746539315,62606400,mA1/gps,0,1,63.43453327445929,10.392614029505436,0.0,1.4400000000000002e-10,0.0,0.0,0.0,1.4400000000000002e-10,0.0,0.0,0.0,1.0,2
2025/05/06 15:48:35.120335809,1746539315,110737180,mA1/gps,0,1,63.43453327727712,10.392614030000065,0.0,1.4400000000000002e-10,0.0,0.0,0.0,1.4400000000000002e-10,0.0,0.0,0.0,1.0,2
2025/05/06 15:48:35.164946673,1746539315,162677046,mA1/gps,0,1,63.434533280397055,10.392614029946797,0.0,1.4400000000000002e-10,0.0,0.0,0.0,1.4400000000000002e-10,0.0,0.0,0.0,1.0,2
2025/05/06 15:48:35.206410431,1746539315,205161906,mA1/gps,0,1,63.43453328379488,10.392614030493348,0.0,1.4400000000000002e-10,0.0,0.0,0.0,1.4400000000000002e-10,0.0,0.0,0.0,1.0,2
2025/05/06 15:48:35.260294142,1746539315,258200488,mA1/gps,0,1,63.434533287118256,10.392614030977164,0.0,1.4400000000000002e-10,0.0,0.0,0.0,1.4400000000000002e-10,0.0,0.0,0.0,1.0,2
2025/05/06 15:48:35.313206919,1746539315,311934357,mA1/gps,0,1,63.434533290397056,10.392614031538237,0.0,1.4400000000000002e-10,0.0,0.0,0.0,1.4400000000000002e-10,0.0,0.0,0.0,1.0,2
2025/05/06 15:48:35.369967877,1746539315,365172325,mA1/gps,0,1,63.43453329355679,10.392614032325607,0.0,1.4400000000000002e-10,0.0,0.0,0.0,1.4400000000000002e-10,0.0,0.0,0.0,1.0,2
2025/05/06 15:48:35.417879217,1746539315,408924261,mA1/gps,0,1,63.43453329674085,10.39261403288599,0.0,1.4400000000000002e-10,0.0,0.0,0.0,1.4400000000000002e-10,0.0,0.0,0.0,1.0,2
2025/05/06 15:48:35.469414766,1746539315,463029649,mA1/gps,0,1,63.434533299412884,10.392614033734008,0.0,1.4400000000000002e-10,0.0,0.0,0.0,1.4400000000000002e-10,0.0,0.0,0.0,1.0,2
2025/05/06 15:48:35.511661371,1746539315,507547221,mA1/gps,0,1,63.43453330154925,10.392614034847803,0.0,1.4400000000000002e-10,0.0,0.0,0.0,1.4400000000000002e-10,0.0,0.0,0.0,1.0,2
2025/05/06 15:48:35.571972581,1746539315,563141536,mA1/gps,0,1,63.43453330334384,10.392614036126114,0.0,1.4400000000000002e-10,0.0,0.0,0.0,1.4400000000000002e-10,0.0,0.0,0.0,1.0,2
2025/05/06 15:48:35.609136675,1746539315,606040699,mA1/gps,0,1,63.434533304780715,10.392614037865137,0.0,1.4400000000000002e-10,0.0,0.0,0.0,1.4400000000000002e-10,0.0,0.0,0.0,1.0,2
2025/05/06 15:48:35.669228134,1746539315,662672207,mA1/gps,0,1,63.43453330591429,10.392614038909626,0.0,1.4400000000000002e-10,0.0,0.0,0.0,1.4400000000000002e-10,0.0,0.0,0.0,1.0,2
2025/05/06 15:48:35.711504944,1746539315,708897711,mA1/gps,0,1,63.43453330647139,10.392614040700316,0.0,1.4400000000000002e-10,0.0,0.0,0.0,1.4400000000000002e-10,0.0,0.0,0.0,1.0,2
2025/05/06 15:48:35.782354445,1746539315,763626506,mA1/gps,0,1,63.434533306763164,10.392614042622057,0.0,1.4400000000000002e-10,0.0,0.0,0.0,1.4400000000000002e-10,0.0,0.0,0.0,1.0,2
2025/05/06 15:48:35.814337209,1746539315,811119337,mA1/gps,0,1,63.43453330693927,10.392614044298675,0.0,1.4400000000000002e-10,0.0,0.0,0.0,1.4400000000000002e-10,0.0,0.0,0.0,1.0,2
2025/05/06 15:48:35.871635389,1746539315,865600963,mA1/gps,0,1,63.43453330698249,10.392614046303853,0.0,1.4400000000000002e-10,0.0,0.0,0.0,1.4400000000000002e-10,0.0,0.0,0.0,1.0,2
2025/05/06 15:48:35.909405663,1746539315,905676561,mA1/gps,0,1,63.43453330712136,10.392614048062669,0.0,1.4400000000000002e-10,0.0,0.0,0.0,1.4400000000000002e-10,0.0,0.0,0.0,1.0,2
2025/05/06 15:48:35.970493950,1746539315,964199669,mA1/gps,0,1,63.434533307111344,10.392614050080109,0.0,1.4400000000000002e-10,0.0,0.0,0.0,1.4400000000000002e-10,0.0,0.0,0.0,1.0,2
2025/05/06 15:48:36.37898497,1746539316,14887426,mA1/gps,0,1,63.43453330759313,10.392614051755844,0.0,1.4400000000000002e-10,0.0,0.0,0.0,1.4400000000000002e-10,0.0,0.0,0.0,1.0,2
2025/05/06 15:48:36.66080244,1746539316,58437907,mA1/gps,0,1,63.4345333082703,10.392614054112716,0.0,1.4400000000000002e-10,0.0,0.0,0.0,1.4400000000000002e-10,0.0,0.0,0.0,1.0,2
2025/05/06 15:48:36.135658512,1746539316,117354141,mA1/gps,0,1,63.43453330920327,10.392614056121957,0.0,1.4400000000000002e-10,0.0,0.0,0.0,1.4400000000000002e-10,0.0,0.0,0.0,1.0,2
2025/05/06 15:48:36.167444308,1746539316,164104601,mA1/gps,0,1,63.43453331025559,10.392614057758717,0.0,1.4400000000000002e-10,0.0,0.0,0.0,1.4400000000000002e-10,0.0,0.0,0.0,1.0,2
2025/05/06 15:48:36.227554720,1746539316,208721576,mA1/gps,0,1,63.43453331105854,10.392614059269047,0.0,1.4400000000000002e-10,0.0,0.0,0.0,1.4400000000000002e-10,0.0,0.0,0.0,1.0,2
2025/05/06 15:48:36.295275553,1746539316,267420818,mA1/gps,0,1,63.43453331290303,10.392614061230727,0.0,1.4400000000000002e-10,0.0,0.0,0.0,1.4400000000000002e-10,0.0,0.0,0.0,1.0,2
2025/05/06 15:48:36.316704924,1746539316,311779921,mA1/gps,0,1,63.4345333141272,10.39261406318079,0.0,1.4400000000000002e-10,0.0,0.0,0.0,1.4400000000000002e-10,0.0,0.0,0.0,1.0,2
2025/05/06 15:48:36.374562431,1746539316,364654535,mA1/gps,0,1,63.434533316138506,10.39261406510652,0.0,1.4400000000000002e-10,0.0,0.0,0.0,1.4400000000000002e-10,0.0,0.0,0.0,1.0,2
2025/05/06 15:48:36.424737939,1746539316,415681993,mA1/gps,0,1,63.434533318102574,10.39261406718467,0.0,1.4400000000000002e-10,0.0,0.0,0.0,1.4400000000000002e-10,0.0,0.0,0.0,1.0,2
2025/05/06 15:48:36.475210268,1746539316,456017433,mA1/gps,0,1,63.434533319984226,10.392614068714456,0.0,1.4400000000000002e-10,0.0,0.0,0.0,1.4400000000000002e-10,0.0,0.0,0.0,1.0,2
2025/05/06 15:48:36.516202356,1746539316,512623247,mA1/gps,0,1,63.43453332187174,10.392614070722827,0.0,1.4400000000000002e-10,0.0,0.0,0.0,1.4400000000000002e-10,0.0,0.0,0.0,1.0,2
2025/05/06 15:48:36.559490814,1746539316,556822471,mA1/gps,0,1,63.43453332343007,10.392614071685946,0.0,1.4400000000000002e-10,0.0,0.0,0.0,1.4400000000000002e-10,0.0,0.0,0.0,1.0,2
2025/05/06 15:48:36.626479927,1746539316,606569927,mA1/gps,0,1,63.43453332517776,10.392614074010039,0.0,1.4400000000000002e-10,0.0,0.0,0.0,1.4400000000000002e-10,0.0,0.0,0.0,1.0,2
2025/05/06 15:48:36.671092246,1746539316,654370383,mA1/gps,0,1,63.43453332665091,10.392614075459644,0.0,1.4400000000000002e-10,0.0,0.0,0.0,1.4400000000000002e-10,0.0,0.0,0.0,1.0,2
2025/05/06 15:48:36.715022887,1746539316,706713906,mA1/gps,0,1,63.43453332840864,10.392614077205941,0.0,1.4400000000000002e-10,0.0,0.0,0.0,1.4400000000000002e-10,0.0,0.0,0.0,1.0,2
2025/05/06 15:48:36.766613149,1746539316,760956082,mA1/gps,0,1,63.434533329123056,10.392614079127856,0.0,1.4400000000000002e-10,0.0,0.0,0.0,1.4400000000000002e-10,0.0,0.0,0.0,1.0,2
2025/05/06 15:48:36.855744695,1746539316,816015070,mA1/gps,0,1,63.43453332992814,10.392614080890006,0.0,1.4400000000000002e-10,0.0,0.0,0.0,1.4400000000000002e-10,0.0,0.0,0.0,1.0,2
2025/05/06 15:48:36.900488846,1746539316,869128311,mA1/gps,0,1,63.43453333040365,10.392614083124851,0.0,1.4400000000000002e-10,0.0,0.0,0.0,1.4400000000000002e-10,0.0,0.0,0.0,1.0,2
2025/05/06 15:48:36.933918312,1746539316,908880762,mA1/gps,0,1,63.434533330275144,10.392614085045347,0.0,1.4400000000000002e-10,0.0,0.0,0.0,1.4400000000000002e-10,0.0,0.0,0.0,1.0,2
2025/05/06 15:48:36.991372094,1746539316,965193000,mA1/gps,0,1,63.43453333046894,10.39261408707457,0.0,1.4400000000000002e-10,0.0,0.0,0.0,1.4400000000000002e-10,0.0,0.0,0.0,1.0,2
2025/05/06 15:48:37.25831946,1746539317,7106796,mA1/gps,0,1,63.43453332995093,10.392614089347337,0.0,1.4400000000000002e-10,0.0,0.0,0.0,1.4400000000000002e-10,0.0,0.0,0.0,1.0,2
2025/05/06 15:48:37.73633350,1746539317,63853160,mA1/gps,0,1,63.43453332952808,10.392614091694908,0.0,1.4400000000000002e-10,0.0,0.0,0.0,1.4400000000000002e-10,0.0,0.0,0.0,1.0,2
2025/05/06 15:48:37.121246922,1746539317,113529586,mA1/gps,0,1,63.43453332913018,10.392614094104562,0.0,1.4400000000000002e-10,0.0,0.0,0.0,1.4400000000000002e-10,0.0,0.0,0.0,1.0,2
2025/05/06 15:48:37.160256036,1746539317,154376453,mA1/gps,0,1,63.43453332859846,10.392614096247872,0.0,1.4400000000000002e-10,0.0,0.0,0.0,1.4400000000000002e-10,0.0,0.0,0.0,1.0,2
2025/05/06 15:48:37.287137907,1746539317,209478405,mA1/gps,0,1,63.43453332764405,10.39261409819465,0.0,1.4400000000000002e-10,0.0,0.0,0.0,1.4400000000000002e-10,0.0,0.0,0.0,1.0,2
2025/05/06 15:48:37.390727838,1746539317,254467735,mA1/gps,0,1,63.43453332675577,10.392614100542806,0.0,1.4400000000000002e-10,0.0,0.0,0.0,1.4400000000000002e-10,0.0,0.0,0.0,1.0,2
2025/05/06 15:48:37.431037609,1746539317,316217146,mA1/gps,0,1,63.43453332620581,10.392614103323513,0.0,1.4400000000000002e-10,0.0,0.0,0.0,1.4400000000000002e-10,0.0,0.0,0.0,1.0,2
2025/05/06 15:48:37.443541146,1746539317,361121610,mA1/gps,0,1,63.43453332541659,10.392614105068143,0.0,1.4400000000000002e-10,0.0,0.0,0.0,1.4400000000000002e-10,0.0,0.0,0.0,1.0,2
2025/05/06 15:48:37.479646790,1746539317,413743443,mA1/gps,0,1,63.43453332468847,10.392614107681299,0.0,1.4400000000000002e-10,0.0,0.0,0.0,1.4400000000000002e-10,0.0,0.0,0.0,1.0,2
2025/05/06 15:48:37.515889311,1746539317,455152637,mA1/gps,0,1,63.43453332405879,10.392614109864663,0.0,1.4400000000000002e-10,0.0,0.0,0.0,1.4400000000000002e-10,0.0,0.0,0.0,1.0,2
2025/05/06 15:48:37.545232080,1746539317,508953394,mA1/gps,0,1,63.43453332340224,10.392614112463319,0.0,1.4400000000000002e-10,0.0,0.0,0.0,1.4400000000000002e-10,0.0,0.0,0.0,1.0,2
2025/05/06 15:48:37.656922448,1746539317,565249527,mA1/gps,0,1,63.4345333228038,10.392614115040068,0.0,1.4400000000000002e-10,0.0,0.0,0.0,1.4400000000000002e-10,0.0,0.0,0.0,1.0,2
2025/05/06 15:48:37.680732342,1746539317,608493959,mA1/gps,0,1,63.4345333223353,10.392614117387616,0.0,1.4400000000000002e-10,0.0,0.0,0.0,1.4400000000000002e-10,0.0,0.0,0.0,1.0,2
2025/05/06 15:48:37.738429757,1746539317,669150216,mA1/gps,0,1,63.43453332199573,10.392614119648584,0.0,1.4400000000000002e-10,0.0,0.0,0.0,1.4400000000000002e-10,0.0,0.0,0.0,1.0,2
2025/05/06 15:48:37.768068897,1746539317,710549100,mA1/gps,0,1,63.43453332187372,10.3926141222929,0.0,1.4400000000000002e-10,0.0,0.0,0.0,1.4400000000000002e-10,0.0,0.0,0.0,1.0,2
2025/05/06 15:48:37.848515043,1746539317,759125306,mA1/gps,0,1,63.434533322091,10.392614124313704,0.0,1.4400000000000002e-10,0.0,0.0,0.0,1.4400000000000002e-10,0.0,0.0,0.0,1.0,2
2025/05/06 15:48:37.866748619,1746539317,804265597,mA1/gps,0,1,63.43453332251591,10.392614126435673,0.0,1.4400000000000002e-10,0.0,0.0,0.0,1.4400000000000002e-10,0.0,0.0,0.0,1.0,2
2025/05/06 15:48:37.892597867,1746539317,859121315,mA1/gps,0,1,63.43453332357736,10.3926141279762,0.0,1.4400000000000002e-10,0.0,0.0,0.0,1.4400000000000002e-10,0.0,0.0,0.0,1.0,2
2025/05/06 15:48:37.981552551,1746539317,910533036,mA1/gps,0,1,63.43453332502911,10.392614130007043,0.0,1.4400000000000002e-10,0.0,0.0,0.0,1.4400000000000002e-10,0.0,0.0,0.0,1.0,2
2025/05/06 15:48:38.18425030,1746539317,955640986,mA1/gps,0,1,63.43453332696608,10.392614131994996,0.0,1.4400000000000002e-10,0.0,0.0,0.0,1.4400000000000002e-10,0.0,0.0,0.0,1.0,2
2025/05/06 15:48:38.47738538,1746539318,7068379,mA1/gps,0,1,63.43453332923642,10.392614133072803,0.0,1.4400000000000002e-10,0.0,0.0,0.0,1.4400000000000002e-10,0.0,0.0,0.0,1.0,2
2025/05/06 15:48:38.78743546,1746539318,67499272,mA1/gps,0,1,63.4345333321801,10.39261413496708,0.0,1.4400000000000002e-10,0.0,0.0,0.0,1.4400000000000002e-10,0.0,0.0,0.0,1.0,2
2025/05/06 15:48:38.127024678,1746539318,111149911,mA1/gps,0,1,63.43453333547635,10.392614135894958,0.0,1.4400000000000002e-10,0.0,0.0,0.0,1.4400000000000002e-10,0.0,0.0,0.0,1.0,2
2025/05/06 15:48:38.177206708,1746539318,165600607,mA1/gps,0,1,63.434533338965416,10.392614136879113,0.0,1.4400000000000002e-10,0.0,0.0,0.0,1.4400000000000002e-10,0.0,0.0,0.0,1.0,2
2025/05/06 15:48:38.233894634,1746539318,204620075,mA1/gps,0,1,63.4345333427934,10.392614138021795,0.0,1.4400000000000002e-10,0.0,0.0,0.0,1.4400000000000002e-10,0.0,0.0,0.0,1.0,2
2025/05/06 15:48:38.284812456,1746539318,262397395,mA1/gps,0,1,63.43453334652079,10.392614138979022,0.0,1.4400000000000002e-10,0.0,0.0,0.0,1.4400000000000002e-10,0.0,0.0,0.0,1.0,2
2025/05/06 15:48:38.320732626,1746539318,315850193,mA1/gps,0,1,63.43453335084196,10.392614140368215,0.0,1.4400000000000002e-10,0.0,0.0,0.0,1.4400000000000002e-10,0.0,0.0,0.0,1.0,2
2025/05/06 15:48:38.361629047,1746539318,356569552,mA1/gps,0,1,63.43453335432259,10.392614141322447,0.0,1.4400000000000002e-10,0.0,0.0,0.0,1.4400000000000002e-10,0.0,0.0,0.0,1.0,2
2025/05/06 15:48:38.419353405,1746539318,411387338,mA1/gps,0,1,63.43453335777114,10.392614142411599,0.0,1.4400000000000002e-10,0.0,0.0,0.0,1.4400000000000002e-10,0.0,0.0,0.0,1.0,2
2025/05/06 15:48:38.468324974,1746539318,461736013,mA1/gps,0,1,63.43453336120657,10.392614144000982,0.0,1.4400000000000002e-10,0.0,0.0,0.0,1.4400000000000002e-10,0.0,0.0,0.0,1.0,2
2025/05/06 15:48:38.534775844,1746539318,509147985,mA1/gps,0,1,63.43453336452126,10.392614145277735,0.0,1.4400000000000002e-10,0.0,0.0,0.0,1.4400000000000002e-10,0.0,0.0,0.0,1.0,2
2025/05/06 15:48:38.585998937,1746539318,561305033,mA1/gps,0,1,63.434533367978936,10.392614146681726,0.0,1.4400000000000002e-10,0.0,0.0,0.0,1.4400000000000002e-10,0.0,0.0,0.0,1.0,2
2025/05/06 15:48:38.733283585,1746539318,610987968,mA1/gps,0,1,63.434533371142855,10.392614148566047,0.0,1.4400000000000002e-10,0.0,0.0,0.0,1.4400000000000002e-10,0.0,0.0,0.0,1.0,2
2025/05/06 15:48:38.776244669,1746539318,666216806,mA1/gps,0,1,63.43453337426349,10.392614150421858,0.0,1.4400000000000002e-10,0.0,0.0,0.0,1.4400000000000002e-10,0.0,0.0,0.0,1.0,2
2025/05/06 15:48:38.793901458,1746539318,708320924,mA1/gps,0,1,63.43453337716129,10.392614151725065,0.0,1.4400000000000002e-10,0.0,0.0,0.0,1.4400000000000002e-10,0.0,0.0,0.0,1.0,2
2025/05/06 15:48:38.816599143,1746539318,754827076,mA1/gps,0,1,63.43453338068697,10.392614153858739,0.0,1.4400000000000002e-10,0.0,0.0,0.0,1.4400000000000002e-10,0.0,0.0,0.0,1.0,2
2025/05/06 15:48:38.842482943,1746539318,823365358,mA1/gps,0,1,63.43453338372262,10.39261415542678,0.0,1.4400000000000002e-10,0.0,0.0,0.0,1.4400000000000002e-10,0.0,0.0,0.0,1.0,2
2025/05/06 15:48:38.861796440,1746539318,858292318,mA1/gps,0,1,63.4345333872853,10.392614157728353,0.0,1.4400000000000002e-10,0.0,0.0,0.0,1.4400000000000002e-10,0.0,0.0,0.0,1.0,2
2025/05/06 15:48:38.941726636,1746539318,907350995,mA1/gps,0,1,63.43453339082186,10.39261415965723,0.0,1.4400000000000002e-10,0.0,0.0,0.0,1.4400000000000002e-10,0.0,0.0,0.0,1.0,2
2025/05/06 15:48:38.976719151,1746539318,956788768,mA1/gps,0,1,63.43453339486185,10.392614161702696,0.0,1.4400000000000002e-10,0.0,0.0,0.0,1.4400000000000002e-10,0.0,0.0,0.0,1.0,2
2025/05/06 15:48:39.141987212,1746539319,9627419,mA1/gps,0,1,63.43453339882754,10.392614164245288,0.0,1.4400000000000002e-10,0.0,0.0,0.0,1.4400000000000002e-10,0.0,0.0,0.0,1.0,2
2025/05/06 15:48:39.182702453,1746539319,68421478,mA1/gps,0,1,63.43453340311129,10.392614166477093,0.0,1.4400000000000002e-10,0.0,0.0,0.0,1.4400000000000002e-10,0.0,0.0,0.0,1.0,2
2025/05/06 15:48:39.202442299,1746539319,106790327,mA1/gps,0,1,63.4345334077383,10.392614168115289,0.0,1.4400000000000002e-10,0.0,0.0,0.0,1.4400000000000002e-10,0.0,0.0,0.0,1.0,2
2025/05/06 15:48:39.228057276,1746539319,160237714,mA1/gps,0,1,63.434533411905086,10.392614171165926,0.0,1.4400000000000002e-10,0.0,0.0,0.0,1.4400000000000002e-10,0.0,0.0,0.0,1.0,2
2025/05/06 15:48:39.253506586,1746539319,211841048,mA1/gps,0,1,63.434533416394075,10.39261417293673,0.0,1.4400000000000002e-10,0.0,0.0,0.0,1.4400000000000002e-10,0.0,0.0,0.0,1.0,2
2025/05/06 15:48:39.335766982,1746539319,259323735,mA1/gps,0,1,63.434533420760694,10.39261417534943,0.0,1.4400000000000002e-10,0.0,0.0,0.0,1.4400000000000002e-10,0.0,0.0,0.0,1.0,2
2025/05/06 15:48:39.400095855,1746539319,315164238,mA1/gps,0,1,63.43453342465402,10.39261417744217,0.0,1.4400000000000002e-10,0.0,0.0,0.0,1.4400000000000002e-10,0.0,0.0,0.0,1.0,2
2025/05/06 15:48:39.451791600,1746539319,361746951,mA1/gps,0,1,63.43453342883367,10.392614179402758,0.0,1.4400000000000002e-10,0.0,0.0,0.0,1.4400000000000002e-10,0.0,0.0,0.0,1.0,2
2025/05/06 15:48:39.549376044,1746539319,406101692,mA1/gps,0,1,63.43453343295973,10.392614181814938,0.0,1.4400000000000002e-10,0.0,0.0,0.0,1.4400000000000002e-10,0.0,0.0,0.0,1.0,2
2025/05/06 15:48:39.627485018,1746539319,459094517,mA1/gps,0,1,63.43453343621063,10.392614183646842,0.0,1.4400000000000002e-10,0.0,0.0,0.0,1.4400000000000002e-10,0.0,0.0,0.0,1.0,2
2025/05/06 15:48:39.680981591,1746539319,517316152,mA1/gps,0,1,63.434533439609545,10.392614186067767,0.0,1.4400000000000002e-10,0.0,0.0,0.0,1.4400000000000002e-10,0.0,0.0,0.0,1.0,2
2025/05/06 15:48:39.731435173,1746539319,565522123,mA1/gps,0,1,63.43453344247834,10.392614188146542,0.0,1.4400000000000002e-10,0.0,0.0,0.0,1.4400000000000002e-10,0.0,0.0,0.0,1.0,2
2025/05/06 15:48:39.763670267,1746539319,609100279,mA1/gps,0,1,63.43453344507308,10.392614190345663,0.0,1.4400000000000002e-10,0.0,0.0,0.0,1.4400000000000002e-10,0.0,0.0,0.0,1.0,2
2025/05/06 15:48:39.812333112,1746539319,663862760,mA1/gps,0,1,63.43453344758382,10.392614191846366,0.0,1.4400000000000002e-10,0.0,0.0,0.0,1.4400000000000002e-10,0.0,0.0,0.0,1.0,2
2025/05/06 15:48:39.863209491,1746539319,714483618,mA1/gps,0,1,63.43453344996429,10.39261419392477,0.0,1.4400000000000002e-10,0.0,0.0,0.0,1.4400000000000002e-10,0.0,0.0,0.0,1.0,2
2025/05/06 15:48:39.953935497,1746539319,770907935,mA1/gps,0,1,63.43453345228991,10.392614195436108,0.0,1.4400000000000002e-10,0.0,0.0,0.0,1.4400000000000002e-10,0.0,0.0,0.0,1.0,2
2025/05/06 15:48:40.26311666,1746539319,806023236,mA1/gps,0,1,63.4345334543,10.392614197008156,0.0,1.4400000000000002e-10,0.0,0.0,0.0,1.4400000000000002e-10,0.0,0.0,0.0,1.0,2
2025/05/06 15:48:40.62706975,1746539319,861527168,mA1/gps,0,1,63.434533456768094,10.392614199384104,0.0,1.4400000000000002e-10,0.0,0.0,0.0,1.4400000000000002e-10,0.0,0.0,0.0,1.0,2
2025/05/06 15:48:40.105622818,1746539319,907350194,mA1/gps,0,1,63.434533458922964,10.392614201117139,0.0,1.4400000000000002e-10,0.0,0.0,0.0,1.4400000000000002e-10,0.0,0.0,0.0,1.0,2
2025/05/06 15:48:40.178079078,1746539319,957395144,mA1/gps,0,1,63.43453346132381,10.392614203024182,0.0,1.4400000000000002e-10,0.0,0.0,0.0,1.4400000000000002e-10,0.0,0.0,0.0,1.0,2
2025/05/06 15:48:40.219600585,1746539320,10801394,mA1/gps,0,1,63.43453346393378,10.392614205788522,0.0,1.4400000000000002e-10,0.0,0.0,0.0,1.4400000000000002e-10,0.0,0.0,0.0,1.0,2
2025/05/06 15:48:40.367456911,1746539320,63968121,mA1/gps,0,1,63.43453346652628,10.392614207731414,0.0,1.4400000000000002e-10,0.0,0.0,0.0,1.4400000000000002e-10,0.0,0.0,0.0,1.0,2
2025/05/06 15:48:40.406194501,1746539320,114348366,mA1/gps,0,1,63.43453346928201,10.392614209418884,0.0,1.4400000000000002e-10,0.0,0.0,0.0,1.4400000000000002e-10,0.0,0.0,0.0,1.0,2
2025/05/06 15:48:40.422911008,1746539320,157238079,mA1/gps,0,1,63.434533472279135,10.392614211890033,0.0,1.4400000000000002e-10,0.0,0.0,0.0,1.4400000000000002e-10,0.0,0.0,0.0,1.0,2
2025/05/06 15:48:40.478968393,1746539320,209751013,mA1/gps,0,1,63.43453347538466,10.3926142155057,0.0,1.4400000000000002e-10,0.0,0.0,0.0,1.4400000000000002e-10,0.0,0.0,0.0,1.0,2
2025/05/06 15:48:40.616839704,1746539320,361080111,mA1/gps,0,1,63.434533486004014,10.392614226512093,0.0,1.4400000000000002e-10,0.0,0.0,0.0,1.4400000000000002e-10,0.0,0.0,0.0,1.0,2
2025/05/06 15:48:40.631891642,1746539320,411661521,mA1/gps,0,1,63.43453348975997,10.392614230779246,0.0,1.4400000000000002e-10,0.0,0.0,0.0,1.4400000000000002e-10,0.0,0.0,0.0,1.0,2
2025/05/06 15:48:40.764305984,1746539320,463301530,mA1/gps,0,1,63.43453349358663,10.392614236931179,0.0,1.4400000000000002e-10,0.0,0.0,0.0,1.4400000000000002e-10,0.0,0.0,0.0,1.0,2
2025/05/06 15:48:40.882324284,1746539320,510290818,mA1/gps,0,1,63.434533497913435,10.392614241730778,0.0,1.4400000000000002e-10,0.0,0.0,0.0,1.4400000000000002e-10,0.0,0.0,0.0,1.0,2
2025/05/06 15:48:40.911850407,1746539320,555354462,mA1/gps,0,1,63.434533502226195,10.392614246794416,0.0,1.4400000000000002e-10,0.0,0.0,0.0,1.4400000000000002e-10,0.0,0.0,0.0,1.0,2
2025/05/06 15:48:40.949150910,1746539320,612282832,mA1/gps,0,1,63.43453350637495,10.392614253954843,0.0,1.4400000000000002e-10,0.0,0.0,0.0,1.4400000000000002e-10,0.0,0.0,0.0,1.0,2
2025/05/06 15:48:41.35506680,1746539320,767607368,mA1/gps,0,1,63.434533519134476,10.392614274580525,0.0,1.4400000000000002e-10,0.0,0.0,0.0,1.4400000000000002e-10,0.0,0.0,0.0,1.0,2
2025/05/06 15:48:41.128332113,1746539320,912232469,mA1/gps,0,1,63.43453353165409,10.392614300799291,0.0,1.4400000000000002e-10,0.0,0.0,0.0,1.4400000000000002e-10,0.0,0.0,0.0,1.0,2
2025/05/06 15:48:41.196021076,1746539320,963263853,mA1/gps,0,1,63.434533535771074,10.392614308503884,0.0,1.4400000000000002e-10,0.0,0.0,0.0,1.4400000000000002e-10,0.0,0.0,0.0,1.0,2
2025/05/06 15:48:41.285415648,1746539321,9429414,mA1/gps,0,1,63.43453354014197,10.392614321140005,0.0,1.4400000000000002e-10,0.0,0.0,0.0,1.4400000000000002e-10,0.0,0.0,0.0,1.0,2
2025/05/06 15:48:41.419110085,1746539321,63619975,mA1/gps,0,1,63.434533544649234,10.39261432975801,0.0,1.4400000000000002e-10,0.0,0.0,0.0,1.4400000000000002e-10,0.0,0.0,0.0,1.0,2
2025/05/06 15:48:41.473315619,1746539321,165215427,mA1/gps,0,1,63.434533554047626,10.392614350266184,0.0,1.4400000000000002e-10,0.0,0.0,0.0,1.4400000000000002e-10,0.0,0.0,0.0,1.0,2
2025/05/06 15:48:41.539175549,1746539321,208123818,mA1/gps,0,1,63.43453355906808,10.392614357581731,0.0,1.4400000000000002e-10,0.0,0.0,0.0,1.4400000000000002e-10,0.0,0.0,0.0,1.0,2
2025/05/06 15:48:41.543036140,1746539321,260499580,mA1/gps,0,1,63.43453356415713,10.392614365933676,0.0,1.4400000000000002e-10,0.0,0.0,0.0,1.4400000000000002e-10,0.0,0.0,0.0,1.0,2
2025/05/06 15:48:41.594585294,1746539321,361878503,mA1/gps,0,1,63.434533575582726,10.39261438766342,0.0,1.4400000000000002e-10,0.0,0.0,0.0,1.4400000000000002e-10,0.0,0.0,0.0,1.0,2
2025/05/06 15:48:41.612645203,1746539321,412853674,mA1/gps,0,1,63.434533581398355,10.39261440101801,0.0,1.4400000000000002e-10,0.0,0.0,0.0,1.4400000000000002e-10,0.0,0.0,0.0,1.0,2
2025/05/06 15:48:41.807348895,1746539321,456866376,mA1/gps,0,1,63.43453358718225,10.392614414460654,0.0,1.4400000000000002e-10,0.0,0.0,0.0,1.4400000000000002e-10,0.0,0.0,0.0,1.0,2
2025/05/06 15:48:41.890393200,1746539321,507220677,mA1/gps,0,1,63.434533593049544,10.392614420954112,0.0,1.4400000000000002e-10,0.0,0.0,0.0,1.4400000000000002e-10,0.0,0.0,0.0,1.0,2
2025/05/06 15:48:41.955265314,1746539321,564642405,mA1/gps,0,1,63.43453359881797,10.392614435710295,0.0,1.4400000000000002e-10,0.0,0.0,0.0,1.4400000000000002e-10,0.0,0.0,0.0,1.0,2
2025/05/06 15:48:41.973698818,1746539321,604810026,mA1/gps,0,1,63.4345336049145,10.392614448812017,0.0,1.4400000000000002e-10,0.0,0.0,0.0,1.4400000000000002e-10,0.0,0.0,0.0,1.0,2
2025/05/06 15:48:42.28786635,1746539321,808817675,mA1/gps,0,1,63.43453362560376,10.392614504272547,0.0,1.4400000000000002e-10,0.0,0.0,0.0,1.4400000000000002e-10,0.0,0.0,0.0,1.0,2
2025/05/06 15:48:42.132674293,1746539321,959184676,mA1/gps,0,1,63.434533640070214,10.392614551853372,0.0,1.4400000000000002e-10,0.0,0.0,0.0,1.4400000000000002e-10,0.0,0.0,0.0,1.0,2
2025/05/06 15:48:42.260424624,1746539322,9205846,mA1/gps,0,1,63.43453364503068,10.392614571829029,0.0,1.4400000000000002e-10,0.0,0.0,0.0,1.4400000000000002e-10,0.0,0.0,0.0,1.0,2
2025/05/06 15:48:42.351269655,1746539322,60470094,mA1/gps,0,1,63.43453365001601,10.392614587913503,0.0,1.4400000000000002e-10,0.0,0.0,0.0,1.4400000000000002e-10,0.0,0.0,0.0,1.0,2
2025/05/06 15:48:42.387236443,1746539322,106211924,mA1/gps,0,1,63.4345336544787,10.392614605012662,0.0,1.4400000000000002e-10,0.0,0.0,0.0,1.4400000000000002e-10,0.0,0.0,0.0,1.0,2
2025/05/06 15:48:42.438675843,1746539322,164543459,mA1/gps,0,1,63.43453365937054,10.392614623970744,0.0,1.4400000000000002e-10,0.0,0.0,0.0,1.4400000000000002e-10,0.0,0.0,0.0,1.0,2
2025/05/06 15:48:42.494899731,1746539322,257556598,mA1/gps,0,1,63.43453366929904,10.392614661365487,0.0,1.4400000000000002e-10,0.0,0.0,0.0,1.4400000000000002e-10,0.0,0.0,0.0,1.0,2
2025/05/06 15:48:42.550538066,1746539322,360295102,mA1/gps,0,1,63.43453367942438,10.392614701761493,0.0,1.4400000000000002e-10,0.0,0.0,0.0,1.4400000000000002e-10,0.0,0.0,0.0,1.0,2
2025/05/06 15:48:42.595003897,1746539322,408226968,mA1/gps,0,1,63.434533684577325,10.392614721973494,0.0,1.4400000000000002e-10,0.0,0.0,0.0,1.4400000000000002e-10,0.0,0.0,0.0,1.0,2
2025/05/06 15:48:42.657225248,1746539322,462923747,mA1/gps,0,1,63.43453368990708,10.392614743304483,0.0,1.4400000000000002e-10,0.0,0.0,0.0,1.4400000000000002e-10,0.0,0.0,0.0,1.0,2
2025/05/06 15:48:42.747614893,1746539322,513148691,mA1/gps,0,1,63.43453369525489,10.3926147641078,0.0,1.4400000000000002e-10,0.0,0.0,0.0,1.4400000000000002e-10,0.0,0.0,0.0,1.0,2
2025/05/06 15:48:42.879412942,1746539322,562603862,mA1/gps,0,1,63.43453370078086,10.39261478619612,0.0,1.4400000000000002e-10,0.0,0.0,0.0,1.4400000000000002e-10,0.0,0.0,0.0,1.0,2
2025/05/06 15:48:42.957076544,1746539322,609631102,mA1/gps,0,1,63.43453370615421,10.39261480662778,0.0,1.4400000000000002e-10,0.0,0.0,0.0,1.4400000000000002e-10,0.0,0.0,0.0,1.0,2
2025/05/06 15:48:43.80053996,1746539322,662768242,mA1/gps,0,1,63.434533711614414,10.39261482829382,0.0,1.4400000000000002e-10,0.0,0.0,0.0,1.4400000000000002e-10,0.0,0.0,0.0,1.0,2
2025/05/06 15:48:43.97575438,1746539322,710720590,mA1/gps,0,1,63.43453371665597,10.392614849701127,0.0,1.4400000000000002e-10,0.0,0.0,0.0,1.4400000000000002e-10,0.0,0.0,0.0,1.0,2
2025/05/06 15:48:43.149119524,1746539322,859179406,mA1/gps,0,1,63.43453373253452,10.392614920155664,0.0,1.4400000000000002e-10,0.0,0.0,0.0,1.4400000000000002e-10,0.0,0.0,0.0,1.0,2
2025/05/06 15:48:43.244417348,1746539322,965559363,mA1/gps,0,1,63.43453374269837,10.392614966168878,0.0,1.4400000000000002e-10,0.0,0.0,0.0,1.4400000000000002e-10,0.0,0.0,0.0,1.0,2
2025/05/06 15:48:43.291581171,1746539323,6100262,mA1/gps,0,1,63.43453374752425,10.39261498944896,0.0,1.4400000000000002e-10,0.0,0.0,0.0,1.4400000000000002e-10,0.0,0.0,0.0,1.0,2
2025/05/06 15:48:43.376682894,1746539323,111535492,mA1/gps,0,1,63.43453375784979,10.39261504135868,0.0,1.4400000000000002e-10,0.0,0.0,0.0,1.4400000000000002e-10,0.0,0.0,0.0,1.0,2
2025/05/06 15:48:43.522954380,1746539323,163814901,mA1/gps,0,1,63.43453376233894,10.392615066481302,0.0,1.4400000000000002e-10,0.0,0.0,0.0,1.4400000000000002e-10,0.0,0.0,0.0,1.0,2
2025/05/06 15:48:43.685617165,1746539323,260950793,mA1/gps,0,1,63.43453377133931,10.3926151191727,0.0,1.4400000000000002e-10,0.0,0.0,0.0,1.4400000000000002e-10,0.0,0.0,0.0,1.0,2
2025/05/06 15:48:43.804991690,1746539323,359341605,mA1/gps,0,1,63.434533780387234,10.3926151767221,0.0,1.4400000000000002e-10,0.0,0.0,0.0,1.4400000000000002e-10,0.0,0.0,0.0,1.0,2
2025/05/06 15:48:43.875392843,1746539323,511401538,mA1/gps,0,1,63.43453379210024,10.3926152677896,0.0,1.4400000000000002e-10,0.0,0.0,0.0,1.4400000000000002e-10,0.0,0.0,0.0,1.0,2
2025/05/06 15:48:43.947405338,1746539323,618701838,mA1/gps,0,1,63.434533799449454,10.392615330962089,0.0,1.4400000000000002e-10,0.0,0.0,0.0,1.4400000000000002e-10,0.0,0.0,0.0,1.0,2
2025/05/06 15:48:44.11174152,1746539323,715180584,mA1/gps,0,1,63.43453380692603,10.392615394904091,0.0,1.4400000000000002e-10,0.0,0.0,0.0,1.4400000000000002e-10,0.0,0.0,0.0,1.0,2
2025/05/06 15:48:44.71849669,1746539323,856490590,mA1/gps,0,1,63.43453381870008,10.392615500074287,0.0,1.4400000000000002e-10,0.0,0.0,0.0,1.4400000000000002e-10,0.0,0.0,0.0,1.0,2
2025/05/06 15:48:44.119423675,1746539323,913415538,mA1/gps,0,1,63.43453382248545,10.392615533838997,0.0,1.4400000000000002e-10,0.0,0.0,0.0,1.4400000000000002e-10,0.0,0.0,0.0,1.0,2
2025/05/06 15:48:44.132853812,1746539323,962024101,mA1/gps,0,1,63.434533826536686,10.392615568252186,0.0,1.4400000000000002e-10,0.0,0.0,0.0,1.4400000000000002e-10,0.0,0.0,0.0,1.0,2
2025/05/06 15:48:44.166548083,1746539324,11872096,mA1/gps,0,1,63.43453383076163,10.392615603796532,0.0,1.4400000000000002e-10,0.0,0.0,0.0,1.4400000000000002e-10,0.0,0.0,0.0,1.0,2
2025/05/06 15:48:44.196803369,1746539324,57228034,mA1/gps,0,1,63.434533834835406,10.392615640350893,0.0,1.4400000000000002e-10,0.0,0.0,0.0,1.4400000000000002e-10,0.0,0.0,0.0,1.0,2
2025/05/06 15:48:44.242547054,1746539324,106325341,mA1/gps,0,1,63.434533839074106,10.392615677849182,0.0,1.4400000000000002e-10,0.0,0.0,0.0,1.4400000000000002e-10,0.0,0.0,0.0,1.0,2
2025/05/06 15:48:44.286749587,1746539324,163782489,mA1/gps,0,1,63.43453384274063,10.392615713337142,0.0,1.4400000000000002e-10,0.0,0.0,0.0,1.4400000000000002e-10,0.0,0.0,0.0,1.0,2
2025/05/06 15:48:44.312370020,1746539324,212168809,mA1/gps,0,1,63.434533846754704,10.392615750428702,0.0,1.4400000000000002e-10,0.0,0.0,0.0,1.4400000000000002e-10,0.0,0.0,0.0,1.0,2
2025/05/06 15:48:44.348833104,1746539324,256643234,mA1/gps,0,1,63.43453385077414,10.392615791802752,0.0,1.4400000000000002e-10,0.0,0.0,0.0,1.4400000000000002e-10,0.0,0.0,0.0,1.0,2
2025/05/06 15:48:44.399564143,1746539324,313974916,mA1/gps,0,1,63.434533854430455,10.392615833283616,0.0,1.4400000000000002e-10,0.0,0.0,0.0,1.4400000000000002e-10,0.0,0.0,0.0,1.0,2
2025/05/06 15:48:44.419264368,1746539324,360580428,mA1/gps,0,1,63.43453385761551,10.392615869223057,0.0,1.4400000000000002e-10,0.0,0.0,0.0,1.4400000000000002e-10,0.0,0.0,0.0,1.0,2
2025/05/06 15:48:44.461052085,1746539324,410284416,mA1/gps,0,1,63.434533860652714,10.392615907621664,0.0,1.4400000000000002e-10,0.0,0.0,0.0,1.4400000000000002e-10,0.0,0.0,0.0,1.0,2
2025/05/06 15:48:44.504504218,1746539324,463425898,mA1/gps,0,1,63.434533863717355,10.392615948917042,0.0,1.4400000000000002e-10,0.0,0.0,0.0,1.4400000000000002e-10,0.0,0.0,0.0,1.0,2
2025/05/06 15:48:44.544129529,1746539324,512874654,mA1/gps,0,1,63.43453386662566,10.392615991134827,0.0,1.4400000000000002e-10,0.0,0.0,0.0,1.4400000000000002e-10,0.0,0.0,0.0,1.0,2
2025/05/06 15:48:44.578958587,1746539324,565379364,mA1/gps,0,1,63.43453386943614,10.392616032612382,0.0,1.4400000000000002e-10,0.0,0.0,0.0,1.4400000000000002e-10,0.0,0.0,0.0,1.0,2
2025/05/06 15:48:44.607108134,1746539324,604926668,mA1/gps,0,1,63.434533872390624,10.392616077464023,0.0,1.4400000000000002e-10,0.0,0.0,0.0,1.4400000000000002e-10,0.0,0.0,0.0,1.0,2
2025/05/06 15:48:44.663655792,1746539324,659062009,mA1/gps,0,1,63.4345338750656,10.392616119061389,0.0,1.4400000000000002e-10,0.0,0.0,0.0,1.4400000000000002e-10,0.0,0.0,0.0,1.0,2
2025/05/06 15:48:44.718426719,1746539324,709025116,mA1/gps,0,1,63.434533877442206,10.392616161211814,0.0,1.4400000000000002e-10,0.0,0.0,0.0,1.4400000000000002e-10,0.0,0.0,0.0,1.0,2
2025/05/06 15:48:44.780303915,1746539324,770392940,mA1/gps,0,1,63.43453388011189,10.392616203196878,0.0,1.4400000000000002e-10,0.0,0.0,0.0,1.4400000000000002e-10,0.0,0.0,0.0,1.0,2
2025/05/06 15:48:44.814663939,1746539324,809485933,mA1/gps,0,1,63.434533882868585,10.392616251534683,0.0,1.4400000000000002e-10,0.0,0.0,0.0,1.4400000000000002e-10,0.0,0.0,0.0,1.0,2
2025/05/06 15:48:44.872446185,1746539324,864565482,mA1/gps,0,1,63.43453388597151,10.392616299939617,0.0,1.4400000000000002e-10,0.0,0.0,0.0,1.4400000000000002e-10,0.0,0.0,0.0,1.0,2
2025/05/06 15:48:44.913838788,1746539324,907230996,mA1/gps,0,1,63.43453388899409,10.392616346899777,0.0,1.4400000000000002e-10,0.0,0.0,0.0,1.4400000000000002e-10,0.0,0.0,0.0,1.0,2
2025/05/06 15:48:44.964768598,1746539324,958601249,mA1/gps,0,1,63.43453389215885,10.392616394511919,0.0,1.4400000000000002e-10,0.0,0.0,0.0,1.4400000000000002e-10,0.0,0.0,0.0,1.0,2
2025/05/06 15:48:45.15552904,1746539325,11125559,mA1/gps,0,1,63.4345338960085,10.392616443742334,0.0,1.4400000000000002e-10,0.0,0.0,0.0,1.4400000000000002e-10,0.0,0.0,0.0,1.0,2
2025/05/06 15:48:45.71868070,1746539325,62761084,mA1/gps,0,1,63.434533899931616,10.392616493702658,0.0,1.4400000000000002e-10,0.0,0.0,0.0,1.4400000000000002e-10,0.0,0.0,0.0,1.0,2
2025/05/06 15:48:45.124150233,1746539325,106184126,mA1/gps,0,1,63.434533903658426,10.392616540306392,0.0,1.4400000000000002e-10,0.0,0.0,0.0,1.4400000000000002e-10,0.0,0.0,0.0,1.0,2
2025/05/06 15:48:45.161301100,1746539325,156880721,mA1/gps,0,1,63.43453390821206,10.392616595507603,0.0,1.4400000000000002e-10,0.0,0.0,0.0,1.4400000000000002e-10,0.0,0.0,0.0,1.0,2
2025/05/06 15:48:45.214250058,1746539325,207863186,mA1/gps,0,1,63.43453391272862,10.392616648507264,0.0,1.4400000000000002e-10,0.0,0.0,0.0,1.4400000000000002e-10,0.0,0.0,0.0,1.0,2
2025/05/06 15:48:45.284289277,1746539325,261886810,mA1/gps,0,1,63.43453391710366,10.392616700208091,0.0,1.4400000000000002e-10,0.0,0.0,0.0,1.4400000000000002e-10,0.0,0.0,0.0,1.0,2
2025/05/06 15:48:45.316671562,1746539325,311093999,mA1/gps,0,1,63.43453392147802,10.392616752164185,0.0,1.4400000000000002e-10,0.0,0.0,0.0,1.4400000000000002e-10,0.0,0.0,0.0,1.0,2
2025/05/06 15:48:45.359828234,1746539325,355103589,mA1/gps,0,1,63.43453392579174,10.392616805369213,0.0,1.4400000000000002e-10,0.0,0.0,0.0,1.4400000000000002e-10,0.0,0.0,0.0,1.0,2
2025/05/06 15:48:45.413259243,1746539325,406687143,mA1/gps,0,1,63.43453393030394,10.392616860637268,0.0,1.4400000000000002e-10,0.0,0.0,0.0,1.4400000000000002e-10,0.0,0.0,0.0,1.0,2
2025/05/06 15:48:45.466645263,1746539325,463721935,mA1/gps,0,1,63.434533935277386,10.392616916888912,0.0,1.4400000000000002e-10,0.0,0.0,0.0,1.4400000000000002e-10,0.0,0.0,0.0,1.0,2
2025/05/06 15:48:45.512705698,1746539325,507422918,mA1/gps,0,1,63.434533939962115,10.392616973546968,0.0,1.4400000000000002e-10,0.0,0.0,0.0,1.4400000000000002e-10,0.0,0.0,0.0,1.0,2
2025/05/06 15:48:45.567973243,1746539325,562109786,mA1/gps,0,1,63.43453394482308,10.392617030843915,0.0,1.4400000000000002e-10,0.0,0.0,0.0,1.4400000000000002e-10,0.0,0.0,0.0,1.0,2
2025/05/06 15:48:45.611328735,1746539325,607880960,mA1/gps,0,1,63.43453394951331,10.392617088158953,0.0,1.4400000000000002e-10,0.0,0.0,0.0,1.4400000000000002e-10,0.0,0.0,0.0,1.0,2
2025/05/06 15:48:45.663622608,1746539325,661208896,mA1/gps,0,1,63.43453395394436,10.3926171441559,0.0,1.4400000000000002e-10,0.0,0.0,0.0,1.4400000000000002e-10,0.0,0.0,0.0,1.0,2
2025/05/06 15:48:45.722030721,1746539325,711097375,mA1/gps,0,1,63.43453395844594,10.392617204575194,0.0,1.4400000000000002e-10,0.0,0.0,0.0,1.4400000000000002e-10,0.0,0.0,0.0,1.0,2
2025/05/06 15:48:45.773104456,1746539325,758424074,mA1/gps,0,1,63.43453396226917,10.39261726752682,0.0,1.4400000000000002e-10,0.0,0.0,0.0,1.4400000000000002e-10,0.0,0.0,0.0,1.0,2
2025/05/06 15:48:45.813575216,1746539325,805577291,mA1/gps,0,1,63.434533965389356,10.392617329783096,0.0,1.4400000000000002e-10,0.0,0.0,0.0,1.4400000000000002e-10,0.0,0.0,0.0,1.0,2
2025/05/06 15:48:45.866960230,1746539325,855584559,mA1/gps,0,1,63.4345339677734,10.392617389687114,0.0,1.4400000000000002e-10,0.0,0.0,0.0,1.4400000000000002e-10,0.0,0.0,0.0,1.0,2
2025/05/06 15:48:45.913488583,1746539325,906663896,mA1/gps,0,1,63.434533969575696,10.392617451604151,0.0,1.4400000000000002e-10,0.0,0.0,0.0,1.4400000000000002e-10,0.0,0.0,0.0,1.0,2
2025/05/06 15:48:45.978779772,1746539325,962753372,mA1/gps,0,1,63.43453397078172,10.392617518053292,0.0,1.4400000000000002e-10,0.0,0.0,0.0,1.4400000000000002e-10,0.0,0.0,0.0,1.0,2
2025/05/06 15:48:46.12787231,1746539326,11705382,mA1/gps,0,1,63.43453397075732,10.392617582835719,0.0,1.4400000000000002e-10,0.0,0.0,0.0,1.4400000000000002e-10,0.0,0.0,0.0,1.0,2
2025/05/06 15:48:46.62459665,1746539326,54276019,mA1/gps,0,1,63.434533970363816,10.392617650425787,0.0,1.4400000000000002e-10,0.0,0.0,0.0,1.4400000000000002e-10,0.0,0.0,0.0,1.0,2
2025/05/06 15:48:46.116112634,1746539326,107017985,mA1/gps,0,1,63.43453396944561,10.39261771499182,0.0,1.4400000000000002e-10,0.0,0.0,0.0,1.4400000000000002e-10,0.0,0.0,0.0,1.0,2
2025/05/06 15:48:46.167276891,1746539326,162213247,mA1/gps,0,1,63.43453396801492,10.392617782764319,0.0,1.4400000000000002e-10,0.0,0.0,0.0,1.4400000000000002e-10,0.0,0.0,0.0,1.0,2
2025/05/06 15:48:46.216987749,1746539326,212099464,mA1/gps,0,1,63.43453396672975,10.392617853244955,0.0,1.4400000000000002e-10,0.0,0.0,0.0,1.4400000000000002e-10,0.0,0.0,0.0,1.0,2
2025/05/06 15:48:46.261692259,1746539326,256958165,mA1/gps,0,1,63.434533965976634,10.392617923082435,0.0,1.4400000000000002e-10,0.0,0.0,0.0,1.4400000000000002e-10,0.0,0.0,0.0,1.0,2
2025/05/06 15:48:46.314974036,1746539326,310054210,mA1/gps,0,1,63.434533965731475,10.392617993820771,0.0,1.4400000000000002e-10,0.0,0.0,0.0,1.4400000000000002e-10,0.0,0.0,0.0,1.0,2
2025/05/06 15:48:46.369746868,1746539326,363305714,mA1/gps,0,1,63.434533966139504,10.39261806706103,0.0,1.4400000000000002e-10,0.0,0.0,0.0,1.4400000000000002e-10,0.0,0.0,0.0,1.0,2
2025/05/06 15:48:46.414466157,1746539326,407523091,mA1/gps,0,1,63.43453396647141,10.392618141244347,0.0,1.4400000000000002e-10,0.0,0.0,0.0,1.4400000000000002e-10,0.0,0.0,0.0,1.0,2
2025/05/06 15:48:46.468949238,1746539326,461393455,mA1/gps,0,1,63.434533967317925,10.392618215602855,0.0,1.4400000000000002e-10,0.0,0.0,0.0,1.4400000000000002e-10,0.0,0.0,0.0,1.0,2
2025/05/06 15:48:46.516211429,1746539326,512419252,mA1/gps,0,1,63.434533967878245,10.392618290298909,0.0,1.4400000000000002e-10,0.0,0.0,0.0,1.4400000000000002e-10,0.0,0.0,0.0,1.0,2
2025/05/06 15:48:46.562328673,1746539326,559181593,mA1/gps,0,1,63.434533969093195,10.392618366833746,0.0,1.4400000000000002e-10,0.0,0.0,0.0,1.4400000000000002e-10,0.0,0.0,0.0,1.0,2
2025/05/06 15:48:46.614658835,1746539326,606637393,mA1/gps,0,1,63.434533970978265,10.392618444776176,0.0,1.4400000000000002e-10,0.0,0.0,0.0,1.4400000000000002e-10,0.0,0.0,0.0,1.0,2
2025/05/06 15:48:46.670205638,1746539326,661270331,mA1/gps,0,1,63.43453397316107,10.392618522656987,0.0,1.4400000000000002e-10,0.0,0.0,0.0,1.4400000000000002e-10,0.0,0.0,0.0,1.0,2
2025/05/06 15:48:46.718953887,1746539326,712887301,mA1/gps,0,1,63.4345339760266,10.392618598936409,0.0,1.4400000000000002e-10,0.0,0.0,0.0,1.4400000000000002e-10,0.0,0.0,0.0,1.0,2
2025/05/06 15:48:46.763236960,1746539326,756115978,mA1/gps,0,1,63.43453397983322,10.3926186797137,0.0,1.4400000000000002e-10,0.0,0.0,0.0,1.4400000000000002e-10,0.0,0.0,0.0,1.0,2
2025/05/06 15:48:46.816466874,1746539326,813891691,mA1/gps,0,1,63.434533983837866,10.39261876132843,0.0,1.4400000000000002e-10,0.0,0.0,0.0,1.4400000000000002e-10,0.0,0.0,0.0,1.0,2
2025/05/06 15:48:46.862972195,1746539326,857554616,mA1/gps,0,1,63.434533988820284,10.392618841046296,0.0,1.4400000000000002e-10,0.0,0.0,0.0,1.4400000000000002e-10,0.0,0.0,0.0,1.0,2
2025/05/06 15:48:46.913044167,1746539326,909326742,mA1/gps,0,1,63.434533994477896,10.392618922409147,0.0,1.4400000000000002e-10,0.0,0.0,0.0,1.4400000000000002e-10,0.0,0.0,0.0,1.0,2
2025/05/06 15:48:46.965592528,1746539326,962843265,mA1/gps,0,1,63.43453400093773,10.392619005704171,0.0,1.4400000000000002e-10,0.0,0.0,0.0,1.4400000000000002e-10,0.0,0.0,0.0,1.0,2
2025/05/06 15:48:47.16612801,1746539327,12172330,mA1/gps,0,1,63.43453400737567,10.392619089879247,0.0,1.4400000000000002e-10,0.0,0.0,0.0,1.4400000000000002e-10,0.0,0.0,0.0,1.0,2
2025/05/06 15:48:47.61143553,1746539327,55488313,mA1/gps,0,1,63.4345340144928,10.392619170514966,0.0,1.4400000000000002e-10,0.0,0.0,0.0,1.4400000000000002e-10,0.0,0.0,0.0,1.0,2
2025/05/06 15:48:47.112793456,1746539327,108275031,mA1/gps,0,1,63.434534021729206,10.392619256486299,0.0,1.4400000000000002e-10,0.0,0.0,0.0,1.4400000000000002e-10,0.0,0.0,0.0,1.0,2
2025/05/06 15:48:47.175628471,1746539327,165179608,mA1/gps,0,1,63.43453402837519,10.392619343430898,0.0,1.4400000000000002e-10,0.0,0.0,0.0,1.4400000000000002e-10,0.0,0.0,0.0,1.0,2
2025/05/06 15:48:47.212051382,1746539327,205356951,mA1/gps,0,1,63.43453403490488,10.39261942820555,0.0,1.4400000000000002e-10,0.0,0.0,0.0,1.4400000000000002e-10,0.0,0.0,0.0,1.0,2
2025/05/06 15:48:47.263587719,1746539327,261246262,mA1/gps,0,1,63.43453404156866,10.392619516464158,0.0,1.4400000000000002e-10,0.0,0.0,0.0,1.4400000000000002e-10,0.0,0.0,0.0,1.0,2
2025/05/06 15:48:47.345405394,1746539327,318371961,mA1/gps,0,1,63.434534048139696,10.392619603972026,0.0,1.4400000000000002e-10,0.0,0.0,0.0,1.4400000000000002e-10,0.0,0.0,0.0,1.0,2
2025/05/06 15:48:47.372793167,1746539327,367687242,mA1/gps,0,1,63.43453405466493,10.392619695677139,0.0,1.4400000000000002e-10,0.0,0.0,0.0,1.4400000000000002e-10,0.0,0.0,0.0,1.0,2
2025/05/06 15:48:47.417873888,1746539327,411400059,mA1/gps,0,1,63.434534060765166,10.392619784889838,0.0,1.4400000000000002e-10,0.0,0.0,0.0,1.4400000000000002e-10,0.0,0.0,0.0,1.0,2
2025/05/06 15:48:47.461450668,1746539327,457128190,mA1/gps,0,1,63.43453406701762,10.392619878328231,0.0,1.4400000000000002e-10,0.0,0.0,0.0,1.4400000000000002e-10,0.0,0.0,0.0,1.0,2
2025/05/06 15:48:47.518303671,1746539327,513112087,mA1/gps,0,1,63.43453407261174,10.392619971395463,0.0,1.4400000000000002e-10,0.0,0.0,0.0,1.4400000000000002e-10,0.0,0.0,0.0,1.0,2
2025/05/06 15:48:47.562454777,1746539327,558440342,mA1/gps,0,1,63.43453407778525,10.392620064517686,0.0,1.4400000000000002e-10,0.0,0.0,0.0,1.4400000000000002e-10,0.0,0.0,0.0,1.0,2
2025/05/06 15:48:47.638566505,1746539327,608349072,mA1/gps,0,1,63.4345340826999,10.392620161870802,0.0,1.4400000000000002e-10,0.0,0.0,0.0,1.4400000000000002e-10,0.0,0.0,0.0,1.0,2
2025/05/06 15:48:47.669921827,1746539327,660846649,mA1/gps,0,1,63.43453408697899,10.392620260086076,0.0,1.4400000000000002e-10,0.0,0.0,0.0,1.4400000000000002e-10,0.0,0.0,0.0,1.0,2
2025/05/06 15:48:47.725253413,1746539327,712174590,mA1/gps,0,1,63.434534091094044,10.39262035942687,0.0,1.4400000000000002e-10,0.0,0.0,0.0,1.4400000000000002e-10,0.0,0.0,0.0,1.0,2
2025/05/06 15:48:47.772403405,1746539327,763047321,mA1/gps,0,1,63.434534094875815,10.392620459636365,0.0,1.4400000000000002e-10,0.0,0.0,0.0,1.4400000000000002e-10,0.0,0.0,0.0,1.0,2
2025/05/06 15:48:47.814463279,1746539327,808504287,mA1/gps,0,1,63.434534098477094,10.392620561725966,0.0,1.4400000000000002e-10,0.0,0.0,0.0,1.4400000000000002e-10,0.0,0.0,0.0,1.0,2
2025/05/06 15:48:47.864018959,1746539327,859386084,mA1/gps,0,1,63.43453410108487,10.39262066498344,0.0,1.4400000000000002e-10,0.0,0.0,0.0,1.4400000000000002e-10,0.0,0.0,0.0,1.0,2
2025/05/06 15:48:47.913536702,1746539327,911715720,mA1/gps,0,1,63.43453410312394,10.39262076912514,0.0,1.4400000000000002e-10,0.0,0.0,0.0,1.4400000000000002e-10,0.0,0.0,0.0,1.0,2
2025/05/06 15:48:47.960377110,1746539327,955269693,mA1/gps,0,1,63.43453410504928,10.392620873762661,0.0,1.4400000000000002e-10,0.0,0.0,0.0,1.4400000000000002e-10,0.0,0.0,0.0,1.0,2
2025/05/06 15:48:48.12548859,1746539328,10440291,mA1/gps,0,1,63.43453410642497,10.39262098015247,0.0,1.4400000000000002e-10,0.0,0.0,0.0,1.4400000000000002e-10,0.0,0.0,0.0,1.0,2
2025/05/06 15:48:48.65329110,1746539328,63045269,mA1/gps,0,1,63.43453410810961,10.392621089602137,0.0,1.4400000000000002e-10,0.0,0.0,0.0,1.4400000000000002e-10,0.0,0.0,0.0,1.0,2
2025/05/06 15:48:48.113742286,1746539328,109434597,mA1/gps,0,1,63.43453410986406,10.39262119955348,0.0,1.4400000000000002e-10,0.0,0.0,0.0,1.4400000000000002e-10,0.0,0.0,0.0,1.0,2
2025/05/06 15:48:48.167834769,1746539328,160219092,mA1/gps,0,1,63.43453411193918,10.3926213086694,0.0,1.4400000000000002e-10,0.0,0.0,0.0,1.4400000000000002e-10,0.0,0.0,0.0,1.0,2
2025/05/06 15:48:48.222488853,1746539328,213569968,mA1/gps,0,1,63.434534114131715,10.392621418841443,0.0,1.4400000000000002e-10,0.0,0.0,0.0,1.4400000000000002e-10,0.0,0.0,0.0,1.0,2
2025/05/06 15:48:48.266450990,1746539328,259113784,mA1/gps,0,1,63.434534116495485,10.392621532064988,0.0,1.4400000000000002e-10,0.0,0.0,0.0,1.4400000000000002e-10,0.0,0.0,0.0,1.0,2
2025/05/06 15:48:48.318612515,1746539328,312806694,mA1/gps,0,1,63.43453411903692,10.392621644606724,0.0,1.4400000000000002e-10,0.0,0.0,0.0,1.4400000000000002e-10,0.0,0.0,0.0,1.0,2
2025/05/06 15:48:48.364827543,1746539328,358862667,mA1/gps,0,1,63.43453412141122,10.392621755151284,0.0,1.4400000000000002e-10,0.0,0.0,0.0,1.4400000000000002e-10,0.0,0.0,0.0,1.0,2
2025/05/06 15:48:48.413561723,1746539328,407806148,mA1/gps,0,1,63.434534124283715,10.392621869931547,0.0,1.4400000000000002e-10,0.0,0.0,0.0,1.4400000000000002e-10,0.0,0.0,0.0,1.0,2
2025/05/06 15:48:48.473977537,1746539328,463251097,mA1/gps,0,1,63.4345341260116,10.392621987917604,0.0,1.4400000000000002e-10,0.0,0.0,0.0,1.4400000000000002e-10,0.0,0.0,0.0,1.0,2
2025/05/06 15:48:48.525186272,1746539328,512175123,mA1/gps,0,1,63.43453412712768,10.392622104311183,0.0,1.4400000000000002e-10,0.0,0.0,0.0,1.4400000000000002e-10,0.0,0.0,0.0,1.0,2
2025/05/06 15:48:48.596306568,1746539328,563855114,mA1/gps,0,1,63.43453412872067,10.39262221988757,0.0,1.4400000000000002e-10,0.0,0.0,0.0,1.4400000000000002e-10,0.0,0.0,0.0,1.0,2
2025/05/06 15:48:48.630775091,1746539328,606655800,mA1/gps,0,1,63.4345341301907,10.392622335709191,0.0,1.4400000000000002e-10,0.0,0.0,0.0,1.4400000000000002e-10,0.0,0.0,0.0,1.0,2
2025/05/06 15:48:48.671929849,1746539328,654447174,mA1/gps,0,1,63.43453413158951,10.392622454818078,0.0,1.4400000000000002e-10,0.0,0.0,0.0,1.4400000000000002e-10,0.0,0.0,0.0,1.0,2
2025/05/06 15:48:48.736594213,1746539328,713738358,mA1/gps,0,1,63.43453413299542,10.39262257378001,0.0,1.4400000000000002e-10,0.0,0.0,0.0,1.4400000000000002e-10,0.0,0.0,0.0,1.0,2
2025/05/06 15:48:48.771388195,1746539328,761098045,mA1/gps,0,1,63.43453413444591,10.39262269240995,0.0,1.4400000000000002e-10,0.0,0.0,0.0,1.4400000000000002e-10,0.0,0.0,0.0,1.0,2
2025/05/06 15:48:48.808570298,1746539328,805060673,mA1/gps,0,1,63.43453413587525,10.392622813666915,0.0,1.4400000000000002e-10,0.0,0.0,0.0,1.4400000000000002e-10,0.0,0.0,0.0,1.0,2
2025/05/06 15:48:48.870120246,1746539328,864863013,mA1/gps,0,1,63.4345341370241,10.392622935195618,0.0,1.4400000000000002e-10,0.0,0.0,0.0,1.4400000000000002e-10,0.0,0.0,0.0,1.0,2
2025/05/06 15:48:48.920445491,1746539328,913494279,mA1/gps,0,1,63.43453413760013,10.392623062500727,0.0,1.4400000000000002e-10,0.0,0.0,0.0,1.4400000000000002e-10,0.0,0.0,0.0,1.0,2
2025/05/06 15:48:48.965507482,1746539328,958447483,mA1/gps,0,1,63.4345341376125,10.3926231860634,0.0,1.4400000000000002e-10,0.0,0.0,0.0,1.4400000000000002e-10,0.0,0.0,0.0,1.0,2
2025/05/06 15:48:49.16259285,1746539329,11592310,mA1/gps,0,1,63.43453413674489,10.392623310658308,0.0,1.4400000000000002e-10,0.0,0.0,0.0,1.4400000000000002e-10,0.0,0.0,0.0,1.0,2
2025/05/06 15:48:49.62476750,1746539329,58193161,mA1/gps,0,1,63.434534135955545,10.39262343537581,0.0,1.4400000000000002e-10,0.0,0.0,0.0,1.4400000000000002e-10,0.0,0.0,0.0,1.0,2
2025/05/06 15:48:49.115543553,1746539329,111431411,mA1/gps,0,1,63.434534134649745,10.392623563871418,0.0,1.4400000000000002e-10,0.0,0.0,0.0,1.4400000000000002e-10,0.0,0.0,0.0,1.0,2
2025/05/06 15:48:49.161731020,1746539329,156222579,mA1/gps,0,1,63.434534132584915,10.392623694656143,0.0,1.4400000000000002e-10,0.0,0.0,0.0,1.4400000000000002e-10,0.0,0.0,0.0,1.0,2
2025/05/06 15:48:49.219030634,1746539329,211966217,mA1/gps,0,1,63.43453413008955,10.392623826638353,0.0,1.4400000000000002e-10,0.0,0.0,0.0,1.4400000000000002e-10,0.0,0.0,0.0,1.0,2
2025/05/06 15:48:49.264665924,1746539329,258212232,mA1/gps,0,1,63.434534127249144,10.392623956977856,0.0,1.4400000000000002e-10,0.0,0.0,0.0,1.4400000000000002e-10,0.0,0.0,0.0,1.0,2
2025/05/06 15:48:49.314843232,1746539329,310670982,mA1/gps,0,1,63.4345341244378,10.392624087698726,0.0,1.4400000000000002e-10,0.0,0.0,0.0,1.4400000000000002e-10,0.0,0.0,0.0,1.0,2
2025/05/06 15:48:49.364803132,1746539329,363313060,mA1/gps,0,1,63.43453412161487,10.39262422185649,0.0,1.4400000000000002e-10,0.0,0.0,0.0,1.4400000000000002e-10,0.0,0.0,0.0,1.0,2
2025/05/06 15:48:49.419181018,1746539329,412419600,mA1/gps,0,1,63.43453411891239,10.3926243559715,0.0,1.4400000000000002e-10,0.0,0.0,0.0,1.4400000000000002e-10,0.0,0.0,0.0,1.0,2
2025/05/06 15:48:49.468257925,1746539329,465227083,mA1/gps,0,1,63.43453411655292,10.392624492393304,0.0,1.4400000000000002e-10,0.0,0.0,0.0,1.4400000000000002e-10,0.0,0.0,0.0,1.0,2
2025/05/06 15:48:49.519453251,1746539329,513678798,mA1/gps,0,1,63.43453411476435,10.392624628054977,0.0,1.4400000000000002e-10,0.0,0.0,0.0,1.4400000000000002e-10,0.0,0.0,0.0,1.0,2
2025/05/06 15:48:49.557514804,1746539329,555593724,mA1/gps,0,1,63.43453411368755,10.392624764018791,0.0,1.4400000000000002e-10,0.0,0.0,0.0,1.4400000000000002e-10,0.0,0.0,0.0,1.0,2
2025/05/06 15:48:49.612251073,1746539329,607419670,mA1/gps,0,1,63.43453411335479,10.39262490144593,0.0,1.4400000000000002e-10,0.0,0.0,0.0,1.4400000000000002e-10,0.0,0.0,0.0,1.0,2
2025/05/06 15:48:49.668009215,1746539329,659744479,mA1/gps,0,1,63.434534113619385,10.392625042070781,0.0,1.4400000000000002e-10,0.0,0.0,0.0,1.4400000000000002e-10,0.0,0.0,0.0,1.0,2
2025/05/06 15:48:49.715012606,1746539329,708148816,mA1/gps,0,1,63.43453411477441,10.392625183575527,0.0,1.4400000000000002e-10,0.0,0.0,0.0,1.4400000000000002e-10,0.0,0.0,0.0,1.0,2
2025/05/06 15:48:49.779515998,1746539329,763430273,mA1/gps,0,1,63.434534116694046,10.392625323275205,0.0,1.4400000000000002e-10,0.0,0.0,0.0,1.4400000000000002e-10,0.0,0.0,0.0,1.0,2
2025/05/06 15:48:49.809541279,1746539329,806173780,mA1/gps,0,1,63.43453411929269,10.392625463255584,0.0,1.4400000000000002e-10,0.0,0.0,0.0,1.4400000000000002e-10,0.0,0.0,0.0,1.0,2
2025/05/06 15:48:49.877553820,1746539329,862379066,mA1/gps,0,1,63.434534122842955,10.392625604164767,0.0,1.4400000000000002e-10,0.0,0.0,0.0,1.4400000000000002e-10,0.0,0.0,0.0,1.0,2
