time,header_stamp_secs,header_stamp_nsecs,header_frame_id,quaternion_x,quaternion_y,quaternion_z,quaternion_w
2025/05/06 15:48:32.25190854,1746539312,23111863,,-0.0002966086419640012,-0.0002691474648538737,0.672791437213113,0.7398320901364509
2025/05/06 15:48:32.119971515,1746539312,119322446,,-0.0002984490600012988,-0.00027037860100768903,0.6727973287445128,0.7398267312403753
2025/05/06 15:48:32.226376138,1746539312,225560332,,-0.00030059525708175613,-0.0002715640435458097,0.6728030095522619,0.7398215637793215
2025/05/06 15:48:32.325256765,1746539312,324410891,,-0.0003013577659511571,-0.0002720791250458602,0.6728087232592896,0.7398163671227147
2025/05/06 15:48:32.418753185,1746539312,417207605,,-0.0003007438287211622,-0.00027179607340189273,0.6728144699673442,0.7398111412263306
2025/05/06 15:48:32.519171580,1746539312,517807504,,-0.00029901258144176635,-0.0002708257874975173,0.672820248670778,0.7398058868537485
2025/05/06 15:48:32.622274704,1746539312,620614473,,-0.00029674266297330653,-0.0002693137750322451,0.6728260616781631,0.7398006016086601
2025/05/06 15:48:32.729537162,1746539312,728535402,,-0.00029425363655751825,-0.00026790834777473,0.6728319072765963,0.7397952866776404
2025/05/06 15:48:32.828219606,1746539312,827179888,,-0.0002921868859149228,-0.00026689199042779935,0.6728377853120509,0.7397899418428611
2025/05/06 15:48:32.920438977,1746539312,919887277,,-0.00029099266001374836,-0.00026646334301343047,0.6728436946761789,0.7397845678676108
2025/05/06 15:48:33.27153033,1746539313,24402199,,-0.0002908626780326412,-0.0002667109977355382,0.672849632658578,0.7397791671136482
2025/05/06 15:48:33.129290366,1746539313,123669591,,-0.0002917735469515903,-0.00026752313697627313,0.672855593176099,0.739773745162133
2025/05/06 15:48:33.221790871,1746539313,221082866,,-0.00029345734982781424,-0.00026869509254675737,0.6728615759894658,0.7397683024046809
2025/05/06 15:48:33.321276659,1746539313,319711474,,-0.00029551204670418945,-0.0002699055480996626,0.6728675799032421,0.7397628401986542
2025/05/06 15:48:33.420245719,1746539313,419824248,,-0.0002974564386823485,-0.0002708728461030489,0.6728736029838704,0.7397573605954003
2025/05/06 15:48:33.531711749,1746539313,531146624,,-0.00029890063722942304,-0.00027135368460262443,0.6728796440266865,0.7397518649385796
2025/05/06 15:48:33.627057439,1746539313,625453673,,-0.0003026672643398258,-0.0002737428421020404,0.672886396514465,0.7397457203953003
2025/05/06 15:48:33.724617563,1746539313,723796605,,-0.0003065747818770021,-0.0002741621982798368,0.6728884771641054,0.7397438260281484
2025/05/06 15:48:33.825141804,1746539313,824958947,,-0.0003211814375688037,-0.0002827461797710306,0.6728897081518697,0.7397426968618033
2025/05/06 15:48:33.917123313,1746539313,916653323,,-0.0003407152104508084,-0.00029650180828842,0.6728934794186984,0.7397392522744896
2025/05/06 15:48:34.19790519,1746539314,19344350,,-0.0003561541177138917,-0.00030690473134551067,0.672895609828856,0.7397373028560763
2025/05/06 15:48:34.120099252,1746539314,119824467,,-0.0003708318295219693,-0.0003179249872105753,0.672897607738551,0.7397354736033632
2025/05/06 15:48:34.223508232,1746539314,223383479,,-0.0003781509187303126,-0.0003274560413526172,0.6729071969791125,0.7397267428098957
2025/05/06 15:48:34.318662891,1746539314,318460404,,-0.0003575373314535108,-0.0003135109053585446,0.6729183032467416,0.7397166559119075
2025/05/06 15:48:34.423518524,1746539314,420431110,,-0.00030993832779689266,-0.00027414463794736083,0.672929312823408,0.7397066774918059
2025/05/06 15:48:34.526681300,1746539314,526337969,,-0.000246660217147638,-0.00022210933702500847,0.6729433859062081,0.7396939158809326
2025/05/06 15:48:34.626519643,1746539314,625940946,,-0.00017788742870080952,-0.00016236911566732082,0.6729541035302481,0.7396842005438086
2025/05/06 15:48:34.721921473,1746539314,721759698,,-0.00012680529226048504,-0.00011860438668523268,0.6729677640154234,0.7396717910326842
2025/05/06 15:48:34.821611638,1746539314,821482416,,-9.717260881505884e-05,-9.274441110244636e-05,0.6729813466990607,0.7396594411964719
2025/05/06 15:48:34.925151475,1746539314,923708460,,-9.546215517567414e-05,-9.051310270088545e-05,0.6729945704994503,0.7396474097653664
2025/05/06 15:48:35.23151661,1746539315,22215254,,-0.0001228391257985595,-0.0001122793561716161,0.6730042383297703,0.7396386060057042
2025/05/06 15:48:35.127367101,1746539315,124407482,,-0.0001791921990647764,-0.00016037945090911144,0.6730167392671562,0.7396272107182051
2025/05/06 15:48:35.218814870,1746539315,218102231,,-0.00024369284733914546,-0.0002147929892835898,0.6730258001309126,0.7396189335299043
2025/05/06 15:48:35.332661253,1746539315,332191864,,-0.0003099937019648914,-0.00027135535092886527,0.6730344533570172,0.739611015916204
2025/05/06 15:48:35.428464471,1746539315,427215709,,-0.0003635592619085467,-0.0003175812627555075,0.6730430831030697,0.7396031200947702
2025/05/06 15:48:35.533595934,1746539315,528254840,,-0.00039334757022346155,-0.00034386449825703506,0.6730517171947034,0.7395952359339242
2025/05/06 15:48:35.622715744,1746539315,621569735,,-0.000398892680256559,-0.0003485734197710425,0.6730572007269238,0.7395902405594857
2025/05/06 15:48:35.722796023,1746539315,720593035,,-0.0003791857084620138,-0.0003329989447116352,0.6730656937585453,0.7395825290089196
2025/05/06 15:48:35.828256940,1746539315,827500067,,-0.0003434921580742903,-0.00030263746129890394,0.6730706026497179,0.739578092071723
2025/05/06 15:48:35.929112192,1746539315,926361172,,-0.00030433867933123674,-0.0002683231911053039,0.6730721303089091,0.7395767321800087
2025/05/06 15:48:36.37864338,1746539316,22172823,,-0.00027826026101417296,-0.0002465190484137748,0.6730738287889297,0.7395752042889191
2025/05/06 15:48:36.129045113,1746539316,122678542,,-0.0002685304439353781,-0.00024058526282794116,0.6730779077085053,0.7395714976693416
2025/05/06 15:48:36.227523963,1746539316,223616059,,-0.000269636794211134,-0.00024485633210622593,0.6730827492622649,0.7395670895780362
2025/05/06 15:48:36.327462556,1746539316,324799251,,-0.0002823875594198516,-0.0002584901034342825,0.6730860499899611,0.7395640761617917
2025/05/06 15:48:36.424710057,1746539316,418226173,,-0.00030828097756176485,-0.0002841652616681387,0.6730924300627251,0.7395582497715772
2025/05/06 15:48:36.528913000,1746539316,528308832,,-0.0003357013417941927,-0.00031022174541627337,0.6730969276841084,0.7395541339275252
2025/05/06 15:48:36.646105215,1746539316,627377833,,-0.000363948291683006,-0.0003357944692524484,0.6731015260414704,0.7395499242271336
2025/05/06 15:48:36.728816377,1746539316,725959760,,-0.0003860401732725891,-0.00035533740212983963,0.6731091172781115,0.7395429946564276
2025/05/06 15:48:36.847222460,1746539316,818856717,,-0.0003903743644769084,-0.00035801055064411307,0.6731157760080998,0.7395369304675156
2025/05/06 15:48:36.950143790,1746539316,926395016,,-0.0003821867460472845,-0.000348376067134233,0.6731221724990473,0.7395311173017467
2025/05/06 15:48:37.29130801,1746539317,22982848,,-0.000364328991863124,-0.0003296510755164801,0.6731287724128285,0.7395251275951025
2025/05/06 15:48:37.121551806,1746539317,119526802,,-0.00034116167581310414,-0.0003056811677875633,0.6731356578283758,0.7395188816573208
2025/05/06 15:48:37.348598836,1746539317,226026388,,-0.00031479999146309174,-0.00028036707617513874,0.67314493347206,0.7395104602614923
2025/05/06 15:48:37.429013134,1746539317,319609116,,-0.000285179841702762,-0.00025331559844225956,0.6731544202026559,0.7395018465597579
2025/05/06 15:48:37.483650692,1746539317,419662379,,-0.00025245645594951894,-0.0002263585774594167,0.6731679228693154,0.7394895757529946
2025/05/06 15:48:37.545371797,1746539317,522355958,,-0.00021793420824423382,-0.00019971706205383337,0.6731837542045378,0.7394751826078143
2025/05/06 15:48:37.691805025,1746539317,632424160,,-0.0001779898181455764,-0.0001696856888817611,0.6732031527229374,0.7394575408299581
2025/05/06 15:48:37.780208716,1746539317,730861371,,-0.0001402770835748305,-0.00014054386424080042,0.6732221906338974,0.73944022247093
2025/05/06 15:48:37.869442618,1746539317,816245458,,-0.00011521537079283335,-0.0001205884487991353,0.6732406106385908,0.7394234594404088
2025/05/06 15:48:37.988514730,1746539317,928154995,,-0.00010937984000864714,-0.0001153180162082673,0.6732584609919563,0.7394072081340215
2025/05/06 15:48:38.53767157,1746539318,22699512,,-0.0001242455824062014,-0.00012618896290868863,0.6732757779246948,0.7393914359115056
2025/05/06 15:48:38.164546951,1746539318,128735889,,-0.00015661133792620348,-0.00015082783942831974,0.673292593103275,0.7393761132171632
2025/05/06 15:48:38.257285123,1746539318,220301317,,-0.00019931392324458788,-0.000183657210132482,0.6733089449821135,0.7393612047917192
2025/05/06 15:48:38.334550463,1746539318,331755571,,-0.0002429918515205754,-0.0002172247079801847,0.673324639619385,0.7393468897951838
2025/05/06 15:48:38.428318657,1746539318,425580317,,-0.00026457429751510343,-0.00023012978849316023,0.6733284770506831,0.7393433837083614
2025/05/06 15:48:38.534761219,1746539318,526876601,,-0.00027650028241189763,-0.0002346058480398812,0.6733296738117762,0.7393422880318811
2025/05/06 15:48:38.733271761,1746539318,627189373,,-0.00027806307890751897,-0.00023111657372961323,0.6733291998872261,0.7393427201543824
2025/05/06 15:48:38.795769707,1746539318,723409490,,-0.0002701458842314567,-0.00022142877881950766,0.6733271874265637,0.7393445588240508
2025/05/06 15:48:38.848761457,1746539318,832215932,,-0.00026310019326686003,-0.0002145414933205074,0.6733266504099095,0.7393450524606272
2025/05/06 15:48:38.941719681,1746539318,930538804,,-0.00026478615624086983,-0.00021771729961918876,0.6733228177446894,0.7393485413469217
2025/05/06 15:48:39.141973219,1746539319,30377917,,-0.00027583868590641043,-0.00023322670834123038,0.6733165230113157,0.7393542651248278
2025/05/06 15:48:39.207859568,1746539319,122434157,,-0.00029971446972345514,-0.0002647381057954106,0.6733135149380268,0.7393569846067402
2025/05/06 15:48:39.257367359,1746539319,223425766,,-0.0003225791269434881,-0.00029713934494698653,0.673311484350226,0.7393588118721599
2025/05/06 15:48:39.395878955,1746539319,319918764,,-0.00033905682935872564,-0.00032241961568004764,0.6733070653554509,0.7393628181268576
2025/05/06 15:48:39.604409251,1746539319,419267581,,-0.00035198295095491614,-0.0003432149589023242,0.6733052909303237,0.7393644186169135
2025/05/06 15:48:39.680962598,1746539319,525073287,,-0.00034915169657269305,-0.00034625043856272106,0.6733047171064114,0.7393649410987662
2025/05/06 15:48:39.777393882,1746539319,625753085,,-0.0003338985644890472,-0.0003327171289059657,0.6733045638461127,0.7393650939252251
2025/05/06 15:48:39.848842797,1746539319,719695403,,-0.0003125045490561985,-0.00030601337827986045,0.6733035147709665,0.7393660701531969
2025/05/06 15:48:40.33685761,1746539319,820946380,,-0.0002924739838127204,-0.00027161743077907467,0.6733029423111162,0.7393666130940277
2025/05/06 15:48:40.156622414,1746539319,923292205,,-0.0002785282730588546,-0.000236417490819723,0.6733029047183713,0.7393666648061534
2025/05/06 15:48:40.229598996,1746539320,26602896,,-0.000270072591491434,-0.00020311637786115907,0.6733011952041863,0.7393682346038045
2025/05/06 15:48:40.410328167,1746539320,125170469,,-0.00027016664733104425,-0.00017484613352604895,0.6732975312569154,0.739371578329973
2025/05/06 15:48:40.486068529,1746539320,227737013,,-0.0002719398215616688,-0.00015833896027433908,0.6732955996536502,0.739373340379905
2025/05/06 15:48:40.647187136,1746539320,427168522,,-0.00028837540642540494,-0.00014890915339558808,0.673294615401564,0.7393742323999052
2025/05/06 15:48:40.962485198,1746539320,625936640,,-0.00029580586483446923,-0.00017979369289532272,0.6732978213275895,0.7393713031817232
2025/05/06 15:48:41.642651,1746539320,723681241,,-0.0002966486662033531,-0.00018881903056501141,0.6733036265227444,0.7393660141352612
2025/05/06 15:48:41.58977470,1746539320,833037309,,-0.00028264971457724525,-0.00020629787067015385,0.6733118298664714,0.7393585444912308
2025/05/06 15:48:41.139864845,1746539320,928449729,,-0.0002694263018320364,-0.00019364043717424152,0.6733124262685363,0.7393580097254819
2025/05/06 15:48:41.353381801,1746539321,24973954,,-0.00025406755423093075,-0.00018949581457252567,0.6733129545912613,0.739357535107745
2025/05/06 15:48:41.449711294,1746539321,119445638,,-0.00025522946818189824,-0.00018208353454024454,0.6733141222257605,0.7393564732352444
2025/05/06 15:48:41.661116802,1746539321,429071878,,-0.00032157690849695834,-0.00019964829591368879,0.6733254206120854,0.7393461534940236
2025/05/06 15:48:41.906641238,1746539321,524016972,,-0.0003517139070002943,-0.00022384378259804135,0.6733341788412954,0.7393381565937248
2025/05/06 15:48:41.991330097,1746539321,619720127,,-0.0003826232219675588,-0.00024127220813376205,0.6733452055621498,0.7393280932939433
2025/05/06 15:48:42.47248466,1746539321,822535528,,-0.000390291668371495,-0.00022941564546082673,0.6733494582978754,0.739324219845957
2025/05/06 15:48:42.270357522,1746539322,27013830,,-0.0003699493047086192,-0.00022098290846008436,0.6733553801349933,0.7393188394375764
2025/05/06 15:48:42.410407609,1746539322,120167343,,-0.00035785914026477677,-0.00021654718929203532,0.673359138144027,0.7393154239714492
2025/05/06 15:48:42.461544143,1746539322,228326145,,-0.00033692559809602335,-0.00022613948845809058,0.6733633770156159,0.7393115702031172
2025/05/06 15:48:42.606708950,1746539322,424316785,,-0.0003247707606642302,-0.0002400267464937183,0.673374757753999,0.7393012055521465
2025/05/06 15:48:42.827008636,1746539322,533057112,,-0.0003350296067256769,-0.00025172379852052057,0.6733843449877526,0.7392924646685554
2025/05/06 15:48:42.974598094,1746539322,620218176,,-0.0003458764870805291,-0.00027128583374252886,0.6733964532781929,0.7392814237391623
2025/05/06 15:48:43.107971218,1746539322,724543591,,-0.00036064354641175635,-0.0002632546911721166,0.6733995122082462,0.7392786332573775
2025/05/06 15:48:43.125385233,1746539322,824227350,,-0.00037080846773192066,-0.00026853773665650056,0.6734024402844534,0.7392759591705301
2025/05/06 15:48:43.321333113,1746539323,19846049,,-0.0004149689340483595,-0.0002659711573991468,0.6734103420167089,0.7392687389069461
2025/05/06 15:48:43.393494131,1746539323,126676720,,-0.00043390009682196915,-0.0002632848772241847,0.6734143657987054,0.7392650636596503
2025/05/06 15:48:43.635118316,1746539323,217477699,,-0.0004484892274739116,-0.0002602880413959693,0.6734191815261691,0.7392606692230914
2025/05/06 15:48:43.754666252,1746539323,325228162,,-0.000451276697563588,-0.00026065168330573294,0.673424791321658,0.7392555571948201
2025/05/06 15:48:43.888706122,1746539323,527719796,,-0.00042410355969669806,-0.00025020705917508135,0.6734357292627349,0.7392456128276763
2025/05/06 15:48:43.932511648,1746539323,625918940,,-0.00040644525979844807,-0.0002434703741727815,0.6734420860449688,0.7392398340645805
2025/05/06 15:48:44.54472217,1746539323,825292460,,-0.00038184388532586837,-0.0002425322358766994,0.6734604132247122,0.7392231511475826
2025/05/06 15:48:44.107949009,1746539323,916828720,,-0.0003764626894092187,-0.00025477920242939113,0.673473342207167,0.7392113707862654
2025/05/06 15:48:44.171563817,1746539324,25568966,,-0.0003873353521157909,-0.0002617821485628385,0.673488707982384,0.739197363132236
2025/05/06 15:48:44.260666605,1746539324,124206676,,-0.0003969107167450975,-0.00027593009454898623,0.673506457662426,0.7391811806394131
2025/05/06 15:48:44.325339910,1746539324,225231242,,-0.0004185854114240046,-0.00027494529635159714,0.6735264218903034,0.7391629781090112
2025/05/06 15:48:44.399536863,1746539324,317709309,,-0.000416365371870706,-0.00028041378088683217,0.673545148165709,0.7391459134639261
2025/05/06 15:48:44.465461928,1746539324,425968894,,-0.0004197695736410401,-0.0002616981556890879,0.6735639112440089,0.7391288201506239
2025/05/06 15:48:44.553834024,1746539324,526637106,,-0.00041729011592438333,-0.00023564602003160645,0.6735827229641987,0.7391116868674503
2025/05/06 15:48:44.624701921,1746539324,621027225,,-0.00040282910258485093,-0.00021544205190221038,0.6736015032557309,0.7390945853712203
2025/05/06 15:48:44.728066245,1746539324,725981318,,-0.0003848963727500286,-0.00018726927103339058,0.6736204822402044,0.739077304949541
2025/05/06 15:48:44.830500398,1746539324,827045362,,-0.0003741808644936686,-0.0001543901558411141,0.6736377085457995,0.7390616170371216
2025/05/06 15:48:44.923842393,1746539324,920024670,,-0.00036030641097015555,-0.00014289033835736855,0.6736542297575813,0.7390465672008506
2025/05/06 15:48:45.24971280,1746539325,23311008,,-0.00036144551837835484,-0.00013961798087524122,0.673670201915619,0.739032008044933
2025/05/06 15:48:45.124308345,1746539325,119067832,,-0.00037916541842901696,-0.00015000687978043196,0.673685396339861,0.7390181462521241
2025/05/06 15:48:45.227451011,1746539325,224346722,,-0.00039514396550977904,-0.00018803312200137612,0.673699510136287,0.7390052628682142
2025/05/06 15:48:45.331627001,1746539325,323725770,,-0.0004140924473339973,-0.00021636656458430545,0.6737027821108189,0.7390022618971456
2025/05/06 15:48:45.424015018,1746539325,420637475,,-0.0004427015800219072,-0.0002431809904182527,0.6736955990963247,0.7390087852228558
2025/05/06 15:48:45.528365141,1746539325,522777289,,-0.00048466982560586776,-0.0002857742334493654,0.6736882286792855,0.7390154626036011
2025/05/06 15:48:45.626979872,1746539325,623680869,,-0.0005399125716586594,-0.0003308007305744331,0.6736827114333885,0.7390204350226381
2025/05/06 15:48:45.731810121,1746539325,726205262,,-0.0005982984013853456,-0.000366831692566776,0.6736801601696732,0.7390226987497038
2025/05/06 15:48:45.829387467,1746539325,819867726,,-0.0006277708289190479,-0.0003842090497457071,0.6736771258469327,0.7390254314959727
2025/05/06 15:48:45.928102959,1746539325,924033414,,-0.0006258277469051746,-0.00036746845750755384,0.6736742702840893,0.7390280447072111
2025/05/06 15:48:46.28849400,1746539326,27721073,,-0.0005892948265350727,-0.00030885900042787294,0.6736725799440366,0.7390296424158309
2025/05/06 15:48:46.128172919,1746539326,122068753,,-0.000508619831769823,-0.0002219041529676147,0.6736680553503849,0.7390338579962656
2025/05/06 15:48:46.229774069,1746539326,225544654,,-0.0004060235342294241,-0.00012733596204200486,0.673661266702275,0.739040131978994
2025/05/06 15:48:46.331041175,1746539326,328404309,,-0.00034716099707320254,-6.449978919628381e-05,0.6736782899632948,0.7390246524650922
2025/05/06 15:48:46.428583143,1746539326,423340793,,-0.00029001160228313305,-2.741339728578427e-05,0.6737015118206884,0.7390035102164908
2025/05/06 15:48:46.535343740,1746539326,527609790,,-0.0002305196131096771,6.044085671081119e-06,0.6737249470059974,0.7389821666359366
2025/05/06 15:48:46.630237543,1746539326,619916479,,-0.00018559465048695537,3.0569554133215115e-05,0.6737464552376636,0.7389625691973924
2025/05/06 15:48:46.726452248,1746539326,725425623,,-0.00016642988461688542,3.9752734492751235e-05,0.6737661132408167,0.7389446497331018
2025/05/06 15:48:46.830641695,1746539326,826354801,,-0.00017719653054928874,2.1051309402959053e-05,0.6737843048502532,0.7389280605686138
2025/05/06 15:48:46.930020259,1746539326,927789586,,-0.00022593635810876783,-2.198681774879149e-05,0.6738025009595567,0.7389114548915781
2025/05/06 15:48:47.27208935,1746539327,25559417,,-0.0002911184933701331,-8.94643812759212e-05,0.6738160073263426,0.7388991105130209
2025/05/06 15:48:47.129390738,1746539327,124768732,,-0.0003880203059039598,-0.0001581540889610041,0.6738293252242534,0.7388869094085736
2025/05/06 15:48:47.222598479,1746539327,219318714,,-0.0004609566092440494,-0.00018875569154243056,0.6738162344632979,0.738898798255888
2025/05/06 15:48:47.328448518,1746539327,324490595,,-0.0005280613992562014,-0.00023182169762609285,0.6738013047034419,0.7389123555536196
2025/05/06 15:48:47.426845797,1746539327,422890798,,-0.0005967190570357367,-0.00025735760989876674,0.673781757837252,0.7389301188198857
2025/05/06 15:48:47.531613668,1746539327,527388080,,-0.0006458128570080502,-0.0002908569204595092,0.6737631311051282,0.7389470491797226
2025/05/06 15:48:47.643538106,1746539327,624674100,,-0.0006681735614597424,-0.0003038441382297489,0.673736306299892,0.7389714817205124
2025/05/06 15:48:47.730891511,1746539327,726764012,,-0.0006801875016707074,-0.0003057692929452604,0.6737101651126473,0.7389953026061747
2025/05/06 15:48:47.822408803,1746539327,821619853,,-0.0006685020626800459,-0.0003182201896522667,0.673689558453456,0.7390140936894848
2025/05/06 15:48:47.932404559,1746539327,927521489,,-0.0006304681981517106,-0.0003013609767060843,0.6736628204428081,0.7390385078224637
2025/05/06 15:48:48.26966842,1746539328,24889132,,-0.0005682564246097761,-0.0002724364720891428,0.6736230350543454,0.7390748334960249
2025/05/06 15:48:48.124181497,1746539328,121649322,,-0.0005275789971939353,-0.0002546770286472373,0.6735806345170396,0.7391135133412425
2025/05/06 15:48:48.223065500,1746539328,219588369,,-0.0005082573689674666,-0.0002645200629689629,0.6735422060237471,0.7391485428574202
2025/05/06 15:48:48.329004663,1746539328,326256539,,-0.0005092449009481645,-0.0002888524207586124,0.6735043516710781,0.7391830257209852
2025/05/06 15:48:48.424367962,1746539328,423913569,,-0.0005348508082814163,-0.00031757353134610067,0.6734681433999881,0.7392159852891698
2025/05/06 15:48:48.539802420,1746539328,529658193,,-0.0005227211065091608,-0.00031043456021793005,0.6734023047782536,0.7392759743914074
2025/05/06 15:48:48.644749732,1746539328,620469660,,-0.0005281773544674732,-0.00030726214924552776,0.6733349265195356,0.739337340696103
2025/05/06 15:48:48.728442278,1746539328,719803219,,-0.0005533732653488801,-0.00030759727821294894,0.6732684460574597,0.7393978622536835
2025/05/06 15:48:48.831926158,1746539328,820332743,,-0.0005930469765905708,-0.00032085301420069565,0.6732121233119351,0.739449107359298
2025/05/06 15:48:48.922867108,1746539328,918396191,,-0.0006089693448673635,-0.0003204478154861144,0.673160108324552,0.7394964469353535
2025/05/06 15:48:49.25935491,1746539329,24673297,,-0.0006012722473136223,-0.0002948430602352524,0.6731091808126842,0.739542819750778
2025/05/06 15:48:49.130462002,1746539329,126544303,,-0.0005667796914685503,-0.00025067745667005066,0.6730618663618734,0.7395859246707348
2025/05/06 15:48:49.232053857,1746539329,230526788,,-0.0004901465718428395,-0.00018417634763935256,0.6730176821741183,0.7396262064829698
2025/05/06 15:48:49.331348633,1746539329,328311645,,-0.00039638807878315476,-0.0001024384516936652,0.6729742046138885,0.739665838272364
2025/05/06 15:48:49.433252409,1746539329,426460318,,-0.0002992814227821672,-1.850908330100081e-05,0.672933105915004,0.7397032817634581
2025/05/06 15:48:49.540639147,1746539329,535512509,,-0.00021076520184160793,4.34527679006619e-05,0.6728925178571931,0.7397402335291043
2025/05/06 15:48:49.626793603,1746539329,619175891,,-0.00016515235913400396,8.725284899264039e-05,0.6728599623270569,0.7397698535415391
2025/05/06 15:48:49.728230622,1746539329,724665772,,-0.0001380578332439077,8.834433525663412e-05,0.6728320845533857,0.7397952143200568
2025/05/06 15:48:49.824690345,1746539329,819310885,,-0.00015259807597422126,6.858806031605379e-05,0.6728072210497555,0.7398178257603764
2025/05/06 15:48:49.931368690,1746539329,925390960,,-0.00020410665332555215,3.37942956849688e-05,0.6727811015742619,0.7398415685556892
2025/05/06 15:48:50.20985931,1746539330,17982507,,-0.0002700984008716383,-2.1521243827668745e-05,0.6727534516236325,0.7398666906356702
2025/05/06 15:48:50.126943919,1746539330,125389672,,-0.0003245031032931079,-8.87556632711313e-05,0.6727238409061166,0.7398935874142241
2025/05/06 15:48:50.225401419,1746539330,220784269,,-0.00037469089996561695,-0.00012940814130997437,0.6726925435962167,0.7399220125461294
2025/05/06 15:48:50.325650070,1746539330,319596893,,-0.00038098697246413004,-0.00015327914410792262,0.6726639628315311,0.7399479876736009
2025/05/06 15:48:50.425115302,1746539330,423090516,,-0.0003655090332725412,-0.0001320464135505643,0.6726347258233079,0.739974576984571
2025/05/06 15:48:50.531189938,1746539330,528201482,,-0.0003049102564535915,-9.286074159853184e-05,0.67260096262131,0.7400052996347427
2025/05/06 15:48:50.632257577,1746539330,627168278,,-0.00023628387216802487,-2.0245780989952404e-05,0.6725711099168014,0.7400324627104693
2025/05/06 15:48:50.731233004,1746539330,729054457,,-0.00014519434957186139,5.556209943565094e-05,0.6725417139111151,0.7400591995786242
2025/05/06 15:48:50.828547961,1746539330,825845578,,-6.889523957687575e-05,0.00014828581834402723,0.6725017151412019,0.7400955454513314
2025/05/06 15:48:50.927565886,1746539330,923713758,,-2.8020294811796184e-05,0.00019655622765131294,0.6724603537791206,0.740133118550827
2025/05/06 15:48:51.27102433,1746539331,21031214,,-4.500332236029524e-05,0.00019393643559728393,0.6724191059074143,0.7401705927514505
2025/05/06 15:48:51.128881034,1746539331,127362268,,-0.00010807117961234936,0.0001383114260998597,0.6723723374388617,0.7402130835357958
2025/05/06 15:48:51.226932547,1746539331,224344186,,-0.00021653387339947366,3.672078777093609e-05,0.6723252470936915,0.7402558435332154
2025/05/06 15:48:51.322952743,1746539331,318927268,,-0.0003531086045382961,-7.91561499345314e-05,0.6722787135628429,0.7402980483149382
2025/05/06 15:48:51.429637248,1746539331,426244038,,-0.00047422568240958933,-0.00019152853559839606,0.6722318573487022,0.7403405084097022
2025/05/06 15:48:51.532090703,1746539331,524316744,,-0.0005604912818725202,-0.00027137880386114515,0.6721852779322216,0.7403827147727381
2025/05/06 15:48:51.628262172,1746539331,624595113,,-0.0005918564985128023,-0.0003058134932071349,0.6721397033095405,0.7404240510808353
2025/05/06 15:48:51.731124008,1746539331,724574072,,-0.0005630071493791698,-0.00029230403374036273,0.672095635986145,0.7404640799320931
2025/05/06 15:48:51.830759580,1746539331,823313243,,-0.0004544712041026285,-0.00020851947421188284,0.672025162403909,0.7405281433352505
2025/05/06 15:48:51.924689161,1746539331,921862191,,-0.000344633511581106,-0.00011011489355413233,0.6719534011660467,0.7405933403453172
2025/05/06 15:48:52.29809685,1746539332,26409808,,-0.00023523099068563271,-4.223168901442938e-05,0.6718759443043502,0.7406636607448778
2025/05/06 15:48:52.128882173,1746539332,127508229,,-0.00018773755262212202,-1.1323196811467676e-05,0.6717981863958925,0.7407342042741014
2025/05/06 15:48:52.227354592,1746539332,225827043,,-0.0002097423202675403,-3.831443729928289e-05,0.67172354280366,0.7408018875404291
2025/05/06 15:48:52.331293016,1746539332,325340981,,-0.00022791664042293811,-5.676187389405957e-05,0.6716022056895414,0.740911885547153
2025/05/06 15:48:52.420948312,1746539332,415949605,,-0.0002921396002561343,-0.00011559087231685492,0.6714643738825188,0.7410367709498371
2025/05/06 15:48:52.531166995,1746539332,522385806,,-0.00040758217108487974,-0.00022077553384283649,0.6713259039386327,0.7411621386956536
2025/05/06 15:48:52.632701508,1746539332,624372482,,-0.0005486775333242861,-0.00034069058917260403,0.6711866729626151,0.7412880903672084
2025/05/06 15:48:52.728459447,1746539332,725109220,,-0.0006745333666271054,-0.00044833060260691265,0.671051889790233,0.7414099441020231
2025/05/06 15:48:52.818995206,1746539332,817963682,,-0.0007553371747843154,-0.0005104083767851394,0.6709184651610269,0.7415305671750918
2025/05/06 15:48:52.929609164,1746539332,923535700,,-0.0007690491636237448,-0.0004994971293711526,0.6707822955863075,0.7416537406323556
2025/05/06 15:48:53.50995339,1746539333,24453109,,-0.0006932156441184856,-0.0004416958144763109,0.6706445711087584,0.7417783925130387
2025/05/06 15:48:53.121266144,1746539333,120326496,,-0.0005656685876475583,-0.000324286617168552,0.6705029096227801,0.741906613425588
2025/05/06 15:48:53.224321802,1746539333,220843400,,-0.0004110765375561377,-0.00018642039682477618,0.6703591591900098,0.7420366527022632
2025/05/06 15:48:53.326209359,1746539333,322456663,,-0.000268790011298081,-5.680140474091633e-05,0.6702134821483346,0.7421683184238831
2025/05/06 15:48:53.425843456,1746539333,420345526,,-0.0001517367921941213,2.3510813091268604e-05,0.6700650045643872,0.7423024087804885
2025/05/06 15:48:53.522940374,1746539333,521501640,,-0.00011301267854404003,5.702913735932738e-05,0.6699148193352759,0.7424379562029387
2025/05/06 15:48:53.623232666,1746539333,618626069,,-0.00013327341173275626,1.5310936741148914e-05,0.6697607290403994,0.7425769642528952
2025/05/06 15:48:53.725114934,1746539333,723888220,,-0.00022522972036763888,-6.824272068566627e-05,0.6696037177463926,0.7427185239340093
2025/05/06 15:48:53.825817546,1746539333,821063618,,-0.0003484223154354378,-0.00018913471550590968,0.6694437655767358,0.7428626303431812
2025/05/06 15:48:53.921260851,1746539333,917967061,,-0.0004899753249811631,-0.0003004284596703312,0.6692808776966037,0.7430092707474014
2025/05/06 15:48:54.23351814,1746539334,20636761,,-0.0005882125448733116,-0.0004027189633244976,0.6691129503750315,0.7431603807145933
2025/05/06 15:48:54.146534218,1746539334,128448413,,-0.000650416871716284,-0.0004435425909804563,0.6689413226094769,0.7433147967942968
2025/05/06 15:48:54.226099769,1746539334,224549987,,-0.0006462094739967741,-0.00042838978741431316,0.6687714973164778,0.7434676074131154
2025/05/06 15:48:54.319637053,1746539334,315556463,,-0.0005775599375632224,-0.0003609100724767044,0.6686018598266088,0.7436202587375077
2025/05/06 15:48:54.424981188,1746539334,422351502,,-0.00046529034964515624,-0.00025097658621506497,0.6684308569153345,0.7437740987955115
2025/05/06 15:48:54.519468213,1746539334,518698651,,-0.0003331764891051254,-0.0001223423410632004,0.6682579538950657,0.7439295538434798
2025/05/06 15:48:54.622175858,1746539334,620293221,,-0.00019805223079199927,-4.0088628078035456e-06,0.6680763511190421,0.7440927024468856
2025/05/06 15:48:54.728202903,1746539334,724347201,,-0.0001051703678453963,7.633385025892234e-05,0.6678917702339767,0.7442584002657021
2025/05/06 15:48:54.821711828,1746539334,819641949,,-5.2790836020209455e-05,9.649572386191231e-05,0.6677095964816919,0.7444218445666133
2025/05/06 15:48:54.929588971,1746539334,921010347,,-7.448327615387117e-05,7.95115934227858e-05,0.6675274031191201,0.744585222936362
2025/05/06 15:48:55.33701353,1746539335,26681639,,-0.00013939621598910024,3.025064675683682e-06,0.6673448876918581,0.7447488042495171
2025/05/06 15:48:55.126553513,1746539335,123728218,,-0.00023586458422218757,-0.0001091580435544939,0.6671620053693811,0.7449126063129322
2025/05/06 15:48:55.221553658,1746539335,219861614,,-0.000361084566247662,-0.00021029896758529556,0.6669785660516423,0.7450767865260435
2025/05/06 15:48:55.325441953,1746539335,324290823,,-0.0004574633085749086,-0.00030220707610937637,0.6667911805835921,0.7452444034638194
2025/05/06 15:48:55.421671009,1746539335,419563568,,-0.0004927551590163296,-0.0003574694561506499,0.666592161438692,0.7454223767210332
2025/05/06 15:48:55.520396315,1746539335,518979298,,-0.00050867435164537,-0.000349020958843836,0.6663897308709456,0.7456033436248277
2025/05/06 15:48:55.623491714,1746539335,619825781,,-0.00048363017215245313,-0.00030860198514289834,0.6661860224678254,0.7457853942892483
2025/05/06 15:48:55.729734272,1746539335,725317601,,-0.00042670538431396714,-0.0002545201723514636,0.6659835685245397,0.7459662456152535
2025/05/06 15:48:55.829449683,1746539335,823613979,,-0.00036825011378912757,-0.00018453676965062883,0.6657832879083383,0.746145055522046
2025/05/06 15:48:55.927516552,1746539335,924040069,,-0.0003148529818178706,-0.00012332507059757022,0.6655853295497886,0.7463216831545404
2025/05/06 15:48:56.20144409,1746539336,19113623,,-0.0002724131690693683,-9.125088625160152e-05,0.6653896549376974,0.7464961651383302
2025/05/06 15:48:56.127026971,1746539336,123595147,,-0.00026487635979794924,-7.708861552468559e-05,0.6651960168835432,0.7466687237457641
2025/05/06 15:48:56.228223367,1746539336,227606637,,-0.00027753163098125967,-9.793371955929762e-05,0.6650042737297447,0.7468394936707319
2025/05/06 15:48:56.316361132,1746539336,315995862,,-0.00030723363408061366,-0.00014177327452540153,0.6648124513844466,0.7470102341949779
2025/05/06 15:48:56.419165547,1746539336,418221377,,-0.00035678635860945945,-0.0001776245838861468,0.6646150443330577,0.7471858430130816
2025/05/06 15:48:56.519215909,1746539336,517565529,,-0.0004009880170404357,-0.00023296765595884943,0.6644160679464992,0.7473627456524673
2025/05/06 15:48:56.624147601,1746539336,619219309,,-0.000479696984928341,-0.0003054096636891835,0.6642460554560439,0.7475137820982475
2025/05/06 15:48:56.724767464,1746539336,721528340,,-0.0005202576987504004,-0.00036062596355067436,0.6640836673767521,0.7476579980206757
2025/05/06 15:48:56.826429555,1746539336,824558012,,-0.0005287490720610249,-0.00036458433273808095,0.6639265786421468,0.7477974897492078
2025/05/06 15:48:56.922176316,1746539336,920033765,,-0.0004952210608010994,-0.00032888634871262786,0.6637753523296968,0.7479317670947381
2025/05/06 15:48:57.28875175,1746539337,24843640,,-0.0004269199814285061,-0.0002607275080971177,0.6636285518446401,0.7480620929689472
2025/05/06 15:48:57.120092847,1746539337,117719086,,-0.0003565322723689547,-0.00016109014874632642,0.6634874644344485,0.7481872970540527
2025/05/06 15:48:57.226416482,1746539337,221185285,,-0.00027725024929485656,-7.148133566044356e-05,0.663356247067888,0.7483036866798968
2025/05/06 15:48:57.324765125,1746539337,321088596,,-0.0002157575835241491,-1.0731384356741661e-06,0.6632326823790354,0.7484132297546744
2025/05/06 15:48:57.425679508,1746539337,424712470,,-0.0001992593225128254,5.078690352668175e-05,0.6631163058060212,0.7485163476441835
2025/05/06 15:48:57.521095974,1746539337,519720378,,-0.00020786592132982968,4.550192025027342e-05,0.6630070455637624,0.7486131258895646
2025/05/06 15:48:57.637156834,1746539337,630344798,,-0.00025536639005375235,1.5546433877245912e-05,0.6628974263703572,0.7487101820182975
2025/05/06 15:48:57.732455964,1746539337,726894274,,-0.00031060349827380834,-6.0663517725137045e-05,0.6627946304099528,0.7488011603524254
2025/05/06 15:48:57.822807662,1746539337,820598327,,-0.00037876270188306154,-0.0001382352085500045,0.662696926583416,0.7488875889789719
2025/05/06 15:48:57.922030686,1746539337,920955777,,-0.00043135248645524645,-0.0002092023728825473,0.6626029989416831,0.7489706509355941
2025/05/06 15:48:58.29666007,1746539338,19474762,,-0.0004672838675707956,-0.0002583001850955261,0.6625216834467933,0.7490425447794195
2025/05/06 15:48:58.123887999,1746539338,118435966,,-0.0004428898563268654,-0.0002692315543197993,0.6624473426886583,0.7491083029360178
2025/05/06 15:48:58.270982968,1746539338,219878002,,-0.0003827760890421266,-0.0002189646960615428,0.6623786014698232,0.7491691356775242
2025/05/06 15:48:58.338073128,1746539338,325160530,,-0.00028259000584133527,-0.00014329208168744752,0.6623153636285367,0.7492251055002542
2025/05/06 15:48:58.419790066,1746539338,418925271,,-0.00019726736801306348,-2.9331035342341257e-05,0.6622576095463105,0.749276196621301
2025/05/06 15:48:58.525394686,1746539338,523567575,,-0.00011569768852749718,5.9386003038270824e-05,0.6622052693395674,0.7493224701997523
2025/05/06 15:48:58.627813394,1746539338,623987432,,-6.748629457933503e-05,0.00011227221617173198,0.6621583556163917,0.7493639268926319
2025/05/06 15:48:58.725359303,1746539338,723428208,,-8.518869506056634e-05,0.00013538743299692786,0.6621178291318646,0.7493997296228737
2025/05/06 15:48:58.829503273,1746539338,822997492,,-0.00015199843822982683,9.778096677719831e-05,0.6620854652934166,0.7494283181082481
2025/05/06 15:48:58.922877607,1746539338,921411684,,-0.00022359872343852855,2.9868386716520568e-05,0.6620358221434205,0.7494721604638666
2025/05/06 15:48:59.27183437,1746539339,25781763,,-0.0003539035508528566,-6.417524541729407e-05,0.6619879745909755,0.7495143708633961
2025/05/06 15:48:59.123746892,1746539339,119707365,,-0.0004976993320077054,-0.00020124784637707896,0.6619464918335151,0.7495509013696012
2025/05/06 15:48:59.233679752,1746539339,225534847,,-0.0006177462039744012,-0.00035382281217151537,0.6619122955812986,0.7495809537050289
2025/05/06 15:48:59.329836398,1746539339,321482235,,-0.0007167556635690142,-0.00045045980862781743,0.6618808782251714,0.7496085554388741
2025/05/06 15:48:59.430104149,1746539339,423192485,,-0.0007645805811314485,-0.0005140068092151719,0.6618523786855743,0.749633630543469
2025/05/06 15:48:59.524213489,1746539339,523785980,,-0.0007482678347786516,-0.0005411847080594713,0.6618286284094649,0.7496545963522172
2025/05/06 15:48:59.628366507,1746539339,625660667,,-0.0007285042694354223,-0.0005257999682133082,0.6618412898355517,0.7496434485038446
2025/05/06 15:48:59.731339508,1746539339,724319239,,-0.0006449541073414237,-0.0004580751759057129,0.6618676584598574,0.7496202884702349
2025/05/06 15:48:59.826911900,1746539339,819838561,,-0.0004966860748579258,-0.00034856998827407425,0.6618978856543108,0.7495937704972335
2025/05/06 15:48:59.933246022,1746539339,925363223,,-0.00034847747982097053,-0.00018976081800838656,0.6619318714964428,0.7495638999121388
2025/05/06 15:49:00.28662712,1746539340,25948180,,-0.0002029103210992064,-5.056466680235959e-05,0.6619692479351748,0.7495309673781032
2025/05/06 15:49:00.127849332,1746539340,122716139,,-0.0001265550330377815,2.1792223759519594e-05,0.6620365332023084,0.7494715553070653
2025/05/06 15:49:00.233445681,1746539340,227588524,,-9.794497513065856e-05,5.108482481006762e-05,0.6621116566883475,0.7494051920520264
2025/05/06 15:49:00.345296709,1746539340,321305523,,-0.00012574497687226676,3.6947511077988466e-05,0.6621932781241866,0.7493330669536918
2025/05/06 15:49:00.423936624,1746539340,421671915,,-0.00019471955408063081,-2.2773086956984846e-05,0.6622807852953023,0.7492557126871435
2025/05/06 15:49:00.530693877,1746539340,525053624,,-0.00029696554279561607,-0.0001050834009294731,0.6623750178364859,0.7491723676932167
2025/05/06 15:49:00.619834051,1746539340,617973936,,-0.0003959988775540379,-0.00020224774389130992,0.6624750927721673,0.7490838095548773
2025/05/06 15:49:00.723303907,1746539340,720097741,,-0.0004838138248610823,-0.00029038060684540836,0.6625802633675062,0.7489907050151773
2025/05/06 15:49:00.825408269,1746539340,822240015,,-0.0005422876663301402,-0.0003672025125952591,0.6626923552580793,0.7488914563332267
2025/05/06 15:49:00.929643227,1746539340,927959960,,-0.0005577252385709806,-0.0004190283018168878,0.6628058110738694,0.7487910056648321
2025/05/06 15:49:01.25514933,1746539341,23271359,,-0.0005258555122095758,-0.00043541742945747475,0.6629256528801063,0.7486849221409011
2025/05/06 15:49:01.133161714,1746539341,125312204,,-0.0004505570928426131,-0.0004145993595762436,0.6630521140540467,0.748572988528264
2025/05/06 15:49:01.223945537,1746539341,221235726,,-0.00035042874531270344,-0.00036125503832998886,0.6631843146162538,0.7484559516374103
2025/05/06 15:49:01.328601634,1746539341,324493786,,-0.0002431836542897916,-0.00028992090523829376,0.6633202149785996,0.7483355859561427
2025/05/06 15:49:01.419810059,1746539341,418900338,,-0.000109550455764838,-0.00017093872299783723,0.6634204347426294,0.7482468079080267
2025/05/06 15:49:01.524176730,1746539341,520352670,,-3.5830083065148964e-05,-8.35157121099836e-05,0.6635227873008449,0.7481560682597239
2025/05/06 15:49:01.623605066,1746539341,622593191,,-4.4849744226272714e-05,-4.598079783181851e-05,0.6636233744224098,0.7480668504849555
2025/05/06 15:49:01.726417242,1746539341,723908848,,-0.000136288205987953,-7.310541491403774e-05,0.6637257024480889,0.7479760477387724
2025/05/06 15:49:01.820553624,1746539341,817289460,,-0.0002955572079260047,-0.0001609327175591994,0.6638339146761068,0.7478799505752195
2025/05/06 15:49:01.925544084,1746539341,923729048,,-0.000468938213423226,-0.0002825954538677283,0.6639423253858332,0.7477835841993418
2025/05/06 15:49:02.25078565,1746539342,21834145,,-0.0006142212961651232,-0.00040636175061474066,0.6640497207400075,0.7476880539285385
2025/05/06 15:49:02.130205024,1746539342,124653944,,-0.0006966838194664726,-0.000503283402805161,0.6641554773094926,0.7475939829193867
2025/05/06 15:49:02.228255415,1746539342,224427422,,-0.0007023974428996409,-0.0005483254459868184,0.6642600096669067,0.7475010672463007
2025/05/06 15:49:02.325651287,1746539342,324540253,,-0.0006279178060989018,-0.0005386620310958919,0.6643638879317887,0.7474088171640757
2025/05/06 15:49:02.419474677,1746539342,418483964,,-0.0004883260065454927,-0.0004745305339480676,0.6644641619306277,0.747319820336857
2025/05/06 15:49:02.522769167,1746539342,521017035,,-0.0003185583455396698,-0.0003727504978162724,0.6645624324562274,0.7472325828987312
2025/05/06 15:49:02.626352098,1746539342,622745643,,-0.00015849920564713925,-0.00025561352077006636,0.6646586740067049,0.7471470782967559
2025/05/06 15:49:02.726170362,1746539342,725523970,,-3.180356787198972e-05,-0.00016184622441212923,0.6647515225380929,0.7470645126611357
2025/05/06 15:49:02.824203303,1746539342,822090011,,8.793868049392319e-06,-0.00011857743243579788,0.6648490310029966,0.7469777452082739
2025/05/06 15:49:02.931501365,1746539342,926160675,,-1.2755089739906352e-05,-0.00012832102600576607,0.6649465521563419,0.7468909332335045
2025/05/06 15:49:03.19357213,1746539343,18401101,,-0.00010086725242332159,-0.0001700855645601374,0.6650403406513554,0.74680740904401
2025/05/06 15:49:03.125473241,1746539343,124920695,,-0.00021661356773372805,-0.0002472995379072312,0.6651317667902797,0.7467259368255141
2025/05/06 15:49:03.219836488,1746539343,218122947,,-0.0003559754450023152,-0.0003215527269864477,0.6652160150216365,0.7466508040871985
2025/05/06 15:49:03.322936290,1746539343,320270813,,-0.0004792658856057531,-0.00039036533390921126,0.6652959316144421,0.7465794942913907
2025/05/06 15:49:03.433388519,1746539343,426747514,,-0.000568648159386986,-0.00042418824269898134,0.665376308476508,0.7465077794784061
2025/05/06 15:49:03.523004788,1746539343,518838498,,-0.0005783831435081622,-0.00043962369780988257,0.6654560651546768,0.7464366668062322
2025/05/06 15:49:03.621879669,1746539343,620146671,,-0.0005422010460418915,-0.0003936317391937044,0.6655271101525367,0.7463733762160148
2025/05/06 15:49:03.728888979,1746539343,727248133,,-0.0004464072808083691,-0.00032408897044966615,0.6655914760705336,0.7463160742400817
2025/05/06 15:49:03.824877398,1746539343,818273807,,-0.00031278740257036585,-0.0002707860166074809,0.66565544561477,0.7462591081939142
2025/05/06 15:49:03.921358641,1746539343,919228811,,-0.0001900835961365628,-0.000194859489851516,0.66571056324606,0.7462100052134247
2025/05/06 15:49:04.27779118,1746539344,26644340,,-6.713993241723391e-05,-0.00013843108417795172,0.66575819180982,0.7461675457745288
2025/05/06 15:49:04.125665542,1746539344,123819114,,3.0214818990472512e-05,-0.00010501962674142486,0.6657889451629971,0.7461401132204905
2025/05/06 15:49:04.219735964,1746539344,217082778,,4.675348753293215e-05,-9.9506090392267e-05,0.6658122320094088,0.7461193333638384
2025/05/06 15:49:04.326879030,1746539344,324482173,,-4.660474112196081e-07,-0.0001426503305412936,0.6658279988258311,0.7461052577419992
2025/05/06 15:49:04.421231465,1746539344,416109655,,-0.00012139248477494373,-0.00020418506825317168,0.6658378423753761,0.7460964490152908
2025/05/06 15:49:04.526556657,1746539344,521797777,,-0.00030479700109208914,-0.0003173083245947896,0.6658683249222628,0.74606915247813
2025/05/06 15:49:04.624885956,1746539344,623649953,,-0.00047102823591739593,-0.0004031546589194282,0.6658900653928728,0.7460496206083062
2025/05/06 15:49:04.722620218,1746539344,719818739,,-0.000649753025523743,-0.0005214363841782687,0.665961058076759,0.7459860421283945
2025/05/06 15:49:04.819178033,1746539344,817678680,,-0.0007382866090716023,-0.0005826637913109558,0.6660494323165544,0.7459070110587409
2025/05/06 15:49:04.923374532,1746539344,922192372,,-0.0006826756872929493,-0.0005385694600017601,0.6661337629678162,0.7458317864848482
2025/05/06 15:49:05.29167825,1746539345,27185543,,-0.0004924954733397483,-0.0003966564742993704,0.66621004673439,0.7457638860537643
2025/05/06 15:49:05.126339195,1746539345,122204089,,-0.00020859986457247084,-0.00019787557520068537,0.6662776143297044,0.7457037333783914
2025/05/06 15:49:05.224193676,1746539345,223375075,,9.44842866854687e-05,1.7067667405204305e-05,0.6663359974851718,0.7456516138498296
2025/05/06 15:49:05.320392748,1746539345,318873238,,0.0003463349652067246,0.0001936694137396533,0.6663851644795681,0.7456075744691635
2025/05/06 15:49:05.427341961,1746539345,425339795,,0.0005170349119004098,0.0003118947267897609,0.666405628401356,0.7455891454625485
2025/05/06 15:49:05.521081898,1746539345,519380966,,0.0005235925848298652,0.0003180556162270071,0.6664234773015486,0.745573184598764
2025/05/06 15:49:05.618496520,1746539345,616428144,,0.00037768056965775535,0.000217023374255793,0.6664363359175985,0.7455618152956657
2025/05/06 15:49:05.724707660,1746539345,722291663,,0.00011235122939838064,3.0729397929683084e-05,0.6664412984884169,0.7455574975157705
2025/05/06 15:49:05.829254228,1746539345,826141988,,-0.00020826036169553354,-0.00018659832612037957,0.6664297245327172,0.7455677997794252
2025/05/06 15:49:05.924880576,1746539345,924554877,,-0.0005192210267337762,-0.00039424128830241426,0.6664067023334466,0.7455881450696444
2025/05/06 15:49:06.27952770,1746539346,18215934,,-0.0007467570622226036,-0.0005472903622583715,0.6663732294306897,0.7456177720020244
2025/05/06 15:49:06.127648074,1746539346,125996907,,-0.0008475373061498725,-0.0006048144523233129,0.6663303659151254,0.7456559255711767
2025/05/06 15:49:06.225595153,1746539346,224289186,,-0.0007993465447948346,-0.0005574201422040198,0.6662839641233006,0.745697478525995
2025/05/06 15:49:06.316922821,1746539346,316180348,,-0.0006143787228453619,-0.000422222525714652,0.6662290156731779,0.7457468356902845
2025/05/06 15:49:06.424285010,1746539346,418355181,,-0.0003420385033264888,-0.0002354149537769493,0.666168825849089,0.7458008601874283
2025/05/06 15:49:06.528841251,1746539346,525373881,,-4.730373423645436e-05,-4.587955058724521e-05,0.6661014065670184,0.7458611880416244
2025/05/06 15:49:06.619526337,1746539346,618999238,,0.00019814118359642258,9.374482473430522e-05,0.6660253126977144,0.7459291084264583
2025/05/06 15:49:06.731532351,1746539346,722796194,,0.00033954672601391856,0.00013729529711007575,0.6659360297277706,0.7460087601150781
2025/05/06 15:49:06.824811221,1746539346,820584825,,0.0003299226874717232,8.374988405565332e-05,0.6658373856948077,0.7460968167390082
2025/05/06 15:49:06.926719061,1746539346,925472865,,0.00020120087853927858,-7.890867103533029e-05,0.665729104557102,0.7461934820388257
2025/05/06 15:49:07.28576573,1746539347,24512736,,-4.215094267126153e-05,-0.000271448499865349,0.6656087471081623,0.7463008242740407
2025/05/06 15:49:07.122473370,1746539347,119434291,,-0.0003155794609641658,-0.0004819348393874927,0.6654790880161715,0.7464162723049245
2025/05/06 15:49:07.222408741,1746539347,219195535,,-0.0005740004079563526,-0.0006412260712251362,0.6653406344247879,0.7465394159291779
2025/05/06 15:49:07.323123266,1746539347,321895981,,-0.0007542496664522024,-0.0007035243340862951,0.6651957556528368,0.7466682950429886
2025/05/06 15:49:07.423417657,1746539347,416443454,,-0.0008120273042234989,-0.0006779796784913543,0.6650437651868236,0.7468036364007247
2025/05/06 15:49:07.531384983,1746539347,530902772,,-0.0007577806926435662,-0.0005413092255598432,0.6648879182510061,0.746942560654156
2025/05/06 15:49:07.621095165,1746539347,619424765,,-0.0005829478838786358,-0.00035861817267513716,0.6647234271555319,0.7470892161953452
2025/05/06 15:49:07.726789089,1746539347,723130040,,-0.0003582878308149934,-0.0001605215441542155,0.6645496029241185,0.7472440505725427
2025/05/06 15:49:07.827378028,1746539347,823909906,,-0.0001248090677785278,-1.3171068471457462e-05,0.664366246497225,0.7474071679910543
2025/05/06 15:49:07.929513405,1746539347,924752622,,4.945132330457744e-05,6.742666982693216e-05,0.6641709739135123,0.747580704953644
2025/05/06 15:49:08.17225042,1746539348,16614214,,0.00013951437841036652,1.7620706232025345e-05,0.663973318301312,0.7477562522702124
2025/05/06 15:49:08.123511703,1746539348,121597255,,0.00013379768433673732,-8.672032020267328e-05,0.6637501161778605,0.7479543821996383
2025/05/06 15:49:08.224531565,1746539348,221643554,,3.9470818125769455e-05,-0.00026397889321048046,0.663516116255254,0.7481619425142814
2025/05/06 15:49:08.330757434,1746539348,327657225,,-0.000124036372270269,-0.00046464618586518385,0.6632721596392382,0.7483781203151262
2025/05/06 15:49:08.420865307,1746539348,418464552,,-0.0003254060231614834,-0.0006335305204271184,0.6630208529546496,0.748600588630071
2025/05/06 15:49:08.522644615,1746539348,518885386,,-0.0004950933421172478,-0.0007464076181561788,0.6627584764320555,0.7488326913775271
2025/05/06 15:49:08.625443737,1746539348,622630051,,-0.0006191343693965284,-0.0007586263677530846,0.6624876163396562,0.7490722257267768
2025/05/06 15:49:08.718102071,1746539348,716526196,,-0.0006535048495167112,-0.000688763565644127,0.6622089203265558,0.7493186534286329
2025/05/06 15:49:08.826676912,1746539348,824848740,,-0.0006101301209098667,-0.0005279666391098889,0.661922254858637,0.7495720629234531
2025/05/06 15:49:08.924924721,1746539348,921292063,,-0.00048005063326607064,-0.00033479230735263156,0.6616282070675934,0.7498318298645519
2025/05/06 15:49:09.22563044,1746539349,20728484,,-0.0004003371559635969,-0.00021547906770964703,0.6613940082715407,0.7500385050925307
2025/05/06 15:49:09.126676401,1746539349,122856846,,-0.000276475933963157,-0.0001062694260930782,0.6611592957663424,0.7502454917489482
2025/05/06 15:49:09.221202040,1746539349,219271189,,-0.000123628403068565,-1.9515124949952107e-05,0.6609136181931341,0.7504619734683684
2025/05/06 15:49:09.325310315,1746539349,324224407,,2.8170144495315486e-05,2.6583142104089295e-05,0.6606540471379148,0.7506905011388338
2025/05/06 15:49:09.425340903,1746539349,423891892,,0.00014369188131607786,3.0399526708508654e-05,0.6603844049324767,0.7509277036775848
2025/05/06 15:49:09.527641428,1746539349,525496310,,0.00020225152703936254,-2.0742269097735084e-05,0.6601008236194071,0.7511769840197838
2025/05/06 15:49:09.626137793,1746539349,620085557,,0.00018949778750708301,-0.00012197006602269413,0.6598057901579825,0.7514361373316377
2025/05/06 15:49:09.722027986,1746539349,720303168,,0.00011095673986908824,-0.000249961567125792,0.659499971205623,0.7517045384907552
2025/05/06 15:49:09.829156379,1746539349,826724010,,-1.2277290291639081e-05,-0.0003749768396745856,0.6591836247775708,0.7519819200397977
2025/05/06 15:49:09.926706171,1746539349,917766976,,-0.00015171981915842626,-0.0004606370080954559,0.658856637772995,0.7522683667795077
2025/05/06 15:49:10.21899442,1746539350,20099275,,-0.0002775146504451772,-0.0005004740269291314,0.6585292697816832,0.7525548972348597
2025/05/06 15:49:10.127557540,1746539350,121808040,,-0.0003347859054394799,-0.0004721743051791307,0.6581931715069966,0.7528488652786722
2025/05/06 15:49:10.225118590,1746539350,224407189,,-0.0003465543055193391,-0.00040599464358200644,0.6578759616764079,0.7531261077115866
2025/05/06 15:49:10.324390678,1746539350,324171179,,-0.00026909521773851153,-0.0002759596064294433,0.6575514870366432,0.7534095123702372
2025/05/06 15:49:10.421818531,1746539350,419933101,,-0.00011680584388969555,-0.00011183906816105303,0.6572186755573565,0.753699931237261
2025/05/06 15:49:10.530099283,1746539350,525956057,,7.523850155991343e-05,5.541550234796475e-05,0.6568790753163837,0.7539959361162252
2025/05/06 15:49:10.617659148,1746539350,617043889,,0.00026304474903071645,0.0001897449683804028,0.6565299820592597,0.7542998591154417
2025/05/06 15:49:10.724033941,1746539350,723828238,,0.00041612798112351324,0.0002441830444222796,0.6561703156208912,0.7546126715806754
2025/05/06 15:49:10.822608404,1746539350,819178717,,0.0004675862070785633,0.0002181290679178443,0.6558094775368951,0.754926263257302
2025/05/06 15:49:10.928012313,1746539350,923174098,,0.0004864996947238744,0.00014921761747855713,0.6554039513056531,0.7552783603844921
2025/05/06 15:49:11.32058795,1746539351,26952047,,0.00043890277638427314,-5.53531447964614e-06,0.6549821549167237,0.755644217918961
2025/05/06 15:49:11.130355109,1746539351,119365757,,0.00029990541661706316,-0.00017835410726744979,0.6545484051635276,0.7560200153067614
2025/05/06 15:49:11.223129486,1746539351,222582351,,0.00011756948728975018,-0.0003464973777929325,0.6541040137970151,0.7564045248751604
2025/05/06 15:49:11.324114861,1746539351,322060238,,-5.4678448977766736e-05,-0.0004820342181855652,0.6536478221692118,0.7567987111687798
2025/05/06 15:49:11.431473278,1746539351,428004793,,-0.000189786183347206,-0.0005438524255800542,0.6531791841714722,0.7572031573962392
2025/05/06 15:49:11.523463933,1746539351,523074100,,-0.00026080102705667186,-0.0005285370558334676,0.6526999078217852,0.7576163164563168
2025/05/06 15:49:11.621342510,1746539351,619667334,,-0.0002692216777647863,-0.00044535831119254545,0.6522147505827299,0.7580340680325458
2025/05/06 15:49:11.725117401,1746539351,722220928,,-0.00020800563095386938,-0.00031446686463586357,0.6517141113994799,0.7584646167403164
2025/05/06 15:49:11.829571448,1746539351,823639771,,-0.00012573931766454648,-0.00018601420035582936,0.6512042072495671,0.7589025168286136
2025/05/06 15:49:11.917291902,1746539351,915421049,,-4.965383948975318e-05,-0.00010165552625729618,0.6506899971502365,0.7593434761748306
2025/05/06 15:49:12.28548447,1746539352,26332268,,-8.019439102324687e-06,-7.188703718809375e-05,0.6501709840510562,0.7597879219005944
2025/05/06 15:49:12.127048613,1746539352,126076965,,-1.2085213999337516e-05,-0.00012649355408370363,0.6496474445897877,0.7602356092628699
2025/05/06 15:49:12.225458015,1746539352,222437331,,-7.531138029058879e-05,-0.0002417310889048488,0.6491210475457664,0.7606850869626429
2025/05/06 15:49:12.328789035,1746539352,326075356,,-0.00016793647708166114,-0.0004107048340843643,0.6485940682121442,0.761134375651829
2025/05/06 15:49:12.434783161,1746539352,431111210,,-0.00027853008689031003,-0.0005783100413998208,0.6480646515847475,0.7615850545702868
2025/05/06 15:49:12.520795335,1746539352,518961541,,-0.0003765911281332337,-0.0007098826152319641,0.6475334891440523,0.7620365704365667
2025/05/06 15:49:12.618336096,1746539352,617555324,,-0.0004361822530352435,-0.0007799465169074147,0.6470020111685344,0.7624877697198459
2025/05/06 15:49:12.726341319,1746539352,724382875,,-0.00047372509979175075,-0.0008181560913572052,0.6464997299975697,0.7629136290027919
2025/05/06 15:49:12.828808409,1746539352,823768571,,-0.0003781468345795862,-0.0006858840605561922,0.6459372347533233,0.7633901200089357
2025/05/06 15:49:12.925639355,1746539352,923049960,,-0.0002542108653930437,-0.0005407209146825841,0.6453850831729032,0.7638571446387297
2025/05/06 15:49:13.31308809,1746539353,30036166,,-0.00014363049728682972,-0.0003743079907382273,0.6448380952889924,0.7643190892080824
2025/05/06 15:49:13.125497322,1746539353,123922331,,-9.494296007959264e-05,-0.0002793369791354022,0.6443350981998038,0.7647432210778567
2025/05/06 15:49:13.227314605,1746539353,215721020,,-6.325383448716794e-05,-0.00020900449518729568,0.6438333592386294,0.765165706136635
2025/05/06 15:49:13.326278271,1746539353,322557668,,-7.587361825130273e-05,-0.0001836965860587034,0.643347925598708,0.7655739070309264
2025/05/06 15:49:13.432408159,1746539353,420921013,,-9.373391503158955e-05,-0.0001961070008426535,0.6428676641973733,0.7659772314406028
2025/05/06 15:49:13.524191462,1746539353,522608316,,-0.00010722050327147774,-0.00022064324272122668,0.6423846555128958,0.7663823420342495
2025/05/06 15:49:13.626864082,1746539353,625215099,,-0.00011579679165023667,-0.0002499922084405847,0.6418994694931549,0.7667887552379763
2025/05/06 15:49:13.731628488,1746539353,728355511,,-0.00010130434199653694,-0.00029697300336368153,0.6414116489600998,0.7671968444426445
2025/05/06 15:49:13.818899189,1746539353,817939230,,-8.773294586846586e-05,-0.0003326561040770061,0.6409214422301874,0.7676064007891175
2025/05/06 15:49:13.925138685,1746539353,921329567,,-7.149203308890308e-05,-0.0003617365897757835,0.6404297763645566,0.768016644078221
2025/05/06 15:49:14.29709127,1746539354,28148503,,-5.9016057621677014e-05,-0.0003857849813207453,0.6399386118821756,0.7684259370358131
2025/05/06 15:49:14.119906310,1746539354,116711765,,-5.19718765653602e-05,-0.0003972610063046503,0.6394451484006192,0.7688366157185329
2025/05/06 15:49:14.226921289,1746539354,225695231,,-6.0269335379017074e-05,-0.0003901325891500311,0.6389511254630705,0.7692472316710965
2025/05/06 15:49:14.325406828,1746539354,321568130,,-0.00011877881761818889,-0.0004197497186746451,0.6384922661377267,0.7696281152505258
2025/05/06 15:49:14.420186943,1746539354,416860033,,-0.0001275295657990618,-0.0003908351836922896,0.6380073931865156,0.7700301274777605
2025/05/06 15:49:14.525283233,1746539354,522750944,,-0.00010007690716862963,-0.0003463064380259479,0.6375184575726066,0.7704349981086712
2025/05/06 15:49:14.617279167,1746539354,616356006,,-6.420428648904266e-05,-0.00027867439572905014,0.637025283994879,0.770842854134119
2025/05/06 15:49:14.724304324,1746539354,720427293,,-2.076715458455178e-05,-0.0002227952344006859,0.6365297987626685,0.7712520763136821
2025/05/06 15:49:14.823831848,1746539354,822613252,,9.67243382721931e-06,-0.00018276380415105476,0.6360320263868805,0.7716626386666874
2025/05/06 15:49:14.922556341,1746539354,918530423,,3.065546898881745e-05,-0.00017532525404109764,0.6355290897445226,0.772076903170789
2025/05/06 15:49:15.19325004,1746539355,18377911,,2.1699761448050127e-05,-0.00019521009023709655,0.6350242137983791,0.7724922066350518
2025/05/06 15:49:15.122567790,1746539355,119191742,,-2.2246292326929028e-05,-0.00025146916760226994,0.6345170725205966,0.7729088050658061
2025/05/06 15:49:15.227943968,1746539355,226506766,,-9.862215934231383e-05,-0.00034451363653990993,0.6340189456376788,0.7733174303974469
2025/05/06 15:49:15.325411348,1746539355,323763521,,-0.00015973722137018506,-0.00043771235949322397,0.6335134675119629,0.773731522799013
2025/05/06 15:49:15.425437103,1746539355,423324858,,-0.00020486548330097304,-0.0005100409665814168,0.6330039816182872,0.7741483431124434
2025/05/06 15:49:15.529822194,1746539355,527215027,,-0.00023217546755415603,-0.0005376425009227123,0.6324895081294168,0.7745687052426672
2025/05/06 15:49:15.621030202,1746539355,618484117,,-0.0002484199561915765,-0.0005641614048735046,0.6319916366398389,0.7749749616773
2025/05/06 15:49:15.728526993,1746539355,724342618,,-0.00022149810447145976,-0.000534141625033649,0.6314815189159825,0.7753907124146368
2025/05/06 15:49:15.823791345,1746539355,823096184,,-0.00017895592258604094,-0.0004649950293669742,0.6309668375513346,0.7758096426732966
2025/05/06 15:49:15.927228481,1746539355,925308856,,-0.00011736843088826741,-0.00039272947435679817,0.6304467317479614,0.7762324074763469
2025/05/06 15:49:16.29079591,1746539356,26297568,,-8.098059101465502e-05,-0.00031995649373317477,0.629932249290439,0.7766500192325203
2025/05/06 15:49:16.125168024,1746539356,122780829,,-6.470876649820092e-05,-0.00026204488669219353,0.6294206454307637,0.7770647194737217
2025/05/06 15:49:16.224707012,1746539356,223554318,,-7.072547054081082e-05,-0.0002386375096122743,0.628906485833406,0.7774809130304889
2025/05/06 15:49:16.320994171,1746539356,319438985,,-0.00011065468744867313,-0.0002566248553051333,0.6283924355675565,0.7778964383648367
2025/05/06 15:49:16.425664883,1746539356,424983374,,-0.00017990398149992076,-0.00030425345778227475,0.6278786660451667,0.7783111561514025
2025/05/06 15:49:16.527889920,1746539356,524616273,,-0.00021221515748240068,-0.00034935985050210753,0.6273338963597198,0.7787502907803978
