time,header_stamp_secs,header_stamp_nsecs,header_frame_id,orientation_x,orientation_y,orientation_z,orientation_w,orientation_covariance_0,orientation_covariance_1,orientation_covariance_2,orientation_covariance_3,orientation_covariance_4,orientation_covariance_5,orientation_covariance_6,orientation_covariance_7,orientation_covariance_8,angular_velocity_x,angular_velocity_y,angular_velocity_z,angular_velocity_covariance_0,angular_velocity_covariance_1,angular_velocity_covariance_2,angular_velocity_covariance_3,angular_velocity_covariance_4,angular_velocity_covariance_5,angular_velocity_covariance_6,angular_velocity_covariance_7,angular_velocity_covariance_8,linear_acceleration_x,linear_acceleration_y,linear_acceleration_z,linear_acceleration_covariance_0,linear_acceleration_covariance_1,linear_acceleration_covariance_2,linear_acceleration_covariance_3,linear_acceleration_covariance_4,linear_acceleration_covariance_5,linear_acceleration_covariance_6,linear_acceleration_covariance_7,linear_acceleration_covariance_8
2025/04/09 10:24:45.407424440,1744187085,404362965,mA1/imu,0.7041659972018967,0.7100346502490515,0.00039940063987952383,0.0009403773149089988,0.0,0.0,0.0,0.0,0.0,0.0,0.0,0.0,0.0,0.001621799425735353,0.00011624453389079544,0.0005883852787858691,0.0,0.0,0.0,0.0,0.0,0.0,0.0,0.0,0.0,0.008112115031828085,-0.16924398118820344,9.808931307345215,0.0,0.0,0.0,0.0,0.0,0.0,0.0,0.0,0.0
2025/04/09 10:24:45.456222232,1744187085,455065018,mA1/imu,0.7041764777994605,0.7100243048979601,0.00037524782038944626,0.0009131030544111815,0.0,0.0,0.0,0.0,0.0,0.0,0.0,0.0,0.0,0.0017301324114879489,8.009620698719651e-05,0.0005887176369577677,0.0,0.0,0.0,0.0,0.0,0.0,0.0,0.0,0.0,0.008046755395928805,0.0011518303975837398,9.808772628066,0.0,0.0,0.0,0.0,0.0,0.0,0.0,0.0,0.0
2025/04/09 10:24:45.508093373,1744187085,506032394,mA1/imu,0.7041869601975811,0.710013951017015,0.0003528197928013714,0.0008888009293319881,0.0,0.0,0.0,0.0,0.0,0.0,0.0,0.0,0.0,0.0006296238650511603,4.2448587100980235e-05,0.0005890196574528118,0.0,0.0,0.0,0.0,0.0,0.0,0.0,0.0,0.0,0.008506594855836687,0.3369371409698376,9.80914541711184,0.0,0.0,0.0,0.0,0.0,0.0,0.0,0.0,0.0
2025/04/09 10:24:45.547143346,1744187085,545910069,mA1/imu,0.7041974601137652,0.7100035917244679,0.00032086500087477805,0.0008567107613286298,0.0,0.0,0.0,0.0,0.0,0.0,0.0,0.0,0.0,0.0027741267330712825,-2.165585690339331e-05,0.0005895295810432454,0.0,0.0,0.0,0.0,0.0,0.0,0.0,0.0,0.0,0.008334307658867028,-0.5743492649348413,9.808718484433427,0.0,0.0,0.0,0.0,0.0,0.0,0.0,0.0,0.0
2025/04/09 10:24:45.597952014,1744187085,596924382,mA1/imu,0.7042079647634567,0.7099932220034136,0.00028920627564538116,0.0008266998559346491,0.0,0.0,0.0,0.0,0.0,0.0,0.0,0.0,0.0,0.00196860723289754,-6.138202036858338e-05,0.0005900253927709903,0.0,0.0,0.0,0.0,0.0,0.0,0.0,0.0,0.0,0.008040536143026057,-0.00014454633622601812,9.809002581342915,0.0,0.0,0.0,0.0,0.0,0.0,0.0,0.0,0.0
2025/04/09 10:24:45.647924672,1744187085,646766397,mA1/imu,0.7042184694014344,0.7099828485434767,0.00025695317537479534,0.0007975606918299059,0.0,0.0,0.0,0.0,0.0,0.0,0.0,0.0,0.0,0.001916698837766196,-8.604406434164478e-05,0.0005887370958306659,0.0,0.0,0.0,0.0,0.0,0.0,0.0,0.0,0.0,0.006973215004360273,0.0010629276573121734,9.809217212382649,0.0,0.0,0.0,0.0,0.0,0.0,0.0,0.0,0.0
2025/04/09 10:24:45.698418040,1744187085,697765324,mA1/imu,0.7042289065494634,0.7099725314862401,0.00022996030891657665,0.0007738432808955564,0.0,0.0,0.0,0.0,0.0,0.0,0.0,0.0,0.0,0.0013644029206266162,-9.097498573793435e-05,0.0005848467316885715,0.0,0.0,0.0,0.0,0.0,0.0,0.0,0.0,0.0,0.007198136285670542,-0.027417894015490323,9.809281477219582,0.0,0.0,0.0,0.0,0.0,0.0,0.0,0.0,0.0
2025/04/09 10:24:45.748599893,1744187085,747612258,mA1/imu,0.7042392758259199,0.7099622781973516,0.0002040213936676804,0.0007511965660705321,0.0,0.0,0.0,0.0,0.0,0.0,0.0,0.0,0.0,0.001369138217615456,-8.154092882476732e-05,0.0005814394786284905,0.0,0.0,0.0,0.0,0.0,0.0,0.0,0.0,0.0,0.0061707441674250935,-0.1716636968463893,9.809453927511559,0.0,0.0,0.0,0.0,0.0,0.0,0.0,0.0,0.0
2025/04/09 10:24:45.800359523,1744187085,798558220,mA1/imu,0.704249583434477,0.7099520807341494,0.00018164072745402963,0.0007309584556250395,0.0,0.0,0.0,0.0,0.0,0.0,0.0,0.0,0.0,0.0004810529175047667,-3.769420482920731e-05,0.0005781633161345222,0.0,0.0,0.0,0.0,0.0,0.0,0.0,0.0,0.0,0.0062386305382759084,0.250840910540102,9.809886924007472,0.0,0.0,0.0,0.0,0.0,0.0,0.0,0.0,0.0
2025/04/09 10:24:45.849470537,1744187085,848376175,mA1/imu,0.7042598288088008,0.7099419354833196,0.00016656058611965808,0.0007169560432337965,0.0,0.0,0.0,0.0,0.0,0.0,0.0,0.0,0.0,0.0010368883577873552,-3.4091966275805636e-05,0.0005756466388875773,0.0,0.0,0.0,0.0,0.0,0.0,0.0,0.0,0.0,0.0074825682578328005,-0.3068096582422875,9.810216419460138,0.0,0.0,0.0,0.0,0.0,0.0,0.0,0.0,0.0
2025/04/09 10:24:45.900191066,1744187085,899329789,mA1/imu,0.7042700429039356,0.7099318169061574,0.0001542877742732079,0.0007058382916674112,0.0,0.0,0.0,0.0,0.0,0.0,0.0,0.0,0.0,0.0009407808728090826,-2.6556782901071488e-05,0.0005742506760121229,0.0,0.0,0.0,0.0,0.0,0.0,0.0,0.0,0.0,0.007130730015604091,0.03049663296272774,9.810272024890335,0.0,0.0,0.0,0.0,0.0,0.0,0.0,0.0,0.0
2025/04/09 10:24:45.955585786,1744187085,954521037,mA1/imu,0.70428021521315,0.7099217206627768,0.00015771577684981468,0.0007100114470073948,0.0,0.0,0.0,0.0,0.0,0.0,0.0,0.0,0.0,-2.9949205145462647e-05,-3.31984400049196e-05,0.0005728109433464207,0.0,0.0,0.0,0.0,0.0,0.0,0.0,0.0,0.0,0.007845134195982026,-0.11174998134701575,9.809250484864908,0.0,0.0,0.0,0.0,0.0,0.0,0.0,0.0,0.0
2025/04/09 10:24:46.7226677,1744187086,5746046,mA1/imu,0.7042903693579976,0.7099116478887696,0.0001560232728508819,0.0007095619531533226,0.0,0.0,0.0,0.0,0.0,0.0,0.0,0.0,0.0,0.00017400450512968952,-4.189389273120341e-05,0.0005716491529836866,0.0,0.0,0.0,0.0,0.0,0.0,0.0,0.0,0.0,0.007523130701069118,-0.6088767965169138,9.810067327893178,0.0,0.0,0.0,0.0,0.0,0.0,0.0,0.0,0.0
2025/04/09 10:24:46.47074410,1744187086,46143009,mA1/imu,0.7043004847371308,0.7099016049957884,0.00016043220650191335,0.000716020218439673,0.0,0.0,0.0,0.0,0.0,0.0,0.0,0.0,0.0,0.000183034015257846,-7.938901094447716e-05,0.0005685349137571769,0.0,0.0,0.0,0.0,0.0,0.0,0.0,0.0,0.0,0.00900916351508061,0.04388956351258936,9.810578262253157,0.0,0.0,0.0,0.0,0.0,0.0,0.0,0.0,0.0
2025/04/09 10:24:46.98888953,1744187086,97830839,mA1/imu,0.7043105074386136,0.7098916357393864,0.00017765486521534605,0.0007369243988830526,0.0,0.0,0.0,0.0,0.0,0.0,0.0,0.0,0.0,1.4911327172308118e-06,-0.00013626350854948157,0.0005641287400409043,0.0,0.0,0.0,0.0,0.0,0.0,0.0,0.0,0.0,0.008088056086871121,0.057099045470847196,9.811134490042935,0.0,0.0,0.0,0.0,0.0,0.0,0.0,0.0,0.0
2025/04/09 10:24:46.151140384,1744187086,148567727,mA1/imu,0.7043204460076135,0.7098817390998432,0.00020100753957744507,0.0007651301769159226,0.0,0.0,0.0,0.0,0.0,0.0,0.0,0.0,0.0,-0.002420784051452972,-0.00013877899464631243,0.0005605064711288775,0.0,0.0,0.0,0.0,0.0,0.0,0.0,0.0,0.0,0.007506874245669932,0.5353199862874206,9.812324706486828,0.0,0.0,0.0,0.0,0.0,0.0,0.0,0.0,0.0
2025/04/09 10:24:46.201450880,1744187086,199486941,mA1/imu,0.7043303599774168,0.709871870494769,0.0002203429995348421,0.0007892675735050819,0.0,0.0,0.0,0.0,0.0,0.0,0.0,0.0,0.0,-0.00042288112312112094,-0.00013334068668934695,0.0005593660629290775,0.0,0.0,0.0,0.0,0.0,0.0,0.0,0.0,0.0,0.007070415064356624,-0.5702302549844109,9.809368909510779,0.0,0.0,0.0,0.0,0.0,0.0,0.0,0.0,0.0
2025/04/09 10:24:46.252898747,1744187086,250923914,mA1/imu,0.7043402368087202,0.7098620229766166,0.0002500202344496915,0.0008225798829551716,0.0,0.0,0.0,0.0,0.0,0.0,0.0,0.0,0.0,-0.00041038103017278086,-9.854939511128064e-05,0.0005585985254458545,0.0,0.0,0.0,0.0,0.0,0.0,0.0,0.0,0.0,0.005515111205636601,-0.5630415485887931,9.810342074876747,0.0,0.0,0.0,0.0,0.0,0.0,0.0,0.0,0.0
2025/04/09 10:24:46.303754655,1744187086,301874936,mA1/imu,0.7043501070345679,0.7098521890177274,0.0002760154142625567,0.0008486946590487678,0.0,0.0,0.0,0.0,0.0,0.0,0.0,0.0,0.0,-0.0012526034481425822,4.031439042082207e-05,0.0005576431833574243,0.0,0.0,0.0,0.0,0.0,0.0,0.0,0.0,0.0,0.004518058281903439,0.06445992764899092,9.81108925758378,0.0,0.0,0.0,0.0,0.0,0.0,0.0,0.0,0.0
2025/04/09 10:24:46.352933510,1744187086,351753946,mA1/imu,0.7043599605869694,0.7098423586678536,0.0003110458012647292,0.0008803483916571412,0.0,0.0,0.0,0.0,0.0,0.0,0.0,0.0,0.0,-0.002006070750572297,9.100492246047123e-05,0.0005578404468807236,0.0,0.0,0.0,0.0,0.0,0.0,0.0,0.0,0.0,0.009443980762171109,-0.03598496288539829,9.810018990047984,0.0,0.0,0.0,0.0,0.0,0.0,0.0,0.0,0.0
2025/04/09 10:24:46.403703236,1744187086,402652518,mA1/imu,0.704369260074246,0.7098330831342576,0.00033904221838978966,0.0009080754084065941,0.0,0.0,0.0,0.0,0.0,0.0,0.0,0.0,0.0,-0.0010714699309350587,-3.081984400796128e-05,0.0005190714286509842,0.0,0.0,0.0,0.0,0.0,0.0,0.0,0.0,0.0,0.00988526651497377,-0.3680019835836171,9.808810318703678,0.0,0.0,0.0,0.0,0.0,0.0,0.0,0.0,0.0
2025/04/09 10:24:46.454303375,1744187086,452481922,mA1/imu,0.7043784624820063,0.7098239091405673,0.0003613570420398987,0.000932215091428198,0.0,0.0,0.0,0.0,0.0,0.0,0.0,0.0,0.0,-0.0005688512397263143,-5.630362596573026e-05,0.0005202662054770163,0.0,0.0,0.0,0.0,0.0,0.0,0.0,0.0,0.0,0.007120232092920734,0.03897833233532952,9.809685200305925,0.0,0.0,0.0,0.0,0.0,0.0,0.0,0.0,0.0
2025/04/09 10:24:46.504889232,1744187086,503432925,mA1/imu,0.7043882326245026,0.7098141608960757,0.00039085033445086185,0.0009601914109656209,0.0,0.0,0.0,0.0,0.0,0.0,0.0,0.0,0.0,-0.0024684647345956197,6.234055242453381e-05,0.0005596662386559114,0.0,0.0,0.0,0.0,0.0,0.0,0.0,0.0,0.0,0.00722911356934893,0.48265880590830734,9.810268820247698,0.0,0.0,0.0,0.0,0.0,0.0,0.0,0.0,0.0
2025/04/09 10:24:46.554178326,1744187086,553227303,mA1/imu,0.7043981210993334,0.7098043180219189,0.00040877124029608755,0.0009746872527031475,0.0,0.0,0.0,0.0,0.0,0.0,0.0,0.0,0.0,-0.0007983154087031078,0.00011414991830208839,0.0005578706190442429,0.0,0.0,0.0,0.0,0.0,0.0,0.0,0.0,0.0,0.005967745079232871,-0.6077698244798605,9.808688411342844,0.0,0.0,0.0,0.0,0.0,0.0,0.0,0.0,0.0
2025/04/09 10:24:46.605454363,1744187086,604239057,mA1/imu,0.7044079917600053,0.7097945087254988,0.0004193495645485374,0.000980139636319152,0.0,0.0,0.0,0.0,0.0,0.0,0.0,0.0,0.0,0.0010886311698543136,0.00015863415360201818,0.0005564056463306182,0.0,0.0,0.0,0.0,0.0,0.0,0.0,0.0,0.0,0.005982095290879825,-0.5310682015243232,9.807897116060593,0.0,0.0,0.0,0.0,0.0,0.0,0.0,0.0,0.0
2025/04/09 10:24:46.655109589,1744187086,654032376,mA1/imu,0.7044178369802909,0.7097847284765428,0.0004287774821540335,0.0009830134076359797,0.0,0.0,0.0,0.0,0.0,0.0,0.0,0.0,0.0,-0.00032694194174668945,0.00019453663027918592,0.0005547405146759808,0.0,0.0,0.0,0.0,0.0,0.0,0.0,0.0,0.0,0.007473293450835384,0.6023751574817464,9.810221354052748,0.0,0.0,0.0,0.0,0.0,0.0,0.0,0.0,0.0
2025/04/09 10:24:46.706108436,1744187086,705009588,mA1/imu,0.704427653125831,0.7097749783612941,0.0004377571346193787,0.0009848718441861147,0.0,0.0,0.0,0.0,0.0,0.0,0.0,0.0,0.0,-0.0014486232916072934,0.00020303184372871979,0.0005530536503132169,0.0,0.0,0.0,0.0,0.0,0.0,0.0,0.0,0.0,0.007634305226449134,0.5023607059124163,9.809554322567402,0.0,0.0,0.0,0.0,0.0,0.0,0.0,0.0,0.0
2025/04/09 10:24:46.756627482,1744187086,754850841,mA1/imu,0.7044374659427775,0.7097652553183426,0.00043435345373854105,0.000974810793738717,0.0,0.0,0.0,0.0,0.0,0.0,0.0,0.0,0.0,0.0006235706958923476,0.00016041872131489256,0.0005530600606689523,0.0,0.0,0.0,0.0,0.0,0.0,0.0,0.0,0.0,0.00932657564377204,-0.6339470704808156,9.808465503220793,0.0,0.0,0.0,0.0,0.0,0.0,0.0,0.0,0.0
2025/04/09 10:24:46.806727709,1744187086,805768543,mA1/imu,0.7044468943098426,0.7097559309237162,0.00041893782527273473,0.0009571347475007428,0.0,0.0,0.0,0.0,0.0,0.0,0.0,0.0,0.0,0.002361262649742995,1.7408851523109233e-05,0.0005259546210940387,0.0,0.0,0.0,0.0,0.0,0.0,0.0,0.0,0.0,0.009222891435648133,-0.5381214668054656,9.80805007211672,0.0,0.0,0.0,0.0,0.0,0.0,0.0,0.0,0.0
2025/04/09 10:24:46.860675572,1744187086,855755489,mA1/imu,0.7044563917613033,0.7097465358337743,0.0004026219173721197,0.0009406775185967785,0.0,0.0,0.0,0.0,0.0,0.0,0.0,0.0,0.0,0.0009362585815694487,4.9319169440289266e-05,0.0005505813192863248,0.0,0.0,0.0,0.0,0.0,0.0,0.0,0.0,0.0,0.002834666556903608,0.5987973556937202,9.810434863147163,0.0,0.0,0.0,0.0,0.0,0.0,0.0,0.0,0.0
2025/04/09 10:24:46.897753269,1744187086,896613734,mA1/imu,0.7044665658463887,0.7097364687182753,0.0003886207969557084,0.0009227945515747286,0.0,0.0,0.0,0.0,0.0,0.0,0.0,0.0,0.0,-0.0002859086106507516,0.00013820405954942738,0.0005744248551777308,0.0,0.0,0.0,0.0,0.0,0.0,0.0,0.0,0.0,0.005678021446132223,0.5010105736496588,9.810149955272673,0.0,0.0,0.0,0.0,0.0,0.0,0.0,0.0,0.0
2025/04/09 10:24:46.947358986,1744187086,946453455,mA1/imu,0.7044767818154184,0.7097263763933256,0.0003660527489804255,0.0008947289957314312,0.0,0.0,0.0,0.0,0.0,0.0,0.0,0.0,0.0,0.0016081835762339746,0.00016120444284608456,0.0005735685686446166,0.0,0.0,0.0,0.0,0.0,0.0,0.0,0.0,0.0,0.007430713143831513,-0.6360122974940253,9.809125918726359,0.0,0.0,0.0,0.0,0.0,0.0,0.0,0.0,0.0
2025/04/09 10:24:46.999428095,1744187086,997408915,mA1/imu,0.7044869784488981,0.7097163138164299,0.0003351517731216048,0.0008595184988954657,0.0,0.0,0.0,0.0,0.0,0.0,0.0,0.0,0.0,0.0031898753586788345,0.00010389593749006178,0.0005717334641657928,0.0,0.0,0.0,0.0,0.0,0.0,0.0,0.0,0.0,0.007424665642255928,-0.5360284777835718,9.808949952766989,0.0,0.0,0.0,0.0,0.0,0.0,0.0,0.0,0.0
2025/04/09 10:24:47.48455738,1744187087,47255530,mA1/imu,0.7044971381757054,0.7097062760788783,0.0003082257231200782,0.000830056260622313,0.0,0.0,0.0,0.0,0.0,0.0,0.0,0.0,0.0,0.0014964353525370952,7.31929627450187e-05,0.00057032340682008,0.0,0.0,0.0,0.0,0.0,0.0,0.0,0.0,0.0,0.006260062991500734,0.6003566626810546,9.811411893593288,0.0,0.0,0.0,0.0,0.0,0.0,0.0,0.0,0.0
2025/04/09 10:24:47.99466022,1744187087,98234561,mA1/imu,0.7045072759137846,0.7096962495314107,0.0002865718768205499,0.0008058921439150211,0.0,0.0,0.0,0.0,0.0,0.0,0.0,0.0,0.0,-4.64269558381392e-06,7.771981228059667e-05,0.0005696165432420635,0.0,0.0,0.0,0.0,0.0,0.0,0.0,0.0,0.0,0.006391861039107502,0.5011248089332221,9.81114668629901,0.0,0.0,0.0,0.0,0.0,0.0,0.0,0.0,0.0
2025/04/09 10:24:47.149422270,1744187087,148529252,mA1/imu,0.7045174043263099,0.709686237258768,0.0002600539576343444,0.0007771864315888762,0.0,0.0,0.0,0.0,0.0,0.0,0.0,0.0,0.0,0.0016215339246411773,4.5022992923889055e-05,0.0005686200727519105,0.0,0.0,0.0,0.0,0.0,0.0,0.0,0.0,0.0,0.007587170922661463,-0.6346345763083026,9.810056429550725,0.0,0.0,0.0,0.0,0.0,0.0,0.0,0.0,0.0
2025/04/09 10:24:47.200457956,1744187087,199478378,mA1/imu,0.7045275078884912,0.7096762497861375,0.00022985841388581553,0.000747183394596811,0.0,0.0,0.0,0.0,0.0,0.0,0.0,0.0,0.0,0.0029054641273779697,-3.1010791794733094e-05,0.0005670357964314077,0.0,0.0,0.0,0.0,0.0,0.0,0.0,0.0,0.0,0.007518602742200625,-0.5355241931170107,9.809758169447965,0.0,0.0,0.0,0.0,0.0,0.0,0.0,0.0,0.0
2025/04/09 10:24:47.252277068,1744187087,250990277,mA1/imu,0.7045375799248286,0.709666277029999,0.00020846755913036933,0.000728190444296014,0.0,0.0,0.0,0.0,0.0,0.0,0.0,0.0,0.0,0.0009352319871615418,-6.934012148619771e-05,0.0005668887589492649,0.0,0.0,0.0,0.0,0.0,0.0,0.0,0.0,0.0,0.006081851412404155,0.60028237673764,9.812061627835204,0.0,0.0,0.0,0.0,0.0,0.0,0.0,0.0,0.0
2025/04/09 10:24:47.303896919,1744187087,301913078,mA1/imu,0.7045476706660819,0.7096562716732403,0.00019700036722471664,0.0007190442892123794,0.0,0.0,0.0,0.0,0.0,0.0,0.0,0.0,0.0,-0.0008131019679152215,-5.828925442642232e-05,0.0005689402395347001,0.0,0.0,0.0,0.0,0.0,0.0,0.0,0.0,0.0,0.006166581278427228,0.5010202417834408,9.81155403020143,0.0,0.0,0.0,0.0,0.0,0.0,0.0,0.0,0.0
2025/04/09 10:24:47.354377646,1744187087,353683385,mA1/imu,0.7045577968250663,0.709646231298432,0.00018457534253330882,0.0007094144656471235,0.0,0.0,0.0,0.0,0.0,0.0,0.0,0.0,0.0,0.0006038894710554294,-0.00013091223587875705,0.0005707893129343071,0.0,0.0,0.0,0.0,0.0,0.0,0.0,0.0,0.0,0.01124179137328416,-0.6346791561561115,9.810208417585091,0.0,0.0,0.0,0.0,0.0,0.0,0.0,0.0,0.0
2025/04/09 10:24:47.405258332,1744187087,404586114,mA1/imu,0.704567523427131,0.7096365836226634,0.00016930004115641096,0.0007038846568241963,0.0,0.0,0.0,0.0,0.0,0.0,0.0,0.0,0.0,0.0017343395381865735,-0.0003525580551179368,0.0005432671619239304,0.0,0.0,0.0,0.0,0.0,0.0,0.0,0.0,0.0,0.01091908854548327,-0.535411243114884,9.809630856757218,0.0,0.0,0.0,0.0,0.0,0.0,0.0,0.0,0.0
2025/04/09 10:24:47.458543305,1744187087,454488355,mA1/imu,0.7045771812655597,0.7096269865995228,0.00016327349737933668,0.0007133521741628868,0.0,0.0,0.0,0.0,0.0,0.0,0.0,0.0,0.0,-0.00034025142721869355,-0.0004798397864585011,0.0005448222440769207,0.0,0.0,0.0,0.0,0.0,0.0,0.0,0.0,0.0,0.009892579032561577,0.6003138879833674,9.811889511574659,0.0,0.0,0.0,0.0,0.0,0.0,0.0,0.0,0.0
2025/04/09 10:24:47.507920272,1744187087,505884438,mA1/imu,0.7045872775451073,0.7096169391726284,0.00016761292749773756,0.0007347562526899647,0.0,0.0,0.0,0.0,0.0,0.0,0.0,0.0,0.0,-0.002136296405780793,-0.0004995176386216166,0.0005749232427721919,0.0,0.0,0.0,0.0,0.0,0.0,0.0,0.0,0.0,0.009752045422448783,0.5012815649333079,9.811103964956208,0.0,0.0,0.0,0.0,0.0,0.0,0.0,0.0,0.0
2025/04/09 10:24:47.557072460,1744187087,555767052,mA1/imu,0.7045974744178947,0.7096067908605767,0.00017048847690040605,0.0007565329849793772,0.0,0.0,0.0,0.0,0.0,0.0,0.0,0.0,0.0,-0.0007047353478967821,-0.0005706814251468244,0.0005760578805671562,0.0,0.0,0.0,0.0,0.0,0.0,0.0,0.0,0.0,0.01055059161094683,-0.6343904571915466,9.809401780372957,0.0,0.0,0.0,0.0,0.0,0.0,0.0,0.0,0.0
2025/04/09 10:24:47.597993296,1744187087,597103433,mA1/imu,0.7046072765823507,0.7095970334776007,0.00017045165872587128,0.0007789821716825631,0.0,0.0,0.0,0.0,0.0,0.0,0.0,0.0,0.0,0.0005660472361446175,-0.0006644239930820383,0.0005487465844245224,0.0,0.0,0.0,0.0,0.0,0.0,0.0,0.0,0.0,0.01011015236329826,-0.5305422434900386,9.808778651945365,0.0,0.0,0.0,0.0,0.0,0.0,0.0,0.0,0.0
2025/04/09 10:24:47.649525983,1744187087,647376381,mA1/imu,0.7046170022088417,0.7095873364483845,0.00018033771719607134,0.0008121752398642232,0.0,0.0,0.0,0.0,0.0,0.0,0.0,0.0,0.0,-0.0014183951979217808,-0.0006437370708816784,0.0005490958463047156,0.0,0.0,0.0,0.0,0.0,0.0,0.0,0.0,0.0,0.008865651603562955,0.6023698768436415,9.810919275662975,0.0,0.0,0.0,0.0,0.0,0.0,0.0,0.0,0.0
2025/04/09 10:24:47.699837612,1744187087,698336601,mA1/imu,0.7046271186796267,0.7095772382260594,0.00020097437452572074,0.0008521866146059696,0.0,0.0,0.0,0.0,0.0,0.0,0.0,0.0,0.0,-0.0030536138040130434,-0.0005045270020451095,0.0005763183327467886,0.0,0.0,0.0,0.0,0.0,0.0,0.0,0.0,0.0,0.00876855792690217,0.502373680201851,9.810057899205281,0.0,0.0,0.0,0.0,0.0,0.0,0.0,0.0,0.0
2025/04/09 10:24:47.750036813,1744187087,748253916,mA1/imu,0.7046372878810475,0.7095670923454777,0.00021972573963154984,0.0008864020676109082,0.0,0.0,0.0,0.0,0.0,0.0,0.0,0.0,0.0,-0.001420250369985737,-0.0004147675682376638,0.0005743734877776198,0.0,0.0,0.0,0.0,0.0,0.0,0.0,0.0,0.0,0.010150023104894365,-0.634077578777395,9.80862861505469,0.0,0.0,0.0,0.0,0.0,0.0,0.0,0.0,0.0
2025/04/09 10:24:47.800186690,1744187087,799218568,mA1/imu,0.7046470068528397,0.7095573972884305,0.00023569462659144631,0.0009165885913245352,0.0,0.0,0.0,0.0,0.0,0.0,0.0,0.0,0.0,-8.54015120925437e-06,-0.00038573174130278966,0.0005437947960416975,0.0,0.0,0.0,0.0,0.0,0.0,0.0,0.0,0.0,0.009895024042091487,-0.537269885758846,9.807912446921195,0.0,0.0,0.0,0.0,0.0,0.0,0.0,0.0,0.0
2025/04/09 10:24:47.850114231,1744187087,849023669,mA1/imu,0.7046566096620575,0.7095478088407482,0.00025855445355865854,0.0009500412950657866,0.0,0.0,0.0,0.0,0.0,0.0,0.0,0.0,0.0,-0.0016654719447409098,-0.0002080257219070399,0.0005429838002681905,0.0,0.0,0.0,0.0,0.0,0.0,0.0,0.0,0.0,0.004812124983282388,0.5999425743356332,9.810339495482205,0.0,0.0,0.0,0.0,0.0,0.0,0.0,0.0,0.0
2025/04/09 10:24:47.901104530,1744187087,900002850,mA1/imu,0.704666629686052,0.7095378031542299,0.00029023965294425853,0.0009811538685233674,0.0,0.0,0.0,0.0,0.0,0.0,0.0,0.0,0.0,-0.0029968458637800403,0.00013961717740760608,0.0005720238272414927,0.0,0.0,0.0,0.0,0.0,0.0,0.0,0.0,0.0,0.005028327304670923,0.5015046507972465,9.809768567895999,0.0,0.0,0.0,0.0,0.0,0.0,0.0,0.0,0.0
2025/04/09 10:24:47.951667872,1744187087,949907937,mA1/imu,0.7046767337906921,0.7095277326464869,0.00031777433994864535,0.000998237990730859,0.0,0.0,0.0,0.0,0.0,0.0,0.0,0.0,0.0,-0.0010740838129868547,0.00034883209576816844,0.0005715688244161532,0.0,0.0,0.0,0.0,0.0,0.0,0.0,0.0,0.0,0.009943659974785763,-0.6343259330238543,9.808231064630874,0.0,0.0,0.0,0.0,0.0,0.0,0.0,0.0,0.0
2025/04/09 10:24:48.1900875,1744187088,902638,mA1/imu,0.7046864304753048,0.709518083586852,0.00033736853082503036,0.0010049625310131487,0.0,0.0,0.0,0.0,0.0,0.0,0.0,0.0,0.0,0.0006351114641220315,0.00038007909082071967,0.0005432716206722209,0.0,0.0,0.0,0.0,0.0,0.0,0.0,0.0,0.0,0.009948823094563946,-0.5348814433032287,9.807978514858618,0.0,0.0,0.0,0.0,0.0,0.0,0.0,0.0,0.0
2025/04/09 10:24:48.53832025,1744187088,50742420,mA1/imu,0.7046960513639905,0.7095085075893273,0.00035974048512601016,0.001011650705052168,0.0,0.0,0.0,0.0,0.0,0.0,0.0,0.0,0.0,-0.0008155964980652796,0.0005202187239507585,0.0005435885096447293,0.0,0.0,0.0,0.0,0.0,0.0,0.0,0.0,0.0,0.0046791179124237746,0.6010907800803833,9.810646638142922,0.0,0.0,0.0,0.0,0.0,0.0,0.0,0.0,0.0
2025/04/09 10:24:48.103463071,1744187088,102518892,mA1/imu,0.7047060906571552,0.7094985192655062,0.0003864599424696742,0.0010137058134678213,0.0,0.0,0.0,0.0,0.0,0.0,0.0,0.0,0.0,-0.0019686301273556654,0.0007901281532080009,0.0005722177610972163,0.0,0.0,0.0,0.0,0.0,0.0,0.0,0.0,0.0,0.005152242697682953,0.5018976726251928,9.810277553381924,0.0,0.0,0.0,0.0,0.0,0.0,0.0,0.0,0.0
2025/04/09 10:24:48.153312897,1744187088,152364044,mA1/imu,0.7047162056304375,0.7094884809650799,0.0004047786155498155,0.0010005268485979103,0.0,0.0,0.0,0.0,0.0,0.0,0.0,0.0,0.0,9.128885848203898e-05,0.0009323817556437336,0.000569374632377087,0.0,0.0,0.0,0.0,0.0,0.0,0.0,0.0,0.0,0.006743005847864888,-0.6342965628018254,9.809027922219613,0.0,0.0,0.0,0.0,0.0,0.0,0.0,0.0,0.0
2025/04/09 10:24:48.204689599,1744187088,203345900,mA1/imu,0.7047262523221801,0.7094785320006403,0.000413356494546188,0.0009752202622143139,0.0,0.0,0.0,0.0,0.0,0.0,0.0,0.0,0.0,0.0018780001841189806,0.0009680029796564742,0.0005643380449082375,0.0,0.0,0.0,0.0,0.0,0.0,0.0,0.0,0.0,0.007084052427120227,-0.5351273998280021,9.808952567390929,0.0,0.0,0.0,0.0,0.0,0.0,0.0,0.0,0.0
2025/04/09 10:24:48.254411087,1744187088,253547869,mA1/imu,0.70473621138663,0.7094686679579237,0.00042269922374908844,0.0009501956611998125,0.0,0.0,0.0,0.0,0.0,0.0,0.0,0.0,0.0,0.0004544175071610507,0.0009865368766655536,0.000559846107809353,0.0,0.0,0.0,0.0,0.0,0.0,0.0,0.0,0.0,0.005491365229240501,0.6008577901090814,9.811398747747551,0.0,0.0,0.0,0.0,0.0,0.0,0.0,0.0,0.0
2025/04/09 10:24:48.305669319,1744187088,304482530,mA1/imu,0.7047461025648103,0.7094588704085849,0.00043238474818173376,0.0009247495412107315,0.0,0.0,0.0,0.0,0.0,0.0,0.0,0.0,0.0,-0.0007262354371303305,0.0009934464699958526,0.0005562219151959854,0.0,0.0,0.0,0.0,0.0,0.0,0.0,0.0,0.0,0.0059875474669985156,0.5015359982769091,9.811089022410378,0.0,0.0,0.0,0.0,0.0,0.0,0.0,0.0,0.0
2025/04/09 10:24:48.348966883,1744187088,345943746,mA1/imu,0.7047559418440716,0.709449142701624,0.0004306264906264323,0.0008893347131102037,0.0,0.0,0.0,0.0,0.0,0.0,0.0,0.0,0.0,0.0012504609949676726,0.0009033131111581776,0.0005522429174742849,0.0,0.0,0.0,0.0,0.0,0.0,0.0,0.0,0.0,0.00778296491453365,-0.6343510274992451,9.810116469877357,0.0,0.0,0.0,0.0,0.0,0.0,0.0,0.0,0.0
2025/04/09 10:24:48.397885539,1744187088,397141750,mA1/imu,0.7047657121268326,0.7094394956875646,0.0004170433981583964,0.000847964466615476,0.0,0.0,0.0,0.0,0.0,0.0,0.0,0.0,0.0,0.0029016368943538735,0.0007079271176817177,0.0005476338542608723,0.0,0.0,0.0,0.0,0.0,0.0,0.0,0.0,0.0,0.007965466472904031,-0.5352443052485261,9.809852560252413,0.0,0.0,0.0,0.0,0.0,0.0,0.0,0.0,0.0
2025/04/09 10:24:48.447945973,1744187088,446973810,mA1/imu,0.7047754009907159,0.7094299182830685,0.00040346089391591386,0.0008138934583184637,0.0,0.0,0.0,0.0,0.0,0.0,0.0,0.0,0.0,0.001266891657476104,0.0005141422267922971,0.0005436225718368841,0.0,0.0,0.0,0.0,0.0,0.0,0.0,0.0,0.0,0.006284529520080878,0.5986237859922627,9.811883385807217,0.0,0.0,0.0,0.0,0.0,0.0,0.0,0.0,0.0
2025/04/09 10:24:48.498945222,1744187088,497939706,mA1/imu,0.7047850284614554,0.7094203919949564,0.0003904898274622935,0.0007865087427778132,0.0,0.0,0.0,0.0,0.0,0.0,0.0,0.0,0.0,-0.0001109885058407012,0.0003408854697314629,0.0005405268691061255,0.0,0.0,0.0,0.0,0.0,0.0,0.0,0.0,0.0,0.006507397292206934,0.5005406665199411,9.811446320822272,0.0,0.0,0.0,0.0,0.0,0.0,0.0,0.0,0.0
2025/04/09 10:24:48.549707444,1744187088,548214286,mA1/imu,0.7047946073430952,0.7094109212957233,0.000367122712788633,0.0007559281440030755,0.0,0.0,0.0,0.0,0.0,0.0,0.0,0.0,0.0,0.0016316468135766577,8.9712155313815e-05,0.0005368391013459656,0.0,0.0,0.0,0.0,0.0,0.0,0.0,0.0,0.0,0.009759699806493318,-0.6348468895532796,9.810339567752674,0.0,0.0,0.0,0.0,0.0,0.0,0.0,0.0,0.0
2025/04/09 10:24:48.600979294,1744187088,600030551,mA1/imu,0.7048041112999963,0.7094015260175836,0.00033381017191542225,0.000726738821835373,0.0,0.0,0.0,0.0,0.0,0.0,0.0,0.0,0.0,0.0029624130616584653,-0.00024529140634555727,0.0005321493704718797,0.0,0.0,0.0,0.0,0.0,0.0,0.0,0.0,0.0,0.009542881430251653,-0.5122299601571929,9.809790597259838,0.0,0.0,0.0,0.0,0.0,0.0,0.0,0.0,0.0
2025/04/09 10:24:48.652268393,1744187088,651029017,mA1/imu,0.7048135314186487,0.7093921959750094,0.00030353834541464795,0.0007113953898703026,0.0,0.0,0.0,0.0,0.0,0.0,0.0,0.0,0.0,0.001139764045697606,-0.0005013068426381133,0.0005284604835687867,0.0,0.0,0.0,0.0,0.0,0.0,0.0,0.0,0.0,0.006181442150616986,0.5988146806612926,9.811719774247624,0.0,0.0,0.0,0.0,0.0,0.0,0.0,0.0,0.0
2025/04/09 10:24:48.705561685,1744187088,703165805,mA1/imu,0.7048228992590431,0.7093829036819685,0.0002779345004148569,0.0007066797220007998,0.0,0.0,0.0,0.0,0.0,0.0,0.0,0.0,0.0,-0.0004923646402572013,-0.0006399369217654354,0.0005262060250286228,0.0,0.0,0.0,0.0,0.0,0.0,0.0,0.0,0.0,0.006026611259557878,0.5006294852157424,9.810999103544717,0.0,0.0,0.0,0.0,0.0,0.0,0.0,0.0,0.0
2025/04/09 10:24:48.754247714,1744187088,753235097,mA1/imu,0.7048322360135897,0.7093736428256746,0.0002472802763294459,0.0007019920088737371,0.0,0.0,0.0,0.0,0.0,0.0,0.0,0.0,0.0,0.0010167312294550805,-0.0008303566232834715,0.000524955167895522,0.0,0.0,0.0,0.0,0.0,0.0,0.0,0.0,0.0,0.011286667918552167,-0.6347788803927478,9.809474369682443,0.0,0.0,0.0,0.0,0.0,0.0,0.0,0.0,0.0
2025/04/09 10:24:48.806178184,1744187088,804250920,mA1/imu,0.7048411433614169,0.7093648044544362,0.0002107249673916501,0.0007017273532097734,0.0,0.0,0.0,0.0,0.0,0.0,0.0,0.0,0.0,0.002214371204539346,-0.001129601693912569,0.0004959448874843991,0.0,0.0,0.0,0.0,0.0,0.0,0.0,0.0,0.0,0.010657751688473237,-0.5353445810232819,9.808707546059482,0.0,0.0,0.0,0.0,0.0,0.0,0.0,0.0,0.0
2025/04/09 10:24:48.858675365,1744187088,855642677,mA1/imu,0.7048499540685418,0.7093560431682788,0.0001815817818717602,0.0007164483749393618,0.0,0.0,0.0,0.0,0.0,0.0,0.0,0.0,0.0,0.0001822628418442131,-0.001290108925249384,0.0004958415254099589,0.0,0.0,0.0,0.0,0.0,0.0,0.0,0.0,0.0,0.00956997603650489,0.6004866240190376,9.810933702676902,0.0,0.0,0.0,0.0,0.0,0.0,0.0,0.0,0.0
2025/04/09 10:24:48.898549520,1744187088,896732849,mA1/imu,0.7048591745589845,0.7093468591320192,0.00016202336224960528,0.000742447302035155,0.0,0.0,0.0,0.0,0.0,0.0,0.0,0.0,0.0,-0.0015270632777438383,-0.0012926165797723062,0.000524383994469796,0.0,0.0,0.0,0.0,0.0,0.0,0.0,0.0,0.0,0.009108104565713248,0.47633269885310914,9.810132313065557,0.0,0.0,0.0,0.0,0.0,0.0,0.0,0.0,0.0
2025/04/09 10:24:48.951012600,1744187088,946417473,mA1/imu,0.7048684644727423,0.7093376057947066,0.0001413818629628617,0.0007673385436859899,0.0,0.0,0.0,0.0,0.0,0.0,0.0,0.0,0.0,-0.00014455500183841618,-0.0012879169490852918,0.0005236318645373863,0.0,0.0,0.0,0.0,0.0,0.0,0.0,0.0,0.0,0.00987783817990153,-0.6321813912623637,9.808599314715408,0.0,0.0,0.0,0.0,0.0,0.0,0.0,0.0,0.0
2025/04/09 10:24:48.998939316,1744187088,997372775,mA1/imu,0.7048773232387417,0.7093287783160035,0.00012119040516300728,0.0007929371967790522,0.0,0.0,0.0,0.0,0.0,0.0,0.0,0.0,0.0,0.001007979193652588,-0.0012772298999825962,0.0004946149564152644,0.0,0.0,0.0,0.0,0.0,0.0,0.0,0.0,0.0,0.00927668727660276,-0.5341551148313869,9.808009860765122,0.0,0.0,0.0,0.0,0.0,0.0,0.0,0.0,0.0
2025/04/09 10:24:49.49019878,1744187089,47201963,mA1/imu,0.7048860856110639,0.7093200318957511,0.00011400378507770705,0.0008280497928950983,0.0,0.0,0.0,0.0,0.0,0.0,0.0,0.0,0.0,-0.0010023442918746356,-0.0011247429766311008,0.0004946574895886373,0.0,0.0,0.0,0.0,0.0,0.0,0.0,0.0,0.0,0.008252598937261357,0.6011016912088674,9.81026733524391,0.0,0.0,0.0,0.0,0.0,0.0,0.0,0.0,0.0
2025/04/09 10:24:49.101132377,1744187089,98224260,mA1/imu,0.70489525758146,0.7093108679064962,0.00012099357097817762,0.0008682565611080187,0.0,0.0,0.0,0.0,0.0,0.0,0.0,0.0,0.0,-0.002698822993151666,-0.0008304658477807131,0.00052332307387173,0.0,0.0,0.0,0.0,0.0,0.0,0.0,0.0,0.0,0.00804351567625603,0.5019361037409519,9.809697269527266,0.0,0.0,0.0,0.0,0.0,0.0,0.0,0.0,0.0
2025/04/09 10:24:49.149174682,1744187089,148036350,mA1/imu,0.7049044896705227,0.7093016520004755,0.00012965945354870745,0.0009000556441648639,0.0,0.0,0.0,0.0,0.0,0.0,0.0,0.0,0.0,-0.0009955253114870889,-0.0005398320239391576,0.0005199480207202659,0.0,0.0,0.0,0.0,0.0,0.0,0.0,0.0,0.0,0.007352105267539925,-0.5928780674284551,9.808421868235493,0.0,0.0,0.0,0.0,0.0,0.0,0.0,0.0,0.0
2025/04/09 10:24:49.200264484,1744187089,199023400,mA1/imu,0.7049133907766632,0.7092927844064641,0.0001366450425099467,0.0009158716094871875,0.0,0.0,0.0,0.0,0.0,0.0,0.0,0.0,0.0,0.0007510598869645636,-6.150707451679015e-05,0.0004913531319024065,0.0,0.0,0.0,0.0,0.0,0.0,0.0,0.0,0.0,0.002166115623027629,-0.49606365982171197,9.808018484586606,0.0,0.0,0.0,0.0,0.0,0.0,0.0,0.0,0.0
2025/04/09 10:24:49.252605150,1744187089,250845729,mA1/imu,0.7049221980053101,0.7092840220154086,0.00015090491642138788,0.0009209238372125457,0.0,0.0,0.0,0.0,0.0,0.0,0.0,0.0,0.0,-0.0004281399597910361,0.0004827787057387223,0.0005078347119029056,0.0,0.0,0.0,0.0,0.0,0.0,0.0,0.0,0.0,0.0004013052123323906,0.687007461239983,9.810528542298103,0.0,0.0,0.0,0.0,0.0,0.0,0.0,0.0,0.0
2025/04/09 10:24:49.302726876,1744187089,301763314,mA1/imu,0.7049307144505659,0.7092755695535422,0.00016506104392289037,0.000909402861573951,0.0,0.0,0.0,0.0,0.0,0.0,0.0,0.0,0.0,-0.0009078170732602686,0.0008139452945130174,0.00041657190827425986,0.0,0.0,0.0,0.0,0.0,0.0,0.0,0.0,0.0,0.020927935783012087,0.600566970726131,9.810705036877177,0.0,0.0,0.0,0.0,0.0,0.0,0.0,0.0,0.0
2025/04/09 10:24:49.353629740,1744187089,351598843,mA1/imu,0.7049359244287826,0.7092704328370825,0.00016422406574595927,0.0008766888225028966,0.0,0.0,0.0,0.0,0.0,0.0,0.0,0.0,0.0,0.0013955685892885533,0.0010152749007031534,0.00024058190223541598,0.0,0.0,0.0,0.0,0.0,0.0,0.0,0.0,0.0,0.00583561220599098,-0.5179930513068073,9.809524467921346,0.0,0.0,0.0,0.0,0.0,0.0,0.0,0.0,0.0
2025/04/09 10:24:49.403414102,1744187089,402554853,mA1/imu,0.7049417441688125,0.7092647295409129,0.00014509141767092624,0.0008122228567368664,0.0,0.0,0.0,0.0,0.0,0.0,0.0,0.0,0.0,0.004121939522973792,0.0015149814473742064,0.0004231037495225155,0.0,0.0,0.0,0.0,0.0,0.0,0.0,0.0,0.0,-0.009771007120039251,-0.4088961177813668,9.809345923564972,0.0,0.0,0.0,0.0,0.0,0.0,0.0,0.0,0.0
2025/04/09 10:24:49.453091570,1744187089,452364734,mA1/imu,0.7049530361541234,0.7092536090153214,0.00012109233757522591,0.0007212852909009833,0.0,0.0,0.0,0.0,0.0,0.0,0.0,0.0,0.0,0.0042609652395272325,0.00213812501498023,0.0007793065197146124,0.0,0.0,0.0,0.0,0.0,0.0,0.0,0.0,0.0,-0.009185260459737499,0.17348780028192107,9.811710327517867,0.0,0.0,0.0,0.0,0.0,0.0,0.0,0.0,0.0
2025/04/09 10:24:49.504628133,1744187089,503325334,mA1/imu,0.7049502554575887,0.7092564697253704,5.650998057831299e-05,0.0006279248419364457,0.0,0.0,0.0,0.0,0.0,0.0,0.0,0.0,0.0,0.004317536875767082,0.0005907839016211405,-0.0004143129415235903,0.0,0.0,0.0,0.0,0.0,0.0,0.0,0.0,0.0,0.017277375217595658,0.7318058451777375,9.811389449323812,0.0,0.0,0.0,0.0,0.0,0.0,0.0,0.0,0.0
2025/04/09 10:24:49.555228337,1744187089,553129300,mA1/imu,0.7049375952161936,0.7092691414793901,-3.959488486566547e-05,0.0005198347275456371,0.0,0.0,0.0,0.0,0.0,0.0,0.0,0.0,0.0,0.006228296267076918,0.00023313144167711003,-0.0009224405344179324,0.0,0.0,0.0,0.0,0.0,0.0,0.0,0.0,0.0,0.016781681845091705,0.7971097762587339,9.81218153574702,0.0,0.0,0.0,0.0,0.0,0.0,0.0,0.0,0.0
2025/04/09 10:24:49.605971044,1744187089,604149539,mA1/imu,0.7049227381860803,0.709283969577279,-0.00013171728068958374,0.000407847391010327,0.0,0.0,0.0,0.0,0.0,0.0,0.0,0.0,0.0,0.008327014740298639,0.000704839669347096,-0.0008511609868600327,0.0,0.0,0.0,0.0,0.0,0.0,0.0,0.0,0.0,-0.003925466390451667,-0.34757273597354155,9.809869773847982,0.0,0.0,0.0,0.0,0.0,0.0,0.0,0.0,0.0
2025/04/09 10:24:49.655023176,1744187089,654140182,mA1/imu,0.7049070153976675,0.7092996310626578,-0.00021535334938130763,0.00029434752398634745,0.0,0.0,0.0,0.0,0.0,0.0,0.0,0.0,0.0,0.007067515585640291,0.0009202731444271031,-0.0009099032450196957,0.0,0.0,0.0,0.0,0.0,0.0,0.0,0.0,0.0,-0.004684525492088887,-0.46297118337342075,9.8118462348805,0.0,0.0,0.0,0.0,0.0,0.0,0.0,0.0,0.0
2025/04/09 10:24:49.706378226,1744187089,705532033,mA1/imu,-0.704889753904583,-0.7093167906079788,0.00031774305125622084,-0.00015633709244884615,0.0,0.0,0.0,0.0,0.0,0.0,0.0,0.0,0.0,0.007673020621121505,0.0010891990224382157,-0.0010100513818477983,0.0,0.0,0.0,0.0,0.0,0.0,0.0,0.0,0.0,-0.0015350296573613063,-0.32920178962321106,9.810138158824865,0.0,0.0,0.0,0.0,0.0,0.0,0.0,0.0,0.0
2025/04/09 10:24:49.757265191,1744187089,755424926,mA1/imu,-0.7048758225563031,-0.709330613536316,0.0003934445445875618,-2.6022276624826292e-05,0.0,0.0,0.0,0.0,0.0,0.0,0.0,0.0,0.0,0.005866654296975341,0.0025118200739797794,-0.00019965013007780874,0.0,0.0,0.0,0.0,0.0,0.0,0.0,0.0,0.0,-0.10189759447173932,0.5495600056360161,9.812102170675379,0.0,0.0,0.0,0.0,0.0,0.0,0.0,0.0,0.0
2025/04/09 10:24:49.797542975,1744187089,796596155,mA1/imu,-0.704881940048059,-0.7093245052506438,0.00042685579389232077,0.00012099233435595346,0.0,0.0,0.0,0.0,0.0,0.0,0.0,0.0,0.0,0.0046871442202373005,0.0036562015811264256,0.0007125230997357903,0.0,0.0,0.0,0.0,0.0,0.0,0.0,0.0,0.0,-0.03585678330241776,-0.04122476061133726,9.810470965084217,0.0,0.0,0.0,0.0,0.0,0.0,0.0,0.0,0.0
2025/04/09 10:24:49.848625702,1744187089,846746914,mA1/imu,-0.7049022067047654,-0.7093043185008262,0.00043550267020927994,0.00027032620042340626,0.0,0.0,0.0,0.0,0.0,0.0,0.0,0.0,0.0,0.003960673543023388,0.003889623768185681,0.0012398757345313516,0.0,0.0,0.0,0.0,0.0,0.0,0.0,0.0,0.0,0.012756939307572135,0.10441278777597454,9.810710944361265,0.0,0.0,0.0,0.0,0.0,0.0,0.0,0.0,0.0
2025/04/09 10:24:49.898814470,1744187089,897703409,mA1/imu,-0.7049272559829163,-0.7092793703370794,0.00042792904861983696,0.000394288423944316,0.0,0.0,0.0,0.0,0.0,0.0,0.0,0.0,0.0,0.002638406905396088,0.0035865330270144326,0.001524441177166554,0.0,0.0,0.0,0.0,0.0,0.0,0.0,0.0,0.0,-0.0034653775409071116,0.09471663893286668,9.809565538236814,0.0,0.0,0.0,0.0,0.0,0.0,0.0,0.0,0.0
2025/04/09 10:24:49.948403585,1744187089,947577028,mA1/imu,-0.70495892264249,-0.7092478509964941,0.0004040441224654904,0.0004898897239192917,0.0,0.0,0.0,0.0,0.0,0.0,0.0,0.0,0.0,0.0016034958340896868,0.003412578366399976,0.0021096711446555202,0.0,0.0,0.0,0.0,0.0,0.0,0.0,0.0,0.0,-0.03364509671272807,0.47505944767606306,9.808408242134977,0.0,0.0,0.0,0.0,0.0,0.0,0.0,0.0,0.0
2025/04/09 10:24:50.884642,1744187090,76795,mA1/imu,-0.7049992392823504,-0.7092077599073782,0.00035611053493136296,0.0005468855023486971,0.0,0.0,0.0,0.0,0.0,0.0,0.0,0.0,0.0,0.00010062338402280435,0.0026011270478700143,0.002343296751117068,0.0,0.0,0.0,0.0,0.0,0.0,0.0,0.0,0.0,0.009144969572325069,0.12707455149581426,9.808397113143801,0.0,0.0,0.0,0.0,0.0,0.0,0.0,0.0,0.0
2025/04/09 10:24:50.51101119,1744187090,49984683,mA1/imu,-0.7050412060235434,-0.7091660535079342,0.0003039535269971674,0.0005603330282273599,0.0,0.0,0.0,0.0,0.0,0.0,0.0,0.0,0.0,-0.0008324048117391079,0.0013352750698992413,0.0023799542562846607,0.0,0.0,0.0,0.0,0.0,0.0,0.0,0.0,0.0,0.009890976408544784,0.25324819968615164,9.81072582474973,0.0,0.0,0.0,0.0,0.0,0.0,0.0,0.0,0.0
2025/04/09 10:24:50.101632785,1744187090,100982493,mA1/imu,-0.7050837844351825,-0.7091237725654799,0.0002449860038439408,0.0005216233512885524,0.0,0.0,0.0,0.0,0.0,0.0,0.0,0.0,0.0,-0.004104032535901377,4.048085791818162e-05,0.0024152437677790483,0.0,0.0,0.0,0.0,0.0,0.0,0.0,0.0,0.0,0.00932157041915968,0.6607558798730929,9.809692214167542,0.0,0.0,0.0,0.0,0.0,0.0,0.0,0.0,0.0
2025/04/09 10:24:50.152405659,1744187090,150768383,mA1/imu,-0.7051266137368132,-0.7090812552027359,0.00019234275914382796,0.00044172891083341434,0.0,0.0,0.0,0.0,0.0,0.0,0.0,0.0,0.0,-0.004243363727776568,-0.0013759047474952324,0.002371837724301985,0.0,0.0,0.0,0.0,0.0,0.0,0.0,0.0,0.0,0.018308904696863075,0.10587905438927797,9.80926013923563,0.0,0.0,0.0,0.0,0.0,0.0,0.0,0.0,0.0
2025/04/09 10:24:50.203063578,1744187090,201735026,mA1/imu,-0.7051688556282077,-0.7090393265319977,0.00013983712754200237,0.00031452922455156004,0.0,0.0,0.0,0.0,0.0,0.0,0.0,0.0,0.0,-0.003605943248427344,-0.002603519952871214,0.0023874670656554116,0.0,0.0,0.0,0.0,0.0,0.0,0.0,0.0,0.0,0.0072940320093354705,-0.4030238930357131,9.807122289041452,0.0,0.0,0.0,0.0,0.0,0.0,0.0,0.0,0.0
2025/04/09 10:24:50.252673376,1744187090,251589875,mA1/imu,-0.7052112747017455,-0.7089971986142896,8.912298799510242e-05,0.00014982563781280243,0.0,0.0,0.0,0.0,0.0,0.0,0.0,0.0,0.0,-0.006768749461281683,-0.0036446556348969025,0.0023936871733003973,0.0,0.0,0.0,0.0,0.0,0.0,0.0,0.0,0.0,0.00883668117841523,0.6882507079273202,9.80942515500493,0.0,0.0,0.0,0.0,0.0,0.0,0.0,0.0,0.0
2025/04/09 10:24:50.303496962,1744187090,302549665,mA1/imu,-0.7052537809337505,-0.7089549356625524,4.565221581882091e-05,-3.992782178851789e-05,0.0,0.0,0.0,0.0,0.0,0.0,0.0,0.0,0.0,-0.007383593147180434,-0.004431803754118782,0.0024028323786557415,0.0,0.0,0.0,0.0,0.0,0.0,0.0,0.0,0.0,0.0036711076335127074,0.6836214615724742,9.810343005456085,0.0,0.0,0.0,0.0,0.0,0.0,0.0,0.0,0.0
2025/04/09 10:24:50.353938645,1744187090,352830323,mA1/imu,0.7052958895977061,0.7089130023692487,-4.1343252672803525e-06,0.00025133902465486653,0.0,0.0,0.0,0.0,0.0,0.0,0.0,0.0,0.0,-0.005973511240814146,-0.0051041339954052845,0.0023579748706215415,0.0,0.0,0.0,0.0,0.0,0.0,0.0,0.0,0.0,0.012391966117822617,-0.4603817283474151,9.807519623732443,0.0,0.0,0.0,0.0,0.0,0.0,0.0,0.0,0.0
2025/04/09 10:24:50.405451150,1744187090,404386956,mA1/imu,0.7053386202368597,0.7088703763670837,3.098261626731578e-05,0.00046834990101092853,0.0,0.0,0.0,0.0,0.0,0.0,0.0,0.0,0.0,-0.006003119909539239,-0.005164236083574393,0.002509799093414988,0.0,0.0,0.0,0.0,0.0,0.0,0.0,0.0,0.0,-0.006107730342973977,-0.46941485582347037,9.807323438949611,0.0,0.0,0.0,0.0,0.0,0.0,0.0,0.0,0.0
2025/04/09 10:24:50.455210454,1744187090,454227013,mA1/imu,0.7053873645281747,0.708821705022646,6.14945126886592e-05,0.00067280844979819,0.0,0.0,0.0,0.0,0.0,0.0,0.0,0.0,0.0,-0.005872961449425925,-0.00478537556658536,0.002918028524887847,0.0,0.0,0.0,0.0,0.0,0.0,0.0,0.0,0.0,-0.0037165870762271205,0.09632704409957207,9.808596257063845,0.0,0.0,0.0,0.0,0.0,0.0,0.0,0.0,0.0
2025/04/09 10:24:50.506066909,1744187090,505153611,mA1/imu,0.705430287666263,0.7087787575326019,8.150578667514587e-05,0.000880607995074296,0.0,0.0,0.0,0.0,0.0,0.0,0.0,0.0,0.0,-0.005219756551108128,-0.005327151052188956,0.0023004650961665303,0.0,0.0,0.0,0.0,0.0,0.0,0.0,0.0,0.0,0.00836479969758435,-0.44098309209470476,9.808984954891924,0.0,0.0,0.0,0.0,0.0,0.0,0.0,0.0,0.0
2025/04/09 10:24:50.557111502,1744187090,555011950,mA1/imu,0.7054696091411499,0.7087393558693222,9.37415080119108e-05,0.0010710894926317075,0.0,0.0,0.0,0.0,0.0,0.0,0.0,0.0,0.0,-0.005042116550869238,-0.0048278791312863075,0.002205219747148639,0.0,0.0,0.0,0.0,0.0,0.0,0.0,0.0,0.0,0.006250624527487923,-0.5374366756194501,9.810139238688576,0.0,0.0,0.0,0.0,0.0,0.0,0.0,0.0,0.0
2025/04/09 10:24:50.607974986,1744187090,606060092,mA1/imu,0.7055201933047175,0.7086887817483165,0.00010862727794971525,0.0012065087963202814,0.0,0.0,0.0,0.0,0.0,0.0,0.0,0.0,0.0,-0.004258593923930645,-0.0025131084668076095,0.0033138507847665514,0.0,0.0,0.0,0.0,0.0,0.0,0.0,0.0,0.0,-0.03680598967759054,0.06227497252898158,9.812413648403405,0.0,0.0,0.0,0.0,0.0,0.0,0.0,0.0,0.0
2025/04/09 10:24:50.647500164,1744187090,646603861,mA1/imu,0.705580564805298,0.7086285109579448,0.00012761060305077631,0.0012975908818451997,0.0,0.0,0.0,0.0,0.0,0.0,0.0,0.0,0.0,-0.0019872559178507683,-0.002304042579889604,0.0030908766914443933,0.0,0.0,0.0,0.0,0.0,0.0,0.0,0.0,0.0,0.06720588343404452,-0.5234809417472818,9.812459120923254,0.0,0.0,0.0,0.0,0.0,0.0,0.0,0.0,0.0
2025/04/09 10:24:50.698825759,1744187090,697547402,mA1/imu,0.7056227805230157,0.7085863200818013,0.00011368738960973316,0.0013804619070117742,0.0,0.0,0.0,0.0,0.0,0.0,0.0,0.0,0.0,-0.0018611490539480059,-0.003045996340960624,0.001888058358949055,0.0,0.0,0.0,0.0,0.0,0.0,0.0,0.0,0.0,0.06160014412341018,0.02870430638002877,9.817245965129919,0.0,0.0,0.0,0.0,0.0,0.0,0.0,0.0,0.0
2025/04/09 10:24:50.749716885,1744187090,747381994,mA1/imu,0.7056442147854277,0.7085648413550013,6.964385340707177e-05,0.0014501328051748483,0.0,0.0,0.0,0.0,0.0,0.0,0.0,0.0,0.0,-0.0004486488418150236,-0.002958948371085553,0.0009620986821198166,0.0,0.0,0.0,0.0,0.0,0.0,0.0,0.0,0.0,0.008012664254263677,0.222706523999974,9.813868452411034,0.0,0.0,0.0,0.0,0.0,0.0,0.0,0.0,0.0
2025/04/09 10:24:50.800508285,1744187090,798398110,mA1/imu,0.7056598447059939,0.7085492365085141,1.7683055098963478e-05,0.0014706121256473693,0.0,0.0,0.0,0.0,0.0,0.0,0.0,0.0,0.0,0.001830983573003771,-0.0014188341598972757,0.0008260089132659324,0.0,0.0,0.0,0.0,0.0,0.0,0.0,0.0,0.0,-0.0001884247402904292,0.10673126779003868,9.811999609190725,0.0,0.0,0.0,0.0,0.0,0.0,0.0,0.0,0.0
2025/04/09 10:24:50.849941715,1744187090,848763193,mA1/imu,0.7056730958913271,0.7085361020684043,-2.938606037879046e-05,0.001439769884688959,0.0,0.0,0.0,0.0,0.0,0.0,0.0,0.0,0.0,0.0026907729525458292,0.0001922538837538934,0.0006848037102675006,0.0,0.0,0.0,0.0,0.0,0.0,0.0,0.0,0.0,-0.0004029317746349695,0.21059018593493428,9.812175544550094,0.0,0.0,0.0,0.0,0.0,0.0,0.0,0.0,0.0
2025/04/09 10:24:50.901251951,1744187090,900132095,mA1/imu,0.7056758079143756,0.7085335370044409,-8.099806453413323e-05,0.00136912515255035,0.0,0.0,0.0,0.0,0.0,0.0,0.0,0.0,0.0,0.004397732357240006,0.0011055276456135253,-1.0766203605757374e-05,0.0,0.0,0.0,0.0,0.0,0.0,0.0,0.0,0.0,-0.0027290068807256755,-0.22930722010135163,9.812078589397169,0.0,0.0,0.0,0.0,0.0,0.0,0.0,0.0,0.0
2025/04/09 10:24:50.951614805,1744187090,950599433,mA1/imu,0.7056736530856201,0.7085358933924788,-0.0001246935486483682,0.0012520250942280845,0.0,0.0,0.0,0.0,0.0,0.0,0.0,0.0,0.0,0.00445768950423669,0.002723952629551431,-0.0002058131808209386,0.0,0.0,0.0,0.0,0.0,0.0,0.0,0.0,0.0,-0.0011926537473685266,0.658482307000205,9.813227886373687,0.0,0.0,0.0,0.0,0.0,0.0,0.0,0.0,0.0
2025/04/09 10:24:51.2783157,1744187091,1563020,mA1/imu,0.7056761077476633,0.7085337221493536,-0.0001481043404691137,0.0010833265413466228,0.0,0.0,0.0,0.0,0.0,0.0,0.0,0.0,0.0,0.0052408243575794095,0.0047214125254597785,0.00015289191292808965,0.0,0.0,0.0,0.0,0.0,0.0,0.0,0.0,0.0,0.0038577576596001938,0.24596775642062318,9.812522473812479,0.0,0.0,0.0,0.0,0.0,0.0,0.0,0.0,0.0
2025/04/09 10:24:51.53474662,1744187091,51449418,mA1/imu,0.7056776918124475,0.7085324263657089,-0.00016653808825811185,0.0008765452884691953,0.0,0.0,0.0,0.0,0.0,0.0,0.0,0.0,0.0,0.005480350443090182,0.00572063263574609,3.6092521567158514e-05,0.0,0.0,0.0,0.0,0.0,0.0,0.0,0.0,0.0,0.004572423873037225,0.6344944081242938,9.81046478207077,0.0,0.0,0.0,0.0,0.0,0.0,0.0,0.0,0.0
2025/04/09 10:24:51.103082025,1744187091,102399207,mA1/imu,0.7056854157517745,0.7085249819267184,-0.0001633675741544344,0.0006459814427776121,0.0,0.0,0.0,0.0,0.0,0.0,0.0,0.0,0.0,0.00571602845082048,0.0068881029725739755,0.00048535142370827677,0.0,0.0,0.0,0.0,0.0,0.0,0.0,0.0,0.0,0.01047501332606158,0.634454150937028,9.810548581333627,0.0,0.0,0.0,0.0,0.0,0.0,0.0,0.0,0.0
2025/04/09 10:24:51.154682988,1744187091,152317910,mA1/imu,0.7056936235694597,0.7085169870336407,-0.00015875018187960484,0.00040439653464638864,0.0,0.0,0.0,0.0,0.0,0.0,0.0,0.0,0.0,0.0070474370925754405,0.006985818044841748,0.000437857473938225,0.0,0.0,0.0,0.0,0.0,0.0,0.0,0.0,0.0,0.010648082770803369,0.10418805342771806,9.811162835557468,0.0,0.0,0.0,0.0,0.0,0.0,0.0,0.0,0.0
2025/04/09 10:24:51.204667614,1744187091,203298724,mA1/imu,0.7057009288782254,0.7085098070356234,-0.00014930808769908274,0.0001732681402167919,0.0,0.0,0.0,0.0,0.0,0.0,0.0,0.0,0.0,0.007059572998316915,0.006648546758625659,0.00038881420463224184,0.0,0.0,0.0,0.0,0.0,0.0,0.0,0.0,0.0,0.01292630874117406,0.1319546781983542,9.81046614436841,0.0,0.0,0.0,0.0,0.0,0.0,0.0,0.0,0.0
2025/04/09 10:24:51.254156202,1744187091,253063720,mA1/imu,-0.7057073701845673,-0.7085034142023542,0.00013618597004660157,3.441178480752331e-05,0.0,0.0,0.0,0.0,0.0,0.0,0.0,0.0,0.0,0.0063433392333372834,0.005939897473588957,0.0003499633766082582,0.0,0.0,0.0,0.0,0.0,0.0,0.0,0.0,0.0,0.013914147320809776,0.12744137698223418,9.809484608620476,0.0,0.0,0.0,0.0,0.0,0.0,0.0,0.0,0.0
2025/04/09 10:24:51.305151787,1744187091,304045556,mA1/imu,-0.7057217603112091,-0.708489048819466,0.00011506283731916011,0.00022690676561236032,0.0,0.0,0.0,0.0,0.0,0.0,0.0,0.0,0.0,0.003720364947751959,0.005672099619514845,0.0009054520674426586,0.0,0.0,0.0,0.0,0.0,0.0,0.0,0.0,0.0,0.018904876816732478,0.6353971381694735,9.809051173815622,0.0,0.0,0.0,0.0,0.0,0.0,0.0,0.0,0.0
2025/04/09 10:24:51.354540155,1744187091,353903038,mA1/imu,-0.7057381036381848,-0.7084727040101609,0.00010160653759581649,0.0003826510434527624,0.0,0.0,0.0,0.0,0.0,0.0,0.0,0.0,0.0,0.003542700518740552,0.004172678810861218,0.0009399186916945798,0.0,0.0,0.0,0.0,0.0,0.0,0.0,0.0,0.0,0.01950000154450833,0.372740155346452,9.808385182007648,0.0,0.0,0.0,0.0,0.0,0.0,0.0,0.0,0.0
2025/04/09 10:24:51.405710405,1744187091,404860107,mA1/imu,-0.705762837079551,-0.7084479985091258,8.387054009308473e-05,0.0004941371970482787,0.0,0.0,0.0,0.0,0.0,0.0,0.0,0.0,0.0,0.002919803767539305,0.002985618877115617,0.0015183559793278095,0.0,0.0,0.0,0.0,0.0,0.0,0.0,0.0,0.0,0.02286293959230702,0.22338037583625706,9.808097242024322,0.0,0.0,0.0,0.0,0.0,0.0,0.0,0.0,0.0
2025/04/09 10:24:51.456362140,1744187091,455246672,mA1/imu,-0.7057907269270633,-0.7084201810064968,6.746732332435127e-05,0.0005407167929262853,0.0,0.0,0.0,0.0,0.0,0.0,0.0,0.0,0.0,0.0013580725525172497,0.0009622641385072376,0.0016091935097662963,0.0,0.0,0.0,0.0,0.0,0.0,0.0,0.0,0.0,0.02264092518165054,0.1120315741213916,9.807247826975813,0.0,0.0,0.0,0.0,0.0,0.0,0.0,0.0,0.0
2025/04/09 10:24:51.508678183,1744187091,506230320,mA1/imu,-0.7058110700354104,-0.7083999302329944,7.264769842402598e-05,0.0005167046249866859,0.0,0.0,0.0,0.0,0.0,0.0,0.0,0.0,0.0,-0.002310133174469237,-0.001692732955920165,0.0010712983393016847,0.0,0.0,0.0,0.0,0.0,0.0,0.0,0.0,0.0,0.018916544029743826,0.11848571435342727,9.807566964693123,0.0,0.0,0.0,0.0,0.0,0.0,0.0,0.0,0.0
2025/04/09 10:24:51.549144720,1744187091,546055393,mA1/imu,-0.7058303437725449,-0.7083807737953096,9.652567495969084e-05,0.0004425041057255178,0.0,0.0,0.0,0.0,0.0,0.0,0.0,0.0,0.0,-0.002456315224987667,-0.0034529802931689223,0.0010988205984433378,0.0,0.0,0.0,0.0,0.0,0.0,0.0,0.0,0.0,0.017177363594202664,0.6017728844992574,9.80852402533344,0.0,0.0,0.0,0.0,0.0,0.0,0.0,0.0,0.0
2025/04/09 10:24:51.598606827,1744187091,596995049,mA1/imu,-0.7058616721517373,-0.708349625609813,9.303216994651347e-05,0.00031469128762760834,0.0,0.0,0.0,0.0,0.0,0.0,0.0,0.0,0.0,-0.0033510342373115408,-0.003799616784028379,0.002081011440920519,0.0,0.0,0.0,0.0,0.0,0.0,0.0,0.0,0.0,0.02057502980347147,-0.5576459126343418,9.806345515347214,0.0,0.0,0.0,0.0,0.0,0.0,0.0,0.0,0.0
2025/04/09 10:24:51.647617687,1744187091,646873858,mA1/imu,-0.7058994667735016,-0.7083120110664208,0.00010656428235790998,0.00016257915824922128,0.0,0.0,0.0,0.0,0.0,0.0,0.0,0.0,0.0,-0.005083384104949597,-0.00524115960726426,0.0021656593319773474,0.0,0.0,0.0,0.0,0.0,0.0,0.0,0.0,0.0,0.018651411083663947,0.031538863686884924,9.808629181207083,0.0,0.0,0.0,0.0,0.0,0.0,0.0,0.0,0.0
2025/04/09 10:24:51.698927231,1744187091,697755459,mA1/imu,-0.7059294735570417,-0.7082821181880232,0.00013092237095590649,-4.772732684497263e-05,0.0,0.0,0.0,0.0,0.0,0.0,0.0,0.0,0.0,-0.006488825526150397,-0.007117851020358869,0.0016133430409476137,0.0,0.0,0.0,0.0,0.0,0.0,0.0,0.0,0.0,0.012197477330938079,0.6392253052078354,9.80822093576939,0.0,0.0,0.0,0.0,0.0,0.0,0.0,0.0,0.0
2025/04/09 10:24:51.748542876,1744187091,747665045,mA1/imu,0.7059582499874284,0.7082533737490461,-0.0001513063020692161,0.00029146901095085186,0.0,0.0,0.0,0.0,0.0,0.0,0.0,0.0,0.0,-0.006234993732037002,-0.007663584281551712,0.001636260179944262,0.0,0.0,0.0,0.0,0.0,0.0,0.0,0.0,0.0,0.011942355113022704,0.07488095740284545,9.809098319627836,0.0,0.0,0.0,0.0,0.0,0.0,0.0,0.0,0.0
2025/04/09 10:24:51.799249665,1744187091,798581228,mA1/imu,0.7059873097618421,0.7082242509177517,-0.00016799225386122395,0.0005483117993875487,0.0,0.0,0.0,0.0,0.0,0.0,0.0,0.0,0.0,-0.0050754796420565745,-0.007747530295257196,0.0016545610947234573,0.0,0.0,0.0,0.0,0.0,0.0,0.0,0.0,0.0,0.008493629973238168,-0.44664471052590143,9.80860109456328,0.0,0.0,0.0,0.0,0.0,0.0,0.0,0.0,0.0
2025/04/09 10:24:51.850027966,1744187091,848478159,mA1/imu,0.7060166216198961,0.7081947823402684,-0.0001775520410176644,0.0008054425622760232,0.0,0.0,0.0,0.0,0.0,0.0,0.0,0.0,0.0,-0.0058915930108432496,-0.007376302305712457,0.0016656409113805664,0.0,0.0,0.0,0.0,0.0,0.0,0.0,0.0,0.0,0.008518972288813223,-0.020284419611553042,9.81016070361397,0.0,0.0,0.0,0.0,0.0,0.0,0.0,0.0,0.0
2025/04/09 10:24:51.901425285,1744187091,899738189,mA1/imu,0.7060369109067419,0.708174211082385,-0.00018111640020912083,0.0010650783804742208,0.0,0.0,0.0,0.0,0.0,0.0,0.0,0.0,0.0,-0.005914879374412246,-0.007167537271252159,0.0010476001259732866,0.0,0.0,0.0,0.0,0.0,0.0,0.0,0.0,0.0,0.0023321518536968903,-0.5151634991584522,9.8102843080458,0.0,0.0,0.0,0.0,0.0,0.0,0.0,0.0,0.0
2025/04/09 10:24:51.950586305,1744187091,949606124,mA1/imu,0.7060546965296441,0.7081560980165988,-0.0001768255362850573,0.001294250001756638,0.0,0.0,0.0,0.0,0.0,0.0,0.0,0.0,0.0,-0.006244058839910891,-0.005788288534943473,0.0010024548024031865,0.0,0.0,0.0,0.0,0.0,0.0,0.0,0.0,0.0,0.001786515467511525,-0.512033964429028,9.810269261159624,0.0,0.0,0.0,0.0,0.0,0.0,0.0,0.0,0.0
2025/04/09 10:24:52.1424269,1744187092,566967,mA1/imu,0.7060797399582784,0.7081307873130996,-0.00014714565545854638,0.0014721507856131227,0.0,0.0,0.0,0.0,0.0,0.0,0.0,0.0,0.0,-0.006639928048424339,-0.003411524880038321,0.001518250382530235,0.0,0.0,0.0,0.0,0.0,0.0,0.0,0.0,0.0,0.004642799686147985,0.3670347549348859,9.812269253275348,0.0,0.0,0.0,0.0,0.0,0.0,0.0,0.0,0.0
2025/04/09 10:24:52.51663153,1744187092,50393973,mA1/imu,0.7061066466310627,0.7081036954699048,-0.00010677779847408314,0.0015964472435823823,0.0,0.0,0.0,0.0,0.0,0.0,0.0,0.0,0.0,-0.004567741169572132,-0.001666599310067472,0.0015329161584151216,0.0,0.0,0.0,0.0,0.0,0.0,0.0,0.0,0.0,0.003717189162902982,0.11057864291136855,9.813037196058922,0.0,0.0,0.0,0.0,0.0,0.0,0.0,0.0,0.0
2025/04/09 10:24:52.103580402,1744187092,101315620,mA1/imu,0.7061239557852922,0.7080862302487386,-6.0496122477352206e-05,0.0016869909544055266,0.0,0.0,0.0,0.0,0.0,0.0,0.0,0.0,0.0,-0.0036361598500926876,-0.0006024848517936891,0.0007955079544166943,0.0,0.0,0.0,0.0,0.0,0.0,0.0,0.0,0.0,-0.0018388542270383716,0.6445944000024505,9.814629098790544,0.0,0.0,0.0,0.0,0.0,0.0,0.0,0.0,0.0
2025/04/09 10:24:52.152824283,1744187092,151699738,mA1/imu,0.7061362958651144,0.7080738519088932,-6.554906810740083e-06,0.0017180983184141951,0.0,0.0,0.0,0.0,0.0,0.0,0.0,0.0,0.0,-0.001405646632953262,0.0014432148201689796,0.0006627987621674066,0.0,0.0,0.0,0.0,0.0,0.0,0.0,0.0,0.0,-0.0004130298279625827,0.07553939652985713,9.813954044319678,0.0,0.0,0.0,0.0,0.0,0.0,0.0,0.0,0.0
2025/04/09 10:24:52.205229727,1744187092,202698448,mA1/imu,0.706144168259515,0.7080660473446301,5.8602809198368515e-05,0.0016978800135371136,0.0,0.0,0.0,0.0,0.0,0.0,0.0,0.0,0.0,-0.001151842707386841,0.0031409532093179485,0.00036923806911125576,0.0,0.0,0.0,0.0,0.0,0.0,0.0,0.0,0.0,-0.00031926469859117415,0.1248244095035515,9.813695987184607,0.0,0.0,0.0,0.0,0.0,0.0,0.0,0.0,0.0
2025/04/09 10:24:52.254856943,1744187092,252551909,mA1/imu,0.7061493609730455,0.7080610538984425,0.0001250187240894922,0.0016150293821307088,0.0,0.0,0.0,0.0,0.0,0.0,0.0,0.0,0.0,0.0008502355870383474,0.00491328380699607,0.0002472308188063683,0.0,0.0,0.0,0.0,0.0,0.0,0.0,0.0,0.0,0.00022383057577987295,0.02910361847072322,9.812972436611602,0.0,0.0,0.0,0.0,0.0,0.0,0.0,0.0,0.0
2025/04/09 10:24:52.304450554,1744187092,303448179,mA1/imu,0.7061600335600692,0.7080507037837304,0.00020544649912813831,0.001471620039938771,0.0,0.0,0.0,0.0,0.0,0.0,0.0,0.0,0.0,0.002524675298458548,0.0069233733037744995,0.0006500735827044146,0.0,0.0,0.0,0.0,0.0,0.0,0.0,0.0,0.0,0.00626242357002213,-0.05985781705536816,9.81248689706442,0.0,0.0,0.0,0.0,0.0,0.0,0.0,0.0,0.0
2025/04/09 10:24:52.354562803,1744187092,353382788,mA1/imu,0.7061711004081371,0.7080400024780635,0.0002838653296945218,0.0012850135014572895,0.0,0.0,0.0,0.0,0.0,0.0,0.0,0.0,0.0,0.002895409230407505,0.007826755126037546,0.0006087592118058587,0.0,0.0,0.0,0.0,0.0,0.0,0.0,0.0,0.0,0.00723829243800553,0.3032824230261547,9.812733319640918,0.0,0.0,0.0,0.0,0.0,0.0,0.0,0.0,0.0
2025/04/09 10:24:52.405383273,1744187092,404319563,mA1/imu,0.7061894476595447,0.7080220428461895,0.00036173439633903045,0.0010583035681048653,0.0,0.0,0.0,0.0,0.0,0.0,0.0,0.0,0.0,0.0039893765019195886,0.00879184859424736,0.001120225665401234,0.0,0.0,0.0,0.0,0.0,0.0,0.0,0.0,0.0,0.014036180203532691,-0.020904379986791847,9.8122600532013,0.0,0.0,0.0,0.0,0.0,0.0,0.0,0.0,0.0
2025/04/09 10:24:52.447804116,1744187092,445793226,mA1/imu,0.7062095962342607,0.7080022441802213,0.00041867867429511147,0.0008081649462058291,0.0,0.0,0.0,0.0,0.0,0.0,0.0,0.0,0.0,0.006542654859451567,0.008548484500449047,0.0011458912580800107,0.0,0.0,0.0,0.0,0.0,0.0,0.0,0.0,0.0,0.014404434929401782,-0.5286658272361,9.810683367966135,0.0,0.0,0.0,0.0,0.0,0.0,0.0,0.0,0.0
2025/04/09 10:24:52.497984338,1744187092,497023918,mA1/imu,0.7062301532146134,0.7079819568335415,0.00045611740175799875,0.0005580730497652703,0.0,0.0,0.0,0.0,0.0,0.0,0.0,0.0,0.0,0.006781880203330368,0.007794534033312817,0.0011706210692803522,0.0,0.0,0.0,0.0,0.0,0.0,0.0,0.0,0.0,0.016539860315227382,0.1964283577694991,9.809667869273214,0.0,0.0,0.0,0.0,0.0,0.0,0.0,0.0,0.0
2025/04/09 10:24:52.549085990,1744187092,547909538,mA1/imu,0.7062510621083764,0.7079612338100209,0.00047304823133383035,0.0003239110280069918,0.0,0.0,0.0,0.0,0.0,0.0,0.0,0.0,0.0,0.007108516722814377,0.0065824448212072,0.0011874412425651655,0.0,0.0,0.0,0.0,0.0,0.0,0.0,0.0,0.0,0.017867194272984298,0.08021021848856719,9.807876673199349,0.0,0.0,0.0,0.0,0.0,0.0,0.0,0.0,0.0
2025/04/09 10:24:52.599759250,1744187092,598904718,mA1/imu,0.7062706089401938,0.7079418078600542,0.0004600337815604919,0.00010954453682549014,0.0,0.0,0.0,0.0,0.0,0.0,0.0,0.0,0.0,0.007095441677626545,0.005059933527803382,0.0010775508263856674,0.0,0.0,0.0,0.0,0.0,0.0,0.0,0.0,0.0,0.017266107711202593,0.020556127500194032,9.80773838816067,0.0,0.0,0.0,0.0,0.0,0.0,0.0,0.0,0.0
2025/04/09 10:24:52.649768159,1744187092,648686588,mA1/imu,0.7062893685036215,0.7079231189799413,0.00042561926077414205,-6.633786521966685e-05,0.0,0.0,0.0,0.0,0.0,0.0,0.0,0.0,0.0,0.004823612958463344,0.0032788417269672596,0.0010470698048713747,0.0,0.0,0.0,0.0,0.0,0.0,0.0,0.0,0.0,0.01745175642952715,0.5764817308470217,9.80853654435482,0.0,0.0,0.0,0.0,0.0,0.0,0.0,0.0,0.0
2025/04/09 10:24:52.701757100,1744187092,699679513,mA1/imu,0.7062982139002724,0.7079143138193901,0.00034604140071337584,-0.00019387175250826523,0.0,0.0,0.0,0.0,0.0,0.0,0.0,0.0,0.0,0.006515908537844153,0.0005112309580567596,0.0003709986316747164,0.0,0.0,0.0,0.0,0.0,0.0,0.0,0.0,0.0,0.013856277608337821,-0.5181514511886713,9.806326998999412,0.0,0.0,0.0,0.0,0.0,0.0,0.0,0.0,0.0
2025/04/09 10:24:52.751231928,1744187092,749507035,mA1/imu,-0.7063037478822608,-0.7079088083657418,-0.00025022358949456817,0.0002686146355531522,0.0,0.0,0.0,0.0,0.0,0.0,0.0,0.0,0.0,0.004891989340530092,-0.0013105393282144733,0.00027956610418354517,0.0,0.0,0.0,0.0,0.0,0.0,0.0,0.0,0.0,0.01341944677080691,0.06359978993013614,9.807521976947982,0.0,0.0,0.0,0.0,0.0,0.0,0.0,0.0,0.0
2025/04/09 10:24:52.801319699,1744187092,800431037,mA1/imu,-0.7063090506010893,-0.7079035380578125,-0.00014293548711613726,0.00029225616456820045,0.0,0.0,0.0,0.0,0.0,0.0,0.0,0.0,0.0,0.004104826345097251,-0.0030597969501214013,0.00029370959239954887,0.0,0.0,0.0,0.0,0.0,0.0,0.0,0.0,0.0,0.013962691223768121,-0.56589044331579,9.80596916990492,0.0,0.0,0.0,0.0,0.0,0.0,0.0,0.0,0.0
2025/04/09 10:24:52.851126045,1744187092,850333842,mA1/imu,-0.7063137036232702,-0.707898915382072,-1.5004167615428448e-05,0.0002782979346131897,0.0,0.0,0.0,0.0,0.0,0.0,0.0,0.0,0.0,0.001625377371434856,-0.004608928330899652,0.00024412644901704788,0.0,0.0,0.0,0.0,0.0,0.0,0.0,0.0,0.0,0.01317322943092918,-0.027113113134648405,9.805752740917875,0.0,0.0,0.0,0.0,0.0,0.0,0.0,0.0,0.0
2025/04/09 10:24:52.902948508,1744187092,901826532,mA1/imu,-0.7063174852575377,-0.7078951534549061,0.00011697549490126633,0.0002192059683268709,0.0,0.0,0.0,0.0,0.0,0.0,0.0,0.0,0.0,0.0015833618255296656,-0.005869222697663583,0.00019620600039861583,0.0,0.0,0.0,0.0,0.0,0.0,0.0,0.0,0.0,0.010466534441381388,0.09280633608097567,9.806524380367092,0.0,0.0,0.0,0.0,0.0,0.0,0.0,0.0,0.0
2025/04/09 10:24:52.953135911,1744187092,951811899,mA1/imu,-0.7063204413167075,-0.7078922018921329,0.00023157758295532172,0.00010512041886897958,0.0,0.0,0.0,0.0,0.0,0.0,0.0,0.0,0.0,0.0011972090472198444,-0.006828412892756566,0.00014918167549804885,0.0,0.0,0.0,0.0,0.0,0.0,0.0,0.0,0.0,0.010481051732131633,-0.5098608578739932,9.808607725124402,0.0,0.0,0.0,0.0,0.0,0.0,0.0,0.0,0.0
2025/04/09 10:24:53.5364511,1744187093,4530755,mA1/imu,-0.7063225376084822,-0.7078900726016635,0.00034148532355622824,-3.696078253772182e-05,0.0,0.0,0.0,0.0,0.0,0.0,0.0,0.0,0.0,-0.0019957767783597637,-0.007284232014613942,0.0001032505974390402,0.0,0.0,0.0,0.0,0.0,0.0,0.0,0.0,0.0,0.007819184486161885,-0.01101246227452566,9.809170707486638,0.0,0.0,0.0,0.0,0.0,0.0,0.0,0.0,0.0
2025/04/09 10:24:53.57711882,1744187093,54442870,mA1/imu,-0.7063211630272634,-0.7078913620217432,0.0004365110184778426,-0.00020902857683171043,0.0,0.0,0.0,0.0,0.0,0.0,0.0,0.0,0.0,-0.003635171373322654,-0.00800135071591939,-0.0004403505239249881,0.0,0.0,0.0,0.0,0.0,0.0,0.0,0.0,0.0,0.05850058847163802,-0.04731003842898834,9.805051189648353,0.0,0.0,0.0,0.0,0.0,0.0,0.0,0.0,0.0
2025/04/09 10:24:53.106247413,1744187093,105392421,mA1/imu,-0.7063045132366638,-0.7079078229438883,0.0005227149419522886,-0.00041900531402113236,0.0,0.0,0.0,0.0,0.0,0.0,0.0,0.0,0.0,-0.005037395436822519,-0.008175816165472553,-0.0010244725821889282,0.0,0.0,0.0,0.0,0.0,0.0,0.0,0.0,0.0,-8.459563104744848e-05,0.5856638390942873,9.810063959721521,0.0,0.0,0.0,0.0,0.0,0.0,0.0,0.0,0.0
2025/04/09 10:24:53.155960626,1744187093,155257767,mA1/imu,0.7062851095937007,0.7079269807641997,-0.0005740241567771769,0.0006358998082165477,0.0,0.0,0.0,0.0,0.0,0.0,0.0,0.0,0.0,-0.006154814136258649,-0.00712629953058425,-0.0011265765429121846,0.0,0.0,0.0,0.0,0.0,0.0,0.0,0.0,0.0,-0.0010051606543636411,0.3965155156380468,9.811253991195823,0.0,0.0,0.0,0.0,0.0,0.0,0.0,0.0,0.0
