time,header_stamp_secs,header_stamp_nsecs,header_frame_id,status_status,status_service,latitude,longitude,altitude,position_covariance_0,position_covariance_1,position_covariance_2,position_covariance_3,position_covariance_4,position_covariance_5,position_covariance_6,position_covariance_7,position_covariance_8,position_covariance_type
2025/04/09 10:24:44.455523002,1744187084,454862814,mA1/gps,0,1,63.43459473077466,10.393091732568822,0.0,1.4400000000000002e-10,0.0,0.0,0.0,1.4400000000000002e-10,0.0,0.0,0.0,1.0,2
2025/04/09 10:24:44.498956741,1744187084,498690173,mA1/gps,0,1,63.434594738268494,10.39309173110244,0.0,1.4400000000000002e-10,0.0,0.0,0.0,1.4400000000000002e-10,0.0,0.0,0.0,1.0,2
2025/04/09 10:24:44.551373308,1744187084,551218997,mA1/gps,0,1,63.4345947465519,10.39309173115073,0.0,1.4400000000000002e-10,0.0,0.0,0.0,1.4400000000000002e-10,0.0,0.0,0.0,1.0,2
2025/04/09 10:24:44.607236162,1744187084,606949833,mA1/gps,0,1,63.434594755038454,10.393091730053907,0.0,1.4400000000000002e-10,0.0,0.0,0.0,1.4400000000000002e-10,0.0,0.0,0.0,1.0,2
2025/04/09 10:24:44.649965498,1744187084,649080228,mA1/gps,0,1,63.43459476378561,10.393091729390916,0.0,1.4400000000000002e-10,0.0,0.0,0.0,1.4400000000000002e-10,0.0,0.0,0.0,1.0,2
2025/04/09 10:24:44.700929182,1744187084,700505809,mA1/gps,0,1,63.43459477310623,10.393091728497009,0.0,1.4400000000000002e-10,0.0,0.0,0.0,1.4400000000000002e-10,0.0,0.0,0.0,1.0,2
2025/04/09 10:24:44.752241887,1744187084,752119155,mA1/gps,0,1,63.43459478254579,10.393091727839073,0.0,1.4400000000000002e-10,0.0,0.0,0.0,1.4400000000000002e-10,0.0,0.0,0.0,1.0,2
2025/04/09 10:24:44.804726416,1744187084,804615536,mA1/gps,0,1,63.43459479198597,10.393091727318831,0.0,1.4400000000000002e-10,0.0,0.0,0.0,1.4400000000000002e-10,0.0,0.0,0.0,1.0,2
2025/04/09 10:24:44.854622078,1744187084,854382489,mA1/gps,0,1,63.43459480187356,10.393091727029807,0.0,1.4400000000000002e-10,0.0,0.0,0.0,1.4400000000000002e-10,0.0,0.0,0.0,1.0,2
2025/04/09 10:24:44.905574226,1744187084,905335729,mA1/gps,0,1,63.43459481132676,10.393091726718964,0.0,1.4400000000000002e-10,0.0,0.0,0.0,1.4400000000000002e-10,0.0,0.0,0.0,1.0,2
2025/04/09 10:24:44.957361831,1744187084,955580618,mA1/gps,0,1,63.434594821030444,10.393091726851624,0.0,1.4400000000000002e-10,0.0,0.0,0.0,1.4400000000000002e-10,0.0,0.0,0.0,1.0,2
2025/04/09 10:24:45.8744506,1744187085,6404192,mA1/gps,0,1,63.434594830369534,10.393091726985931,0.0,1.4400000000000002e-10,0.0,0.0,0.0,1.4400000000000002e-10,0.0,0.0,0.0,1.0,2
2025/04/09 10:24:45.47055729,1744187085,46138557,mA1/gps,0,1,63.43459483947127,10.393091727470242,0.0,1.4400000000000002e-10,0.0,0.0,0.0,1.4400000000000002e-10,0.0,0.0,0.0,1.0,2
2025/04/09 10:24:45.97284530,1744187085,97134988,mA1/gps,0,1,63.43459484796711,10.393091727783945,0.0,1.4400000000000002e-10,0.0,0.0,0.0,1.4400000000000002e-10,0.0,0.0,0.0,1.0,2
2025/04/09 10:24:45.148884809,1744187085,147675829,mA1/gps,0,1,63.43459485598866,10.393091727865603,0.0,1.4400000000000002e-10,0.0,0.0,0.0,1.4400000000000002e-10,0.0,0.0,0.0,1.0,2
2025/04/09 10:24:45.198538428,1744187085,198251140,mA1/gps,0,1,63.43459486360302,10.393091728936497,0.0,1.4400000000000002e-10,0.0,0.0,0.0,1.4400000000000002e-10,0.0,0.0,0.0,1.0,2
2025/04/09 10:24:45.248723144,1744187085,248313917,mA1/gps,0,1,63.434594870493754,10.39309172921713,0.0,1.4400000000000002e-10,0.0,0.0,0.0,1.4400000000000002e-10,0.0,0.0,0.0,1.0,2
2025/04/09 10:24:45.299945801,1744187085,299674967,mA1/gps,0,1,63.43459487722686,10.393091729578652,0.0,1.4400000000000002e-10,0.0,0.0,0.0,1.4400000000000002e-10,0.0,0.0,0.0,1.0,2
2025/04/09 10:24:45.356308201,1744187085,355752453,mA1/gps,0,1,63.434594883535354,10.393091729461695,0.0,1.4400000000000002e-10,0.0,0.0,0.0,1.4400000000000002e-10,0.0,0.0,0.0,1.0,2
2025/04/09 10:24:45.407101523,1744187085,404446436,mA1/gps,0,1,63.43459488900298,10.393091730282944,0.0,1.4400000000000002e-10,0.0,0.0,0.0,1.4400000000000002e-10,0.0,0.0,0.0,1.0,2
2025/04/09 10:24:45.455374465,1744187085,455146446,mA1/gps,0,1,63.434594894195804,10.393091730199666,0.0,1.4400000000000002e-10,0.0,0.0,0.0,1.4400000000000002e-10,0.0,0.0,0.0,1.0,2
2025/04/09 10:24:45.506316337,1744187085,506085398,mA1/gps,0,1,63.434594900055515,10.39309172994285,0.0,1.4400000000000002e-10,0.0,0.0,0.0,1.4400000000000002e-10,0.0,0.0,0.0,1.0,2
2025/04/09 10:24:45.546230879,1744187085,545984754,mA1/gps,0,1,63.43459490488775,10.39309173023548,0.0,1.4400000000000002e-10,0.0,0.0,0.0,1.4400000000000002e-10,0.0,0.0,0.0,1.0,2
2025/04/09 10:24:45.597271759,1744187085,597020181,mA1/gps,0,1,63.434594909525245,10.393091730064654,0.0,1.4400000000000002e-10,0.0,0.0,0.0,1.4400000000000002e-10,0.0,0.0,0.0,1.0,2
2025/04/09 10:24:45.647091060,1744187085,646841047,mA1/gps,0,1,63.43459491419875,10.393091729282743,0.0,1.4400000000000002e-10,0.0,0.0,0.0,1.4400000000000002e-10,0.0,0.0,0.0,1.0,2
2025/04/09 10:24:45.698106612,1744187085,697856600,mA1/gps,0,1,63.43459491986871,10.39309172934593,0.0,1.4400000000000002e-10,0.0,0.0,0.0,1.4400000000000002e-10,0.0,0.0,0.0,1.0,2
2025/04/09 10:24:45.748027142,1744187085,747687338,mA1/gps,0,1,63.43459492509278,10.393091728796282,0.0,1.4400000000000002e-10,0.0,0.0,0.0,1.4400000000000002e-10,0.0,0.0,0.0,1.0,2
2025/04/09 10:24:45.798853437,1744187085,798626558,mA1/gps,0,1,63.434594930453244,10.393091728425128,0.0,1.4400000000000002e-10,0.0,0.0,0.0,1.4400000000000002e-10,0.0,0.0,0.0,1.0,2
2025/04/09 10:24:45.848721905,1744187085,848430031,mA1/gps,0,1,63.4345949364085,10.393091727857186,0.0,1.4400000000000002e-10,0.0,0.0,0.0,1.4400000000000002e-10,0.0,0.0,0.0,1.0,2
2025/04/09 10:24:45.899633007,1744187085,899400533,mA1/gps,0,1,63.43459494199421,10.393091727102496,0.0,1.4400000000000002e-10,0.0,0.0,0.0,1.4400000000000002e-10,0.0,0.0,0.0,1.0,2
2025/04/09 10:24:45.954887136,1744187085,954587431,mA1/gps,0,1,63.43459495008289,10.393091726716388,0.0,1.4400000000000002e-10,0.0,0.0,0.0,1.4400000000000002e-10,0.0,0.0,0.0,1.0,2
2025/04/09 10:24:46.6070054,1744187086,5810426,mA1/gps,0,1,63.43459495657905,10.393091726210251,0.0,1.4400000000000002e-10,0.0,0.0,0.0,1.4400000000000002e-10,0.0,0.0,0.0,1.0,2
2025/04/09 10:24:46.47068251,1744187086,46363067,mA1/gps,0,1,63.43459496320371,10.393091726184236,0.0,1.4400000000000002e-10,0.0,0.0,0.0,1.4400000000000002e-10,0.0,0.0,0.0,1.0,2
2025/04/09 10:24:46.98548799,1744187086,97915485,mA1/gps,0,1,63.434594971840255,10.393091725263648,0.0,1.4400000000000002e-10,0.0,0.0,0.0,1.4400000000000002e-10,0.0,0.0,0.0,1.0,2
2025/04/09 10:24:46.149277571,1744187086,148656430,mA1/gps,0,1,63.43459498111387,10.393091724910219,0.0,1.4400000000000002e-10,0.0,0.0,0.0,1.4400000000000002e-10,0.0,0.0,0.0,1.0,2
2025/04/09 10:24:46.199829157,1744187086,199546921,mA1/gps,0,1,63.43459498904801,10.393091724551933,0.0,1.4400000000000002e-10,0.0,0.0,0.0,1.4400000000000002e-10,0.0,0.0,0.0,1.0,2
2025/04/09 10:24:46.251227152,1744187086,250998670,mA1/gps,0,1,63.43459499852695,10.393091723866894,0.0,1.4400000000000002e-10,0.0,0.0,0.0,1.4400000000000002e-10,0.0,0.0,0.0,1.0,2
2025/04/09 10:24:46.303741552,1744187086,301922991,mA1/gps,0,1,63.43459500691029,10.39309172321757,0.0,1.4400000000000002e-10,0.0,0.0,0.0,1.4400000000000002e-10,0.0,0.0,0.0,1.0,2
2025/04/09 10:24:46.352073475,1744187086,351830761,mA1/gps,0,1,63.43459501653086,10.393091722947856,0.0,1.4400000000000002e-10,0.0,0.0,0.0,1.4400000000000002e-10,0.0,0.0,0.0,1.0,2
2025/04/09 10:24:46.403245098,1744187086,402732605,mA1/gps,0,1,63.43459502495881,10.393091722405927,0.0,1.4400000000000002e-10,0.0,0.0,0.0,1.4400000000000002e-10,0.0,0.0,0.0,1.0,2
2025/04/09 10:24:46.452838941,1744187086,452560818,mA1/gps,0,1,63.43459503328809,10.393091722292818,0.0,1.4400000000000002e-10,0.0,0.0,0.0,1.4400000000000002e-10,0.0,0.0,0.0,1.0,2
2025/04/09 10:24:46.505100220,1744187086,504586534,mA1/gps,0,1,63.434595042912456,10.393091721874674,0.0,1.4400000000000002e-10,0.0,0.0,0.0,1.4400000000000002e-10,0.0,0.0,0.0,1.0,2
2025/04/09 10:24:46.553468155,1744187086,553283478,mA1/gps,0,1,63.43459505066761,10.393091721844108,0.0,1.4400000000000002e-10,0.0,0.0,0.0,1.4400000000000002e-10,0.0,0.0,0.0,1.0,2
2025/04/09 10:24:46.604593123,1744187086,604302762,mA1/gps,0,1,63.43459505755561,10.39309172160412,0.0,1.4400000000000002e-10,0.0,0.0,0.0,1.4400000000000002e-10,0.0,0.0,0.0,1.0,2
2025/04/09 10:24:46.654225152,1744187086,654087456,mA1/gps,0,1,63.43459506481996,10.393091721177555,0.0,1.4400000000000002e-10,0.0,0.0,0.0,1.4400000000000002e-10,0.0,0.0,0.0,1.0,2
2025/04/09 10:24:46.705342160,1744187086,705067586,mA1/gps,0,1,63.43459507247101,10.393091721655576,0.0,1.4400000000000002e-10,0.0,0.0,0.0,1.4400000000000002e-10,0.0,0.0,0.0,1.0,2
2025/04/09 10:24:46.755175678,1744187086,754908528,mA1/gps,0,1,63.43459507833931,10.393091721742863,0.0,1.4400000000000002e-10,0.0,0.0,0.0,1.4400000000000002e-10,0.0,0.0,0.0,1.0,2
2025/04/09 10:24:46.806103285,1744187086,805834212,mA1/gps,0,1,63.43459508337951,10.393091721874711,0.0,1.4400000000000002e-10,0.0,0.0,0.0,1.4400000000000002e-10,0.0,0.0,0.0,1.0,2
2025/04/09 10:24:46.856873080,1744187086,855835116,mA1/gps,0,1,63.43459508860696,10.393091720923794,0.0,1.4400000000000002e-10,0.0,0.0,0.0,1.4400000000000002e-10,0.0,0.0,0.0,1.0,2
2025/04/09 10:24:46.896997057,1744187086,896675846,mA1/gps,0,1,63.43459509465431,10.393091720344367,0.0,1.4400000000000002e-10,0.0,0.0,0.0,1.4400000000000002e-10,0.0,0.0,0.0,1.0,2
2025/04/09 10:24:46.946857442,1744187086,946528661,mA1/gps,0,1,63.434595099538626,10.393091720257118,0.0,1.4400000000000002e-10,0.0,0.0,0.0,1.4400000000000002e-10,0.0,0.0,0.0,1.0,2
2025/04/09 10:24:46.997934409,1744187086,997629462,mA1/gps,0,1,63.43459510293996,10.393091719900776,0.0,1.4400000000000002e-10,0.0,0.0,0.0,1.4400000000000002e-10,0.0,0.0,0.0,1.0,2
2025/04/09 10:24:47.47538037,1744187087,47310598,mA1/gps,0,1,63.434595107429395,10.393091718965245,0.0,1.4400000000000002e-10,0.0,0.0,0.0,1.4400000000000002e-10,0.0,0.0,0.0,1.0,2
2025/04/09 10:24:47.98560835,1744187087,98306376,mA1/gps,0,1,63.4345951130193,10.393091718757402,0.0,1.4400000000000002e-10,0.0,0.0,0.0,1.4400000000000002e-10,0.0,0.0,0.0,1.0,2
2025/04/09 10:24:47.149267529,1744187087,148593280,mA1/gps,0,1,63.434595117054045,10.393091717943909,0.0,1.4400000000000002e-10,0.0,0.0,0.0,1.4400000000000002e-10,0.0,0.0,0.0,1.0,2
2025/04/09 10:24:47.199904247,1744187087,199534709,mA1/gps,0,1,63.43459512082691,10.393091716921106,0.0,1.4400000000000002e-10,0.0,0.0,0.0,1.4400000000000002e-10,0.0,0.0,0.0,1.0,2
2025/04/09 10:24:47.251239677,1744187087,251052448,mA1/gps,0,1,63.4345951256536,10.393091715760908,0.0,1.4400000000000002e-10,0.0,0.0,0.0,1.4400000000000002e-10,0.0,0.0,0.0,1.0,2
2025/04/09 10:24:47.302374480,1744187087,301976546,mA1/gps,0,1,63.43459513196143,10.393091714863885,0.0,1.4400000000000002e-10,0.0,0.0,0.0,1.4400000000000002e-10,0.0,0.0,0.0,1.0,2
2025/04/09 10:24:47.353973883,1744187087,353851014,mA1/gps,0,1,63.434595137366486,10.393091713912671,0.0,1.4400000000000002e-10,0.0,0.0,0.0,1.4400000000000002e-10,0.0,0.0,0.0,1.0,2
2025/04/09 10:24:47.404975698,1744187087,404718382,mA1/gps,0,1,63.43459514245046,10.393091712150941,0.0,1.4400000000000002e-10,0.0,0.0,0.0,1.4400000000000002e-10,0.0,0.0,0.0,1.0,2
2025/04/09 10:24:47.454939349,1744187087,454688024,mA1/gps,0,1,63.434595149034976,10.393091709712918,0.0,1.4400000000000002e-10,0.0,0.0,0.0,1.4400000000000002e-10,0.0,0.0,0.0,1.0,2
2025/04/09 10:24:47.506211884,1744187087,505945619,mA1/gps,0,1,63.43459515663517,10.393091707256763,0.0,1.4400000000000002e-10,0.0,0.0,0.0,1.4400000000000002e-10,0.0,0.0,0.0,1.0,2
2025/04/09 10:24:47.556134283,1744187087,555844632,mA1/gps,0,1,63.434595163783776,10.393091705801433,0.0,1.4400000000000002e-10,0.0,0.0,0.0,1.4400000000000002e-10,0.0,0.0,0.0,1.0,2
2025/04/09 10:24:47.597394466,1744187087,597263763,mA1/gps,0,1,63.43459517012149,10.393091703229443,0.0,1.4400000000000002e-10,0.0,0.0,0.0,1.4400000000000002e-10,0.0,0.0,0.0,1.0,2
2025/04/09 10:24:47.647648338,1744187087,647452533,mA1/gps,0,1,63.43459517791873,10.393091700208878,0.0,1.4400000000000002e-10,0.0,0.0,0.0,1.4400000000000002e-10,0.0,0.0,0.0,1.0,2
2025/04/09 10:24:47.698830464,1744187087,698414084,mA1/gps,0,1,63.434595186852995,10.393091698487684,0.0,1.4400000000000002e-10,0.0,0.0,0.0,1.4400000000000002e-10,0.0,0.0,0.0,1.0,2
2025/04/09 10:24:47.748619680,1744187087,748307988,mA1/gps,0,1,63.43459519505721,10.393091696434082,0.0,1.4400000000000002e-10,0.0,0.0,0.0,1.4400000000000002e-10,0.0,0.0,0.0,1.0,2
2025/04/09 10:24:47.799491348,1744187087,799272794,mA1/gps,0,1,63.43459520256491,10.393091694825381,0.0,1.4400000000000002e-10,0.0,0.0,0.0,1.4400000000000002e-10,0.0,0.0,0.0,1.0,2
2025/04/09 10:24:47.849407567,1744187087,849081831,mA1/gps,0,1,63.434595210779364,10.393091693950517,0.0,1.4400000000000002e-10,0.0,0.0,0.0,1.4400000000000002e-10,0.0,0.0,0.0,1.0,2
2025/04/09 10:24:47.900262223,1744187087,900059738,mA1/gps,0,1,63.43459521973153,10.393091693716835,0.0,1.4400000000000002e-10,0.0,0.0,0.0,1.4400000000000002e-10,0.0,0.0,0.0,1.0,2
2025/04/09 10:24:47.950269896,1744187087,949961709,mA1/gps,0,1,63.43459522772601,10.393091693870076,0.0,1.4400000000000002e-10,0.0,0.0,0.0,1.4400000000000002e-10,0.0,0.0,0.0,1.0,2
2025/04/09 10:24:48.1168210,1744187088,1036034,mA1/gps,0,1,63.43459523420466,10.393091694569653,0.0,1.4400000000000002e-10,0.0,0.0,0.0,1.4400000000000002e-10,0.0,0.0,0.0,1.0,2
2025/04/09 10:24:48.53772189,1744187088,50800734,mA1/gps,0,1,63.4345952413565,10.393091695458757,0.0,1.4400000000000002e-10,0.0,0.0,0.0,1.4400000000000002e-10,0.0,0.0,0.0,1.0,2
2025/04/09 10:24:48.102863586,1744187088,102591477,mA1/gps,0,1,63.43459524900958,10.393091696962289,0.0,1.4400000000000002e-10,0.0,0.0,0.0,1.4400000000000002e-10,0.0,0.0,0.0,1.0,2
2025/04/09 10:24:48.152629633,1744187088,152415900,mA1/gps,0,1,63.43459525507067,10.393091699541516,0.0,1.4400000000000002e-10,0.0,0.0,0.0,1.4400000000000002e-10,0.0,0.0,0.0,1.0,2
2025/04/09 10:24:48.203656788,1744187088,203402494,mA1/gps,0,1,63.43459525998536,10.393091701565647,0.0,1.4400000000000002e-10,0.0,0.0,0.0,1.4400000000000002e-10,0.0,0.0,0.0,1.0,2
2025/04/09 10:24:48.253786128,1744187088,253600291,mA1/gps,0,1,63.434595265342686,10.393091704064815,0.0,1.4400000000000002e-10,0.0,0.0,0.0,1.4400000000000002e-10,0.0,0.0,0.0,1.0,2
2025/04/09 10:24:48.304800633,1744187088,304544157,mA1/gps,0,1,63.43459527133012,10.39309170666541,0.0,1.4400000000000002e-10,0.0,0.0,0.0,1.4400000000000002e-10,0.0,0.0,0.0,1.0,2
2025/04/09 10:24:48.346482571,1744187088,346086151,mA1/gps,0,1,63.434595275969606,10.393091708589916,0.0,1.4400000000000002e-10,0.0,0.0,0.0,1.4400000000000002e-10,0.0,0.0,0.0,1.0,2
2025/04/09 10:24:48.397879625,1744187088,397262583,mA1/gps,0,1,63.43459527924341,10.393091709783995,0.0,1.4400000000000002e-10,0.0,0.0,0.0,1.4400000000000002e-10,0.0,0.0,0.0,1.0,2
2025/04/09 10:24:48.447248897,1744187088,447030870,mA1/gps,0,1,63.43459528348187,10.393091711106088,0.0,1.4400000000000002e-10,0.0,0.0,0.0,1.4400000000000002e-10,0.0,0.0,0.0,1.0,2
2025/04/09 10:24:48.498199450,1744187088,497995752,mA1/gps,0,1,63.43459528834992,10.393091711674742,0.0,1.4400000000000002e-10,0.0,0.0,0.0,1.4400000000000002e-10,0.0,0.0,0.0,1.0,2
2025/04/09 10:24:48.549771794,1744187088,549450725,mA1/gps,0,1,63.434595292112796,10.39309171154919,0.0,1.4400000000000002e-10,0.0,0.0,0.0,1.4400000000000002e-10,0.0,0.0,0.0,1.0,2
2025/04/09 10:24:48.600270488,1744187088,600089483,mA1/gps,0,1,63.4345952949139,10.393091709556485,0.0,1.4400000000000002e-10,0.0,0.0,0.0,1.4400000000000002e-10,0.0,0.0,0.0,1.0,2
2025/04/09 10:24:48.651302665,1744187088,651130535,mA1/gps,0,1,63.434595299409885,10.393091707853854,0.0,1.4400000000000002e-10,0.0,0.0,0.0,1.4400000000000002e-10,0.0,0.0,0.0,1.0,2
2025/04/09 10:24:48.703561224,1744187088,703225626,mA1/gps,0,1,63.43459530458688,10.393091705183474,0.0,1.4400000000000002e-10,0.0,0.0,0.0,1.4400000000000002e-10,0.0,0.0,0.0,1.0,2
2025/04/09 10:24:48.753533670,1744187088,753293593,mA1/gps,0,1,63.43459530897699,10.393091701979642,0.0,1.4400000000000002e-10,0.0,0.0,0.0,1.4400000000000002e-10,0.0,0.0,0.0,1.0,2
2025/04/09 10:24:48.804390616,1744187088,804306257,mA1/gps,0,1,63.43459531294232,10.39309169807377,0.0,1.4400000000000002e-10,0.0,0.0,0.0,1.4400000000000002e-10,0.0,0.0,0.0,1.0,2
2025/04/09 10:24:48.856664094,1744187088,855717466,mA1/gps,0,1,63.43459531787425,10.393091693908149,0.0,1.4400000000000002e-10,0.0,0.0,0.0,1.4400000000000002e-10,0.0,0.0,0.0,1.0,2
2025/04/09 10:24:48.896858137,1744187088,896792747,mA1/gps,0,1,63.43459532432843,10.393091689049488,0.0,1.4400000000000002e-10,0.0,0.0,0.0,1.4400000000000002e-10,0.0,0.0,0.0,1.0,2
2025/04/09 10:24:48.946930755,1744187088,946671551,mA1/gps,0,1,63.434595330206754,10.393091685077344,0.0,1.4400000000000002e-10,0.0,0.0,0.0,1.4400000000000002e-10,0.0,0.0,0.0,1.0,2
2025/04/09 10:24:48.999005632,1744187088,997579764,mA1/gps,0,1,63.43459533534879,10.393091680074974,0.0,1.4400000000000002e-10,0.0,0.0,0.0,1.4400000000000002e-10,0.0,0.0,0.0,1.0,2
2025/04/09 10:24:49.47445596,1744187089,47248373,mA1/gps,0,1,63.43459534207702,10.393091676286671,0.0,1.4400000000000002e-10,0.0,0.0,0.0,1.4400000000000002e-10,0.0,0.0,0.0,1.0,2
2025/04/09 10:24:49.98747555,1744187089,98280831,mA1/gps,0,1,63.43459535014677,10.393091673083953,0.0,1.4400000000000002e-10,0.0,0.0,0.0,1.4400000000000002e-10,0.0,0.0,0.0,1.0,2
2025/04/09 10:24:49.148280837,1744187089,148093054,mA1/gps,0,1,63.43459535728882,10.393091670550797,0.0,1.4400000000000002e-10,0.0,0.0,0.0,1.4400000000000002e-10,0.0,0.0,0.0,1.0,2
2025/04/09 10:24:49.199303441,1744187089,199084807,mA1/gps,0,1,63.43459536408425,10.393091669275972,0.0,1.4400000000000002e-10,0.0,0.0,0.0,1.4400000000000002e-10,0.0,0.0,0.0,1.0,2
2025/04/09 10:24:49.251262608,1744187089,250901184,mA1/gps,0,1,63.43459537187765,10.393091669467292,0.0,1.4400000000000002e-10,0.0,0.0,0.0,1.4400000000000002e-10,0.0,0.0,0.0,1.0,2
2025/04/09 10:24:49.302067987,1744187089,301825884,mA1/gps,0,1,63.43459538060496,10.393091670404967,0.0,1.4400000000000002e-10,0.0,0.0,0.0,1.4400000000000002e-10,0.0,0.0,0.0,1.0,2
2025/04/09 10:24:49.351957358,1744187089,351658838,mA1/gps,0,1,63.43459538946478,10.393091672676901,0.0,1.4400000000000002e-10,0.0,0.0,0.0,1.4400000000000002e-10,0.0,0.0,0.0,1.0,2
2025/04/09 10:24:49.402917896,1744187089,402617327,mA1/gps,0,1,63.434595397807975,10.393091675281786,0.0,1.4400000000000002e-10,0.0,0.0,0.0,1.4400000000000002e-10,0.0,0.0,0.0,1.0,2
2025/04/09 10:24:49.452724946,1744187089,452606708,mA1/gps,0,1,63.434595407786446,10.39309167895511,0.0,1.4400000000000002e-10,0.0,0.0,0.0,1.4400000000000002e-10,0.0,0.0,0.0,1.0,2
2025/04/09 10:24:49.503632285,1744187089,503369897,mA1/gps,0,1,63.43459541838651,10.393091681614445,0.0,1.4400000000000002e-10,0.0,0.0,0.0,1.4400000000000002e-10,0.0,0.0,0.0,1.0,2
2025/04/09 10:24:49.553469990,1744187089,553197471,mA1/gps,0,1,63.43459542953352,10.393091682716788,0.0,1.4400000000000002e-10,0.0,0.0,0.0,1.4400000000000002e-10,0.0,0.0,0.0,1.0,2
2025/04/09 10:24:49.605375196,1744187089,604282491,mA1/gps,0,1,63.434595443755676,10.39309168472443,0.0,1.4400000000000002e-10,0.0,0.0,0.0,1.4400000000000002e-10,0.0,0.0,0.0,1.0,2
2025/04/09 10:24:49.654494289,1744187089,654193880,mA1/gps,0,1,63.434595461745936,10.393091686576401,0.0,1.4400000000000002e-10,0.0,0.0,0.0,1.4400000000000002e-10,0.0,0.0,0.0,1.0,2
2025/04/09 10:24:49.705875087,1744187089,705592227,mA1/gps,0,1,63.434595477820984,10.393091689217817,0.0,1.4400000000000002e-10,0.0,0.0,0.0,1.4400000000000002e-10,0.0,0.0,0.0,1.0,2
2025/04/09 10:24:49.755742032,1744187089,755485429,mA1/gps,0,1,63.434595498714344,10.393091692283518,0.0,1.4400000000000002e-10,0.0,0.0,0.0,1.4400000000000002e-10,0.0,0.0,0.0,1.0,2
2025/04/09 10:24:49.796834658,1744187089,796649406,mA1/gps,0,1,63.43459552289399,10.393091698551304,0.0,1.4400000000000002e-10,0.0,0.0,0.0,1.4400000000000002e-10,0.0,0.0,0.0,1.0,2
2025/04/09 10:24:49.847079447,1744187089,846825678,mA1/gps,0,1,63.43459554909703,10.39309170633188,0.0,1.4400000000000002e-10,0.0,0.0,0.0,1.4400000000000002e-10,0.0,0.0,0.0,1.0,2
2025/04/09 10:24:49.898020963,1744187089,897767601,mA1/gps,0,1,63.43459557915954,10.393091712308358,0.0,1.4400000000000002e-10,0.0,0.0,0.0,1.4400000000000002e-10,0.0,0.0,0.0,1.0,2
2025/04/09 10:24:49.947922422,1744187089,947639197,mA1/gps,0,1,63.43459561243984,10.393091716874617,0.0,1.4400000000000002e-10,0.0,0.0,0.0,1.4400000000000002e-10,0.0,0.0,0.0,1.0,2
2025/04/09 10:24:50.490837,1744187090,266903,mA1/gps,0,1,63.434595650190296,10.393091719861879,0.0,1.4400000000000002e-10,0.0,0.0,0.0,1.4400000000000002e-10,0.0,0.0,0.0,1.0,2
2025/04/09 10:24:50.50331281,1744187090,50046022,mA1/gps,0,1,63.43459569126381,10.393091719554647,0.0,1.4400000000000002e-10,0.0,0.0,0.0,1.4400000000000002e-10,0.0,0.0,0.0,1.0,2
2025/04/09 10:24:50.101471265,1744187090,101128656,mA1/gps,0,1,63.43459573693662,10.39309171553101,0.0,1.4400000000000002e-10,0.0,0.0,0.0,1.4400000000000002e-10,0.0,0.0,0.0,1.0,2
2025/04/09 10:24:50.151267110,1744187090,150824912,mA1/gps,0,1,63.43459578485706,10.393091706636824,0.0,1.4400000000000002e-10,0.0,0.0,0.0,1.4400000000000002e-10,0.0,0.0,0.0,1.0,2
2025/04/09 10:24:50.202028228,1744187090,201805848,mA1/gps,0,1,63.434595837010455,10.393091693815647,0.0,1.4400000000000002e-10,0.0,0.0,0.0,1.4400000000000002e-10,0.0,0.0,0.0,1.0,2
2025/04/09 10:24:50.251857863,1744187090,251643855,mA1/gps,0,1,63.43459589249605,10.393091678624195,0.0,1.4400000000000002e-10,0.0,0.0,0.0,1.4400000000000002e-10,0.0,0.0,0.0,1.0,2
2025/04/09 10:24:50.303345955,1744187090,302606580,mA1/gps,0,1,63.43459594962428,10.393091660126668,0.0,1.4400000000000002e-10,0.0,0.0,0.0,1.4400000000000002e-10,0.0,0.0,0.0,1.0,2
2025/04/09 10:24:50.353066698,1744187090,352887199,mA1/gps,0,1,63.43459600997167,10.393091639208272,0.0,1.4400000000000002e-10,0.0,0.0,0.0,1.4400000000000002e-10,0.0,0.0,0.0,1.0,2
2025/04/09 10:24:50.404595566,1744187090,404438472,mA1/gps,0,1,63.43459607192278,10.393091617893205,0.0,1.4400000000000002e-10,0.0,0.0,0.0,1.4400000000000002e-10,0.0,0.0,0.0,1.0,2
2025/04/09 10:24:50.454523913,1744187090,454295469,mA1/gps,0,1,63.43459613476733,10.393091596405448,0.0,1.4400000000000002e-10,0.0,0.0,0.0,1.4400000000000002e-10,0.0,0.0,0.0,1.0,2
2025/04/09 10:24:50.505420101,1744187090,505208552,mA1/gps,0,1,63.43459619900612,10.393091574163613,0.0,1.4400000000000002e-10,0.0,0.0,0.0,1.4400000000000002e-10,0.0,0.0,0.0,1.0,2
2025/04/09 10:24:50.557096612,1744187090,555214578,mA1/gps,0,1,63.434596264386876,10.393091552984849,0.0,1.4400000000000002e-10,0.0,0.0,0.0,1.4400000000000002e-10,0.0,0.0,0.0,1.0,2
2025/04/09 10:24:50.606338853,1744187090,606106343,mA1/gps,0,1,63.43459632892646,10.393091535917305,0.0,1.4400000000000002e-10,0.0,0.0,0.0,1.4400000000000002e-10,0.0,0.0,0.0,1.0,2
2025/04/09 10:24:50.646863285,1744187090,646699999,mA1/gps,0,1,63.43459639392561,10.393091522334462,0.0,1.4400000000000002e-10,0.0,0.0,0.0,1.4400000000000002e-10,0.0,0.0,0.0,1.0,2
2025/04/09 10:24:50.697804626,1744187090,697594372,mA1/gps,0,1,63.434596458737055,10.39309150780851,0.0,1.4400000000000002e-10,0.0,0.0,0.0,1.4400000000000002e-10,0.0,0.0,0.0,1.0,2
2025/04/09 10:24:50.747652381,1744187090,747470751,mA1/gps,0,1,63.434596523530175,10.39309149395074,0.0,1.4400000000000002e-10,0.0,0.0,0.0,1.4400000000000002e-10,0.0,0.0,0.0,1.0,2
2025/04/09 10:24:50.798737470,1744187090,798467977,mA1/gps,0,1,63.43459658713185,10.393091483544286,0.0,1.4400000000000002e-10,0.0,0.0,0.0,1.4400000000000002e-10,0.0,0.0,0.0,1.0,2
2025/04/09 10:24:50.849015177,1744187090,848903563,mA1/gps,0,1,63.43459665076947,10.39309147767816,0.0,1.4400000000000002e-10,0.0,0.0,0.0,1.4400000000000002e-10,0.0,0.0,0.0,1.0,2
2025/04/09 10:24:50.900437785,1744187090,900196343,mA1/gps,0,1,63.43459671422722,10.39309147481639,0.0,1.4400000000000002e-10,0.0,0.0,0.0,1.4400000000000002e-10,0.0,0.0,0.0,1.0,2
2025/04/09 10:24:50.950912236,1744187090,950663667,mA1/gps,0,1,63.43459677783748,10.393091477366267,0.0,1.4400000000000002e-10,0.0,0.0,0.0,1.4400000000000002e-10,0.0,0.0,0.0,1.0,2
2025/04/09 10:24:51.1866644,1744187091,1629334,mA1/gps,0,1,63.43459684177334,10.393091484463,0.0,1.4400000000000002e-10,0.0,0.0,0.0,1.4400000000000002e-10,0.0,0.0,0.0,1.0,2
2025/04/09 10:24:51.51809485,1744187091,51573215,mA1/gps,0,1,63.43459690538074,10.393091495250303,0.0,1.4400000000000002e-10,0.0,0.0,0.0,1.4400000000000002e-10,0.0,0.0,0.0,1.0,2
2025/04/09 10:24:51.102752288,1744187091,102523059,mA1/gps,0,1,63.43459697048207,10.393091509361614,0.0,1.4400000000000002e-10,0.0,0.0,0.0,1.4400000000000002e-10,0.0,0.0,0.0,1.0,2
2025/04/09 10:24:51.152628487,1744187091,152383680,mA1/gps,0,1,63.43459703627269,10.393091524026916,0.0,1.4400000000000002e-10,0.0,0.0,0.0,1.4400000000000002e-10,0.0,0.0,0.0,1.0,2
2025/04/09 10:24:51.203851642,1744187091,203430234,mA1/gps,0,1,63.43459710385,10.393091538640103,0.0,1.4400000000000002e-10,0.0,0.0,0.0,1.4400000000000002e-10,0.0,0.0,0.0,1.0,2
2025/04/09 10:24:51.253334092,1744187091,253125818,mA1/gps,0,1,63.434597174182805,10.393091552318554,0.0,1.4400000000000002e-10,0.0,0.0,0.0,1.4400000000000002e-10,0.0,0.0,0.0,1.0,2
2025/04/09 10:24:51.304382408,1744187091,304106274,mA1/gps,0,1,63.43459724645056,10.393091563987078,0.0,1.4400000000000002e-10,0.0,0.0,0.0,1.4400000000000002e-10,0.0,0.0,0.0,1.0,2
2025/04/09 10:24:51.354393520,1744187091,354001437,mA1/gps,0,1,63.43459732073649,10.393091572518346,0.0,1.4400000000000002e-10,0.0,0.0,0.0,1.4400000000000002e-10,0.0,0.0,0.0,1.0,2
2025/04/09 10:24:51.405140988,1744187091,404982703,mA1/gps,0,1,63.43459739790708,10.393091577417056,0.0,1.4400000000000002e-10,0.0,0.0,0.0,1.4400000000000002e-10,0.0,0.0,0.0,1.0,2
2025/04/09 10:24:51.455721687,1744187091,455333993,mA1/gps,0,1,63.43459747945791,10.393091577487118,0.0,1.4400000000000002e-10,0.0,0.0,0.0,1.4400000000000002e-10,0.0,0.0,0.0,1.0,2
2025/04/09 10:24:51.506543152,1744187091,506302749,mA1/gps,0,1,63.43459756356901,10.393091570368014,0.0,1.4400000000000002e-10,0.0,0.0,0.0,1.4400000000000002e-10,0.0,0.0,0.0,1.0,2
2025/04/09 10:24:51.547451753,1744187091,546116833,mA1/gps,0,1,63.43459764921955,10.39309155795341,0.0,1.4400000000000002e-10,0.0,0.0,0.0,1.4400000000000002e-10,0.0,0.0,0.0,1.0,2
2025/04/09 10:24:51.597301992,1744187091,597061046,mA1/gps,0,1,63.43459774098757,10.393091542790435,0.0,1.4400000000000002e-10,0.0,0.0,0.0,1.4400000000000002e-10,0.0,0.0,0.0,1.0,2
2025/04/09 10:24:51.647281245,1744187091,646938012,mA1/gps,0,1,63.43459783216441,10.393091523694226,0.0,1.4400000000000002e-10,0.0,0.0,0.0,1.4400000000000002e-10,0.0,0.0,0.0,1.0,2
2025/04/09 10:24:51.697971565,1744187091,697803686,mA1/gps,0,1,63.434597926289065,10.39309149998748,0.0,1.4400000000000002e-10,0.0,0.0,0.0,1.4400000000000002e-10,0.0,0.0,0.0,1.0,2
2025/04/09 10:24:51.749161242,1744187091,749036619,mA1/gps,0,1,63.43459802338934,10.393091474022524,0.0,1.4400000000000002e-10,0.0,0.0,0.0,1.4400000000000002e-10,0.0,0.0,0.0,1.0,2
2025/04/09 10:24:51.799917820,1744187091,798639016,mA1/gps,0,1,63.43459812231449,10.393091447431983,0.0,1.4400000000000002e-10,0.0,0.0,0.0,1.4400000000000002e-10,0.0,0.0,0.0,1.0,2
2025/04/09 10:24:51.848718348,1744187091,848550701,mA1/gps,0,1,63.43459822238782,10.393091421303641,0.0,1.4400000000000002e-10,0.0,0.0,0.0,1.4400000000000002e-10,0.0,0.0,0.0,1.0,2
2025/04/09 10:24:51.900111161,1744187091,899799037,mA1/gps,0,1,63.434598324294114,10.39309139686293,0.0,1.4400000000000002e-10,0.0,0.0,0.0,1.4400000000000002e-10,0.0,0.0,0.0,1.0,2
2025/04/09 10:24:51.949931629,1744187091,949657369,mA1/gps,0,1,63.43459842612855,10.39309137458436,0.0,1.4400000000000002e-10,0.0,0.0,0.0,1.4400000000000002e-10,0.0,0.0,0.0,1.0,2
2025/04/09 10:24:52.909892,1744187092,640092,mA1/gps,0,1,63.434598528009076,10.39309135869481,0.0,1.4400000000000002e-10,0.0,0.0,0.0,1.4400000000000002e-10,0.0,0.0,0.0,1.0,2
2025/04/09 10:24:52.50722048,1744187092,50451303,mA1/gps,0,1,63.434598628871115,10.393091347812982,0.0,1.4400000000000002e-10,0.0,0.0,0.0,1.4400000000000002e-10,0.0,0.0,0.0,1.0,2
2025/04/09 10:24:52.101568727,1744187092,101368679,mA1/gps,0,1,63.434598729911464,10.393091340582004,0.0,1.4400000000000002e-10,0.0,0.0,0.0,1.4400000000000002e-10,0.0,0.0,0.0,1.0,2
2025/04/09 10:24:52.151891333,1744187092,151742395,mA1/gps,0,1,63.4345988300666,10.393091339453568,0.0,1.4400000000000002e-10,0.0,0.0,0.0,1.4400000000000002e-10,0.0,0.0,0.0,1.0,2
2025/04/09 10:24:52.203722416,1744187092,202773852,mA1/gps,0,1,63.43459893001602,10.393091343760045,0.0,1.4400000000000002e-10,0.0,0.0,0.0,1.4400000000000002e-10,0.0,0.0,0.0,1.0,2
2025/04/09 10:24:52.254574145,1744187092,252599335,mA1/gps,0,1,63.43459902794418,10.393091353218532,0.0,1.4400000000000002e-10,0.0,0.0,0.0,1.4400000000000002e-10,0.0,0.0,0.0,1.0,2
2025/04/09 10:24:52.303645070,1744187092,303502002,mA1/gps,0,1,63.434599125390584,10.393091367682485,0.0,1.4400000000000002e-10,0.0,0.0,0.0,1.4400000000000002e-10,0.0,0.0,0.0,1.0,2
2025/04/09 10:24:52.353730882,1744187092,353448753,mA1/gps,0,1,63.43459922197814,10.393091386908509,0.0,1.4400000000000002e-10,0.0,0.0,0.0,1.4400000000000002e-10,0.0,0.0,0.0,1.0,2
2025/04/09 10:24:52.404591677,1744187092,404383828,mA1/gps,0,1,63.43459931799665,10.393091407785976,0.0,1.4400000000000002e-10,0.0,0.0,0.0,1.4400000000000002e-10,0.0,0.0,0.0,1.0,2
2025/04/09 10:24:52.447790787,1744187092,445855019,mA1/gps,0,1,63.43459941278979,10.393091429697717,0.0,1.4400000000000002e-10,0.0,0.0,0.0,1.4400000000000002e-10,0.0,0.0,0.0,1.0,2
2025/04/09 10:24:52.497287133,1744187092,497080826,mA1/gps,0,1,63.43459950727901,10.393091449303144,0.0,1.4400000000000002e-10,0.0,0.0,0.0,1.4400000000000002e-10,0.0,0.0,0.0,1.0,2
2025/04/09 10:24:52.548327250,1744187092,547973143,mA1/gps,0,1,63.43459960324995,10.393091467041035,0.0,1.4400000000000002e-10,0.0,0.0,0.0,1.4400000000000002e-10,0.0,0.0,0.0,1.0,2
2025/04/09 10:24:52.599178280,1744187092,599009556,mA1/gps,0,1,63.43459969909854,10.393091480355725,0.0,1.4400000000000002e-10,0.0,0.0,0.0,1.4400000000000002e-10,0.0,0.0,0.0,1.0,2
2025/04/09 10:24:52.648952053,1744187092,648729879,mA1/gps,0,1,63.434599796830014,10.393091488374665,0.0,1.4400000000000002e-10,0.0,0.0,0.0,1.4400000000000002e-10,0.0,0.0,0.0,1.0,2
2025/04/09 10:24:52.701743721,1744187092,699862598,mA1/gps,0,1,63.43459989427009,10.393091490561755,0.0,1.4400000000000002e-10,0.0,0.0,0.0,1.4400000000000002e-10,0.0,0.0,0.0,1.0,2
2025/04/09 10:24:52.751220221,1744187092,749556070,mA1/gps,0,1,63.43459999464558,10.393091486871459,0.0,1.4400000000000002e-10,0.0,0.0,0.0,1.4400000000000002e-10,0.0,0.0,0.0,1.0,2
2025/04/09 10:24:52.800654167,1744187092,800483282,mA1/gps,0,1,63.43460009730422,10.393091477143427,0.0,1.4400000000000002e-10,0.0,0.0,0.0,1.4400000000000002e-10,0.0,0.0,0.0,1.0,2
2025/04/09 10:24:52.850552487,1744187092,850390225,mA1/gps,0,1,63.434600200454206,10.39309146361648,0.0,1.4400000000000002e-10,0.0,0.0,0.0,1.4400000000000002e-10,0.0,0.0,0.0,1.0,2
2025/04/09 10:24:52.902051872,1744187092,901884532,mA1/gps,0,1,63.434600305735714,10.393091445215733,0.0,1.4400000000000002e-10,0.0,0.0,0.0,1.4400000000000002e-10,0.0,0.0,0.0,1.0,2
2025/04/09 10:24:52.952031241,1744187092,951866759,mA1/gps,0,1,63.43460041598171,10.39309142416387,0.0,1.4400000000000002e-10,0.0,0.0,0.0,1.4400000000000002e-10,0.0,0.0,0.0,1.0,2
2025/04/09 10:24:53.4878896,1744187093,4585978,mA1/gps,0,1,63.43460052719419,10.393091401610718,0.0,1.4400000000000002e-10,0.0,0.0,0.0,1.4400000000000002e-10,0.0,0.0,0.0,1.0,2
2025/04/09 10:24:53.57697796,1744187093,54491055,mA1/gps,0,1,63.43460064059669,10.393091377043444,0.0,1.4400000000000002e-10,0.0,0.0,0.0,1.4400000000000002e-10,0.0,0.0,0.0,1.0,2
2025/04/09 10:24:53.105697483,1744187093,105451511,mA1/gps,0,1,63.43460075622523,10.393091351765664,0.0,1.4400000000000002e-10,0.0,0.0,0.0,1.4400000000000002e-10,0.0,0.0,0.0,1.0,2
2025/04/09 10:24:53.155685833,1744187093,155387989,mA1/gps,0,1,63.434600874473766,10.393091328676116,0.0,1.4400000000000002e-10,0.0,0.0,0.0,1.4400000000000002e-10,0.0,0.0,0.0,1.0,2
2025/04/09 10:24:53.200303872,1744187093,200175937,mA1/gps,0,1,63.43460099413546,10.393091308829549,0.0,1.4400000000000002e-10,0.0,0.0,0.0,1.4400000000000002e-10,0.0,0.0,0.0,1.0,2
2025/04/09 10:24:53.248655546,1744187093,248170597,mA1/gps,0,1,63.434601115067515,10.393091294138712,0.0,1.4400000000000002e-10,0.0,0.0,0.0,1.4400000000000002e-10,0.0,0.0,0.0,1.0,2
2025/04/09 10:24:53.302744409,1744187093,300430568,mA1/gps,0,1,63.43460123739515,10.393091284167983,0.0,1.4400000000000002e-10,0.0,0.0,0.0,1.4400000000000002e-10,0.0,0.0,0.0,1.0,2
2025/04/09 10:24:53.349684105,1744187093,349430583,mA1/gps,0,1,63.434601359178636,10.39309128057992,0.0,1.4400000000000002e-10,0.0,0.0,0.0,1.4400000000000002e-10,0.0,0.0,0.0,1.0,2
2025/04/09 10:24:53.400584939,1744187093,400362293,mA1/gps,0,1,63.434601482027944,10.393091282971405,0.0,1.4400000000000002e-10,0.0,0.0,0.0,1.4400000000000002e-10,0.0,0.0,0.0,1.0,2
2025/04/09 10:24:53.451468955,1744187093,451127319,mA1/gps,0,1,63.434601606399006,10.393091290251059,0.0,1.4400000000000002e-10,0.0,0.0,0.0,1.4400000000000002e-10,0.0,0.0,0.0,1.0,2
2025/04/09 10:24:53.502336345,1744187093,502093894,mA1/gps,0,1,63.43460172921347,10.393091302755963,0.0,1.4400000000000002e-10,0.0,0.0,0.0,1.4400000000000002e-10,0.0,0.0,0.0,1.0,2
2025/04/09 10:24:53.552085060,1744187093,551914744,mA1/gps,0,1,63.4346018513001,10.393091318723087,0.0,1.4400000000000002e-10,0.0,0.0,0.0,1.4400000000000002e-10,0.0,0.0,0.0,1.0,2
2025/04/09 10:24:53.603382952,1744187093,602951568,mA1/gps,0,1,63.434601973619564,10.393091335806325,0.0,1.4400000000000002e-10,0.0,0.0,0.0,1.4400000000000002e-10,0.0,0.0,0.0,1.0,2
2025/04/09 10:24:53.654413622,1744187093,652765636,mA1/gps,0,1,63.43460209337344,10.39309135310948,0.0,1.4400000000000002e-10,0.0,0.0,0.0,1.4400000000000002e-10,0.0,0.0,0.0,1.0,2
2025/04/09 10:24:53.703888216,1744187093,703671828,mA1/gps,0,1,63.43460221288029,10.393091373947563,0.0,1.4400000000000002e-10,0.0,0.0,0.0,1.4400000000000002e-10,0.0,0.0,0.0,1.0,2
2025/04/09 10:24:53.753826373,1744187093,753566823,mA1/gps,0,1,63.43460233017764,10.393091395037159,0.0,1.4400000000000002e-10,0.0,0.0,0.0,1.4400000000000002e-10,0.0,0.0,0.0,1.0,2
2025/04/09 10:24:53.805258810,1744187093,805013279,mA1/gps,0,1,63.43460244732542,10.393091413190005,0.0,1.4400000000000002e-10,0.0,0.0,0.0,1.4400000000000002e-10,0.0,0.0,0.0,1.0,2
2025/04/09 10:24:53.855073311,1744187093,854813102,mA1/gps,0,1,63.43460256261144,10.393091428454593,0.0,1.4400000000000002e-10,0.0,0.0,0.0,1.4400000000000002e-10,0.0,0.0,0.0,1.0,2
2025/04/09 10:24:53.907678524,1744187093,905742636,mA1/gps,0,1,63.43460267733697,10.393091437727916,0.0,1.4400000000000002e-10,0.0,0.0,0.0,1.4400000000000002e-10,0.0,0.0,0.0,1.0,2
2025/04/09 10:24:53.957291162,1744187093,955565214,mA1/gps,0,1,63.434602792433,10.39309144051195,0.0,1.4400000000000002e-10,0.0,0.0,0.0,1.4400000000000002e-10,0.0,0.0,0.0,1.0,2
2025/04/09 10:24:53.998374494,1744187093,996479831,mA1/gps,0,1,63.434602906580714,10.393091435653382,0.0,1.4400000000000002e-10,0.0,0.0,0.0,1.4400000000000002e-10,0.0,0.0,0.0,1.0,2
2025/04/09 10:24:54.48044773,1744187094,47803184,mA1/gps,0,1,63.434603021024124,10.39309142543094,0.0,1.4400000000000002e-10,0.0,0.0,0.0,1.4400000000000002e-10,0.0,0.0,0.0,1.0,2
2025/04/09 10:24:54.98999955,1744187094,98765178,mA1/gps,0,1,63.43460313545785,10.393091409163244,0.0,1.4400000000000002e-10,0.0,0.0,0.0,1.4400000000000002e-10,0.0,0.0,0.0,1.0,2
2025/04/09 10:24:54.148936971,1744187094,148580965,mA1/gps,0,1,63.43460325208181,10.393091388874558,0.0,1.4400000000000002e-10,0.0,0.0,0.0,1.4400000000000002e-10,0.0,0.0,0.0,1.0,2
2025/04/09 10:24:54.199666260,1744187094,199574201,mA1/gps,0,1,63.43460336870546,10.393091363514236,0.0,1.4400000000000002e-10,0.0,0.0,0.0,1.4400000000000002e-10,0.0,0.0,0.0,1.0,2
2025/04/09 10:24:54.249708527,1744187094,249469900,mA1/gps,0,1,63.43460348722956,10.393091335466405,0.0,1.4400000000000002e-10,0.0,0.0,0.0,1.4400000000000002e-10,0.0,0.0,0.0,1.0,2
2025/04/09 10:24:54.300716407,1744187094,300486236,mA1/gps,0,1,63.43460360774863,10.393091309736118,0.0,1.4400000000000002e-10,0.0,0.0,0.0,1.4400000000000002e-10,0.0,0.0,0.0,1.0,2
2025/04/09 10:24:54.350625026,1744187094,350349650,mA1/gps,0,1,63.434603730066634,10.393091285186454,0.0,1.4400000000000002e-10,0.0,0.0,0.0,1.4400000000000002e-10,0.0,0.0,0.0,1.0,2
2025/04/09 10:24:54.401583550,1744187094,401349596,mA1/gps,0,1,63.43460385336095,10.393091264577977,0.0,1.4400000000000002e-10,0.0,0.0,0.0,1.4400000000000002e-10,0.0,0.0,0.0,1.0,2
2025/04/09 10:24:54.451363898,1744187094,451178818,mA1/gps,0,1,63.434603979560144,10.393091247212261,0.0,1.4400000000000002e-10,0.0,0.0,0.0,1.4400000000000002e-10,0.0,0.0,0.0,1.0,2
2025/04/09 10:24:54.502374866,1744187094,502148270,mA1/gps,0,1,63.43460410726932,10.393091234553546,0.0,1.4400000000000002e-10,0.0,0.0,0.0,1.4400000000000002e-10,0.0,0.0,0.0,1.0,2
2025/04/09 10:24:54.553739521,1744187094,553465092,mA1/gps,0,1,63.43460423777183,10.39309122707061,0.0,1.4400000000000002e-10,0.0,0.0,0.0,1.4400000000000002e-10,0.0,0.0,0.0,1.0,2
2025/04/09 10:24:54.604653303,1744187094,604406787,mA1/gps,0,1,63.43460436898773,10.393091225326064,0.0,1.4400000000000002e-10,0.0,0.0,0.0,1.4400000000000002e-10,0.0,0.0,0.0,1.0,2
2025/04/09 10:24:54.654388550,1744187094,654189912,mA1/gps,0,1,63.43460450257306,10.393091229284765,0.0,1.4400000000000002e-10,0.0,0.0,0.0,1.4400000000000002e-10,0.0,0.0,0.0,1.0,2
2025/04/09 10:24:54.705634052,1744187094,705308645,mA1/gps,0,1,63.434604638055156,10.393091238957968,0.0,1.4400000000000002e-10,0.0,0.0,0.0,1.4400000000000002e-10,0.0,0.0,0.0,1.0,2
2025/04/09 10:24:54.755438807,1744187094,755029790,mA1/gps,0,1,63.43460477381319,10.393091253121533,0.0,1.4400000000000002e-10,0.0,0.0,0.0,1.4400000000000002e-10,0.0,0.0,0.0,1.0,2
2025/04/09 10:24:54.807961111,1744187094,806042481,mA1/gps,0,1,63.43460491062462,10.393091272074598,0.0,1.4400000000000002e-10,0.0,0.0,0.0,1.4400000000000002e-10,0.0,0.0,0.0,1.0,2
2025/04/09 10:24:54.856055860,1744187094,855935963,mA1/gps,0,1,63.43460504802241,10.393091294545338,0.0,1.4400000000000002e-10,0.0,0.0,0.0,1.4400000000000002e-10,0.0,0.0,0.0,1.0,2
2025/04/09 10:24:54.896932509,1744187094,896660393,mA1/gps,0,1,63.43460518484443,10.393091321979684,0.0,1.4400000000000002e-10,0.0,0.0,0.0,1.4400000000000002e-10,0.0,0.0,0.0,1.0,2
2025/04/09 10:24:54.946706125,1744187094,946593159,mA1/gps,0,1,63.434605322516475,10.393091350831497,0.0,1.4400000000000002e-10,0.0,0.0,0.0,1.4400000000000002e-10,0.0,0.0,0.0,1.0,2
2025/04/09 10:24:54.998395597,1744187094,997900674,mA1/gps,0,1,63.434605458316746,10.393091378460717,0.0,1.4400000000000002e-10,0.0,0.0,0.0,1.4400000000000002e-10,0.0,0.0,0.0,1.0,2
2025/04/09 10:24:55.47653690,1744187095,47410187,mA1/gps,0,1,63.434605594268994,10.393091402166037,0.0,1.4400000000000002e-10,0.0,0.0,0.0,1.4400000000000002e-10,0.0,0.0,0.0,1.0,2
2025/04/09 10:24:55.98495251,1744187095,98367686,mA1/gps,0,1,63.43460572811664,10.393091420346547,0.0,1.4400000000000002e-10,0.0,0.0,0.0,1.4400000000000002e-10,0.0,0.0,0.0,1.0,2
2025/04/09 10:24:55.148391771,1744187095,148115315,mA1/gps,0,1,63.43460586136254,10.393091431281285,0.0,1.4400000000000002e-10,0.0,0.0,0.0,1.4400000000000002e-10,0.0,0.0,0.0,1.0,2
2025/04/09 10:24:55.199292796,1744187095,199158417,mA1/gps,0,1,63.43460599279258,10.393091432369024,0.0,1.4400000000000002e-10,0.0,0.0,0.0,1.4400000000000002e-10,0.0,0.0,0.0,1.0,2
2025/04/09 10:24:55.249208024,1744187095,248939590,mA1/gps,0,1,63.43460612316843,10.393091424659982,0.0,1.4400000000000002e-10,0.0,0.0,0.0,1.4400000000000002e-10,0.0,0.0,0.0,1.0,2
2025/04/09 10:24:55.300386916,1744187095,300111977,mA1/gps,0,1,63.4346062526288,10.393091411313529,0.0,1.4400000000000002e-10,0.0,0.0,0.0,1.4400000000000002e-10,0.0,0.0,0.0,1.0,2
2025/04/09 10:24:55.350053473,1744187095,349827178,mA1/gps,0,1,63.43460638126601,10.393091392486015,0.0,1.4400000000000002e-10,0.0,0.0,0.0,1.4400000000000002e-10,0.0,0.0,0.0,1.0,2
2025/04/09 10:24:55.401332688,1744187095,400832507,mA1/gps,0,1,63.43460650958568,10.393091368089056,0.0,1.4400000000000002e-10,0.0,0.0,0.0,1.4400000000000002e-10,0.0,0.0,0.0,1.0,2
2025/04/09 10:24:55.450815700,1744187095,450602125,mA1/gps,0,1,63.43460663698565,10.393091340813115,0.0,1.4400000000000002e-10,0.0,0.0,0.0,1.4400000000000002e-10,0.0,0.0,0.0,1.0,2
2025/04/09 10:24:55.503284830,1744187095,503010633,mA1/gps,0,1,63.43460676317454,10.393091310678466,0.0,1.4400000000000002e-10,0.0,0.0,0.0,1.4400000000000002e-10,0.0,0.0,0.0,1.0,2
2025/04/09 10:24:55.553337645,1744187095,553142602,mA1/gps,0,1,63.434606889334425,10.393091280941963,0.0,1.4400000000000002e-10,0.0,0.0,0.0,1.4400000000000002e-10,0.0,0.0,0.0,1.0,2
2025/04/09 10:24:55.604724772,1744187095,604415551,mA1/gps,0,1,63.434607016961266,10.393091250887988,0.0,1.4400000000000002e-10,0.0,0.0,0.0,1.4400000000000002e-10,0.0,0.0,0.0,1.0,2
2025/04/09 10:24:55.654410573,1744187095,654199863,mA1/gps,0,1,63.434607146552324,10.39309122457219,0.0,1.4400000000000002e-10,0.0,0.0,0.0,1.4400000000000002e-10,0.0,0.0,0.0,1.0,2
2025/04/09 10:24:55.705598796,1744187095,705298445,mA1/gps,0,1,63.4346072772102,10.393091202967772,0.0,1.4400000000000002e-10,0.0,0.0,0.0,1.4400000000000002e-10,0.0,0.0,0.0,1.0,2
2025/04/09 10:24:55.755162668,1744187095,755057198,mA1/gps,0,1,63.434607408656255,10.393091187716783,0.0,1.4400000000000002e-10,0.0,0.0,0.0,1.4400000000000002e-10,0.0,0.0,0.0,1.0,2
2025/04/09 10:24:55.810709322,1744187095,806098069,mA1/gps,0,1,63.43460754055186,10.393091181878987,0.0,1.4400000000000002e-10,0.0,0.0,0.0,1.4400000000000002e-10,0.0,0.0,0.0,1.0,2
2025/04/09 10:24:55.846178318,1744187095,846009784,mA1/gps,0,1,63.43460767576678,10.393091184176782,0.0,1.4400000000000002e-10,0.0,0.0,0.0,1.4400000000000002e-10,0.0,0.0,0.0,1.0,2
2025/04/09 10:24:55.897213502,1744187095,896961132,mA1/gps,0,1,63.43460781244595,10.39309119184177,0.0,1.4400000000000002e-10,0.0,0.0,0.0,1.4400000000000002e-10,0.0,0.0,0.0,1.0,2
2025/04/09 10:24:55.947061883,1744187095,946837055,mA1/gps,0,1,63.43460795141779,10.393091205984662,0.0,1.4400000000000002e-10,0.0,0.0,0.0,1.4400000000000002e-10,0.0,0.0,0.0,1.0,2
2025/04/09 10:24:55.997833989,1744187095,997707298,mA1/gps,0,1,63.434608092022145,10.393091221604239,0.0,1.4400000000000002e-10,0.0,0.0,0.0,1.4400000000000002e-10,0.0,0.0,0.0,1.0,2
2025/04/09 10:24:56.47942998,1744187096,47737633,mA1/gps,0,1,63.434608234130685,10.393091238927482,0.0,1.4400000000000002e-10,0.0,0.0,0.0,1.4400000000000002e-10,0.0,0.0,0.0,1.0,2
2025/04/09 10:24:56.100098994,1744187096,99741551,mA1/gps,0,1,63.43460837788502,10.393091258508738,0.0,1.4400000000000002e-10,0.0,0.0,0.0,1.4400000000000002e-10,0.0,0.0,0.0,1.0,2
2025/04/09 10:24:56.148883433,1744187096,148541167,mA1/gps,0,1,63.43460852305827,10.393091279919686,0.0,1.4400000000000002e-10,0.0,0.0,0.0,1.4400000000000002e-10,0.0,0.0,0.0,1.0,2
2025/04/09 10:24:56.200137076,1744187096,199721548,mA1/gps,0,1,63.434608669019305,10.393091303267362,0.0,1.4400000000000002e-10,0.0,0.0,0.0,1.4400000000000002e-10,0.0,0.0,0.0,1.0,2
2025/04/09 10:24:56.249628609,1744187096,249381538,mA1/gps,0,1,63.43460881736732,10.39309132511506,0.0,1.4400000000000002e-10,0.0,0.0,0.0,1.4400000000000002e-10,0.0,0.0,0.0,1.0,2
2025/04/09 10:24:56.301831858,1744187096,301247270,mA1/gps,0,1,63.434608965593476,10.393091346264361,0.0,1.4400000000000002e-10,0.0,0.0,0.0,1.4400000000000002e-10,0.0,0.0,0.0,1.0,2
2025/04/09 10:24:56.351265453,1744187096,351044452,mA1/gps,0,1,63.4346091133833,10.393091363465901,0.0,1.4400000000000002e-10,0.0,0.0,0.0,1.4400000000000002e-10,0.0,0.0,0.0,1.0,2
2025/04/09 10:24:56.403768417,1744187096,402009493,mA1/gps,0,1,63.434609260393664,10.393091375524595,0.0,1.4400000000000002e-10,0.0,0.0,0.0,1.4400000000000002e-10,0.0,0.0,0.0,1.0,2
2025/04/09 10:24:56.451929026,1744187096,451763834,mA1/gps,0,1,63.43460940832001,10.39309138138073,0.0,1.4400000000000002e-10,0.0,0.0,0.0,1.4400000000000002e-10,0.0,0.0,0.0,1.0,2
2025/04/09 10:24:56.503125794,1744187096,502808126,mA1/gps,0,1,63.434609555287864,10.393091382145418,0.0,1.4400000000000002e-10,0.0,0.0,0.0,1.4400000000000002e-10,0.0,0.0,0.0,1.0,2
2025/04/09 10:24:56.554193822,1744187096,552890198,mA1/gps,0,1,63.43460969920277,10.393091377472857,0.0,1.4400000000000002e-10,0.0,0.0,0.0,1.4400000000000002e-10,0.0,0.0,0.0,1.0,2
2025/04/09 10:24:56.604261003,1744187096,603879923,mA1/gps,0,1,63.43460984304854,10.393091367011241,0.0,1.4400000000000002e-10,0.0,0.0,0.0,1.4400000000000002e-10,0.0,0.0,0.0,1.0,2
2025/04/09 10:24:56.653887643,1744187096,653634537,mA1/gps,0,1,63.43460998717546,10.393091350154815,0.0,1.4400000000000002e-10,0.0,0.0,0.0,1.4400000000000002e-10,0.0,0.0,0.0,1.0,2
2025/04/09 10:24:56.706917205,1744187096,705380534,mA1/gps,0,1,63.43461012819226,10.393091327901525,0.0,1.4400000000000002e-10,0.0,0.0,0.0,1.4400000000000002e-10,0.0,0.0,0.0,1.0,2
2025/04/09 10:24:56.754629665,1744187096,754434846,mA1/gps,0,1,63.43461026829835,10.393091301968141,0.0,1.4400000000000002e-10,0.0,0.0,0.0,1.4400000000000002e-10,0.0,0.0,0.0,1.0,2
2025/04/09 10:24:56.806403347,1744187096,806237802,mA1/gps,0,1,63.434610407525895,10.39309127352462,0.0,1.4400000000000002e-10,0.0,0.0,0.0,1.4400000000000002e-10,0.0,0.0,0.0,1.0,2
2025/04/09 10:24:56.855613815,1744187096,855414408,mA1/gps,0,1,63.434610545015595,10.393091245402909,0.0,1.4400000000000002e-10,0.0,0.0,0.0,1.4400000000000002e-10,0.0,0.0,0.0,1.0,2
2025/04/09 10:24:56.909194693,1744187096,907111196,mA1/gps,0,1,63.43461068407675,10.393091217231582,0.0,1.4400000000000002e-10,0.0,0.0,0.0,1.4400000000000002e-10,0.0,0.0,0.0,1.0,2
2025/04/09 10:24:56.947159843,1744187096,946819833,mA1/gps,0,1,63.43461082285449,10.39309119249439,0.0,1.4400000000000002e-10,0.0,0.0,0.0,1.4400000000000002e-10,0.0,0.0,0.0,1.0,2
2025/04/09 10:24:56.997908954,1744187096,997739213,mA1/gps,0,1,63.434610960971554,10.39309117206302,0.0,1.4400000000000002e-10,0.0,0.0,0.0,1.4400000000000002e-10,0.0,0.0,0.0,1.0,2
2025/04/09 10:24:57.47909543,1744187097,47713862,mA1/gps,0,1,63.434611098139904,10.393091158096512,0.0,1.4400000000000002e-10,0.0,0.0,0.0,1.4400000000000002e-10,0.0,0.0,0.0,1.0,2
2025/04/09 10:24:57.98829709,1744187097,98573421,mA1/gps,0,1,63.434611237462704,10.393091151186539,0.0,1.4400000000000002e-10,0.0,0.0,0.0,1.4400000000000002e-10,0.0,0.0,0.0,1.0,2
2025/04/09 10:24:57.148876949,1744187097,148516624,mA1/gps,0,1,63.43461137766706,10.393091151813445,0.0,1.4400000000000002e-10,0.0,0.0,0.0,1.4400000000000002e-10,0.0,0.0,0.0,1.0,2
2025/04/09 10:24:57.199722339,1744187097,199399679,mA1/gps,0,1,63.434611519643646,10.393091157068756,0.0,1.4400000000000002e-10,0.0,0.0,0.0,1.4400000000000002e-10,0.0,0.0,0.0,1.0,2
2025/04/09 10:24:57.249463560,1744187097,249271884,mA1/gps,0,1,63.434611662747635,10.393091169280844,0.0,1.4400000000000002e-10,0.0,0.0,0.0,1.4400000000000002e-10,0.0,0.0,0.0,1.0,2
2025/04/09 10:24:57.301727727,1744187097,301480294,mA1/gps,0,1,63.434611807876,10.393091185597639,0.0,1.4400000000000002e-10,0.0,0.0,0.0,1.4400000000000002e-10,0.0,0.0,0.0,1.0,2
2025/04/09 10:24:57.351497167,1744187097,351307296,mA1/gps,0,1,63.43461195500245,10.393091206510361,0.0,1.4400000000000002e-10,0.0,0.0,0.0,1.4400000000000002e-10,0.0,0.0,0.0,1.0,2
2025/04/09 10:24:57.403593649,1744187097,403296681,mA1/gps,0,1,63.434612103317185,10.393091232735804,0.0,1.4400000000000002e-10,0.0,0.0,0.0,1.4400000000000002e-10,0.0,0.0,0.0,1.0,2
2025/04/09 10:24:57.453261951,1744187097,453051575,mA1/gps,0,1,63.43461225616227,10.393091262058832,0.0,1.4400000000000002e-10,0.0,0.0,0.0,1.4400000000000002e-10,0.0,0.0,0.0,1.0,2
2025/04/09 10:24:57.504409778,1744187097,504022046,mA1/gps,0,1,63.43461240706769,10.393091289026335,0.0,1.4400000000000002e-10,0.0,0.0,0.0,1.4400000000000002e-10,0.0,0.0,0.0,1.0,2
2025/04/09 10:24:57.555466521,1744187097,555223668,mA1/gps,0,1,63.43461256248842,10.393091314838006,0.0,1.4400000000000002e-10,0.0,0.0,0.0,1.4400000000000002e-10,0.0,0.0,0.0,1.0,2
2025/04/09 10:24:57.606337123,1744187097,606220040,mA1/gps,0,1,63.43461271755988,10.393091338895319,0.0,1.4400000000000002e-10,0.0,0.0,0.0,1.4400000000000002e-10,0.0,0.0,0.0,1.0,2
2025/04/09 10:24:57.646298171,1744187097,646034849,mA1/gps,0,1,63.434612874445605,10.393091358223412,0.0,1.4400000000000002e-10,0.0,0.0,0.0,1.4400000000000002e-10,0.0,0.0,0.0,1.0,2
2025/04/09 10:24:57.697379521,1744187097,697035771,mA1/gps,0,1,63.43461303160012,10.393091372302793,0.0,1.4400000000000002e-10,0.0,0.0,0.0,1.4400000000000002e-10,0.0,0.0,0.0,1.0,2
2025/04/09 10:24:57.747115279,1744187097,746935678,mA1/gps,0,1,63.43461318964643,10.393091379463723,0.0,1.4400000000000002e-10,0.0,0.0,0.0,1.4400000000000002e-10,0.0,0.0,0.0,1.0,2
2025/04/09 10:24:57.798257924,1744187097,797998231,mA1/gps,0,1,63.43461334811223,10.393091380758783,0.0,1.4400000000000002e-10,0.0,0.0,0.0,1.4400000000000002e-10,0.0,0.0,0.0,1.0,2
2025/04/09 10:24:57.849113820,1744187097,848856652,mA1/gps,0,1,63.43461350560298,10.393091375333897,0.0,1.4400000000000002e-10,0.0,0.0,0.0,1.4400000000000002e-10,0.0,0.0,0.0,1.0,2
2025/04/09 10:24:57.900122672,1744187097,899957878,mA1/gps,0,1,63.43461366348907,10.393091363634229,0.0,1.4400000000000002e-10,0.0,0.0,0.0,1.4400000000000002e-10,0.0,0.0,0.0,1.0,2
2025/04/09 10:24:57.950519243,1744187097,950190897,mA1/gps,0,1,63.434613819856345,10.393091345749168,0.0,1.4400000000000002e-10,0.0,0.0,0.0,1.4400000000000002e-10,0.0,0.0,0.0,1.0,2
2025/04/09 10:24:58.2966891,1744187098,1188601,mA1/gps,0,1,63.434613976109745,10.393091321857133,0.0,1.4400000000000002e-10,0.0,0.0,0.0,1.4400000000000002e-10,0.0,0.0,0.0,1.0,2
2025/04/09 10:24:58.52575881,1744187098,51133469,mA1/gps,0,1,63.43461413048627,10.393091295133836,0.0,1.4400000000000002e-10,0.0,0.0,0.0,1.4400000000000002e-10,0.0,0.0,0.0,1.0,2
2025/04/09 10:24:58.102236984,1744187098,102031292,mA1/gps,0,1,63.43461428480137,10.393091267335562,0.0,1.4400000000000002e-10,0.0,0.0,0.0,1.4400000000000002e-10,0.0,0.0,0.0,1.0,2
2025/04/09 10:24:58.151991470,1744187098,151777375,mA1/gps,0,1,63.43461443700603,10.393091240212643,0.0,1.4400000000000002e-10,0.0,0.0,0.0,1.4400000000000002e-10,0.0,0.0,0.0,1.0,2
2025/04/09 10:24:58.204440115,1744187098,202813250,mA1/gps,0,1,63.43461458934369,10.393091214311612,0.0,1.4400000000000002e-10,0.0,0.0,0.0,1.4400000000000002e-10,0.0,0.0,0.0,1.0,2
2025/04/09 10:24:58.253235118,1744187098,253095691,mA1/gps,0,1,63.434614740547815,10.393091191430809,0.0,1.4400000000000002e-10,0.0,0.0,0.0,1.4400000000000002e-10,0.0,0.0,0.0,1.0,2
2025/04/09 10:24:58.304345509,1744187098,304019160,mA1/gps,0,1,63.43461489063251,10.393091171429115,0.0,1.4400000000000002e-10,0.0,0.0,0.0,1.4400000000000002e-10,0.0,0.0,0.0,1.0,2
2025/04/09 10:24:58.354285233,1744187098,353928175,mA1/gps,0,1,63.43461504082448,10.393091156784424,0.0,1.4400000000000002e-10,0.0,0.0,0.0,1.4400000000000002e-10,0.0,0.0,0.0,1.0,2
2025/04/09 10:24:58.405135234,1744187098,404852292,mA1/gps,0,1,63.434615191019105,10.393091149283965,0.0,1.4400000000000002e-10,0.0,0.0,0.0,1.4400000000000002e-10,0.0,0.0,0.0,1.0,2
2025/04/09 10:24:58.454907728,1744187098,454663827,mA1/gps,0,1,63.434615341117215,10.39309114880014,0.0,1.4400000000000002e-10,0.0,0.0,0.0,1.4400000000000002e-10,0.0,0.0,0.0,1.0,2
2025/04/09 10:24:58.506692307,1744187098,505670647,mA1/gps,0,1,63.43461549088436,10.393091152391673,0.0,1.4400000000000002e-10,0.0,0.0,0.0,1.4400000000000002e-10,0.0,0.0,0.0,1.0,2
2025/04/09 10:24:58.555661825,1744187098,555412389,mA1/gps,0,1,63.43461564148383,10.393091162755281,0.0,1.4400000000000002e-10,0.0,0.0,0.0,1.4400000000000002e-10,0.0,0.0,0.0,1.0,2
2025/04/09 10:24:58.598782714,1744187098,596598558,mA1/gps,0,1,63.43461579359165,10.393091179637846,0.0,1.4400000000000002e-10,0.0,0.0,0.0,1.4400000000000002e-10,0.0,0.0,0.0,1.0,2
2025/04/09 10:24:58.647102373,1744187098,646426139,mA1/gps,0,1,63.43461594825412,10.393091200695915,0.0,1.4400000000000002e-10,0.0,0.0,0.0,1.4400000000000002e-10,0.0,0.0,0.0,1.0,2
2025/04/09 10:24:58.697640404,1744187098,697433611,mA1/gps,0,1,63.43461610361444,10.393091223812542,0.0,1.4400000000000002e-10,0.0,0.0,0.0,1.4400000000000002e-10,0.0,0.0,0.0,1.0,2
2025/04/09 10:24:58.747436104,1744187098,747235694,mA1/gps,0,1,63.43461626010615,10.393091249214324,0.0,1.4400000000000002e-10,0.0,0.0,0.0,1.4400000000000002e-10,0.0,0.0,0.0,1.0,2
2025/04/09 10:24:58.798520360,1744187098,798212040,mA1/gps,0,1,63.43461641874503,10.393091275869413,0.0,1.4400000000000002e-10,0.0,0.0,0.0,1.4400000000000002e-10,0.0,0.0,0.0,1.0,2
2025/04/09 10:24:58.848262200,1744187098,848017862,mA1/gps,0,1,63.43461657889694,10.393091300764953,0.0,1.4400000000000002e-10,0.0,0.0,0.0,1.4400000000000002e-10,0.0,0.0,0.0,1.0,2
2025/04/09 10:24:58.899417252,1744187098,899131824,mA1/gps,0,1,63.434616740111196,10.393091322450116,0.0,1.4400000000000002e-10,0.0,0.0,0.0,1.4400000000000002e-10,0.0,0.0,0.0,1.0,2
2025/04/09 10:24:58.949112365,1744187098,948876129,mA1/gps,0,1,63.434616903059705,10.393091339207661,0.0,1.4400000000000002e-10,0.0,0.0,0.0,1.4400000000000002e-10,0.0,0.0,0.0,1.0,2
2025/04/09 10:24:59.93049,1744187098,999840214,mA1/gps,0,1,63.43461706803431,10.393091349596867,0.0,1.4400000000000002e-10,0.0,0.0,0.0,1.4400000000000002e-10,0.0,0.0,0.0,1.0,2
2025/04/09 10:24:59.50400970,1744187099,50223572,mA1/gps,0,1,63.434617236131,10.3930913552661,0.0,1.4400000000000002e-10,0.0,0.0,0.0,1.4400000000000002e-10,0.0,0.0,0.0,1.0,2
2025/04/09 10:24:59.101380823,1744187099,101107348,mA1/gps,0,1,63.43461740263064,10.393091353906252,0.0,1.4400000000000002e-10,0.0,0.0,0.0,1.4400000000000002e-10,0.0,0.0,0.0,1.0,2
2025/04/09 10:24:59.151182755,1744187099,150902651,mA1/gps,0,1,63.434617569990415,10.393091346850024,0.0,1.4400000000000002e-10,0.0,0.0,0.0,1.4400000000000002e-10,0.0,0.0,0.0,1.0,2
2025/04/09 10:24:59.204760047,1744187099,201874586,mA1/gps,0,1,63.43461773819399,10.393091333837994,0.0,1.4400000000000002e-10,0.0,0.0,0.0,1.4400000000000002e-10,0.0,0.0,0.0,1.0,2
2025/04/09 10:24:59.251983041,1744187099,251672602,mA1/gps,0,1,63.43461790582529,10.393091317288684,0.0,1.4400000000000002e-10,0.0,0.0,0.0,1.4400000000000002e-10,0.0,0.0,0.0,1.0,2
2025/04/09 10:24:59.304688775,1744187099,304557413,mA1/gps,0,1,63.43461807306027,10.393091296622362,0.0,1.4400000000000002e-10,0.0,0.0,0.0,1.4400000000000002e-10,0.0,0.0,0.0,1.0,2
2025/04/09 10:24:59.355552571,1744187099,355248969,mA1/gps,0,1,63.43461824049047,10.393091272503959,0.0,1.4400000000000002e-10,0.0,0.0,0.0,1.4400000000000002e-10,0.0,0.0,0.0,1.0,2
2025/04/09 10:24:59.406439698,1744187099,406249850,mA1/gps,0,1,63.434618406327985,10.393091247935168,0.0,1.4400000000000002e-10,0.0,0.0,0.0,1.4400000000000002e-10,0.0,0.0,0.0,1.0,2
2025/04/09 10:24:59.446283026,1744187099,446037044,mA1/gps,0,1,63.43461857037803,10.393091222594617,0.0,1.4400000000000002e-10,0.0,0.0,0.0,1.4400000000000002e-10,0.0,0.0,0.0,1.0,2
2025/04/09 10:24:59.497265913,1744187099,496953290,mA1/gps,0,1,63.4346187327787,10.39309119960158,0.0,1.4400000000000002e-10,0.0,0.0,0.0,1.4400000000000002e-10,0.0,0.0,0.0,1.0,2
2025/04/09 10:24:59.546972924,1744187099,546779027,mA1/gps,0,1,63.43461889428599,10.39309118048979,0.0,1.4400000000000002e-10,0.0,0.0,0.0,1.4400000000000002e-10,0.0,0.0,0.0,1.0,2
2025/04/09 10:24:59.598005023,1744187099,597747653,mA1/gps,0,1,63.434619053285786,10.393091166197841,0.0,1.4400000000000002e-10,0.0,0.0,0.0,1.4400000000000002e-10,0.0,0.0,0.0,1.0,2
2025/04/09 10:24:59.649478335,1744187099,647663108,mA1/gps,0,1,63.43461921013805,10.393091156889712,0.0,1.4400000000000002e-10,0.0,0.0,0.0,1.4400000000000002e-10,0.0,0.0,0.0,1.0,2
2025/04/09 10:24:59.700903072,1744187099,698631397,mA1/gps,0,1,63.434619365725965,10.3930911531293,0.0,1.4400000000000002e-10,0.0,0.0,0.0,1.4400000000000002e-10,0.0,0.0,0.0,1.0,2
2025/04/09 10:24:59.748643960,1744187099,748467325,mA1/gps,0,1,63.434619518722926,10.393091154880246,0.0,1.4400000000000002e-10,0.0,0.0,0.0,1.4400000000000002e-10,0.0,0.0,0.0,1.0,2
2025/04/09 10:24:59.799592433,1744187099,799385975,mA1/gps,0,1,63.43461966970778,10.393091163103177,0.0,1.4400000000000002e-10,0.0,0.0,0.0,1.4400000000000002e-10,0.0,0.0,0.0,1.0,2
2025/04/09 10:24:59.849339847,1744187099,849150675,mA1/gps,0,1,63.434619821211776,10.393091176227284,0.0,1.4400000000000002e-10,0.0,0.0,0.0,1.4400000000000002e-10,0.0,0.0,0.0,1.0,2
2025/04/09 10:24:59.900321930,1744187099,900106305,mA1/gps,0,1,63.43461996924766,10.393091193770164,0.0,1.4400000000000002e-10,0.0,0.0,0.0,1.4400000000000002e-10,0.0,0.0,0.0,1.0,2
2025/04/09 10:24:59.950347194,1744187099,950091326,mA1/gps,0,1,63.43462011648241,10.393091214541162,0.0,1.4400000000000002e-10,0.0,0.0,0.0,1.4400000000000002e-10,0.0,0.0,0.0,1.0,2
2025/04/09 10:25:00.1512080,1744187100,1088255,mA1/gps,0,1,63.4346202625198,10.393091239276268,0.0,1.4400000000000002e-10,0.0,0.0,0.0,1.4400000000000002e-10,0.0,0.0,0.0,1.0,2
2025/04/09 10:25:00.60775590,1744187100,56413193,mA1/gps,0,1,63.43462040769721,10.393091266035167,0.0,1.4400000000000002e-10,0.0,0.0,0.0,1.4400000000000002e-10,0.0,0.0,0.0,1.0,2
2025/04/09 10:25:00.98261064,1744187100,98009768,mA1/gps,0,1,63.43462055196281,10.393091291913377,0.0,1.4400000000000002e-10,0.0,0.0,0.0,1.4400000000000002e-10,0.0,0.0,0.0,1.0,2
2025/04/09 10:25:00.148164321,1744187100,147854462,mA1/gps,0,1,63.434620696432646,10.393091313308856,0.0,1.4400000000000002e-10,0.0,0.0,0.0,1.4400000000000002e-10,0.0,0.0,0.0,1.0,2
2025/04/09 10:25:00.199371657,1744187100,199113734,mA1/gps,0,1,63.434620841668284,10.393091329758253,0.0,1.4400000000000002e-10,0.0,0.0,0.0,1.4400000000000002e-10,0.0,0.0,0.0,1.0,2
2025/04/09 10:25:00.249330112,1744187100,249188622,mA1/gps,0,1,63.43462098689234,10.393091341239511,0.0,1.4400000000000002e-10,0.0,0.0,0.0,1.4400000000000002e-10,0.0,0.0,0.0,1.0,2
2025/04/09 10:25:00.300265754,1744187100,300077036,mA1/gps,0,1,63.43462113124462,10.393091348062681,0.0,1.4400000000000002e-10,0.0,0.0,0.0,1.4400000000000002e-10,0.0,0.0,0.0,1.0,2
2025/04/09 10:25:00.350182207,1744187100,349901626,mA1/gps,0,1,63.43462127659709,10.393091349939073,0.0,1.4400000000000002e-10,0.0,0.0,0.0,1.4400000000000002e-10,0.0,0.0,0.0,1.0,2
2025/04/09 10:25:00.401043323,1744187100,400801632,mA1/gps,0,1,63.43462142208417,10.393091348730547,0.0,1.4400000000000002e-10,0.0,0.0,0.0,1.4400000000000002e-10,0.0,0.0,0.0,1.0,2
2025/04/09 10:25:00.450962483,1744187100,450620497,mA1/gps,0,1,63.43462156778177,10.393091342622764,0.0,1.4400000000000002e-10,0.0,0.0,0.0,1.4400000000000002e-10,0.0,0.0,0.0,1.0,2
2025/04/09 10:25:00.501904388,1744187100,501576775,mA1/gps,0,1,63.43462171332698,10.3930913317204,0.0,1.4400000000000002e-10,0.0,0.0,0.0,1.4400000000000002e-10,0.0,0.0,0.0,1.0,2
2025/04/09 10:25:00.553262468,1744187100,553045557,mA1/gps,0,1,63.43462185861432,10.393091315575312,0.0,1.4400000000000002e-10,0.0,0.0,0.0,1.4400000000000002e-10,0.0,0.0,0.0,1.0,2
2025/04/09 10:25:00.604003005,1744187100,603807963,mA1/gps,0,1,63.434622004069645,10.393091297420323,0.0,1.4400000000000002e-10,0.0,0.0,0.0,1.4400000000000002e-10,0.0,0.0,0.0,1.0,2
2025/04/09 10:25:00.656141267,1744187100,654810897,mA1/gps,0,1,63.43462214911985,10.393091277487523,0.0,1.4400000000000002e-10,0.0,0.0,0.0,1.4400000000000002e-10,0.0,0.0,0.0,1.0,2
2025/04/09 10:25:00.704970434,1744187100,704692624,mA1/gps,0,1,63.43462229251451,10.393091258490061,0.0,1.4400000000000002e-10,0.0,0.0,0.0,1.4400000000000002e-10,0.0,0.0,0.0,1.0,2
2025/04/09 10:25:00.754717790,1744187100,754505123,mA1/gps,0,1,63.43462243502046,10.393091240771144,0.0,1.4400000000000002e-10,0.0,0.0,0.0,1.4400000000000002e-10,0.0,0.0,0.0,1.0,2
2025/04/09 10:25:00.805710912,1744187100,805468138,mA1/gps,0,1,63.43462257685564,10.393091225434672,0.0,1.4400000000000002e-10,0.0,0.0,0.0,1.4400000000000002e-10,0.0,0.0,0.0,1.0,2
2025/04/09 10:25:00.856304788,1744187100,855286340,mA1/gps,0,1,63.434622716587384,10.39309121389395,0.0,1.4400000000000002e-10,0.0,0.0,0.0,1.4400000000000002e-10,0.0,0.0,0.0,1.0,2
2025/04/09 10:25:00.906538628,1744187100,906279080,mA1/gps,0,1,63.43462285417364,10.393091206352771,0.0,1.4400000000000002e-10,0.0,0.0,0.0,1.4400000000000002e-10,0.0,0.0,0.0,1.0,2
