time,header_stamp_secs,header_stamp_nsecs,header_frame_id,child_frame_id,pose_pose_position_x,pose_pose_position_y,pose_pose_position_z,pose_pose_orientation_x,pose_pose_orientation_y,pose_pose_orientation_z,pose_pose_orientation_w,pose_covariance_0,pose_covariance_1,pose_covariance_2,pose_covariance_3,pose_covariance_4,pose_covariance_5,pose_covariance_6,pose_covariance_7,pose_covariance_8,pose_covariance_9,pose_covariance_10,pose_covariance_11,pose_covariance_12,pose_covariance_13,pose_covariance_14,pose_covariance_15,pose_covariance_16,pose_covariance_17,pose_covariance_18,pose_covariance_19,pose_covariance_20,pose_covariance_21,pose_covariance_22,pose_covariance_23,pose_covariance_24,pose_covariance_25,pose_covariance_26,pose_covariance_27,pose_covariance_28,pose_covariance_29,pose_covariance_30,pose_covariance_31,pose_covariance_32,pose_covariance_33,pose_covariance_34,pose_covariance_35,twist_twist_linear_x,twist_twist_linear_y,twist_twist_linear_z,twist_twist_angular_x,twist_twist_angular_y,twist_twist_angular_z,twist_covariance_0,twist_covariance_1,twist_covariance_2,twist_covariance_3,twist_covariance_4,twist_covariance_5,twist_covariance_6,twist_covariance_7,twist_covariance_8,twist_covariance_9,twist_covariance_10,twist_covariance_11,twist_covariance_12,twist_covariance_13,twist_covariance_14,twist_covariance_15,twist_covariance_16,twist_covariance_17,twist_covariance_18,twist_covariance_19,twist_covariance_20,twist_covariance_21,twist_covariance_22,twist_covariance_23,twist_covariance_24,twist_covariance_25,twist_covariance_26,twist_covariance_27,twist_covariance_28,twist_covariance_29,twist_covariance_30,twist_covariance_31,twist_covariance_32,twist_covariance_33,twist_covariance_34,twist_covariance_35
2025/04/09 10:24:44.467399019,1744187084,466541253,world_ned,mA1/odom,1.5741349618666876,11.364799916112649,0.4336573810614997,-0.000386623377195015,0.00020003686880150248,0.004830374401567186,0.9999882389262166,0.0,0.0,0.0,0.0,0.0,0.0,0.0,0.0,0.0,0.0,0.0,0.0,0.0,0.0,0.0,0.0,0.0,0.0,0.0,0.0,0.0,0.0,0.0,0.0,0.0,0.0,0.0,0.0,0.0,0.0,0.0,0.0,0.0,0.0,0.0,0.0,0.01682434711198276,-0.00012139574451329127,0.00015735036714069646,-0.00020885509971929774,9.350239043885216e-05,-0.0006235634990615041,0.0,0.0,0.0,0.0,0.0,0.0,0.0,0.0,0.0,0.0,0.0,0.0,0.0,0.0,0.0,0.0,0.0,0.0,0.0,0.0,0.0,0.0,0.0,0.0,0.0,0.0,0.0,0.0,0.0,0.0,0.0,0.0,0.0,0.0,0.0,0.0
2025/04/09 10:24:44.561810640,1744187084,561044370,world_ned,mA1/odom,1.5757883550772016,11.364804670329839,0.4336760281122303,-0.0003983215163418658,0.00018364338866299558,0.004799333210916723,0.9999883869404714,0.0,0.0,0.0,0.0,0.0,0.0,0.0,0.0,0.0,0.0,0.0,0.0,0.0,0.0,0.0,0.0,0.0,0.0,0.0,0.0,0.0,0.0,0.0,0.0,0.0,0.0,0.0,0.0,0.0,0.0,0.0,0.0,0.0,0.0,0.0,0.0,0.016302598650030874,-0.00010937155340909644,0.00021516916488123312,-0.00024817898851081405,-0.0006602779140103841,-0.0006188819188200529,0.0,0.0,0.0,0.0,0.0,0.0,0.0,0.0,0.0,0.0,0.0,0.0,0.0,0.0,0.0,0.0,0.0,0.0,0.0,0.0,0.0,0.0,0.0,0.0,0.0,0.0,0.0,0.0,0.0,0.0,0.0,0.0,0.0,0.0,0.0,0.0
2025/04/09 10:24:44.660533374,1744187084,660207601,world_ned,mA1/odom,1.5773934689752978,11.364808115885776,0.4336976362228244,-0.00041020213536947423,0.00013248467519188993,0.004768543920669693,0.9999885375197536,0.0,0.0,0.0,0.0,0.0,0.0,0.0,0.0,0.0,0.0,0.0,0.0,0.0,0.0,0.0,0.0,0.0,0.0,0.0,0.0,0.0,0.0,0.0,0.0,0.0,0.0,0.0,0.0,0.0,0.0,0.0,0.0,0.0,0.0,0.0,0.0,0.015862788002675383,-0.00013258170553037669,0.00021831979217661887,-0.00022876259882376445,-0.0012886992790924507,-0.0006140403086249022,0.0,0.0,0.0,0.0,0.0,0.0,0.0,0.0,0.0,0.0,0.0,0.0,0.0,0.0,0.0,0.0,0.0,0.0,0.0,0.0,0.0,0.0,0.0,0.0,0.0,0.0,0.0,0.0,0.0,0.0,0.0,0.0,0.0,0.0,0.0,0.0
2025/04/09 10:24:44.761789949,1744187084,761515175,world_ned,mA1/odom,1.5789600441545901,11.364807019202338,0.43371655699827766,-0.00041948595421571993,5.6464882558384705e-05,0.004738017814905594,0.9999886859512146,0.0,0.0,0.0,0.0,0.0,0.0,0.0,0.0,0.0,0.0,0.0,0.0,0.0,0.0,0.0,0.0,0.0,0.0,0.0,0.0,0.0,0.0,0.0,0.0,0.0,0.0,0.0,0.0,0.0,0.0,0.0,0.0,0.0,0.0,0.0,0.0,0.015338214362456724,-0.00018639924595303267,0.00016359176355629077,-0.0001564150633984367,-0.0016102891151970522,-0.0006087890860190645,0.0,0.0,0.0,0.0,0.0,0.0,0.0,0.0,0.0,0.0,0.0,0.0,0.0,0.0,0.0,0.0,0.0,0.0,0.0,0.0,0.0,0.0,0.0,0.0,0.0,0.0,0.0,0.0,0.0,0.0,0.0,0.0,0.0,0.0,0.0,0.0
2025/04/09 10:24:44.865196352,1744187084,864957522,world_ned,mA1/odom,1.5804999644775428,11.364798968761374,0.43372798853057093,-0.00042399795871980413,-2.97185868355512e-05,0.004707765315547022,0.9999888280817293,0.0,0.0,0.0,0.0,0.0,0.0,0.0,0.0,0.0,0.0,0.0,0.0,0.0,0.0,0.0,0.0,0.0,0.0,0.0,0.0,0.0,0.0,0.0,0.0,0.0,0.0,0.0,0.0,0.0,0.0,0.0,0.0,0.0,0.0,0.0,0.0,0.015427551218747499,-0.000259739966391756,7.035940325140499e-05,-4.8033926661675615e-05,-0.0017523014741875746,-0.000603307631832256,0.0,0.0,0.0,0.0,0.0,0.0,0.0,0.0,0.0,0.0,0.0,0.0,0.0,0.0,0.0,0.0,0.0,0.0,0.0,0.0,0.0,0.0,0.0,0.0,0.0,0.0,0.0,0.0,0.0,0.0,0.0,0.0,0.0,0.0,0.0,0.0
2025/04/09 10:24:44.966255364,1744187084,966044649,world_ned,mA1/odom,1.5820485827217183,11.364783536197999,0.4337291734346572,-0.00042289626793191724,-0.00011282140313209735,0.004677778027521674,0.9999889633504976,0.0,0.0,0.0,0.0,0.0,0.0,0.0,0.0,0.0,0.0,0.0,0.0,0.0,0.0,0.0,0.0,0.0,0.0,0.0,0.0,0.0,0.0,0.0,0.0,0.0,0.0,0.0,0.0,0.0,0.0,0.0,0.0,0.0,0.0,0.0,0.0,0.015550079806717144,-0.0003264363694202443,-4.0065757335669996e-05,6.0733991455683844e-05,-0.0015409324545805298,-0.000599047188007918,0.0,0.0,0.0,0.0,0.0,0.0,0.0,0.0,0.0,0.0,0.0,0.0,0.0,0.0,0.0,0.0,0.0,0.0,0.0,0.0,0.0,0.0,0.0,0.0,0.0,0.0,0.0,0.0,0.0,0.0,0.0,0.0,0.0,0.0,0.0,0.0
2025/04/09 10:24:45.56989747,1744187085,56733070,world_ned,mA1/odom,1.583621083724719,11.364763260641999,0.433719522282982,-0.00041723961041068274,-0.00017819925917750845,0.0046478914964779745,0.999989095570931,0.0,0.0,0.0,0.0,0.0,0.0,0.0,0.0,0.0,0.0,0.0,0.0,0.0,0.0,0.0,0.0,0.0,0.0,0.0,0.0,0.0,0.0,0.0,0.0,0.0,0.0,0.0,0.0,0.0,0.0,0.0,0.0,0.0,0.0,0.0,0.0,0.01578972584891961,-0.00036993441380234844,-0.0001458634958011008,0.00014376226758165152,-0.0010557047079283338,-0.0005967629127302807,0.0,0.0,0.0,0.0,0.0,0.0,0.0,0.0,0.0,0.0,0.0,0.0,0.0,0.0,0.0,0.0,0.0,0.0,0.0,0.0,0.0,0.0,0.0,0.0,0.0,0.0,0.0,0.0,0.0,0.0,0.0,0.0,0.0,0.0,0.0,0.0
2025/04/09 10:24:45.158319948,1744187085,157856139,world_ned,mA1/odom,1.585214445334674,11.364738674621103,0.4337014824468287,-0.0004080617100675779,-0.00021256907888772848,0.004618224252140757,0.9999892300943968,0.0,0.0,0.0,0.0,0.0,0.0,0.0,0.0,0.0,0.0,0.0,0.0,0.0,0.0,0.0,0.0,0.0,0.0,0.0,0.0,0.0,0.0,0.0,0.0,0.0,0.0,0.0,0.0,0.0,0.0,0.0,0.0,0.0,0.0,0.0,0.0,0.016064045998999132,-0.0004081239981821225,-0.00021177561225678646,0.00020337013694656148,-0.0003698535606975788,-0.0005912111731483903,0.0,0.0,0.0,0.0,0.0,0.0,0.0,0.0,0.0,0.0,0.0,0.0,0.0,0.0,0.0,0.0,0.0,0.0,0.0,0.0,0.0,0.0,0.0,0.0,0.0,0.0,0.0,0.0,0.0,0.0,0.0,0.0,0.0,0.0,0.0,0.0
2025/04/09 10:24:45.259953153,1744187085,258861333,world_ned,mA1/odom,1.5868392449149709,11.36471221978948,0.4336798553024812,-0.00039740975976138856,-0.00021067400790587072,0.004588790007174231,0.9999893702876123,0.0,0.0,0.0,0.0,0.0,0.0,0.0,0.0,0.0,0.0,0.0,0.0,0.0,0.0,0.0,0.0,0.0,0.0,0.0,0.0,0.0,0.0,0.0,0.0,0.0,0.0,0.0,0.0,0.0,0.0,0.0,0.0,0.0,0.0,0.0,0.0,0.016389398150619416,-0.000408833719097111,-0.00022206778322060401,0.00020949721149719446,0.0003686460925456873,-0.0005876905201370196,0.0,0.0,0.0,0.0,0.0,0.0,0.0,0.0,0.0,0.0,0.0,0.0,0.0,0.0,0.0,0.0,0.0,0.0,0.0,0.0,0.0,0.0,0.0,0.0,0.0,0.0,0.0,0.0,0.0,0.0,0.0,0.0,0.0,0.0,0.0,0.0
2025/04/09 10:24:45.364256657,1744187085,362788259,world_ned,mA1/odom,1.5885061899781858,11.36468886959827,0.4336604499084745,-0.0003884235091385889,-0.0001751448219198143,0.004559389094012026,0.9999895151563132,0.0,0.0,0.0,0.0,0.0,0.0,0.0,0.0,0.0,0.0,0.0,0.0,0.0,0.0,0.0,0.0,0.0,0.0,0.0,0.0,0.0,0.0,0.0,0.0,0.0,0.0,0.0,0.0,0.0,0.0,0.0,0.0,0.0,0.0,0.0,0.0,0.016995168393615017,-0.00036266929961161046,-0.00017531912868929035,0.0001535994170968786,0.0009355839241603151,-0.0005879291648562477,0.0,0.0,0.0,0.0,0.0,0.0,0.0,0.0,0.0,0.0,0.0,0.0,0.0,0.0,0.0,0.0,0.0,0.0,0.0,0.0,0.0,0.0,0.0,0.0,0.0,0.0,0.0,0.0,0.0,0.0,0.0,0.0,0.0,0.0,0.0,0.0
2025/04/09 10:24:45.465920706,1744187085,465684705,world_ned,mA1/odom,1.5902062645611172,11.364671374946775,0.4336483245170917,-0.00038329561496354864,-0.0001126018426642752,0.004529949836118894,0.9999896599264309,0.0,0.0,0.0,0.0,0.0,0.0,0.0,0.0,0.0,0.0,0.0,0.0,0.0,0.0,0.0,0.0,0.0,0.0,0.0,0.0,0.0,0.0,0.0,0.0,0.0,0.0,0.0,0.0,0.0,0.0,0.0,0.0,0.0,0.0,0.0,0.0,0.020878532965344712,-0.0003043846244265831,-6.976005227893296e-05,7.444422311416815e-05,0.00038534115347538993,-0.0005886294244530237,0.0,0.0,0.0,0.0,0.0,0.0,0.0,0.0,0.0,0.0,0.0,0.0,0.0,0.0,0.0,0.0,0.0,0.0,0.0,0.0,0.0,0.0,0.0,0.0,0.0,0.0,0.0,0.0,0.0,0.0,0.0,0.0,0.0,0.0,0.0,0.0
2025/04/09 10:24:45.556822395,1744187085,556541519,world_ned,mA1/odom,1.5918615771517066,11.364659216511031,0.43364898251201095,-0.0003823359511190126,-2.4561737559574546e-05,0.00450045940820795,0.9999897994885031,0.0,0.0,0.0,0.0,0.0,0.0,0.0,0.0,0.0,0.0,0.0,0.0,0.0,0.0,0.0,0.0,0.0,0.0,0.0,0.0,0.0,0.0,0.0,0.0,0.0,0.0,0.0,0.0,0.0,0.0,0.0,0.0,0.0,0.0,0.0,0.0,0.014780477635927115,-0.00023902093887674604,5.299972194255244e-05,-1.9956618907472015e-05,0.002327933032505231,-0.0005895701620308449,0.0,0.0,0.0,0.0,0.0,0.0,0.0,0.0,0.0,0.0,0.0,0.0,0.0,0.0,0.0,0.0,0.0,0.0,0.0,0.0,0.0,0.0,0.0,0.0,0.0,0.0,0.0,0.0,0.0,0.0,0.0,0.0,0.0,0.0,0.0,0.0
2025/04/09 10:24:45.657868989,1744187085,657449314,world_ned,mA1/odom,1.5935613037857708,11.364653272034637,0.4336600062305049,-0.00038594270283553544,5.849412365295675e-05,0.004470942267573583,0.9999899291002423,0.0,0.0,0.0,0.0,0.0,0.0,0.0,0.0,0.0,0.0,0.0,0.0,0.0,0.0,0.0,0.0,0.0,0.0,0.0,0.0,0.0,0.0,0.0,0.0,0.0,0.0,0.0,0.0,0.0,0.0,0.0,0.0,0.0,0.0,0.0,0.0,0.017129675358308182,-0.00021241784230605654,0.00014960263722279437,-8.308812168619603e-05,0.001535510794861469,-0.0005880857516433867,0.0,0.0,0.0,0.0,0.0,0.0,0.0,0.0,0.0,0.0,0.0,0.0,0.0,0.0,0.0,0.0,0.0,0.0,0.0,0.0,0.0,0.0,0.0,0.0,0.0,0.0,0.0,0.0,0.0,0.0,0.0,0.0,0.0,0.0,0.0,0.0
2025/04/09 10:24:45.758758228,1744187085,758252653,world_ned,mA1/odom,1.5952373946527405,11.3646437872856,0.43367795157602146,-0.00039047607573375375,0.00012842652385298576,0.004441716832249105,0.9999900510438313,0.0,0.0,0.0,0.0,0.0,0.0,0.0,0.0,0.0,0.0,0.0,0.0,0.0,0.0,0.0,0.0,0.0,0.0,0.0,0.0,0.0,0.0,0.0,0.0,0.0,0.0,0.0,0.0,0.0,0.0,0.0,0.0,0.0,0.0,0.0,0.0,0.015593477116383593,-0.00029000440270007344,0.0002023351804718136,-7.146287126891086e-05,0.001478984997345913,-0.0005809046079979061,0.0,0.0,0.0,0.0,0.0,0.0,0.0,0.0,0.0,0.0,0.0,0.0,0.0,0.0,0.0,0.0,0.0,0.0,0.0,0.0,0.0,0.0,0.0,0.0,0.0,0.0,0.0,0.0,0.0,0.0,0.0,0.0,0.0,0.0,0.0,0.0
2025/04/09 10:24:45.859519687,1744187085,859053524,world_ned,mA1/odom,1.5968441514248983,11.36462132562019,0.43369774196678257,-0.00039249512507433324,0.00017631965181594378,0.0044128259848361774,0.9999901708645864,0.0,0.0,0.0,0.0,0.0,0.0,0.0,0.0,0.0,0.0,0.0,0.0,0.0,0.0,0.0,0.0,0.0,0.0,0.0,0.0,0.0,0.0,0.0,0.0,0.0,0.0,0.0,0.0,0.0,0.0,0.0,0.0,0.0,0.0,0.0,0.0,0.014930122750250898,-0.0004006082132794861,0.00019240388583913824,-3.099375099788782e-05,0.000917124714614899,-0.0005754111153855984,0.0,0.0,0.0,0.0,0.0,0.0,0.0,0.0,0.0,0.0,0.0,0.0,0.0,0.0,0.0,0.0,0.0,0.0,0.0,0.0,0.0,0.0,0.0,0.0,0.0,0.0,0.0,0.0,0.0,0.0,0.0,0.0,0.0,0.0,0.0,0.0
2025/04/09 10:24:45.965538823,1744187085,965143281,world_ned,mA1/odom,1.5984044546784137,11.364592921228313,0.4337157857888078,-0.0003938327682994262,0.00018982968965718631,0.0043841284229102755,0.9999902940921032,0.0,0.0,0.0,0.0,0.0,0.0,0.0,0.0,0.0,0.0,0.0,0.0,0.0,0.0,0.0,0.0,0.0,0.0,0.0,0.0,0.0,0.0,0.0,0.0,0.0,0.0,0.0,0.0,0.0,0.0,0.0,0.0,0.0,0.0,0.0,0.0,0.010238764108082679,-0.00043088420071529473,0.00017699767532447866,-3.321650059365042e-05,0.0013860625044466422,-0.0005726552909019623,0.0,0.0,0.0,0.0,0.0,0.0,0.0,0.0,0.0,0.0,0.0,0.0,0.0,0.0,0.0,0.0,0.0,0.0,0.0,0.0,0.0,0.0,0.0,0.0,0.0,0.0,0.0,0.0,0.0,0.0,0.0,0.0,0.0,0.0,0.0,0.0
2025/04/09 10:24:46.57086894,1744187086,56772163,world_ned,mA1/odom,1.5998941131232876,11.364562992870102,0.4337257756682616,-0.0003963082646444171,0.00016918199279174773,0.004355600984212423,0.9999904214827655,0.0,0.0,0.0,0.0,0.0,0.0,0.0,0.0,0.0,0.0,0.0,0.0,0.0,0.0,0.0,0.0,0.0,0.0,0.0,0.0,0.0,0.0,0.0,0.0,0.0,0.0,0.0,0.0,0.0,0.0,0.0,0.0,0.0,0.0,0.0,0.0,0.01745707237386968,-0.00040388826712175677,6.354223414145786e-05,-7.943020505720412e-05,-0.0015095766456539644,-0.0005676062395268062,0.0,0.0,0.0,0.0,0.0,0.0,0.0,0.0,0.0,0.0,0.0,0.0,0.0,0.0,0.0,0.0,0.0,0.0,0.0,0.0,0.0,0.0,0.0,0.0,0.0,0.0,0.0,0.0,0.0,0.0,0.0,0.0,0.0,0.0,0.0,0.0
2025/04/09 10:24:46.159755210,1744187086,159197693,world_ned,mA1/odom,1.6013874096403875,11.364540643358739,0.4337242091193356,-0.0004026903856426621,0.00010918540157296992,0.004327467665255499,0.9999905494266471,0.0,0.0,0.0,0.0,0.0,0.0,0.0,0.0,0.0,0.0,0.0,0.0,0.0,0.0,0.0,0.0,0.0,0.0,0.0,0.0,0.0,0.0,0.0,0.0,0.0,0.0,0.0,0.0,0.0,0.0,0.0,0.0,0.0,0.0,0.0,0.0,0.012591457068029157,-0.000345060841152501,-6.405220989414009e-05,-0.00014534519131770336,-0.0008256833930873099,-0.0005606451267619042,0.0,0.0,0.0,0.0,0.0,0.0,0.0,0.0,0.0,0.0,0.0,0.0,0.0,0.0,0.0,0.0,0.0,0.0,0.0,0.0,0.0,0.0,0.0,0.0,0.0,0.0,0.0,0.0,0.0,0.0,0.0,0.0,0.0,0.0,0.0,0.0
2025/04/09 10:24:46.261942694,1744187086,261601613,world_ned,mA1/odom,1.6027922723986927,11.364513833162817,0.4337118513606256,-0.00040825686499625937,3.493320327643282e-05,0.004299538050427765,0.9999906729957817,0.0,0.0,0.0,0.0,0.0,0.0,0.0,0.0,0.0,0.0,0.0,0.0,0.0,0.0,0.0,0.0,0.0,0.0,0.0,0.0,0.0,0.0,0.0,0.0,0.0,0.0,0.0,0.0,0.0,0.0,0.0,0.0,0.0,0.0,0.0,0.0,0.010411591631431252,-0.00047278130444480755,-0.0001711829403791859,-6.305980038748691e-05,-0.0006209072376036338,-0.0005584135459837598,0.0,0.0,0.0,0.0,0.0,0.0,0.0,0.0,0.0,0.0,0.0,0.0,0.0,0.0,0.0,0.0,0.0,0.0,0.0,0.0,0.0,0.0,0.0,0.0,0.0,0.0,0.0,0.0,0.0,0.0,0.0,0.0,0.0,0.0,0.0,0.0
2025/04/09 10:24:46.364761832,1744187086,362309803,world_ned,mA1/odom,1.6042467617916034,11.364464491948665,0.43369239783650404,-0.00040538306338877875,-5.566690192105244e-05,0.004271771104028026,0.9999907922263098,0.0,0.0,0.0,0.0,0.0,0.0,0.0,0.0,0.0,0.0,0.0,0.0,0.0,0.0,0.0,0.0,0.0,0.0,0.0,0.0,0.0,0.0,0.0,0.0,0.0,0.0,0.0,0.0,0.0,0.0,0.0,0.0,0.0,0.0,0.0,0.0,0.01510313663612259,-0.0006036418029425029,-0.0002006958127506811,4.7664928847505126e-05,-0.0019412321148658096,-0.0005423975513945633,0.0,0.0,0.0,0.0,0.0,0.0,0.0,0.0,0.0,0.0,0.0,0.0,0.0,0.0,0.0,0.0,0.0,0.0,0.0,0.0,0.0,0.0,0.0,0.0,0.0,0.0,0.0,0.0,0.0,0.0,0.0,0.0,0.0,0.0,0.0,0.0
2025/04/09 10:24:46.463442455,1744187086,463134489,world_ned,mA1/odom,1.605649159294189,11.364429564730722,0.4336739875954891,-0.0004067800745141887,-0.00012889826952472205,0.004245673605848593,0.9999908960439788,0.0,0.0,0.0,0.0,0.0,0.0,0.0,0.0,0.0,0.0,0.0,0.0,0.0,0.0,0.0,0.0,0.0,0.0,0.0,0.0,0.0,0.0,0.0,0.0,0.0,0.0,0.0,0.0,0.0,0.0,0.0,0.0,0.0,0.0,0.0,0.0,0.017044601054232358,-0.0004901485100210412,-0.0001834374964346531,-1.0990986144892414e-05,-0.0021372133719426544,-0.0005360896125856012,0.0,0.0,0.0,0.0,0.0,0.0,0.0,0.0,0.0,0.0,0.0,0.0,0.0,0.0,0.0,0.0,0.0,0.0,0.0,0.0,0.0,0.0,0.0,0.0,0.0,0.0,0.0,0.0,0.0,0.0,0.0,0.0,0.0,0.0,0.0,0.0
2025/04/09 10:24:46.564232549,1744187086,563908852,world_ned,mA1/odom,1.607064410825222,11.364380592663489,0.43365875639967594,-0.0004026604723997196,-0.00017948273674655,0.004217811059098189,0.9999910078197508,0.0,0.0,0.0,0.0,0.0,0.0,0.0,0.0,0.0,0.0,0.0,0.0,0.0,0.0,0.0,0.0,0.0,0.0,0.0,0.0,0.0,0.0,0.0,0.0,0.0,0.0,0.0,0.0,0.0,0.0,0.0,0.0,0.0,0.0,0.0,0.0,0.009962016356932264,-0.0006716930580164841,-0.0001271814995800928,0.00012563501527527359,0.00045746482304642424,-0.0005573851321177356,0.0,0.0,0.0,0.0,0.0,0.0,0.0,0.0,0.0,0.0,0.0,0.0,0.0,0.0,0.0,0.0,0.0,0.0,0.0,0.0,0.0,0.0,0.0,0.0,0.0,0.0,0.0,0.0,0.0,0.0,0.0,0.0,0.0,0.0,0.0,0.0
2025/04/09 10:24:46.665015584,1744187086,664674816,world_ned,mA1/odom,1.6085909897386828,11.36431920767128,0.43365166644216474,-0.00039398643727618947,-0.0002104146957578245,0.004190045593037382,0.999991121969726,0.0,0.0,0.0,0.0,0.0,0.0,0.0,0.0,0.0,0.0,0.0,0.0,0.0,0.0,0.0,0.0,0.0,0.0,0.0,0.0,0.0,0.0,0.0,0.0,0.0,0.0,0.0,0.0,0.0,0.0,0.0,0.0,0.0,0.0,0.0,0.0,0.02043068653617054,-0.0007865944391929856,-3.369330835336629e-05,0.0001966380054239628,-0.0017217969222000872,-0.0005540589468234061,0.0,0.0,0.0,0.0,0.0,0.0,0.0,0.0,0.0,0.0,0.0,0.0,0.0,0.0,0.0,0.0,0.0,0.0,0.0,0.0,0.0,0.0,0.0,0.0,0.0,0.0,0.0,0.0,0.0,0.0,0.0,0.0,0.0,0.0,0.0,0.0
2025/04/09 10:24:46.765769358,1744187086,765463582,world_ned,mA1/odom,1.6100283462597655,11.364251420286632,0.43365419095073615,-0.0003846505112853503,-0.00018965548171321654,0.004162459851542722,0.999991244963058,0.0,0.0,0.0,0.0,0.0,0.0,0.0,0.0,0.0,0.0,0.0,0.0,0.0,0.0,0.0,0.0,0.0,0.0,0.0,0.0,0.0,0.0,0.0,0.0,0.0,0.0,0.0,0.0,0.0,0.0,0.0,0.0,0.0,0.0,0.0,0.0,0.00975427905522411,-0.000732091719892379,6.221574949284387e-05,0.00012648717149208502,0.002059663482352835,-0.0005414066958805118,0.0,0.0,0.0,0.0,0.0,0.0,0.0,0.0,0.0,0.0,0.0,0.0,0.0,0.0,0.0,0.0,0.0,0.0,0.0,0.0,0.0,0.0,0.0,0.0,0.0,0.0,0.0,0.0,0.0,0.0,0.0,0.0,0.0,0.0,0.0,0.0
2025/04/09 10:24:46.856938366,1744187086,856573767,world_ned,mA1/odom,1.6116301846511192,11.364201029943601,0.433665759133248,-0.0003830999868770523,-0.00015575754405924245,0.004135741062911916,0.9999913622726189,0.0,0.0,0.0,0.0,0.0,0.0,0.0,0.0,0.0,0.0,0.0,0.0,0.0,0.0,0.0,0.0,0.0,0.0,0.0,0.0,0.0,0.0,0.0,0.0,0.0,0.0,0.0,0.0,0.0,0.0,0.0,0.0,0.0,0.0,0.0,0.0,0.021069332343495728,-0.0007396591480749982,0.00014470002155527004,7.846305316865523e-05,-0.0004751354565099972,-0.0005625584412787913,0.0,0.0,0.0,0.0,0.0,0.0,0.0,0.0,0.0,0.0,0.0,0.0,0.0,0.0,0.0,0.0,0.0,0.0,0.0,0.0,0.0,0.0,0.0,0.0,0.0,0.0,0.0,0.0,0.0,0.0,0.0,0.0,0.0,0.0,0.0,0.0
2025/04/09 10:24:46.957377909,1744187086,957072853,world_ned,mA1/odom,1.6131159986775823,11.364124799110884,0.433683081268225,-0.0003761204548194703,-7.953219254960698e-05,0.0041070147412290755,0.999991492282784,0.0,0.0,0.0,0.0,0.0,0.0,0.0,0.0,0.0,0.0,0.0,0.0,0.0,0.0,0.0,0.0,0.0,0.0,0.0,0.0,0.0,0.0,0.0,0.0,0.0,0.0,0.0,0.0,0.0,0.0,0.0,0.0,0.0,0.0,0.0,0.0,0.00982718599449842,-0.0009383671108254951,0.0001838586194041799,0.00015345702539699448,0.003100404375370189,-0.0005729780516671829,0.0,0.0,0.0,0.0,0.0,0.0,0.0,0.0,0.0,0.0,0.0,0.0,0.0,0.0,0.0,0.0,0.0,0.0,0.0,0.0,0.0,0.0,0.0,0.0,0.0,0.0,0.0,0.0,0.0,0.0,0.0,0.0,0.0,0.0,0.0,0.0
2025/04/09 10:24:47.58169088,1744187087,57905619,world_ned,mA1/odom,1.6147232959139561,11.364046018203283,0.4337013988556737,-0.00037155000188242873,-8.263512846140386e-06,0.004078431898300579,0.999991614102619,0.0,0.0,0.0,0.0,0.0,0.0,0.0,0.0,0.0,0.0,0.0,0.0,0.0,0.0,0.0,0.0,0.0,0.0,0.0,0.0,0.0,0.0,0.0,0.0,0.0,0.0,0.0,0.0,0.0,0.0,0.0,0.0,0.0,0.0,0.0,0.0,0.02107063664173825,-0.0009416493621993296,0.00017354108480092687,7.539659678073909e-05,3.0716215331311317e-05,-0.0005700339024410527,0.0,0.0,0.0,0.0,0.0,0.0,0.0,0.0,0.0,0.0,0.0,0.0,0.0,0.0,0.0,0.0,0.0,0.0,0.0,0.0,0.0,0.0,0.0,0.0,0.0,0.0,0.0,0.0,0.0,0.0,0.0,0.0,0.0,0.0,0.0,0.0
2025/04/09 10:24:47.159374213,1744187087,159143550,world_ned,mA1/odom,1.6161898841520703,11.363957582900348,0.433715801932608,-0.00036844981129718066,7.829062668394914e-05,0.004049937880192366,0.9999917280250277,0.0,0.0,0.0,0.0,0.0,0.0,0.0,0.0,0.0,0.0,0.0,0.0,0.0,0.0,0.0,0.0,0.0,0.0,0.0,0.0,0.0,0.0,0.0,0.0,0.0,0.0,0.0,0.0,0.0,0.0,0.0,0.0,0.0,0.0,0.0,0.0,0.009478584000528097,-0.0010122144264101485,0.00011649761909128665,3.3086073847311995e-05,0.0030525472797177243,-0.0005682770194641821,0.0,0.0,0.0,0.0,0.0,0.0,0.0,0.0,0.0,0.0,0.0,0.0,0.0,0.0,0.0,0.0,0.0,0.0,0.0,0.0,0.0,0.0,0.0,0.0,0.0,0.0,0.0,0.0,0.0,0.0,0.0,0.0,0.0,0.0,0.0,0.0
2025/04/09 10:24:47.263622263,1744187087,261591580,world_ned,mA1/odom,1.617748801823997,11.363871869410545,0.43372247408573805,-0.00037065668188393514,0.0001312393699877344,0.00402156736676477,0.9999918361595591,0.0,0.0,0.0,0.0,0.0,0.0,0.0,0.0,0.0,0.0,0.0,0.0,0.0,0.0,0.0,0.0,0.0,0.0,0.0,0.0,0.0,0.0,0.0,0.0,0.0,0.0,0.0,0.0,0.0,0.0,0.0,0.0,0.0,0.0,0.0,0.0,0.020464246937053558,-0.001004807372906875,3.023000850138324e-05,-6.680640003256142e-05,-0.000581990565833571,-0.0005673863449640984,0.0,0.0,0.0,0.0,0.0,0.0,0.0,0.0,0.0,0.0,0.0,0.0,0.0,0.0,0.0,0.0,0.0,0.0,0.0,0.0,0.0,0.0,0.0,0.0,0.0,0.0,0.0,0.0,0.0,0.0,0.0,0.0,0.0,0.0,0.0,0.0
2025/04/09 10:24:47.364550006,1744187087,364306399,world_ned,mA1/odom,1.6191407988589432,11.363777587311445,0.4337198841657766,-0.00037487062637396156,0.0001743274962865634,0.003993129206631219,0.9999919419680724,0.0,0.0,0.0,0.0,0.0,0.0,0.0,0.0,0.0,0.0,0.0,0.0,0.0,0.0,0.0,0.0,0.0,0.0,0.0,0.0,0.0,0.0,0.0,0.0,0.0,0.0,0.0,0.0,0.0,0.0,0.0,0.0,0.0,0.0,0.0,0.0,0.008641820817237036,-0.0009606634019171854,-6.197451574151628e-05,-0.00018263177095211185,0.002001618409441925,-0.0005595130929324564,0.0,0.0,0.0,0.0,0.0,0.0,0.0,0.0,0.0,0.0,0.0,0.0,0.0,0.0,0.0,0.0,0.0,0.0,0.0,0.0,0.0,0.0,0.0,0.0,0.0,0.0,0.0,0.0,0.0,0.0,0.0,0.0,0.0,0.0,0.0,0.0
2025/04/09 10:24:47.465545074,1744187087,465120807,world_ned,mA1/odom,1.6206094518069625,11.36371742667969,0.43370864209539717,-0.00039408862182539544,0.00016724343469435684,0.003965816059019757,0.9999920444817437,0.0,0.0,0.0,0.0,0.0,0.0,0.0,0.0,0.0,0.0,0.0,0.0,0.0,0.0,0.0,0.0,0.0,0.0,0.0,0.0,0.0,0.0,0.0,0.0,0.0,0.0,0.0,0.0,0.0,0.0,0.0,0.0,0.0,0.0,0.0,0.0,0.019513662195680324,-0.0006170668217612109,-0.00013912681260259784,-0.0004775683476724436,-0.0018711441407582936,-0.0005578598741822768,0.0,0.0,0.0,0.0,0.0,0.0,0.0,0.0,0.0,0.0,0.0,0.0,0.0,0.0,0.0,0.0,0.0,0.0,0.0,0.0,0.0,0.0,0.0,0.0,0.0,0.0,0.0,0.0,0.0,0.0,0.0,0.0,0.0,0.0,0.0,0.0
2025/04/09 10:24:47.556868285,1744187087,556567577,world_ned,mA1/odom,1.621904818160416,11.363671955853665,0.43369186302334006,-0.00042017016542245653,0.0001444963932599866,0.003937122239718513,0.9999921507923419,0.0,0.0,0.0,0.0,0.0,0.0,0.0,0.0,0.0,0.0,0.0,0.0,0.0,0.0,0.0,0.0,0.0,0.0,0.0,0.0,0.0,0.0,0.0,0.0,0.0,0.0,0.0,0.0,0.0,0.0,0.0,0.0,0.0,0.0,0.0,0.0,0.007704232729276128,-0.0004318160545333097,-0.00017475584604458244,-0.0005990808603064047,0.0007049543316034812,-0.0005655625182810235,0.0,0.0,0.0,0.0,0.0,0.0,0.0,0.0,0.0,0.0,0.0,0.0,0.0,0.0,0.0,0.0,0.0,0.0,0.0,0.0,0.0,0.0,0.0,0.0,0.0,0.0,0.0,0.0,0.0,0.0,0.0,0.0,0.0,0.0,0.0,0.0
2025/04/09 10:24:47.658309779,1744187087,658001186,world_ned,mA1/odom,1.6232713504864875,11.363653717939448,0.43367396750701176,-0.0004525346629112791,8.007546676077849e-05,0.003909559579502972,0.999992252042081,0.0,0.0,0.0,0.0,0.0,0.0,0.0,0.0,0.0,0.0,0.0,0.0,0.0,0.0,0.0,0.0,0.0,0.0,0.0,0.0,0.0,0.0,0.0,0.0,0.0,0.0,0.0,0.0,0.0,0.0,0.0,0.0,0.0,0.0,0.0,0.0,0.018655702726501903,-0.0002786590529281871,-0.00016635628983413265,-0.0006108028437249867,-0.0029199059603109644,-0.0005616105683357996,0.0,0.0,0.0,0.0,0.0,0.0,0.0,0.0,0.0,0.0,0.0,0.0,0.0,0.0,0.0,0.0,0.0,0.0,0.0,0.0,0.0,0.0,0.0,0.0,0.0,0.0,0.0,0.0,0.0,0.0,0.0,0.0,0.0,0.0,0.0,0.0
2025/04/09 10:24:47.759173391,1744187087,758928428,world_ned,mA1/odom,1.6245009828072767,11.363629221078241,0.4336597802553882,-0.00047626876624451745,1.4149412119868994e-05,0.003880867684461945,0.9999923558877198,0.0,0.0,0.0,0.0,0.0,0.0,0.0,0.0,0.0,0.0,0.0,0.0,0.0,0.0,0.0,0.0,0.0,0.0,0.0,0.0,0.0,0.0,0.0,0.0,0.0,0.0,0.0,0.0,0.0,0.0,0.0,0.0,0.0,0.0,0.0,0.0,0.007424334750384855,-0.00030732469534809067,-0.00011229981581765893,-0.00041761736330934947,-4.0252615564339444e-05,-0.0005629547365521248,0.0,0.0,0.0,0.0,0.0,0.0,0.0,0.0,0.0,0.0,0.0,0.0,0.0,0.0,0.0,0.0,0.0,0.0,0.0,0.0,0.0,0.0,0.0,0.0,0.0,0.0,0.0,0.0,0.0,0.0,0.0,0.0,0.0,0.0,0.0,0.0
2025/04/09 10:24:47.860036110,1744187087,859658367,world_ned,mA1/odom,1.6258572805483524,11.363613984226264,0.4336532027890362,-0.0004923270790430509,-7.361941665370542e-05,0.0038536016098957774,0.9999924509459364,0.0,0.0,0.0,0.0,0.0,0.0,0.0,0.0,0.0,0.0,0.0,0.0,0.0,0.0,0.0,0.0,0.0,0.0,0.0,0.0,0.0,0.0,0.0,0.0,0.0,0.0,0.0,0.0,0.0,0.0,0.0,0.0,0.0,0.0,0.0,0.0,0.01855114478533573,-0.00038767458730067653,-2.603552102941085e-05,-0.00013098002884240844,-0.003105402353237088,-0.0005552667299275216,0.0,0.0,0.0,0.0,0.0,0.0,0.0,0.0,0.0,0.0,0.0,0.0,0.0,0.0,0.0,0.0,0.0,0.0,0.0,0.0,0.0,0.0,0.0,0.0,0.0,0.0,0.0,0.0,0.0,0.0,0.0,0.0,0.0,0.0,0.0,0.0
2025/04/09 10:24:47.960792714,1744187087,960558894,world_ned,mA1/odom,1.6270848678901348,11.363556554616078,0.43365607214456137,-0.00048220801682041835,-0.00013186664879540858,0.003825153642072805,0.9999925591154316,0.0,0.0,0.0,0.0,0.0,0.0,0.0,0.0,0.0,0.0,0.0,0.0,0.0,0.0,0.0,0.0,0.0,0.0,0.0,0.0,0.0,0.0,0.0,0.0,0.0,0.0,0.0,0.0,0.0,0.0,0.0,0.0,0.0,0.0,0.0,0.0,0.0072694647789154935,-0.0007308545254504801,6.850117774401241e-05,0.0003490411012911036,0.000434944117289212,-0.0005592442221780116,0.0,0.0,0.0,0.0,0.0,0.0,0.0,0.0,0.0,0.0,0.0,0.0,0.0,0.0,0.0,0.0,0.0,0.0,0.0,0.0,0.0,0.0,0.0,0.0,0.0,0.0,0.0,0.0,0.0,0.0,0.0,0.0,0.0,0.0,0.0,0.0
2025/04/09 10:24:48.61646164,1744187088,61381888,world_ned,mA1/odom,1.6284547165446057,11.363499642308852,0.43366743309604505,-0.0004607818296172794,-0.00018429603450030037,0.0037979461681272855,0.9999926646330868,0.0,0.0,0.0,0.0,0.0,0.0,0.0,0.0,0.0,0.0,0.0,0.0,0.0,0.0,0.0,0.0,0.0,0.0,0.0,0.0,0.0,0.0,0.0,0.0,0.0,0.0,0.0,0.0,0.0,0.0,0.0,0.0,0.0,0.0,0.0,0.0,0.01885838761046244,-0.0007858963767162689,0.00013885861680470427,0.0005848767255477516,-0.0022185034595092407,-0.0005545071061881117,0.0,0.0,0.0,0.0,0.0,0.0,0.0,0.0,0.0,0.0,0.0,0.0,0.0,0.0,0.0,0.0,0.0,0.0,0.0,0.0,0.0,0.0,0.0,0.0,0.0,0.0,0.0,0.0,0.0,0.0,0.0,0.0,0.0,0.0,0.0,0.0
2025/04/09 10:24:48.164007187,1744187088,163121443,world_ned,mA1/odom,1.629725660356472,11.36340549256696,0.4336840982487838,-0.0004193265493820101,-0.0001891025064607394,0.0037694956532471364,0.9999927896280089,0.0,0.0,0.0,0.0,0.0,0.0,0.0,0.0,0.0,0.0,0.0,0.0,0.0,0.0,0.0,0.0,0.0,0.0,0.0,0.0,0.0,0.0,0.0,0.0,0.0,0.0,0.0,0.0,0.0,0.0,0.0,0.0,0.0,0.0,0.0,0.0,0.007762582957563805,-0.0011482094439803185,0.00017426894785498137,0.0009453393092008599,0.001618220728171753,-0.0005668799822247607,0.0,0.0,0.0,0.0,0.0,0.0,0.0,0.0,0.0,0.0,0.0,0.0,0.0,0.0,0.0,0.0,0.0,0.0,0.0,0.0,0.0,0.0,0.0,0.0,0.0,0.0,0.0,0.0,0.0,0.0,0.0,0.0,0.0,0.0,0.0,0.0
2025/04/09 10:24:48.264491322,1744187088,264191460,world_ned,mA1/odom,1.6311465282310968,11.363297753215367,0.43370172479546565,-0.0003707518106494484,-0.00017904469824332728,0.003741430017833919,0.9999929160686652,0.0,0.0,0.0,0.0,0.0,0.0,0.0,0.0,0.0,0.0,0.0,0.0,0.0,0.0,0.0,0.0,0.0,0.0,0.0,0.0,0.0,0.0,0.0,0.0,0.0,0.0,0.0,0.0,0.0,0.0,0.0,0.0,0.0,0.0,0.0,0.0,0.019371692926334554,-0.001240772647063199,0.00016191392052330672,0.0009920729168532828,-0.0009501383517866753,-0.0005575110738429459,0.0,0.0,0.0,0.0,0.0,0.0,0.0,0.0,0.0,0.0,0.0,0.0,0.0,0.0,0.0,0.0,0.0,0.0,0.0,0.0,0.0,0.0,0.0,0.0,0.0,0.0,0.0,0.0,0.0,0.0,0.0,0.0,0.0,0.0,0.0,0.0
2025/04/09 10:24:48.357182669,1744187088,356573012,world_ned,mA1/odom,1.632465535056697,11.36317697564745,0.4337154336037356,-0.00032275338148718007,-0.0001231189259950869,0.0037137420541288324,0.9999930443717797,0.0,0.0,0.0,0.0,0.0,0.0,0.0,0.0,0.0,0.0,0.0,0.0,0.0,0.0,0.0,0.0,0.0,0.0,0.0,0.0,0.0,0.0,0.0,0.0,0.0,0.0,0.0,0.0,0.0,0.0,0.0,0.0,0.0,0.0,0.0,0.0,0.008188999532946441,-0.0012875682386823588,0.0001035699639028276,0.0008700498409042407,0.0027533954250190747,-0.0005499541718356489,0.0,0.0,0.0,0.0,0.0,0.0,0.0,0.0,0.0,0.0,0.0,0.0,0.0,0.0,0.0,0.0,0.0,0.0,0.0,0.0,0.0,0.0,0.0,0.0,0.0,0.0,0.0,0.0,0.0,0.0,0.0,0.0,0.0,0.0,0.0,0.0
2025/04/09 10:24:48.458028099,1744187088,457594851,world_ned,mA1/odom,1.6339227792279323,11.363070365143733,0.43372159448885517,-0.00029045419171672994,-6.521857684898748e-05,0.003686458946230866,0.9999931606782806,0.0,0.0,0.0,0.0,0.0,0.0,0.0,0.0,0.0,0.0,0.0,0.0,0.0,0.0,0.0,0.0,0.0,0.0,0.0,0.0,0.0,0.0,0.0,0.0,0.0,0.0,0.0,0.0,0.0,0.0,0.0,0.0,0.0,0.0,0.0,0.0,0.019703696864486687,-0.0011176989379677814,2.0806227385999214e-05,0.0004817129478985488,-0.00017322047663853292,-0.0005422040614760155,0.0,0.0,0.0,0.0,0.0,0.0,0.0,0.0,0.0,0.0,0.0,0.0,0.0,0.0,0.0,0.0,0.0,0.0,0.0,0.0,0.0,0.0,0.0,0.0,0.0,0.0,0.0,0.0,0.0,0.0,0.0,0.0,0.0,0.0,0.0,0.0
2025/04/09 10:24:48.559218463,1744187088,558850993,world_ned,mA1/odom,1.6352551813129999,11.362973288038638,0.43371845238683177,-0.00027745555478998855,1.773828368503832e-05,0.0036594842876032695,0.9999932654165813,0.0,0.0,0.0,0.0,0.0,0.0,0.0,0.0,0.0,0.0,0.0,0.0,0.0,0.0,0.0,0.0,0.0,0.0,0.0,0.0,0.0,0.0,0.0,0.0,0.0,0.0,0.0,0.0,0.0,0.0,0.0,0.0,0.0,0.0,0.0,0.0,0.008176376261821366,-0.0009442754309522406,-7.213129440247354e-05,2.525862127510097e-05,0.0030845211597766266,-0.0005358749562040155,0.0,0.0,0.0,0.0,0.0,0.0,0.0,0.0,0.0,0.0,0.0,0.0,0.0,0.0,0.0,0.0,0.0,0.0,0.0,0.0,0.0,0.0,0.0,0.0,0.0,0.0,0.0,0.0,0.0,0.0,0.0,0.0,0.0,0.0,0.0,0.0
2025/04/09 10:24:48.661993619,1744187088,661655070,world_ned,mA1/odom,1.6367006829855248,11.362911814280116,0.4337069873260557,-0.00029359264449767595,7.700415377967227e-05,0.0036328917302377805,0.9999933549636196,0.0,0.0,0.0,0.0,0.0,0.0,0.0,0.0,0.0,0.0,0.0,0.0,0.0,0.0,0.0,0.0,0.0,0.0,0.0,0.0,0.0,0.0,0.0,0.0,0.0,0.0,0.0,0.0,0.0,0.0,0.0,0.0,0.0,0.0,0.0,0.0,0.01937217207184648,-0.0006260800320681321,-0.00014138665777546462,-0.0005307203962647443,-0.000351458234135646,-0.0005288207930470559,0.0,0.0,0.0,0.0,0.0,0.0,0.0,0.0,0.0,0.0,0.0,0.0,0.0,0.0,0.0,0.0,0.0,0.0,0.0,0.0,0.0,0.0,0.0,0.0,0.0,0.0,0.0,0.0,0.0,0.0,0.0,0.0,0.0,0.0,0.0,0.0
2025/04/09 10:24:48.765709125,1744187088,763911686,world_ned,mA1/odom,1.6379856786874862,11.362860287894081,0.4336903575829904,-0.00032858183477743814,0.000137347962814909,0.0036065873889411064,0.9999934328268966,0.0,0.0,0.0,0.0,0.0,0.0,0.0,0.0,0.0,0.0,0.0,0.0,0.0,0.0,0.0,0.0,0.0,0.0,0.0,0.0,0.0,0.0,0.0,0.0,0.0,0.0,0.0,0.0,0.0,0.0,0.0,0.0,0.0,0.0,0.0,0.0,0.007605576618785397,-0.00046950762091308026,-0.00017264826483888728,-0.0009001320917321166,0.0024300726792762955,-0.000514560359114041,0.0,0.0,0.0,0.0,0.0,0.0,0.0,0.0,0.0,0.0,0.0,0.0,0.0,0.0,0.0,0.0,0.0,0.0,0.0,0.0,0.0,0.0,0.0,0.0,0.0,0.0,0.0,0.0,0.0,0.0,0.0,0.0,0.0,0.0,0.0,0.0
2025/04/09 10:24:48.866560986,1744187088,866298631,world_ned,mA1/odom,1.6393537224286543,11.362849613759016,0.43367293712316635,-0.0003870930224534331,0.0001547311018229922,0.0035815994267349295,0.9999934991602818,0.0,0.0,0.0,0.0,0.0,0.0,0.0,0.0,0.0,0.0,0.0,0.0,0.0,0.0,0.0,0.0,0.0,0.0,0.0,0.0,0.0,0.0,0.0,0.0,0.0,0.0,0.0,0.0,0.0,0.0,0.0,0.0,0.0,0.0,0.0,0.0,0.018534715117601987,-0.0001028930988128137,-0.00015863009780180226,-0.0012871970846660577,-0.0013431857009064915,-0.0005098473806161004,0.0,0.0,0.0,0.0,0.0,0.0,0.0,0.0,0.0,0.0,0.0,0.0,0.0,0.0,0.0,0.0,0.0,0.0,0.0,0.0,0.0,0.0,0.0,0.0,0.0,0.0,0.0,0.0,0.0,0.0,0.0,0.0,0.0,0.0,0.0,0.0
2025/04/09 10:24:48.957470722,1744187088,957127776,world_ned,mA1/odom,1.6405408578141636,11.36284900727696,0.43365947420391177,-0.00045158316343186876,0.00016018645301504414,0.003555397211376714,0.9999935647611019,0.0,0.0,0.0,0.0,0.0,0.0,0.0,0.0,0.0,0.0,0.0,0.0,0.0,0.0,0.0,0.0,0.0,0.0,0.0,0.0,0.0,0.0,0.0,0.0,0.0,0.0,0.0,0.0,0.0,0.0,0.0,0.0,0.0,0.0,0.0,0.0,0.006648319097034204,-2.6073972516197187e-05,-0.00010166930780275878,-0.0012974307739690115,0.0012546319371683093,-0.0005137560653586269,0.0,0.0,0.0,0.0,0.0,0.0,0.0,0.0,0.0,0.0,0.0,0.0,0.0,0.0,0.0,0.0,0.0,0.0,0.0,0.0,0.0,0.0,0.0,0.0,0.0,0.0,0.0,0.0,0.0,0.0,0.0,0.0,0.0,0.0,0.0,0.0
2025/04/09 10:24:49.58116869,1744187089,57833856,world_ned,mA1/odom,1.6418202148313177,11.362860649625889,0.43365328607603354,-0.000512616658814603,0.00011780334472437396,0.003530497169122858,0.999993629447844,0.0,0.0,0.0,0.0,0.0,0.0,0.0,0.0,0.0,0.0,0.0,0.0,0.0,0.0,0.0,0.0,0.0,0.0,0.0,0.0,0.0,0.0,0.0,0.0,0.0,0.0,0.0,0.0,0.0,0.0,0.0,0.0,0.0,0.0,0.0,0.0,0.017704429685756428,-4.380072338529386e-05,-1.745622122909047e-05,-0.0010618657929119797,-0.002513792739100415,-0.0005082927442615204,0.0,0.0,0.0,0.0,0.0,0.0,0.0,0.0,0.0,0.0,0.0,0.0,0.0,0.0,0.0,0.0,0.0,0.0,0.0,0.0,0.0,0.0,0.0,0.0,0.0,0.0,0.0,0.0,0.0,0.0,0.0,0.0,0.0,0.0,0.0,0.0
2025/04/09 10:24:49.158881465,1744187089,158645966,world_ned,mA1/odom,1.6429684835487748,11.362845053463072,0.43365629137822714,-0.0005494260771655089,7.097879874080784e-05,0.003504413270518918,0.9999937060705059,0.0,0.0,0.0,0.0,0.0,0.0,0.0,0.0,0.0,0.0,0.0,0.0,0.0,0.0,0.0,0.0,0.0,0.0,0.0,0.0,0.0,0.0,0.0,0.0,0.0,0.0,0.0,0.0,0.0,0.0,0.0,0.0,0.0,0.0,0.0,0.0,0.007274310960307722,-0.0004188006787198755,7.394684241120188e-05,-0.0004431857904628437,0.0005131759312590987,-0.0005150327736678055,0.0,0.0,0.0,0.0,0.0,0.0,0.0,0.0,0.0,0.0,0.0,0.0,0.0,0.0,0.0,0.0,0.0,0.0,0.0,0.0,0.0,0.0,0.0,0.0,0.0,0.0,0.0,0.0,0.0,0.0,0.0,0.0,0.0,0.0,0.0,0.0
2025/04/09 10:24:49.263845256,1744187089,261463255,world_ned,mA1/odom,1.6445188020701924,11.36276517363673,0.4336677206309457,-0.0005440393422569765,2.984249443981408e-05,0.0034794961977679477,0.9999937980991829,0.0,0.0,0.0,0.0,0.0,0.0,0.0,0.0,0.0,0.0,0.0,0.0,0.0,0.0,0.0,0.0,0.0,0.0,0.0,0.0,0.0,0.0,0.0,0.0,0.0,0.0,0.0,0.0,0.0,0.0,0.0,0.0,0.0,0.0,0.0,0.0,0.02308582767882574,-0.0013366608536180778,0.0001487494699298581,0.0005712548220636845,-0.0017618677026150242,-0.0005020968421253882,0.0,0.0,0.0,0.0,0.0,0.0,0.0,0.0,0.0,0.0,0.0,0.0,0.0,0.0,0.0,0.0,0.0,0.0,0.0,0.0,0.0,0.0,0.0,0.0,0.0,0.0,0.0,0.0,0.0,0.0,0.0,0.0,0.0,0.0,0.0,0.0
2025/04/09 10:24:49.362695771,1744187089,362276408,world_ned,mA1/odom,1.646619432789795,11.362632698823447,0.4336842829144293,-0.0005007588761933335,7.591598767968364e-05,0.003461427625412315,0.9999938809793312,0.0,0.0,0.0,0.0,0.0,0.0,0.0,0.0,0.0,0.0,0.0,0.0,0.0,0.0,0.0,0.0,0.0,0.0,0.0,0.0,0.0,0.0,0.0,0.0,0.0,0.0,0.0,0.0,0.0,0.0,0.0,0.0,0.0,0.0,0.0,0.0,0.020618482729919015,-0.0015908183407480512,0.00017450920503030726,0.0010999523670998127,0.0030819610925489193,-0.00025672156659037603,0.0,0.0,0.0,0.0,0.0,0.0,0.0,0.0,0.0,0.0,0.0,0.0,0.0,0.0,0.0,0.0,0.0,0.0,0.0,0.0,0.0,0.0,0.0,0.0,0.0,0.0,0.0,0.0,0.0,0.0,0.0,0.0,0.0,0.0,0.0,0.0
2025/04/09 10:24:49.463501895,1744187089,463048026,world_ned,mA1/odom,1.649850299347438,11.362430577645625,0.43370071635197127,-0.0004195129974864193,0.00021683334979837095,0.0034372107602838307,0.9999939812690538,0.0,0.0,0.0,0.0,0.0,0.0,0.0,0.0,0.0,0.0,0.0,0.0,0.0,0.0,0.0,0.0,0.0,0.0,0.0,0.0,0.0,0.0,0.0,0.0,0.0,0.0,0.0,0.0,0.0,0.0,0.0,0.0,0.0,0.0,0.0,0.0,0.04003183749993468,-0.0018720265679946983,0.00016868346362139438,0.0014568616354264535,0.0031934131216132563,-0.00031350806061207145,0.0,0.0,0.0,0.0,0.0,0.0,0.0,0.0,0.0,0.0,0.0,0.0,0.0,0.0,0.0,0.0,0.0,0.0,0.0,0.0,0.0,0.0,0.0,0.0,0.0,0.0,0.0,0.0,0.0,0.0,0.0,0.0,0.0,0.0,0.0,0.0
2025/04/09 10:24:49.564087714,1744187089,563777046,world_ned,mA1/odom,1.6541840699360117,11.362426932187297,0.43371252676484,-0.00039590087006043036,0.00048054017234944716,0.003465056021569756,0.9999938028460033,0.0,0.0,0.0,0.0,0.0,0.0,0.0,0.0,0.0,0.0,0.0,0.0,0.0,0.0,0.0,0.0,0.0,0.0,0.0,0.0,0.0,0.0,0.0,0.0,0.0,0.0,0.0,0.0,0.0,0.0,0.0,0.0,0.0,0.0,0.0,0.0,0.05318416608840626,-0.00018489914182767656,0.00012961779169627828,0.0004024863743035609,0.004726211324038447,0.0008710819700874801,0.0,0.0,0.0,0.0,0.0,0.0,0.0,0.0,0.0,0.0,0.0,0.0,0.0,0.0,0.0,0.0,0.0,0.0,0.0,0.0,0.0,0.0,0.0,0.0,0.0,0.0,0.0,0.0,0.0,0.0,0.0,0.0,0.0,0.0,0.0,0.0
2025/04/09 10:24:49.665094940,1744187089,664779516,world_ned,mA1/odom,1.6597550399487206,11.362373779639507,0.43371071596718763,-0.00035790328808595864,0.0007824893742163254,0.0035085822139767865,0.999993474711942,0.0,0.0,0.0,0.0,0.0,0.0,0.0,0.0,0.0,0.0,0.0,0.0,0.0,0.0,0.0,0.0,0.0,0.0,0.0,0.0,0.0,0.0,0.0,0.0,0.0,0.0,0.0,0.0,0.0,0.0,0.0,0.0,0.0,0.0,0.0,0.0,0.05231882262555273,-0.0013669874380316876,-9.461315356747277e-08,0.0009662717867999044,0.008372214732147835,0.0009359172865193793,0.0,0.0,0.0,0.0,0.0,0.0,0.0,0.0,0.0,0.0,0.0,0.0,0.0,0.0,0.0,0.0,0.0,0.0,0.0,0.0,0.0,0.0,0.0,0.0,0.0,0.0,0.0,0.0,0.0,0.0,0.0,0.0,0.0,0.0,0.0,0.0
2025/04/09 10:24:49.766454143,1744187089,766102556,world_ned,mA1/odom,1.6663118427543004,11.36218839341911,0.43369573704334935,-0.0002849179680231267,0.0010771779431611023,0.0035480367767692558,0.9999930849483215,0.0,0.0,0.0,0.0,0.0,0.0,0.0,0.0,0.0,0.0,0.0,0.0,0.0,0.0,0.0,0.0,0.0,0.0,0.0,0.0,0.0,0.0,0.0,0.0,0.0,0.0,0.0,0.0,0.0,0.0,0.0,0.0,0.0,0.0,0.0,0.0,0.0743011444789453,-0.004522823731516417,-4.385778467859547e-05,0.002770345131446295,0.0041761000088028095,2.4201801172584757e-05,0.0,0.0,0.0,0.0,0.0,0.0,0.0,0.0,0.0,0.0,0.0,0.0,0.0,0.0,0.0,0.0,0.0,0.0,0.0,0.0,0.0,0.0,0.0,0.0,0.0,0.0,0.0,0.0,0.0,0.0,0.0,0.0,0.0,0.0,0.0,0.0
2025/04/09 10:24:49.857805769,1744187089,857338772,world_ned,mA1/odom,1.6736511913429044,11.3615932802021,0.4336729214278896,-9.957314727713002e-05,0.0013151523763071803,0.003504342958879245,0.9999929899953509,0.0,0.0,0.0,0.0,0.0,0.0,0.0,0.0,0.0,0.0,0.0,0.0,0.0,0.0,0.0,0.0,0.0,0.0,0.0,0.0,0.0,0.0,0.0,0.0,0.0,0.0,0.0,0.0,0.0,0.0,0.0,0.0,0.0,0.0,0.0,0.0,0.0764295324989683,-0.0071627995814305965,-7.184906158480802e-05,0.0038529159008802833,0.003923857482804192,-0.0012919559010053936,0.0,0.0,0.0,0.0,0.0,0.0,0.0,0.0,0.0,0.0,0.0,0.0,0.0,0.0,0.0,0.0,0.0,0.0,0.0,0.0,0.0,0.0,0.0,0.0,0.0,0.0,0.0,0.0,0.0,0.0,0.0,0.0,0.0,0.0,0.0,0.0
2025/04/09 10:24:49.958619928,1744187089,958213180,world_ned,mA1/odom,1.681730519376708,11.360889521563307,0.4336449007040751,7.525979339750831e-05,0.0014279602122607017,0.0034201006632625006,0.9999931290649196,0.0,0.0,0.0,0.0,0.0,0.0,0.0,0.0,0.0,0.0,0.0,0.0,0.0,0.0,0.0,0.0,0.0,0.0,0.0,0.0,0.0,0.0,0.0,0.0,0.0,0.0,0.0,0.0,0.0,0.0,0.0,0.0,0.0,0.0,0.0,0.0,0.08732422857561946,-0.008196084196244667,-1.3663723062813855e-05,0.0032835884195496256,-0.00010056155993060773,-0.002162907684100881,0.0,0.0,0.0,0.0,0.0,0.0,0.0,0.0,0.0,0.0,0.0,0.0,0.0,0.0,0.0,0.0,0.0,0.0,0.0,0.0,0.0,0.0,0.0,0.0,0.0,0.0,0.0,0.0,0.0,0.0,0.0,0.0,0.0,0.0,0.0,0.0
2025/04/09 10:24:50.60971825,1744187090,60606145,world_ned,mA1/odom,1.6904410596116508,11.360158922389365,0.4336197759016134,0.00018500816708130874,0.0013934690378825036,0.0033030886926455993,0.9999935567897961,0.0,0.0,0.0,0.0,0.0,0.0,0.0,0.0,0.0,0.0,0.0,0.0,0.0,0.0,0.0,0.0,0.0,0.0,0.0,0.0,0.0,0.0,0.0,0.0,0.0,0.0,0.0,0.0,0.0,0.0,0.0,0.0,0.0,0.0,0.0,0.0,0.09274776354590067,-0.007360705344507661,3.543413945232245e-05,0.001090675520153734,-0.0027891504801871446,-0.0023826667368356154,0.0,0.0,0.0,0.0,0.0,0.0,0.0,0.0,0.0,0.0,0.0,0.0,0.0,0.0,0.0,0.0,0.0,0.0,0.0,0.0,0.0,0.0,0.0,0.0,0.0,0.0,0.0,0.0,0.0,0.0,0.0,0.0,0.0,0.0,0.0,0.0
2025/04/09 10:24:50.161758302,1744187090,161425552,world_ned,mA1/odom,1.6997897285473187,11.359560593760028,0.43360650008559165,0.00016652603900530006,0.001221895899845957,0.003182779579261214,0.9999941745598512,0.0,0.0,0.0,0.0,0.0,0.0,0.0,0.0,0.0,0.0,0.0,0.0,0.0,0.0,0.0,0.0,0.0,0.0,0.0,0.0,0.0,0.0,0.0,0.0,0.0,0.0,0.0,0.0,0.0,0.0,0.0,0.0,0.0,0.0,0.0,0.0,0.09641612156148781,-0.005862337921014521,0.00017231733800616208,-0.0016286107906973537,-0.004538121771959621,-0.0023762587647190012,0.0,0.0,0.0,0.0,0.0,0.0,0.0,0.0,0.0,0.0,0.0,0.0,0.0,0.0,0.0,0.0,0.0,0.0,0.0,0.0,0.0,0.0,0.0,0.0,0.0,0.0,0.0,0.0,0.0,0.0,0.0,0.0,0.0,0.0,0.0,0.0
2025/04/09 10:24:50.262502146,1744187090,262214374,world_ned,mA1/odom,1.7099217526200197,11.359097936168794,0.4336098038118026,2.213875166973182e-05,0.0009244971358167442,0.003063259578358282,0.9999948806147345,0.0,0.0,0.0,0.0,0.0,0.0,0.0,0.0,0.0,0.0,0.0,0.0,0.0,0.0,0.0,0.0,0.0,0.0,0.0,0.0,0.0,0.0,0.0,0.0,0.0,0.0,0.0,0.0,0.0,0.0,0.0,0.0,0.0,0.0,0.0,0.0,0.10972940024239607,-0.004821174064767153,0.00030312294002987546,-0.003830147671750472,-0.008142868554861885,-0.002400931136314696,0.0,0.0,0.0,0.0,0.0,0.0,0.0,0.0,0.0,0.0,0.0,0.0,0.0,0.0,0.0,0.0,0.0,0.0,0.0,0.0,0.0,0.0,0.0,0.0,0.0,0.0,0.0,0.0,0.0,0.0,0.0,0.0,0.0,0.0,0.0,0.0
2025/04/09 10:24:50.363840825,1744187090,363469641,world_ned,mA1/odom,1.7206165929601513,11.358714512792986,0.4336298734694144,-0.00020799608542392938,0.0005905957215375514,0.002943876246003842,0.9999954707532281,0.0,0.0,0.0,0.0,0.0,0.0,0.0,0.0,0.0,0.0,0.0,0.0,0.0,0.0,0.0,0.0,0.0,0.0,0.0,0.0,0.0,0.0,0.0,0.0,0.0,0.0,0.0,0.0,0.0,0.0,0.0,0.0,0.0,0.0,0.0,0.0,0.10801448323370862,-0.004235328638563301,0.00038852198115370826,-0.005128817432719366,-0.006184633498962846,-0.0023694980028304904,0.0,0.0,0.0,0.0,0.0,0.0,0.0,0.0,0.0,0.0,0.0,0.0,0.0,0.0,0.0,0.0,0.0,0.0,0.0,0.0,0.0,0.0,0.0,0.0,0.0,0.0,0.0,0.0,0.0,0.0,0.0,0.0,0.0,0.0,0.0,0.0
2025/04/09 10:24:50.465145105,1744187090,464865597,world_ned,mA1/odom,1.7321708748240845,11.358316474552725,0.4336611439666872,-0.000459548126333249,0.0002475648842525274,0.002812855248837059,0.9999959076778748,0.0,0.0,0.0,0.0,0.0,0.0,0.0,0.0,0.0,0.0,0.0,0.0,0.0,0.0,0.0,0.0,0.0,0.0,0.0,0.0,0.0,0.0,0.0,0.0,0.0,0.0,0.0,0.0,0.0,0.0,0.0,0.0,0.0,0.0,0.0,0.0,0.11707055010018917,-0.004602962596004145,0.0004315280185965469,-0.00510813352478128,-0.005924765121389228,-0.0026854343930338104,0.0,0.0,0.0,0.0,0.0,0.0,0.0,0.0,0.0,0.0,0.0,0.0,0.0,0.0,0.0,0.0,0.0,0.0,0.0,0.0,0.0,0.0,0.0,0.0,0.0,0.0,0.0,0.0,0.0,0.0,0.0,0.0,0.0,0.0,0.0,0.0
2025/04/09 10:24:50.568210463,1744187090,565674007,world_ned,mA1/odom,1.744594306769527,11.35796192528259,0.43370368942605136,-0.0007146385472184282,-4.838307293319467e-05,0.0026975813718673855,0.9999961049951981,0.0,0.0,0.0,0.0,0.0,0.0,0.0,0.0,0.0,0.0,0.0,0.0,0.0,0.0,0.0,0.0,0.0,0.0,0.0,0.0,0.0,0.0,0.0,0.0,0.0,0.0,0.0,0.0,0.0,0.0,0.0,0.0,0.0,0.0,0.0,0.0,0.12533860528244647,-0.00493709514292835,0.00039038797642329835,-0.004351080977304566,-0.0042512408324135486,-0.00242077542051894,0.0,0.0,0.0,0.0,0.0,0.0,0.0,0.0,0.0,0.0,0.0,0.0,0.0,0.0,0.0,0.0,0.0,0.0,0.0,0.0,0.0,0.0,0.0,0.0,0.0,0.0,0.0,0.0,0.0,0.0,0.0,0.0,0.0,0.0,0.0,0.0
2025/04/09 10:24:50.657474482,1744187090,657214983,world_ned,mA1/odom,1.7577918785476676,11.357344742583617,0.4337433498681389,-0.000841290195546359,-0.00021544370297829895,0.002538389985433013,0.9999964011890741,0.0,0.0,0.0,0.0,0.0,0.0,0.0,0.0,0.0,0.0,0.0,0.0,0.0,0.0,0.0,0.0,0.0,0.0,0.0,0.0,0.0,0.0,0.0,0.0,0.0,0.0,0.0,0.0,0.0,0.0,0.0,0.0,0.0,0.0,0.0,0.0,0.13054363878511063,-0.006219877975633297,0.00026218913246184826,-0.002440618833429156,-0.0008571301689104856,-0.0028674194567387514,0.0,0.0,0.0,0.0,0.0,0.0,0.0,0.0,0.0,0.0,0.0,0.0,0.0,0.0,0.0,0.0,0.0,0.0,0.0,0.0,0.0,0.0,0.0,0.0,0.0,0.0,0.0,0.0,0.0,0.0,0.0,0.0,0.0,0.0,0.0,0.0
2025/04/09 10:24:50.758288163,1744187090,758017037,world_ned,mA1/odom,1.771878015493578,11.357003087132663,0.4337676505398905,-0.0009912158200101754,-0.0002768023478774698,0.0024578789424048926,0.9999964498450796,0.0,0.0,0.0,0.0,0.0,0.0,0.0,0.0,0.0,0.0,0.0,0.0,0.0,0.0,0.0,0.0,0.0,0.0,0.0,0.0,0.0,0.0,0.0,0.0,0.0,0.0,0.0,0.0,0.0,0.0,0.0,0.0,0.0,0.0,0.0,0.0,0.14361004486025336,-0.0035405270042279126,6.163665281604115e-05,-0.0026612406636180976,0.00023310745754450812,-0.0009390532350338223,0.0,0.0,0.0,0.0,0.0,0.0,0.0,0.0,0.0,0.0,0.0,0.0,0.0,0.0,0.0,0.0,0.0,0.0,0.0,0.0,0.0,0.0,0.0,0.0,0.0,0.0,0.0,0.0,0.0,0.0,0.0,0.0,0.0,0.0,0.0,0.0
2025/04/09 10:24:50.859619638,1744187090,859379943,world_ned,mA1/odom,1.7867388747062014,11.356616338794826,0.4337724251095878,-0.0010396321563410165,-0.00018959851235520692,0.0024196126340816195,0.9999965143399674,0.0,0.0,0.0,0.0,0.0,0.0,0.0,0.0,0.0,0.0,0.0,0.0,0.0,0.0,0.0,0.0,0.0,0.0,0.0,0.0,0.0,0.0,0.0,0.0,0.0,0.0,0.0,0.0,0.0,0.0,0.0,0.0,0.0,0.0,0.0,0.0,0.1549769964521236,-0.005043811546314609,-0.000101631017252719,0.00018716098517112414,0.002190923164492467,-0.0004323052670391702,0.0,0.0,0.0,0.0,0.0,0.0,0.0,0.0,0.0,0.0,0.0,0.0,0.0,0.0,0.0,0.0,0.0,0.0,0.0,0.0,0.0,0.0,0.0,0.0,0.0,0.0,0.0,0.0,0.0,0.0,0.0,0.0,0.0,0.0,0.0,0.0
2025/04/09 10:24:50.963626007,1744187090,961232726,world_ned,mA1/odom,1.8023601562385902,11.356122614850312,0.4337568699833496,-0.0009585903294325927,2.3556869191110833e-05,0.002421413588819293,0.9999966086471924,0.0,0.0,0.0,0.0,0.0,0.0,0.0,0.0,0.0,0.0,0.0,0.0,0.0,0.0,0.0,0.0,0.0,0.0,0.0,0.0,0.0,0.0,0.0,0.0,0.0,0.0,0.0,0.0,0.0,0.0,0.0,0.0,0.0,0.0,0.0,0.0,0.16101582331372857,-0.0070778233883829105,-0.00024934885906989707,0.003313286454211194,0.004789506157515223,2.8207419449578162e-05,0.0,0.0,0.0,0.0,0.0,0.0,0.0,0.0,0.0,0.0,0.0,0.0,0.0,0.0,0.0,0.0,0.0,0.0,0.0,0.0,0.0,0.0,0.0,0.0,0.0,0.0,0.0,0.0,0.0,0.0,0.0,0.0,0.0,0.0,0.0,0.0
2025/04/09 10:24:51.64172045,1744187091,62070273,world_ned,mA1/odom,1.8187081463635137,11.355350052379155,0.4337247778749557,-0.0007083659260489553,0.00032230638256866654,0.0024149978663808086,0.9999967810556272,0.0,0.0,0.0,0.0,0.0,0.0,0.0,0.0,0.0,0.0,0.0,0.0,0.0,0.0,0.0,0.0,0.0,0.0,0.0,0.0,0.0,0.0,0.0,0.0,0.0,0.0,0.0,0.0,0.0,0.0,0.0,0.0,0.0,0.0,0.0,0.0,0.16952559143665968,-0.009466308844638014,-0.00026810306005327366,0.00615253766535808,0.005532935684362659,-0.00022981822884115795,0.0,0.0,0.0,0.0,0.0,0.0,0.0,0.0,0.0,0.0,0.0,0.0,0.0,0.0,0.0,0.0,0.0,0.0,0.0,0.0,0.0,0.0,0.0,0.0,0.0,0.0,0.0,0.0,0.0,0.0,0.0,0.0,0.0,0.0,0.0,0.0
2025/04/09 10:24:51.163225570,1744187091,162963956,world_ned,mA1/odom,1.8356666121258494,11.354416832182787,0.433684384003028,-0.0003648384577735091,0.0006497504891050457,0.0023921463962630002,0.9999968611714841,0.0,0.0,0.0,0.0,0.0,0.0,0.0,0.0,0.0,0.0,0.0,0.0,0.0,0.0,0.0,0.0,0.0,0.0,0.0,0.0,0.0,0.0,0.0,0.0,0.0,0.0,0.0,0.0,0.0,0.0,0.0,0.0,0.0,0.0,0.0,0.0,0.17575768544943404,-0.010077707804766037,-0.0002126126292871891,0.006954782318664952,0.005376422655752205,-0.00041705083698491104,0.0,0.0,0.0,0.0,0.0,0.0,0.0,0.0,0.0,0.0,0.0,0.0,0.0,0.0,0.0,0.0,0.0,0.0,0.0,0.0,0.0,0.0,0.0,0.0,0.0,0.0,0.0,0.0,0.0,0.0,0.0,0.0,0.0,0.0,0.0,0.0
2025/04/09 10:24:51.264780285,1744187091,263710794,world_ned,mA1/odom,1.8531681823441026,11.353532862923503,0.4336413950665787,-4.244956610204061e-05,0.0009397361721414275,0.00237231880912553,0.9999967435934124,0.0,0.0,0.0,0.0,0.0,0.0,0.0,0.0,0.0,0.0,0.0,0.0,0.0,0.0,0.0,0.0,0.0,0.0,0.0,0.0,0.0,0.0,0.0,0.0,0.0,0.0,0.0,0.0,0.0,0.0,0.0,0.0,0.0,0.0,0.0,0.0,0.17947383367488687,-0.009689314202425685,-0.00011673304094639557,0.006156305545044672,0.0045356394741544615,-0.0005714694129679732,0.0,0.0,0.0,0.0,0.0,0.0,0.0,0.0,0.0,0.0,0.0,0.0,0.0,0.0,0.0,0.0,0.0,0.0,0.0,0.0,0.0,0.0,0.0,0.0,0.0,0.0,0.0,0.0,0.0,0.0,0.0,0.0,0.0,0.0,0.0,0.0
2025/04/09 10:24:51.364830928,1744187091,364526856,world_ned,mA1/odom,1.8710698612328496,11.352680747796219,0.43359950376064527,0.00021829369471127922,0.0011529307676750617,0.002326204928979268,0.9999966059288082,0.0,0.0,0.0,0.0,0.0,0.0,0.0,0.0,0.0,0.0,0.0,0.0,0.0,0.0,0.0,0.0,0.0,0.0,0.0,0.0,0.0,0.0,0.0,0.0,0.0,0.0,0.0,0.0,0.0,0.0,0.0,0.0,0.0,0.0,0.0,0.0,0.1820677147713354,-0.008801598190691375,7.550095065721321e-05,0.004138294307548339,0.002842632235092687,-0.0011497335792981856,0.0,0.0,0.0,0.0,0.0,0.0,0.0,0.0,0.0,0.0,0.0,0.0,0.0,0.0,0.0,0.0,0.0,0.0,0.0,0.0,0.0,0.0,0.0,0.0,0.0,0.0,0.0,0.0,0.0,0.0,0.0,0.0,0.0,0.0,0.0,0.0
2025/04/09 10:24:51.466258640,1744187091,465889815,world_ned,mA1/odom,1.8893956010897988,11.351989516624796,0.43357483031651933,0.00033484555139374496,0.001230758517895286,0.002250870378881134,0.9999966533416323,0.0,0.0,0.0,0.0,0.0,0.0,0.0,0.0,0.0,0.0,0.0,0.0,0.0,0.0,0.0,0.0,0.0,0.0,0.0,0.0,0.0,0.0,0.0,0.0,0.0,0.0,0.0,0.0,0.0,0.0,0.0,0.0,0.0,0.0,0.0,0.0,0.18235763525718018,-0.005946974467091486,0.00028558544243423593,0.0002437385057389848,0.0009020095249444842,-0.0013725171918680453,0.0,0.0,0.0,0.0,0.0,0.0,0.0,0.0,0.0,0.0,0.0,0.0,0.0,0.0,0.0,0.0,0.0,0.0,0.0,0.0,0.0,0.0,0.0,0.0,0.0,0.0,0.0,0.0,0.0,0.0,0.0,0.0,0.0,0.0,0.0,0.0
2025/04/09 10:24:51.557130741,1744187091,556717836,world_ned,mA1/odom,1.9080435061111622,11.351678179140876,0.4335670965705541,0.00022646613949285304,0.0011637907455574088,0.0021951407208356017,0.9999968878258592,0.0,0.0,0.0,0.0,0.0,0.0,0.0,0.0,0.0,0.0,0.0,0.0,0.0,0.0,0.0,0.0,0.0,0.0,0.0,0.0,0.0,0.0,0.0,0.0,0.0,0.0,0.0,0.0,0.0,0.0,0.0,0.0,0.0,0.0,0.0,0.0,0.18865821286777554,-0.003345133326215954,0.0004661656900810494,-0.0034464448022167317,-0.0027105749214588644,-0.0013318405903590968,0.0,0.0,0.0,0.0,0.0,0.0,0.0,0.0,0.0,0.0,0.0,0.0,0.0,0.0,0.0,0.0,0.0,0.0,0.0,0.0,0.0,0.0,0.0,0.0,0.0,0.0,0.0,0.0,0.0,0.0,0.0,0.0,0.0,0.0,0.0,0.0
2025/04/09 10:24:51.657820119,1744187091,657476411,world_ned,mA1/odom,1.9271167637923703,11.351415189921724,0.43358974961990127,9.293558267270036e-06,0.000959969596521028,0.0020944704020757214,0.9999973457793467,0.0,0.0,0.0,0.0,0.0,0.0,0.0,0.0,0.0,0.0,0.0,0.0,0.0,0.0,0.0,0.0,0.0,0.0,0.0,0.0,0.0,0.0,0.0,0.0,0.0,0.0,0.0,0.0,0.0,0.0,0.0,0.0,0.0,0.0,0.0,0.0,0.19282138508684,-0.002127765540964402,0.0007503889358972434,-0.005879155615249633,-0.005318463365749077,-0.001935501065490581,0.0,0.0,0.0,0.0,0.0,0.0,0.0,0.0,0.0,0.0,0.0,0.0,0.0,0.0,0.0,0.0,0.0,0.0,0.0,0.0,0.0,0.0,0.0,0.0,0.0,0.0,0.0,0.0,0.0,0.0,0.0,0.0,0.0,0.0,0.0,0.0
2025/04/09 10:24:51.758499407,1744187091,758283015,world_ned,mA1/odom,1.9464380113100639,11.351416809262581,0.4336415672435558,-0.0003525751402235522,0.0006652481008986976,0.00201258775963308,0.9999976913104572,0.0,0.0,0.0,0.0,0.0,0.0,0.0,0.0,0.0,0.0,0.0,0.0,0.0,0.0,0.0,0.0,0.0,0.0,0.0,0.0,0.0,0.0,0.0,0.0,0.0,0.0,0.0,0.0,0.0,0.0,0.0,0.0,0.0,0.0,0.0,0.0,0.19480180234252348,-0.0004247567637026133,0.0008431394956328615,-0.007706021701416777,-0.006402457031352643,-0.0016519075879977369,0.0,0.0,0.0,0.0,0.0,0.0,0.0,0.0,0.0,0.0,0.0,0.0,0.0,0.0,0.0,0.0,0.0,0.0,0.0,0.0,0.0,0.0,0.0,0.0,0.0,0.0,0.0,0.0,0.0,0.0,0.0,0.0,0.0,0.0,0.0,0.0
2025/04/09 10:24:51.859456548,1744187091,859108329,world_ned,mA1/odom,1.9662604610509475,11.351459624878753,0.43370293759158557,-0.0007337324764798305,0.0003148019847092846,0.0019307103257079276,0.999997817444619,0.0,0.0,0.0,0.0,0.0,0.0,0.0,0.0,0.0,0.0,0.0,0.0,0.0,0.0,0.0,0.0,0.0,0.0,0.0,0.0,0.0,0.0,0.0,0.0,0.0,0.0,0.0,0.0,0.0,0.0,0.0,0.0,0.0,0.0,0.0,0.0,0.20199319114414815,-4.597388763837599e-05,0.0007168568288098889,-0.007527018286077584,-0.007547482272813977,-0.0014260232347207279,0.0,0.0,0.0,0.0,0.0,0.0,0.0,0.0,0.0,0.0,0.0,0.0,0.0,0.0,0.0,0.0,0.0,0.0,0.0,0.0,0.0,0.0,0.0,0.0,0.0,0.0,0.0,0.0,0.0,0.0,0.0,0.0,0.0,0.0,0.0,0.0
2025/04/09 10:24:51.960569322,1744187091,960244815,world_ned,mA1/odom,1.9865749227274068,11.351519743807737,0.43375537184628216,-0.0010671624311523915,-2.4038303220023806e-05,0.0018771846719092403,0.9999976683793883,0.0,0.0,0.0,0.0,0.0,0.0,0.0,0.0,0.0,0.0,0.0,0.0,0.0,0.0,0.0,0.0,0.0,0.0,0.0,0.0,0.0,0.0,0.0,0.0,0.0,0.0,0.0,0.0,0.0,0.0,0.0,0.0,0.0,0.0,0.0,0.0,0.20510178565480083,-0.001359587885870126,0.00046683360333450307,-0.005166432795413745,-0.006117001142358999,-0.001219280312126801,0.0,0.0,0.0,0.0,0.0,0.0,0.0,0.0,0.0,0.0,0.0,0.0,0.0,0.0,0.0,0.0,0.0,0.0,0.0,0.0,0.0,0.0,0.0,0.0,0.0,0.0,0.0,0.0,0.0,0.0,0.0,0.0,0.0,0.0,0.0,0.0
2025/04/09 10:24:52.61226661,1744187092,61026152,world_ned,mA1/odom,2.0074530185911446,11.351301206978862,0.43379221343238283,-0.001213843601743663,-0.00028581274546051003,0.0018028868872612578,0.9999975972439418,0.0,0.0,0.0,0.0,0.0,0.0,0.0,0.0,0.0,0.0,0.0,0.0,0.0,0.0,0.0,0.0,0.0,0.0,0.0,0.0,0.0,0.0,0.0,0.0,0.0,0.0,0.0,0.0,0.0,0.0,0.0,0.0,0.0,0.0,0.0,0.0,0.21665221584792363,-0.003332707559670997,0.0001481289509461878,-0.0016619668480597357,-0.00584796776100721,-0.001295217161186235,0.0,0.0,0.0,0.0,0.0,0.0,0.0,0.0,0.0,0.0,0.0,0.0,0.0,0.0,0.0,0.0,0.0,0.0,0.0,0.0,0.0,0.0,0.0,0.0,0.0,0.0,0.0,0.0,0.0,0.0,0.0,0.0,0.0,0.0,0.0,0.0
2025/04/09 10:24:52.164676465,1744187092,162338109,world_ned,mA1/odom,2.028813171451889,11.350993312295001,0.4338083253878555,-0.001212082508075642,-0.00042690941516694835,0.0017644413603756246,0.9999976176726776,0.0,0.0,0.0,0.0,0.0,0.0,0.0,0.0,0.0,0.0,0.0,0.0,0.0,0.0,0.0,0.0,0.0,0.0,0.0,0.0,0.0,0.0,0.0,0.0,0.0,0.0,0.0,0.0,0.0,0.0,0.0,0.0,0.0,0.0,0.0,0.0,0.2201427337059127,-0.004746198577460487,-0.00016622047756303647,0.001732366915698145,-0.0026977107767717453,-0.0005657439417144049,0.0,0.0,0.0,0.0,0.0,0.0,0.0,0.0,0.0,0.0,0.0,0.0,0.0,0.0,0.0,0.0,0.0,0.0,0.0,0.0,0.0,0.0,0.0,0.0,0.0,0.0,0.0,0.0,0.0,0.0,0.0,0.0,0.0,0.0,0.0,0.0
2025/04/09 10:24:52.263430317,1744187092,263192612,world_ned,mA1/odom,2.0507598363149695,11.35048550435718,0.43379361502017894,-0.0010272631094338177,-0.00042787872336149264,0.0017469858490542706,0.9999978548430718,0.0,0.0,0.0,0.0,0.0,0.0,0.0,0.0,0.0,0.0,0.0,0.0,0.0,0.0,0.0,0.0,0.0,0.0,0.0,0.0,0.0,0.0,0.0,0.0,0.0,0.0,0.0,0.0,0.0,0.0,0.0,0.0,0.0,0.0,0.0,0.0,0.2225306759197437,-0.007218707336146836,-0.00048633862316886255,0.005518312387127909,0.0011459558950602093,-0.00042286577810914756,0.0,0.0,0.0,0.0,0.0,0.0,0.0,0.0,0.0,0.0,0.0,0.0,0.0,0.0,0.0,0.0,0.0,0.0,0.0,0.0,0.0,0.0,0.0,0.0,0.0,0.0,0.0,0.0,0.0,0.0,0.0,0.0,0.0,0.0,0.0,0.0
2025/04/09 10:24:52.364270399,1744187092,364017668,world_ned,mA1/odom,2.0733166411708144,11.349712364951895,0.4337513958393216,-0.0006680242841795539,-0.00029658744714929113,0.001715076803396235,0.9999982621439901,0.0,0.0,0.0,0.0,0.0,0.0,0.0,0.0,0.0,0.0,0.0,0.0,0.0,0.0,0.0,0.0,0.0,0.0,0.0,0.0,0.0,0.0,0.0,0.0,0.0,0.0,0.0,0.0,0.0,0.0,0.0,0.0,0.0,0.0,0.0,0.0,0.22967098319084636,-0.009308594916232262,-0.0006701648669735708,0.008219516794023819,0.0032203327914050385,-0.000807325357687615,0.0,0.0,0.0,0.0,0.0,0.0,0.0,0.0,0.0,0.0,0.0,0.0,0.0,0.0,0.0,0.0,0.0,0.0,0.0,0.0,0.0,0.0,0.0,0.0,0.0,0.0,0.0,0.0,0.0,0.0,0.0,0.0,0.0,0.0,0.0,0.0
2025/04/09 10:24:52.458697244,1744187092,456408855,world_ned,mA1/odom,2.096284220406735,11.34881754476904,0.43369257968042246,-0.0002342654031575369,-4.356910913491141e-05,0.0016598451960864345,0.999998594066701,0.0,0.0,0.0,0.0,0.0,0.0,0.0,0.0,0.0,0.0,0.0,0.0,0.0,0.0,0.0,0.0,0.0,0.0,0.0,0.0,0.0,0.0,0.0,0.0,0.0,0.0,0.0,0.0,0.0,0.0,0.0,0.0,0.0,0.0,0.0,0.0,0.23263719085834175,-0.009396884731463497,-0.0006518462753026966,0.00844519670383464,0.005487107089783662,-0.001137395795380779,0.0,0.0,0.0,0.0,0.0,0.0,0.0,0.0,0.0,0.0,0.0,0.0,0.0,0.0,0.0,0.0,0.0,0.0,0.0,0.0,0.0,0.0,0.0,0.0,0.0,0.0,0.0,0.0,0.0,0.0,0.0,0.0,0.0,0.0,0.0,0.0
2025/04/09 10:24:52.558820192,1744187092,558557936,world_ned,mA1/odom,2.119679632473275,11.348038391752793,0.43363150346350177,0.00013610969877029443,0.00026771426275636675,0.0016017981614421392,0.999998672022055,0.0,0.0,0.0,0.0,0.0,0.0,0.0,0.0,0.0,0.0,0.0,0.0,0.0,0.0,0.0,0.0,0.0,0.0,0.0,0.0,0.0,0.0,0.0,0.0,0.0,0.0,0.0,0.0,0.0,0.0,0.0,0.0,0.0,0.0,0.0,0.0,0.23356389894604418,-0.00771801778445486,-0.000434129532789676,0.006316319709029232,0.006982737429128247,-0.0011437466568600635,0.0,0.0,0.0,0.0,0.0,0.0,0.0,0.0,0.0,0.0,0.0,0.0,0.0,0.0,0.0,0.0,0.0,0.0,0.0,0.0,0.0,0.0,0.0,0.0,0.0,0.0,0.0,0.0,0.0,0.0,0.0,0.0,0.0,0.0,0.0,0.0
2025/04/09 10:24:52.659651291,1744187092,659335551,world_ned,mA1/odom,2.1434806217384486,11.347469409348726,0.43358215235179104,0.0003595022842635191,0.0005700497296226338,0.0015497877805074694,0.9999985719786048,0.0,0.0,0.0,0.0,0.0,0.0,0.0,0.0,0.0,0.0,0.0,0.0,0.0,0.0,0.0,0.0,0.0,0.0,0.0,0.0,0.0,0.0,0.0,0.0,0.0,0.0,0.0,0.0,0.0,0.0,0.0,0.0,0.0,0.0,0.0,0.0,0.2395266115120452,-0.004809523137908223,-0.00010359434854657879,0.0024771389004818295,0.005578296918843091,-0.0007781657667849839,0.0,0.0,0.0,0.0,0.0,0.0,0.0,0.0,0.0,0.0,0.0,0.0,0.0,0.0,0.0,0.0,0.0,0.0,0.0,0.0,0.0,0.0,0.0,0.0,0.0,0.0,0.0,0.0,0.0,0.0,0.0,0.0,0.0,0.0,0.0,0.0
2025/04/09 10:24:52.760416084,1744187092,760137740,world_ned,mA1/odom,2.167398723665343,11.347255340337876,0.4335619796439602,0.00035797088633383563,0.0008324128959653385,0.0015319439013641288,0.9999984160454947,0.0,0.0,0.0,0.0,0.0,0.0,0.0,0.0,0.0,0.0,0.0,0.0,0.0,0.0,0.0,0.0,0.0,0.0,0.0,0.0,0.0,0.0,0.0,0.0,0.0,0.0,0.0,0.0,0.0,0.0,0.0,0.0,0.0,0.0,0.0,0.0,0.2399268985722451,-0.0019104041351256915,0.0003409707089805308,-0.0016569267076090273,0.004648060535002746,-0.00029502882464004545,0.0,0.0,0.0,0.0,0.0,0.0,0.0,0.0,0.0,0.0,0.0,0.0,0.0,0.0,0.0,0.0,0.0,0.0,0.0,0.0,0.0,0.0,0.0,0.0,0.0,0.0,0.0,0.0,0.0,0.0,0.0,0.0,0.0,0.0,0.0,0.0
2025/04/09 10:24:52.861198920,1744187092,860955138,world_ned,mA1/odom,2.1916331122625823,11.347246834355383,0.4335729750557353,0.0001824280448982498,0.0009898571307059866,0.00151805875243677,0.9999983411988709,0.0,0.0,0.0,0.0,0.0,0.0,0.0,0.0,0.0,0.0,0.0,0.0,0.0,0.0,0.0,0.0,0.0,0.0,0.0,0.0,0.0,0.0,0.0,0.0,0.0,0.0,0.0,0.0,0.0,0.0,0.0,0.0,0.0,0.0,0.0,0.0,0.2453892371993875,-1.9080575152878486e-05,0.000732529115653454,-0.004890772137708974,0.0014946832113576635,-0.00024169003307443143,0.0,0.0,0.0,0.0,0.0,0.0,0.0,0.0,0.0,0.0,0.0,0.0,0.0,0.0,0.0,0.0,0.0,0.0,0.0,0.0,0.0,0.0,0.0,0.0,0.0,0.0,0.0,0.0,0.0,0.0,0.0,0.0,0.0,0.0,0.0,0.0
2025/04/09 10:24:52.962597211,1744187092,962422527,world_ned,mA1/odom,2.215946110297781,11.34738815714029,0.43360939811398763,-0.00012460416188421242,0.001037916764651388,0.0015087751808949413,0.9999983153986041,0.0,0.0,0.0,0.0,0.0,0.0,0.0,0.0,0.0,0.0,0.0,0.0,0.0,0.0,0.0,0.0,0.0,0.0,0.0,0.0,0.0,0.0,0.0,0.0,0.0,0.0,0.0,0.0,0.0,0.0,0.0,0.0,0.0,0.0,0.0,0.0,0.24052280056875597,0.0011125106258865016,0.0009513287585762116,-0.006941251746309221,0.0007051592551467569,-0.00015084897050393533,0.0,0.0,0.0,0.0,0.0,0.0,0.0,0.0,0.0,0.0,0.0,0.0,0.0,0.0,0.0,0.0,0.0,0.0,0.0,0.0,0.0,0.0,0.0,0.0,0.0,0.0,0.0,0.0,0.0,0.0,0.0,0.0,0.0,0.0,0.0,0.0
2025/04/09 10:24:53.65378689,1744187093,65124480,world_ned,mA1/odom,2.240527581116739,11.347619197084327,0.4336630397543906,-0.0004984815449750065,0.0009383376590779355,0.0015115745105682824,0.9999982930890862,0.0,0.0,0.0,0.0,0.0,0.0,0.0,0.0,0.0,0.0,0.0,0.0,0.0,0.0,0.0,0.0,0.0,0.0,0.0,0.0,0.0,0.0,0.0,0.0,0.0,0.0,0.0,0.0,0.0,0.0,0.0,0.0,0.0,0.0,0.0,0.0,0.24825201152059506,0.0027862284016909374,0.001093247328164291,-0.008309041488491323,-0.0037927522753971026,0.0006857479147132599,0.0,0.0,0.0,0.0,0.0,0.0,0.0,0.0,0.0,0.0,0.0,0.0,0.0,0.0,0.0,0.0,0.0,0.0,0.0,0.0,0.0,0.0,0.0,0.0,0.0,0.0,0.0,0.0,0.0,0.0,0.0,0.0,0.0,0.0,0.0,0.0
2025/04/09 10:24:53.166257419,1744187093,165925499,world_ned,mA1/odom,2.265121066207724,11.347956817631717,0.4337247636339071,-0.0008899627828637936,0.0007294463618812315,0.0015637464513786337,0.999998115283867,0.0,0.0,0.0,0.0,0.0,0.0,0.0,0.0,0.0,0.0,0.0,0.0,0.0,0.0,0.0,0.0,0.0,0.0,0.0,0.0,0.0,0.0,0.0,0.0,0.0,0.0,0.0,0.0,0.0,0.0,0.0,0.0,0.0,0.0,0.0,0.0,0.24551578361979548,0.0016991590055453172,0.0009537003510603004,-0.006766663912972246,-0.0046839198394664815,0.0010483185854760191,0.0,0.0,0.0,0.0,0.0,0.0,0.0,0.0,0.0,0.0,0.0,0.0,0.0,0.0,0.0,0.0,0.0,0.0,0.0,0.0,0.0,0.0,0.0,0.0,0.0,0.0,0.0,0.0,0.0,0.0,0.0,0.0,0.0,0.0,0.0,0.0
2025/04/09 10:24:53.258996297,1744187093,258741622,world_ned,mA1/odom,2.289925944089034,11.348067724389704,0.433775197284314,-0.0011372922011763514,0.0004395555092527281,0.0016148511504082558,0.9999979528044872,0.0,0.0,0.0,0.0,0.0,0.0,0.0,0.0,0.0,0.0,0.0,0.0,0.0,0.0,0.0,0.0,0.0,0.0,0.0,0.0,0.0,0.0,0.0,0.0,0.0,0.0,0.0,0.0,0.0,0.0,0.0,0.0,0.0,0.0,0.0,0.0,0.24560345103537556,-0.0006959624104480768,0.0006208627344306872,-0.0034330286590668626,-0.005225281207543902,0.0010688501889453167,0.0,0.0,0.0,0.0,0.0,0.0,0.0,0.0,0.0,0.0,0.0,0.0,0.0,0.0,0.0,0.0,0.0,0.0,0.0,0.0,0.0,0.0,0.0,0.0,0.0,0.0,0.0,0.0,0.0,0.0,0.0,0.0,0.0,0.0,0.0,0.0
2025/04/09 10:24:53.360344950,1744187093,360019786,world_ned,mA1/odom,2.3151024114940206,11.34794022066731,0.4338010101428674,-0.0012011131975002037,0.0001087309307630684,0.0016711465143331536,0.9999978763847447,0.0,0.0,0.0,0.0,0.0,0.0,0.0,0.0,0.0,0.0,0.0,0.0,0.0,0.0,0.0,0.0,0.0,0.0,0.0,0.0,0.0,0.0,0.0,0.0,0.0,0.0,0.0,0.0,0.0,0.0,0.0,0.0,0.0,0.0,0.0,0.0,0.260077616219974,-0.003667730172694896,0.00019066605724554563,0.0007582588926872702,-0.008459579751066856,0.0009668942869976658,0.0,0.0,0.0,0.0,0.0,0.0,0.0,0.0,0.0,0.0,0.0,0.0,0.0,0.0,0.0,0.0,0.0,0.0,0.0,0.0,0.0,0.0,0.0,0.0,0.0,0.0,0.0,0.0,0.0,0.0,0.0,0.0,0.0,0.0,0.0,0.0
2025/04/09 10:24:53.463997882,1744187093,461679271,world_ned,mA1/odom,2.340534977233194,11.347489578401461,0.43379814050378174,-0.0010474388518992486,-0.00018022762595424236,0.001705672856400705,0.9999979805329415,0.0,0.0,0.0,0.0,0.0,0.0,0.0,0.0,0.0,0.0,0.0,0.0,0.0,0.0,0.0,0.0,0.0,0.0,0.0,0.0,0.0,0.0,0.0,0.0,0.0,0.0,0.0,0.0,0.0,0.0,0.0,0.0,0.0,0.0,0.0,0.0,0.2587799516830057,-0.006179914595026535,-0.0002707231793560748,0.004520778051236645,-0.006026055604760516,0.0006655645316719158,0.0,0.0,0.0,0.0,0.0,0.0,0.0,0.0,0.0,0.0,0.0,0.0,0.0,0.0,0.0,0.0,0.0,0.0,0.0,0.0,0.0,0.0,0.0,0.0,0.0,0.0,0.0,0.0,0.0,0.0,0.0,0.0,0.0,0.0,0.0,0.0
