time,header_stamp_secs,header_stamp_nsecs,header_frame_id,name_0,name_1,name_2,name_3,position_0,position_1,position_2,position_3
2025/04/09 10:24:45.427256488,0,0,,mA1/azimuth_1_joint,mA1/azimuth_2_joint,mA1/azimuth_3_joint,mA1/azimuth_4_joint,2.356194490192345,-2.3387411976724017,-0.767944870877505,0.767944870877505
2025/04/09 10:24:45.525789204,0,0,,mA1/azimuth_1_joint,mA1/azimuth_2_joint,mA1/azimuth_3_joint,mA1/azimuth_4_joint,2.356194490192345,-2.3387411976724017,-0.767944870877505,0.767944870877505
2025/04/09 10:24:45.625698738,0,0,,mA1/azimuth_1_joint,mA1/azimuth_2_joint,mA1/azimuth_3_joint,mA1/azimuth_4_joint,2.356194490192345,-2.3387411976724017,-0.767944870877505,0.767944870877505
2025/04/09 10:24:45.725862214,0,0,,mA1/azimuth_1_joint,mA1/azimuth_2_joint,mA1/azimuth_3_joint,mA1/azimuth_4_joint,2.356194490192345,-2.3387411976724017,-0.767944870877505,0.767944870877505
2025/04/09 10:24:45.825453527,0,0,,mA1/azimuth_1_joint,mA1/azimuth_2_joint,mA1/azimuth_3_joint,mA1/azimuth_4_joint,2.356194490192345,-2.3387411976724017,-0.767944870877505,0.767944870877505
2025/04/09 10:24:45.929851725,0,0,,mA1/azimuth_1_joint,mA1/azimuth_2_joint,mA1/azimuth_3_joint,mA1/azimuth_4_joint,2.356194490192345,-2.3387411976724017,-0.767944870877505,0.767944870877505
2025/04/09 10:24:46.25949941,0,0,,mA1/azimuth_1_joint,mA1/azimuth_2_joint,mA1/azimuth_3_joint,mA1/azimuth_4_joint,2.356194490192345,-2.3387411976724017,-0.767944870877505,0.767944870877505
2025/04/09 10:24:46.127555887,0,0,,mA1/azimuth_1_joint,mA1/azimuth_2_joint,mA1/azimuth_3_joint,mA1/azimuth_4_joint,2.356194490192345,-2.3387411976724017,-0.767944870877505,0.767944870877505
2025/04/09 10:24:46.225635135,0,0,,mA1/azimuth_1_joint,mA1/azimuth_2_joint,mA1/azimuth_3_joint,mA1/azimuth_4_joint,2.3387411976724017,-2.3387411976724017,-0.767944870877505,0.767944870877505
2025/04/09 10:24:46.325440528,0,0,,mA1/azimuth_1_joint,mA1/azimuth_2_joint,mA1/azimuth_3_joint,mA1/azimuth_4_joint,2.3387411976724017,-2.356194490192345,-0.767944870877505,0.767944870877505
2025/04/09 10:24:46.426059356,0,0,,mA1/azimuth_1_joint,mA1/azimuth_2_joint,mA1/azimuth_3_joint,mA1/azimuth_4_joint,2.356194490192345,-2.3387411976724017,-0.767944870877505,0.767944870877505
2025/04/09 10:24:46.525641331,0,0,,mA1/azimuth_1_joint,mA1/azimuth_2_joint,mA1/azimuth_3_joint,mA1/azimuth_4_joint,2.356194490192345,-2.3387411976724017,-0.767944870877505,0.767944870877505
2025/04/09 10:24:46.625761788,0,0,,mA1/azimuth_1_joint,mA1/azimuth_2_joint,mA1/azimuth_3_joint,mA1/azimuth_4_joint,2.356194490192345,-2.3387411976724017,-0.767944870877505,0.767944870877505
2025/04/09 10:24:46.725798251,0,0,,mA1/azimuth_1_joint,mA1/azimuth_2_joint,mA1/azimuth_3_joint,mA1/azimuth_4_joint,2.3387411976724017,-2.356194490192345,-0.767944870877505,0.767944870877505
2025/04/09 10:24:46.826205380,0,0,,mA1/azimuth_1_joint,mA1/azimuth_2_joint,mA1/azimuth_3_joint,mA1/azimuth_4_joint,2.3387411976724017,-2.3387411976724017,-0.767944870877505,0.767944870877505
2025/04/09 10:24:46.927929742,0,0,,mA1/azimuth_1_joint,mA1/azimuth_2_joint,mA1/azimuth_3_joint,mA1/azimuth_4_joint,2.356194490192345,-2.3387411976724017,-0.767944870877505,0.767944870877505
2025/04/09 10:24:47.26263414,0,0,,mA1/azimuth_1_joint,mA1/azimuth_2_joint,mA1/azimuth_3_joint,mA1/azimuth_4_joint,2.3387411976724017,-2.3387411976724017,-0.767944870877505,0.767944870877505
2025/04/09 10:24:47.125589349,0,0,,mA1/azimuth_1_joint,mA1/azimuth_2_joint,mA1/azimuth_3_joint,mA1/azimuth_4_joint,2.356194490192345,-2.3387411976724017,-0.767944870877505,0.767944870877505
2025/04/09 10:24:47.225670963,0,0,,mA1/azimuth_1_joint,mA1/azimuth_2_joint,mA1/azimuth_3_joint,mA1/azimuth_4_joint,2.3387411976724017,-2.3387411976724017,-0.767944870877505,0.767944870877505
2025/04/09 10:24:47.326205014,0,0,,mA1/azimuth_1_joint,mA1/azimuth_2_joint,mA1/azimuth_3_joint,mA1/azimuth_4_joint,2.3387411976724017,-2.356194490192345,-0.767944870877505,0.767944870877505
2025/04/09 10:24:47.426208218,0,0,,mA1/azimuth_1_joint,mA1/azimuth_2_joint,mA1/azimuth_3_joint,mA1/azimuth_4_joint,2.356194490192345,-2.3387411976724017,-0.767944870877505,0.767944870877505
2025/04/09 10:24:47.525728606,0,0,,mA1/azimuth_1_joint,mA1/azimuth_2_joint,mA1/azimuth_3_joint,mA1/azimuth_4_joint,2.3387411976724017,-2.356194490192345,-0.767944870877505,0.767944870877505
2025/04/09 10:24:47.625411460,0,0,,mA1/azimuth_1_joint,mA1/azimuth_2_joint,mA1/azimuth_3_joint,mA1/azimuth_4_joint,2.356194490192345,-2.3387411976724017,-0.767944870877505,0.767944870877505
2025/04/09 10:24:47.725572256,0,0,,mA1/azimuth_1_joint,mA1/azimuth_2_joint,mA1/azimuth_3_joint,mA1/azimuth_4_joint,2.3387411976724017,-2.356194490192345,-0.767944870877505,0.767944870877505
2025/04/09 10:24:47.825593859,0,0,,mA1/azimuth_1_joint,mA1/azimuth_2_joint,mA1/azimuth_3_joint,mA1/azimuth_4_joint,2.3387411976724017,-2.3387411976724017,-0.767944870877505,0.767944870877505
2025/04/09 10:24:47.927578249,0,0,,mA1/azimuth_1_joint,mA1/azimuth_2_joint,mA1/azimuth_3_joint,mA1/azimuth_4_joint,2.3387411976724017,-2.356194490192345,-0.767944870877505,0.767944870877505
2025/04/09 10:24:48.26212833,0,0,,mA1/azimuth_1_joint,mA1/azimuth_2_joint,mA1/azimuth_3_joint,mA1/azimuth_4_joint,2.3387411976724017,-2.3387411976724017,-0.767944870877505,0.767944870877505
2025/04/09 10:24:48.125473552,0,0,,mA1/azimuth_1_joint,mA1/azimuth_2_joint,mA1/azimuth_3_joint,mA1/azimuth_4_joint,2.356194490192345,-2.3387411976724017,-0.767944870877505,0.767944870877505
2025/04/09 10:24:48.226313443,0,0,,mA1/azimuth_1_joint,mA1/azimuth_2_joint,mA1/azimuth_3_joint,mA1/azimuth_4_joint,2.3387411976724017,-2.3387411976724017,-0.767944870877505,0.767944870877505
2025/04/09 10:24:48.327435530,0,0,,mA1/azimuth_1_joint,mA1/azimuth_2_joint,mA1/azimuth_3_joint,mA1/azimuth_4_joint,2.356194490192345,-2.3387411976724017,-0.767944870877505,0.767944870877505
2025/04/09 10:24:48.428593954,0,0,,mA1/azimuth_1_joint,mA1/azimuth_2_joint,mA1/azimuth_3_joint,mA1/azimuth_4_joint,2.3387411976724017,-2.3387411976724017,-0.767944870877505,0.767944870877505
2025/04/09 10:24:48.526545557,0,0,,mA1/azimuth_1_joint,mA1/azimuth_2_joint,mA1/azimuth_3_joint,mA1/azimuth_4_joint,2.356194490192345,-2.3387411976724017,-0.767944870877505,0.767944870877505
2025/04/09 10:24:48.627333887,0,0,,mA1/azimuth_1_joint,mA1/azimuth_2_joint,mA1/azimuth_3_joint,mA1/azimuth_4_joint,2.3387411976724017,-2.3387411976724017,-0.767944870877505,0.767944870877505
2025/04/09 10:24:48.725926244,0,0,,mA1/azimuth_1_joint,mA1/azimuth_2_joint,mA1/azimuth_3_joint,mA1/azimuth_4_joint,2.3387411976724017,-2.356194490192345,-0.767944870877505,0.767944870877505
2025/04/09 10:24:48.825571507,0,0,,mA1/azimuth_1_joint,mA1/azimuth_2_joint,mA1/azimuth_3_joint,mA1/azimuth_4_joint,2.356194490192345,-2.3387411976724017,-0.767944870877505,0.767944870877505
2025/04/09 10:24:48.926419219,0,0,,mA1/azimuth_1_joint,mA1/azimuth_2_joint,mA1/azimuth_3_joint,mA1/azimuth_4_joint,2.3387411976724017,-2.356194490192345,-0.767944870877505,0.767944870877505
2025/04/09 10:24:49.25531396,0,0,,mA1/azimuth_1_joint,mA1/azimuth_2_joint,mA1/azimuth_3_joint,mA1/azimuth_4_joint,2.356194490192345,-2.3387411976724017,-0.767944870877505,0.767944870877505
2025/04/09 10:24:49.128171110,0,0,,mA1/azimuth_1_joint,mA1/azimuth_2_joint,mA1/azimuth_3_joint,mA1/azimuth_4_joint,2.3911010752322315,-2.3736477827122884,-0.7155849933176751,0.7155849933176751
2025/04/09 10:24:49.226466803,0,0,,mA1/azimuth_1_joint,mA1/azimuth_2_joint,mA1/azimuth_3_joint,mA1/azimuth_4_joint,2.3911010752322315,-2.4085543677521746,-0.6981317007977318,0.6632251157578453
2025/04/09 10:24:49.325827771,0,0,,mA1/azimuth_1_joint,mA1/azimuth_2_joint,mA1/azimuth_3_joint,mA1/azimuth_4_joint,2.443460952792061,-2.426007660272118,-0.6457718232379019,0.6632251157578453
2025/04/09 10:24:49.426068288,0,0,,mA1/azimuth_1_joint,mA1/azimuth_2_joint,mA1/azimuth_3_joint,mA1/azimuth_4_joint,2.4958208303518914,-2.478367537831948,-0.6632251157578453,0.6108652381980153
2025/04/09 10:24:49.526457553,0,0,,mA1/azimuth_1_joint,mA1/azimuth_2_joint,mA1/azimuth_3_joint,mA1/azimuth_4_joint,2.530727415391778,-2.4609142453120048,-0.6108652381980153,0.5585053606381855
2025/04/09 10:24:49.626481690,0,0,,mA1/azimuth_1_joint,mA1/azimuth_2_joint,mA1/azimuth_3_joint,mA1/azimuth_4_joint,2.5830872929516078,-2.478367537831948,-0.5585053606381855,0.5061454830783556
2025/04/09 10:24:49.726858970,0,0,,mA1/azimuth_1_joint,mA1/azimuth_2_joint,mA1/azimuth_3_joint,mA1/azimuth_4_joint,2.6354471705114375,-2.426007660272118,-0.5235987755982988,0.5235987755982988
2025/04/09 10:24:49.826746422,0,0,,mA1/azimuth_1_joint,mA1/azimuth_2_joint,mA1/azimuth_3_joint,mA1/azimuth_4_joint,2.5830872929516078,-2.3736477827122884,-0.47123889803846897,0.4886921905584123
2025/04/09 10:24:49.926341649,0,0,,mA1/azimuth_1_joint,mA1/azimuth_2_joint,mA1/azimuth_3_joint,mA1/azimuth_4_joint,2.530727415391778,-2.356194490192345,-0.4188790204786391,0.4363323129985824
2025/04/09 10:24:50.26493609,0,0,,mA1/azimuth_1_joint,mA1/azimuth_2_joint,mA1/azimuth_3_joint,mA1/azimuth_4_joint,2.4958208303518914,-2.356194490192345,-0.3839724354387525,0.3839724354387525
2025/04/09 10:24:50.127435679,0,0,,mA1/azimuth_1_joint,mA1/azimuth_2_joint,mA1/azimuth_3_joint,mA1/azimuth_4_joint,2.443460952792061,-2.356194490192345,-0.33161255787892263,0.33161255787892263
2025/04/09 10:24:50.225851544,0,0,,mA1/azimuth_1_joint,mA1/azimuth_2_joint,mA1/azimuth_3_joint,mA1/azimuth_4_joint,2.3911010752322315,-2.356194490192345,-0.29670597283903605,0.29670597283903605
2025/04/09 10:24:50.330139122,0,0,,mA1/azimuth_1_joint,mA1/azimuth_2_joint,mA1/azimuth_3_joint,mA1/azimuth_4_joint,2.356194490192345,-2.356194490192345,-0.24434609527920614,0.2792526803190927
2025/04/09 10:24:50.425876257,0,0,,mA1/azimuth_1_joint,mA1/azimuth_2_joint,mA1/azimuth_3_joint,mA1/azimuth_4_joint,2.356194490192345,-2.356194490192345,-0.2617993877991494,0.24434609527920614
2025/04/09 10:24:50.525707222,0,0,,mA1/azimuth_1_joint,mA1/azimuth_2_joint,mA1/azimuth_3_joint,mA1/azimuth_4_joint,2.356194490192345,-2.356194490192345,-0.22689280275926285,0.2792526803190927
2025/04/09 10:24:50.627392747,0,0,,mA1/azimuth_1_joint,mA1/azimuth_2_joint,mA1/azimuth_3_joint,mA1/azimuth_4_joint,2.356194490192345,-2.356194490192345,-0.2792526803190927,0.22689280275926285
2025/04/09 10:24:50.726331744,0,0,,mA1/azimuth_1_joint,mA1/azimuth_2_joint,mA1/azimuth_3_joint,mA1/azimuth_4_joint,2.356194490192345,-2.356194490192345,-0.2792526803190927,0.22689280275926285
2025/04/09 10:24:50.826056481,0,0,,mA1/azimuth_1_joint,mA1/azimuth_2_joint,mA1/azimuth_3_joint,mA1/azimuth_4_joint,2.356194490192345,-2.356194490192345,-0.29670597283903605,0.20943951023931956
2025/04/09 10:24:50.926117791,0,0,,mA1/azimuth_1_joint,mA1/azimuth_2_joint,mA1/azimuth_3_joint,mA1/azimuth_4_joint,2.356194490192345,-2.356194490192345,-0.2792526803190927,0.22689280275926285
2025/04/09 10:24:51.27719936,0,0,,mA1/azimuth_1_joint,mA1/azimuth_2_joint,mA1/azimuth_3_joint,mA1/azimuth_4_joint,2.356194490192345,-2.356194490192345,-0.2617993877991494,0.24434609527920614
2025/04/09 10:24:51.125440191,0,0,,mA1/azimuth_1_joint,mA1/azimuth_2_joint,mA1/azimuth_3_joint,mA1/azimuth_4_joint,2.356194490192345,-2.356194490192345,-0.2617993877991494,0.24434609527920614
2025/04/09 10:24:51.225408017,0,0,,mA1/azimuth_1_joint,mA1/azimuth_2_joint,mA1/azimuth_3_joint,mA1/azimuth_4_joint,2.356194490192345,-2.356194490192345,-0.24434609527920614,0.2617993877991494
2025/04/09 10:24:51.326188629,0,0,,mA1/azimuth_1_joint,mA1/azimuth_2_joint,mA1/azimuth_3_joint,mA1/azimuth_4_joint,2.356194490192345,-2.356194490192345,-0.22689280275926285,0.2792526803190927
2025/04/09 10:24:51.427277643,0,0,,mA1/azimuth_1_joint,mA1/azimuth_2_joint,mA1/azimuth_3_joint,mA1/azimuth_4_joint,2.356194490192345,-2.356194490192345,-0.24434609527920614,0.2617993877991494
2025/04/09 10:24:51.526052290,0,0,,mA1/azimuth_1_joint,mA1/azimuth_2_joint,mA1/azimuth_3_joint,mA1/azimuth_4_joint,2.356194490192345,-2.356194490192345,-0.22689280275926285,0.2792526803190927
2025/04/09 10:24:51.625718678,0,0,,mA1/azimuth_1_joint,mA1/azimuth_2_joint,mA1/azimuth_3_joint,mA1/azimuth_4_joint,2.356194490192345,-2.356194490192345,-0.24434609527920614,0.2617993877991494
2025/04/09 10:24:51.726213707,0,0,,mA1/azimuth_1_joint,mA1/azimuth_2_joint,mA1/azimuth_3_joint,mA1/azimuth_4_joint,2.356194490192345,-2.356194490192345,-0.24434609527920614,0.2617993877991494
2025/04/09 10:24:51.825656857,0,0,,mA1/azimuth_1_joint,mA1/azimuth_2_joint,mA1/azimuth_3_joint,mA1/azimuth_4_joint,2.356194490192345,-2.356194490192345,-0.2617993877991494,0.24434609527920614
2025/04/09 10:24:51.926119231,0,0,,mA1/azimuth_1_joint,mA1/azimuth_2_joint,mA1/azimuth_3_joint,mA1/azimuth_4_joint,2.356194490192345,-2.356194490192345,-0.24434609527920614,0.2617993877991494
2025/04/09 10:24:52.26014227,0,0,,mA1/azimuth_1_joint,mA1/azimuth_2_joint,mA1/azimuth_3_joint,mA1/azimuth_4_joint,2.356194490192345,-2.356194490192345,-0.2617993877991494,0.22689280275926285
2025/04/09 10:24:52.126980552,0,0,,mA1/azimuth_1_joint,mA1/azimuth_2_joint,mA1/azimuth_3_joint,mA1/azimuth_4_joint,2.356194490192345,-2.356194490192345,-0.2792526803190927,0.22689280275926285
2025/04/09 10:24:52.226019983,0,0,,mA1/azimuth_1_joint,mA1/azimuth_2_joint,mA1/azimuth_3_joint,mA1/azimuth_4_joint,2.356194490192345,-2.356194490192345,-0.2617993877991494,0.24434609527920614
2025/04/09 10:24:52.325456826,0,0,,mA1/azimuth_1_joint,mA1/azimuth_2_joint,mA1/azimuth_3_joint,mA1/azimuth_4_joint,2.356194490192345,-2.356194490192345,-0.24434609527920614,0.2617993877991494
2025/04/09 10:24:52.425991606,0,0,,mA1/azimuth_1_joint,mA1/azimuth_2_joint,mA1/azimuth_3_joint,mA1/azimuth_4_joint,2.356194490192345,-2.356194490192345,-0.24434609527920614,0.2617993877991494
2025/04/09 10:24:52.527970602,0,0,,mA1/azimuth_1_joint,mA1/azimuth_2_joint,mA1/azimuth_3_joint,mA1/azimuth_4_joint,2.356194490192345,-2.356194490192345,-0.24434609527920614,0.24434609527920614
2025/04/09 10:24:52.625582446,0,0,,mA1/azimuth_1_joint,mA1/azimuth_2_joint,mA1/azimuth_3_joint,mA1/azimuth_4_joint,2.356194490192345,-2.356194490192345,-0.2617993877991494,0.22689280275926285
2025/04/09 10:24:52.725684637,0,0,,mA1/azimuth_1_joint,mA1/azimuth_2_joint,mA1/azimuth_3_joint,mA1/azimuth_4_joint,2.356194490192345,-2.356194490192345,-0.2617993877991494,0.24434609527920614
2025/04/09 10:24:52.826916653,0,0,,mA1/azimuth_1_joint,mA1/azimuth_2_joint,mA1/azimuth_3_joint,mA1/azimuth_4_joint,2.356194490192345,-2.356194490192345,-0.2617993877991494,0.24434609527920614
2025/04/09 10:24:52.930010924,0,0,,mA1/azimuth_1_joint,mA1/azimuth_2_joint,mA1/azimuth_3_joint,mA1/azimuth_4_joint,2.356194490192345,-2.356194490192345,-0.2617993877991494,0.24434609527920614
2025/04/09 10:24:53.29704612,0,0,,mA1/azimuth_1_joint,mA1/azimuth_2_joint,mA1/azimuth_3_joint,mA1/azimuth_4_joint,2.356194490192345,-2.356194490192345,-0.2792526803190927,0.22689280275926285
2025/04/09 10:24:53.125774498,0,0,,mA1/azimuth_1_joint,mA1/azimuth_2_joint,mA1/azimuth_3_joint,mA1/azimuth_4_joint,2.356194490192345,-2.356194490192345,-0.2617993877991494,0.22689280275926285
2025/04/09 10:24:53.226293928,0,0,,mA1/azimuth_1_joint,mA1/azimuth_2_joint,mA1/azimuth_3_joint,mA1/azimuth_4_joint,2.356194490192345,-2.356194490192345,-0.2617993877991494,0.22689280275926285
2025/04/09 10:24:53.326121231,0,0,,mA1/azimuth_1_joint,mA1/azimuth_2_joint,mA1/azimuth_3_joint,mA1/azimuth_4_joint,2.356194490192345,-2.356194490192345,-0.24434609527920614,0.24434609527920614
2025/04/09 10:24:53.426070412,0,0,,mA1/azimuth_1_joint,mA1/azimuth_2_joint,mA1/azimuth_3_joint,mA1/azimuth_4_joint,2.356194490192345,-2.356194490192345,-0.24434609527920614,0.24434609527920614
2025/04/09 10:24:53.528027677,0,0,,mA1/azimuth_1_joint,mA1/azimuth_2_joint,mA1/azimuth_3_joint,mA1/azimuth_4_joint,2.356194490192345,-2.356194490192345,-0.2617993877991494,0.22689280275926285
2025/04/09 10:24:53.625462200,0,0,,mA1/azimuth_1_joint,mA1/azimuth_2_joint,mA1/azimuth_3_joint,mA1/azimuth_4_joint,2.356194490192345,-2.356194490192345,-0.22689280275926285,0.2617993877991494
2025/04/09 10:24:53.725601022,0,0,,mA1/azimuth_1_joint,mA1/azimuth_2_joint,mA1/azimuth_3_joint,mA1/azimuth_4_joint,2.356194490192345,-2.356194490192345,-0.20943951023931956,0.2792526803190927
2025/04/09 10:24:53.825662752,0,0,,mA1/azimuth_1_joint,mA1/azimuth_2_joint,mA1/azimuth_3_joint,mA1/azimuth_4_joint,2.356194490192345,-2.356194490192345,-0.20943951023931956,0.2792526803190927
2025/04/09 10:24:53.926093307,0,0,,mA1/azimuth_1_joint,mA1/azimuth_2_joint,mA1/azimuth_3_joint,mA1/azimuth_4_joint,2.356194490192345,-2.356194490192345,-0.22689280275926285,0.2617993877991494
2025/04/09 10:24:54.26715515,0,0,,mA1/azimuth_1_joint,mA1/azimuth_2_joint,mA1/azimuth_3_joint,mA1/azimuth_4_joint,2.356194490192345,-2.356194490192345,-0.22689280275926285,0.24434609527920614
2025/04/09 10:24:54.126254075,0,0,,mA1/azimuth_1_joint,mA1/azimuth_2_joint,mA1/azimuth_3_joint,mA1/azimuth_4_joint,2.356194490192345,-2.356194490192345,-0.2617993877991494,0.22689280275926285
2025/04/09 10:24:54.226128246,0,0,,mA1/azimuth_1_joint,mA1/azimuth_2_joint,mA1/azimuth_3_joint,mA1/azimuth_4_joint,2.356194490192345,-2.356194490192345,-0.24434609527920614,0.24434609527920614
2025/04/09 10:24:54.326047146,0,0,,mA1/azimuth_1_joint,mA1/azimuth_2_joint,mA1/azimuth_3_joint,mA1/azimuth_4_joint,2.356194490192345,-2.356194490192345,-0.22689280275926285,0.24434609527920614
2025/04/09 10:24:54.425819431,0,0,,mA1/azimuth_1_joint,mA1/azimuth_2_joint,mA1/azimuth_3_joint,mA1/azimuth_4_joint,2.356194490192345,-2.356194490192345,-0.24434609527920614,0.22689280275926285
2025/04/09 10:24:54.525689258,0,0,,mA1/azimuth_1_joint,mA1/azimuth_2_joint,mA1/azimuth_3_joint,mA1/azimuth_4_joint,2.356194490192345,-2.356194490192345,-0.24434609527920614,0.22689280275926285
2025/04/09 10:24:54.626396343,0,0,,mA1/azimuth_1_joint,mA1/azimuth_2_joint,mA1/azimuth_3_joint,mA1/azimuth_4_joint,2.356194490192345,-2.356194490192345,-0.2617993877991494,0.20943951023931956
2025/04/09 10:24:54.725743682,0,0,,mA1/azimuth_1_joint,mA1/azimuth_2_joint,mA1/azimuth_3_joint,mA1/azimuth_4_joint,2.356194490192345,-2.356194490192345,-0.2617993877991494,0.19198621771937624
2025/04/09 10:24:54.826349536,0,0,,mA1/azimuth_1_joint,mA1/azimuth_2_joint,mA1/azimuth_3_joint,mA1/azimuth_4_joint,2.356194490192345,-2.356194490192345,-0.22689280275926285,0.22689280275926285
2025/04/09 10:24:54.925548347,0,0,,mA1/azimuth_1_joint,mA1/azimuth_2_joint,mA1/azimuth_3_joint,mA1/azimuth_4_joint,2.356194490192345,-2.356194490192345,-0.20943951023931956,0.24434609527920614
2025/04/09 10:24:55.26644752,0,0,,mA1/azimuth_1_joint,mA1/azimuth_2_joint,mA1/azimuth_3_joint,mA1/azimuth_4_joint,2.356194490192345,-2.356194490192345,-0.20943951023931956,0.24434609527920614
2025/04/09 10:24:55.126026820,0,0,,mA1/azimuth_1_joint,mA1/azimuth_2_joint,mA1/azimuth_3_joint,mA1/azimuth_4_joint,2.356194490192345,-2.356194490192345,-0.24434609527920614,0.20943951023931956
2025/04/09 10:24:55.225627580,0,0,,mA1/azimuth_1_joint,mA1/azimuth_2_joint,mA1/azimuth_3_joint,mA1/azimuth_4_joint,2.356194490192345,-2.356194490192345,-0.22689280275926285,0.22689280275926285
2025/04/09 10:24:55.328928915,0,0,,mA1/azimuth_1_joint,mA1/azimuth_2_joint,mA1/azimuth_3_joint,mA1/azimuth_4_joint,2.356194490192345,-2.356194490192345,-0.22689280275926285,0.22689280275926285
2025/04/09 10:24:55.427259193,0,0,,mA1/azimuth_1_joint,mA1/azimuth_2_joint,mA1/azimuth_3_joint,mA1/azimuth_4_joint,2.356194490192345,-2.356194490192345,-0.22689280275926285,0.22689280275926285
2025/04/09 10:24:55.526296866,0,0,,mA1/azimuth_1_joint,mA1/azimuth_2_joint,mA1/azimuth_3_joint,mA1/azimuth_4_joint,2.356194490192345,-2.356194490192345,-0.24434609527920614,0.20943951023931956
2025/04/09 10:24:55.626131426,0,0,,mA1/azimuth_1_joint,mA1/azimuth_2_joint,mA1/azimuth_3_joint,mA1/azimuth_4_joint,2.356194490192345,-2.356194490192345,-0.24434609527920614,0.19198621771937624
2025/04/09 10:24:55.725794230,0,0,,mA1/azimuth_1_joint,mA1/azimuth_2_joint,mA1/azimuth_3_joint,mA1/azimuth_4_joint,2.356194490192345,-2.356194490192345,-0.20943951023931956,0.22689280275926285
2025/04/09 10:24:55.826722057,0,0,,mA1/azimuth_1_joint,mA1/azimuth_2_joint,mA1/azimuth_3_joint,mA1/azimuth_4_joint,2.356194490192345,-2.356194490192345,-0.20943951023931956,0.22689280275926285
2025/04/09 10:24:55.925538379,0,0,,mA1/azimuth_1_joint,mA1/azimuth_2_joint,mA1/azimuth_3_joint,mA1/azimuth_4_joint,2.356194490192345,-2.356194490192345,-0.24434609527920614,0.19198621771937624
2025/04/09 10:24:56.25502711,0,0,,mA1/azimuth_1_joint,mA1/azimuth_2_joint,mA1/azimuth_3_joint,mA1/azimuth_4_joint,2.356194490192345,-2.356194490192345,-0.24434609527920614,0.17453292519943295
2025/04/09 10:24:56.125497468,0,0,,mA1/azimuth_1_joint,mA1/azimuth_2_joint,mA1/azimuth_3_joint,mA1/azimuth_4_joint,2.356194490192345,-2.356194490192345,-0.22689280275926285,0.19198621771937624
2025/04/09 10:24:56.225508492,0,0,,mA1/azimuth_1_joint,mA1/azimuth_2_joint,mA1/azimuth_3_joint,mA1/azimuth_4_joint,2.356194490192345,-2.356194490192345,-0.20943951023931956,0.20943951023931956
2025/04/09 10:24:56.325444340,0,0,,mA1/azimuth_1_joint,mA1/azimuth_2_joint,mA1/azimuth_3_joint,mA1/azimuth_4_joint,2.356194490192345,-2.356194490192345,-0.20943951023931956,0.20943951023931956
2025/04/09 10:24:56.426467045,0,0,,mA1/azimuth_1_joint,mA1/azimuth_2_joint,mA1/azimuth_3_joint,mA1/azimuth_4_joint,2.356194490192345,-2.356194490192345,-0.19198621771937624,0.22689280275926285
2025/04/09 10:24:56.525668050,0,0,,mA1/azimuth_1_joint,mA1/azimuth_2_joint,mA1/azimuth_3_joint,mA1/azimuth_4_joint,2.356194490192345,-2.356194490192345,-0.17453292519943295,0.24434609527920614
2025/04/09 10:24:56.625484345,0,0,,mA1/azimuth_1_joint,mA1/azimuth_2_joint,mA1/azimuth_3_joint,mA1/azimuth_4_joint,2.356194490192345,-2.356194490192345,-0.19198621771937624,0.20943951023931956
2025/04/09 10:24:56.727509433,0,0,,mA1/azimuth_1_joint,mA1/azimuth_2_joint,mA1/azimuth_3_joint,mA1/azimuth_4_joint,2.356194490192345,-2.356194490192345,-0.19198621771937624,0.22689280275926285
2025/04/09 10:24:56.828485051,0,0,,mA1/azimuth_1_joint,mA1/azimuth_2_joint,mA1/azimuth_3_joint,mA1/azimuth_4_joint,2.356194490192345,-2.356194490192345,-0.20943951023931956,0.20943951023931956
2025/04/09 10:24:56.925546546,0,0,,mA1/azimuth_1_joint,mA1/azimuth_2_joint,mA1/azimuth_3_joint,mA1/azimuth_4_joint,2.356194490192345,-2.356194490192345,-0.20943951023931956,0.19198621771937624
2025/04/09 10:24:57.26144959,0,0,,mA1/azimuth_1_joint,mA1/azimuth_2_joint,mA1/azimuth_3_joint,mA1/azimuth_4_joint,2.356194490192345,-2.356194490192345,-0.19198621771937624,0.20943951023931956
2025/04/09 10:24:57.125603880,0,0,,mA1/azimuth_1_joint,mA1/azimuth_2_joint,mA1/azimuth_3_joint,mA1/azimuth_4_joint,2.356194490192345,-2.356194490192345,-0.20943951023931956,0.19198621771937624
2025/04/09 10:24:57.225602084,0,0,,mA1/azimuth_1_joint,mA1/azimuth_2_joint,mA1/azimuth_3_joint,mA1/azimuth_4_joint,2.356194490192345,-2.356194490192345,-0.22689280275926285,0.17453292519943295
2025/04/09 10:24:57.325615622,0,0,,mA1/azimuth_1_joint,mA1/azimuth_2_joint,mA1/azimuth_3_joint,mA1/azimuth_4_joint,2.356194490192345,-2.356194490192345,-0.19198621771937624,0.19198621771937624
2025/04/09 10:24:57.425397579,0,0,,mA1/azimuth_1_joint,mA1/azimuth_2_joint,mA1/azimuth_3_joint,mA1/azimuth_4_joint,2.356194490192345,-2.356194490192345,-0.20943951023931956,0.17453292519943295
2025/04/09 10:24:57.527921172,0,0,,mA1/azimuth_1_joint,mA1/azimuth_2_joint,mA1/azimuth_3_joint,mA1/azimuth_4_joint,2.356194490192345,-2.356194490192345,-0.19198621771937624,0.19198621771937624
2025/04/09 10:24:57.626677682,0,0,,mA1/azimuth_1_joint,mA1/azimuth_2_joint,mA1/azimuth_3_joint,mA1/azimuth_4_joint,2.356194490192345,-2.356194490192345,-0.19198621771937624,0.17453292519943295
2025/04/09 10:24:57.726672999,0,0,,mA1/azimuth_1_joint,mA1/azimuth_2_joint,mA1/azimuth_3_joint,mA1/azimuth_4_joint,2.356194490192345,-2.356194490192345,-0.17453292519943295,0.19198621771937624
2025/04/09 10:24:57.825524749,0,0,,mA1/azimuth_1_joint,mA1/azimuth_2_joint,mA1/azimuth_3_joint,mA1/azimuth_4_joint,2.356194490192345,-2.356194490192345,-0.17453292519943295,0.19198621771937624
2025/04/09 10:24:57.925442707,0,0,,mA1/azimuth_1_joint,mA1/azimuth_2_joint,mA1/azimuth_3_joint,mA1/azimuth_4_joint,2.356194490192345,-2.356194490192345,-0.19198621771937624,0.17453292519943295
2025/04/09 10:24:58.25507929,0,0,,mA1/azimuth_1_joint,mA1/azimuth_2_joint,mA1/azimuth_3_joint,mA1/azimuth_4_joint,2.356194490192345,-2.356194490192345,-0.17453292519943295,0.19198621771937624
2025/04/09 10:24:58.126844361,0,0,,mA1/azimuth_1_joint,mA1/azimuth_2_joint,mA1/azimuth_3_joint,mA1/azimuth_4_joint,2.356194490192345,-2.356194490192345,-0.17453292519943295,0.17453292519943295
2025/04/09 10:24:58.225525836,0,0,,mA1/azimuth_1_joint,mA1/azimuth_2_joint,mA1/azimuth_3_joint,mA1/azimuth_4_joint,2.356194490192345,-2.356194490192345,-0.19198621771937624,0.15707963267948966
2025/04/09 10:24:58.326272994,0,0,,mA1/azimuth_1_joint,mA1/azimuth_2_joint,mA1/azimuth_3_joint,mA1/azimuth_4_joint,2.356194490192345,-2.356194490192345,-0.17453292519943295,0.17453292519943295
2025/04/09 10:24:58.425600696,0,0,,mA1/azimuth_1_joint,mA1/azimuth_2_joint,mA1/azimuth_3_joint,mA1/azimuth_4_joint,2.356194490192345,-2.356194490192345,-0.19198621771937624,0.15707963267948966
2025/04/09 10:24:58.525958344,0,0,,mA1/azimuth_1_joint,mA1/azimuth_2_joint,mA1/azimuth_3_joint,mA1/azimuth_4_joint,2.356194490192345,-2.356194490192345,-0.17453292519943295,0.15707963267948966
2025/04/09 10:24:58.626215876,0,0,,mA1/azimuth_1_joint,mA1/azimuth_2_joint,mA1/azimuth_3_joint,mA1/azimuth_4_joint,2.3736477827122884,-2.356194490192345,-0.19198621771937624,0.15707963267948966
2025/04/09 10:24:58.726288781,0,0,,mA1/azimuth_1_joint,mA1/azimuth_2_joint,mA1/azimuth_3_joint,mA1/azimuth_4_joint,2.356194490192345,-2.356194490192345,-0.17453292519943295,0.17453292519943295
2025/04/09 10:24:58.825630638,0,0,,mA1/azimuth_1_joint,mA1/azimuth_2_joint,mA1/azimuth_3_joint,mA1/azimuth_4_joint,2.356194490192345,-2.356194490192345,-0.19198621771937624,0.17453292519943295
2025/04/09 10:24:58.925658575,0,0,,mA1/azimuth_1_joint,mA1/azimuth_2_joint,mA1/azimuth_3_joint,mA1/azimuth_4_joint,2.356194490192345,-2.356194490192345,-0.20943951023931956,0.17453292519943295
2025/04/09 10:24:59.25535172,0,0,,mA1/azimuth_1_joint,mA1/azimuth_2_joint,mA1/azimuth_3_joint,mA1/azimuth_4_joint,2.356194490192345,-2.356194490192345,-0.22689280275926285,0.19198621771937624
2025/04/09 10:24:59.125572987,0,0,,mA1/azimuth_1_joint,mA1/azimuth_2_joint,mA1/azimuth_3_joint,mA1/azimuth_4_joint,2.356194490192345,-2.356194490192345,-0.24434609527920614,0.20943951023931956
2025/04/09 10:24:59.225464867,0,0,,mA1/azimuth_1_joint,mA1/azimuth_2_joint,mA1/azimuth_3_joint,mA1/azimuth_4_joint,2.356194490192345,-2.356194490192345,-0.2617993877991494,0.22689280275926285
2025/04/09 10:24:59.327009987,0,0,,mA1/azimuth_1_joint,mA1/azimuth_2_joint,mA1/azimuth_3_joint,mA1/azimuth_4_joint,2.356194490192345,-2.356194490192345,-0.3141592653589793,0.22689280275926285
2025/04/09 10:24:59.425594597,0,0,,mA1/azimuth_1_joint,mA1/azimuth_2_joint,mA1/azimuth_3_joint,mA1/azimuth_4_joint,2.356194490192345,-2.356194490192345,-0.3141592653589793,0.24434609527920614
2025/04/09 10:24:59.526357202,0,0,,mA1/azimuth_1_joint,mA1/azimuth_2_joint,mA1/azimuth_3_joint,mA1/azimuth_4_joint,2.356194490192345,-2.356194490192345,-0.3141592653589793,0.2792526803190927
2025/04/09 10:24:59.625519862,0,0,,mA1/azimuth_1_joint,mA1/azimuth_2_joint,mA1/azimuth_3_joint,mA1/azimuth_4_joint,2.356194490192345,-2.356194490192345,-0.3490658503988659,0.2792526803190927
2025/04/09 10:24:59.725516061,0,0,,mA1/azimuth_1_joint,mA1/azimuth_2_joint,mA1/azimuth_3_joint,mA1/azimuth_4_joint,2.356194490192345,-2.356194490192345,-0.3490658503988659,0.29670597283903605
2025/04/09 10:24:59.825466019,0,0,,mA1/azimuth_1_joint,mA1/azimuth_2_joint,mA1/azimuth_3_joint,mA1/azimuth_4_joint,2.356194490192345,-2.356194490192345,-0.3839724354387525,0.29670597283903605
2025/04/09 10:24:59.926160017,0,0,,mA1/azimuth_1_joint,mA1/azimuth_2_joint,mA1/azimuth_3_joint,mA1/azimuth_4_joint,2.356194490192345,-2.356194490192345,-0.3490658503988659,0.3490658503988659
2025/04/09 10:25:00.25546304,0,0,,mA1/azimuth_1_joint,mA1/azimuth_2_joint,mA1/azimuth_3_joint,mA1/azimuth_4_joint,2.356194490192345,-2.356194490192345,-0.4014257279586958,0.3490658503988659
2025/04/09 10:25:00.125496773,0,0,,mA1/azimuth_1_joint,mA1/azimuth_2_joint,mA1/azimuth_3_joint,mA1/azimuth_4_joint,2.356194490192345,-2.356194490192345,-0.4363323129985824,0.33161255787892263
2025/04/09 10:25:00.225627518,0,0,,mA1/azimuth_1_joint,mA1/azimuth_2_joint,mA1/azimuth_3_joint,mA1/azimuth_4_joint,2.356194490192345,-2.356194490192345,-0.4363323129985824,0.3665191429188092
2025/04/09 10:25:00.325488372,0,0,,mA1/azimuth_1_joint,mA1/azimuth_2_joint,mA1/azimuth_3_joint,mA1/azimuth_4_joint,2.356194490192345,-2.356194490192345,-0.4188790204786391,0.4014257279586958
2025/04/09 10:25:00.426095417,0,0,,mA1/azimuth_1_joint,mA1/azimuth_2_joint,mA1/azimuth_3_joint,mA1/azimuth_4_joint,2.356194490192345,-2.356194490192345,-0.47123889803846897,0.4014257279586958
2025/04/09 10:25:00.526421435,0,0,,mA1/azimuth_1_joint,mA1/azimuth_2_joint,mA1/azimuth_3_joint,mA1/azimuth_4_joint,2.356194490192345,-2.356194490192345,-0.4886921905584123,0.4188790204786391
2025/04/09 10:25:00.625636770,0,0,,mA1/azimuth_1_joint,mA1/azimuth_2_joint,mA1/azimuth_3_joint,mA1/azimuth_4_joint,2.356194490192345,-2.356194490192345,-0.4886921905584123,0.4363323129985824
2025/04/09 10:25:00.725504940,0,0,,mA1/azimuth_1_joint,mA1/azimuth_2_joint,mA1/azimuth_3_joint,mA1/azimuth_4_joint,2.356194490192345,-2.356194490192345,-0.5061454830783556,0.4537856055185257
2025/04/09 10:25:00.825842386,0,0,,mA1/azimuth_1_joint,mA1/azimuth_2_joint,mA1/azimuth_3_joint,mA1/azimuth_4_joint,2.356194490192345,-2.356194490192345,-0.5410520681182421,0.47123889803846897
2025/04/09 10:25:00.925592941,0,0,,mA1/azimuth_1_joint,mA1/azimuth_2_joint,mA1/azimuth_3_joint,mA1/azimuth_4_joint,2.356194490192345,-2.3387411976724017,-0.5759586531581288,0.4363323129985824
2025/04/09 10:25:01.26363915,0,0,,mA1/azimuth_1_joint,mA1/azimuth_2_joint,mA1/azimuth_3_joint,mA1/azimuth_4_joint,2.3387411976724017,-2.356194490192345,-0.5410520681182421,0.4886921905584123
2025/04/09 10:25:01.125601009,0,0,,mA1/azimuth_1_joint,mA1/azimuth_2_joint,mA1/azimuth_3_joint,mA1/azimuth_4_joint,2.356194490192345,-2.3387411976724017,-0.5759586531581288,0.4886921905584123
2025/04/09 10:25:01.226238145,0,0,,mA1/azimuth_1_joint,mA1/azimuth_2_joint,mA1/azimuth_3_joint,mA1/azimuth_4_joint,2.356194490192345,-2.356194490192345,-0.6283185307179586,0.5235987755982988
2025/04/09 10:25:01.325460502,0,0,,mA1/azimuth_1_joint,mA1/azimuth_2_joint,mA1/azimuth_3_joint,mA1/azimuth_4_joint,2.356194490192345,-2.356194490192345,-0.6632251157578453,0.5410520681182421
2025/04/09 10:25:01.425583448,0,0,,mA1/azimuth_1_joint,mA1/azimuth_2_joint,mA1/azimuth_3_joint,mA1/azimuth_4_joint,2.356194490192345,-2.3387411976724017,-0.6806784082777885,0.5585053606381855
2025/04/09 10:25:01.526270248,0,0,,mA1/azimuth_1_joint,mA1/azimuth_2_joint,mA1/azimuth_3_joint,mA1/azimuth_4_joint,2.356194490192345,-2.321287905152458,-0.6806784082777885,0.5759586531581288
2025/04/09 10:25:01.625664631,0,0,,mA1/azimuth_1_joint,mA1/azimuth_2_joint,mA1/azimuth_3_joint,mA1/azimuth_4_joint,2.356194490192345,-2.3387411976724017,-0.6981317007977318,0.5934119456780721
2025/04/09 10:25:01.727316570,0,0,,mA1/azimuth_1_joint,mA1/azimuth_2_joint,mA1/azimuth_3_joint,mA1/azimuth_4_joint,2.356194490192345,-2.3387411976724017,-0.6981317007977318,0.6108652381980153
2025/04/09 10:25:01.825480713,0,0,,mA1/azimuth_1_joint,mA1/azimuth_2_joint,mA1/azimuth_3_joint,mA1/azimuth_4_joint,2.356194490192345,-2.321287905152458,-0.7155849933176751,0.6283185307179586
2025/04/09 10:25:01.925544297,0,0,,mA1/azimuth_1_joint,mA1/azimuth_2_joint,mA1/azimuth_3_joint,mA1/azimuth_4_joint,2.356194490192345,-2.3387411976724017,-0.7155849933176751,0.6632251157578453
2025/04/09 10:25:02.25528498,0,0,,mA1/azimuth_1_joint,mA1/azimuth_2_joint,mA1/azimuth_3_joint,mA1/azimuth_4_joint,2.356194490192345,-2.3387411976724017,-0.7330382858376184,0.6632251157578453
2025/04/09 10:25:02.125685817,0,0,,mA1/azimuth_1_joint,mA1/azimuth_2_joint,mA1/azimuth_3_joint,mA1/azimuth_4_joint,2.356194490192345,-2.321287905152458,-0.7330382858376184,0.6632251157578453
2025/04/09 10:25:02.225469330,0,0,,mA1/azimuth_1_joint,mA1/azimuth_2_joint,mA1/azimuth_3_joint,mA1/azimuth_4_joint,2.356194490192345,-2.321287905152458,-0.7330382858376184,0.6981317007977318
2025/04/09 10:25:02.325658156,0,0,,mA1/azimuth_1_joint,mA1/azimuth_2_joint,mA1/azimuth_3_joint,mA1/azimuth_4_joint,2.356194490192345,-2.3387411976724017,-0.7504915783575618,0.6981317007977318
2025/04/09 10:25:02.426614629,0,0,,mA1/azimuth_1_joint,mA1/azimuth_2_joint,mA1/azimuth_3_joint,mA1/azimuth_4_joint,2.356194490192345,-2.321287905152458,-0.7504915783575618,0.7155849933176751
2025/04/09 10:25:02.525643282,0,0,,mA1/azimuth_1_joint,mA1/azimuth_2_joint,mA1/azimuth_3_joint,mA1/azimuth_4_joint,2.356194490192345,-2.3387411976724017,-0.7504915783575618,0.7155849933176751
2025/04/09 10:25:02.626326349,0,0,,mA1/azimuth_1_joint,mA1/azimuth_2_joint,mA1/azimuth_3_joint,mA1/azimuth_4_joint,2.356194490192345,-2.3387411976724017,-0.7504915783575618,0.7330382858376184
2025/04/09 10:25:02.726155880,0,0,,mA1/azimuth_1_joint,mA1/azimuth_2_joint,mA1/azimuth_3_joint,mA1/azimuth_4_joint,2.356194490192345,-2.3387411976724017,-0.7504915783575618,0.7330382858376184
2025/04/09 10:25:02.825559699,0,0,,mA1/azimuth_1_joint,mA1/azimuth_2_joint,mA1/azimuth_3_joint,mA1/azimuth_4_joint,2.356194490192345,-2.3387411976724017,-0.767944870877505,0.7330382858376184
2025/04/09 10:25:02.925510501,0,0,,mA1/azimuth_1_joint,mA1/azimuth_2_joint,mA1/azimuth_3_joint,mA1/azimuth_4_joint,2.356194490192345,-2.3387411976724017,-0.767944870877505,0.7504915783575618
2025/04/09 10:25:03.26118679,0,0,,mA1/azimuth_1_joint,mA1/azimuth_2_joint,mA1/azimuth_3_joint,mA1/azimuth_4_joint,2.356194490192345,-2.3387411976724017,-0.767944870877505,0.7504915783575618
2025/04/09 10:25:03.125592761,0,0,,mA1/azimuth_1_joint,mA1/azimuth_2_joint,mA1/azimuth_3_joint,mA1/azimuth_4_joint,2.356194490192345,-2.3387411976724017,-0.767944870877505,0.7504915783575618
2025/04/09 10:25:03.226477864,0,0,,mA1/azimuth_1_joint,mA1/azimuth_2_joint,mA1/azimuth_3_joint,mA1/azimuth_4_joint,2.356194490192345,-2.3387411976724017,-0.767944870877505,0.7504915783575618
2025/04/09 10:25:03.325686559,0,0,,mA1/azimuth_1_joint,mA1/azimuth_2_joint,mA1/azimuth_3_joint,mA1/azimuth_4_joint,2.356194490192345,-2.3387411976724017,-0.767944870877505,0.7504915783575618
2025/04/09 10:25:03.425634718,0,0,,mA1/azimuth_1_joint,mA1/azimuth_2_joint,mA1/azimuth_3_joint,mA1/azimuth_4_joint,2.356194490192345,-2.3387411976724017,-0.767944870877505,0.7504915783575618
2025/04/09 10:25:03.525886685,0,0,,mA1/azimuth_1_joint,mA1/azimuth_2_joint,mA1/azimuth_3_joint,mA1/azimuth_4_joint,2.356194490192345,-2.3387411976724017,-0.767944870877505,0.7504915783575618
2025/04/09 10:25:03.625697867,0,0,,mA1/azimuth_1_joint,mA1/azimuth_2_joint,mA1/azimuth_3_joint,mA1/azimuth_4_joint,2.3387411976724017,-2.356194490192345,-0.767944870877505,0.767944870877505
2025/04/09 10:25:03.726367799,0,0,,mA1/azimuth_1_joint,mA1/azimuth_2_joint,mA1/azimuth_3_joint,mA1/azimuth_4_joint,2.356194490192345,-2.3387411976724017,-0.767944870877505,0.7504915783575618
2025/04/09 10:25:03.825434411,0,0,,mA1/azimuth_1_joint,mA1/azimuth_2_joint,mA1/azimuth_3_joint,mA1/azimuth_4_joint,2.356194490192345,-2.3387411976724017,-0.767944870877505,0.7504915783575618
2025/04/09 10:25:03.925553271,0,0,,mA1/azimuth_1_joint,mA1/azimuth_2_joint,mA1/azimuth_3_joint,mA1/azimuth_4_joint,2.356194490192345,-2.3387411976724017,-0.767944870877505,0.7504915783575618
2025/04/09 10:25:04.25635161,0,0,,mA1/azimuth_1_joint,mA1/azimuth_2_joint,mA1/azimuth_3_joint,mA1/azimuth_4_joint,2.356194490192345,-2.3387411976724017,-0.767944870877505,0.7504915783575618
2025/04/09 10:25:04.125631213,0,0,,mA1/azimuth_1_joint,mA1/azimuth_2_joint,mA1/azimuth_3_joint,mA1/azimuth_4_joint,2.356194490192345,-2.3387411976724017,-0.767944870877505,0.7504915783575618
2025/04/09 10:25:04.225841404,0,0,,mA1/azimuth_1_joint,mA1/azimuth_2_joint,mA1/azimuth_3_joint,mA1/azimuth_4_joint,2.356194490192345,-2.3387411976724017,-0.767944870877505,0.7504915783575618
2025/04/09 10:25:04.325797525,0,0,,mA1/azimuth_1_joint,mA1/azimuth_2_joint,mA1/azimuth_3_joint,mA1/azimuth_4_joint,2.356194490192345,-2.3387411976724017,-0.767944870877505,0.7330382858376184
2025/04/09 10:25:04.425839289,0,0,,mA1/azimuth_1_joint,mA1/azimuth_2_joint,mA1/azimuth_3_joint,mA1/azimuth_4_joint,2.356194490192345,-2.3387411976724017,-0.767944870877505,0.7330382858376184
2025/04/09 10:25:04.525542940,0,0,,mA1/azimuth_1_joint,mA1/azimuth_2_joint,mA1/azimuth_3_joint,mA1/azimuth_4_joint,2.356194490192345,-2.3387411976724017,-0.767944870877505,0.7330382858376184
2025/04/09 10:25:04.625746131,0,0,,mA1/azimuth_1_joint,mA1/azimuth_2_joint,mA1/azimuth_3_joint,mA1/azimuth_4_joint,2.356194490192345,-2.3387411976724017,-0.7504915783575618,0.7330382858376184
2025/04/09 10:25:04.726230968,0,0,,mA1/azimuth_1_joint,mA1/azimuth_2_joint,mA1/azimuth_3_joint,mA1/azimuth_4_joint,2.356194490192345,-2.321287905152458,-0.7504915783575618,0.7155849933176751
2025/04/09 10:25:04.826202691,0,0,,mA1/azimuth_1_joint,mA1/azimuth_2_joint,mA1/azimuth_3_joint,mA1/azimuth_4_joint,2.356194490192345,-2.3387411976724017,-0.7504915783575618,0.7330382858376184
2025/04/09 10:25:04.925541338,0,0,,mA1/azimuth_1_joint,mA1/azimuth_2_joint,mA1/azimuth_3_joint,mA1/azimuth_4_joint,2.356194490192345,-2.3387411976724017,-0.7504915783575618,0.7155849933176751
2025/04/09 10:25:05.25441496,0,0,,mA1/azimuth_1_joint,mA1/azimuth_2_joint,mA1/azimuth_3_joint,mA1/azimuth_4_joint,2.356194490192345,-2.3387411976724017,-0.7504915783575618,0.7155849933176751
2025/04/09 10:25:05.125587911,0,0,,mA1/azimuth_1_joint,mA1/azimuth_2_joint,mA1/azimuth_3_joint,mA1/azimuth_4_joint,2.356194490192345,-2.3387411976724017,-0.7504915783575618,0.7155849933176751
2025/04/09 10:25:05.226244840,0,0,,mA1/azimuth_1_joint,mA1/azimuth_2_joint,mA1/azimuth_3_joint,mA1/azimuth_4_joint,2.356194490192345,-2.321287905152458,-0.7504915783575618,0.6981317007977318
2025/04/09 10:25:05.325659762,0,0,,mA1/azimuth_1_joint,mA1/azimuth_2_joint,mA1/azimuth_3_joint,mA1/azimuth_4_joint,2.356194490192345,-2.3387411976724017,-0.7330382858376184,0.6981317007977318
2025/04/09 10:25:05.425665829,0,0,,mA1/azimuth_1_joint,mA1/azimuth_2_joint,mA1/azimuth_3_joint,mA1/azimuth_4_joint,2.356194490192345,-2.321287905152458,-0.7330382858376184,0.6806784082777885
2025/04/09 10:25:05.525724531,0,0,,mA1/azimuth_1_joint,mA1/azimuth_2_joint,mA1/azimuth_3_joint,mA1/azimuth_4_joint,2.356194490192345,-2.356194490192345,-0.7330382858376184,0.6981317007977318
2025/04/09 10:25:05.625570995,0,0,,mA1/azimuth_1_joint,mA1/azimuth_2_joint,mA1/azimuth_3_joint,mA1/azimuth_4_joint,2.356194490192345,-2.3387411976724017,-0.7330382858376184,0.6981317007977318
2025/04/09 10:25:05.726165946,0,0,,mA1/azimuth_1_joint,mA1/azimuth_2_joint,mA1/azimuth_3_joint,mA1/azimuth_4_joint,2.356194490192345,-2.3387411976724017,-0.7330382858376184,0.6806784082777885
2025/04/09 10:25:05.825505185,0,0,,mA1/azimuth_1_joint,mA1/azimuth_2_joint,mA1/azimuth_3_joint,mA1/azimuth_4_joint,2.356194490192345,-2.3387411976724017,-0.7330382858376184,0.6806784082777885
2025/04/09 10:25:05.925469092,0,0,,mA1/azimuth_1_joint,mA1/azimuth_2_joint,mA1/azimuth_3_joint,mA1/azimuth_4_joint,2.356194490192345,-2.3387411976724017,-0.7155849933176751,0.6632251157578453
2025/04/09 10:25:06.26067429,0,0,,mA1/azimuth_1_joint,mA1/azimuth_2_joint,mA1/azimuth_3_joint,mA1/azimuth_4_joint,2.356194490192345,-2.356194490192345,-0.7155849933176751,0.6806784082777885
2025/04/09 10:25:06.127439655,0,0,,mA1/azimuth_1_joint,mA1/azimuth_2_joint,mA1/azimuth_3_joint,mA1/azimuth_4_joint,2.356194490192345,-2.3387411976724017,-0.7155849933176751,0.6457718232379019
2025/04/09 10:25:06.225720930,0,0,,mA1/azimuth_1_joint,mA1/azimuth_2_joint,mA1/azimuth_3_joint,mA1/azimuth_4_joint,2.356194490192345,-2.356194490192345,-0.6981317007977318,0.6632251157578453
2025/04/09 10:25:06.326368038,0,0,,mA1/azimuth_1_joint,mA1/azimuth_2_joint,mA1/azimuth_3_joint,mA1/azimuth_4_joint,2.356194490192345,-2.356194490192345,-0.6632251157578453,0.6981317007977318
2025/04/09 10:25:06.425635855,0,0,,mA1/azimuth_1_joint,mA1/azimuth_2_joint,mA1/azimuth_3_joint,mA1/azimuth_4_joint,2.356194490192345,-2.356194490192345,-0.6806784082777885,0.6632251157578453
2025/04/09 10:25:06.530308472,0,0,,mA1/azimuth_1_joint,mA1/azimuth_2_joint,mA1/azimuth_3_joint,mA1/azimuth_4_joint,2.356194490192345,-2.3387411976724017,-0.6981317007977318,0.6108652381980153
2025/04/09 10:25:06.625656068,0,0,,mA1/azimuth_1_joint,mA1/azimuth_2_joint,mA1/azimuth_3_joint,mA1/azimuth_4_joint,2.356194490192345,-2.356194490192345,-0.6632251157578453,0.6457718232379019
2025/04/09 10:25:06.725459559,0,0,,mA1/azimuth_1_joint,mA1/azimuth_2_joint,mA1/azimuth_3_joint,mA1/azimuth_4_joint,2.356194490192345,-2.3387411976724017,-0.6981317007977318,0.5934119456780721
2025/04/09 10:25:06.825731636,0,0,,mA1/azimuth_1_joint,mA1/azimuth_2_joint,mA1/azimuth_3_joint,mA1/azimuth_4_joint,2.356194490192345,-2.3387411976724017,-0.6981317007977318,0.5934119456780721
2025/04/09 10:25:06.926770492,0,0,,mA1/azimuth_1_joint,mA1/azimuth_2_joint,mA1/azimuth_3_joint,mA1/azimuth_4_joint,2.356194490192345,-2.356194490192345,-0.6632251157578453,0.6283185307179586
2025/04/09 10:25:07.26534030,0,0,,mA1/azimuth_1_joint,mA1/azimuth_2_joint,mA1/azimuth_3_joint,mA1/azimuth_4_joint,2.356194490192345,-2.356194490192345,-0.6632251157578453,0.6108652381980153
2025/04/09 10:25:07.126739460,0,0,,mA1/azimuth_1_joint,mA1/azimuth_2_joint,mA1/azimuth_3_joint,mA1/azimuth_4_joint,2.356194490192345,-2.3387411976724017,-0.6806784082777885,0.5759586531581288
2025/04/09 10:25:07.225699478,0,0,,mA1/azimuth_1_joint,mA1/azimuth_2_joint,mA1/azimuth_3_joint,mA1/azimuth_4_joint,2.356194490192345,-2.356194490192345,-0.6632251157578453,0.5759586531581288
2025/04/09 10:25:07.326061200,0,0,,mA1/azimuth_1_joint,mA1/azimuth_2_joint,mA1/azimuth_3_joint,mA1/azimuth_4_joint,2.356194490192345,-2.356194490192345,-0.6283185307179586,0.6108652381980153
2025/04/09 10:25:07.426200333,0,0,,mA1/azimuth_1_joint,mA1/azimuth_2_joint,mA1/azimuth_3_joint,mA1/azimuth_4_joint,2.356194490192345,-2.356194490192345,-0.6283185307179586,0.5934119456780721
2025/04/09 10:25:07.525623070,0,0,,mA1/azimuth_1_joint,mA1/azimuth_2_joint,mA1/azimuth_3_joint,mA1/azimuth_4_joint,2.356194490192345,-2.356194490192345,-0.5934119456780721,0.6108652381980153
2025/04/09 10:25:07.625617125,0,0,,mA1/azimuth_1_joint,mA1/azimuth_2_joint,mA1/azimuth_3_joint,mA1/azimuth_4_joint,2.356194490192345,-2.356194490192345,-0.6108652381980153,0.5759586531581288
2025/04/09 10:25:07.726303587,0,0,,mA1/azimuth_1_joint,mA1/azimuth_2_joint,mA1/azimuth_3_joint,mA1/azimuth_4_joint,2.356194490192345,-2.356194490192345,-0.6108652381980153,0.5759586531581288
2025/04/09 10:25:07.825745099,0,0,,mA1/azimuth_1_joint,mA1/azimuth_2_joint,mA1/azimuth_3_joint,mA1/azimuth_4_joint,2.356194490192345,-2.3387411976724017,-0.6457718232379019,0.5235987755982988
2025/04/09 10:25:07.926084082,0,0,,mA1/azimuth_1_joint,mA1/azimuth_2_joint,mA1/azimuth_3_joint,mA1/azimuth_4_joint,2.356194490192345,-2.3387411976724017,-0.6457718232379019,0.5061454830783556
2025/04/09 10:25:08.26264373,0,0,,mA1/azimuth_1_joint,mA1/azimuth_2_joint,mA1/azimuth_3_joint,mA1/azimuth_4_joint,2.356194490192345,-2.356194490192345,-0.6283185307179586,0.5061454830783556
2025/04/09 10:25:08.125928584,0,0,,mA1/azimuth_1_joint,mA1/azimuth_2_joint,mA1/azimuth_3_joint,mA1/azimuth_4_joint,2.356194490192345,-2.356194490192345,-0.6283185307179586,0.5061454830783556
2025/04/09 10:25:08.228840874,0,0,,mA1/azimuth_1_joint,mA1/azimuth_2_joint,mA1/azimuth_3_joint,mA1/azimuth_4_joint,2.356194490192345,-2.3387411976724017,-0.6457718232379019,0.4886921905584123
2025/04/09 10:25:08.325636104,0,0,,mA1/azimuth_1_joint,mA1/azimuth_2_joint,mA1/azimuth_3_joint,mA1/azimuth_4_joint,2.356194490192345,-2.3387411976724017,-0.6457718232379019,0.47123889803846897
2025/04/09 10:25:08.425465340,0,0,,mA1/azimuth_1_joint,mA1/azimuth_2_joint,mA1/azimuth_3_joint,mA1/azimuth_4_joint,2.356194490192345,-2.356194490192345,-0.6283185307179586,0.47123889803846897
2025/04/09 10:25:08.525721710,0,0,,mA1/azimuth_1_joint,mA1/azimuth_2_joint,mA1/azimuth_3_joint,mA1/azimuth_4_joint,2.356194490192345,-2.3387411976724017,-0.6283185307179586,0.4537856055185257
2025/04/09 10:25:08.625639196,0,0,,mA1/azimuth_1_joint,mA1/azimuth_2_joint,mA1/azimuth_3_joint,mA1/azimuth_4_joint,2.356194490192345,-2.321287905152458,-0.6283185307179586,0.4537856055185257
2025/04/09 10:25:08.725452616,0,0,,mA1/azimuth_1_joint,mA1/azimuth_2_joint,mA1/azimuth_3_joint,mA1/azimuth_4_joint,2.356194490192345,-2.356194490192345,-0.6283185307179586,0.4537856055185257
2025/04/09 10:25:08.826162672,0,0,,mA1/azimuth_1_joint,mA1/azimuth_2_joint,mA1/azimuth_3_joint,mA1/azimuth_4_joint,2.356194490192345,-2.356194490192345,-0.5759586531581288,0.5061454830783556
2025/04/09 10:25:08.925848495,0,0,,mA1/azimuth_1_joint,mA1/azimuth_2_joint,mA1/azimuth_3_joint,mA1/azimuth_4_joint,2.356194490192345,-2.356194490192345,-0.5585053606381855,0.5061454830783556
2025/04/09 10:25:09.25736661,0,0,,mA1/azimuth_1_joint,mA1/azimuth_2_joint,mA1/azimuth_3_joint,mA1/azimuth_4_joint,2.356194490192345,-2.356194490192345,-0.5585053606381855,0.4886921905584123
2025/04/09 10:25:09.126293123,0,0,,mA1/azimuth_1_joint,mA1/azimuth_2_joint,mA1/azimuth_3_joint,mA1/azimuth_4_joint,2.356194490192345,-2.356194490192345,-0.5235987755982988,0.5235987755982988
2025/04/09 10:25:09.230734948,0,0,,mA1/azimuth_1_joint,mA1/azimuth_2_joint,mA1/azimuth_3_joint,mA1/azimuth_4_joint,2.356194490192345,-2.321287905152458,-0.5759586531581288,0.47123889803846897
2025/04/09 10:25:09.325545563,0,0,,mA1/azimuth_1_joint,mA1/azimuth_2_joint,mA1/azimuth_3_joint,mA1/azimuth_4_joint,2.356194490192345,-2.356194490192345,-0.5759586531581288,0.4537856055185257
2025/04/09 10:25:09.425590858,0,0,,mA1/azimuth_1_joint,mA1/azimuth_2_joint,mA1/azimuth_3_joint,mA1/azimuth_4_joint,2.356194490192345,-2.356194490192345,-0.5585053606381855,0.4537856055185257
2025/04/09 10:25:09.526804006,0,0,,mA1/azimuth_1_joint,mA1/azimuth_2_joint,mA1/azimuth_3_joint,mA1/azimuth_4_joint,2.356194490192345,-2.356194490192345,-0.5235987755982988,0.47123889803846897
2025/04/09 10:25:09.625750737,0,0,,mA1/azimuth_1_joint,mA1/azimuth_2_joint,mA1/azimuth_3_joint,mA1/azimuth_4_joint,2.356194490192345,-2.356194490192345,-0.5235987755982988,0.4886921905584123
2025/04/09 10:25:09.726265772,0,0,,mA1/azimuth_1_joint,mA1/azimuth_2_joint,mA1/azimuth_3_joint,mA1/azimuth_4_joint,2.356194490192345,-2.3387411976724017,-0.5585053606381855,0.4363323129985824
2025/04/09 10:25:09.826063603,0,0,,mA1/azimuth_1_joint,mA1/azimuth_2_joint,mA1/azimuth_3_joint,mA1/azimuth_4_joint,2.356194490192345,-2.356194490192345,-0.5235987755982988,0.4537856055185257
2025/04/09 10:25:09.925551821,0,0,,mA1/azimuth_1_joint,mA1/azimuth_2_joint,mA1/azimuth_3_joint,mA1/azimuth_4_joint,2.356194490192345,-2.356194490192345,-0.5235987755982988,0.4537856055185257
2025/04/09 10:25:10.25636826,0,0,,mA1/azimuth_1_joint,mA1/azimuth_2_joint,mA1/azimuth_3_joint,mA1/azimuth_4_joint,2.356194490192345,-2.356194490192345,-0.5235987755982988,0.4537856055185257
2025/04/09 10:25:10.126672154,0,0,,mA1/azimuth_1_joint,mA1/azimuth_2_joint,mA1/azimuth_3_joint,mA1/azimuth_4_joint,2.356194490192345,-2.356194490192345,-0.5410520681182421,0.4188790204786391
2025/04/09 10:25:10.225954750,0,0,,mA1/azimuth_1_joint,mA1/azimuth_2_joint,mA1/azimuth_3_joint,mA1/azimuth_4_joint,2.356194490192345,-2.356194490192345,-0.5759586531581288,0.3839724354387525
2025/04/09 10:25:10.326282152,0,0,,mA1/azimuth_1_joint,mA1/azimuth_2_joint,mA1/azimuth_3_joint,mA1/azimuth_4_joint,2.356194490192345,-2.356194490192345,-0.5235987755982988,0.4363323129985824
2025/04/09 10:25:10.426595327,0,0,,mA1/azimuth_1_joint,mA1/azimuth_2_joint,mA1/azimuth_3_joint,mA1/azimuth_4_joint,2.356194490192345,-2.356194490192345,-0.4886921905584123,0.4537856055185257
2025/04/09 10:25:10.526259782,0,0,,mA1/azimuth_1_joint,mA1/azimuth_2_joint,mA1/azimuth_3_joint,mA1/azimuth_4_joint,2.356194490192345,-2.356194490192345,-0.5061454830783556,0.4363323129985824
2025/04/09 10:25:10.626342051,0,0,,mA1/azimuth_1_joint,mA1/azimuth_2_joint,mA1/azimuth_3_joint,mA1/azimuth_4_joint,2.356194490192345,-2.356194490192345,-0.4537856055185257,0.4537856055185257
2025/04/09 10:25:10.725612954,0,0,,mA1/azimuth_1_joint,mA1/azimuth_2_joint,mA1/azimuth_3_joint,mA1/azimuth_4_joint,2.356194490192345,-2.356194490192345,-0.4537856055185257,0.4537856055185257
2025/04/09 10:25:10.826749128,0,0,,mA1/azimuth_1_joint,mA1/azimuth_2_joint,mA1/azimuth_3_joint,mA1/azimuth_4_joint,2.356194490192345,-2.356194490192345,-0.4886921905584123,0.4188790204786391
2025/04/09 10:25:10.925707124,0,0,,mA1/azimuth_1_joint,mA1/azimuth_2_joint,mA1/azimuth_3_joint,mA1/azimuth_4_joint,2.356194490192345,-2.356194490192345,-0.5235987755982988,0.3839724354387525
2025/04/09 10:25:11.25692077,0,0,,mA1/azimuth_1_joint,mA1/azimuth_2_joint,mA1/azimuth_3_joint,mA1/azimuth_4_joint,2.356194490192345,-2.356194490192345,-0.5235987755982988,0.3839724354387525
2025/04/09 10:25:11.126359187,0,0,,mA1/azimuth_1_joint,mA1/azimuth_2_joint,mA1/azimuth_3_joint,mA1/azimuth_4_joint,2.356194490192345,-2.356194490192345,-0.5585053606381855,0.33161255787892263
2025/04/09 10:25:11.225568928,0,0,,mA1/azimuth_1_joint,mA1/azimuth_2_joint,mA1/azimuth_3_joint,mA1/azimuth_4_joint,2.356194490192345,-2.356194490192345,-0.5585053606381855,0.33161255787892263
2025/04/09 10:25:11.329550535,0,0,,mA1/azimuth_1_joint,mA1/azimuth_2_joint,mA1/azimuth_3_joint,mA1/azimuth_4_joint,2.356194490192345,-2.3387411976724017,-0.5585053606381855,0.33161255787892263
2025/04/09 10:25:11.425598124,0,0,,mA1/azimuth_1_joint,mA1/azimuth_2_joint,mA1/azimuth_3_joint,mA1/azimuth_4_joint,2.356194490192345,-2.356194490192345,-0.5410520681182421,0.3490658503988659
2025/04/09 10:25:11.525642273,0,0,,mA1/azimuth_1_joint,mA1/azimuth_2_joint,mA1/azimuth_3_joint,mA1/azimuth_4_joint,2.356194490192345,-2.356194490192345,-0.5235987755982988,0.3490658503988659
2025/04/09 10:25:11.625582058,0,0,,mA1/azimuth_1_joint,mA1/azimuth_2_joint,mA1/azimuth_3_joint,mA1/azimuth_4_joint,2.356194490192345,-2.356194490192345,-0.47123889803846897,0.4014257279586958
2025/04/09 10:25:11.725626810,0,0,,mA1/azimuth_1_joint,mA1/azimuth_2_joint,mA1/azimuth_3_joint,mA1/azimuth_4_joint,2.356194490192345,-2.356194490192345,-0.4886921905584123,0.3665191429188092
2025/04/09 10:25:11.826109127,0,0,,mA1/azimuth_1_joint,mA1/azimuth_2_joint,mA1/azimuth_3_joint,mA1/azimuth_4_joint,2.356194490192345,-2.356194490192345,-0.4886921905584123,0.3665191429188092
2025/04/09 10:25:11.925652298,0,0,,mA1/azimuth_1_joint,mA1/azimuth_2_joint,mA1/azimuth_3_joint,mA1/azimuth_4_joint,2.356194490192345,-2.356194490192345,-0.47123889803846897,0.3839724354387525
2025/04/09 10:25:12.26028976,0,0,,mA1/azimuth_1_joint,mA1/azimuth_2_joint,mA1/azimuth_3_joint,mA1/azimuth_4_joint,2.356194490192345,-2.356194490192345,-0.47123889803846897,0.3665191429188092
2025/04/09 10:25:12.125638900,0,0,,mA1/azimuth_1_joint,mA1/azimuth_2_joint,mA1/azimuth_3_joint,mA1/azimuth_4_joint,2.356194490192345,-2.356194490192345,-0.47123889803846897,0.3665191429188092
2025/04/09 10:25:12.225726365,0,0,,mA1/azimuth_1_joint,mA1/azimuth_2_joint,mA1/azimuth_3_joint,mA1/azimuth_4_joint,2.356194490192345,-2.356194490192345,-0.4537856055185257,0.3839724354387525
2025/04/09 10:25:12.326153382,0,0,,mA1/azimuth_1_joint,mA1/azimuth_2_joint,mA1/azimuth_3_joint,mA1/azimuth_4_joint,2.356194490192345,-2.356194490192345,-0.4537856055185257,0.3839724354387525
2025/04/09 10:25:12.425545281,0,0,,mA1/azimuth_1_joint,mA1/azimuth_2_joint,mA1/azimuth_3_joint,mA1/azimuth_4_joint,2.356194490192345,-2.356194490192345,-0.4537856055185257,0.3839724354387525
2025/04/09 10:25:12.525507093,0,0,,mA1/azimuth_1_joint,mA1/azimuth_2_joint,mA1/azimuth_3_joint,mA1/azimuth_4_joint,2.356194490192345,-2.356194490192345,-0.4363323129985824,0.3839724354387525
2025/04/09 10:25:12.626197273,0,0,,mA1/azimuth_1_joint,mA1/azimuth_2_joint,mA1/azimuth_3_joint,mA1/azimuth_4_joint,2.356194490192345,-2.356194490192345,-0.4886921905584123,0.33161255787892263
2025/04/09 10:25:12.726842072,0,0,,mA1/azimuth_1_joint,mA1/azimuth_2_joint,mA1/azimuth_3_joint,mA1/azimuth_4_joint,2.356194490192345,-2.356194490192345,-0.4886921905584123,0.33161255787892263
2025/04/09 10:25:12.826730772,0,0,,mA1/azimuth_1_joint,mA1/azimuth_2_joint,mA1/azimuth_3_joint,mA1/azimuth_4_joint,2.356194490192345,-2.356194490192345,-0.47123889803846897,0.3490658503988659
2025/04/09 10:25:12.925692814,0,0,,mA1/azimuth_1_joint,mA1/azimuth_2_joint,mA1/azimuth_3_joint,mA1/azimuth_4_joint,2.356194490192345,-2.356194490192345,-0.4886921905584123,0.33161255787892263
2025/04/09 10:25:13.27512286,0,0,,mA1/azimuth_1_joint,mA1/azimuth_2_joint,mA1/azimuth_3_joint,mA1/azimuth_4_joint,2.356194490192345,-2.356194490192345,-0.4363323129985824,0.3839724354387525
2025/04/09 10:25:13.125547274,0,0,,mA1/azimuth_1_joint,mA1/azimuth_2_joint,mA1/azimuth_3_joint,mA1/azimuth_4_joint,2.356194490192345,-2.356194490192345,-0.4537856055185257,0.3490658503988659
2025/04/09 10:25:13.225591561,0,0,,mA1/azimuth_1_joint,mA1/azimuth_2_joint,mA1/azimuth_3_joint,mA1/azimuth_4_joint,2.356194490192345,-2.356194490192345,-0.47123889803846897,0.3490658503988659
2025/04/09 10:25:13.325601205,0,0,,mA1/azimuth_1_joint,mA1/azimuth_2_joint,mA1/azimuth_3_joint,mA1/azimuth_4_joint,2.356194490192345,-2.356194490192345,-0.4537856055185257,0.3490658503988659
2025/04/09 10:25:13.425660680,0,0,,mA1/azimuth_1_joint,mA1/azimuth_2_joint,mA1/azimuth_3_joint,mA1/azimuth_4_joint,2.356194490192345,-2.356194490192345,-0.4886921905584123,0.3141592653589793
2025/04/09 10:25:13.527872077,0,0,,mA1/azimuth_1_joint,mA1/azimuth_2_joint,mA1/azimuth_3_joint,mA1/azimuth_4_joint,2.356194490192345,-2.3387411976724017,-0.5235987755982988,0.29670597283903605
2025/04/09 10:25:13.626243553,0,0,,mA1/azimuth_1_joint,mA1/azimuth_2_joint,mA1/azimuth_3_joint,mA1/azimuth_4_joint,2.356194490192345,-2.356194490192345,-0.5061454830783556,0.29670597283903605
2025/04/09 10:25:13.725920206,0,0,,mA1/azimuth_1_joint,mA1/azimuth_2_joint,mA1/azimuth_3_joint,mA1/azimuth_4_joint,2.356194490192345,-2.356194490192345,-0.47123889803846897,0.33161255787892263
2025/04/09 10:25:13.826159553,0,0,,mA1/azimuth_1_joint,mA1/azimuth_2_joint,mA1/azimuth_3_joint,mA1/azimuth_4_joint,2.356194490192345,-2.356194490192345,-0.47123889803846897,0.33161255787892263
2025/04/09 10:25:13.925521483,0,0,,mA1/azimuth_1_joint,mA1/azimuth_2_joint,mA1/azimuth_3_joint,mA1/azimuth_4_joint,2.356194490192345,-2.356194490192345,-0.4886921905584123,0.29670597283903605
2025/04/09 10:25:14.26359094,0,0,,mA1/azimuth_1_joint,mA1/azimuth_2_joint,mA1/azimuth_3_joint,mA1/azimuth_4_joint,2.356194490192345,-2.3387411976724017,-0.5061454830783556,0.2792526803190927
2025/04/09 10:25:14.125503422,0,0,,mA1/azimuth_1_joint,mA1/azimuth_2_joint,mA1/azimuth_3_joint,mA1/azimuth_4_joint,2.356194490192345,-2.356194490192345,-0.5061454830783556,0.29670597283903605
2025/04/09 10:25:14.226049090,0,0,,mA1/azimuth_1_joint,mA1/azimuth_2_joint,mA1/azimuth_3_joint,mA1/azimuth_4_joint,2.356194490192345,-2.356194490192345,-0.4886921905584123,0.3141592653589793
2025/04/09 10:25:14.326789712,0,0,,mA1/azimuth_1_joint,mA1/azimuth_2_joint,mA1/azimuth_3_joint,mA1/azimuth_4_joint,2.356194490192345,-2.356194490192345,-0.5061454830783556,0.29670597283903605
2025/04/09 10:25:14.425736349,0,0,,mA1/azimuth_1_joint,mA1/azimuth_2_joint,mA1/azimuth_3_joint,mA1/azimuth_4_joint,2.356194490192345,-2.356194490192345,-0.4886921905584123,0.29670597283903605
2025/04/09 10:25:14.528735033,0,0,,mA1/azimuth_1_joint,mA1/azimuth_2_joint,mA1/azimuth_3_joint,mA1/azimuth_4_joint,2.356194490192345,-2.356194490192345,-0.4886921905584123,0.29670597283903605
2025/04/09 10:25:14.625516103,0,0,,mA1/azimuth_1_joint,mA1/azimuth_2_joint,mA1/azimuth_3_joint,mA1/azimuth_4_joint,2.356194490192345,-2.356194490192345,-0.47123889803846897,0.3141592653589793
2025/04/09 10:25:14.726077727,0,0,,mA1/azimuth_1_joint,mA1/azimuth_2_joint,mA1/azimuth_3_joint,mA1/azimuth_4_joint,2.356194490192345,-2.356194490192345,-0.4537856055185257,0.33161255787892263
2025/04/09 10:25:14.826895485,0,0,,mA1/azimuth_1_joint,mA1/azimuth_2_joint,mA1/azimuth_3_joint,mA1/azimuth_4_joint,2.356194490192345,-2.356194490192345,-0.4886921905584123,0.29670597283903605
2025/04/09 10:25:14.926221969,0,0,,mA1/azimuth_1_joint,mA1/azimuth_2_joint,mA1/azimuth_3_joint,mA1/azimuth_4_joint,2.356194490192345,-2.356194490192345,-0.4886921905584123,0.29670597283903605
2025/04/09 10:25:15.26316872,0,0,,mA1/azimuth_1_joint,mA1/azimuth_2_joint,mA1/azimuth_3_joint,mA1/azimuth_4_joint,2.356194490192345,-2.3387411976724017,-0.5061454830783556,0.2792526803190927
2025/04/09 10:25:15.125492933,0,0,,mA1/azimuth_1_joint,mA1/azimuth_2_joint,mA1/azimuth_3_joint,mA1/azimuth_4_joint,2.356194490192345,-2.321287905152458,-0.4886921905584123,0.2792526803190927
2025/04/09 10:25:15.225467910,0,0,,mA1/azimuth_1_joint,mA1/azimuth_2_joint,mA1/azimuth_3_joint,mA1/azimuth_4_joint,2.356194490192345,-2.321287905152458,-0.4886921905584123,0.2792526803190927
2025/04/09 10:25:15.325392087,0,0,,mA1/azimuth_1_joint,mA1/azimuth_2_joint,mA1/azimuth_3_joint,mA1/azimuth_4_joint,2.356194490192345,-2.3387411976724017,-0.4886921905584123,0.29670597283903605
2025/04/09 10:25:15.425642916,0,0,,mA1/azimuth_1_joint,mA1/azimuth_2_joint,mA1/azimuth_3_joint,mA1/azimuth_4_joint,2.356194490192345,-2.303834612632515,-0.5061454830783556,0.2792526803190927
2025/04/09 10:25:15.530078338,0,0,,mA1/azimuth_1_joint,mA1/azimuth_2_joint,mA1/azimuth_3_joint,mA1/azimuth_4_joint,2.356194490192345,-2.356194490192345,-0.4886921905584123,0.29670597283903605
2025/04/09 10:25:15.625711751,0,0,,mA1/azimuth_1_joint,mA1/azimuth_2_joint,mA1/azimuth_3_joint,mA1/azimuth_4_joint,2.356194490192345,-2.3387411976724017,-0.4886921905584123,0.29670597283903605
2025/04/09 10:25:15.726857415,0,0,,mA1/azimuth_1_joint,mA1/azimuth_2_joint,mA1/azimuth_3_joint,mA1/azimuth_4_joint,2.356194490192345,-2.356194490192345,-0.4886921905584123,0.29670597283903605
2025/04/09 10:25:15.825801368,0,0,,mA1/azimuth_1_joint,mA1/azimuth_2_joint,mA1/azimuth_3_joint,mA1/azimuth_4_joint,2.356194490192345,-2.356194490192345,-0.4886921905584123,0.29670597283903605
2025/04/09 10:25:15.926123817,0,0,,mA1/azimuth_1_joint,mA1/azimuth_2_joint,mA1/azimuth_3_joint,mA1/azimuth_4_joint,2.356194490192345,-2.303834612632515,-0.4886921905584123,0.2792526803190927
2025/04/09 10:25:16.26651478,0,0,,mA1/azimuth_1_joint,mA1/azimuth_2_joint,mA1/azimuth_3_joint,mA1/azimuth_4_joint,2.356194490192345,-2.2863813201125716,-0.4886921905584123,0.2792526803190927
2025/04/09 10:25:16.126224604,0,0,,mA1/azimuth_1_joint,mA1/azimuth_2_joint,mA1/azimuth_3_joint,mA1/azimuth_4_joint,2.356194490192345,-2.3387411976724017,-0.4886921905584123,0.29670597283903605
2025/04/09 10:25:16.226004612,0,0,,mA1/azimuth_1_joint,mA1/azimuth_2_joint,mA1/azimuth_3_joint,mA1/azimuth_4_joint,2.356194490192345,-2.356194490192345,-0.4886921905584123,0.29670597283903605
2025/04/09 10:25:16.325736493,0,0,,mA1/azimuth_1_joint,mA1/azimuth_2_joint,mA1/azimuth_3_joint,mA1/azimuth_4_joint,2.356194490192345,-2.356194490192345,-0.4537856055185257,0.3141592653589793
