time,header_stamp_secs,header_stamp_nsecs,header_frame_id,orientation_x,orientation_y,orientation_z,orientation_w,orientation_covariance_0,orientation_covariance_1,orientation_covariance_2,orientation_covariance_3,orientation_covariance_4,orientation_covariance_5,orientation_covariance_6,orientation_covariance_7,orientation_covariance_8,angular_velocity_x,angular_velocity_y,angular_velocity_z,angular_velocity_covariance_0,angular_velocity_covariance_1,angular_velocity_covariance_2,angular_velocity_covariance_3,angular_velocity_covariance_4,angular_velocity_covariance_5,angular_velocity_covariance_6,angular_velocity_covariance_7,angular_velocity_covariance_8,linear_acceleration_x,linear_acceleration_y,linear_acceleration_z,linear_acceleration_covariance_0,linear_acceleration_covariance_1,linear_acceleration_covariance_2,linear_acceleration_covariance_3,linear_acceleration_covariance_4,linear_acceleration_covariance_5,linear_acceleration_covariance_6,linear_acceleration_covariance_7,linear_acceleration_covariance_8
2025/04/09 10:58:23.910502090,1744189103,655012302,mA1/imu,0.7077096441636161,0.7065028340445868,0.00027997646666281736,0.0008524423459771457,0.0,0.0,0.0,0.0,0.0,0.0,0.0,0.0,0.0,-0.0006068991431922995,-6.151095532794195e-07,-1.11014455769379e-05,0.0,0.0,0.0,0.0,0.0,0.0,0.0,0.0,0.0,0.00746217872295021,-0.06338078675174516,9.810603006909503,0.0,0.0,0.0,0.0,0.0,0.0,0.0,0.0,0.0
2025/04/09 10:58:23.910886232,1744189103,697325680,mA1/imu,0.7077094550247306,0.7065030316600378,0.00027475002566285415,0.0008473701657970544,0.0,0.0,0.0,0.0,0.0,0.0,0.0,0.0,0.0,0.0009842086778802555,-3.2142000295668917e-06,-1.102140526509852e-05,0.0,0.0,0.0,0.0,0.0,0.0,0.0,0.0,0.0,0.007775835646677568,-0.5851225550504084,9.809010009946487,0.0,0.0,0.0,0.0,0.0,0.0,0.0,0.0,0.0
2025/04/09 10:58:23.911139009,1744189103,748872109,mA1/imu,0.7077092660092997,0.7065032282053098,0.00027017726662751225,0.000842819256421131,0.0,0.0,0.0,0.0,0.0,0.0,0.0,0.0,0.0,0.0008367151999845746,-4.286680501307293e-06,-1.0984120544225965e-05,0.0,0.0,0.0,0.0,0.0,0.0,0.0,0.0,0.0,0.008278103539791998,0.032259982289089884,9.809928702658539,0.0,0.0,0.0,0.0,0.0,0.0,0.0,0.0,0.0
2025/04/09 10:58:23.911268269,1744189103,802395940,mA1/imu,0.7077090708787797,0.7065034217412117,0.00027153787881978916,0.0008439970582434834,0.0,0.0,0.0,0.0,0.0,0.0,0.0,0.0,0.0,-0.0007729820281478269,7.643673500821044e-06,-1.0954870261943643e-05,0.0,0.0,0.0,0.0,0.0,0.0,0.0,0.0,0.0,0.007961318905339103,0.5536070459346873,9.811120697728938,0.0,0.0,0.0,0.0,0.0,0.0,0.0,0.0,0.0
2025/04/09 10:58:23.911317033,1744189103,852048818,mA1/imu,0.7077088770946925,0.7065036143937038,0.0002727528497539948,0.0008448289088239902,0.0,0.0,0.0,0.0,0.0,0.0,0.0,0.0,0.0,-0.000645163482977227,1.77477247915765e-05,-1.0879132978851921e-05,0.0,0.0,0.0,0.0,0.0,0.0,0.0,0.0,0.0,0.007475460508830154,-0.06336073139438203,9.810347441182861,0.0,0.0,0.0,0.0,0.0,0.0,0.0,0.0,0.0
2025/04/09 10:58:23.911370847,1744189103,903294492,mA1/imu,0.7077086907631683,0.706503807971324,0.00026871509362270604,0.0008403169042764187,0.0,0.0,0.0,0.0,0.0,0.0,0.0,0.0,0.0,0.0009276291599253087,1.4095049209859518e-05,-1.0790493075958637e-05,0.0,0.0,0.0,0.0,0.0,0.0,0.0,0.0,0.0,0.007781746964823696,-0.5851274996501461,9.808723198006463,0.0,0.0,0.0,0.0,0.0,0.0,0.0,0.0,0.0
2025/04/09 10:58:23.958049946,1744189103,949007534,mA1/imu,0.7077085043488369,0.7065040002305564,0.00026559474071254015,0.0008366540432934209,0.0,0.0,0.0,0.0,0.0,0.0,0.0,0.0,0.0,0.0007645254903371082,1.0820701937520966e-05,-1.0747697049596466e-05,0.0,0.0,0.0,0.0,0.0,0.0,0.0,0.0,0.0,0.008284411033571838,0.0322508551289336,9.809625349223461,0.0,0.0,0.0,0.0,0.0,0.0,0.0,0.0,0.0
2025/04/09 10:58:24.2783769,1744189103,999984239,mA1/imu,0.7077083116631415,0.7065041893176448,0.0002685984409753063,0.0008390079860405852,0.0,0.0,0.0,0.0,0.0,0.0,0.0,0.0,0.0,-0.0008572312004403215,1.9559072667899886e-05,-1.071711985039853e-05,0.0,0.0,0.0,0.0,0.0,0.0,0.0,0.0,0.0,0.00797713511325259,0.5535973353391692,9.810830453344712,0.0,0.0,0.0,0.0,0.0,0.0,0.0,0.0,0.0
2025/04/09 10:58:24.55972547,1744189104,51135284,mA1/imu,0.7077081201201003,0.7065043773808685,0.00027156639299947134,0.000841254681545144,0.0,0.0,0.0,0.0,0.0,0.0,0.0,0.0,0.0,-0.0007377642778622931,2.591204386906667e-05,-1.0643591545569816e-05,0.0,0.0,0.0,0.0,0.0,0.0,0.0,0.0,0.0,0.007486522352673278,-0.06338213927243613,9.810072486732523,0.0,0.0,0.0,0.0,0.0,0.0,0.0,0.0,0.0
2025/04/09 10:58:24.109398740,1744189104,107652399,mA1/imu,0.7077079358422306,0.7065045663123775,0.00026931183207701894,0.0008383297833906161,0.0,0.0,0.0,0.0,0.0,0.0,0.0,0.0,0.0,0.0008310738774782646,1.785777218692639e-05,-1.0560677529202686e-05,0.0,0.0,0.0,0.0,0.0,0.0,0.0,0.0,0.0,0.007812753620221867,-0.5851017007914319,9.808504769467527,0.0,0.0,0.0,0.0,0.0,0.0,0.0,0.0,0.0
2025/04/09 10:58:24.146954266,1744189104,146039448,mA1/imu,0.7077077513525385,0.706504753979154,0.00026791456279459853,0.0008363624666308248,0.0,0.0,0.0,0.0,0.0,0.0,0.0,0.0,0.0,0.0006683278364927179,9.986114517383585e-06,-1.0527202833952765e-05,0.0,0.0,0.0,0.0,0.0,0.0,0.0,0.0,0.0,0.008297177097699074,0.032276655507396924,9.809466257458562,0.0,0.0,0.0,0.0,0.0,0.0,0.0,0.0,0.0
2025/04/09 10:58:24.212037361,1744189104,197410528,mA1/imu,0.7077075604918377,0.7065049385786626,0.00027251473639787206,0.0008404298724484587,0.0,0.0,0.0,0.0,0.0,0.0,0.0,0.0,0.0,-0.0009485531577867141,1.4743963060805048e-05,-1.0508801814507818e-05,0.0,0.0,0.0,0.0,0.0,0.0,0.0,0.0,0.0,0.007990201255477626,0.5535991875264398,9.810763512892343,0.0,0.0,0.0,0.0,0.0,0.0,0.0,0.0,0.0
2025/04/09 10:58:24.258272754,1744189104,251572874,mA1/imu,0.7077065087930269,0.7065059849005075,0.0002756100044998426,0.0008454294024774257,0.0,0.0,0.0,0.0,0.0,0.0,0.0,0.0,0.0,-0.0008045862073373539,-0.00020787737953599205,-0.00017270972377014747,0.0,0.0,0.0,0.0,0.0,0.0,0.0,0.0,0.0,0.02678987354719462,-0.06316428299236097,9.811160566516442,0.0,0.0,0.0,0.0,0.0,0.0,0.0,0.0,0.0
2025/04/09 10:58:24.306606690,1744189104,303419913,mA1/imu,0.7076993039537933,0.7065131953921735,0.000263805710871065,0.0008545914834978689,0.0,0.0,0.0,0.0,0.0,0.0,0.0,0.0,0.0,0.000761636369489973,-0.0008246691719361494,-0.0005640394767395861,0.0,0.0,0.0,0.0,0.0,0.0,0.0,0.0,0.0,0.027531424638373735,-0.5870682784750636,9.807448282412443,0.0,0.0,0.0,0.0,0.0,0.0,0.0,0.0,0.0
2025/04/09 10:58:24.354007733,1744189104,348914424,mA1/imu,0.7076853062329101,0.7065271997905974,0.0002431314737870788,0.0008741768561095346,0.0,0.0,0.0,0.0,0.0,0.0,0.0,0.0,0.0,0.0005985235258449451,-0.0013469832812295684,-0.0009433740067179942,0.0,0.0,0.0,0.0,0.0,0.0,0.0,0.0,0.0,0.027160505891800683,0.030208408552413562,9.80846436973915,0.0,0.0,0.0,0.0,0.0,0.0,0.0,0.0,0.0
2025/04/09 10:58:24.407444934,1744189104,401736228,mA1/imu,0.7076647115942717,0.7065477935141464,0.00022068928656344798,0.0009070505642253653,0.0,0.0,0.0,0.0,0.0,0.0,0.0,0.0,0.0,-0.0009949366136019985,-0.0017039311494396238,-0.0013125696540166277,0.0,0.0,0.0,0.0,0.0,0.0,0.0,0.0,0.0,0.023531627025348674,0.5544859208156832,9.81203954444219,0.0,0.0,0.0,0.0,0.0,0.0,0.0,0.0,0.0
2025/04/09 10:58:24.455013384,1744189104,452757026,mA1/imu,0.7076394083742089,0.7065730975164817,0.00019523863678866377,0.0009420528852285056,0.0,0.0,0.0,0.0,0.0,0.0,0.0,0.0,0.0,-0.0008421999898177908,-0.0014224882389493076,-0.0013527469064409786,0.0,0.0,0.0,0.0,0.0,0.0,0.0,0.0,0.0,-0.018112685511123966,-0.06114058128010631,9.811389962457403,0.0,0.0,0.0,0.0,0.0,0.0,0.0,0.0,0.0
2025/04/09 10:58:24.509443327,1744189104,504873990,mA1/imu,0.7076201373701815,0.7065923836909634,0.00018013468208153278,0.0009550128921640456,0.0,0.0,0.0,0.0,0.0,0.0,0.0,0.0,0.0,0.0007629408436741356,-0.00036162901239865836,-0.0009192717237616028,0.0,0.0,0.0,0.0,0.0,0.0,0.0,0.0,0.0,-0.014866828716517027,-0.5856463018572844,9.807710082002533,0.0,0.0,0.0,0.0,0.0,0.0,0.0,0.0,0.0
2025/04/09 10:58:24.554879759,1744189104,547699694,mA1/imu,0.7076072610066491,0.7066052834155925,0.000182188577261863,0.0009510137541402471,0.0,0.0,0.0,0.0,0.0,0.0,0.0,0.0,0.0,0.0006407660823082424,0.0003465293397609368,-0.0007072196516566735,0.0,0.0,0.0,0.0,0.0,0.0,0.0,0.0,0.0,0.012521182494362985,0.029466974591749826,9.80948784466187,0.0,0.0,0.0,0.0,0.0,0.0,0.0,0.0,0.0
2025/04/09 10:58:24.606095321,1744189104,601004003,mA1/imu,0.7075937098625031,0.7066188549834718,0.0001947677996641191,0.0009474230159796716,0.0,0.0,0.0,0.0,0.0,0.0,0.0,0.0,0.0,-0.0009486172841749651,0.0005225421798625759,-0.0008059314800310093,0.0,0.0,0.0,0.0,0.0,0.0,0.0,0.0,0.0,0.011731117221173752,0.5523878109227331,9.811553677171043,0.0,0.0,0.0,0.0,0.0,0.0,0.0,0.0,0.0
2025/04/09 10:58:24.656905211,1744189104,652190914,mA1/imu,0.7075784374603896,0.7066341531158639,0.00020939996148275602,0.0009405546212310659,0.0,0.0,0.0,0.0,0.0,0.0,0.0,0.0,0.0,-0.000793784866902465,0.0006697190753555836,-0.0009025661433129703,0.0,0.0,0.0,0.0,0.0,0.0,0.0,0.0,0.0,0.01119946135200103,-0.06446612839708397,9.810867898531948,0.0,0.0,0.0,0.0,0.0,0.0,0.0,0.0,0.0
2025/04/09 10:58:24.706685818,1744189104,703735494,mA1/imu,0.7075614880128821,0.7066511408179807,0.0002202747295732137,0.000925926933318699,0.0,0.0,0.0,0.0,0.0,0.0,0.0,0.0,0.0,0.0008043787969250777,0.0007583205518387563,-0.000996958415130085,0.0,0.0,0.0,0.0,0.0,0.0,0.0,0.0,0.0,0.01219049317566073,-0.5875084446078679,9.808653387689008,0.0,0.0,0.0,0.0,0.0,0.0,0.0,0.0,0.0
2025/04/09 10:58:24.755340285,1744189104,753577326,mA1/imu,0.707543406121465,0.7066692627193003,0.00023352653804779508,0.000909421328078023,0.0,0.0,0.0,0.0,0.0,0.0,0.0,0.0,0.0,0.0006847989803770989,0.0009640431365408803,-0.0009926453688005996,0.0,0.0,0.0,0.0,0.0,0.0,0.0,0.0,0.0,0.00018598896521672403,0.034162974333722965,9.809646362400713,0.0,0.0,0.0,0.0,0.0,0.0,0.0,0.0,0.0
2025/04/09 10:58:24.805635835,1744189104,804507137,mA1/imu,0.7075273949782674,0.7066853077787973,0.00025813375460226806,0.0008913427052872803,0.0,0.0,0.0,0.0,0.0,0.0,0.0,0.0,0.0,-0.0008621995716599147,0.0013514511186154964,-0.0008484007901379784,0.0,0.0,0.0,0.0,0.0,0.0,0.0,0.0,0.0,0.0003615922367246286,0.5562706957045146,9.811598698626955,0.0,0.0,0.0,0.0,0.0,0.0,0.0,0.0,0.0
2025/04/09 10:58:24.856139763,1744189104,854361148,mA1/imu,0.7075138839138249,0.7066988547654588,0.0002870245513546748,0.0008662328039904306,0.0,0.0,0.0,0.0,0.0,0.0,0.0,0.0,0.0,-0.0006634117069361854,0.0016385256691549726,-0.0007083292984311613,0.0,0.0,0.0,0.0,0.0,0.0,0.0,0.0,0.0,0.0003593633824327206,-0.0608331033467555,9.810906331418936,0.0,0.0,0.0,0.0,0.0,0.0,0.0,0.0,0.0
2025/04/09 10:58:24.907659846,1744189104,906227631,mA1/imu,0.7075028064663204,0.7067099759881397,0.00031306837374966317,0.000831065170054475,0.0,0.0,0.0,0.0,0.0,0.0,0.0,0.0,0.0,0.000970847458515075,0.0017843545751057813,-0.0005727148926145403,0.0,0.0,0.0,0.0,0.0,0.0,0.0,0.0,0.0,0.002278293215692604,-0.5835855054209164,9.808643405281874,0.0,0.0,0.0,0.0,0.0,0.0,0.0,0.0,0.0
2025/04/09 10:58:24.948960477,1744189104,946939174,mA1/imu,0.7074946729256073,0.7067181487749248,0.0003413157271595365,0.0007933962475679634,0.0,0.0,0.0,0.0,0.0,0.0,0.0,0.0,0.0,0.0008504230144339249,0.0019739830157037295,-0.00032847888745815866,0.0,0.0,0.0,0.0,0.0,0.0,0.0,0.0,0.0,-0.010381407165756492,0.03197406376485862,9.808793426312603,0.0,0.0,0.0,0.0,0.0,0.0,0.0,0.0,0.0
2025/04/09 10:58:24.999180376,1744189104,998167985,mA1/imu,0.7074930785964095,0.7067197669521902,0.00038091289202957766,0.000754746702640998,0.0,0.0,0.0,0.0,0.0,0.0,0.0,0.0,0.0,-0.000712880487885853,0.002341975083276231,6.95074275387921e-05,0.0,0.0,0.0,0.0,0.0,0.0,0.0,0.0,0.0,-0.011014607337963968,0.5557566204639242,9.812264329278571,0.0,0.0,0.0,0.0,0.0,0.0,0.0,0.0,0.0
2025/04/09 10:58:25.49822017,1744189105,48315891,mA1/imu,0.7074975923886742,0.7067152684822855,0.00042286403175569845,0.0007122108192348755,0.0,0.0,0.0,0.0,0.0,0.0,0.0,0.0,0.0,-0.0005631873490930302,0.002266241100358976,0.0003017134149714419,0.0,0.0,0.0,0.0,0.0,0.0,0.0,0.0,0.0,0.010675601919557486,-0.063067870279352,9.81041951438067,0.0,0.0,0.0,0.0,0.0,0.0,0.0,0.0,0.0
2025/04/09 10:58:25.100232000,1744189105,99198066,mA1/imu,0.7075028135560589,0.7067100631214972,0.00045071169026628593,0.0006725712171727824,0.0,0.0,0.0,0.0,0.0,0.0,0.0,0.0,0.0,0.001027749370088522,0.001660518331799864,0.00029278478129787853,0.0,0.0,0.0,0.0,0.0,0.0,0.0,0.0,0.0,0.011347711886783383,-0.585671436937988,9.808823746632113,0.0,0.0,0.0,0.0,0.0,0.0,0.0,0.0,0.0
2025/04/09 10:58:25.152901873,1744189105,151527756,mA1/imu,0.7075078797045931,0.7067050059252745,0.0004676656229990916,0.0006450154523857046,0.0,0.0,0.0,0.0,0.0,0.0,0.0,0.0,0.0,0.000877510569872896,0.00097754614352477,0.0002836439923843844,0.0,0.0,0.0,0.0,0.0,0.0,0.0,0.0,0.0,0.011674348242570892,0.03180371038564682,9.809740497053522,0.0,0.0,0.0,0.0,0.0,0.0,0.0,0.0,0.0
2025/04/09 10:58:25.203412487,1744189105,202533587,mA1/imu,0.7075127857171664,0.7067000957452565,0.00047804883373168467,0.0006357591470418908,0.0,0.0,0.0,0.0,0.0,0.0,0.0,0.0,0.0,-0.0007342168453331457,0.0002685897454895343,0.00027443273251896857,0.0,0.0,0.0,0.0,0.0,0.0,0.0,0.0,0.0,0.011161405915809375,0.5537823949714428,9.810993156260603,0.0,0.0,0.0,0.0,0.0,0.0,0.0,0.0,0.0
2025/04/09 10:58:25.254959688,1744189105,253003704,mA1/imu,0.7075175444722162,0.7066953302533546,0.0004756301153721142,0.0006389351306330833,0.0,0.0,0.0,0.0,0.0,0.0,0.0,0.0,0.0,-0.0006099667853186685,-0.00043471871290143147,0.00026591760811671303,0.0,0.0,0.0,0.0,0.0,0.0,0.0,0.0,0.0,0.010357167731113483,-0.06330018188124459,9.810265564487898,0.0,0.0,0.0,0.0,0.0,0.0,0.0,0.0,0.0
2025/04/09 10:58:25.305300074,1744189105,304180893,mA1/imu,0.7075221714172891,0.7066907017134296,0.0004559065943880741,0.000649009955063389,0.0,0.0,0.0,0.0,0.0,0.0,0.0,0.0,0.0,0.0009557060120483233,-0.0011023029474920153,0.0002578117780593794,0.0,0.0,0.0,0.0,0.0,0.0,0.0,0.0,0.0,0.010007505281912205,-0.5853215336985437,9.808670732610594,0.0,0.0,0.0,0.0,0.0,0.0,0.0,0.0,0.0
2025/04/09 10:58:25.354867871,1744189105,354012855,mA1/imu,0.7075266593590568,0.7066862064350604,0.0004263235079774373,0.0006709537263377128,0.0,0.0,0.0,0.0,0.0,0.0,0.0,0.0,0.0,0.0007838246623093152,-0.0016864018445407213,0.0002497189828780446,0.0,0.0,0.0,0.0,0.0,0.0,0.0,0.0,0.0,0.0101540837367445,0.031958306268293386,9.809613925761003,0.0,0.0,0.0,0.0,0.0,0.0,0.0,0.0,0.0
2025/04/09 10:58:25.407766290,1744189105,405576741,mA1/imu,0.7075310080400725,0.706681835117329,0.0003939732663158367,0.0007080692542025741,0.0,0.0,0.0,0.0,0.0,0.0,0.0,0.0,0.0,-0.0008450831003444725,-0.0021374459885543503,0.00024215416100790334,0.0,0.0,0.0,0.0,0.0,0.0,0.0,0.0,0.0,0.008825317257699559,0.5538742237295078,9.81089927988567,0.0,0.0,0.0,0.0,0.0,0.0,0.0,0.0,0.0
2025/04/09 10:58:25.446853385,1744189105,446076259,mA1/imu,0.7075352319539214,0.7066775814180406,0.0003549870083746016,0.000751963618062547,0.0,0.0,0.0,0.0,0.0,0.0,0.0,0.0,0.0,-0.000733059061459938,-0.0024578982835877874,0.00023529163714373523,0.0,0.0,0.0,0.0,0.0,0.0,0.0,0.0,0.0,0.008011662531864739,-0.06306325405480581,9.810198355484506,0.0,0.0,0.0,0.0,0.0,0.0,0.0,0.0,0.0
2025/04/09 10:58:25.498431979,1744189105,497049060,mA1/imu,0.7075393454745776,0.7066734383888122,0.00030682552279623137,0.0007949460599172867,0.0,0.0,0.0,0.0,0.0,0.0,0.0,0.0,0.0,0.000826255767629428,-0.0026334193611915187,0.00022903793678874667,0.0,0.0,0.0,0.0,0.0,0.0,0.0,0.0,0.0,0.007272519705981867,-0.5855450075617744,9.8086606814683,0.0,0.0,0.0,0.0,0.0,0.0,0.0,0.0,0.0
2025/04/09 10:58:25.551911631,1744189105,550305038,mA1/imu,0.7075433496568743,0.7066693961132682,0.00025834055096505106,0.0008403650390363783,0.0,0.0,0.0,0.0,0.0,0.0,0.0,0.0,0.0,0.0006543385413932745,-0.0026552289840479715,0.00022319115363535585,0.0,0.0,0.0,0.0,0.0,0.0,0.0,0.0,0.0,0.007542382558553347,0.03182945903316636,9.809628464654516,0.0,0.0,0.0,0.0,0.0,0.0,0.0,0.0,0.0
2025/04/09 10:58:25.603525152,1744189105,601531175,mA1/imu,0.7075472447917607,0.706665448549682,0.00021747347260873165,0.0008904599675995631,0.0,0.0,0.0,0.0,0.0,0.0,0.0,0.0,0.0,-0.0009687578513229833,-0.002501755390586282,0.0002177706163462624,0.0,0.0,0.0,0.0,0.0,0.0,0.0,0.0,0.0,0.0063297573076767,0.5539571268986611,9.810967777973518,0.0,0.0,0.0,0.0,0.0,0.0,0.0,0.0,0.0
2025/04/09 10:58:25.653915260,1744189105,652045010,mA1/imu,0.7075510438767184,0.7066615957313618,0.00018060824491344647,0.0009363802823564443,0.0,0.0,0.0,0.0,0.0,0.0,0.0,0.0,0.0,-0.0008453724298227523,-0.002211618130112978,0.0002127105249910916,0.0,0.0,0.0,0.0,0.0,0.0,0.0,0.0,0.0,0.005729787973154388,-0.06304772945065525,9.810297399050203,0.0,0.0,0.0,0.0,0.0,0.0,0.0,0.0,0.0
2025/04/09 10:58:25.705012199,1744189105,703373553,mA1/imu,0.7075547586779851,0.706657838295692,0.00014485170057294957,0.0009706005269587085,0.0,0.0,0.0,0.0,0.0,0.0,0.0,0.0,0.0,0.000730554622432632,-0.0018062939950677793,0.0002078512625720086,0.0,0.0,0.0,0.0,0.0,0.0,0.0,0.0,0.0,0.005507277276833889,-0.5853953116701919,9.808788265082887,0.0,0.0,0.0,0.0,0.0,0.0,0.0,0.0,0.0
2025/04/09 10:58:25.754603747,1744189105,753856103,mA1/imu,0.7075583849044413,0.7066541752910612,0.00011809927961529704,0.0009972701181602667,0.0,0.0,0.0,0.0,0.0,0.0,0.0,0.0,0.0,0.0005790748381216871,-0.0013083310235016612,0.00020307953112954182,0.0,0.0,0.0,0.0,0.0,0.0,0.0,0.0,0.0,0.0060505513123008964,0.03204626493017999,9.809772883912512,0.0,0.0,0.0,0.0,0.0,0.0,0.0,0.0,0.0
2025/04/09 10:58:25.806322085,1744189105,805075311,mA1/imu,0.7075619200589494,0.7066506049128388,0.00010676511856020054,0.0010200294218620034,0.0,0.0,0.0,0.0,0.0,0.0,0.0,0.0,0.0,-0.0010202638206878167,-0.0007330646869659528,0.00019865708848119712,0.0,0.0,0.0,0.0,0.0,0.0,0.0,0.0,0.0,0.005688013170270583,0.5536677172323342,9.81111340367658,0.0,0.0,0.0,0.0,0.0,0.0,0.0,0.0,0.0
2025/04/09 10:58:25.857187704,1744189105,855240311,mA1/imu,0.7075653815261487,0.7066471219656458,0.00010528778764782578,0.0010318904530442978,0.0,0.0,0.0,0.0,0.0,0.0,0.0,0.0,0.0,-0.0008716732206808605,-0.00013342126883209886,0.00019483415171692576,0.0,0.0,0.0,0.0,0.0,0.0,0.0,0.0,0.0,0.00534295372542496,-0.06325008539888191,9.810417228013414,0.0,0.0,0.0,0.0,0.0,0.0,0.0,0.0,0.0
2025/04/09 10:58:25.901154475,1744189105,898358813,mA1/imu,0.7075687810687372,0.7066437238298072,0.00010850429885512602,0.001027548374338898,0.0,0.0,0.0,0.0,0.0,0.0,0.0,0.0,0.0,0.0007309669852298261,0.0004451389289688017,0.00019080501773917382,0.0,0.0,0.0,0.0,0.0,0.0,0.0,0.0,0.0,0.006053340674484734,-0.5853511557574523,9.808900020635113,0.0,0.0,0.0,0.0,0.0,0.0,0.0,0.0,0.0
2025/04/09 10:58:25.949506206,1744189105,948772466,mA1/imu,0.7075721054288346,0.7066404131665098,0.00012191690321962595,0.0010135260919233269,0.0,0.0,0.0,0.0,0.0,0.0,0.0,0.0,0.0,0.0006060214919919331,0.0009836810481420202,0.0001866083485359532,0.0,0.0,0.0,0.0,0.0,0.0,0.0,0.0,0.0,0.0068196426170596645,0.03195405145058522,9.809884217188037,0.0,0.0,0.0,0.0,0.0,0.0,0.0,0.0,0.0
2025/04/09 10:58:26.516654,1744189105,999768553,mA1/imu,0.7075753471570021,0.7066371868941094,0.00014951694899779672,0.0009959109947912119,0.0,0.0,0.0,0.0,0.0,0.0,0.0,0.0,0.0,-0.0009681398053585296,0.0014600863624701494,0.00018250655447447738,0.0,0.0,0.0,0.0,0.0,0.0,0.0,0.0,0.0,0.007227200994787636,0.5540303527026083,9.811192181337319,0.0,0.0,0.0,0.0,0.0,0.0,0.0,0.0,0.0
2025/04/09 10:58:26.52518774,1744189106,50527937,mA1/imu,0.7075785163336374,0.7066340415261984,0.00018352264544755335,0.0009699994214574272,0.0,0.0,0.0,0.0,0.0,0.0,0.0,0.0,0.0,-0.0007964623470431829,0.0018418542126914651,0.0001785002317213979,0.0,0.0,0.0,0.0,0.0,0.0,0.0,0.0,0.0,0.0070041244025275465,-0.06292466117747927,9.810498136313521,0.0,0.0,0.0,0.0,0.0,0.0,0.0,0.0,0.0
2025/04/09 10:58:26.102362712,1744189106,101391908,mA1/imu,0.7075816204741939,0.7066309741661041,0.00021677679917485359,0.0009325899398658314,0.0,0.0,0.0,0.0,0.0,0.0,0.0,0.0,0.0,0.0008251471302834728,0.002090256356415504,0.00017452897128605486,0.0,0.0,0.0,0.0,0.0,0.0,0.0,0.0,0.0,0.008185461273898312,-0.585528928732147,9.808946856013742,0.0,0.0,0.0,0.0,0.0,0.0,0.0,0.0,0.0
2025/04/09 10:58:26.153174009,1744189106,152301544,mA1/imu,0.707584650829554,0.7066279800921582,0.00025320346993266713,0.0008919357025581993,0.0,0.0,0.0,0.0,0.0,0.0,0.0,0.0,0.0,0.0007148228501318144,0.0022173983949057906,0.00017050781775924828,0.0,0.0,0.0,0.0,0.0,0.0,0.0,0.0,0.0,0.00889181984408736,0.03183606378353951,9.809875765829327,0.0,0.0,0.0,0.0,0.0,0.0,0.0,0.0,0.0
2025/04/09 10:58:26.204227344,1744189106,203291511,mA1/imu,0.7075876005421868,0.706625054990865,0.0002956359649272269,0.0008554633151766787,0.0,0.0,0.0,0.0,0.0,0.0,0.0,0.0,0.0,-0.0008505063518323618,0.002219663078063531,0.00016640103649405425,0.0,0.0,0.0,0.0,0.0,0.0,0.0,0.0,0.0,0.00940488807998603,0.5540763446099882,9.811120324732059,0.0,0.0,0.0,0.0,0.0,0.0,0.0,0.0,0.0
2025/04/09 10:58:26.256641568,1744189106,254555906,mA1/imu,0.7075904768267708,0.7066221997285026,0.00033560579750113414,0.0008193434345178212,0.0,0.0,0.0,0.0,0.0,0.0,0.0,0.0,0.0,-0.0006750625366533173,0.002094891058690764,0.00016220892848332462,0.0,0.0,0.0,0.0,0.0,0.0,0.0,0.0,0.0,0.009050993133492755,-0.06290356576160552,9.810396354294674,0.0,0.0,0.0,0.0,0.0,0.0,0.0,0.0,0.0
2025/04/09 10:58:26.306968998,1744189106,305488453,mA1/imu,0.7075932845475169,0.706619416866504,0.00036576890720106924,0.000780758352673288,0.0,0.0,0.0,0.0,0.0,0.0,0.0,0.0,0.0,0.0009445285413813032,0.001832766520482035,0.00015789561757366145,0.0,0.0,0.0,0.0,0.0,0.0,0.0,0.0,0.0,0.009942090142279897,-0.5855258400539067,9.808837099294292,0.0,0.0,0.0,0.0,0.0,0.0,0.0,0.0,0.0
2025/04/09 10:58:26.349834977,1744189106,347438048,mA1/imu,0.7075960155797374,0.7066167042563255,0.00039054970664534886,0.0007479789671949503,0.0,0.0,0.0,0.0,0.0,0.0,0.0,0.0,0.0,0.0008205663741667464,0.001474052646012867,0.0001534520447424753,0.0,0.0,0.0,0.0,0.0,0.0,0.0,0.0,0.0,0.010439880757542538,0.03144868741892798,9.809734833575257,0.0,0.0,0.0,0.0,0.0,0.0,0.0,0.0,0.0
2025/04/09 10:58:26.399751320,1744189106,398402624,mA1/imu,0.7075986646929237,0.7066140598553666,0.00041338415952771866,0.0007274977967335677,0.0,0.0,0.0,0.0,0.0,0.0,0.0,0.0,0.0,-0.0007532002096678314,0.001046891041208059,0.00014890186205391355,0.0,0.0,0.0,0.0,0.0,0.0,0.0,0.0,0.0,0.010380383319669572,0.5537342206210039,9.810985618287729,0.0,0.0,0.0,0.0,0.0,0.0,0.0,0.0,0.0
2025/04/09 10:58:26.456679603,1744189106,448222553,mA1/imu,0.7076012391441805,0.7066114869974498,0.00042717237468678374,0.0007143728967603147,0.0,0.0,0.0,0.0,0.0,0.0,0.0,0.0,0.0,-0.0005920895670589863,0.0005704657725297143,0.0001443789990710832,0.0,0.0,0.0,0.0,0.0,0.0,0.0,0.0,0.0,0.009765282001430866,-0.06318637636876324,9.81027269027341,0.0,0.0,0.0,0.0,0.0,0.0,0.0,0.0,0.0
2025/04/09 10:58:26.500355655,1744189106,499155600,mA1/imu,0.7076037470420926,0.7066089862924603,0.0004263147021584181,0.0007042148158055307,0.0,0.0,0.0,0.0,0.0,0.0,0.0,0.0,0.0,0.0010091375218863826,6.0933994435659084e-05,0.0001401419963147163,0.0,0.0,0.0,0.0,0.0,0.0,0.0,0.0,0.0,0.009886238028486944,-0.5852638549663064,9.80867123509182,0.0,0.0,0.0,0.0,0.0,0.0,0.0,0.0,0.0
2025/04/09 10:58:26.550270296,1744189106,549009318,mA1/imu,0.7076061883004074,0.7066065480387259,0.0004170216896195308,0.0007033069561726261,0.0,0.0,0.0,0.0,0.0,0.0,0.0,0.0,0.0,0.0008702635740915309,-0.0004386366339735966,0.00013625779599507653,0.0,0.0,0.0,0.0,0.0,0.0,0.0,0.0,0.0,0.010227822943000252,0.03221826188299664,9.809595294602858,0.0,0.0,0.0,0.0,0.0,0.0,0.0,0.0,0.0
2025/04/09 10:58:26.602181626,1744189106,600120643,mA1/imu,0.7076085596662233,0.7066041671049558,0.00040507018714694713,0.0007164043188227045,0.0,0.0,0.0,0.0,0.0,0.0,0.0,0.0,0.0,-0.0007313068375507351,-0.0008853183171293171,0.0001322654212895154,0.0,0.0,0.0,0.0,0.0,0.0,0.0,0.0,0.0,0.009404391166325533,0.5537073903749126,9.810892544081796,0.0,0.0,0.0,0.0,0.0,0.0,0.0,0.0,0.0
2025/04/09 10:58:26.652079527,1744189106,649933050,mA1/imu,0.7076108662383014,0.7066018475917659,0.0003853683088467058,0.000736513849285885,0.0,0.0,0.0,0.0,0.0,0.0,0.0,0.0,0.0,-0.0005968308558036848,-0.0012716987629478864,0.0001284160220942369,0.0,0.0,0.0,0.0,0.0,0.0,0.0,0.0,0.0,0.008680310016218194,-0.06317886637361318,9.810214501610375,0.0,0.0,0.0,0.0,0.0,0.0,0.0,0.0,0.0
2025/04/09 10:58:26.702099193,1744189106,701188495,mA1/imu,0.7076131155798634,0.7065995893507141,0.0003542428397606726,0.0007572983372351302,0.0,0.0,0.0,0.0,0.0,0.0,0.0,0.0,0.0,0.000978573713822312,-0.0015830658802988278,0.0001248652139944234,0.0,0.0,0.0,0.0,0.0,0.0,0.0,0.0,0.0,0.008316609399890667,-0.585414802762482,9.808673503015667,0.0,0.0,0.0,0.0,0.0,0.0,0.0,0.0,0.0
2025/04/09 10:58:26.753485366,1744189106,751202132,mA1/imu,0.7076153044417071,0.7065973855031673,0.0003195832476764977,0.0007833176279506284,0.0,0.0,0.0,0.0,0.0,0.0,0.0,0.0,0.0,0.0008154299319622215,-0.001796315856580751,0.00012152098502814687,0.0,0.0,0.0,0.0,0.0,0.0,0.0,0.0,0.0,0.008583762006282735,0.03192400925512812,9.809626194996694,0.0,0.0,0.0,0.0,0.0,0.0,0.0,0.0,0.0
2025/04/09 10:58:26.803430530,1744189106,802281863,mA1/imu,0.7076174306310765,0.7065952304706334,0.0002885604216259849,0.0008178484634420774,0.0,0.0,0.0,0.0,0.0,0.0,0.0,0.0,0.0,-0.0008071519207426667,-0.0018817776163307142,0.0001184630554479718,0.0,0.0,0.0,0.0,0.0,0.0,0.0,0.0,0.0,0.007501453562111328,0.5538816923457669,9.810952453992556,0.0,0.0,0.0,0.0,0.0,0.0,0.0,0.0,0.0
2025/04/09 10:58:26.852974858,1744189106,852195412,mA1/imu,0.7076195048781356,0.7065931240433738,0.00025703758897859674,0.0008528202188737918,0.0,0.0,0.0,0.0,0.0,0.0,0.0,0.0,0.0,-0.0006900591472514967,-0.0018602098796932694,0.00011573402550817093,0.0,0.0,0.0,0.0,0.0,0.0,0.0,0.0,0.0,0.006856450495643836,-0.06307745563374433,9.810304649473181,0.0,0.0,0.0,0.0,0.0,0.0,0.0,0.0,0.0
2025/04/09 10:58:26.907222548,1744189106,904568316,mA1/imu,0.7076215374358039,0.7065910656078785,0.00022187041279881882,0.0008812114567897204,0.0,0.0,0.0,0.0,0.0,0.0,0.0,0.0,0.0,0.0008728598604181257,-0.0017384590638348356,0.00011326636244047468,0.0,0.0,0.0,0.0,0.0,0.0,0.0,0.0,0.0,0.006571374665543402,-0.5854363376631803,9.808795303305306,0.0,0.0,0.0,0.0,0.0,0.0,0.0,0.0,0.0
2025/04/09 10:58:26.956800369,1744189106,954417056,mA1/imu,0.7076235243778382,0.7065890517027407,0.0001910144686825338,0.0009073446874991657,0.0,0.0,0.0,0.0,0.0,0.0,0.0,0.0,0.0,0.0007020222009333627,-0.0015202725708717707,0.00011093347237734979,0.0,0.0,0.0,0.0,0.0,0.0,0.0,0.0,0.0,0.006999939430139764,0.03195582191234754,9.809756757047309,0.0,0.0,0.0,0.0,0.0,0.0,0.0,0.0,0.0
2025/04/09 10:58:27.7806764,1744189107,5381198,mA1/imu,0.7076254622624547,0.7065870803807552,0.00017124939820238448,0.0009347034242110845,0.0,0.0,0.0,0.0,0.0,0.0,0.0,0.0,0.0,-0.0009227944319531254,-0.0012019665721358667,0.00010878512850358089,0.0,0.0,0.0,0.0,0.0,0.0,0.0,0.0,0.0,0.00633407241025112,0.5537841434250762,9.811116625720045,0.0,0.0,0.0,0.0,0.0,0.0,0.0,0.0,0.0
2025/04/09 10:58:27.56182844,1744189107,55250462,mA1/imu,0.7076273624820721,0.7065851522595432,0.00015763343211447274,0.0009558371854318105,0.0,0.0,0.0,0.0,0.0,0.0,0.0,0.0,0.0,-0.0008030401073277349,-0.0008248419718480406,0.0001068715245700802,0.0,0.0,0.0,0.0,0.0,0.0,0.0,0.0,0.0,0.005885248885919292,-0.06324076807759434,9.810447467510452,0.0,0.0,0.0,0.0,0.0,0.0,0.0,0.0,0.0
2025/04/09 10:58:27.107314028,1744189107,106230437,mA1/imu,0.7076292359985509,0.7065832664038458,0.00014581673164645132,0.000964746422467432,0.0,0.0,0.0,0.0,0.0,0.0,0.0,0.0,0.0,0.0007679193310754819,-0.0004201301504249978,0.00010518009867076482,0.0,0.0,0.0,0.0,0.0,0.0,0.0,0.0,0.0,0.006164056996491804,-0.5851296823960509,9.808927204887555,0.0,0.0,0.0,0.0,0.0,0.0,0.0,0.0,0.0
2025/04/09 10:58:27.149036004,1744189107,147078246,mA1/imu,0.7076310792876234,0.7065814179489679,0.00014228715854859114,0.0009670521307767847,0.0,0.0,0.0,0.0,0.0,0.0,0.0,0.0,0.0,0.0006097038529637691,6.05890936359126e-07,0.00010371931098124874,0.0,0.0,0.0,0.0,0.0,0.0,0.0,0.0,0.0,0.0067557411967068045,0.03216702548459331,9.809873144947623,0.0,0.0,0.0,0.0,0.0,0.0,0.0,0.0,0.0
2025/04/09 10:58:27.199619836,1744189107,198013800,mA1/imu,0.7076343425908479,0.7065781476304697,0.00015200596959534935,0.0009671459548123058,0.0,0.0,0.0,0.0,0.0,0.0,0.0,0.0,0.0,-0.0009649929375916145,0.00044143142063643106,0.0002389842849553773,0.0,0.0,0.0,0.0,0.0,0.0,0.0,0.0,0.0,0.006013259737634941,0.5578130260062025,9.811411350315897,0.0,0.0,0.0,0.0,0.0,0.0,0.0,0.0,0.0
2025/04/09 10:58:27.251417784,1744189107,250435802,mA1/imu,0.7076393703990626,0.7065731193006948,0.00016806178368905875,0.0009593217089956588,0.0,0.0,0.0,0.0,0.0,0.0,0.0,0.0,0.0,-0.0008152863331406995,0.0008264228218273269,0.0002598326806781884,0.0,0.0,0.0,0.0,0.0,0.0,0.0,0.0,0.0,0.006796664637677236,-0.06703835939568478,9.810704636611828,0.0,0.0,0.0,0.0,0.0,0.0,0.0,0.0,0.0
2025/04/09 10:58:27.304036506,1744189107,301760249,mA1/imu,0.7076424248637625,0.7065700811326526,0.00018468126863061132,0.0009406773940950508,0.0,0.0,0.0,0.0,0.0,0.0,0.0,0.0,0.0,0.0007390800815172579,0.0011109185680039674,0.00011578207816133568,0.0,0.0,0.0,0.0,0.0,0.0,0.0,0.0,0.0,0.008260161586784748,-0.5895870828393847,9.808654221044991,0.0,0.0,0.0,0.0,0.0,0.0,0.0,0.0,0.0
2025/04/09 10:58:27.352915242,1744189107,351615104,mA1/imu,0.7076432618563193,0.7065692660936486,0.0002069605874768094,0.000918329214996503,0.0,0.0,0.0,0.0,0.0,0.0,0.0,0.0,0.0,0.0005836621901171769,0.00135443000672905,3.068945012349121e-05,0.0,0.0,0.0,0.0,0.0,0.0,0.0,0.0,0.0,0.00788031071691159,0.03228113628264481,9.80983015023599,0.0,0.0,0.0,0.0,0.0,0.0,0.0,0.0,0.0
2025/04/09 10:58:27.405792789,1744189107,404401618,mA1/imu,0.7076437835727425,0.7065687598924005,0.000238503156078822,0.0008979037884665787,0.0,0.0,0.0,0.0,0.0,0.0,0.0,0.0,0.0,-0.0010054953079437253,0.0015310209691530516,3.0191884122551354e-05,0.0,0.0,0.0,0.0,0.0,0.0,0.0,0.0,0.0,0.00817703111537249,0.5541303567124518,9.811086626300334,0.0,0.0,0.0,0.0,0.0,0.0,0.0,0.0,0.0
2025/04/09 10:58:27.455664665,1744189107,454319780,mA1/imu,0.7076442947342952,0.7065682652165887,0.00027138158726493857,0.0008746832893855732,0.0,0.0,0.0,0.0,0.0,0.0,0.0,0.0,0.0,-0.0008453590333062495,0.0016162066001234512,2.95820225042997e-05,0.0,0.0,0.0,0.0,0.0,0.0,0.0,0.0,0.0,0.007845985500339157,-0.0628997615532477,9.81037503769147,0.0,0.0,0.0,0.0,0.0,0.0,0.0,0.0,0.0
2025/04/09 10:58:27.508185411,1744189107,505592703,mA1/imu,0.7076447994946597,0.706567784528551,0.00029865924758510184,0.0008452320579614122,0.0,0.0,0.0,0.0,0.0,0.0,0.0,0.0,0.0,0.0007549041486490723,0.00158799178621332,2.8834229546177204e-05,0.0,0.0,0.0,0.0,0.0,0.0,0.0,0.0,0.0,0.008757519428336196,-0.5804524106142225,9.808784442247681,0.0,0.0,0.0,0.0,0.0,0.0,0.0,0.0,0.0
2025/04/09 10:58:27.556986328,1744189107,555510417,mA1/imu,0.7076452883635903,0.7065673162492805,0.0003247674939071764,0.0008173072709667452,0.0,0.0,0.0,0.0,0.0,0.0,0.0,0.0,0.0,0.0006473151178359322,0.0014713951797960274,2.7928458757951736e-05,0.0,0.0,0.0,0.0,0.0,0.0,0.0,0.0,0.0,0.009343162687943923,0.031593752152614465,9.809701853601416,0.0,0.0,0.0,0.0,0.0,0.0,0.0,0.0,0.0
2025/04/09 10:58:27.598721152,1744189107,597669595,mA1/imu,0.7076457545672983,0.7065668585882595,0.00035305854422462495,0.0007973313375509066,0.0,0.0,0.0,0.0,0.0,0.0,0.0,0.0,0.0,-0.000917007948419727,0.001280377669949339,2.6892725756424907e-05,0.0,0.0,0.0,0.0,0.0,0.0,0.0,0.0,0.0,0.00943575213226321,0.5538139865788595,9.81097151484084,0.0,0.0,0.0,0.0,0.0,0.0,0.0,0.0,0.0
2025/04/09 10:58:27.654368659,1744189107,648002719,mA1/imu,0.7076463151120966,0.7065663051826525,0.0003763024394293029,0.0007794134206961916,0.0,0.0,0.0,0.0,0.0,0.0,0.0,0.0,0.0,-0.0006824718998617497,0.001146802785178071,4.66325903239039e-05,0.0,0.0,0.0,0.0,0.0,0.0,0.0,0.0,0.0,-0.0005826476643755723,-0.05525425938444325,9.810475303537435,0.0,0.0,0.0,0.0,0.0,0.0,0.0,0.0,0.0
2025/04/09 10:58:27.699694456,1744189107,699016988,mA1/imu,0.7076477019205896,0.7065649349031674,0.0003910522508876213,0.0007548575549405558,0.0,0.0,0.0,0.0,0.0,0.0,0.0,0.0,0.0,0.001016118279291933,0.0010845147863591121,9.988503382701489e-05,0.0,0.0,0.0,0.0,0.0,0.0,0.0,0.0,0.0,0.0009524090853375569,-0.5785056279178813,9.808421103713679,0.0,0.0,0.0,0.0,0.0,0.0,0.0,0.0,0.0
2025/04/09 10:58:27.749665069,1744189107,748774222,mA1/imu,0.7076500043437416,0.7065626484046051,0.0004022445996905105,0.0007303636455144219,0.0,0.0,0.0,0.0,0.0,0.0,0.0,0.0,0.0,0.0010275723964312316,0.0009363288086379225,0.00015042546452513367,0.0,0.0,0.0,0.0,0.0,0.0,0.0,0.0,0.0,0.0024856960970760554,0.0479270960031727,9.809410588595329,0.0,0.0,0.0,0.0,0.0,0.0,0.0,0.0,0.0
2025/04/09 10:58:27.803176584,1744189107,802083429,mA1/imu,0.7076531601962641,0.7065595008991268,0.00041260047287785216,0.00071155763452336,0.0,0.0,0.0,0.0,0.0,0.0,0.0,0.0,0.0,-0.0003849973430675662,0.0007347060155687432,0.00019784833080930696,0.0,0.0,0.0,0.0,0.0,0.0,0.0,0.0,0.0,0.0024109463282215387,0.5700368738888156,9.811269113951825,0.0,0.0,0.0,0.0,0.0,0.0,0.0,0.0,0.0
2025/04/09 10:58:27.854001116,1744189107,852038685,mA1/imu,0.707657168402155,0.7065555036793124,0.00041483399643545897,0.0006929229919755956,0.0,0.0,0.0,0.0,0.0,0.0,0.0,0.0,0.0,-1.2080783513743409e-05,0.0005006111982192656,0.00024654549127534655,0.0,0.0,0.0,0.0,0.0,0.0,0.0,0.0,0.0,0.001108672813025746,-0.035607675077385305,9.810511218975716,0.0,0.0,0.0,0.0,0.0,0.0,0.0,0.0,0.0
2025/04/09 10:58:27.904648654,1744189107,903061390,mA1/imu,0.7076620880416558,0.7065506067070044,0.0004025569522564138,0.0006687737945064454,0.0,0.0,0.0,0.0,0.0,0.0,0.0,0.0,0.0,0.0018178598624642552,0.0002273744682854507,0.00029819997090054645,0.0,0.0,0.0,0.0,0.0,0.0,0.0,0.0,0.0,0.001921124481875181,-0.5593630878711368,9.808286492836888,0.0,0.0,0.0,0.0,0.0,0.0,0.0,0.0,0.0
2025/04/09 10:58:27.955336078,1744189107,952972580,mA1/imu,0.707667874200897,0.7065448429836313,0.00038251268182307673,0.0006468085244866485,0.0,0.0,0.0,0.0,0.0,0.0,0.0,0.0,0.0,0.0008738659133877645,-7.669792051985327e-05,0.00034233574521029536,0.0,0.0,0.0,0.0,0.0,0.0,0.0,0.0,0.0,0.0045378354147549696,0.577854753092144,9.810812714573524,0.0,0.0,0.0,0.0,0.0,0.0,0.0,0.0,0.0
2025/04/09 10:58:28.4770583,1744189108,3938616,mA1/imu,0.7076742625948962,0.706538480144566,0.00035121724012565094,0.000625125768853934,0.0,0.0,0.0,0.0,0.0,0.0,0.0,0.0,0.0,0.001627437759767502,-0.0003899428663019519,0.00037363156914444666,0.0,0.0,0.0,0.0,0.0,0.0,0.0,0.0,0.0,0.0029702341856868222,0.031273725942169206,9.81098277301492,0.0,0.0,0.0,0.0,0.0,0.0,0.0,0.0,0.0
2025/04/09 10:58:28.55100243,1744189108,54043335,mA1/imu,0.7076814668804644,0.7065313080635749,0.0003055174239757842,0.0005990150177369521,0.0,0.0,0.0,0.0,0.0,0.0,0.0,0.0,0.0,0.002987657299312599,-0.0006547192882752576,0.00042722123095590705,0.0,0.0,0.0,0.0,0.0,0.0,0.0,0.0,0.0,0.0016496831448263322,0.11749346276102238,9.81203692165797,0.0,0.0,0.0,0.0,0.0,0.0,0.0,0.0,0.0
2025/04/09 10:58:28.106395865,1744189108,105037109,mA1/imu,0.707689314883657,0.7065234784744873,0.0002624556425570218,0.0005823064885100032,0.0,0.0,0.0,0.0,0.0,0.0,0.0,0.0,0.0,0.0019503257909860832,-0.0008184496575303495,0.0004547131849781016,0.0,0.0,0.0,0.0,0.0,0.0,0.0,0.0,0.0,-0.0002825098751228078,0.5375957827198068,9.809853340585182,0.0,0.0,0.0,0.0,0.0,0.0,0.0,0.0,0.0
2025/04/09 10:58:28.155600778,1744189108,150330413,mA1/imu,0.7076975593091605,0.7065152517413604,0.0002123204036830075,0.0005643799657714325,0.0,0.0,0.0,0.0,0.0,0.0,0.0,0.0,0.0,0.0009668865168752181,-0.0009778848302792315,0.00047191998104340554,0.0,0.0,0.0,0.0,0.0,0.0,0.0,0.0,0.0,0.002413369775642018,0.5902411171547148,9.809477234432617,0.0,0.0,0.0,0.0,0.0,0.0,0.0,0.0,0.0
2025/04/09 10:58:28.205521156,1744189108,202340110,mA1/imu,0.7077060849172632,0.7065067514627225,0.00014516095569336483,0.0005351980640738999,0.0,0.0,0.0,0.0,0.0,0.0,0.0,0.0,0.0,0.0037975040046865894,-0.0011170747111742456,0.0004870023549250759,0.0,0.0,0.0,0.0,0.0,0.0,0.0,0.0,0.0,0.0030944712331617014,-0.48389033490020944,9.809915788972003,0.0,0.0,0.0,0.0,0.0,0.0,0.0,0.0,0.0
2025/04/09 10:58:28.253498263,1744189108,252748129,mA1/imu,0.7077149970634903,0.7064978502704667,8.148820630382334e-05,0.0005136675048399138,0.0,0.0,0.0,0.0,0.0,0.0,0.0,0.0,0.0,0.0037166509629108007,-0.0012406597215849702,0.0005171531540812636,0.0,0.0,0.0,0.0,0.0,0.0,0.0,0.0,0.0,0.003075484224222242,-0.4111630097765029,9.80883566851128,0.0,0.0,0.0,0.0,0.0,0.0,0.0,0.0,0.0
2025/04/09 10:58:28.307466238,1744189108,303910245,mA1/imu,0.7077244952471766,0.7064883548113656,1.7940567540236793e-05,0.0004929717994995381,0.0,0.0,0.0,0.0,0.0,0.0,0.0,0.0,0.0,0.0026482544355799402,-0.0012127254387877958,0.0005543285216162504,0.0,0.0,0.0,0.0,0.0,0.0,0.0,0.0,0.0,0.0019517346029300012,0.06596428080404389,9.811710029904779,0.0,0.0,0.0,0.0,0.0,0.0,0.0,0.0,0.0
2025/04/09 10:58:28.358053691,1744189108,355776698,mA1/imu,0.7077348844706869,0.7064779592269699,-4.243139706150485e-05,0.0004739507735786339,0.0,0.0,0.0,0.0,0.0,0.0,0.0,0.0,0.0,0.001982646435858921,-0.0011183022607765781,0.0006074088005673907,0.0,0.0,0.0,0.0,0.0,0.0,0.0,0.0,0.0,0.0007715286423454169,0.08960433324627522,9.810755128229433,0.0,0.0,0.0,0.0,0.0,0.0,0.0,0.0,0.0
2025/04/09 10:58:28.400325777,1744189108,397645819,mA1/imu,0.7077462996989597,0.7064665312152139,-9.93371216447149e-05,0.0004535055786605575,0.0,0.0,0.0,0.0,0.0,0.0,0.0,0.0,0.0,0.001933479843989411,-0.0009713427711198924,0.0006655754045626029,0.0,0.0,0.0,0.0,0.0,0.0,0.0,0.0,0.0,0.0013389082893947761,-0.1996154526407045,9.810152778738496,0.0,0.0,0.0,0.0,0.0,0.0,0.0,0.0,0.0
2025/04/09 10:58:28.454047778,1744189108,451407269,mA1/imu,0.7077584408462457,0.7064543735278958,-0.00015343830442274167,0.00042894158907176333,0.0,0.0,0.0,0.0,0.0,0.0,0.0,0.0,0.0,0.0020406041444941485,-0.0007552979641564072,0.0007009970334166739,0.0,0.0,0.0,0.0,0.0,0.0,0.0,0.0,0.0,0.0018104084754576848,0.20338512762521455,9.810432169052696,0.0,0.0,0.0,0.0,0.0,0.0,0.0,0.0,0.0
2025/04/09 10:58:28.503996851,1744189108,502980787,mA1/imu,0.7077712350961843,0.7064415559552981,-0.00019120375398638584,0.00041259060073576984,0.0,0.0,0.0,0.0,0.0,0.0,0.0,0.0,0.0,0.0003731005732040559,-0.0005022810263145899,0.0007374834449259744,0.0,0.0,0.0,0.0,0.0,0.0,0.0,0.0,0.0,0.0024479149917406816,0.5448741427985803,9.811266628150415,0.0,0.0,0.0,0.0,0.0,0.0,0.0,0.0,0.0
2025/04/09 10:58:28.553432966,1744189108,552197761,mA1/imu,0.70778467593966,0.706428091225166,-0.00022291263891942938,0.00039337375908138144,0.0,0.0,0.0,0.0,0.0,0.0,0.0,0.0,0.0,0.0017244033287700012,-0.00025920223325076483,0.0007743508199871535,0.0,0.0,0.0,0.0,0.0,0.0,0.0,0.0,0.0,0.0022367063735103544,-0.5146896542839019,9.809808484961414,0.0,0.0,0.0,0.0,0.0,0.0,0.0,0.0,0.0
2025/04/09 10:58:28.604213446,1744189108,603181923,mA1/imu,0.7077985977882016,0.7064141462570185,-0.00025223543750173966,0.00036785093077994544,0.0,0.0,0.0,0.0,0.0,0.0,0.0,0.0,0.0,0.002818549551558362,-9.580658510347308e-06,0.000794607053295954,0.0,0.0,0.0,0.0,0.0,0.0,0.0,0.0,0.0,0.0021629563079288436,-0.39544011419825337,9.809158448291091,0.0,0.0,0.0,0.0,0.0,0.0,0.0,0.0,0.0
2025/04/09 10:58:28.654343704,1744189108,652976799,mA1/imu,0.7078127844696248,0.7063999351422737,-0.0002631395080222123,0.000352888009584826,0.0,0.0,0.0,0.0,0.0,0.0,0.0,0.0,0.0,0.0004271597878992539,0.0001808785673561348,0.0008080087720701498,0.0,0.0,0.0,0.0,0.0,0.0,0.0,0.0,0.0,0.0048398181163400575,0.7023836427543952,9.810793153980438,0.0,0.0,0.0,0.0,0.0,0.0,0.0,0.0,0.0
2025/04/09 10:58:28.705418567,1744189108,703974246,mA1/imu,0.7078271359798934,0.7063855600151278,-0.0002692880323816679,0.00033712990279018753,0.0,0.0,0.0,0.0,0.0,0.0,0.0,0.0,0.0,-0.00020196106075205048,0.00032993302469599885,0.000814761824887709,0.0,0.0,0.0,0.0,0.0,0.0,0.0,0.0,0.0,0.004264343269389631,0.24741180729390225,9.810229696442926,0.0,0.0,0.0,0.0,0.0,0.0,0.0,0.0,0.0
2025/04/09 10:58:28.754852575,1744189108,754111337,mA1/imu,0.7078416591230492,0.7063710146868913,-0.0002763546232907899,0.0003144014356204369,0.0,0.0,0.0,0.0,0.0,0.0,0.0,0.0,0.0,0.0005120339124595702,0.0005254592931935125,0.0008302345249138848,0.0,0.0,0.0,0.0,0.0,0.0,0.0,0.0,0.0,0.002342929647236175,0.10357384435882881,9.807498230722638,0.0,0.0,0.0,0.0,0.0,0.0,0.0,0.0,0.0
2025/04/09 10:58:28.806416699,1744189108,805120363,mA1/imu,0.7078563643678487,0.7063562878104528,-0.00027475087690504964,0.0002942898637407323,0.0,0.0,0.0,0.0,0.0,0.0,0.0,0.0,0.0,0.001075937828944957,0.0006557784154046889,0.0008377026808136015,0.0,0.0,0.0,0.0,0.0,0.0,0.0,0.0,0.0,0.0031317843012511892,-0.48258993055297805,9.807517181557895,0.0,0.0,0.0,0.0,0.0,0.0,0.0,0.0,0.0
2025/04/09 10:58:28.860636143,1744189108,857890673,mA1/imu,-0.707871429208322,-0.7063412010164397,0.0002733899304753811,-0.0002696574998734652,0.0,0.0,0.0,0.0,0.0,0.0,0.0,0.0,0.0,-0.0007711953326402413,0.0008226945564501505,0.0008635362098617566,0.0,0.0,0.0,0.0,0.0,0.0,0.0,0.0,0.0,0.0009782737424215123,0.658859483718836,9.810955881695564,0.0,0.0,0.0,0.0,0.0,0.0,0.0,0.0,0.0
2025/04/09 10:58:28.902737010,1744189108,898863269,mA1/imu,-0.7078868702953753,-0.706325737710167,0.00026461686642022237,-0.0002471629440495583,0.0,0.0,0.0,0.0,0.0,0.0,0.0,0.0,0.0,0.00038864385449866745,0.0009460385533168717,0.0008833825369816325,0.0,0.0,0.0,0.0,0.0,0.0,0.0,0.0,0.0,0.0010879376860864877,0.15502242664022597,9.812311040067904,0.0,0.0,0.0,0.0,0.0,0.0,0.0,0.0,0.0
2025/04/09 10:58:28.955334149,1744189108,951320881,mA1/imu,-0.70790273787196,-0.7063098469133171,0.00024927668413835197,-0.0002274374732487566,0.0,0.0,0.0,0.0,0.0,0.0,0.0,0.0,0.0,-3.106082473813008e-05,0.0010014591127427384,0.0009022245269893304,0.0,0.0,0.0,0.0,0.0,0.0,0.0,0.0,0.0,0.002535515084943798,0.09961014198535033,9.811710978998153,0.0,0.0,0.0,0.0,0.0,0.0,0.0,0.0,0.0
2025/04/09 10:58:29.5697766,1744189109,4373267,mA1/imu,-0.7079187421590248,-0.7062938175192274,0.00022636714187953129,-0.00021585184184876055,0.0,0.0,0.0,0.0,0.0,0.0,0.0,0.0,0.0,-0.0007341597576807759,0.000941376204585021,0.0009014337105842813,0.0,0.0,0.0,0.0,0.0,0.0,0.0,0.0,0.0,0.0034580487170836516,-0.06573272430095486,9.812924292186105,0.0,0.0,0.0,0.0,0.0,0.0,0.0,0.0,0.0
2025/04/09 10:58:29.56447325,1744189109,54988689,mA1/imu,-0.7079344628047142,-0.706278069907074,0.000215873715635114,-0.00019426857186605022,0.0,0.0,0.0,0.0,0.0,0.0,0.0,0.0,0.0,-3.323270236368859e-05,0.0009197792625424527,0.0008865506815590944,0.0,0.0,0.0,0.0,0.0,0.0,0.0,0.0,0.0,0.0008248275442581162,0.12875455852666423,9.804911815651758,0.0,0.0,0.0,0.0,0.0,0.0,0.0,0.0,0.0
2025/04/09 10:58:29.107809946,1744189109,105971487,mA1/imu,0.7079500511951131,0.7062624525931985,-0.00018312720103586533,0.00019883235429964891,0.0,0.0,0.0,0.0,0.0,0.0,0.0,0.0,0.0,-5.427533407338985e-05,0.0006943021485306926,0.0008793437030913233,0.0,0.0,0.0,0.0,0.0,0.0,0.0,0.0,0.0,0.004565554181590263,-0.4870138907788692,9.80718034983505,0.0,0.0,0.0,0.0,0.0,0.0,0.0,0.0,0.0
2025/04/09 10:58:29.148613708,1744189109,146742184,mA1/imu,0.7079655112881079,0.7062469607483749,-0.00015881720661535298,0.00020009334374986208,0.0,0.0,0.0,0.0,0.0,0.0,0.0,0.0,0.0,-0.0023582497510502265,0.0006106862438395399,0.0008743119115151312,0.0,0.0,0.0,0.0,0.0,0.0,0.0,0.0,0.0,0.004240226716966914,0.03423018283828383,9.810947604040317,0.0,0.0,0.0,0.0,0.0,0.0,0.0,0.0,0.0
2025/04/09 10:58:29.200364304,1744189109,197813880,mA1/imu,0.7079810080786869,0.7062314290910983,-0.00013555486022871966,0.00020588518883605888,0.0,0.0,0.0,0.0,0.0,0.0,0.0,0.0,0.0,-0.0017377389509448153,0.0004396655898415632,0.0008789809696067206,0.0,0.0,0.0,0.0,0.0,0.0,0.0,0.0,0.0,0.004281489374076434,0.04838408175062536,9.809826408287346,0.0,0.0,0.0,0.0,0.0,0.0,0.0,0.0,0.0
2025/04/09 10:58:29.249541562,1744189109,247635202,mA1/imu,0.707996386881278,0.7062160110701957,-0.00011410768597047694,0.00022102170268418066,0.0,0.0,0.0,0.0,0.0,0.0,0.0,0.0,0.0,-0.001933433730099675,-2.5593235850250066e-05,0.0008602580393607468,0.0,0.0,0.0,0.0,0.0,0.0,0.0,0.0,0.0,0.013406282285999209,0.04966038007090187,9.808236979026873,0.0,0.0,0.0,0.0,0.0,0.0,0.0,0.0,0.0
2025/04/09 10:58:29.299889284,1744189109,298548533,mA1/imu,0.7080112820170524,0.7062010722010862,-0.00010371690264845001,0.0002437240452130427,0.0,0.0,0.0,0.0,0.0,0.0,0.0,0.0,0.0,-0.0020114359757160204,-0.0005426282907074004,0.0008331311676820148,0.0,0.0,0.0,0.0,0.0,0.0,0.0,0.0,0.0,0.013371487044220753,0.6746661026820413,9.809693340883628,0.0,0.0,0.0,0.0,0.0,0.0,0.0,0.0,0.0
2025/04/09 10:58:29.349246549,1744189109,348404617,mA1/imu,0.7080256808991885,0.7061866235414986,-9.680739499772612e-05,0.0002802617102939655,0.0,0.0,0.0,0.0,0.0,0.0,0.0,0.0,0.0,-0.0009024021532735524,-0.001022086162785665,0.0008045461925109016,0.0,0.0,0.0,0.0,0.0,0.0,0.0,0.0,0.0,0.012786887627800732,0.12397659879769904,9.810467535474144,0.0,0.0,0.0,0.0,0.0,0.0,0.0,0.0,0.0
2025/04/09 10:58:29.401872232,1744189109,400732332,mA1/imu,0.7080395664978456,0.7061726837574926,-0.00010187459211321746,0.00032032772411281075,0.0,0.0,0.0,0.0,0.0,0.0,0.0,0.0,0.0,-5.768042276816698e-05,-0.0014287176911163737,0.0007756878359649017,0.0,0.0,0.0,0.0,0.0,0.0,0.0,0.0,0.0,0.011557292623861699,0.33300809579095036,9.810678194598646,0.0,0.0,0.0,0.0,0.0,0.0,0.0,0.0,0.0
2025/04/09 10:58:29.452823695,1744189109,450566156,mA1/imu,0.7080529615948965,0.7061592261448634,-0.0001059589048303501,0.00037373773409064696,0.0,0.0,0.0,0.0,0.0,0.0,0.0,0.0,0.0,0.0005859570503191202,-0.0017640739315676018,0.0007499316089662647,0.0,0.0,0.0,0.0,0.0,0.0,0.0,0.0,0.0,0.012335960399686523,-0.410896326695154,9.808982338541991,0.0,0.0,0.0,0.0,0.0,0.0,0.0,0.0,0.0
2025/04/09 10:58:29.503961478,1744189109,501635614,mA1/imu,0.7080659278407941,0.7061461906551425,-0.0001144917761319718,0.000431446195548767,0.0,0.0,0.0,0.0,0.0,0.0,0.0,0.0,0.0,-0.00037465880250285837,-0.0019516231843261331,0.000726105625446099,0.0,0.0,0.0,0.0,0.0,0.0,0.0,0.0,0.0,0.011188021898536276,-0.4828661992854135,9.81033150276099,0.0,0.0,0.0,0.0,0.0,0.0,0.0,0.0,0.0
2025/04/09 10:58:29.553202697,1744189109,551780608,mA1/imu,0.708078488030326,0.7061335580561461,-0.0001319130375490992,0.00048536028397098247,0.0,0.0,0.0,0.0,0.0,0.0,0.0,0.0,0.0,-0.0010967116294794941,-0.0020441797630684068,0.0007036725044244254,0.0,0.0,0.0,0.0,0.0,0.0,0.0,0.0,0.0,0.011390294769575104,0.3377948057580331,9.81151375312608,0.0,0.0,0.0,0.0,0.0,0.0,0.0,0.0,0.0
2025/04/09 10:58:29.605026010,1744189109,602516202,mA1/imu,0.7080906704583944,0.706121299665296,-0.0001502870283953708,0.0005385003099167803,0.0,0.0,0.0,0.0,0.0,0.0,0.0,0.0,0.0,-0.0008592691147025014,-0.0019864339971837437,0.0006830247362008371,0.0,0.0,0.0,0.0,0.0,0.0,0.0,0.0,0.0,0.010068146379811427,0.09166453179850768,9.810033616852444,0.0,0.0,0.0,0.0,0.0,0.0,0.0,0.0,0.0
2025/04/09 10:58:29.657974332,1744189109,653522118,mA1/imu,0.7081026973882628,0.7061091965660127,-0.00017056226092214017,0.0005859905131088666,0.0,0.0,0.0,0.0,0.0,0.0,0.0,0.0,0.0,-0.0007553046057352737,-0.001870449706886202,0.0007048152527828968,0.0,0.0,0.0,0.0,0.0,0.0,0.0,0.0,0.0,0.012702296057372317,0.08781566187067869,9.809849889211618,0.0,0.0,0.0,0.0,0.0,0.0,0.0,0.0,0.0
2025/04/09 10:58:29.706190000,1744189109,705159287,mA1/imu,0.7081157737407714,0.7060960417515739,-0.00019185615919606832,0.0006276890012853676,0.0,0.0,0.0,0.0,0.0,0.0,0.0,0.0,0.0,-0.0005027992860782454,-0.0017046918562653713,0.0007436991728143709,0.0,0.0,0.0,0.0,0.0,0.0,0.0,0.0,0.0,0.012361669654066473,0.1602183754868392,9.810494588610897,0.0,0.0,0.0,0.0,0.0,0.0,0.0,0.0,0.0
2025/04/09 10:58:29.756558996,1744189109,754978183,mA1/imu,0.7081288133263752,0.7060829271132508,-0.0002125343099906259,0.0006622728518959821,0.0,0.0,0.0,0.0,0.0,0.0,0.0,0.0,0.0,0.0004258007675352495,-0.0014643907673434038,0.0007365995611766244,0.0,0.0,0.0,0.0,0.0,0.0,0.0,0.0,0.0,0.012391717979082333,-0.3588698085629123,9.810490743337192,0.0,0.0,0.0,0.0,0.0,0.0,0.0,0.0,0.0
2025/04/09 10:58:29.800039596,1744189109,798512385,mA1/imu,0.708141720793167,0.7060699523672612,-0.0002326560690897502,0.0006866639206048713,0.0,0.0,0.0,0.0,0.0,0.0,0.0,0.0,0.0,0.0009562714510792273,-0.0011191570627528736,0.0007282778396284144,0.0,0.0,0.0,0.0,0.0,0.0,0.0,0.0,0.0,0.011316515323695911,-0.07682764616407893,9.809816248608566,0.0,0.0,0.0,0.0,0.0,0.0,0.0,0.0,0.0
2025/04/09 10:58:29.849937932,1744189109,848353484,mA1/imu,0.7081542274580749,0.7060573871415287,-0.00024509053556317947,0.0007043626652866627,0.0,0.0,0.0,0.0,0.0,0.0,0.0,0.0,0.0,0.00032297251840317356,-0.0006348854587054432,0.0006677285934594894,0.0,0.0,0.0,0.0,0.0,0.0,0.0,0.0,0.0,0.007173975020600455,0.0932618668218177,9.809877454464452,0.0,0.0,0.0,0.0,0.0,0.0,0.0,0.0,0.0
2025/04/09 10:58:29.901556540,1744189109,900618275,mA1/imu,0.7081649408664723,0.7060466366787903,-0.00025283874463228473,0.0007067069570332635,0.0,0.0,0.0,0.0,0.0,0.0,0.0,0.0,0.0,0.000667867083544908,-5.269229593541377e-05,0.0005936012391331717,0.0,0.0,0.0,0.0,0.0,0.0,0.0,0.0,0.0,0.008091074229931546,0.11427988943932275,9.810485684804815,0.0,0.0,0.0,0.0,0.0,0.0,0.0,0.0,0.0
2025/04/09 10:58:29.952403782,1744189109,950522403,mA1/imu,0.7081752267076473,0.7060363272209815,-0.0002486581317883486,0.000700778861612772,0.0,0.0,0.0,0.0,0.0,0.0,0.0,0.0,0.0,-0.0008610362917474225,0.0005109652335625836,0.0005754732116483129,0.0,0.0,0.0,0.0,0.0,0.0,0.0,0.0,0.0,0.008649819376426546,0.6259567470813033,9.811618250279187,0.0,0.0,0.0,0.0,0.0,0.0,0.0,0.0,0.0
2025/04/09 10:58:30.5220378,1744189110,2218493,mA1/imu,0.7081852166949182,0.7060263296126377,-0.00024014830130961984,0.0006804978120869977,0.0,0.0,0.0,0.0,0.0,0.0,0.0,0.0,0.0,0.0008626561281558525,0.0010157670591863007,0.0005584393719797483,0.0,0.0,0.0,0.0,0.0,0.0,0.0,0.0,0.0,0.009029811726017838,-0.5235088322873734,9.81002607215587,0.0,0.0,0.0,0.0,0.0,0.0,0.0,0.0,0.0
2025/04/09 10:58:30.55061713,1744189110,52866173,mA1/imu,0.7081949138562837,0.7060166381692592,-0.00022798904063420035,0.0006470218431348955,0.0,0.0,0.0,0.0,0.0,0.0,0.0,0.0,0.0,0.001979907441313957,0.0014476975857451908,0.0005419583694857456,0.0,0.0,0.0,0.0,0.0,0.0,0.0,0.0,0.0,0.009577750571688706,-0.45462699552863095,9.809333703394827,0.0,0.0,0.0,0.0,0.0,0.0,0.0,0.0,0.0
2025/04/09 10:58:30.108929124,1744189110,103937616,mA1/imu,0.7082043042034792,0.7060072573858464,-0.00020302243902174585,0.0006122157059481136,0.0,0.0,0.0,0.0,0.0,0.0,0.0,0.0,0.0,5.1026448231379824e-05,0.0018187454333725038,0.0005238617338880643,0.0,0.0,0.0,0.0,0.0,0.0,0.0,0.0,0.0,0.009906398542950853,0.04002520337326933,9.809132935958033,0.0,0.0,0.0,0.0,0.0,0.0,0.0,0.0,0.0
2025/04/09 10:58:30.158517565,1744189110,154288720,mA1/imu,0.7082133818403296,0.7059981965143045,-0.0001795583264648616,0.0005657381376174733,0.0,0.0,0.0,0.0,0.0,0.0,0.0,0.0,0.0,0.00035251610577989036,0.0020668873251804168,0.0005057467201442204,0.0,0.0,0.0,0.0,0.0,0.0,0.0,0.0,0.0,0.009887524627767205,-0.09275356550934469,9.810293537459087,0.0,0.0,0.0,0.0,0.0,0.0,0.0,0.0,0.0
2025/04/09 10:58:30.207380895,1744189110,205906359,mA1/imu,0.7082221253898303,0.7059894684060558,-0.00015063543068708185,0.0005185720904567005,0.0,0.0,0.0,0.0,0.0,0.0,0.0,0.0,0.0,0.00048610657694595123,0.0021923427392796092,0.0004868651587300542,0.0,0.0,0.0,0.0,0.0,0.0,0.0,0.0,0.0,0.010622207918279926,0.07033499597302792,9.808739741294447,0.0,0.0,0.0,0.0,0.0,0.0,0.0,0.0,0.0
2025/04/09 10:58:30.247811275,1744189110,246015325,mA1/imu,0.7082305232947421,0.7059810819122259,-0.00011813872943805895,0.00047317960607148424,0.0,0.0,0.0,0.0,0.0,0.0,0.0,0.0,0.0,0.0002984565765022789,0.00219087522618792,0.0004672320987932825,0.0,0.0,0.0,0.0,0.0,0.0,0.0,0.0,0.0,0.010830279918982933,0.06046013709293289,9.808279483009999,0.0,0.0,0.0,0.0,0.0,0.0,0.0,0.0,0.0
2025/04/09 10:58:30.299733113,1744189110,296985396,mA1/imu,0.7082385759106168,0.705973037875696,-9.065415560256969e-05,0.00042563656644216874,0.0,0.0,0.0,0.0,0.0,0.0,0.0,0.0,0.0,0.0006479572234128125,0.002062674585084986,0.00044801017983978476,0.0,0.0,0.0,0.0,0.0,0.0,0.0,0.0,0.0,0.011255692763335327,0.08969014490303197,9.810444777013023,0.0,0.0,0.0,0.0,0.0,0.0,0.0,0.0,0.0
2025/04/09 10:58:30.349244385,1744189110,347136787,mA1/imu,0.7082462906043008,0.7059653230977985,-5.9820592195893e-05,0.0003883943436043222,0.0,0.0,0.0,0.0,0.0,0.0,0.0,0.0,0.0,0.0016870575285640509,0.0018162573866421102,0.0004293534063937766,0.0,0.0,0.0,0.0,0.0,0.0,0.0,0.0,0.0,0.011066415540931455,-0.45919311735244894,9.807860010395949,0.0,0.0,0.0,0.0,0.0,0.0,0.0,0.0,0.0
2025/04/09 10:58:30.399286863,1744189110,398088081,mA1/imu,0.7082536695006756,0.705957937732395,-3.15518014737559e-05,0.0003588815062233498,0.0,0.0,0.0,0.0,0.0,0.0,0.0,0.0,0.0,0.00019884011615817877,0.0014877407738907588,0.00041064711278476844,0.0,0.0,0.0,0.0,0.0,0.0,0.0,0.0,0.0,0.01187766678004084,0.08576005356192129,9.809148352706266,0.0,0.0,0.0,0.0,0.0,0.0,0.0,0.0,0.0
2025/04/09 10:58:30.449367298,1744189110,448130507,mA1/imu,0.7082607210243145,0.705950874173099,-8.922848891117333e-06,0.00033797742259583684,0.0,0.0,0.0,0.0,0.0,0.0,0.0,0.0,0.0,-0.00031744000666069207,0.0010557730309166068,0.00039237705545621434,0.0,0.0,0.0,0.0,0.0,0.0,0.0,0.0,0.0,0.011715019813473407,0.05028778052983688,9.808113541618475,0.0,0.0,0.0,0.0,0.0,0.0,0.0,0.0,0.0
2025/04/09 10:58:30.500429646,1744189110,499689399,mA1/imu,0.7082674603159214,0.7059441172539314,8.746700065073525e-06,0.0003284748055576613,0.0,0.0,0.0,0.0,0.0,0.0,0.0,0.0,0.0,-0.00016134561629549702,0.0005758380224510106,0.0003751019173080502,0.0,0.0,0.0,0.0,0.0,0.0,0.0,0.0,0.0,0.012082576147345599,-0.04224924948782011,9.810119941749328,0.0,0.0,0.0,0.0,0.0,0.0,0.0,0.0,0.0
2025/04/09 10:58:30.554721009,1744189110,552027839,mA1/imu,0.7082739028102848,0.7059376526452776,1.9606757008806824e-05,0.00032983501570209945,0.0,0.0,0.0,0.0,0.0,0.0,0.0,0.0,0.0,1.3253276111526667e-05,6.692670449157593e-05,0.0003586986358601472,0.0,0.0,0.0,0.0,0.0,0.0,0.0,0.0,0.0,0.011475084527875455,-0.30764388501311246,9.808904794447514,0.0,0.0,0.0,0.0,0.0,0.0,0.0,0.0,0.0
2025/04/09 10:58:30.606698819,1744189110,602987692,mA1/imu,0.7082800603549627,0.7059314679424827,2.500399470385095e-05,0.0003435796011878375,0.0,0.0,0.0,0.0,0.0,0.0,0.0,0.0,0.0,-0.0009884177746435486,-0.00044137040834762233,0.00034278550295435803,0.0,0.0,0.0,0.0,0.0,0.0,0.0,0.0,0.0,0.011900097635382387,0.029708992524942114,9.81017879363924,0.0,0.0,0.0,0.0,0.0,0.0,0.0,0.0,0.0
2025/04/09 10:58:30.653707284,1744189110,652834291,mA1/imu,0.708285948439515,0.7059255460071179,2.6934403001550476e-05,0.0003714999693585902,0.0,0.0,0.0,0.0,0.0,0.0,0.0,0.0,0.0,-0.0012427158551482176,-0.0009178878301220483,0.000328461692329061,0.0,0.0,0.0,0.0,0.0,0.0,0.0,0.0,0.0,0.011368414738284354,0.022034682585646656,9.809477032009855,0.0,0.0,0.0,0.0,0.0,0.0,0.0,0.0,0.0
2025/04/09 10:58:30.704899295,1744189110,704015255,mA1/imu,0.7082916009488337,0.7059198573473546,1.7327196761462733e-05,0.00040339533541282563,0.0,0.0,0.0,0.0,0.0,0.0,0.0,0.0,0.0,-0.001642130885638688,-0.0013304358501097884,0.0003158373958763274,0.0,0.0,0.0,0.0,0.0,0.0,0.0,0.0,0.0,0.01135059761065461,-0.0014761668861961565,9.810192059146706,0.0,0.0,0.0,0.0,0.0,0.0,0.0,0.0,0.0
2025/04/09 10:58:30.754860812,1744189110,753880732,mA1/imu,0.7082970381349091,0.7059143737364775,9.561695362782056e-06,0.0004501445613876647,0.0,0.0,0.0,0.0,0.0,0.0,0.0,0.0,0.0,-0.001505562455132964,-0.0016724835450868385,0.0003041165007019039,0.0,0.0,0.0,0.0,0.0,0.0,0.0,0.0,0.0,0.01110525552699615,-0.05797997402500242,9.810885841616626,0.0,0.0,0.0,0.0,0.0,0.0,0.0,0.0,0.0
2025/04/09 10:58:30.806749740,1744189110,804616153,mA1/imu,0.7083022833363397,0.7059090834857125,-1.3800994871643817e-05,0.0004910014478590999,0.0,0.0,0.0,0.0,0.0,0.0,0.0,0.0,0.0,-0.0007744710267829835,-0.0018868017362024402,0.0002933614832348704,0.0,0.0,0.0,0.0,0.0,0.0,0.0,0.0,0.0,0.00968848107207542,0.06719582825086251,9.809739914908791,0.0,0.0,0.0,0.0,0.0,0.0,0.0,0.0,0.0
2025/04/09 10:58:30.856059185,1744189110,855039486,mA1/imu,0.7083073320253498,0.7059039785110558,-3.106449308442732e-05,0.000543650982873475,0.0,0.0,0.0,0.0,0.0,0.0,0.0,0.0,0.0,-0.0009233821651983004,-0.0020109684063091965,0.00028278267852672437,0.0,0.0,0.0,0.0,0.0,0.0,0.0,0.0,0.0,0.009792509498960171,0.6853231653167496,9.811447554040022,0.0,0.0,0.0,0.0,0.0,0.0,0.0,0.0,0.0
2025/04/09 10:58:30.906707325,1744189110,905968952,mA1/imu,0.7083122131496358,0.705899034574173,-4.6041475900294245e-05,0.0005996419748360809,0.0,0.0,0.0,0.0,0.0,0.0,0.0,0.0,0.0,-0.0008917242802745358,-0.0019903843148200554,0.00027426336582001394,0.0,0.0,0.0,0.0,0.0,0.0,0.0,0.0,0.0,0.008924497210828643,-0.24381833652869206,9.810567424595245,0.0,0.0,0.0,0.0,0.0,0.0,0.0,0.0,0.0
2025/04/09 10:58:30.947633575,1744189110,946615948,mA1/imu,0.7083169577745706,0.7058942280422436,-6.369448451974571e-05,0.0006496834883592782,0.0,0.0,0.0,0.0,0.0,0.0,0.0,0.0,0.0,-0.0009184392129393747,-0.0018543655695865548,0.0002669980975019626,0.0,0.0,0.0,0.0,0.0,0.0,0.0,0.0,0.0,0.009074804699163233,0.0476917815725174,9.811166849621408,0.0,0.0,0.0,0.0,0.0,0.0,0.0,0.0,0.0
2025/04/09 10:58:31.287438,1744189110,998059380,mA1/imu,0.7083215912868824,0.7058895334337013,-7.838610842957771e-05,0.0006955294302133995,0.0,0.0,0.0,0.0,0.0,0.0,0.0,0.0,0.0,-0.0012389243083667538,-0.001603541648572579,0.00026127051309916474,0.0,0.0,0.0,0.0,0.0,0.0,0.0,0.0,0.0,0.008134992290245023,0.02040281184108218,9.810679612204932,0.0,0.0,0.0,0.0,0.0,0.0,0.0,0.0,0.0
2025/04/09 10:58:31.48703737,1744189111,47366928,mA1/imu,0.7083261259691435,0.705884938610856,-8.50689227312376e-05,0.0007385629096448984,0.0,0.0,0.0,0.0,0.0,0.0,0.0,0.0,0.0,-0.0007957397630509792,-0.0012697932443144517,0.000256452105482862,0.0,0.0,0.0,0.0,0.0,0.0,0.0,0.0,0.0,0.007840332548931692,-0.5844782190261119,9.81024525537112,0.0,0.0,0.0,0.0,0.0,0.0,0.0,0.0,0.0
2025/04/09 10:58:31.99254959,1744189111,98361927,mA1/imu,0.7083306014554424,0.7058804142011046,-9.046050170182104e-05,0.0007692242495655648,0.0,0.0,0.0,0.0,0.0,0.0,0.0,0.0,0.0,-0.0019145357453447817,-0.0008494231702070633,0.00025371606667890927,0.0,0.0,0.0,0.0,0.0,0.0,0.0,0.0,0.0,0.008368210149823087,-0.045921332712616385,9.810168774686574,0.0,0.0,0.0,0.0,0.0,0.0,0.0,0.0,0.0
2025/04/09 10:58:31.151012745,1744189111,148683226,mA1/imu,0.7083350595442212,0.705875924117777,-9.693397792422261e-05,0.0007834380403287674,0.0,0.0,0.0,0.0,0.0,0.0,0.0,0.0,0.0,-0.0011353377423163535,-0.0003846818344845159,0.0002519871193579482,0.0,0.0,0.0,0.0,0.0,0.0,0.0,0.0,0.0,0.006932640335711451,2.3447554459097783e-05,9.810301813563429,0.0,0.0,0.0,0.0,0.0,0.0,0.0,0.0,0.0
2025/04/09 10:58:31.202695362,1744189111,199740087,mA1/imu,0.7083394927621799,0.7058714696408562,-9.521083783105272e-05,0.0007888443267792459,0.0,0.0,0.0,0.0,0.0,0.0,0.0,0.0,0.0,0.000526813861955768,8.72250156316239e-05,0.0002510272999069041,0.0,0.0,0.0,0.0,0.0,0.0,0.0,0.0,0.0,0.007434503763149528,-0.5295721590668547,9.80888586865913,0.0,0.0,0.0,0.0,0.0,0.0,0.0,0.0,0.0
2025/04/09 10:58:31.252208368,1744189111,249521586,mA1/imu,0.7083439091586274,0.7058670447640111,-8.736713527377691e-05,0.0007834800439637751,0.0,0.0,0.0,0.0,0.0,0.0,0.0,0.0,0.0,2.1453290266841765e-05,0.0005648391984564783,0.00024966589754058823,0.0,0.0,0.0,0.0,0.0,0.0,0.0,0.0,0.0,0.007610162037423547,0.20064609688661939,9.810502802685791,0.0,0.0,0.0,0.0,0.0,0.0,0.0,0.0,0.0
2025/04/09 10:58:31.301326933,1744189111,300541899,mA1/imu,0.7083483012934383,0.705862651476925,-6.905368392996737e-05,0.000772357594648874,0.0,0.0,0.0,0.0,0.0,0.0,0.0,0.0,0.0,-0.0014980642474490763,0.0010047243825184703,0.0002483435977277184,0.0,0.0,0.0,0.0,0.0,0.0,0.0,0.0,0.0,0.00836448359571983,0.564444518682068,9.810682797678233,0.0,0.0,0.0,0.0,0.0,0.0,0.0,0.0,0.0
2025/04/09 10:58:31.354466399,1744189111,351471906,mA1/imu,0.7083526785084204,0.7058582891971606,-5.303323271564896e-05,0.0007453918970058058,0.0,0.0,0.0,0.0,0.0,0.0,0.0,0.0,0.0,0.0008221133338924728,0.0013577864103071183,0.00024691789961970987,0.0,0.0,0.0,0.0,0.0,0.0,0.0,0.0,0.0,0.007646845580905611,0.00991336098749322,9.810330856820263,0.0,0.0,0.0,0.0,0.0,0.0,0.0,0.0,0.0
2025/04/09 10:58:31.403422553,1744189111,402417797,mA1/imu,0.7083570255494425,0.7058539588857619,-2.7901474436413973e-05,0.0007157524371231153,0.0,0.0,0.0,0.0,0.0,0.0,0.0,0.0,0.0,0.0008417359854993326,0.001650791833454886,0.0002451410361685146,0.0,0.0,0.0,0.0,0.0,0.0,0.0,0.0,0.0,0.008851922491990346,-0.5104220586103405,9.809926353763332,0.0,0.0,0.0,0.0,0.0,0.0,0.0,0.0,0.0
