time,header_stamp_secs,header_stamp_nsecs,header_frame_id,child_frame_id,pose_position_x,pose_position_y,pose_position_z,pose_orientation_x,pose_orientation_y,pose_orientation_z,pose_orientation_w,twist_linear_x,twist_linear_y,twist_linear_z,twist_angular_x,twist_angular_y,twist_angular_z,gps_status
2025/04/09 08:48:17.236045263,1744181297,233171937,piren,vessel_center,-479.96480256085476,-299.94824994030574,2.3357771953149835,0.0006127282844246571,0.0006413944487432552,-0.005495377134764753,0.9999845068836604,0.0030903929331087994,0.06841811025983616,0.025576420020300333,0.0005757923449551922,0.00243817517745801,0.00042485502995536466,0
2025/04/09 08:48:17.392472236,1744181297,388697539,piren,vessel_center,-479.96461356804576,-299.9512232656956,2.335734683926907,0.026855448200220358,0.0004910288393550234,-0.005661801350386305,0.9996231728997248,0.0024755166665271673,0.038896677666798773,0.016916594998973238,-0.0009937249947023893,0.00016542189068673093,-0.0005443677905917669,0
2025/04/09 08:48:17.546628074,1744181297,541195624,piren,vessel_center,-479.96530811304405,-299.9996418484139,2.315267228175686,-0.025768340301589646,0.0004897342217579958,-0.005626602056248304,0.999651986517205,9.43929967887956e-05,-0.08187408295057111,-0.034295935603383065,0.0020812525198811898,-0.0023515638709596183,0.0,0
2025/04/09 08:48:17.828082078,1744181297,759169003,piren,vessel_center,-479.9654308538989,-299.9521466105442,2.335180120247528,-0.004577316148023437,0.0003936358062621767,-0.0056764266050886416,0.9999733353488632,-0.000201008298427129,0.04323148302751206,0.01814862516507742,-0.001004553401936973,-0.002800537238906359,-0.0004900723710323939,0
2025/04/09 08:48:18.32141434,1744181298,14262925,piren,vessel_center,-479.96605494611345,-299.94608461467425,2.3393122470817493,-0.030800657561129256,0.0005341646499513096,-0.00574438925778066,0.9995088974861525,-0.0014822104299128992,0.03332498156464708,0.017525246938025745,0.000551863582010207,-0.0018133554232016712,-0.00022091570872991533,0
2025/04/09 08:48:18.194067164,1744181298,184794791,piren,vessel_center,-479.96631113181087,-299.8991395286199,2.3587341264422057,-0.025782255340032114,0.0004089441105517637,-0.0057518975661897285,0.9996509509567247,-0.0012275682996915718,0.1193815106124478,0.05104602039260191,0.001782130399759853,0.0016100024552900087,-0.00023161615100943388,0
2025/04/09 08:48:18.407107081,1744181298,401690749,piren,vessel_center,-479.9667976830008,-299.8597450139099,2.374993331211497,0.0006064025027228265,0.0012329017847458898,-0.005753979272115508,0.9999825018227719,-0.0015049963254114996,0.1287502628137193,0.05375073981459939,0.0003179572399178149,0.0013807325652249916,-1.2572257593235514e-05,0
2025/04/09 08:48:18.562956909,1744181298,557159314,piren,vessel_center,-479.96594452053927,-299.88922528449905,2.3635655453157476,0.02662846581548863,4.6504672027640195e-05,-0.005758034923365479,0.9996288149505547,0.0008959888331900433,0.020040344993867906,0.01032144214675481,-0.0012862941789221964,-0.0003761390537633363,0.0,0
2025/04/09 08:48:18.717095973,1744181298,713071947,piren,vessel_center,-479.96752689179397,-299.9616662476538,2.332634271960157,-0.025801345866488336,5.21955918397982e-06,-0.005309569969057812,0.9996529892872715,-0.002929525704485146,-0.1478644482094293,-0.06197944359169726,0.0020985282495160134,-0.000654327371815038,0.0029786493477333706,0
2025/04/09 08:48:18.873133340,1744181298,868413753,piren,vessel_center,-479.9682168938904,-299.9363833218727,2.3427023513174277,-0.004892092383640905,-3.41298520961205e-05,-0.005060100117782419,0.999975230520267,-0.003482841609866315,-0.042197549445517915,-0.018864755551165423,-0.0008546316429333692,5.4369614900133e-06,0.0015089345882869072,0
2025/04/09 08:48:19.29622447,1744181299,25747131,piren,vessel_center,-479.96891443865775,-299.94529110269696,2.339795448035398,0.0006627922513576527,-0.0005009315485657151,-0.005059466575067179,0.9999868556996092,-0.00392337473754205,-0.04855044265213987,-0.019312392354175877,0.0006542958718717989,0.0007677670140158433,0.0,0
2025/04/09 08:48:19.185031391,1744181299,180495543,piren,vessel_center,-479.9703007761744,-299.9610427367328,2.3339344629811705,0.026873005405517996,0.0004182603907264066,-0.00540115386639197,0.9996241764661519,-0.005687327168652789,-0.06725884556426504,-0.02585480186717748,-0.0011465962997216901,0.0010559038474538972,0.0001608834285783155,0
2025/04/09 08:48:19.338803477,1744181299,335350313,piren,vessel_center,-479.9703986781176,-300.01646384446633,2.309940175457334,-0.025783838621730944,0.0006392452446333516,-0.0053716164251697,0.9996529051467948,-0.003985892542323287,-0.16773422509272645,-0.07045663902871341,0.0019292341617532223,-0.00042177317016640713,0.0,0
2025/04/09 08:48:19.494483997,1744181299,490810111,piren,vessel_center,-479.96939426427093,-299.9736610624318,2.3273167641556847,-0.004588658056013386,0.0005085779281485709,-0.005537252655725988,0.9999740118616897,-0.0004131148215493312,-0.016195537863813725,-0.0081423626928281,-0.0012877257815757848,-0.0016479874605414568,-0.0008764517198686999,0
2025/04/09 08:48:19.649760379,1744181299,645848669,piren,vessel_center,-479.96899142020766,-299.9679917796932,2.3306679282640457,0.0007654382040906499,0.00033515303675225373,-0.00554002670504613,0.9999843048172832,0.0006234707130714952,0.0019424341108336442,0.0020898473157799774,0.00019183854959443374,-0.0020384621438567356,0.0,0
2025/04/09 08:48:19.813382707,1744181299,802811007,piren,vessel_center,-479.9689795267962,-299.97193142798153,2.330146570201958,0.02658797756423348,0.00020647722883596206,-0.005649464775029893,0.9996304919138639,0.0003844700268927255,-0.007640702808975832,4.136320823418813e-05,-0.0015096505658422125,-0.000743293627916952,-0.0009419910259034677,0
2025/04/09 08:48:19.968831876,1744181299,962167884,piren,vessel_center,-479.9695667581268,-300.01826195504583,2.3102596714892356,0.0006666588625743578,0.00043246713316850944,-0.0057407777094055255,0.9999832058636939,-0.0010510062589674787,-0.10803523121598997,-0.044176595853695495,0.0003824446413789054,0.0009786666548023681,-0.0007072781658784034,0
2025/04/09 08:48:20.120661921,1744181300,118361672,piren,vessel_center,-479.96959713859854,-300.0146223292565,2.312595741868269,0.0002124700810472657,0.000429134432095568,-0.005740539820074271,0.999983408313697,-0.0007630294330739132,-0.06340383646993329,-0.024042191255677643,0.0003695894944827748,0.0012407452830688992,0.0,0
2025/04/09 08:48:20.276142208,1744181300,273547977,piren,vessel_center,-479.9696076745962,-300.00704740174984,2.3163740549302854,-0.03062530850844768,0.0008069136185411113,-0.0057307015234314964,0.9995141812046611,-0.0005286632957450791,-0.02514812325198333,-0.0075224400815908955,0.0008479138668282878,0.0010034768312819397,-0.0009002002601913616,0
2025/04/09 08:48:20.431115636,1744181300,427454678,piren,vessel_center,-479.9687216575261,-299.9460458210811,2.340460928782455,0.02661733712671778,0.00039906776324738675,-0.005763813315593781,0.9996289994619334,0.001619394027193178,0.11893653537331404,0.04855555513927036,-0.0010797242785583016,0.0003894347359842585,0.0,0
2025/04/09 08:48:20.586617172,1744181300,583148881,piren,vessel_center,-479.96929915538584,-299.99000969213546,2.3211999319096708,0.0006805188486380782,0.0005341301300697277,-0.00582877497245451,0.9999826383399971,-0.00017002344402507956,-0.01593111475508492,-0.009421640767932622,0.0005498104619839951,-0.00028557049797148465,-0.0010255634577006657,0
2025/04/09 08:48:20.742010446,1744181300,738870057,piren,vessel_center,-479.969468243937,-299.98758297275975,2.322960378853989,0.0006625110677023648,0.00015039598918672572,-0.005828743719334142,0.9999827819551625,-0.0004875074015218132,-0.005073415197375357,-0.0022774546473158424,5.405222885359669e-05,-0.00225596420851007,0.0,0
2025/04/09 08:48:20.897475695,1744181300,894497460,piren,vessel_center,-479.9702377045216,-299.9851041673495,2.3248081095263116,-0.03077688571437452,0.000497874405117284,-0.005646207839679053,0.9995102079337821,-0.0020332650502951737,0.0021460049462351206,0.002596848967681701,0.0003173004832271843,-0.0008689904864707308,0.0006043559393935283,0
2025/04/09 08:48:21.83893327,1744181301,80062465,piren,vessel_center,-479.97000970273933,-299.92935533806536,2.3470184478642655,0.00039347086742538915,0.00032094060354111707,-0.005561741730508162,0.9999844044817543,-0.0006121207684828705,0.12508036457829833,0.0507905329568846,0.00015176142095918349,0.0005960756723156505,0.0003676068192666477,0
2025/04/09 08:48:21.247601001,1744181301,238225644,piren,vessel_center,-479.9701902419605,-299.9353099053433,2.3452363850641422,-0.004543145787471293,0.000451888861688928,-0.005560468806357869,0.9999741180697949,-0.0008200089963339423,0.07233891981131849,0.030787334860030664,-0.0010734478935668674,0.0013158608640234835,0.0,0
2025/04/09 08:48:21.406062654,1744181301,394638714,piren,vessel_center,-479.97019992889267,-299.9349801382237,2.3458761356816122,0.031829512626150566,0.00010554570268564292,-0.0055456599612045245,0.9994779220381415,-0.0005669299979673241,0.0488466546528801,0.02189898209123626,0.00029799045311335135,0.0010487488442659752,0.0008032662647841566,0
2025/04/09 08:48:21.556327308,1744181301,551946289,piren,vessel_center,-479.97127333126593,-300.002342233974,2.3159262711145447,0.02692802752296796,-0.0007037728932265213,-0.005516015119304795,0.9996219083306651,-0.002485321694530373,-0.10566650227492544,-0.04687238590744975,-0.0009736710312631013,0.0011992146536013548,0.0,0
2025/04/09 08:48:21.713292470,1744181301,709531537,piren,vessel_center,-479.9734724917319,-300.047098213902,2.296293942184801,-0.025805066063313772,0.0005034542994270706,-0.005454469218462976,0.9996519863756493,-0.0065287057628212065,-0.1692429655455268,-0.07458322646271931,0.002226620190325887,0.00015492910993885825,0.0010175974861632389,0
2025/04/09 08:48:21.869376372,1744181301,865389942,piren,vessel_center,-479.97271179434654,-299.9926977794345,2.3185382974357567,-0.004613042151876774,0.0006028554507348134,-0.005462318598677795,0.9999742594101797,-0.002746501973069914,0.0058804852270898655,-0.0012517164001710768,-0.0009002422951294412,-0.0009039345101598375,0.0,0
2025/04/09 08:48:22.25122905,1744181302,21339856,piren,vessel_center,-479.97201082151025,-299.97792324416855,2.325746500496528,0.0007833654018910406,0.0005686864460687314,-0.0056407246195223516,0.9999836224459578,-0.00026240339179830433,0.036732969205786774,0.015190251383380371,0.0004003463578612992,-0.0016882191934827868,-0.0007128292916174947,0
2025/04/09 08:48:22.181435961,1744181302,176970072,piren,vessel_center,-479.97155366610826,-299.9748338435898,2.328210342401331,0.026713248614605195,0.00020240902235170563,-0.005756006377993674,0.999626545150547,0.000842519624802574,0.031153142418179684,0.015519281578328048,-0.0015275976669703593,-0.0018955833336825785,-0.0006047756661634732,0
2025/04/09 08:48:22.334787385,1744181302,332337076,piren,vessel_center,-479.97211829673967,-300.01656108386624,2.3104395263992124,-0.025784539814498797,0.0004331591831626069,-0.005737605574013994,0.999650963967901,-0.0006998331336490965,-0.07221483826269805,-0.029271408028494143,0.0015529471759149302,-0.00042418126370437413,0.0,0
2025/04/09 08:48:22.491884466,1744181302,488245387,piren,vessel_center,-479.97164340174805,-299.9649295105117,2.33177985187577,-0.0045691722262856845,0.00037591080771850804,-0.005697194352083191,0.9999732613088941,0.0005780791773758237,0.065491470226016,0.02746204750698311,-0.0014460987367732265,0.000835379062106187,-0.0004288672337116474,0
2025/04/09 08:48:22.648356346,1744181302,644766269,piren,vessel_center,-479.97153118581053,-299.954748879747,2.336991072313108,0.0007963431308237044,0.00047137934228864314,-0.005699084741162348,0.9999833318972106,0.000631665018818151,0.06593410004916249,0.029741714836895028,0.00029834282682076344,0.001191092558347467,0.0,0
2025/04/09 08:48:22.811132646,1744181302,803623483,piren,vessel_center,-479.9713651553492,-299.9570279992317,2.3368005788787753,0.026883680436913485,0.0002638782157194293,-0.005739060401782867,0.9996220592204625,0.0007879146442063784,0.03865624878144471,0.01929888589598896,-0.0011577094445257019,0.0014245717424586535,-0.00042244488164625276,0
2025/04/09 08:48:22.966461388,1744181302,963183516,piren,vessel_center,-479.97198596578977,-300.0030711931932,2.316688905255781,0.0006894676531613668,0.00045369896043901374,-0.0057301236378365554,0.9999832420969381,-0.0009336138247818752,-0.08044288253513487,-0.033770685047657165,0.0007937041687489414,0.0006129175549376274,0.0,0
2025/04/09 08:48:23.128202576,1744181303,123457375,piren,vessel_center,-479.9721092961431,-300.0018040294338,2.317698950252657,0.00019204447624506267,0.0004201039426634757,-0.0057465434836289665,0.9999833817967113,-0.0008910424901842788,-0.05034057882567114,-0.02007090233036237,0.000656661018795251,-0.00034119536038982316,-0.0003204518989029559,0
2025/04/09 08:48:23.294742322,1744181303,283316819,piren,vessel_center,-479.97229664941136,-299.99737501352854,2.3200363326074935,-0.030780594886486923,0.0007046095355038762,-0.005761000808835199,0.9995093143005307,-0.0010057325222079243,-0.02344885144420888,-0.0080787779322403,0.0008914223705800189,-0.0014205145535473133,-0.0002370100735018778,0
2025/04/09 08:48:23.446918406,1744181303,441449177,piren,vessel_center,-479.97172241849074,-299.939559791253,2.3428456180531607,0.02658114751453508,0.00026978519848841183,-0.005795362286439849,0.9996298232789607,0.0006098278635362502,0.11295619197007933,0.04534026051256674,-0.0012509765946549071,-0.0015327721204698834,0.0,0
2025/04/09 08:48:23.641081758,1744181303,637207090,piren,vessel_center,-479.97250870330083,-299.98279376246523,2.324022088541664,-0.0065985050580869885,0.000426826115943634,-0.005809660814109337,0.9999612619455268,-0.0014009209552569672,-0.03188870430749349,-0.0160660975144701,-0.001228274882642883,-0.0005130876740676215,-0.000371456662151205,0
2025/04/09 08:48:23.799499700,1744181303,794901603,piren,vessel_center,-479.9726912077218,-299.9724061469197,2.3291853535973446,0.03177599950779983,1.8926914719850132e-05,-0.005769175566558477,0.9994783650036325,-0.0013376411635364065,0.0018712499490450563,0.000786747102437247,-0.00029669255780383045,0.00040572133375301736,0.000208809493413437,0
2025/04/09 08:48:23.956081604,1744181303,952451469,piren,vessel_center,-479.9739198457233,-300.0317798411628,2.302995185289599,0.026880091711487097,0.00026075882563182033,-0.005764777784805655,0.9996220085669927,-0.003256143747648909,-0.11775670198594498,-0.05196636127626775,-0.001535166784258253,0.0018365588131111414,0.0,0
2025/04/09 08:48:24.115625529,1744181304,111119134,piren,vessel_center,-479.97433862685216,-300.067247623693,2.2875747898418455,-0.025787660311103792,0.0005797070682320437,-0.00567741482583448,0.9996511528909922,-0.0030700655892816,-0.1563640197426136,-0.06848713725504467,0.0019402278906926374,0.001558713357145623,0.00047244632223771206,0
2025/04/09 08:48:24.272481122,1744181304,269421893,piren,vessel_center,-479.97345026007247,-300.0051877507501,2.313183718886217,-0.0036019886239902653,0.0004135514049012185,-0.005698544786203188,0.9999771903601141,-6.141006915649696e-05,0.03423944294663697,0.011500556027864664,-0.0006411971397105713,0.0003567090995858411,-3.45737834158712e-05,0
2025/04/09 08:48:24.432124247,1744181304,426350628,piren,vessel_center,-479.97316345243945,-299.98484019428946,2.3227872904657274,0.015890622935916823,0.00038818949771192353,-0.005707908400128703,0.999857368424776,0.0005953206764842464,0.06868348216903569,0.02922391266155593,0.0005922409640297645,-0.0004543531978914392,0.0,0
2025/04/09 08:48:24.594683058,1744181304,585216767,piren,vessel_center,-479.97310869251226,-300.0009605534549,2.3166328741649416,-0.021532534547597397,0.0005850889949154935,-0.005873060267634565,0.9997507263262765,0.0005172405710708547,0.009805655155878695,0.005738137581417037,0.0034238230064962847,-0.0014199820029810928,-0.001010940831517984,0
2025/04/09 08:48:24.755226769,1744181304,743873283,piren,vessel_center,-479.9720997079239,-299.9543102862003,2.336336983131101,0.010195992888244977,0.00039494672980347495,-0.0058912967086949194,0.999930586775499,0.0025850945899491334,0.11017327190575116,0.04759267254748849,0.00355612894475757,-0.0017229166773129335,0.0,0
2025/04/09 08:48:24.908593233,1744181304,904896662,piren,vessel_center,-479.9709459858541,-299.968384313932,2.3313616003229543,-0.014777518648734994,0.0004914402229724368,-0.00604103440991432,0.9998724365299565,0.00427484334613828,0.04162982956968364,0.020437579242084423,0.005076974415611015,-0.001192963406968304,-0.0014919816051955958,0
2025/04/09 08:48:25.68307777,1744181305,65314704,piren,vessel_center,-479.9668910217553,-299.94108662892984,2.3434203868948726,0.007546793467184681,0.00035193580567974,-0.0060500849116106,0.9999531581639786,0.011440240178671866,0.08431591811163372,0.03840987193131333,0.0029816687429750632,0.0002595916028708658,0.0,0
2025/04/09 08:48:25.228740492,1744181305,223569442,piren,vessel_center,-479.96070274145916,-299.9580827039812,2.3369131621044303,-0.023069332780394695,0.0005629615321990501,-0.006396854913224184,0.9997132434886515,0.0213509047739989,0.018220994461489975,0.011045935587791433,0.0003302091479574132,0.0012660515714373645,-0.0035803880626930715,0
2025/04/09 08:48:25.385599932,1744181305,381969177,piren,vessel_center,-479.9506335963799,-299.9234781850514,2.3507868203163986,0.03520972376681472,0.00022573789707685556,-0.006788003354119261,0.9993568668924685,0.0365825779840633,0.08902935693163301,0.03818232966992738,-0.00434847332230275,0.0016158332450550265,-0.0022723709935276747,0
2025/04/09 08:48:25.544957428,1744181305,539911643,piren,vessel_center,-479.93836555118725,-299.9914531349374,2.3202446544101574,-0.02008468162842804,0.0006793303284089524,-0.006766671091600581,0.9997751528401413,0.05147980195747541,-0.09214553738074725,-0.04260696785833744,-0.003635259057598424,0.0010164050243916401,0.0,0
2025/04/09 08:48:25.700719859,1744181305,697979386,piren,vessel_center,-479.92099763289013,-299.96033902326997,2.333051864370324,0.02308925787325209,-0.000293988354967506,-0.0070854498359442,0.9997082555137434,0.072771855539031,0.0079867094174918,0.0001823360686682221,-0.006033532138588427,0.001175606980866557,-0.004916863238966356,0
2025/04/09 08:48:25.859514801,1744181305,856483274,piren,vessel_center,-479.8983284187844,-300.00280473548383,2.314879133454669,0.02404195370161722,0.00041254960197974823,-0.007103027547484748,0.9996856312184821,0.09054632932893572,-0.08997221135155058,-0.04028832669184616,-0.0035624109679873233,-0.00014655473602347531,0.0,0
2025/04/09 08:48:26.21289186,1744181306,15238276,piren,vessel_center,-479.87596489979273,-300.0416651439269,2.298571708057039,-0.028337698513924665,0.0007292599810027477,-0.008266765109889612,0.9995639567418545,0.10967983085533878,-0.14597385656315934,-0.06293361738298202,0.0008944103988983127,-0.0021072835371057225,-0.011898793213570725,0
2025/04/09 08:48:26.186279143,1744181306,173648632,piren,vessel_center,-479.85287607387755,-299.98345092258944,2.322756766065631,0.03517353684228491,0.00016022048511757475,-0.009157871245020965,0.99933924671738,0.12669359661199442,0.029052784583609825,0.01049686794615283,0.003803099418128245,-0.0023118271469599974,-0.005813488856037893,0
2025/04/09 08:48:26.366231167,1744181306,363419781,piren,vessel_center,-479.823916733202,-300.03604339646347,2.2999796155429757,0.004347165707581593,0.0009183941824047759,-0.00944577979197038,0.9999455164890526,0.1341884368346654,-0.10090621568510838,-0.04485040777290017,0.005318076289964153,-0.0016130736637391778,-0.004674867923904702,0
2025/04/09 08:48:26.524496647,1744181306,520541716,piren,vessel_center,-479.79884297932347,-300.0327425354852,2.30335582460413,0.005531860838413799,0.0003953626052782233,-0.009444330033184319,0.9999400216184464,0.1446953404510622,-0.05956706362649098,-0.022233343654226093,0.0032232451467151643,-0.0003462400335951487,0.0,0
2025/04/09 08:48:26.682477028,1744181306,679699972,piren,vessel_center,-479.7732584447867,-300.02867387840485,2.306831646934677,0.0028063823231116217,0.0003638717688531709,-0.009786713871868713,0.999948104677029,0.15220806414508833,-0.030208946184074797,-0.006925586159314183,0.0001898248422358497,0.0015930058457756934,-0.009129285771561569,0
2025/04/09 08:48:26.842120809,1744181306,837939884,piren,vessel_center,-479.74626175426084,-300.0184385987082,2.312513713409207,-0.003111060822932572,0.000675057901376288,-0.009784638650237005,0.9999470618207097,0.16054171693190247,0.002793046555280246,0.00805356745476153,-0.0024408408273037456,0.0021870081635293245,0.0,0
2025/04/09 08:48:27.1634484,1744181306,996017431,piren,vessel_center,-479.71743346869624,-299.998576310956,2.321715331226704,-0.024267626235317023,0.000987070770181107,-0.010764240047319415,0.9996470572879217,0.17363948118809266,0.046050650668803726,0.02594729265568886,-0.003906987832955526,0.0016334680147992388,-0.011389699348271207,0
2025/04/09 08:48:27.157128524,1744181307,153818266,piren,vessel_center,-479.6752455022505,-299.9442806839458,2.344098830349053,0.008387764531583916,0.0006119924544518316,-0.010790879825833677,0.9999064095124017,0.18942440311097916,0.1460399743815745,0.06404136772406516,-0.00432515293938566,-0.00020153796514030736,0.0,0
2025/04/09 08:48:27.317843317,1744181307,313114742,piren,vessel_center,-479.64113294514965,-299.95636111512414,2.3393705969520244,0.001197846356841466,0.0006105928178143323,-0.01219973361584831,0.9999246765833008,0.20002986638428402,0.06891776985694409,0.03148696950889124,-0.003047604212257123,-0.0013692784150640767,-0.01664931672188291,0
2025/04/09 08:48:27.474377177,1744181307,470954645,piren,vessel_center,-479.6089668296575,-299.96066401128064,2.3380032589119577,-0.026509589503036897,0.0007802829581732764,-0.01336035180259693,0.9995589696574168,0.20876316385083546,0.03773386152647649,0.01857000215243757,0.0015017144079722104,-0.002023963807701903,-0.007916465292007652,0
2025/04/09 08:48:27.633356516,1744181307,629695232,piren,vessel_center,-479.57433461348995,-299.91929597722464,2.354354219218494,0.028129747238825324,-0.0001298754208966336,-0.013380763087137766,0.9995147100627688,0.21528033182062237,0.11693679740642468,0.048641846279830134,0.0020757151385887656,-0.0006502320067022758,0.0,0
2025/04/09 08:48:27.798645747,1744181307,788996454,piren,vessel_center,-479.54265450698756,-299.976739145319,2.3292346582094177,-0.028296437762392414,0.0009009660310019512,-0.013359667458446703,0.9995098894736208,0.21327099751511006,-0.050061866637724634,-0.02354678161262065,0.005650541119445519,0.0005758161929401922,-0.011771929365553878,0
2025/04/09 08:48:27.951520849,1744181307,947904982,piren,vessel_center,-479.5075478493049,-299.9350570783797,2.3457331956552836,-0.018929239659509555,0.0008084587270493129,-0.013369418093739923,0.9997311083187491,0.2192299684025783,0.0595059153467449,0.0210831973452862,0.005069060442096408,0.0008734814728875042,0.0,0
2025/04/09 08:48:28.108867946,1744181308,105051957,piren,vessel_center,-479.4620909282312,-299.9119149170035,2.355386435711305,0.007622274640376119,0.0005467405883617506,-0.014846271157871061,0.999860585400156,0.2253571451010884,0.08518013178641044,0.033410894648825,0.0016434852063988779,0.0013465619283621756,-0.013447387126908274,0
2025/04/09 08:48:28.266551160,1744181308,262932667,piren,vessel_center,-479.4269847415108,-299.9409173712646,2.3440568764931986,0.003275367628089198,0.0004011208962264711,-0.016059990454084034,0.9998655848540554,0.2272391490619156,-0.008056373846011086,-0.003057096845772385,-0.001951150707855462,0.00014289177036715255,-0.009048507452684288,0
2025/04/09 08:48:28.425297416,1744181308,419742873,piren,vessel_center,-479.39090073682974,-299.9613775229305,2.3363841606351103,0.0022919618198908726,0.00040225306932001835,-0.016059700424796753,0.9998683268939716,0.22987884712820228,-0.05077941283225267,-0.01906631775522421,-0.004452951913756688,-0.0004148136821422641,0.0,0
2025/04/09 08:48:28.582429455,1744181308,579201089,piren,vessel_center,-479.3531203686064,-299.9771316257735,2.3306228854861906,-0.004156833888880316,0.00038052412375617597,-0.016421229729909167,0.9998564492703785,0.2363718278544638,-0.06867907249174972,-0.025444965418066803,-0.005476000792679716,-0.0004260839646133432,-0.013655456066127442,0
2025/04/09 08:48:28.740164172,1744181308,737657757,piren,vessel_center,-479.31357407766603,-299.9783288618116,2.3308194748929885,-0.028937199834157098,0.0010840886969578443,-0.01639562801893651,0.9994461699357899,0.24451772064312532,-0.048170004522944176,-0.016423839454756367,-0.0031880881970856203,-0.0005755849819027674,0.0,0
2025/04/09 08:48:28.898939185,1744181308,895957032,piren,vessel_center,-479.27257122466415,-299.9348759541398,2.347948604654832,0.0016103839858777073,0.0006260494370377795,-0.017868397421591613,0.9998388545656268,0.25900581252967636,0.06350086418051465,0.02679292057062027,-0.0007577760016644555,-0.0007667281536590932,-0.016906999423823444,0
2025/04/09 08:48:29.87095681,1744181309,83976302,piren,vessel_center,-479.21839065489513,-299.9465376952729,2.343821825338679,-0.03052754040472254,0.0015122560252237168,-0.02026903573646321,0.9993272479767907,0.26322139077487916,0.00909264174329142,0.005600394381241349,0.0032154366646846688,-0.000853713096580193,-0.008823058026209604,0
2025/04/09 08:48:29.252684040,1744181309,243807211,piren,vessel_center,-479.1764001039668,-299.9068698100671,2.3592597318488786,-0.030406689505341235,0.0010942872587435299,-0.020281299803282506,0.9993312286959767,0.26749692593125474,0.09417886240862602,0.03801666984228616,0.004898857282125905,-0.00012505413638556822,0.0,0
2025/04/09 08:48:29.413207936,1744181309,402792826,piren,vessel_center,-479.1358317826297,-299.8734087765738,2.372186237798988,0.030421554130887617,-0.0002044811524612152,-0.02047585430447215,0.999327387107059,0.2680478623587533,0.13699417937768915,0.054009524012165126,0.003754767720282444,0.0010816054810448429,-0.018301018077898176,0
2025/04/09 08:48:29.569571106,1744181309,565414426,piren,vessel_center,-479.0855083370188,-299.94495478492234,2.3411513316670955,0.0026009418198296077,0.0004762020497330039,-0.020473438010905908,0.9997869006289647,0.2585671175851985,-0.08406031500348912,-0.03942707546799761,0.00190500887815902,0.0008759528799150751,0.0,0
2025/04/09 08:48:29.728047826,1744181309,724587617,piren,vessel_center,-479.047233069852,-299.970195157957,2.3317354534464063,-0.0010695038149673335,0.0004464067629091808,-0.022886302091701102,0.9997374025508695,0.2621619030462625,-0.11368483876321955,-0.047934799061408045,-0.002140401452796513,0.0004896588855911687,-0.0310315606002428,0
2025/04/09 08:48:29.888155149,1744181309,883914222,piren,vessel_center,-479.00587658401093,-299.98372556796323,2.327129240747151,0.024052698583529788,-0.00017210415301453243,-0.02539364857697566,0.9993881131387142,0.2638051757392077,-0.10457922352284152,-0.04164548136952179,-0.0054341705823544,0.0004901107893862809,-0.013190333188116153,0
2025/04/09 08:48:30.46587679,1744181310,43637921,piren,vessel_center,-478.9682714744202,-300.0324946950146,2.306465913461965,-0.00730974348969249,0.0007540987911922763,-0.025385745899780997,0.9996507204470169,0.2626816054744722,-0.17938849289412212,-0.07419738040226244,-0.004671432677833586,0.0001399760934633807,0.0,0
2025/04/09 08:48:30.207632464,1744181310,203971656,piren,vessel_center,-478.9093459318382,-300.0254926638866,2.310322281337972,0.00025973955787834615,0.0007827286108776629,-0.026070209111305965,0.9996597741572762,0.27478418936916565,-0.08266041267238473,-0.03205536882498238,-0.0033142309083409706,-0.0011964841711947624,-0.023262660529794966,0
2025/04/09 08:48:30.367101856,1744181310,363547975,piren,vessel_center,-478.8636318672501,-300.0186596493367,2.3141317381941504,-0.0012943998394012118,0.0008022879796020649,-0.026068676916168727,0.9996589943310139,0.28395206039754156,-0.03966938824923968,-0.012806354592571283,-0.001016386343222401,-0.0015694942845268407,0.0,0
2025/04/09 08:48:30.528674442,1744181310,522373235,piren,vessel_center,-478.8172524916302,-300.0078270041857,2.3195183154452264,-0.012125439221480783,0.0010194231906733384,-0.028950107421114143,0.999506791262746,0.291200249041276,-0.0022065424735043457,0.0034870300158757854,0.003148922390180138,-0.0015531125459442043,-0.03979565803039445,0
2025/04/09 08:48:30.686816150,1744181310,682507690,piren,vessel_center,-478.7723626694348,-299.97907522540135,2.331906354893632,-0.015583191818545276,0.001038498037278328,-0.03224088423224943,0.9993580995011226,0.29347713163069783,0.06243390704671615,0.029852391370386026,0.004459496178533323,-0.000717444192805702,-0.019804500974653663,0
2025/04/09 08:48:30.846105031,1744181310,842087823,piren,vessel_center,-478.7293147699714,-299.9483367034604,2.3446720636829643,-0.002551030736048508,0.0007128938493620155,-0.032251807485354105,0.9994762653202282,0.28991118279705,0.10963796596383904,0.04812947234986209,0.003475180005826537,0.0009470346027802152,0.0,0
2025/04/09 08:48:31.12164359,1744181311,4591619,piren,vessel_center,-478.6745371885426,-299.9428547580273,2.3471144506391375,-0.002046369625464469,0.0007306378306170609,-0.0334009665520533,0.9994396700016991,0.28751318861172875,0.07472768932652829,0.03288448519303342,0.0012203371098160503,0.0017981006581213545,-0.033905583511522584,0
2025/04/09 08:48:31.175175165,1744181311,165900674,piren,vessel_center,-478.63132563478825,-299.94611130472754,2.3455799707977607,0.030416084551612363,-0.0005554963436819919,-0.036396689429027594,0.9988742834926567,0.286951831089209,0.04238216061576199,0.018425197466628497,-0.0014798834438500528,0.00148289477064359,-0.02228363064688134,0
2025/04/09 08:48:31.339335032,1744181311,327009612,piren,vessel_center,-478.5923463367984,-300.00460318958403,2.3188817165750604,0.0003728177097121807,0.0005468341763072719,-0.03639689892925893,0.9993371942080772,0.2760985676890414,-0.10201154728847509,-0.047169906529415696,-0.0032566991952274853,0.0007714627156674165,0.0,0
2025/04/09 08:48:31.493888860,1744181311,488746437,piren,vessel_center,-478.54732134496874,-300.0064230888485,2.3180488265313044,0.02098990111681017,-8.214526911454755e-05,-0.037515876152863684,0.9990755608760252,0.2829224515937767,-0.07160454417680706,-0.03309060353130705,-0.005411526221770724,-1.3725755435314267e-05,-0.03523703889116272,0
2025/04/09 08:48:31.687719387,1744181311,684941791,piren,vessel_center,-478.48997354146104,-300.04078782240725,2.3028199475221935,0.01660364151695037,-0.00016120445139416358,-0.04249552088045588,0.998958669718923,0.28948601922311357,-0.11738742775623871,-0.05279884694695377,-0.003813348016600872,-0.0013667605006516717,-0.02048965498786414,0
2025/04/09 08:48:31.848116093,1744181311,844444405,piren,vessel_center,-478.445126764913,-300.05839957204034,2.2952322360190838,-9.181578783589875e-05,0.0006403289728980891,-0.0424922290263643,0.9990965879338386,0.2889569258381471,-0.11589770166283382,-0.051387021761372165,-0.0010137214569626103,-0.0019835779687384187,0.0,0
2025/04/09 08:48:32.9819514,1744181312,4033083,piren,vessel_center,-478.39760292589017,-300.04157866902904,2.3028771450826,-0.0002527062363497069,0.0008075977200351361,-0.04353748411577889,0.9990514358141673,0.2978509319848854,-0.03971748809058194,-0.017194852711240584,0.0015197535270320894,-0.00098171418941243,-0.0423401597133629,0
2025/04/09 08:48:32.166744606,1744181312,163260582,piren,vessel_center,-478.33435864603973,-300.02441557101605,2.310624180308206,-0.0003062203402001102,0.000709656414947469,-0.04353746953995248,0.999051495851407,0.3050439851575902,0.01620990130441019,0.007721430407396909,0.0036851019468053274,-0.0001733630465426121,0.0,0
2025/04/09 08:48:32.325821760,1744181312,322180978,piren,vessel_center,-478.2877137697125,-300.00651954468304,2.318536192222234,-0.0004178213788747802,0.0006787134552199174,-0.04943723098953196,0.998776914513661,0.3123638380472584,0.050863984080752156,0.022867089466587828,0.003587831444641846,0.000650632312347624,-0.0743880375322263,0
2025/04/09 08:48:32.485934194,1744181312,482666708,piren,vessel_center,-478.24233821388475,-299.9907153254261,2.325189591102404,-4.749252607571532e-05,0.000551951950145921,-0.0553446086117996,0.9984671588946287,0.3083028645831746,0.06890527816281097,0.029973988003784754,0.0021291516045653085,0.0011931995164113705,-0.03283337448938204,0
2025/04/09 08:48:32.649945984,1744181312,643654807,piren,vessel_center,-478.20025238097384,-299.9785488197634,2.329892644828633,-0.006402421833558749,0.0008588792315677559,-0.05534220521236712,0.9984465492170139,0.2976287076266999,0.07265433830616563,0.03029492270926822,0.00032010114315276356,0.0019797140171113354,0.0,0
2025/04/09 08:48:32.808846339,1744181312,805273232,piren,vessel_center,-478.1553038485425,-299.95938636475233,2.3373123012574393,0.010078702558851267,0.0002988322771997238,-0.055076431314413386,0.9984312280611365,0.29753485434539473,0.09083328968727107,0.03660698931871023,-0.0030291513031966972,0.0012182908529143116,-0.052580965690205754,0
2025/04/09 08:48:32.969620254,1744181312,966394218,piren,vessel_center,-478.0940200952591,-299.9695713353572,2.3322479550228374,0.02650419028729228,-0.0008239770210882759,-0.05507206185259527,0.9981302104246659,0.29853220288600824,0.02691932904404018,0.008715921067313899,-0.005620369696602329,-0.0007195284367137389,0.0,0
2025/04/09 08:48:33.130997618,1744181313,126884655,piren,vessel_center,-478.0514273004301,-300.012538116368,2.31245014046354,0.029284966453729414,-0.001386054953946642,-0.06204093066828827,0.997642918339664,0.29911234164610506,-0.07706127448527661,-0.038033031405138126,-0.004090628914182197,-0.0016753354856842055,-0.08989922637291727,0
2025/04/09 08:48:33.289760883,1744181313,286591243,piren,vessel_center,-478.0100420581624,-300.05390081098545,2.293052122792052,-0.02597263530506123,0.002382077750564972,-0.06913171849341225,0.9972665408099523,0.2897931875816539,-0.14290078072362994,-0.06826876379217844,0.0005041953705542275,-0.0013491109256125488,-0.038634157573717305,0
2025/04/09 08:48:33.450276528,1744181313,446793805,piren,vessel_center,-477.958444035618,-299.99432452067276,2.3167569520813793,-0.031521062835682484,0.00206511701040891,-0.06914023914910487,0.997106707037841,0.3049682421501075,0.03858004909357113,0.007858509493998855,0.0014991376472487778,0.0001299583056437857,0.0,0
2025/04/09 08:48:33.610969576,1744181313,607967652,piren,vessel_center,-477.8926527083532,-299.92722281283085,2.3429795938215774,0.0244344344505774,-0.0007522335633567915,-0.06999905771805004,0.9972474740385817,0.3208970593513186,0.17122305204447946,0.06277762866202038,0.001477032379469168,0.0012181959002719731,-0.06296380673867585,0
2025/04/09 08:48:33.772157111,1744181313,769149355,piren,vessel_center,-477.85125154330666,-299.96557597483684,2.326214425302474,-0.00025369200192318966,0.0006735731917417812,-0.07614795151405852,0.9970962698855793,0.3055056624242298,0.028673484317733144,0.0045048601720338866,0.0034685810658391858,0.0002989011135791934,-0.04519802572109383,0
2025/04/09 08:48:33.934072230,1744181313,929541271,piren,vessel_center,-477.8071025179247,-299.96216003927265,2.328227961256579,-0.02764951944441554,0.0024128012868569995,-0.07611067291560726,0.9967130218537212,0.3004256653227913,0.026579415247397608,0.007458091824247148,0.0032047421570229567,3.632507401265954e-05,0.0,0
2025/04/09 08:48:34.93183621,1744181314,89376664,piren,vessel_center,-477.75461764189976,-299.91370016225903,2.3477718686223166,-0.001996489222629353,0.0005715553476902583,-0.07871755524812031,0.9968947957788864,0.31563601059697255,0.1253046591942169,0.048375229368744145,-0.0006082065283299083,0.0008284234802797383,-0.07038358054177925,0
2025/04/09 08:48:34.258246520,1744181314,250691089,piren,vessel_center,-477.70934790434643,-299.915651007323,2.3475001440630416,0.030890857870466845,-0.002241236659249556,-0.07868438116788315,0.9964183358000249,0.3096493348690729,0.07865033162943325,0.03143377131238907,-0.0028614574677412433,0.0005357552199720638,0.0,0
2025/04/09 08:48:34.454782240,1744181314,448942479,piren,vessel_center,-477.6565152905659,-299.9728726112965,2.3217786872590502,-0.0059259218507860265,0.0004541630498893696,-0.08698311241604724,0.9961920574570747,0.29310266802308443,-0.08255117341732296,-0.039331321205307995,-0.005681595383200492,0.0007304698532294878,-0.07798850925919734,0
2025/04/09 08:48:34.615004972,1744181314,611643871,piren,vessel_center,-477.59510969242535,-299.96816885054477,2.323733581536851,-0.004404216160534486,0.0001238023861825877,-0.09493112629549677,0.9954740924872173,0.29717365446490485,-0.03479744733899646,-0.01721536485126016,-0.003810032674834833,0.0008241301447612821,-0.049839771292127945,0
2025/04/09 08:48:34.776077503,1744181314,773138224,piren,vessel_center,-477.55377060846956,-299.9589376054582,2.3273788139636724,0.0017951428694035498,2.8777949303382934e-05,-0.09549043226400324,0.9954287287294565,0.2893374936592864,-0.002602295268888735,-0.0033362119496739943,-0.001267931171259791,0.0009421134421088832,-0.05088486972725386,0
2025/04/09 08:48:34.938215614,1744181314,934499964,piren,vessel_center,-477.51258357539444,-299.95989993380084,2.326740554023697,0.02949935275296467,-0.002959557023538407,-0.09544748050739013,0.9949928681524165,0.28322666343133285,-0.0038631369741321,-0.0036288890650443043,0.0019488256767485868,-0.0006779345063744134,0.0,0
2025/04/09 08:48:35.98845045,1744181315,95505844,piren,vessel_center,-477.48171367050037,-300.0056266055279,2.3053082746008,-0.02599277309068543,0.0024524075423712224,-0.09924862623109693,0.9947200971306162,0.2623140552611404,-0.10426797379723178,-0.050114362118897304,0.004887529971645389,-0.0020144099722208117,-0.07913898902415122,0
2025/04/09 08:48:35.258678381,1744181315,255779883,piren,vessel_center,-477.41726724985375,-299.9559341273093,2.3247821607288626,-0.007179412232174629,0.0006479028440258918,-0.09927401350784741,0.9950340227871353,0.2857480113800194,0.053790289756989615,0.01605252934517054,0.0029454932749305306,-0.001844653431006066,0.0,0
2025/04/09 08:48:35.421683505,1744181315,418102457,piren,vessel_center,-477.3740239991419,-299.9363556142736,2.333193767015729,-0.013767360741690875,0.001058692200126446,-0.10669531148208745,0.9941958808287097,0.2853317336483543,0.07913376684409773,0.029325035457605605,0.0021647364152843278,-0.0003195007217003978,-0.09892029071438094,0
2025/04/09 08:48:35.583245455,1744181315,579557687,piren,vessel_center,-477.3362989944964,-299.9091383770013,2.3441043308668497,0.019046711010492663,0.002202276184325011,-0.11320281504341381,0.9933868810516563,0.2781723951892219,0.11438394391439065,0.04422032181836215,-0.002061508105315945,-0.000684738597473426,-0.04245115591869549,0
2025/04/09 08:48:35.745487594,1744181315,740877115,piren,vessel_center,-477.30478628193777,-299.94080400494437,2.329719981878102,-0.016753932208807717,0.00015816925996331031,-0.1131522399219926,0.9934363851493782,0.25175136566149386,0.004343831395545172,-0.003082526014692985,-0.0005026349671157793,-0.0014235486013111222,0.0,0
2025/04/09 08:48:35.912942667,1744181315,904528916,piren,vessel_center,-477.2588717325165,-299.9113012638599,2.3406632920821524,-0.0034371681149691267,-0.0016646561502195382,-0.11079138527515807,0.9938363465601681,0.24550367604142603,0.06804500928451522,0.022564900213589922,-0.002602586800756759,-0.0006553084635861209,-0.047948874087095486,0
2025/04/09 08:48:36.73448184,1744181316,67648708,piren,vessel_center,-477.2265797878604,-299.90741446159706,2.3413112248458052,0.013220403888682461,-0.0024063683144849917,-0.11359510453904739,0.9934362498607135,0.2325329760131809,0.05319549279952331,0.016215786317452796,-0.0028799705380556733,0.003878893168797475,-0.02165649168948888,0
2025/04/09 08:48:36.231787903,1744181316,229171619,piren,vessel_center,-477.2010339332809,-299.9318831280101,2.329102282550343,-0.0030783482143096163,-0.0003076429993823728,-0.11362103931305073,0.9935193448310298,0.21084107073315872,-0.019139604342626286,-0.016391860521063957,0.0005599553111338135,0.0052869576791511495,0.0,0
2025/04/09 08:48:36.395005237,1744181316,390683254,piren,vessel_center,-477.16833888057596,-299.9261255463903,2.3299521658163047,-0.032000456239733376,0.0030460293922430007,-0.11199291789827737,0.9931889441823345,0.2129886068111319,8.215962561768791e-05,-0.009011231734589838,0.0028637648113620773,0.00432965896711091,-0.02598353867891949,0
2025/04/09 08:48:36.556603253,1744181316,553119381,piren,vessel_center,-477.1144303859136,-299.87067446881207,2.3496772235145587,0.005213593321075528,-0.0008830479750699335,-0.11202956648777067,0.9936908044776898,0.24189964597967453,0.12328411873040782,0.03867238851256012,0.0031728307767769485,0.0003021148055544556,0.0,0
2025/04/09 08:48:36.717750229,1744181316,714005289,piren,vessel_center,-477.0859388876102,-299.8843449128353,2.3426126995194534,0.0169624223207397,-0.00314950703290619,-0.1134036022894294,0.9933992046615719,0.22329126316039954,0.05114742433042953,0.009874018331213468,0.0034079042411281346,-0.0030868538345878234,-0.025461209046201198,0
2025/04/09 08:48:36.879172688,1744181316,876208656,piren,vessel_center,-477.0668931045718,-299.918678278043,2.3264462518697195,-0.014210602635704036,0.0009695510079246177,-0.11477096935865953,0.993289858669687,0.190875077121109,-0.042276457710704235,-0.029359721035925535,0.002047784364497043,-0.005631207950392845,-0.0077566535033112465,0
2025/04/09 08:48:37.80724018,1744181317,71750838,piren,vessel_center,-477.02692967408484,-299.89969026068314,2.333573843961959,0.01972970842564219,-0.003942624979642597,-0.11353563396788921,0.993330183842824,0.19395438398855738,0.01891226919701726,-0.00033164135323317245,-0.0016380370844276016,-0.004138959760732115,-0.003067402428519384,0
2025/04/09 08:48:37.237100020,1744181317,233910142,piren,vessel_center,-477.0115420635953,-299.93555299043965,2.3175055871171772,0.023127846355706118,-0.004045104191375278,-0.11353078501736932,0.9932570164405423,0.16273085700586315,-0.06717060403739164,-0.03593091182629989,-0.0024402984313242823,-0.0007064738323272613,0.0,0
2025/04/09 08:48:37.400851896,1744181317,396681377,piren,vessel_center,-476.9963114923308,-299.9715674496046,2.3011679809667567,0.006227428477163111,-0.002046081849599945,-0.11252877775406821,0.993626844877292,0.14210078700616585,-0.1247239841338793,-0.060211648515107526,-0.003169055084143015,0.002635371205212353,-0.0005004828803160906,0
2025/04/09 08:48:37.563161840,1744181317,559181988,piren,vessel_center,-476.9656398325217,-299.97458760282814,2.2995519080203826,-0.0025097258193341834,-0.0007534806779311705,-0.1125442393697777,0.993643259790886,0.14947404476383788,-0.07807270377270437,-0.03804163880515857,-0.0013974315482006955,0.005350789999581088,0.0,0
2025/04/09 08:48:37.724228831,1744181317,721668901,piren,vessel_center,-476.9368850186191,-299.9531391354105,2.3084953966463324,-0.0006325292771791812,-0.0005454016466142787,-0.11153282169777454,0.9937603997583572,0.16294271016026876,-0.004060315048718288,-0.005328706991331686,0.0006648753076939521,0.003937572744265453,0.007396912976518552,0
2025/04/09 08:48:37.887647683,1744181317,884237955,piren,vessel_center,-476.9089514015314,-299.93467352759137,2.3161197027815303,-0.004415930556926385,-0.00011896742621041245,-0.11053091310759096,0.9938628691382279,0.17043565712274364,0.03833819641536171,0.013400838680239259,0.0011256112907639191,0.00032351154131623285,0.0061924449017296546,0
2025/04/09 08:48:38.51026678,1744181318,46576872,piren,vessel_center,-476.8811663623279,-299.91231405013986,2.325456867679277,0.009083250085162451,-0.0018596111395028318,-0.11052173586768563,0.9938304595428205,0.17466676960966657,0.07509291288824929,0.029629849642874018,0.0026311085828571805,-0.003501764851710729,0.0,0
2025/04/09 08:48:38.211528833,1744181318,208468411,piren,vessel_center,-476.85418839724366,-299.91432802030636,2.324290761179864,-0.033701354070909545,0.002664571994159709,-0.10905860087835442,0.9934602862542272,0.15635056890487253,0.036964688493936,0.01375983607861785,0.002553350837712513,-0.0044028398244417,0.01372183442318613,0
2025/04/09 08:48:38.377216740,1744181318,371841258,piren,vessel_center,-476.8216591871268,-299.8508353101363,2.349464501216673,0.004618809752464941,-0.002554010913007182,-0.10753717548312737,0.9941870545897477,0.17615618452528,0.16566233606595263,0.06508697935017765,0.0022143487713092457,-0.0022154553361585613,0.011571506613601356,0
2025/04/09 08:48:38.541927559,1744181318,535896485,piren,vessel_center,-476.80782780541887,-299.8619105529306,2.3450979870998263,-0.002951978462112646,-0.0006455413914693395,-0.10755122692300861,0.9941949520525774,0.14953279293072233,0.0871022146787712,0.03418782762693128,-0.0004902079037284249,0.0010282025215912224,0.0,0
2025/04/09 08:48:38.706587618,1744181318,699583529,piren,vessel_center,-476.7901659820521,-299.86329788449103,2.344967953370529,0.021931508458298492,-0.0034149014158051253,-0.10633377791912127,0.9940827304900287,0.13852552964708598,0.05474313900235787,0.022408001422252626,-0.003164270231052298,0.002664570212334725,0.02022862054250373,0
2025/04/09 08:48:38.870699564,1744181318,863930448,piren,vessel_center,-476.77515709882204,-299.90537784897117,2.3260961927561836,-0.005697084738878817,-0.0008646545412798727,-0.10639495288904104,0.9943072511038734,0.10965974028549685,-0.06338075645112409,-0.029604879715780165,-0.002921259157233621,0.0046302240814223485,0.0,0
2025/04/09 08:48:39.30497976,1744181319,27134183,piren,vessel_center,-476.7578326296733,-299.89959381807364,2.328483052668117,-0.0009527281496728083,-0.00034146168819046413,-0.10360279946553537,0.9946182361368067,0.1111883598590794,-0.02915425607088734,-0.01431756735319636,-0.0009205665537702539,0.002552486649599657,0.032840607357674675,0
2025/04/09 08:48:39.191905027,1744181319,188343617,piren,vessel_center,-476.7391113507832,-299.9007882620042,2.328285773484497,-0.02105272036350325,0.001798232847174952,-0.1010672400240708,0.9946551977031238,0.11552156340849257,-0.022031417522429975,-0.009953925709984171,0.0007781013720171868,-0.000181780615605534,0.01627743443431254,0
2025/04/09 08:48:39.356289408,1744181319,353402502,piren,vessel_center,-476.7081952007568,-299.8688810960844,2.3417560923565057,0.006110721059045445,-0.0009246485764720572,-0.1010838411348865,0.9948587141773277,0.13489333191923839,0.058288876337656184,0.024233899470694112,0.0018401730977121455,-0.004193236418227805,0.0,0
2025/04/09 08:48:39.553271916,1744181319,549902483,piren,vessel_center,-476.69386169292574,-299.88594857307817,2.3355230587077376,-0.03145246460026514,0.0027645809737102812,-0.10028375100932779,0.9944577763012907,0.12043949189769597,0.00034543427891578493,0.0020613129051398164,0.002984824275790339,-0.004796383277037514,0.0337391161431389,0
2025/04/09 08:48:39.719902478,1744181319,714693490,piren,vessel_center,-476.6633774132463,-299.8409900582491,2.354277958466748,-0.029954200870438808,0.002376009829925056,-0.09720916524663921,0.9948102726749223,0.13409824775162638,0.10011350157819862,0.042819470744901986,0.0028676988562726722,-0.002236341495923362,0.016144408237206035,0
2025/04/09 08:48:39.884509195,1744181319,879339008,piren,vessel_center,-476.64083371627623,-299.80581551982084,2.369236973214768,-0.029664241617262235,0.002492628218251392,-0.0977462234083823,0.9947660505783443,0.13923325756613852,0.1447170519481918,0.0617068849742104,0.0018094515476479599,0.0010590060603652464,0.016113171905470285,0
2025/04/09 08:48:40.47203711,1744181320,43992076,piren,vessel_center,-476.6221192198242,-299.7803127658869,2.380110599347976,0.023540062821699233,-0.002621198819833075,-0.09773297471469791,0.994930781719268,0.1369435584048006,0.15578555142305986,0.06642497730354613,-0.001392551723071396,0.002834230286770098,0.0,0
2025/04/09 08:48:40.212842617,1744181320,208751603,piren,vessel_center,-476.61577411414873,-299.8450681813688,2.35309598251706,-0.0016924268351578696,2.9678167970569443e-05,-0.09569162918224418,0.9954095875141358,0.08963999905649875,-0.05803499397234163,-0.02341978427798956,-0.0018519799809059295,0.003517069231268791,0.025415216370165004,0
2025/04/09 08:48:40.376786260,1744181320,373286004,piren,vessel_center,-476.6058892530337,-299.87122376212903,2.3437443459888248,-0.006823623177079054,0.00025817915847546824,-0.09351070443684865,0.9955948571914098,0.08157102774671333,-0.09689826953785968,-0.03641752066281825,-0.001341358007605719,0.00200035665867935,0.01722648048162225,0
2025/04/09 08:48:40.541325978,1744181320,537372914,piren,vessel_center,-476.59265989090926,-299.8840920321523,2.339956609798621,-0.027539722924524706,0.0020188806479508247,-0.09349298411400765,0.9952369314407639,0.08337161066842785,-0.0927092574143896,-0.03251243176607623,0.0004000803275205059,0.0006696310519036747,0.0,0
2025/04/09 08:48:40.705775981,1744181320,700798353,piren,vessel_center,-476.5731199208711,-299.8579044905467,2.3513155920873685,-0.003910542638967744,-3.58264599747629e-06,-0.09302189827275924,0.9956563835406098,0.0987560297063283,-0.003321740010005403,0.003669573552596006,-0.0008186268918040834,-0.0019643246569791433,0.02453930855303763,0
2025/04/09 08:48:40.868489595,1744181320,864570042,piren,vessel_center,-476.5569271750047,-299.8740298165211,2.3468255313592934,-0.028432362826244735,0.0020393706374365536,-0.09297651305089658,0.995260171880909,0.09029413909711369,-0.037664845682320175,-0.007961166796018304,0.0028044725149507957,-0.004230314761978621,0.0,0
2025/04/09 08:48:41.32634003,1744181321,29081855,piren,vessel_center,-476.53959321754087,-299.8476540690489,2.3586731815131423,0.0007208818042268479,-5.630859821023877e-05,-0.09027368965223169,0.9959167325210169,0.1001441289490231,0.03291981540423902,0.020899790090387782,0.002003095259154105,-0.004284140374299508,0.03755222953453636,0
2025/04/09 08:48:41.196036702,1744181321,193250508,piren,vessel_center,-476.528979510772,-299.8746604204235,2.349865406784851,-0.0014212999287872999,-0.00011819581434501555,-0.08742023728523608,0.9961705014952285,0.09009158334379211,-0.03816206031656266,-0.0056969083972674625,0.0014023300866467154,-0.0015004957616576626,0.01599625596894271,0
2025/04/09 08:48:41.370200943,1744181321,356807236,piren,vessel_center,-476.51189363530506,-299.8979214408266,2.342956253752141,0.02957960529827079,-0.0032494073778242425,-0.08734650913058861,0.9957334360383765,0.08733106515242073,-0.07260529300719981,-0.018476764802040434,-0.00013606474964117742,0.002563948814504892,0.0,0
2025/04/09 08:48:41.535206835,1744181321,522597644,piren,vessel_center,-476.5094109114635,-299.96563978603916,2.314239967877395,-0.03104086969589752,0.003177319916952208,-0.08724355717090423,0.9956982127024407,0.06504017909046526,-0.1999879943990433,-0.07641444618530285,-0.0003743293455040264,0.0039191515205016045,0.03418482206086729,0
2025/04/09 08:48:41.691212526,1744181321,687313993,piren,vessel_center,-476.4847243978482,-299.92180033028944,2.3327642998511653,-0.002470938248555376,0.0005021607489284706,-0.0845084433617457,0.996419572920629,0.09806951456880598,-0.0352502746040497,-0.00952499822904293,-0.0022420944915318188,0.003215070167704761,0.015403599890992596,0
2025/04/09 08:48:41.853399880,1744181321,849652683,piren,vessel_center,-476.4672250003832,-299.9269048575742,2.3325879942705994,-0.025234343510952773,0.0021174829556623686,-0.08448661546725336,0.9961027838433101,0.10375665335213854,-0.03465979199286237,-0.006691860608430028,-0.002803582415760655,0.0009638454582516232,0.0,0
2025/04/09 08:48:42.47395426,1744181322,43830241,piren,vessel_center,-476.43933001054387,-299.8947010114312,2.347486235605307,0.015803008536148824,-0.0007208091561446472,-0.0842547109870567,0.9963186684148072,0.11925628850003706,0.05244498623997089,0.029418122852370845,-0.001983235680543198,-0.0030921935498298453,0.023246711051158064,0
2025/04/09 08:48:42.213290229,1744181322,207351229,piren,vessel_center,-476.4236853048983,-299.93374123739034,2.3333503163521456,0.02613078268308811,-0.0017062954510143511,-0.08192140281307936,0.9962947126796069,0.10233061955609629,-0.05705867254741831,-0.014752323896086487,-6.0573400265069533e-05,-0.0038404847638831823,0.015494053939801735,0
2025/04/09 08:48:42.377480035,1744181322,372743335,piren,vessel_center,-476.4149201108054,-299.9894667811296,2.311189943165547,0.026869759820593146,-0.0019842339693987516,-0.08156496956454849,0.996303786283417,0.08729807175473071,-0.161664800144035,-0.059028366434372245,-2.7435389365811986e-05,-0.0023823302829035055,0.01586279863697378,0
2025/04/09 08:48:42.541436855,1744181322,536923949,piren,vessel_center,-476.405956219408,-300.03775498824064,2.2920635643654492,0.03238720840459335,-0.0022237713583692525,-0.08155395516696062,0.9961400885263721,0.07755356024517825,-0.21404732790183484,-0.0814773771515675,0.001888225522560702,0.0011432671111898743,0.0,0
2025/04/09 08:48:42.705946560,1744181322,702693588,piren,vessel_center,-476.39701929649755,-300.08320850768433,2.2732889744330094,-0.016600576627429413,0.0013904915607484253,-0.08035640034717835,0.9966269795224794,0.07133074118328296,-0.24307474820379835,-0.0957997946757583,0.0012051976831928164,0.003871840891809092,0.023343747652576678,0
2025/04/09 08:48:42.872036072,1744181322,867357420,piren,vessel_center,-476.36866683815435,-300.0430235179247,2.2925543506026393,0.027272318411080496,-0.0009808173313188846,-0.08035689559934682,0.9963925069848142,0.10234703117716891,-0.04472552047500328,-0.010008742318870029,-0.0012664817362993367,0.002660639102042188,0.0,0
2025/04/09 08:48:43.35183140,1744181323,32246385,piren,vessel_center,-476.3538133693268,-300.06384722246764,2.2846825963008026,0.00011015870807123843,0.0011270705090676843,-0.07785241138253557,0.9969642519263423,0.10082694258353514,-0.07591605290758677,-0.024126877350199288,-0.0009193364105029318,0.0003938740488447723,0.03237198574637593,0
2025/04/09 08:48:43.199270935,1744181323,196152861,piren,vessel_center,-476.3302404151582,-300.0367237184803,2.298800776579377,0.0001861638217115434,0.0010171768734424194,-0.07549600245619924,0.9971455682634173,0.12164480050655585,0.008145860510194627,0.014809195618731865,-0.0015293131757292942,-0.002783634814083787,0.016136182102988,0
2025/04/09 08:48:43.363900196,1744181323,360594033,piren,vessel_center,-476.2988375839331,-300.0139452871531,2.311867853644162,0.018995734989146536,9.828362728278106e-05,-0.07552383699744698,0.9969630396547978,0.13680101790109803,0.05511332158171201,0.03719973795554843,-0.0009550015868006996,-0.0033014775109574753,0.0,0
2025/04/09 08:48:43.528378901,1744181323,524849249,piren,vessel_center,-476.2787608044542,-300.02762672558714,2.3081190761964154,-0.028488670633507986,0.0027260586184122953,-0.07467398010000936,0.9967972516745659,0.1352191527969808,0.0060925924679398405,0.01630441037874775,0.00023741920920767332,-0.0019243843586726564,0.03309597802554786,0
2025/04/09 08:48:43.703418429,1744181323,690364903,piren,vessel_center,-476.2488152371236,-299.96302138551323,2.336267448898148,0.019536002761787293,-0.0007115611708754076,-0.07212927164714023,0.9972036935593674,0.15649774186731522,0.1476438705797139,0.07340724819260522,-0.00010410493857636782,0.00036277593919200197,0.01550517878055236,0
2025/04/09 08:48:43.863088666,1744181323,855094032,piren,vessel_center,-476.2238541742398,-299.98711134185635,2.3281667806513506,0.006865876218830715,0.0008249620102395855,-0.07213285362549654,0.9973710596409302,0.14325627775615432,0.03990804166455775,0.027592446040703676,0.00023157719261892185,0.0027593696328421175,0.0,0
2025/04/09 08:48:44.23288791,1744181324,20248711,piren,vessel_center,-476.20363044800564,-299.9949425054913,2.3266616457411606,0.0024167181458725085,0.00047372308609484187,-0.07152074110330904,0.9974360724637318,0.13987791389104134,0.009040119497558698,0.01493905305363299,0.0016149555565702035,0.0027983199095384962,0.033793727505869106,0
2025/04/09 08:48:44.186969551,1744181324,184266332,piren,vessel_center,-476.1849542104952,-299.99616877629575,2.3275277434611437,0.01729456000085646,-0.0004070028417232319,-0.06907732410984299,0.9974613054333924,0.13771738873624603,0.0034925103859680534,0.012200139894326157,0.0005911848900688187,0.002276369215794968,0.016652675334947978,0
2025/04/09 08:48:44.355946533,1744181324,350437197,piren,vessel_center,-476.1667561599184,-300.0230604272752,2.3169856252776233,-0.004694012350592793,0.001225925382292179,-0.06906891488714316,0.9976000944022221,0.13162901956716272,-0.057520772591760465,-0.015381590034078484,-0.0011605611624959397,-8.456060893312553e-05,0.0,0
2025/04/09 08:48:44.554624666,1744181324,548988594,piren,vessel_center,-476.1366822994918,-300.0133267162884,2.3229814957219954,0.0029958062113237976,0.0005504555213131476,-0.06860690747560086,0.9976391203188143,0.13915668126392122,-0.009969890385627588,0.004874733362703054,-0.000572757090281958,-0.0023086731582945535,0.023049561757876317,0
2025/04/09 08:48:44.728118754,1744181324,715035966,piren,vessel_center,-476.1082072559888,-300.0157263770048,2.324053675214886,0.001898021521044598,0.0005970371257071914,-0.06629246689563834,0.9977982510978193,0.1397129410624075,-0.010808888657674907,0.005060206142967161,-0.0015745354563964989,-0.0027397002670076884,0.015181675775100911,0
2025/04/09 08:48:44.887045049,1744181324,881723262,piren,vessel_center,-476.0848928365763,-300.016799546789,2.325381077602541,0.00025501321745566074,-0.00013662737920849003,-0.06606387929011101,0.9978153537375339,0.14404503794853557,-0.009520379667264642,0.006290556755045173,-0.0012054183596125858,-0.001377131233930971,0.01602818800700095,0
2025/04/09 08:48:45.50358130,1744181325,46332106,piren,vessel_center,-476.06364120438263,-300.0155431935237,2.3274316380960487,-0.0003609529393695946,0.000644911624001276,-0.06606368101244098,0.9978151351092341,0.14570642525218322,-0.0037163864799819564,0.008857776787254322,-0.0004570447626057684,0.000605186386565785,0.0,0
2025/04/09 08:48:45.216362883,1744181325,211657039,piren,vessel_center,-476.03216880851147,-300.01434243198634,2.329805327113019,-0.023655068814079,0.0022343560534043064,-0.06433902678448088,0.9976451949490128,0.14895207824811227,0.0006540037972629946,0.010078464578629818,0.0018182204226843378,0.002531616966627411,0.022003458782444252,0
2025/04/09 08:48:45.381767417,1744181325,378650129,piren,vessel_center,-476.00320227998986,-299.9744958446031,2.3465189713645724,0.0007943554688299568,0.0007037634705047071,-0.0625619150940766,0.9980405204680461,0.16578524000865402,0.08901112323237641,0.04401006930088975,0.001348745558743232,0.0024735969993785563,0.015881241064470603,0
2025/04/09 08:48:45.547398816,1744181325,544581747,piren,vessel_center,-475.9777726424649,-299.9820192832385,2.344460124834834,0.0026822306086926964,0.0005455903916965248,-0.06256249448076744,0.9980372950217994,0.16454383381005758,0.04128035588955783,0.02410185346602098,0.0020065057668298266,0.0013019825260329962,0.0,0
2025/04/09 08:48:45.714559959,1744181325,711218558,piren,vessel_center,-475.94738581834775,-299.99494706296093,2.3403622545093463,-0.027187081002245272,0.002340921980366993,-0.06118683052976896,0.9977532533049344,0.1615429168850824,-0.005145605428787968,0.004663267222383992,0.0018918108838333516,-0.0008263310602476409,0.024071388294593623,0
2025/04/09 08:48:45.879511053,1744181325,876347666,piren,vessel_center,-475.91717563705254,-299.9597416591521,2.3549729477839723,0.011720437282901302,-6.419743478447307e-05,-0.05923951911087354,0.9981749879675905,0.17460063724379327,0.07482379325028915,0.03557528058848085,-0.0013388380789635793,-0.0019181010809553307,0.01512112147017603,0
2025/04/09 08:48:46.60100139,1744181326,43890917,piren,vessel_center,-475.89431592202584,-299.996043962403,2.341032454810819,-0.006978377608967696,0.0010284873685332896,-0.05922862827724332,0.9982195219750392,0.16585777144819078,-0.031377233713646716,-0.007540649485546065,0.0003461650247039892,-0.0016913432269464528,0.0,0
