time,header_stamp_secs,header_stamp_nsecs,header_frame_id,pose_position_x,pose_position_y,pose_position_z,pose_orientation_x,pose_orientation_y,pose_orientation_z,pose_orientation_w
2025/04/09 08:48:16.60425623,1744181296,59390998,piren,-479.9652066632276,-299.96926254129744,2.329599988343406,-0.030558038440325678,0.0010080053398500025,-0.005615136385829037,0.9995167134446943
2025/04/09 08:48:16.741424007,1744181296,419696087,piren,-479.9642585529631,-299.90595605264997,2.3547634204727745,-0.004563069940332125,0.00036532851973371575,-0.005778980857802935,0.9999728237847454
2025/04/09 08:48:16.768627654,1744181296,575256384,piren,-479.96482114274824,-299.90820838197175,2.354904711944632,0.031802694549249534,0.00012651593244599588,-0.0057513902465691985,0.9994776106163448
2025/04/09 08:48:16.781167305,1744181296,727464378,piren,-479.9660703409589,-299.9753012387947,2.3259153017882475,-0.031050506493961374,0.001548310644559333,-0.005700408019654128,0.9995003622455702
2025/04/09 08:48:17.233509266,1744181297,233171937,piren,-479.96480256085476,-299.94824994030574,2.3357771953149835,0.0006127282844246571,0.0006413944487432552,-0.005495377134764753,0.9999845068836604
2025/04/09 08:48:17.389206181,1744181297,388697539,piren,-479.96461356804576,-299.9512232656956,2.335734683926907,0.026855448200220358,0.0004910288393550234,-0.005661801350386305,0.9996231728997248
2025/04/09 08:48:17.541916369,1744181297,541195624,piren,-479.96530811304405,-299.9996418484139,2.315267228175686,-0.025768340301589646,0.0004897342217579958,-0.005626602056248304,0.999651986517205
2025/04/09 08:48:17.763870846,1744181297,759169003,piren,-479.9654308538989,-299.9521466105442,2.335180120247528,-0.004577316148023437,0.0003936358062621767,-0.0056764266050886416,0.9999733353488632
2025/04/09 08:48:18.30513199,1744181298,14262925,piren,-479.96605494611345,-299.94608461467425,2.3393122470817493,-0.030800657561129256,0.0005341646499513096,-0.00574438925778066,0.9995088974861525
2025/04/09 08:48:18.185427794,1744181298,184794791,piren,-479.96631113181087,-299.8991395286199,2.3587341264422057,-0.025782255340032114,0.0004089441105517637,-0.0057518975661897285,0.9996509509567247
2025/04/09 08:48:18.405240898,1744181298,401690749,piren,-479.9667976830008,-299.8597450139099,2.374993331211497,0.0006064025027228265,0.0012329017847458898,-0.005753979272115508,0.9999825018227719
2025/04/09 08:48:18.558120571,1744181298,557159314,piren,-479.96594452053927,-299.88922528449905,2.3635655453157476,0.02662846581548863,4.6504672027640195e-05,-0.005758034923365479,0.9996288149505547
2025/04/09 08:48:18.713489739,1744181298,713071947,piren,-479.96752689179397,-299.9616662476538,2.332634271960157,-0.025801345866488336,5.21955918397982e-06,-0.005309569969057812,0.9996529892872715
2025/04/09 08:48:18.869676336,1744181298,868413753,piren,-479.9682168938904,-299.9363833218727,2.3427023513174277,-0.004892092383640905,-3.41298520961205e-05,-0.005060100117782419,0.999975230520267
2025/04/09 08:48:19.27908644,1744181299,25747131,piren,-479.96891443865775,-299.94529110269696,2.339795448035398,0.0006627922513576527,-0.0005009315485657151,-0.005059466575067179,0.9999868556996092
2025/04/09 08:48:19.182300874,1744181299,180495543,piren,-479.9703007761744,-299.9610427367328,2.3339344629811705,0.026873005405517996,0.0004182603907264066,-0.00540115386639197,0.9996241764661519
2025/04/09 08:48:19.335796052,1744181299,335350313,piren,-479.9703986781176,-300.01646384446633,2.309940175457334,-0.025783838621730944,0.0006392452446333516,-0.0053716164251697,0.9996529051467948
2025/04/09 08:48:19.492647793,1744181299,490810111,piren,-479.96939426427093,-299.9736610624318,2.3273167641556847,-0.004588658056013386,0.0005085779281485709,-0.005537252655725988,0.9999740118616897
2025/04/09 08:48:19.646218073,1744181299,645848669,piren,-479.96899142020766,-299.9679917796932,2.3306679282640457,0.0007654382040906499,0.00033515303675225373,-0.00554002670504613,0.9999843048172832
2025/04/09 08:48:19.804878687,1744181299,802811007,piren,-479.9689795267962,-299.97193142798153,2.330146570201958,0.02658797756423348,0.00020647722883596206,-0.005649464775029893,0.9996304919138639
2025/04/09 08:48:19.968513928,1744181299,962167884,piren,-479.9695667581268,-300.01826195504583,2.3102596714892356,0.0006666588625743578,0.00043246713316850944,-0.0057407777094055255,0.9999832058636939
2025/04/09 08:48:20.118797063,1744181300,118361672,piren,-479.96959713859854,-300.0146223292565,2.312595741868269,0.0002124700810472657,0.000429134432095568,-0.005740539820074271,0.999983408313697
2025/04/09 08:48:20.273888123,1744181300,273547977,piren,-479.9696076745962,-300.00704740174984,2.3163740549302854,-0.03062530850844768,0.0008069136185411113,-0.0057307015234314964,0.9995141812046611
2025/04/09 08:48:20.428376474,1744181300,427454678,piren,-479.9687216575261,-299.9460458210811,2.340460928782455,0.02661733712671778,0.00039906776324738675,-0.005763813315593781,0.9996289994619334
2025/04/09 08:48:20.584407424,1744181300,583148881,piren,-479.96929915538584,-299.99000969213546,2.3211999319096708,0.0006805188486380782,0.0005341301300697277,-0.00582877497245451,0.9999826383399971
2025/04/09 08:48:20.740448040,1744181300,738870057,piren,-479.969468243937,-299.98758297275975,2.322960378853989,0.0006625110677023648,0.00015039598918672572,-0.005828743719334142,0.9999827819551625
2025/04/09 08:48:20.895182900,1744181300,894497460,piren,-479.9702377045216,-299.9851041673495,2.3248081095263116,-0.03077688571437452,0.000497874405117284,-0.005646207839679053,0.9995102079337821
2025/04/09 08:48:21.81274571,1744181301,80062465,piren,-479.97000970273933,-299.92935533806536,2.3470184478642655,0.00039347086742538915,0.00032094060354111707,-0.005561741730508162,0.9999844044817543
2025/04/09 08:48:21.241682263,1744181301,238225644,piren,-479.9701902419605,-299.9353099053433,2.3452363850641422,-0.004543145787471293,0.000451888861688928,-0.005560468806357869,0.9999741180697949
2025/04/09 08:48:21.395011454,1744181301,394638714,piren,-479.97019992889267,-299.9349801382237,2.3458761356816122,0.031829512626150566,0.00010554570268564292,-0.0055456599612045245,0.9994779220381415
2025/04/09 08:48:21.553614004,1744181301,551946289,piren,-479.97127333126593,-300.002342233974,2.3159262711145447,0.02692802752296796,-0.0007037728932265213,-0.005516015119304795,0.9996219083306651
2025/04/09 08:48:21.709967124,1744181301,709531537,piren,-479.9734724917319,-300.047098213902,2.296293942184801,-0.025805066063313772,0.0005034542994270706,-0.005454469218462976,0.9996519863756493
2025/04/09 08:48:21.865793558,1744181301,865389942,piren,-479.97271179434654,-299.9926977794345,2.3185382974357567,-0.004613042151876774,0.0006028554507348134,-0.005462318598677795,0.9999742594101797
2025/04/09 08:48:22.22587066,1744181302,21339856,piren,-479.97201082151025,-299.97792324416855,2.325746500496528,0.0007833654018910406,0.0005686864460687314,-0.0056407246195223516,0.9999836224459578
2025/04/09 08:48:22.178217501,1744181302,176970072,piren,-479.97155366610826,-299.9748338435898,2.328210342401331,0.026713248614605195,0.00020240902235170563,-0.005756006377993674,0.999626545150547
2025/04/09 08:48:22.332738142,1744181302,332337076,piren,-479.97211829673967,-300.01656108386624,2.3104395263992124,-0.025784539814498797,0.0004331591831626069,-0.005737605574013994,0.999650963967901
2025/04/09 08:48:22.489482834,1744181302,488245387,piren,-479.97164340174805,-299.9649295105117,2.33177985187577,-0.0045691722262856845,0.00037591080771850804,-0.005697194352083191,0.9999732613088941
2025/04/09 08:48:22.646089871,1744181302,644766269,piren,-479.97153118581053,-299.954748879747,2.336991072313108,0.0007963431308237044,0.00047137934228864314,-0.005699084741162348,0.9999833318972106
2025/04/09 08:48:22.811080045,1744181302,803623483,piren,-479.9713651553492,-299.9570279992317,2.3368005788787753,0.026883680436913485,0.0002638782157194293,-0.005739060401782867,0.9996220592204625
2025/04/09 08:48:22.964758036,1744181302,963183516,piren,-479.97198596578977,-300.0030711931932,2.316688905255781,0.0006894676531613668,0.00045369896043901374,-0.0057301236378365554,0.9999832420969381
2025/04/09 08:48:23.123896578,1744181303,123457375,piren,-479.9721092961431,-300.0018040294338,2.317698950252657,0.00019204447624506267,0.0004201039426634757,-0.0057465434836289665,0.9999833817967113
2025/04/09 08:48:23.284019998,1744181303,283316819,piren,-479.97229664941136,-299.99737501352854,2.3200363326074935,-0.030780594886486923,0.0007046095355038762,-0.005761000808835199,0.9995093143005307
2025/04/09 08:48:23.442058682,1744181303,441449177,piren,-479.97172241849074,-299.939559791253,2.3428456180531607,0.02658114751453508,0.00026978519848841183,-0.005795362286439849,0.9996298232789607
2025/04/09 08:48:23.637862965,1744181303,637207090,piren,-479.97250870330083,-299.98279376246523,2.324022088541664,-0.0065985050580869885,0.000426826115943634,-0.005809660814109337,0.9999612619455268
2025/04/09 08:48:23.795294168,1744181303,794901603,piren,-479.9726912077218,-299.9724061469197,2.3291853535973446,0.03177599950779983,1.8926914719850132e-05,-0.005769175566558477,0.9994783650036325
2025/04/09 08:48:23.953525484,1744181303,952451469,piren,-479.9739198457233,-300.0317798411628,2.302995185289599,0.026880091711487097,0.00026075882563182033,-0.005764777784805655,0.9996220085669927
2025/04/09 08:48:24.112690693,1744181304,111119134,piren,-479.97433862685216,-300.067247623693,2.2875747898418455,-0.025787660311103792,0.0005797070682320437,-0.00567741482583448,0.9996511528909922
2025/04/09 08:48:24.270760603,1744181304,269421893,piren,-479.97345026007247,-300.0051877507501,2.313183718886217,-0.0036019886239902653,0.0004135514049012185,-0.005698544786203188,0.9999771903601141
2025/04/09 08:48:24.427223576,1744181304,426350628,piren,-479.97316345243945,-299.98484019428946,2.3227872904657274,0.015890622935916823,0.00038818949771192353,-0.005707908400128703,0.999857368424776
2025/04/09 08:48:24.585682657,1744181304,585216767,piren,-479.97310869251226,-300.0009605534549,2.3166328741649416,-0.021532534547597397,0.0005850889949154935,-0.005873060267634565,0.9997507263262765
2025/04/09 08:48:24.745330731,1744181304,743873283,piren,-479.9720997079239,-299.9543102862003,2.336336983131101,0.010195992888244977,0.00039494672980347495,-0.0058912967086949194,0.999930586775499
2025/04/09 08:48:24.905321687,1744181304,904896662,piren,-479.9709459858541,-299.968384313932,2.3313616003229543,-0.014777518648734994,0.0004914402229724368,-0.00604103440991432,0.9998724365299565
2025/04/09 08:48:25.65644057,1744181305,65314704,piren,-479.9668910217553,-299.94108662892984,2.3434203868948726,0.007546793467184681,0.00035193580567974,-0.0060500849116106,0.9999531581639786
2025/04/09 08:48:25.224931457,1744181305,223569442,piren,-479.96070274145916,-299.9580827039812,2.3369131621044303,-0.023069332780394695,0.0005629615321990501,-0.006396854913224184,0.9997132434886515
2025/04/09 08:48:25.383380139,1744181305,381969177,piren,-479.9506335963799,-299.9234781850514,2.3507868203163986,0.03520972376681472,0.00022573789707685556,-0.006788003354119261,0.9993568668924685
2025/04/09 08:48:25.544226671,1744181305,539911643,piren,-479.93836555118725,-299.9914531349374,2.3202446544101574,-0.02008468162842804,0.0006793303284089524,-0.006766671091600581,0.9997751528401413
2025/04/09 08:48:25.699072499,1744181305,697979386,piren,-479.92099763289013,-299.96033902326997,2.333051864370324,0.02308925787325209,-0.000293988354967506,-0.0070854498359442,0.9997082555137434
2025/04/09 08:48:25.856965329,1744181305,856483274,piren,-479.8983284187844,-300.00280473548383,2.314879133454669,0.02404195370161722,0.00041254960197974823,-0.007103027547484748,0.9996856312184821
2025/04/09 08:48:26.16584761,1744181306,15238276,piren,-479.87596489979273,-300.0416651439269,2.298571708057039,-0.028337698513924665,0.0007292599810027477,-0.008266765109889612,0.9995639567418545
2025/04/09 08:48:26.174168369,1744181306,173648632,piren,-479.85287607387755,-299.98345092258944,2.322756766065631,0.03517353684228491,0.00016022048511757475,-0.009157871245020965,0.99933924671738
2025/04/09 08:48:26.363726562,1744181306,363419781,piren,-479.823916733202,-300.03604339646347,2.2999796155429757,0.004347165707581593,0.0009183941824047759,-0.00944577979197038,0.9999455164890526
2025/04/09 08:48:26.520942525,1744181306,520541716,piren,-479.79884297932347,-300.0327425354852,2.30335582460413,0.005531860838413799,0.0003953626052782233,-0.009444330033184319,0.9999400216184464
2025/04/09 08:48:26.680397695,1744181306,679699972,piren,-479.7732584447867,-300.02867387840485,2.306831646934677,0.0028063823231116217,0.0003638717688531709,-0.009786713871868713,0.999948104677029
2025/04/09 08:48:26.840502643,1744181306,837939884,piren,-479.74626175426084,-300.0184385987082,2.312513713409207,-0.003111060822932572,0.000675057901376288,-0.009784638650237005,0.9999470618207097
2025/04/09 08:48:26.998520880,1744181306,996017431,piren,-479.71743346869624,-299.998576310956,2.321715331226704,-0.024267626235317023,0.000987070770181107,-0.010764240047319415,0.9996470572879217
2025/04/09 08:48:27.155167519,1744181307,153818266,piren,-479.6752455022505,-299.9442806839458,2.344098830349053,0.008387764531583916,0.0006119924544518316,-0.010790879825833677,0.9999064095124017
2025/04/09 08:48:27.314836940,1744181307,313114742,piren,-479.64113294514965,-299.95636111512414,2.3393705969520244,0.001197846356841466,0.0006105928178143323,-0.01219973361584831,0.9999246765833008
2025/04/09 08:48:27.472027771,1744181307,470954645,piren,-479.6089668296575,-299.96066401128064,2.3380032589119577,-0.026509589503036897,0.0007802829581732764,-0.01336035180259693,0.9995589696574168
2025/04/09 08:48:27.631291886,1744181307,629695232,piren,-479.57433461348995,-299.91929597722464,2.354354219218494,0.028129747238825324,-0.0001298754208966336,-0.013380763087137766,0.9995147100627688
2025/04/09 08:48:27.789466429,1744181307,788996454,piren,-479.54265450698756,-299.976739145319,2.3292346582094177,-0.028296437762392414,0.0009009660310019512,-0.013359667458446703,0.9995098894736208
2025/04/09 08:48:27.950606435,1744181307,947904982,piren,-479.5075478493049,-299.9350570783797,2.3457331956552836,-0.018929239659509555,0.0008084587270493129,-0.013369418093739923,0.9997311083187491
2025/04/09 08:48:28.106313380,1744181308,105051957,piren,-479.4620909282312,-299.9119149170035,2.355386435711305,0.007622274640376119,0.0005467405883617506,-0.014846271157871061,0.999860585400156
2025/04/09 08:48:28.263294127,1744181308,262932667,piren,-479.4269847415108,-299.9409173712646,2.3440568764931986,0.003275367628089198,0.0004011208962264711,-0.016059990454084034,0.9998655848540554
2025/04/09 08:48:28.420506414,1744181308,419742873,piren,-479.39090073682974,-299.9613775229305,2.3363841606351103,0.0022919618198908726,0.00040225306932001835,-0.016059700424796753,0.9998683268939716
2025/04/09 08:48:28.580132837,1744181308,579201089,piren,-479.3531203686064,-299.9771316257735,2.3306228854861906,-0.004156833888880316,0.00038052412375617597,-0.016421229729909167,0.9998564492703785
2025/04/09 08:48:28.738658377,1744181308,737657757,piren,-479.31357407766603,-299.9783288618116,2.3308194748929885,-0.028937199834157098,0.0010840886969578443,-0.01639562801893651,0.9994461699357899
2025/04/09 08:48:28.896340901,1744181308,895957032,piren,-479.27257122466415,-299.9348759541398,2.347948604654832,0.0016103839858777073,0.0006260494370377795,-0.017868397421591613,0.9998388545656268
2025/04/09 08:48:29.84594689,1744181309,83976302,piren,-479.21839065489513,-299.9465376952729,2.343821825338679,-0.03052754040472254,0.0015122560252237168,-0.02026903573646321,0.9993272479767907
2025/04/09 08:48:29.244260809,1744181309,243807211,piren,-479.1764001039668,-299.9068698100671,2.3592597318488786,-0.030406689505341235,0.0010942872587435299,-0.020281299803282506,0.9993312286959767
2025/04/09 08:48:29.404017859,1744181309,402792826,piren,-479.1358317826297,-299.8734087765738,2.372186237798988,0.030421554130887617,-0.0002044811524612152,-0.02047585430447215,0.999327387107059
2025/04/09 08:48:29.567324321,1744181309,565414426,piren,-479.0855083370188,-299.94495478492234,2.3411513316670955,0.0026009418198296077,0.0004762020497330039,-0.020473438010905908,0.9997869006289647
2025/04/09 08:48:29.726385936,1744181309,724587617,piren,-479.047233069852,-299.970195157957,2.3317354534464063,-0.0010695038149673335,0.0004464067629091808,-0.022886302091701102,0.9997374025508695
2025/04/09 08:48:29.884358026,1744181309,883914222,piren,-479.00587658401093,-299.98372556796323,2.327129240747151,0.024052698583529788,-0.00017210415301453243,-0.02539364857697566,0.9993881131387142
2025/04/09 08:48:30.44116350,1744181310,43637921,piren,-478.9682714744202,-300.0324946950146,2.306465913461965,-0.00730974348969249,0.0007540987911922763,-0.025385745899780997,0.9996507204470169
2025/04/09 08:48:30.206671167,1744181310,203971656,piren,-478.9093459318382,-300.0254926638866,2.310322281337972,0.00025973955787834615,0.0007827286108776629,-0.026070209111305965,0.9996597741572762
2025/04/09 08:48:30.363963657,1744181310,363547975,piren,-478.8636318672501,-300.0186596493367,2.3141317381941504,-0.0012943998394012118,0.0008022879796020649,-0.026068676916168727,0.9996589943310139
2025/04/09 08:48:30.523711649,1744181310,522373235,piren,-478.8172524916302,-300.0078270041857,2.3195183154452264,-0.012125439221480783,0.0010194231906733384,-0.028950107421114143,0.999506791262746
2025/04/09 08:48:30.682893845,1744181310,682507690,piren,-478.7723626694348,-299.97907522540135,2.331906354893632,-0.015583191818545276,0.001038498037278328,-0.03224088423224943,0.9993580995011226
2025/04/09 08:48:30.842483720,1744181310,842087823,piren,-478.7293147699714,-299.9483367034604,2.3446720636829643,-0.002551030736048508,0.0007128938493620155,-0.032251807485354105,0.9994762653202282
2025/04/09 08:48:31.7413983,1744181311,4591619,piren,-478.6745371885426,-299.9428547580273,2.3471144506391375,-0.002046369625464469,0.0007306378306170609,-0.0334009665520533,0.9994396700016991
2025/04/09 08:48:31.168126223,1744181311,165900674,piren,-478.63132563478825,-299.94611130472754,2.3455799707977607,0.030416084551612363,-0.0005554963436819919,-0.036396689429027594,0.9988742834926567
2025/04/09 08:48:31.328499922,1744181311,327009612,piren,-478.5923463367984,-300.00460318958403,2.3188817165750604,0.0003728177097121807,0.0005468341763072719,-0.03639689892925893,0.9993371942080772
2025/04/09 08:48:31.493026873,1744181311,488746437,piren,-478.54732134496874,-300.0064230888485,2.3180488265313044,0.02098990111681017,-8.214526911454755e-05,-0.037515876152863684,0.9990755608760252
2025/04/09 08:48:31.685328544,1744181311,684941791,piren,-478.48997354146104,-300.04078782240725,2.3028199475221935,0.01660364151695037,-0.00016120445139416358,-0.04249552088045588,0.998958669718923
2025/04/09 08:48:31.844885348,1744181311,844444405,piren,-478.445126764913,-300.05839957204034,2.2952322360190838,-9.181578783589875e-05,0.0006403289728980891,-0.0424922290263643,0.9990965879338386
2025/04/09 08:48:32.4683377,1744181312,4033083,piren,-478.39760292589017,-300.04157866902904,2.3028771450826,-0.0002527062363497069,0.0008075977200351361,-0.04353748411577889,0.9990514358141673
2025/04/09 08:48:32.165504155,1744181312,163260582,piren,-478.33435864603973,-300.02441557101605,2.310624180308206,-0.0003062203402001102,0.000709656414947469,-0.04353746953995248,0.999051495851407
2025/04/09 08:48:32.322653556,1744181312,322180978,piren,-478.2877137697125,-300.00651954468304,2.318536192222234,-0.0004178213788747802,0.0006787134552199174,-0.04943723098953196,0.998776914513661
2025/04/09 08:48:32.483942873,1744181312,482666708,piren,-478.24233821388475,-299.9907153254261,2.325189591102404,-4.749252607571532e-05,0.000551951950145921,-0.0553446086117996,0.9984671588946287
2025/04/09 08:48:32.644109430,1744181312,643654807,piren,-478.20025238097384,-299.9785488197634,2.329892644828633,-0.006402421833558749,0.0008588792315677559,-0.05534220521236712,0.9984465492170139
2025/04/09 08:48:32.807046529,1744181312,805273232,piren,-478.1553038485425,-299.95938636475233,2.3373123012574393,0.010078702558851267,0.0002988322771997238,-0.055076431314413386,0.9984312280611365
2025/04/09 08:48:32.968090709,1744181312,966394218,piren,-478.0940200952591,-299.9695713353572,2.3322479550228374,0.02650419028729228,-0.0008239770210882759,-0.05507206185259527,0.9981302104246659
2025/04/09 08:48:33.127266529,1744181313,126884655,piren,-478.0514273004301,-300.012538116368,2.31245014046354,0.029284966453729414,-0.001386054953946642,-0.06204093066828827,0.997642918339664
2025/04/09 08:48:33.287070288,1744181313,286591243,piren,-478.0100420581624,-300.05390081098545,2.293052122792052,-0.02597263530506123,0.002382077750564972,-0.06913171849341225,0.9972665408099523
2025/04/09 08:48:33.448240765,1744181313,446793805,piren,-477.958444035618,-299.99432452067276,2.3167569520813793,-0.031521062835682484,0.00206511701040891,-0.06914023914910487,0.997106707037841
2025/04/09 08:48:33.608756031,1744181313,607967652,piren,-477.8926527083532,-299.92722281283085,2.3429795938215774,0.0244344344505774,-0.0007522335633567915,-0.06999905771805004,0.9972474740385817
2025/04/09 08:48:33.770526487,1744181313,769149355,piren,-477.85125154330666,-299.96557597483684,2.326214425302474,-0.00025369200192318966,0.0006735731917417812,-0.07614795151405852,0.9970962698855793
2025/04/09 08:48:33.932178862,1744181313,929541271,piren,-477.8071025179247,-299.96216003927265,2.328227961256579,-0.02764951944441554,0.0024128012868569995,-0.07611067291560726,0.9967130218537212
2025/04/09 08:48:34.89817377,1744181314,89376664,piren,-477.75461764189976,-299.91370016225903,2.3477718686223166,-0.001996489222629353,0.0005715553476902583,-0.07871755524812031,0.9968947957788864
2025/04/09 08:48:34.257468153,1744181314,250691089,piren,-477.70934790434643,-299.915651007323,2.3475001440630416,0.030890857870466845,-0.002241236659249556,-0.07868438116788315,0.9964183358000249
2025/04/09 08:48:34.450528850,1744181314,448942479,piren,-477.6565152905659,-299.9728726112965,2.3217786872590502,-0.0059259218507860265,0.0004541630498893696,-0.08698311241604724,0.9961920574570747
2025/04/09 08:48:34.611984129,1744181314,611643871,piren,-477.59510969242535,-299.96816885054477,2.323733581536851,-0.004404216160534486,0.0001238023861825877,-0.09493112629549677,0.9954740924872173
2025/04/09 08:48:34.773564371,1744181314,773138224,piren,-477.55377060846956,-299.9589376054582,2.3273788139636724,0.0017951428694035498,2.8777949303382934e-05,-0.09549043226400324,0.9954287287294565
2025/04/09 08:48:34.935267921,1744181314,934499964,piren,-477.51258357539444,-299.95989993380084,2.326740554023697,0.02949935275296467,-0.002959557023538407,-0.09544748050739013,0.9949928681524165
2025/04/09 08:48:35.96836017,1744181315,95505844,piren,-477.48171367050037,-300.0056266055279,2.3053082746008,-0.02599277309068543,0.0024524075423712224,-0.09924862623109693,0.9947200971306162
2025/04/09 08:48:35.256131435,1744181315,255779883,piren,-477.41726724985375,-299.9559341273093,2.3247821607288626,-0.007179412232174629,0.0006479028440258918,-0.09927401350784741,0.9950340227871353
2025/04/09 08:48:35.418736316,1744181315,418102457,piren,-477.3740239991419,-299.9363556142736,2.333193767015729,-0.013767360741690875,0.001058692200126446,-0.10669531148208745,0.9941958808287097
2025/04/09 08:48:35.581010011,1744181315,579557687,piren,-477.3362989944964,-299.9091383770013,2.3441043308668497,0.019046711010492663,0.002202276184325011,-0.11320281504341381,0.9933868810516563
2025/04/09 08:48:35.741708656,1744181315,740877115,piren,-477.30478628193777,-299.94080400494437,2.329719981878102,-0.016753932208807717,0.00015816925996331031,-0.1131522399219926,0.9934363851493782
2025/04/09 08:48:35.905435472,1744181315,904528916,piren,-477.2588717325165,-299.9113012638599,2.3406632920821524,-0.0034371681149691267,-0.0016646561502195382,-0.11079138527515807,0.9938363465601681
2025/04/09 08:48:36.68981640,1744181316,67648708,piren,-477.2265797878604,-299.90741446159706,2.3413112248458052,0.013220403888682461,-0.0024063683144849917,-0.11359510453904739,0.9934362498607135
2025/04/09 08:48:36.229539778,1744181316,229171619,piren,-477.2010339332809,-299.9318831280101,2.329102282550343,-0.0030783482143096163,-0.0003076429993823728,-0.11362103931305073,0.9935193448310298
2025/04/09 08:48:36.391317770,1744181316,390683254,piren,-477.16833888057596,-299.9261255463903,2.3299521658163047,-0.032000456239733376,0.0030460293922430007,-0.11199291789827737,0.9931889441823345
2025/04/09 08:48:36.554441053,1744181316,553119381,piren,-477.1144303859136,-299.87067446881207,2.3496772235145587,0.005213593321075528,-0.0008830479750699335,-0.11202956648777067,0.9936908044776898
2025/04/09 08:48:36.715337015,1744181316,714005289,piren,-477.0859388876102,-299.8843449128353,2.3426126995194534,0.0169624223207397,-0.00314950703290619,-0.1134036022894294,0.9933992046615719
2025/04/09 08:48:36.876595640,1744181316,876208656,piren,-477.0668931045718,-299.918678278043,2.3264462518697195,-0.014210602635704036,0.0009695510079246177,-0.11477096935865953,0.993289858669687
2025/04/09 08:48:37.72092777,1744181317,71750838,piren,-477.02692967408484,-299.89969026068314,2.333573843961959,0.01972970842564219,-0.003942624979642597,-0.11353563396788921,0.993330183842824
2025/04/09 08:48:37.234327704,1744181317,233910142,piren,-477.0115420635953,-299.93555299043965,2.3175055871171772,0.023127846355706118,-0.004045104191375278,-0.11353078501736932,0.9932570164405423
2025/04/09 08:48:37.400387691,1744181317,396681377,piren,-476.9963114923308,-299.9715674496046,2.3011679809667567,0.006227428477163111,-0.002046081849599945,-0.11252877775406821,0.993626844877292
2025/04/09 08:48:37.562671733,1744181317,559181988,piren,-476.9656398325217,-299.97458760282814,2.2995519080203826,-0.0025097258193341834,-0.0007534806779311705,-0.1125442393697777,0.993643259790886
2025/04/09 08:48:37.722065576,1744181317,721668901,piren,-476.9368850186191,-299.9531391354105,2.3084953966463324,-0.0006325292771791812,-0.0005454016466142787,-0.11153282169777454,0.9937603997583572
2025/04/09 08:48:37.884603628,1744181317,884237955,piren,-476.9089514015314,-299.93467352759137,2.3161197027815303,-0.004415930556926385,-0.00011896742621041245,-0.11053091310759096,0.9938628691382279
2025/04/09 08:48:38.49933532,1744181318,46576872,piren,-476.8811663623279,-299.91231405013986,2.325456867679277,0.009083250085162451,-0.0018596111395028318,-0.11052173586768563,0.9938304595428205
2025/04/09 08:48:38.208838959,1744181318,208468411,piren,-476.85418839724366,-299.91432802030636,2.324290761179864,-0.033701354070909545,0.002664571994159709,-0.10905860087835442,0.9934602862542272
2025/04/09 08:48:38.372845041,1744181318,371841258,piren,-476.8216591871268,-299.8508353101363,2.349464501216673,0.004618809752464941,-0.002554010913007182,-0.10753717548312737,0.9941870545897477
2025/04/09 08:48:38.536898348,1744181318,535896485,piren,-476.80782780541887,-299.8619105529306,2.3450979870998263,-0.002951978462112646,-0.0006455413914693395,-0.10755122692300861,0.9941949520525774
2025/04/09 08:48:38.700084858,1744181318,699583529,piren,-476.7901659820521,-299.86329788449103,2.344967953370529,0.021931508458298492,-0.0034149014158051253,-0.10633377791912127,0.9940827304900287
2025/04/09 08:48:38.864664473,1744181318,863930448,piren,-476.77515709882204,-299.90537784897117,2.3260961927561836,-0.005697084738878817,-0.0008646545412798727,-0.10639495288904104,0.9943072511038734
2025/04/09 08:48:39.30214168,1744181319,27134183,piren,-476.7578326296733,-299.89959381807364,2.328483052668117,-0.0009527281496728083,-0.00034146168819046413,-0.10360279946553537,0.9946182361368067
2025/04/09 08:48:39.189663390,1744181319,188343617,piren,-476.7391113507832,-299.9007882620042,2.328285773484497,-0.02105272036350325,0.001798232847174952,-0.1010672400240708,0.9946551977031238
2025/04/09 08:48:39.354031647,1744181319,353402502,piren,-476.7081952007568,-299.8688810960844,2.3417560923565057,0.006110721059045445,-0.0009246485764720572,-0.1010838411348865,0.9948587141773277
2025/04/09 08:48:39.553234782,1744181319,549902483,piren,-476.69386169292574,-299.88594857307817,2.3355230587077376,-0.03145246460026514,0.0027645809737102812,-0.10028375100932779,0.9944577763012907
2025/04/09 08:48:39.715567365,1744181319,714693490,piren,-476.6633774132463,-299.8409900582491,2.354277958466748,-0.029954200870438808,0.002376009829925056,-0.09720916524663921,0.9948102726749223
2025/04/09 08:48:39.880833127,1744181319,879339008,piren,-476.64083371627623,-299.80581551982084,2.369236973214768,-0.029664241617262235,0.002492628218251392,-0.0977462234083823,0.9947660505783443
2025/04/09 08:48:40.44868686,1744181320,43992076,piren,-476.6221192198242,-299.7803127658869,2.380110599347976,0.023540062821699233,-0.002621198819833075,-0.09773297471469791,0.994930781719268
2025/04/09 08:48:40.209302991,1744181320,208751603,piren,-476.61577411414873,-299.8450681813688,2.35309598251706,-0.0016924268351578696,2.9678167970569443e-05,-0.09569162918224418,0.9954095875141358
2025/04/09 08:48:40.373719138,1744181320,373286004,piren,-476.6058892530337,-299.87122376212903,2.3437443459888248,-0.006823623177079054,0.00025817915847546824,-0.09351070443684865,0.9955948571914098
2025/04/09 08:48:40.537841141,1744181320,537372914,piren,-476.59265989090926,-299.8840920321523,2.339956609798621,-0.027539722924524706,0.0020188806479508247,-0.09349298411400765,0.9952369314407639
2025/04/09 08:48:40.701863077,1744181320,700798353,piren,-476.5731199208711,-299.8579044905467,2.3513155920873685,-0.003910542638967744,-3.58264599747629e-06,-0.09302189827275924,0.9956563835406098
2025/04/09 08:48:40.865023811,1744181320,864570042,piren,-476.5569271750047,-299.8740298165211,2.3468255313592934,-0.028432362826244735,0.0020393706374365536,-0.09297651305089658,0.995260171880909
2025/04/09 08:48:41.30367228,1744181321,29081855,piren,-476.53959321754087,-299.8476540690489,2.3586731815131423,0.0007208818042268479,-5.630859821023877e-05,-0.09027368965223169,0.9959167325210169
2025/04/09 08:48:41.194583549,1744181321,193250508,piren,-476.528979510772,-299.8746604204235,2.349865406784851,-0.0014212999287872999,-0.00011819581434501555,-0.08742023728523608,0.9961705014952285
2025/04/09 08:48:41.357263820,1744181321,356807236,piren,-476.51189363530506,-299.8979214408266,2.342956253752141,0.02957960529827079,-0.0032494073778242425,-0.08734650913058861,0.9957334360383765
2025/04/09 08:48:41.523168913,1744181321,522597644,piren,-476.5094109114635,-299.96563978603916,2.314239967877395,-0.03104086969589752,0.003177319916952208,-0.08724355717090423,0.9956982127024407
2025/04/09 08:48:41.687849587,1744181321,687313993,piren,-476.4847243978482,-299.92180033028944,2.3327642998511653,-0.002470938248555376,0.0005021607489284706,-0.0845084433617457,0.996419572920629
2025/04/09 08:48:41.851222628,1744181321,849652683,piren,-476.4672250003832,-299.9269048575742,2.3325879942705994,-0.025234343510952773,0.0021174829556623686,-0.08448661546725336,0.9961027838433101
2025/04/09 08:48:42.44442851,1744181322,43830241,piren,-476.43933001054387,-299.8947010114312,2.347486235605307,0.015803008536148824,-0.0007208091561446472,-0.0842547109870567,0.9963186684148072
2025/04/09 08:48:42.212069166,1744181322,207351229,piren,-476.4236853048983,-299.93374123739034,2.3333503163521456,0.02613078268308811,-0.0017062954510143511,-0.08192140281307936,0.9962947126796069
2025/04/09 08:48:42.375722503,1744181322,372743335,piren,-476.4149201108054,-299.9894667811296,2.311189943165547,0.026869759820593146,-0.0019842339693987516,-0.08156496956454849,0.996303786283417
2025/04/09 08:48:42.537432785,1744181322,536923949,piren,-476.405956219408,-300.03775498824064,2.2920635643654492,0.03238720840459335,-0.0022237713583692525,-0.08155395516696062,0.9961400885263721
2025/04/09 08:48:42.703103363,1744181322,702693588,piren,-476.39701929649755,-300.08320850768433,2.2732889744330094,-0.016600576627429413,0.0013904915607484253,-0.08035640034717835,0.9966269795224794
2025/04/09 08:48:42.867799753,1744181322,867357420,piren,-476.36866683815435,-300.0430235179247,2.2925543506026393,0.027272318411080496,-0.0009808173313188846,-0.08035689559934682,0.9963925069848142
2025/04/09 08:48:43.33532680,1744181323,32246385,piren,-476.3538133693268,-300.06384722246764,2.2846825963008026,0.00011015870807123843,0.0011270705090676843,-0.07785241138253557,0.9969642519263423
2025/04/09 08:48:43.196776985,1744181323,196152861,piren,-476.3302404151582,-300.0367237184803,2.298800776579377,0.0001861638217115434,0.0010171768734424194,-0.07549600245619924,0.9971455682634173
2025/04/09 08:48:43.361114313,1744181323,360594033,piren,-476.2988375839331,-300.0139452871531,2.311867853644162,0.018995734989146536,9.828362728278106e-05,-0.07552383699744698,0.9969630396547978
2025/04/09 08:48:43.525341954,1744181323,524849249,piren,-476.2787608044542,-300.02762672558714,2.3081190761964154,-0.028488670633507986,0.0027260586184122953,-0.07467398010000936,0.9967972516745659
2025/04/09 08:48:43.691732130,1744181323,690364903,piren,-476.2488152371236,-299.96302138551323,2.336267448898148,0.019536002761787293,-0.0007115611708754076,-0.07212927164714023,0.9972036935593674
2025/04/09 08:48:43.856066864,1744181323,855094032,piren,-476.2238541742398,-299.98711134185635,2.3281667806513506,0.006865876218830715,0.0008249620102395855,-0.07213285362549654,0.9973710596409302
2025/04/09 08:48:44.21802876,1744181324,20248711,piren,-476.20363044800564,-299.9949425054913,2.3266616457411606,0.0024167181458725085,0.00047372308609484187,-0.07152074110330904,0.9974360724637318
2025/04/09 08:48:44.184684326,1744181324,184266332,piren,-476.1849542104952,-299.99616877629575,2.3275277434611437,0.01729456000085646,-0.0004070028417232319,-0.06907732410984299,0.9974613054333924
2025/04/09 08:48:44.351952608,1744181324,350437197,piren,-476.1667561599184,-300.0230604272752,2.3169856252776233,-0.004694012350592793,0.001225925382292179,-0.06906891488714316,0.9976000944022221
2025/04/09 08:48:44.549428650,1744181324,548988594,piren,-476.1366822994918,-300.0133267162884,2.3229814957219954,0.0029958062113237976,0.0005504555213131476,-0.06860690747560086,0.9976391203188143
2025/04/09 08:48:44.726880872,1744181324,715035966,piren,-476.1082072559888,-300.0157263770048,2.324053675214886,0.001898021521044598,0.0005970371257071914,-0.06629246689563834,0.9977982510978193
2025/04/09 08:48:44.882143358,1744181324,881723262,piren,-476.0848928365763,-300.016799546789,2.325381077602541,0.00025501321745566074,-0.00013662737920849003,-0.06606387929011101,0.9978153537375339
2025/04/09 08:48:45.46818318,1744181325,46332106,piren,-476.06364120438263,-300.0155431935237,2.3274316380960487,-0.0003609529393695946,0.000644911624001276,-0.06606368101244098,0.9978151351092341
2025/04/09 08:48:45.212967116,1744181325,211657039,piren,-476.03216880851147,-300.01434243198634,2.329805327113019,-0.023655068814079,0.0022343560534043064,-0.06433902678448088,0.9976451949490128
2025/04/09 08:48:45.379124855,1744181325,378650129,piren,-476.00320227998986,-299.9744958446031,2.3465189713645724,0.0007943554688299568,0.0007037634705047071,-0.0625619150940766,0.9980405204680461
2025/04/09 08:48:45.545935665,1744181325,544581747,piren,-475.9777726424649,-299.9820192832385,2.344460124834834,0.0026822306086926964,0.0005455903916965248,-0.06256249448076744,0.9980372950217994
2025/04/09 08:48:45.711634277,1744181325,711218558,piren,-475.94738581834775,-299.99494706296093,2.3403622545093463,-0.027187081002245272,0.002340921980366993,-0.06118683052976896,0.9977532533049344
2025/04/09 08:48:45.876692591,1744181325,876347666,piren,-475.91717563705254,-299.9597416591521,2.3549729477839723,0.011720437282901302,-6.419743478447307e-05,-0.05923951911087354,0.9981749879675905
2025/04/09 08:48:46.44358852,1744181326,43890917,piren,-475.89431592202584,-299.996043962403,2.341032454810819,-0.006978377608967696,0.0010284873685332896,-0.05922862827724332,0.9982195219750392
2025/04/09 08:48:46.214371896,1744181326,210255497,piren,-475.85975568812967,-300.0010554402015,2.3409370281793747,-0.0026304869467618716,0.0006265443317956599,-0.058254961485516676,0.9982980754478815
2025/04/09 08:48:46.378405661,1744181326,377136954,piren,-475.83419064824136,-300.01115400936555,2.3384348202366794,-0.025575687048833954,0.0020953545392561374,-0.056376252597170516,0.9980797622757588
2025/04/09 08:48:46.556287472,1744181326,554555368,piren,-475.80366066369993,-299.9808555490869,2.351476269433512,-0.0017923657396930305,0.0007937204208949465,-0.05641051098233647,0.9984057350013873
2025/04/09 08:48:46.731317999,1744181326,730934410,piren,-475.76752930608035,-299.9933527156236,2.348104834614457,0.03289234344849924,-0.0010428966039388679,-0.0554144568933562,0.9979209608362547
2025/04/09 08:48:46.929057543,1744181326,928663039,piren,-475.73861560643206,-300.06568204898446,2.3173558971376798,-0.029921938897618947,0.002276906382858709,-0.05322022969653609,0.9981318051344616
2025/04/09 08:48:47.99049012,1744181327,95705521,piren,-475.70665561000493,-300.0222700646577,2.335556203723692,-0.0001384032193520486,0.0007272507230350195,-0.053116717301240624,0.9985880363263295
2025/04/09 08:48:47.265125925,1744181327,263752577,piren,-475.669589547584,-300.03355897931976,2.3330783440823515,0.0014722762074949251,0.0015532797788696776,-0.05311943180303411,0.9985858729671777
2025/04/09 08:48:47.433375435,1744181327,431035431,piren,-475.6407582732902,-300.04574171246406,2.330200993480427,-0.0303279206508488,0.0021757904454497556,-0.05125582789597311,0.9982225820284931
2025/04/09 08:48:47.598750031,1744181327,598346088,piren,-475.60712028802914,-300.00214830798564,2.3487655413668818,-0.027404105816278314,0.0020599698768615556,-0.04895559900202122,0.998422816663797
2025/04/09 08:48:47.766317562,1744181327,765075901,piren,-475.5644918897153,-299.96750062645924,2.3641772152933593,0.0188031956306954,-0.0001445532795000098,-0.04899586733561899,0.9986219624675063
2025/04/09 08:48:47.932563547,1744181327,931097897,piren,-475.5388010824407,-300.02031225287965,2.343280929535633,0.0010293881968231038,0.0005098261887139413,-0.048598542410272436,0.9988177321777956
2025/04/09 08:48:48.99307049,1744181328,98020510,piren,-475.51061966080215,-300.0403692969153,2.336718057165219,-0.0021683833868588647,-0.0003075788167930843,-0.046291846321126116,0.9989255570226144
2025/04/09 08:48:48.265401415,1744181328,264663887,piren,-475.4726166826265,-300.0539363497616,2.3329676933290395,0.00116307910530535,0.0006832145781210848,-0.04629175920189837,0.9989270511377838
2025/04/09 08:48:48.435000658,1744181328,433657115,piren,-475.4428970789644,-300.0664225090324,2.329117729266815,-0.0317258084062217,0.0022446922694180516,-0.04589206177653871,0.9984399596888568
2025/04/09 08:48:48.603730217,1744181328,601333681,piren,-475.3994516143644,-300.0222022349265,2.347323458550302,0.0008397542607479267,0.0007066640514919961,-0.04355824743152865,0.9990502862816234
2025/04/09 08:48:48.769571824,1744181328,769121695,piren,-475.36806608994345,-300.0354594145159,2.343231870074481,-0.010452091120082916,0.0011695919338736498,-0.043958139071516036,0.9989780116976024
2025/04/09 08:48:48.935594574,1744181328,935253699,piren,-475.3356581073746,-300.0304981115567,2.346566053286418,-0.0003318058095724494,0.0004686745514236201,-0.043967761686135594,0.9990327853385899
2025/04/09 08:48:49.105845879,1744181329,102388360,piren,-475.30631670451754,-300.044150894558,2.342150306500179,-0.013913276219040975,0.0011250675997282545,-0.04298080930660314,0.9989783806464975
2025/04/09 08:48:49.269089515,1744181329,268698816,piren,-475.2648984585728,-300.0345269744133,2.3471381313526027,-2.8591493318344733e-06,0.0005879644252554412,-0.040429112649930654,0.9991822362011843
2025/04/09 08:48:49.470999931,1744181329,469933882,piren,-475.22173130903593,-300.04839580959055,2.3423726742156448,0.031943973510924734,0.00011936356676882301,-0.040442607027419086,0.9986710989337271
2025/04/09 08:48:49.640507010,1744181329,639150884,piren,-475.19251026045015,-300.1141426555664,2.3133598077054476,-0.0009011464219597443,0.0008021407651829688,-0.03978529732907047,0.9992075233012192
2025/04/09 08:48:49.806784222,1744181329,805489102,piren,-475.1512279001563,-300.1202034990678,2.311715855874511,0.0022560020971035865,0.0005840623056938068,-0.037582385814422574,0.9992908153296802
2025/04/09 08:48:49.972528881,1744181329,972138749,piren,-475.11719617212873,-300.1207989073518,2.3125435243275483,-0.030665297313360443,0.0020820694220709613,-0.037904216913169225,0.9988085776903421
2025/04/09 08:48:50.138898915,1744181330,138465040,piren,-475.07973467924853,-300.0627001263987,2.336251352891236,0.003951684407736955,0.00045528708292597513,-0.037953580191130334,0.9992715860338917
2025/04/09 08:48:50.307141362,1744181330,306799173,piren,-475.0372780056656,-300.0678675502427,2.335652872045566,-0.005602928771387422,0.0007130356397415568,-0.036763781694488566,0.9993080221457643
2025/04/09 08:48:50.475826756,1744181330,474380397,piren,-475.0047584261129,-300.0618033656046,2.3394326662722333,0.007985761073572165,0.0002011251585381213,-0.03676807506296941,0.9992918972076729
2025/04/09 08:48:50.642786616,1744181330,642379048,piren,-474.9751593257906,-300.0808066845005,2.332318689901173,-0.029780279823533182,0.0016487622434536262,-0.03520987963674654,0.9989347730921486
2025/04/09 08:48:50.811587439,1744181330,810911327,piren,-474.9272418452617,-300.0349428955735,2.3507544849951785,-0.003041878098137256,0.00080721783411381,-0.032941115127276446,0.9994523391894062
2025/04/09 08:48:50.978554255,1744181330,978006057,piren,-474.89253092493664,-300.0401772630948,2.3493139648373913,-0.0011355679101847445,0.0006845966350909424,-0.033546866558785554,0.9994362658804491
2025/04/09 08:48:51.145759499,1744181331,144209395,piren,-474.8592258846289,-300.0512020031954,2.3454719377207556,0.0033934847431271826,0.00039137731122648224,-0.03354981315144499,0.9994312087995859
2025/04/09 08:48:51.312678677,1744181331,312231484,piren,-474.8177506840459,-300.0703865723563,2.338393306001815,-0.0014198878484342232,0.000534726876564077,-0.032307602084489316,0.9994768215587672
2025/04/09 08:48:51.481617623,1744181331,481009920,piren,-474.7844169390474,-300.0800040454517,2.3352352150530242,-0.004592233355640084,0.0005969734173951104,-0.030881141264281604,0.999512336156869
2025/04/09 08:48:51.652550928,1744181331,649482441,piren,-474.7502077288165,-300.0821456022366,2.3350984042099316,0.02531262716034811,-0.0003093796093412267,-0.030885864695577026,0.9992023011144966
2025/04/09 08:48:51.818996619,1744181331,817866534,piren,-474.70895404454797,-300.1333263362791,2.313141676799942,0.0017000179738065196,0.0004409548633125038,-0.03025548304891492,0.9995406551227289
2025/04/09 08:48:52.17218825,1744181332,16774007,piren,-474.6661059175044,-300.13878941193747,2.311360768765893,0.018186881513697455,7.284821179430619e-05,-0.028760842966717413,0.9994208552685844
2025/04/09 08:48:52.186765313,1744181332,184320383,piren,-474.6323480603659,-300.1619600400461,2.301378960954327,-0.02616406369719786,0.0016482376687907844,-0.02852465681945042,0.999249252707636
2025/04/09 08:48:52.353347063,1744181332,352886283,piren,-474.59294806451,-300.10496127194955,2.324380067393113,-0.002404104423127604,0.0007958156130067241,-0.028555934518679174,0.9995889883162968
2025/04/09 08:48:52.521531335,1744181332,521154198,piren,-474.5476690741112,-300.0915052351754,2.3307442743280515,-0.033324242290285494,0.0016673260753947267,-0.027497961070035316,0.9990648512666871
2025/04/09 08:48:52.692689448,1744181332,691019911,piren,-474.509721756925,-300.03170508809274,2.3545452793271284,-0.002044665797557313,0.0004435677479889482,-0.026275814574757972,0.9996525417153013
2025/04/09 08:48:52.860080558,1744181332,859681902,piren,-474.46425110587757,-300.0304251811656,2.35621266741966,0.025992336583414558,-0.0004310306581918,-0.02627223472277841,0.9993167577571076
2025/04/09 08:48:53.30931741,1744181333,29418103,piren,-474.43425366555033,-300.0887911956278,2.331543411230523,0.02285266634785696,-0.00022936936217081785,-0.025490551476963802,0.9994137955901397
2025/04/09 08:48:53.198274230,1744181333,197229569,piren,-474.40335665635445,-300.1367168570744,2.3114749396342997,0.0016298671629268327,0.0004336854757759865,-0.023908692505981988,0.9997127236724527
2025/04/09 08:48:53.368302598,1744181333,366931316,piren,-474.359332335526,-300.1444503038706,2.3092193919255997,0.0015661322774521726,0.0006789373099278872,-0.02390879951935756,0.9997126865151617
2025/04/09 08:48:53.537068179,1744181333,536638530,piren,-474.3242520391572,-300.1406903795567,2.3116831241526805,-0.029801244122585585,0.0014531479648829332,-0.023738632335288917,0.9992728614070274
2025/04/09 08:48:53.707226363,1744181333,706434699,piren,-474.27531954174447,-300.07648935903967,2.3376747772809496,-0.029872512063210805,0.0012514057395485343,-0.02207598613827364,0.9993091202639607
2025/04/09 08:48:53.877113080,1744181333,875979890,piren,-474.23966442014955,-300.02644237849114,2.357959727624035,-0.0032742381841020162,0.0005214410989003119,-0.022535563073475918,0.9997405442715903
2025/04/09 08:48:54.45629650,1744181334,45048853,piren,-474.2055542234667,-300.03121028959305,2.357186636285143,0.02811889190142953,-0.00035688372716169057,-0.022536575604682477,0.9993504406924808
2025/04/09 08:48:54.215546326,1744181334,214313114,piren,-474.16302902076916,-300.08921301346777,2.332423069439952,0.02797902322640911,-0.0002751454018153589,-0.021498423384883742,0.9993772642732415
2025/04/09 08:48:54.414953649,1744181334,414512054,piren,-474.122093430912,-300.14877988802806,2.3067520965080788,-0.0010936962810063132,0.0005761407922163028,-0.02029344108569798,0.9997933027076816
2025/04/09 08:48:54.588500463,1744181334,585263289,piren,-474.0895694626819,-300.14501278809814,2.3091786483414483,-0.0024287557370829107,0.0007137025509164679,-0.02026279788100683,0.9997914836586036
2025/04/09 08:48:54.755300588,1744181334,754820619,piren,-474.0439609644036,-300.1389762481241,2.312530452320633,0.023041744608470652,0.00026360663125822115,-0.02028306556103435,0.9995286918184935
2025/04/09 08:48:54.926554018,1744181334,925121743,piren,-474.0114159472664,-300.16818268994,2.3000714783818323,-0.019989178845796183,0.0009538965727459067,-0.019346767789799702,0.9996125376296993
2025/04/09 08:48:55.97582189,1744181335,95711101,piren,-473.9755409983007,-300.1201335836201,2.32035958453157,-0.001115461915796626,0.0006004500455712436,-0.01809754336178372,0.9998354235216542
2025/04/09 08:48:55.266058886,1744181335,265631598,piren,-473.9307248302255,-300.1066907176755,2.3270212888875266,-0.0010227726084082438,0.00044790094126071666,-0.018097736924080857,0.9998355991057556
2025/04/09 08:48:55.435777720,1744181335,435344077,piren,-473.8966502292307,-300.09821197043976,2.3313082834291565,-0.0009484958267234394,0.00041297083048071135,-0.0179427416357471,0.9998384808724621
2025/04/09 08:48:55.608242103,1744181335,605660305,piren,-473.86329728441945,-300.09243856506816,2.3340823048082653,-0.0009149867291210478,0.00047689718507497515,-0.0167240183992005,0.999859611433997
2025/04/09 08:48:55.774634066,1744181335,774174034,piren,-473.81866692575073,-300.08715189210125,2.3363266305455106,-0.031499221029558745,0.0011125130807086519,-0.016710527247047236,0.9993634572408089
2025/04/09 08:48:55.945483815,1744181335,943973876,piren,-473.7853503348973,-300.0343453733651,2.3561437488652928,-0.029406886576701062,0.001047798914077834,-0.016505513918064783,0.9994306905181576
2025/04/09 08:48:56.115683176,1744181336,114447650,piren,-473.7398515253167,-299.98912715936467,2.373219972293625,-0.0340062772417633,0.001053182363698214,-0.015092165995835833,0.999307105168686
2025/04/09 08:48:56.286656155,1744181336,284408268,piren,-473.70573651401185,-299.95381144332805,2.386248904348683,0.02937297905166991,-0.00018014822176406754,-0.015553379450781547,0.9994474913850694
2025/04/09 08:48:56.457826502,1744181336,456587788,piren,-473.6649747110223,-300.02948070453704,2.353684816013913,0.027737949918530614,-0.0004070362630631273,-0.015552784949066471,0.9994941477248007
2025/04/09 08:48:56.629770757,1744181336,627045115,piren,-473.6373416040181,-300.1064222173348,2.3215130810861013,0.0015970752258276343,6.517294673825247e-05,-0.014745468893666805,0.9998900020753864
2025/04/09 08:48:56.800141714,1744181336,796711340,piren,-473.6058940044049,-300.1270047179886,2.314475276767954,-0.03002940008683431,0.0008056927250671966,-0.013614059624461489,0.9994559737027936
2025/04/09 08:48:57.3335045,1744181337,1771522,piren,-473.5604670676389,-300.0902449193372,2.3293969403470887,-0.029921049362896756,0.001186760667619746,-0.013667392924338568,0.9994581155680275
2025/04/09 08:48:57.175337350,1744181337,174999459,piren,-473.5168814897505,-300.04444531105696,2.348039466649208,-0.0010509419496161632,0.0007038389619321772,-0.01349916925116553,0.9999080820561771
2025/04/09 08:48:57.346182723,1744181337,345706995,piren,-473.4845545917609,-300.0530616453791,2.345849738735945,1.2821063896482889e-05,0.0004547326745603953,-0.013499914934854172,0.9999087685136913
2025/04/09 08:48:57.516742554,1744181337,516334107,piren,-473.44290692048696,-300.0642155219194,2.342628108408233,0.02384213212283066,-1.201515393335807e-05,-0.012849217277795772,0.9996331578168172
2025/04/09 08:48:57.686638369,1744181337,686136750,piren,-473.41427902069523,-300.11643785131054,2.320722049276335,0.028020308250017244,4.598950596785656e-05,-0.012185784029361565,0.9995330744293203
2025/04/09 08:48:57.858573762,1744181337,856031510,piren,-473.37329748875845,-300.17143144044104,2.297105299050988,-0.0349124949075538,0.00041464285179860057,-0.012183516785724866,0.9993160199303158
2025/04/09 08:48:58.27365194,1744181338,26995965,piren,-473.34086971238304,-300.10348232490264,2.3238073340026464,-0.022737768356222886,0.0008651852135660576,-0.01177419035525587,0.9996717530200617
2025/04/09 08:48:58.200682365,1744181338,198777168,piren,-473.30815261051424,-300.05978787826035,2.341867032733058,-0.0020373797466069024,0.0007773446125073924,-0.01098939605941477,0.99993723702709
2025/04/09 08:48:58.374870082,1744181338,370073986,piren,-473.2654405243939,-300.05445493796356,2.344861342024184,-0.0323545343126115,0.0008178117971657124,-0.01096679806547686,0.9994159517605617
2025/04/09 08:48:58.544401651,1744181338,542553469,piren,-473.2333597572661,-300.0069908120499,2.3635270968503193,0.02473760453530816,0.0001496039116972462,-0.010873779484407594,0.9996348280548497
2025/04/09 08:48:58.713390557,1744181338,712934687,piren,-473.1949351413102,-300.06043581644195,2.3408878537548343,-0.002170228007976113,0.0003943952520007637,-0.009996279528202973,0.9999476031064691
2025/04/09 08:48:58.884215067,1744181338,883083252,piren,-473.1646811758864,-300.07235757672396,2.337037967845242,0.026222083288229472,-0.00012448332908445516,-0.010060789378295833,0.9996055058716973
2025/04/09 08:48:59.54365729,1744181339,53865090,piren,-473.13607636574875,-300.12844989869734,2.3131496795769126,-0.02780841986396372,0.0006713772979672232,-0.01005199832360878,0.999562503481846
2025/04/09 08:48:59.224646893,1744181339,224297546,piren,-473.0954394604074,-300.08875598498815,2.328970147325204,-0.02696379854065323,0.0008185090805980442,-0.00957057940052736,0.9995902598670529
2025/04/09 08:48:59.396087249,1744181339,395431423,piren,-473.0659113150618,-300.04411203648596,2.3469721344246723,0.001952344164875851,0.0006641524411990419,-0.009091379409573363,0.999956546092993
2025/04/09 08:48:59.603301184,1744181339,602494713,piren,-473.014862081693,-300.0482260144812,2.3459013591810534,0.004854301890350576,0.0003545121498723811,-0.008696667948501326,0.9999503377872756
2025/04/09 08:48:59.776158749,1744181339,773436892,piren,-472.9855255899124,-300.06877318692096,2.3381580127588135,0.0005384468136632766,0.0003703208311231505,-0.008668508081995296,0.9999622142386898
2025/04/09 08:48:59.943901816,1744181339,943577924,piren,-472.9562418127484,-300.08018437640123,2.3341288361739356,-0.03321990264118335,0.0006426667952035878,-0.008649364899933471,0.9994104329727244
2025/04/09 08:49:00.114778170,1744181340,114149119,piren,-472.9168945111511,-300.0328500946132,2.3523151534889686,0.022007322486299805,0.00020919901926312872,-0.008153587946446378,0.9997245385586742
2025/04/09 08:49:00.287597038,1744181340,286278591,piren,-472.8891984238108,-300.08205907820684,2.3311971241588796,0.027239092402927004,0.0002344473797531689,-0.007675149456295066,0.999599454261713
2025/04/09 08:49:00.461507416,1744181340,458875958,piren,-472.852986472619,-300.1363831487958,2.3073128018058324,0.029281628855198538,0.000323253997246226,-0.007674408831069135,0.9995416875586197
2025/04/09 08:49:00.633958012,1744181340,630689958,piren,-472.82476127252744,-300.18230638826486,2.2869478835956825,-0.031284886047978654,0.0007785612077795617,-0.007392134165183666,0.9994828693378865
2025/04/09 08:49:00.803832524,1744181340,802259346,piren,-472.7950985905481,-300.11479499759054,2.3140643225638846,-0.029970010382521964,0.0008271526717555525,-0.0068205544139313,0.9995271853899802
2025/04/09 08:49:00.978899471,1744181340,973953333,piren,-472.75552350882367,-300.05224146060004,2.339384368408605,0.027464373030126707,0.0004926626409989209,-0.006866168797985649,0.9995990802434853
2025/04/09 08:49:01.149999688,1744181341,148232647,piren,-472.7285390712733,-300.0968393889806,2.320730313186245,-0.00616164556874384,0.0003724942330371432,-0.00686139487810742,0.9999574074090647
2025/04/09 08:49:01.322510984,1744181341,321222247,piren,-472.69098846328785,-300.08276075188724,2.3279139252083683,0.031274015853540796,4.3495909145623215e-05,-0.0061646393331060865,0.9994918365161324
2025/04/09 08:49:01.493532347,1744181341,493072878,piren,-472.6644472771279,-300.13239963791494,2.3064537479235323,-0.025911114195248934,0.0006395515986626299,-0.0063067952642026056,0.9996441514200985
2025/04/09 08:49:01.667142461,1744181341,665805950,piren,-472.6284018485176,-300.08195052909736,2.3272349060335804,-0.0022607765073823843,0.0006203042144759433,-0.006320404671148234,0.9999772780403854
2025/04/09 08:49:01.838689923,1744181341,837752124,piren,-472.60096531619297,-300.0723597681813,2.332199113690119,-0.028069476636732905,0.0007710772465208885,-0.006005543238178737,0.9995876366640567
2025/04/09 08:49:02.9100878,1744181342,8429052,piren,-472.5644431269756,-300.02022566351417,2.3532966244889835,-0.028455354264803445,0.0005714521551421649,-0.005467585455450247,0.9995799476607093
2025/04/09 08:49:02.211917537,1744181342,211501293,piren,-472.52943893606226,-299.975497849843,2.371221168273012,-0.02716021413132085,0.0004274862726015649,-0.005503183560086379,0.9996158537130809
2025/04/09 08:49:02.386916563,1744181342,385791886,piren,-472.50277372772155,-299.9495603236116,2.3815277195405056,-0.03113253096089534,0.0003906560934867517,-0.005348102533221283,0.9995008807915478
2025/04/09 08:49:02.562636359,1744181342,562100832,piren,-472.4676702776002,-299.92048242871357,2.392586173299465,-0.009890953696853742,0.0008239246625097296,-0.005350618197537452,0.9999364285133437
2025/04/09 08:49:02.736514632,1744181342,736131602,piren,-472.44149128958304,-299.9450434681425,2.3830957445438297,-0.0016757050517946762,0.00014450661191351528,-0.004890992758820949,0.9999866245706748
2025/04/09 08:49:02.908657510,1744181342,907374324,piren,-472.4088600342005,-299.983103875462,2.3678424691902036,-0.0014927213008797211,0.0001628197756899189,-0.004191277787457173,0.9999900891825614
2025/04/09 08:49:03.79638020,1744181343,79034092,piren,-472.3832107445741,-300.01934317272526,2.3531077769692406,-0.0011683954491929186,0.00034604362739043494,-0.004237680222695614,0.9999902785388529
2025/04/09 08:49:03.252923734,1744181343,251568096,piren,-472.35108791878463,-300.0514922596617,2.339852329393852,-0.001149478072285944,-4.8484102435719616e-06,-0.004238195010923093,0.9999903581433691
2025/04/09 08:49:03.424572448,1744181343,424255598,piren,-472.3266551391898,-300.0713734285977,2.3316075554008076,-0.0047498299385701215,0.0006357449075145025,-0.004392251275362236,0.99997887131314
2025/04/09 08:49:03.598156217,1744181343,596728663,piren,-472.3017434993125,-300.07801572926684,2.328974512889934,-0.006064645501059742,0.0006027432953772213,-0.004410872641745117,0.9999717000885598
2025/04/09 08:49:03.770089292,1744181343,769739001,piren,-472.2687113026714,-300.08117056358043,2.328011136626775,-0.029011182216139915,0.0005797248955902042,-0.004382521651224483,0.9995693116184811
2025/04/09 08:49:03.942813726,1744181343,942377640,piren,-472.2438495864454,-300.03716405715284,2.3451602850234354,-0.0053313507845859105,0.000452592944296635,-0.005138808100785159,0.9999724818762474
2025/04/09 08:49:04.116737258,1744181344,115089119,piren,-472.21195396616656,-300.0355744586595,2.3461177235766977,-0.00399564924688266,0.00047416412335061673,-0.005668157157239434,0.9999758406831242
2025/04/09 08:49:04.294966987,1744181344,294595598,piren,-472.18989057515637,-300.0403106915945,2.344330910567615,0.024810902870093115,0.00022092163814436033,-0.0057268138323135365,0.9996757343737671
2025/04/09 08:49:04.469471889,1744181344,468146325,piren,-472.15897632323913,-300.0917915048445,2.3214400690544457,-0.0325836085516457,1.5941198998276274e-05,-0.005740780269739823,0.999452525956849
2025/04/09 08:49:04.682718155,1744181344,682335837,piren,-472.12910226065884,-300.04290133518725,2.3395642309266025,0.001559873545797195,-4.761142078886172e-06,-0.006344146134951813,0.9999786590631178
2025/04/09 08:49:04.855645405,1744181344,855177567,piren,-472.0996813186134,-300.0499416268847,2.336744281990127,0.02731822338963145,0.0009462028400014573,-0.00638865505901709,0.9996059245810605
2025/04/09 08:49:05.31236164,1744181345,29106941,piren,-472.0766366879147,-300.10268794711294,2.3140083330928753,-0.0005075926748166755,0.00028833516551740504,-0.007203269079528723,0.9999738857225606
2025/04/09 08:49:05.203892829,1744181345,202631399,piren,-472.05508482522004,-300.1024278117369,2.3152706366034774,0.025307651766933646,7.419006325000606e-05,-0.007967577546392443,0.9996479555153006
2025/04/09 08:49:05.379020328,1744181345,378603267,piren,-472.0271944586542,-300.1435639951564,2.2978574206908364,0.025585113030010917,0.00039219812119518644,-0.007968294145846447,0.9996408127223901
2025/04/09 08:49:05.554895992,1744181345,553978871,piren,-471.99934690183846,-300.1765584849129,2.2835587856044137,-0.0005657655788366844,0.0008219826564854508,-0.008744845023250306,0.9999612652194791
2025/04/09 08:49:05.730362423,1744181345,728359434,piren,-471.9766798807758,-300.1519756112357,2.2945103793376824,0.022681658323786734,0.0005066690336552707,-0.009425123072496206,0.9996981808112095
2025/04/09 08:49:05.903298545,1744181345,902831636,piren,-471.9556642316446,-300.16426596287795,2.2888079218444304,-0.021733823436087246,0.001484672643623365,-0.009650951524974676,0.9997161076028799
2025/04/09 08:49:06.80906984,1744181346,79504145,piren,-471.9251077090471,-300.10074014612655,2.314910650445795,-0.019971409911333504,0.0008016841105612237,-0.009998307066822821,0.9997502357811865
2025/04/09 08:49:06.255270353,1744181346,253952375,piren,-471.9039709775671,-300.04506420225187,2.33802971725901,-0.03193308678171477,0.0007402383989768687,-0.009983646438692111,0.9994398715377986
2025/04/09 08:49:06.430281968,1744181346,429862265,piren,-471.8770040254245,-299.97547939398015,2.365757538765667,-0.01747796026723192,0.0004961270106706507,-0.010192964993137734,0.9997951681357212
2025/04/09 08:49:06.607307158,1744181346,606596156,piren,-471.8497878745326,-299.9446024125644,2.3787169493844025,0.002326793999300713,5.3804377678538626e-05,-0.010749720734900612,0.9999395114900178
