time,header_stamp_secs,header_stamp_nsecs,header_frame_id,twist_linear_x,twist_linear_y,twist_linear_z,twist_angular_x,twist_angular_y,twist_angular_z
2025/04/09 08:48:17.235880030,1744181297,233171937,piren,0.0023053216455880344,0.06847905620615918,0.025495998789751326,0.0005757923449551922,0.00243817517745801,0.00042485502995536466
2025/04/09 08:48:17.392098551,1744181297,388697539,piren,0.0020143469017859716,0.03977433370775341,0.014805258771933675,-0.0009937249947023893,0.00016542189068673093,-0.0005443677905917669
2025/04/09 08:48:17.546589998,1744181297,541195624,piren,0.0010411136281751855,-0.07999203687192435,-0.038467852649194785,0.0020812525198811898,-0.0023515638709596183,0.0
2025/04/09 08:48:17.828040460,1744181297,759169003,piren,-0.0007052830771071516,0.043058383580098634,0.01854325493884015,-0.001004553401936973,-0.002800537238906359,-0.0004900723710323939
2025/04/09 08:48:18.32127407,1744181298,14262925,piren,-0.0018783956601077416,0.032163425449605085,0.01954152802042808,0.000551863582010207,-0.0018133554232016712,-0.00022091570872991533
2025/04/09 08:48:18.194031168,1744181298,184794791,piren,-0.0026294605720644437,0.11656932429313054,0.05712991133290207,0.001782130399759853,0.0016100024552900087,-0.00023161615100943388
2025/04/09 08:48:18.407083898,1744181298,401690749,piren,-0.0031192378828948015,0.12878874674339819,0.05358886345550548,0.0003179572399178149,0.0013807325652249916,-1.2572257593235514e-05
2025/04/09 08:48:18.560841794,1744181298,557159314,piren,0.0006611539429351948,0.02057039133109082,0.009239711434930175,-0.0012862941789221964,-0.0003761390537633363,0.0
2025/04/09 08:48:18.717070322,1744181298,713071947,piren,-0.0013760071527664814,-0.14449313938674688,-0.06952530379326863,0.0020985282495160134,-0.000654327371815038,0.0029786493477333706
2025/04/09 08:48:18.872841775,1744181298,868413753,piren,-0.0030578619122440713,-0.042044050928545074,-0.01927666021216144,-0.0008546316429333692,5.4369614900133e-06,0.0015089345882869072
2025/04/09 08:48:19.29588337,1744181299,25747131,piren,-0.0034510860364579546,-0.04861330939186395,-0.019244297977099974,0.0006542958718717989,0.0007677670140158433,0.0
2025/04/09 08:48:19.185012917,1744181299,180495543,piren,-0.004933102273231599,-0.06860827269039553,-0.02220671513200729,-0.0011465962997216901,0.0010559038474538972,0.0001608834285783155
2025/04/09 08:48:19.338780028,1744181299,335350313,piren,-0.002108217375799542,-0.16391169097163732,-0.07901460986649021,0.0019292341617532223,-0.00042177317016640713,0.0
2025/04/09 08:48:19.494453740,1744181299,490810111,piren,-0.0002257927097611075,-0.01612366673722316,-0.008290993268285097,-0.0012877257815757848,-0.0016479874605414568,-0.0008764517198686999
2025/04/09 08:48:19.649738748,1744181299,645848669,piren,0.0006004928231733806,0.0019524123880635756,0.002087276226212979,0.00019183854959443374,-0.0020384621438567356,0.0
2025/04/09 08:48:19.813141222,1744181299,802811007,piren,0.0004706319217302542,-0.00762286700627769,0.0004475172963327537,-0.0015096505658422125,-0.000743293627916952,-0.0009419910259034677
2025/04/09 08:48:19.968589752,1744181299,962167884,piren,0.00022794012697063154,-0.10809876293932613,-0.04403286174614858,0.0003824446413789054,0.0009786666548023681,-0.0007072781658784034
2025/04/09 08:48:20.120646569,1744181300,118361672,piren,-1.4365036528380597e-05,-0.06341851021553198,-0.024015578466581956,0.0003695894944827748,0.0012407452830688992,0.0
2025/04/09 08:48:20.277421628,1744181300,273547977,piren,-0.00022979863969520883,-0.024644728474565194,-0.009048715033555208,0.0008479138668282878,0.0010034768312819397,-0.0009002002601913616
2025/04/09 08:48:20.431096231,1744181300,427454678,piren,0.00019762725414094301,0.12136245598326613,0.04215778741447222,-0.0010797242785583016,0.0003894347359842585,0.0
2025/04/09 08:48:20.586599774,1744181300,583148881,piren,2.5830499328116793e-05,-0.01594476395878943,-0.009400025274166382,0.0005498104619839951,-0.00028557049797148465,-0.0010255634577006657
2025/04/09 08:48:20.741987444,1744181300,738870057,piren,-0.00042763039192055165,-0.0050817627563781755,-0.002270864249106909,5.405222885359669e-05,-0.00225596420851007,0.0
2025/04/09 08:48:20.897466449,1744181300,894497460,piren,-0.0020591038996179653,0.001959133581664773,0.0027212157751156756,0.0003173004832271843,-0.0008689904864707308,0.0006043559393935283
2025/04/09 08:48:21.83567337,1744181301,80062465,piren,-0.002036182129123298,0.12510556591604918,0.05069124058534905,0.00015176142095918349,0.0005960756723156505,0.0003676068192666477
2025/04/09 08:48:21.247575567,1744181301,238225644,piren,-0.0016509794566608566,0.07204245452195117,0.03144218082914057,-0.0010734478935668674,0.0013158608640234835,0.0
2025/04/09 08:48:21.406035216,1744181301,394638714,piren,-0.0011204092421203669,0.050131701199041596,0.018746725448802994,0.00029799045311335135,0.0010487488442659752,0.0008032662647841566
2025/04/09 08:48:21.556315784,1744181301,551946289,piren,-0.001367913342375497,-0.10805791551361738,-0.04111231926732792,-0.0009736710312631013,0.0011992146536013548,0.0
2025/04/09 08:48:21.713265689,1744181301,709531537,piren,-0.0046242211729035036,-0.1652302035267415,-0.08322295041769907,0.002226620190325887,0.00015492910993885825,0.0010175974861632389
2025/04/09 08:48:21.869337944,1744181301,865389942,piren,-0.002809163215630493,0.0058614519388863464,-0.001200898304033438,-0.0009002422951294412,-0.0009039345101598375,0.0
2025/04/09 08:48:22.24679971,1744181302,21339856,piren,-0.0006941590772137536,0.036751327314381486,0.015132141392093705,0.0004003463578612992,-0.0016882191934827868,-0.0007128292916174947
2025/04/09 08:48:22.180451816,1744181302,176970072,piren,0.0004732465001129117,0.03194511612320077,0.013833358817667736,-0.0015275976669703593,-0.0018955833336825785,-0.0006047756661634732
2025/04/09 08:48:22.334767461,1744181302,332337076,piren,0.00014690618576200434,-0.0706129547338386,-0.032955682393520966,0.0015529471759149302,-0.00042418126370437413,0.0
2025/04/09 08:48:22.491313372,1744181302,488245387,piren,-0.00018761505863614425,0.06524000033417626,0.02805954486734784,-0.0014460987367732265,0.000835379062106187,-0.0004288672337116474
2025/04/09 08:48:22.648349418,1744181302,644766269,piren,-0.0001481510679348047,0.06598414221339177,0.02963688882207627,0.00029834282682076344,0.001191092558347467,0.0
2025/04/09 08:48:22.811104833,1744181302,803623483,piren,0.0003287412885729436,0.039644077196480214,0.01719338386038673,-0.0011577094445257019,0.0014245717424586535,-0.00042244488164625276
2025/04/09 08:48:22.966436144,1744181302,963183516,piren,1.9187192234541915e-05,-0.08049461455025625,-0.03366013687109299,0.0007937041687489414,0.0006129175549376274,0.0
2025/04/09 08:48:23.128176140,1744181303,123457375,piren,-0.00029552466313511174,-0.05035510312053813,-0.020052062449317242,0.000656661018795251,-0.00034119536038982316,-0.0003204518989029559
2025/04/09 08:48:23.294702821,1744181303,283316819,piren,-0.000726088491210178,-0.02291723996365589,-0.009507875303578713,0.0008914223705800189,-0.0014205145535473133,-0.0002370100735018778
2025/04/09 08:48:23.445292701,1744181303,441449177,piren,-0.0007357768871065874,0.11520541709113706,0.039273183255009045,-0.0012509765946549071,-0.0015327721204698834,0.0
2025/04/09 08:48:23.641059408,1744181303,637207090,piren,-0.001017652956197366,-0.03168794810948733,-0.01648665697918399,-0.001228274882642883,-0.0005130876740676215,-0.000371456662151205
2025/04/09 08:48:23.799484685,1744181303,794901603,piren,-0.0013594479664677899,0.0019018918973415153,0.0006667381005123697,-0.00029669255780383045,0.00040572133375301736,0.000208809493413437
2025/04/09 08:48:23.955722486,1744181303,952451469,piren,-0.0018572120908058665,-0.12040878977498831,-0.04556336408980386,-0.001535166784258253,0.0018365588131111414,0.0
2025/04/09 08:48:24.115582359,1744181304,111119134,piren,-0.0012309998857775227,-0.15264926580723603,-0.07646114196096802,0.0019402278906926374,0.001558713357145623,0.00047244632223771206
2025/04/09 08:48:24.272355682,1744181304,269421893,piren,-0.0004607689658474563,0.034152728979696394,0.011746693519547317,-0.0006411971397105713,0.0003567090995858411,-3.45737834158712e-05
2025/04/09 08:48:24.430741534,1744181304,426350628,piren,-0.00021582409483944574,0.06957963275315893,0.0270266595552977,0.0005922409640297645,-0.0004543531978914392,0.0
2025/04/09 08:48:24.594642604,1744181304,585216767,piren,0.0003965461089489062,0.009554855815934338,0.006155657175950101,0.0034238230064962847,-0.0014199820029810928,-0.001010940831517984
2025/04/09 08:48:24.754139190,1744181304,743873283,piren,0.0012444567980193306,0.11114341549656863,0.0453374851056496,0.00355612894475757,-0.0017229166773129335,0.0
2025/04/09 08:48:24.908553602,1744181304,904896662,piren,0.0037545781617621876,0.0410561118090181,0.0216635746557218,0.005076974415611015,-0.001192963406968304,-0.0014919816051955958
2025/04/09 08:48:25.68292282,1744181305,65314704,piren,0.010389116739328052,0.08501817647064183,0.03713956552137804,0.0029816687429750632,0.0002595916028708658,0.0
2025/04/09 08:48:25.228714537,1744181305,223569442,piren,0.02110645016293502,0.01796305528735516,0.011904825622688355,0.0003302091479574132,0.0012660515714373645,-0.0035803880626930715
2025/04/09 08:48:25.385528587,1744181305,381969177,piren,0.03533725370180204,0.09198424849399853,0.03182103449688603,-0.00434847332230275,0.0016158332450550265,-0.0022723709935276747
2025/04/09 08:48:25.544872320,1744181305,539911643,piren,0.0527706056050455,-0.0896561231092454,-0.046188381135796014,-0.003635259057598424,0.0010164050243916401,0.0
2025/04/09 08:48:25.700523379,1744181305,697979386,piren,0.0726513293944901,0.009015764013693174,-0.0002531181891590043,-0.006033532138588427,0.001175606980866557,-0.004916863238966356
2025/04/09 08:48:25.859507776,1744181305,856483274,piren,0.09186011698630295,-0.09050779905806527,-0.03587259476241873,-0.0035624109679873233,-0.00014655473602347531,0.0
2025/04/09 08:48:26.21282580,1744181306,15238276,piren,0.11214543145727526,-0.14034540149674773,-0.07088894677778318,0.0008944103988983127,-0.0021072835371057225,-0.011898793213570725
2025/04/09 08:48:26.178238309,1744181306,173648632,piren,0.12613077132448583,0.032034311765811695,0.008387332472509558,0.003803099418128245,-0.0023118271469599974,-0.005813488856037893
2025/04/09 08:48:26.366206009,1744181306,363419781,piren,0.13615569090241586,-0.09873757831291126,-0.043734179827722,0.005318076289964153,-0.0016130736637391778,-0.004674867923904702
2025/04/09 08:48:26.524472298,1744181306,520541716,piren,0.1458141994422784,-0.05706502437383818,-0.021473248976315622,0.0032232451467151643,-0.0003462400335951487,0.0
2025/04/09 08:48:26.682456882,1744181306,679699972,piren,0.1527754873918839,-0.027262114080711018,-0.006653311357538949,0.0001898248422358497,0.0015930058457756934,-0.009129285771561569
2025/04/09 08:48:26.842100775,1744181306,837939884,piren,0.1604457812541899,0.005883088406569294,0.008297257485735895,-0.0024408408273037456,0.0021870081635293245,0.0
2025/04/09 08:48:27.165496,1744181306,996017431,piren,0.17256799770844747,0.048454829681451816,0.02858337799996551,-0.003906987832955526,0.0016334680147992388,-0.011389699348271207
2025/04/09 08:48:27.157103336,1744181307,153818266,piren,0.1861401702911392,0.15114847000953777,0.06177825190997377,-0.00432515293938566,-0.00020153796514030736,0.0
2025/04/09 08:48:27.317539210,1744181307,313114742,piren,0.19824947674559215,0.07385256301131762,0.031559144528667954,-0.003047604212257123,-0.0013692784150640767,-0.01664931672188291
2025/04/09 08:48:27.474173044,1744181307,470954645,piren,0.20766317713349117,0.04225003771996002,0.021016351779931684,0.0015017144079722104,-0.002023963807701903,-0.007916465292007652
2025/04/09 08:48:27.633331818,1744181307,629695232,piren,0.21205050327335,0.12520213151631532,0.04177170563035908,0.0020757151385887656,-0.0006502320067022758,0.0
2025/04/09 08:48:27.798638979,1744181307,788996454,piren,0.2145586445997989,-0.042946542736397336,-0.02579422980326908,0.005650541119445519,0.0005758161929401922,-0.011771929365553878
2025/04/09 08:48:27.951509693,1744181307,947904982,piren,0.2175353890726922,0.06449724823415792,0.023784316020512015,0.005069060442096408,0.0008734814728875042,0.0
2025/04/09 08:48:28.108856262,1744181308,105051957,piren,0.22268542473829683,0.09233377722598747,0.03230264343369117,0.0016434852063988779,0.0013465619283621756,-0.013447387126908274
2025/04/09 08:48:28.266523808,1744181308,262932667,piren,0.22738334384236047,-0.0007734961412128021,-0.0028457887906544518,-0.001951150707855462,0.00014289177036715255,-0.009048507452684288
2025/04/09 08:48:28.425092071,1744181308,419742873,piren,0.23140763126885266,-0.04345680409834408,-0.018664725163253345,-0.004452951913756688,-0.0004148136821422641,0.0
2025/04/09 08:48:28.581471650,1744181308,579201089,piren,0.23851565230270272,-0.060666660860384504,-0.02580197925317396,-0.005476000792679716,-0.0004260839646133432,-0.013655456066127442
2025/04/09 08:48:28.740142729,1744181308,737657757,piren,0.24598739313741394,-0.03911459677452424,-0.018418965315980262,-0.0031880881970856203,-0.0005755849819027674,0.0
2025/04/09 08:48:28.898919192,1744181308,895957032,piren,0.25653631140707345,0.0728007344607979,0.02689619415744565,-0.0007577760016644555,-0.0007667281536590932,-0.016906999423823444
2025/04/09 08:48:29.87068348,1744181309,83976302,piren,0.2626247202098906,0.019365182856436958,0.0072654759081833,0.0032154366646846688,-0.000853713096580193,-0.008823058026209604
2025/04/09 08:48:29.251111760,1744181309,243807211,piren,0.26341611575143176,0.10244048535227783,0.04458057442843837,0.004898857282125905,-0.00012505413638556822,0.0
2025/04/09 08:48:29.413163953,1744181309,402792826,piren,0.2621697866310583,0.1508763877026777,0.045137667131797655,0.003754767720282444,0.0010816054810448429,-0.018301018077898176
2025/04/09 08:48:29.569433531,1744181309,565414426,piren,0.2618330445536709,-0.07360709050362839,-0.03876903586767326,0.00190500887815902,0.0008759528799150751,0.0
2025/04/09 08:48:29.728023098,1744181309,724587617,piren,0.26712999897047135,-0.10146556935530925,-0.04792862213702468,-0.002140401452796513,0.0004896588855911687,-0.0310315606002428
2025/04/09 08:48:29.888126945,1744181309,883914222,piren,0.26881039623116243,-0.09293828627121153,-0.03698346496678842,-0.0054341705823544,0.0004901107893862809,-0.013190333188116153
2025/04/09 08:48:30.46580930,1744181310,43637921,piren,0.27153369020172946,-0.16472174143363255,-0.07631062495178205,-0.004671432677833586,0.0001399760934633807,0.0
2025/04/09 08:48:30.207616340,1744181310,203971656,piren,0.2787693822104714,-0.06824077870673496,-0.031582730794449114,-0.0033142309083409706,-0.0011964841711947624,-0.023262660529794966
2025/04/09 08:48:30.367077659,1744181310,363547975,piren,0.28565307243410987,-0.02478279027224859,-0.012432666701218703,-0.001016386343222401,-0.0015694942845268407,0.0
2025/04/09 08:48:30.528647564,1744181310,522373235,piren,0.290834621793876,0.014558119537878337,0.004230504846251473,0.003148922390180138,-0.0015531125459442043,-0.03979565803039445
2025/04/09 08:48:30.686938626,1744181310,682507690,piren,0.2888091223930056,0.0802442732620971,0.032682292469324206,0.004459496178533323,-0.000717444192805702,-0.019804500974653663
2025/04/09 08:48:30.846077690,1744181310,842087823,piren,0.28217836224594606,0.12785027944741176,0.04914368245830826,0.003475180005826537,0.0009470346027802152,0.0
2025/04/09 08:48:31.12141174,1744181311,4591619,piren,0.2818384566553914,0.0936190252303529,0.033645401011164665,0.0012203371098160503,0.0017981006581213545,-0.033905583511522584
2025/04/09 08:48:31.175156615,1744181311,165900674,piren,0.2830879452276958,0.06416676350209631,0.01486373217000431,-0.0014798834438500528,0.00148289477064359,-0.02228363064688134
2025/04/09 08:48:31.339310372,1744181311,327009612,piren,0.2828405667743406,-0.08168945848238202,-0.04679552437731339,-0.0032566991952274853,0.0007714627156674165,0.0
2025/04/09 08:48:31.493423272,1744181311,488746437,piren,0.2875406324155727,-0.05152038061340608,-0.030550736425979795,-0.005411526221770724,-1.3725755435314267e-05,-0.03523703889116272
2025/04/09 08:48:31.687691210,1744181311,684941791,piren,0.2984650778627273,-0.09407438789779189,-0.04937902994035841,-0.003813348016600872,-0.0013667605006516717,-0.02048965498786414
2025/04/09 08:48:31.848067349,1744181311,844444405,piren,0.29781918129208,-0.09093231940805119,-0.05102995970653635,-0.0010137214569626103,-0.0019835779687384187,0.0
2025/04/09 08:48:32.9806009,1744181312,4033083,piren,0.3002038861692732,-0.013646384095084192,-0.016724904611003264,0.0015197535270320894,-0.00098171418941243,-0.0423401597133629
2025/04/09 08:48:32.166716230,1744181312,163260582,piren,0.30246636202810384,0.04267960457396028,0.008171013618489351,0.0036851019468053274,-0.0001733630465426121,0.0
2025/04/09 08:48:32.325772303,1744181312,322180978,piren,0.3057836063713155,0.08144157372944846,0.023342496007862323,0.003587831444641846,0.000650632312347624,-0.0743880375322263
2025/04/09 08:48:32.485927687,1744181312,482666708,piren,0.2987657335980228,0.10255196374637005,0.03031773054064563,0.0021291516045653085,0.0011931995164113705,-0.03283337448938204
2025/04/09 08:48:32.649938464,1744181312,643654807,piren,0.28774463878755285,0.10470154695236568,0.031935743846185985,0.00032010114315276356,0.0019797140171113354,0.0
2025/04/09 08:48:32.808822589,1744181312,805273232,piren,0.2856779201543581,0.12372399821589161,0.03461568913775042,-0.0030291513031966972,0.0012182908529143116,-0.052580965690205754
2025/04/09 08:48:32.969341118,1744181312,966394218,piren,0.2937491963902737,0.059987210986237965,0.005919278196433654,-0.005620369696602329,-0.0007195284367137389,0.0
2025/04/09 08:48:33.130958821,1744181313,126884655,piren,0.3063872222101121,-0.04156209844616401,-0.0353921808779628,-0.004090628914182197,-0.0016753354856842055,-0.08989922637291727
2025/04/09 08:48:33.289595791,1744181313,286591243,piren,0.30682076690655147,-0.09786063347802682,-0.07311403572519952,0.0005041953705542275,-0.0013491109256125488,-0.038634157573717305
2025/04/09 08:48:33.450269212,1744181313,446793805,piren,0.2967273519161371,0.07964773992871736,0.012842166045514837,0.0014991376472487778,0.0001299583056437857,0.0
2025/04/09 08:48:33.610959424,1744181313,607967652,piren,0.2937202100890502,0.2171962251859355,0.05279701565809724,0.001477032379469168,0.0012181959002719731,-0.06296380673867585
2025/04/09 08:48:33.772143456,1744181313,769149355,piren,0.29760236875916274,0.07473026617075931,0.0049385897115564025,0.0034685810658391858,0.0002989011135791934,-0.04519802572109383
2025/04/09 08:48:33.934055667,1744181313,929541271,piren,0.29290085177146297,0.07135782351869728,0.01161123970212691,0.0032047421570229567,3.632507401265954e-05,0.0
2025/04/09 08:48:34.93153032,1744181314,89376664,piren,0.2920178539216151,0.17309102235766793,0.04932121843609696,-0.0006082065283299083,0.0008284234802797383,-0.07038358054177925
2025/04/09 08:48:34.258080832,1744181314,250691089,piren,0.2934559259497614,0.1279842315391263,0.02367114765925335,-0.0028614574677412433,0.0005357552199720638,0.0
2025/04/09 08:48:34.453628218,1744181314,448942479,piren,0.3029691978812508,-0.030034499778035857,-0.039729296757646256,-0.005681595383200492,0.0007304698532294878,-0.07798850925919734
2025/04/09 08:48:34.614994646,1744181314,611643871,piren,0.2983841418981478,0.0221488192122836,-0.017197258720692665,-0.003810032674834833,0.0008241301447612821,-0.049839771292127945
2025/04/09 08:48:34.775750876,1744181314,773138224,piren,0.2845569414489533,0.05243862990612272,-0.003409494781178477,-0.001267931171259791,0.0009421134421088832,-0.05088486972725386
2025/04/09 08:48:34.938209161,1744181314,934499964,piren,0.2787946850067886,0.049745267011145226,-0.006660898102224344,0.0019488256767485868,-0.0006779345063744134,0.0
2025/04/09 08:48:35.98809166,1744181315,95505844,piren,0.27773002193682556,-0.047696820043279145,-0.05275387673563198,0.004887529971645389,-0.0020144099722208117,-0.07913898902415122
2025/04/09 08:48:35.258657048,1744181315,255779883,piren,0.2694902543617321,0.1089433890181962,0.017588228206191627,0.0029454932749305306,-0.001844653431006066,0.0
2025/04/09 08:48:35.421434509,1744181315,418102457,piren,0.26206844412790625,0.13701807626119017,0.03290116041057549,0.0021647364152843278,-0.0003195007217003978,-0.09892029071438094
2025/04/09 08:48:35.583232204,1744181315,579557687,piren,0.24493972154514654,0.17560727471050044,0.03981987959016884,-0.002061508105315945,-0.000684738597473426,-0.04245115591869549
2025/04/09 08:48:35.745459724,1744181315,740877115,piren,0.24431747344138433,0.06093006449276665,-0.0019027249872592318,-0.0005026349671157793,-0.0014235486013111222,0.0
2025/04/09 08:48:35.912915629,1744181315,904528916,piren,0.22458329069705335,0.1202939889406431,0.022428881480442964,-0.002602586800756759,-0.0006553084635861209,-0.047948874087095486
2025/04/09 08:48:36.73323441,1744181316,67648708,piren,0.21454841434679153,0.10470651669761073,0.013031514722180984,-0.0028799705380556733,0.003878893168797475,-0.02165649168948888
2025/04/09 08:48:36.231771199,1744181316,229171619,piren,0.20969683760703337,0.029055914398952297,-0.016491354998585325,0.0005599553111338135,0.0052869576791511495,0.0
2025/04/09 08:48:36.394872868,1744181316,390683254,piren,0.2076135124795744,0.04799885550427252,-0.006172113503419187,0.0028637648113620773,0.00432965896711091,-0.02598353867891949
2025/04/09 08:48:36.556592610,1744181316,553119381,piren,0.2084001893623719,0.17444682334281827,0.03671012379192751,0.0031728307767769485,0.0003021148055544556,0.0
2025/04/09 08:48:36.717743355,1744181316,714005289,piren,0.20603791634681431,0.10042817628980903,0.005924684968432452,0.0034079042411281346,-0.0030868538345878234,-0.025461209046201198
2025/04/09 08:48:36.879162649,1744181316,876208656,piren,0.19544721040230625,0.0032043318036563614,-0.02954162090187923,0.002047784364497043,-0.005631207950392845,-0.0077566535033112465
2025/04/09 08:48:37.80716223,1744181317,71750838,piren,0.18467823426097546,0.062114223604572825,-0.0034438346066247537,-0.0016380370844276016,-0.004138959760732115,-0.003067402428519384
2025/04/09 08:48:37.237088836,1744181317,233910142,piren,0.1735921263927701,-0.030380671017249172,-0.03502914181447041,-0.0024402984313242823,-0.0007064738323272613,0.0
2025/04/09 08:48:37.400832192,1744181317,396681377,piren,0.1662347518821552,-0.09055507823668495,-0.05949734090808523,-0.003169055084143015,0.002635371205212353,-0.0005004828803160906
2025/04/09 08:48:37.563017890,1744181317,559181988,piren,0.16307014619022422,-0.04247908901236064,-0.03858312887264664,-0.0013974315482006955,0.005350789999581088,0.0
2025/04/09 08:48:37.724193070,1744181317,721668901,piren,0.15978227313713747,0.03216699877085105,-0.0054879369596357,0.0006648753076939521,0.003937572744265453,0.007396912976518552
2025/04/09 08:48:37.886642142,1744181317,884237955,piren,0.1578643914547227,0.0747284329291856,0.013863918030498426,0.0011256112907639191,0.00032351154131623285,0.0061924449017296546
2025/04/09 08:48:38.50759556,1744181318,46576872,piren,0.15394953493881702,0.11215797201122978,0.027303552300534478,0.0026311085828571805,-0.003501764851710729,0.0
2025/04/09 08:48:38.211503392,1744181318,208468411,piren,0.1446409025863658,0.06892368514743266,0.018159201687862316,0.002553350837712513,-0.0044028398244417,0.01372183442318613
2025/04/09 08:48:38.377198641,1744181318,371841258,piren,0.1369190224130293,0.20011954236229562,0.06258335149566,0.0022143487713092457,-0.0022154553361585613,0.011571506613601356
2025/04/09 08:48:38.541663638,1744181318,535896485,piren,0.12751208324709082,0.11686842505272098,0.03461357209450231,-0.0004902079037284249,0.0010282025215912224,0.0
2025/04/09 08:48:38.706566842,1744181318,699583529,piren,0.123855940824036,0.08371068411932837,0.018452085151650706,-0.003164270231052298,0.002664570212334725,0.02022862054250373
2025/04/09 08:48:38.870632502,1744181318,863930448,piren,0.12049949467391287,-0.03840903177435512,-0.03038825253734362,-0.002921259157233621,0.0046302240814223485,0.0
2025/04/09 08:48:39.30480477,1744181319,27134183,piren,0.11479728817195484,-0.005587291337064194,-0.014428428673707154,-0.0009205665537702539,0.002552486649599657,0.032840607357674675
2025/04/09 08:48:39.191894801,1744181319,188343617,piren,0.11758523023834581,0.002076026482909478,-0.009954865708152546,0.0007781013720171868,-0.000181780615605534,0.01627743443431254
2025/04/09 08:48:39.356249984,1744181319,353402502,piren,0.12042688330632204,0.08452185854631103,0.02311941153098408,0.0018401730977121455,-0.004193236418227805,0.0
2025/04/09 08:48:39.553257143,1744181319,549902483,piren,0.11794788203742575,0.02420913539766351,0.003500632870241579,0.002984824275790339,-0.004796383277037514,0.0337391161431389
2025/04/09 08:48:39.719717336,1744181319,714693490,piren,0.1122321827224676,0.12138683177583975,0.050077285828534025,0.0028676988562726722,-0.002236341495923362,0.016144408237206035
2025/04/09 08:48:39.884486599,1744181319,879339008,piren,0.10845838229181085,0.16508112520298165,0.07156581727777349,0.0018094515476479599,0.0010590060603652464,0.016113171905470285
2025/04/09 08:48:40.47129582,1744181320,43992076,piren,0.10405076653227853,0.18239754232999053,0.05778865257606429,-0.001392551723071396,0.002834230286770098,0.0
2025/04/09 08:48:40.212802330,1744181320,208751603,piren,0.09904809676923151,-0.03981594513681341,-0.023580527795229896,-0.0018519799809059295,0.003517069231268791,0.025415216370165004
2025/04/09 08:48:40.376758865,1744181320,373286004,piren,0.09815927066978615,-0.07951003398486882,-0.037579982645209405,-0.001341358007605719,0.00200035665867935,0.01722648048162225
2025/04/09 08:48:40.541319261,1744181320,537372914,piren,0.0991397369562237,-0.07364758930657594,-0.03674554722275775,0.0004000803275205059,0.0006696310519036747,0.0
2025/04/09 08:48:40.705489024,1744181320,700798353,piren,0.09766494395912204,0.01500041959766179,0.003714735988575522,-0.0008186268918040834,-0.0019643246569791433,0.02453930855303763
2025/04/09 08:48:40.868482604,1744181320,864570042,piren,0.09569755780728822,-0.019798755649572612,-0.009221661280115204,0.0028044725149507957,-0.004230314761978621,0.0
2025/04/09 08:48:41.32594419,1744181321,29081855,piren,0.09259221546402316,0.05042037703281152,0.020828568130408107,0.002003095259154105,-0.004284140374299508,0.03755222953453636
2025/04/09 08:48:41.196009473,1744181321,193250508,piren,0.09535851861829016,-0.021871235665915045,-0.005804565414781598,0.0014023300866467154,-0.0015004957616576626,0.01599625596894271
2025/04/09 08:48:41.370022084,1744181321,356807236,piren,0.09861604196711798,-0.057295016297605014,-0.015224707716879633,-0.00013606474964117742,0.002563948814504892,0.0
2025/04/09 08:48:41.535162391,1744181321,522597644,piren,0.0989030504168896,-0.1805052879888238,-0.08775316525336338,-0.0003743293455040264,0.0039191515205016045,0.03418482206086729
2025/04/09 08:48:41.691199040,1744181321,687313993,piren,0.10261090484873335,-0.018182827120539185,-0.009556366606310582,-0.0022420944915318188,0.003215070167704761,0.015403599890992596
2025/04/09 08:48:41.853372363,1744181321,849652683,piren,0.10811164778768408,-0.016329358839061888,-0.0075331896805990225,-0.002803582415760655,0.0009638454582516232,0.0
2025/04/09 08:48:42.47386756,1744181322,43830241,piren,0.10872077703996114,0.07262324475905925,0.027269430525128785,-0.001983235680543198,-0.0030921935498298453,0.023246711051158064
2025/04/09 08:48:42.213237598,1744181322,207351229,piren,0.11028862262921485,-0.04029225622361715,-0.012563147651130147,-6.0573400265069533e-05,-0.0038404847638831823,0.015494053939801735
2025/04/09 08:48:42.377465569,1744181322,372743335,piren,0.11245330356526878,-0.14828085487036957,-0.05106712815290589,-2.7435389365811986e-05,-0.0023823302829035055,0.01586279863697378
2025/04/09 08:48:42.541404344,1744181322,536923949,piren,0.11139949031471172,-0.2034482377354377,-0.06832528372487122,0.001888225522560702,0.0011432671111898743,0.0
2025/04/09 08:48:42.705844548,1744181322,702693588,piren,0.10936388843780949,-0.2251884885822781,-0.1033474384191766,0.0012051976831928164,0.003871840891809092,0.023343747652576678
2025/04/09 08:48:42.870659458,1744181322,867357420,piren,0.10821385352088518,-0.028243148251702346,-0.00821878204715468,-0.0012664817362993367,0.002660639102042188,0.0
2025/04/09 08:48:43.35176527,1744181323,32246385,piren,0.11144368941779653,-0.05934525506278661,-0.023871959303020728,-0.0009193364105029318,0.0003938740488447723,0.03237198574637593
2025/04/09 08:48:43.199230769,1744181323,196152861,piren,0.11900098078097289,0.02637123646962542,0.015048231418834867,-0.0015293131757292942,-0.002783634814083787,0.016136182102988
2025/04/09 08:48:43.363891638,1744181323,360594033,piren,0.12682715313725368,0.0764544920226422,0.034718886721301516,-0.0009550015868006996,-0.0033014775109574753,0.0
2025/04/09 08:48:43.528370895,1744181323,524849249,piren,0.1327819376686982,0.025191134527540213,0.01793143982154176,0.00023741920920767332,-0.0019243843586726564,0.03309597802554786
2025/04/09 08:48:43.703387269,1744181323,690364903,piren,0.1335230433129019,0.17137123781635338,0.06695054570569736,-0.00010410493857636782,0.00036277593919200197,0.01550517878055236
2025/04/09 08:48:43.863071593,1744181323,855094032,piren,0.13595080499978418,0.06047785567991061,0.027132334525952973,0.00023157719261892185,0.0027593696328421175,0.0
2025/04/09 08:48:44.23270813,1744181324,20248711,piren,0.13713778160793408,0.028975903557536008,0.014978508933066069,0.0016149555565702035,0.0027983199095384962,0.033793727505869106
2025/04/09 08:48:44.186954450,1744181324,184266332,piren,0.13590248231045332,0.022854754361521033,0.011631668302482821,0.0005911848900688187,0.002276369215794968,0.016652675334947978
2025/04/09 08:48:44.355810393,1744181324,350437197,piren,0.13832778414987287,-0.03868497454116965,-0.015502524332418837,-0.0011605611624959397,-8.456060893312553e-05,0.0
2025/04/09 08:48:44.554591003,1744181324,548988594,piren,0.13920398790914124,0.009202512561301592,0.005030625487768861,-0.000572757090281958,-0.0023086731582945535,0.023049561757876317
2025/04/09 08:48:44.727746175,1744181324,715035966,piren,0.1399074646225845,0.007788321444397712,0.005233264037873092,-0.0015745354563964989,-0.0027397002670076884,0.015181675775100911
2025/04/09 08:48:44.887017549,1744181324,881723262,piren,0.14404434405232147,0.009556797662490834,0.006251100372495801,-0.0012054183596125858,-0.001377131233930971,0.01602818800700095
2025/04/09 08:48:45.50335230,1744181325,46332106,piren,0.14491344656895686,0.015518594039897544,0.009049880683325242,-0.0004570447626057684,0.000605186386565785,0.0
2025/04/09 08:48:45.216330014,1744181325,211657039,piren,0.14761913278275296,0.01927525284232888,0.011215215022171229,0.0018182204226843378,0.002531616966627411,0.022003458782444252
2025/04/09 08:48:45.381752554,1744181325,378650129,piren,0.1533056233003302,0.1090833626418641,0.04407740830546033,0.001348745558743232,0.0024735969993785563,0.015881241064470603
2025/04/09 08:48:45.547372053,1744181325,544581747,piren,0.158066382827159,0.061632625934083314,0.024001633448274426,0.0020065057668298266,0.0013019825260329962,0.0
2025/04/09 08:48:45.714552239,1744181325,711218558,piren,0.16095422629908482,0.014349823309226857,0.005670707152881499,0.0018918108838333516,-0.0008263310602476409,0.024071388294593623
2025/04/09 08:48:45.879502579,1744181325,876347666,piren,0.16448135031927213,0.0957592390597478,0.033550509431255954,-0.0013388380789635793,-0.0019181010809553307,0.01512112147017603
2025/04/09 08:48:46.60033447,1744181326,43890917,piren,0.16841369589734645,-0.011438364173452668,-0.007495558630052659,0.0003461650247039892,-0.0016913432269464528,0.0
2025/04/09 08:48:46.214505723,1744181326,210255497,piren,0.17051217469086513,-0.008657534053883104,-0.004258453143594659,-0.002236858332699648,-0.000601097868258145,0.0223735867487232
2025/04/09 08:48:46.380240568,1744181326,377136954,piren,0.17233690834964804,-0.02163930691794995,-0.009367232771180373,0.0008098704167771413,0.000992516885813959,0.014637909604461935
2025/04/09 08:48:46.560444512,1744181326,554555368,piren,0.1776006863311664,0.05966095706274484,0.02377495080430308,-0.0007272961193077538,0.0016168914795506987,0.0
2025/04/09 08:48:46.734914116,1744181326,730934410,piren,0.1791127468439428,0.013766054445831535,0.004512186023285642,0.0011310112673871375,0.0011941320369517484,0.020943662422485965
2025/04/09 08:48:46.933056883,1744181326,928663039,piren,0.17960276998786034,-0.1418619023422681,-0.07391720181769083,0.0018991014714121947,-0.0005277562078505126,0.014287754019934911
2025/04/09 08:48:47.108485304,1744181327,95705521,piren,0.18384202856559578,0.0029874215681426307,-0.0043515751023988,0.0009622127396049958,-0.001035386062250207,0.015193910083447138
2025/04/09 08:48:47.272753647,1744181327,263752577,piren,0.18530862490982455,-0.014594085649803742,-0.007392067852159406,0.0004898710728610685,-0.0015495494328590538,0.0
2025/04/09 08:48:47.436085231,1744181327,431035431,piren,0.18870449242226284,-0.029673481585554596,-0.01329056604925612,-0.00035339948695231203,-0.0009000627074728873,0.02974390072163477
2025/04/09 08:48:47.603229795,1744181327,598346088,piren,0.18976081038245565,0.08104728944046291,0.03830164643556014,-7.394469080194213e-06,0.0003013472384766885,0.01355620382250539
2025/04/09 08:48:47.768372610,1744181327,765075901,piren,0.1947254109453031,0.13509322595947756,0.04859691763736349,-0.0008285394509783203,0.0010385314811376292,0.0
2025/04/09 08:48:47.934860750,1744181327,931097897,piren,0.19734667857963437,-0.023183680258436777,-0.010844465715439719,-0.00023962219900943235,0.0008807770848345646,0.02920927485941157
2025/04/09 08:48:48.101087138,1744181328,98020510,piren,0.19739066574174555,-0.05447643141110345,-0.022357256476829544,-0.00031524750180118914,0.0011186500840055084,0.013746811332450454
2025/04/09 08:48:48.270695253,1744181328,264663887,piren,0.1958388446943505,-0.052368067012817564,-0.020045868304626797,0.001517243853472087,0.00048803657520550656,0.0
2025/04/09 08:48:48.437041189,1744181328,433657115,piren,0.1981193464611657,-0.05484378634736655,-0.025339208787187376,0.0014054817148757867,-0.0007009297248023894,0.02852630873518398
2025/04/09 08:48:48.605467033,1744181328,601333681,piren,0.20087609443605783,0.0735519687253235,0.027979377066979543,0.0008778593323943507,-0.0013016815589506417,0.013679410774069601
2025/04/09 08:48:48.772908885,1744181328,769121695,piren,0.20482976747703197,0.02526882783025787,0.010105296314079455,-6.83273611194631e-05,-0.001289278447914727,0.012405876990005749
2025/04/09 08:48:48.938384050,1744181328,935253699,piren,0.20527753994297868,0.034030387087354674,0.01371579622649228,-0.0009207517191954338,-0.001369294083975002,0.0
2025/04/09 08:48:49.107178391,1744181329,102388360,piren,0.20423569650467513,-0.002224266799903441,-0.0006734435037588999,-0.0007931032283616591,0.0003871631026901953,0.019506290420998978
2025/04/09 08:48:49.272496602,1744181329,268698816,piren,0.2067660586644029,0.026873503328701864,0.010857080328851217,-0.000951819310861729,0.0020970376125980937,0.010290692466002522
2025/04/09 08:48:49.476367098,1744181329,469933882,piren,0.2111786608852819,-0.008535897831554794,-0.0036566809246770843,-1.2754235816478507e-05,0.0016764111592052638,0.0
2025/04/09 08:48:49.643780871,1744181329,639150884,piren,0.21539117723074916,-0.14605803444949558,-0.06760291658395164,0.0005059843050494051,0.0007134082711767151,0.027054468858746957
2025/04/09 08:48:49.809482168,1744181329,805489102,piren,0.21591279110516054,-0.09128722796364044,-0.04184287675779074,0.0019693191195594346,-0.0014255144738788907,0.01305266067436767
2025/04/09 08:48:49.977123029,1744181329,972138749,piren,0.2178385112984592,-0.05381578520236119,-0.02915041629141949,0.0015728060673148073,-0.00231928216125311,0.011598878423251247
2025/04/09 08:48:50.141330037,1744181330,138465040,piren,0.21746923586784028,0.09857444753183305,0.03482950431146605,0.001733776990533764,-0.0020070731899391675,0.0
2025/04/09 08:48:50.309630680,1744181330,306799173,piren,0.21501057875951132,0.05398200831675151,0.020692043893754022,-0.0019978079038754436,-0.00015978224503254647,0.017307303088127262
2025/04/09 08:48:50.478822618,1744181330,474380397,piren,0.21391624755898345,0.055105890680002406,0.020933389858814135,-0.0014291624503654941,0.0015859284660501517,0.0
2025/04/09 08:48:50.647028969,1744181330,642379048,piren,0.21436487489492398,-0.000600597002478007,-0.000886509235684058,-0.00042149198253493684,0.002443803000648155,0.026275272722616396
2025/04/09 08:48:50.815078774,1744181330,810911327,piren,0.21745006875523953,0.10766418206813715,0.04136916037667622,-0.0013309297679925318,0.0016826177992757718,0.011260200573912292
2025/04/09 08:48:50.981099119,1744181330,978006057,piren,0.22232669423652857,0.06547351450743234,0.024112971331890717,-0.00011558243234625745,0.00011399037005838289,0.01114815279285282
2025/04/09 08:48:51.148346523,1744181331,144209395,piren,0.2228064802727045,0.023980517322331307,0.0072088471962944885,0.0018892118092464513,-0.0012871796461135147,0.0
2025/04/09 08:48:51.317233104,1744181331,312231484,piren,0.22213843452821375,-0.023200260266078937,-0.01149765635137545,0.0008474084199101356,-0.001969531967408542,0.017276392234739518
2025/04/09 08:48:51.484264456,1744181331,481009920,piren,0.2217686541789664,-0.032369932473406485,-0.014800300047813195,-0.0003303508291988691,-0.001334452981486235,0.010491683311942357
2025/04/09 08:48:51.652693839,1744181331,649482441,piren,0.22193038655194997,-0.021885552214793713,-0.008660934676783307,-0.0014499115748426114,-6.064732453246787e-05,0.0
2025/04/09 08:48:51.822916559,1744181331,817866534,piren,0.22084198677079903,-0.12014610635498534,-0.05367448456245466,4.790823385722188e-05,0.0014544104743690412,0.015707304573146882
2025/04/09 08:48:52.20951833,1744181332,16774007,piren,0.2223300508726683,-0.07710048803111483,-0.03207662781427237,-0.0016208610534397358,0.0016867830922464777,0.010950691811836718
2025/04/09 08:48:52.186988237,1744181332,184320383,piren,0.2259140691103091,-0.09521311694566788,-0.05022003214838163,0.0010094301238876848,0.0006846009047448922,0.009984287143047074
2025/04/09 08:48:52.356242358,1744181332,352886283,piren,0.2279954588560204,0.06740723406952302,0.02194957659703772,-0.0009009527270106639,-0.0007222854167811324,0.0
2025/04/09 08:48:52.525291743,1744181332,521154198,piren,0.22835126267205647,0.07153703406680326,0.03141616747020416,0.0001894104536254291,-0.0018335206169850394,0.015179458302071987
2025/04/09 08:48:52.696784793,1744181332,691019911,piren,0.22901926480269558,0.18528668150287175,0.07126608878474987,0.0002788632104553357,-0.0015277765937575457,0.009576582296361552
2025/04/09 08:48:52.864234779,1744181332,859681902,piren,0.22725021554369518,0.11269703341279652,0.036848434907028216,-0.0007026690086774132,0.00040329427997090627,0.0
2025/04/09 08:48:53.33901666,1744181333,29418103,piren,0.22380655043062062,-0.05430082802077775,-0.024048816955081858,-1.0170894647308394e-06,0.0017454296958030417,0.02076044448514566
2025/04/09 08:48:53.202603446,1744181333,197229569,piren,0.22155377153841976,-0.13891138319298976,-0.06156918332611226,0.0007791385740782971,0.002126895919443465,0.009199908263766628
2025/04/09 08:48:53.370147879,1744181333,366931316,piren,0.22390035602975356,-0.091076648088397,-0.03960976500889733,0.0001739513741460923,0.0007819594124958316,0.0
2025/04/09 08:48:53.541821414,1744181333,536638530,piren,0.22547727334389045,-0.04679227922444949,-0.023604973669771604,0.00011373805209861847,-0.0010148859674340206,0.01914755846440148
2025/04/09 08:48:53.709847466,1744181333,706434699,piren,0.22653582763202748,0.1006251143195635,0.04564308370819118,0.00024788202306251094,-0.002384594957108745,0.008586832388678743
2025/04/09 08:48:53.884753697,1744181333,875979890,piren,0.2290056456200948,0.1849120693015773,0.07337188828383973,-0.0009862472160325363,-0.0017966414282983225,0.00896772744664938
2025/04/09 08:48:54.49624507,1744181334,45048853,piren,0.22781142976114177,0.11795156486429324,0.0394658203497027,-0.0006882833204586375,-0.00012711326293009907,0.0
2025/04/09 08:48:54.217898256,1744181334,214313114,piren,0.22322048968616057,-0.06415384204769822,-0.02654577913453424,-0.0002365636569227873,0.0021220907409470855,0.012614568394211384
2025/04/09 08:48:54.420669450,1744181334,414512054,piren,0.22063243010839773,-0.16358699051875494,-0.07402043712574922,0.0007242446052483626,0.00237995859051486,0.008358923267551575
2025/04/09 08:48:54.588522395,1744181334,585263289,piren,0.22289278214025174,-0.10055623110170533,-0.045378073505520006,1.5681278279455185e-05,0.0009828323545092122,0.008373072418196714
2025/04/09 08:48:54.761840446,1744181334,754820619,piren,0.2234537271452354,-0.03871755172988718,-0.015334012996464648,-0.0024436394524295917,-0.0015325471528483672,0.0
2025/04/09 08:48:54.929782002,1744181334,925121743,piren,0.22276154067419313,-0.08584914635377458,-0.04244722162143588,0.0010500620559019676,-0.00289686023749435,0.01614868484352141
2025/04/09 08:48:55.100228355,1744181335,95711101,piren,0.2224285578380744,0.0515366439060898,0.019608578773285257,-0.0009384278649863672,-0.002460517419837954,0.007245506497188608
2025/04/09 08:48:55.268785596,1744181335,265631598,piren,0.2243205409874221,0.06259857870849266,0.026012452154616065,-0.0006160753263941583,-0.00010180187768691761,0.0
2025/04/09 08:48:55.438967540,1744181335,435344077,piren,0.22371448116901504,0.06298387029569369,0.026855842293963535,-0.00013102961833223937,0.0015162531320309055,0.015544347649560343
2025/04/09 08:48:55.609502829,1744181335,605660305,piren,0.22210380206500233,0.056698272704332885,0.0240868242279824,0.00042402239208368575,0.002729741969492345,0.00712527492519655
2025/04/09 08:48:55.777120450,1744181335,774174034,piren,0.22131440800197874,0.0451342106989822,0.021255783712304875,0.0013413353451734381,0.002021645770904874,0.0
2025/04/09 08:48:55.947376107,1744181335,943973876,piren,0.22131375610047885,0.14777830027891936,0.06547118892411509,0.001915003432784282,0.00032715258725487015,0.016432947934832996
2025/04/09 08:48:56.125083307,1744181336,114447650,piren,0.22012002699246908,0.18139284900582853,0.0817850488518023,9.200207876601957e-06,-0.0019171356585007881,0.006746534861652783
2025/04/09 08:48:56.290838892,1744181336,284408268,piren,0.2195571327360195,0.20897266868756167,0.06279621469772273,-0.000866585412656409,-0.0022432676144538157,0.00665253416531791
2025/04/09 08:48:56.459852344,1744181336,456587788,piren,0.21612965326272104,-0.0546165192065791,-0.02836107657519561,-0.001911997781954381,-0.0010872007150305857,0.0
2025/04/09 08:48:56.629972584,1744181336,627045115,piren,0.21331527090872196,-0.205651627891962,-0.09212405036802872,-0.0001993923667955884,0.0008985584582914683,0.014476039625397218
2025/04/09 08:48:56.800345802,1744181336,796711340,piren,0.21259111384889012,-0.17562321567586578,-0.08784786525055098,0.00039235449324452246,0.002295408011525358,0.0062828867967769705
2025/04/09 08:48:57.7436100,1744181337,1771522,piren,0.21360264858637842,-0.012651688351800132,-0.009071948497628025,0.0013532612929309867,0.001590491217570864,0.004320129774579491
2025/04/09 08:48:57.185335851,1744181337,174999459,piren,0.2154381036530141,0.0967539579811501,0.03702948524831653,0.0010181911827391863,-0.0009245918767871698,0.004311143941178196
2025/04/09 08:48:57.348319141,1744181337,345706995,piren,0.21482327324189965,0.04683250383475903,0.0194835729156514,0.0012442828889188669,-0.0020691397505706545,0.0
2025/04/09 08:48:57.519155479,1744181337,516334107,piren,0.2117732011507981,0.0034578941519559747,0.003449687683522891,-0.0018016767716335432,-0.0014879252197047541,0.00828896531494902
2025/04/09 08:48:57.690234706,1744181337,686136750,piren,0.2102650317772925,-0.11484607421527426,-0.039785646878458224,-0.0011363587192488919,-0.00022447505132275553,0.00568365412183401
2025/04/09 08:48:57.860174916,1744181337,856031510,piren,0.2099941523579766,-0.17609093232263753,-0.09055059604005386,-0.0013319827849846717,0.0015417013406525874,0.0
2025/04/09 08:48:58.29774452,1744181338,26995965,piren,0.20748024791054814,0.03163177732625314,0.009352444373710852,9.069729934431984e-05,0.0016334131625060928,0.010979348267190712
2025/04/09 08:48:58.212583300,1744181338,198777168,piren,0.20856809500930176,0.11958587659055536,0.0460371875024519,-0.0006661075152585299,0.0006714844375119686,0.004634970363347248
2025/04/09 08:48:58.376527192,1744181338,370073986,piren,0.20973339160246382,0.07779536912096274,0.03691614363190201,0.00032613697235096774,-0.0005282425953530888,0.0
2025/04/09 08:48:58.547483532,1744181338,542553469,piren,0.20797154867582082,0.16291638586110088,0.054620631559755876,-0.001165097936253747,-0.0008527830175778154,0.010365841270497087
2025/04/09 08:48:58.715874662,1744181338,712934687,piren,0.2059515207594751,-0.026658142274326842,-0.014959777591858894,0.00045417287514700925,-0.0006220411411566846,0.004922352609729772
2025/04/09 08:48:58.887083869,1744181338,883083252,piren,0.2046176411671699,-0.043787672515865295,-0.016191968402144145,0.00037469928958538295,-0.0006522654780701813,0.0051903680977250745
2025/04/09 08:48:59.58692570,1744181339,53865090,piren,0.20158788329399807,-0.14788603215232551,-0.07353374635631008,0.0016034692557526404,0.0014641519579438715,0.0
2025/04/09 08:48:59.226833531,1744181339,224297546,piren,0.19943271431609014,0.006343706456440265,-0.0002393063099011882,0.0014392670616313443,0.0015386605578538274,0.006975984303960404
2025/04/09 08:48:59.399316874,1744181339,395431423,piren,0.2008252248513385,0.10475718003927893,0.0393220692081153,-0.0015172580012738368,0.00025015104130159376,0.004535745634593625
2025/04/09 08:48:59.607898599,1744181339,602494713,piren,0.2011643539535639,0.03846842801115469,0.014593517170959832,-0.0007563980764569002,-0.0011995034283015706,0.0032085525186893765
2025/04/09 08:48:59.776181891,1744181339,773436892,piren,0.19990471045627672,-0.01903069113642796,-0.007182636245729293,0.00041303272923382515,-0.0011147695705269623,0.004235856200687088
2025/04/09 08:48:59.946397493,1744181339,943577924,piren,0.19778432142326394,-0.035827139600388705,-0.016094415561019634,0.00027037287321517704,-0.0004681980664836213,0.0
2025/04/09 08:49:00.116735339,1744181340,114149119,piren,0.19482349688330228,0.08754629430255499,0.029120064866990054,-0.00022549796630562605,0.000581659054731975,0.006006472234187127
2025/04/09 08:49:00.290940842,1744181340,286278591,piren,0.19275231077457736,-0.052561685609620004,-0.022147594295369385,-0.00045854488763134643,0.0010608633072242955,0.0038130024668127367
2025/04/09 08:49:00.461513485,1744181340,458875958,piren,0.19257976721845887,-0.15249879948852546,-0.05842884826323611,-4.518951268657211e-05,0.0007556755486944019,0.0
2025/04/09 08:49:00.634518809,1744181340,630689958,piren,0.19187700858004514,-0.19381380407143053,-0.10208883405659368,0.00044238146490117625,-7.810713759940828e-05,0.007815076989282944
2025/04/09 08:49:00.806337064,1744181340,802259346,piren,0.1911670325788221,0.017916679940216965,0.0017852234533454097,0.0005072230282921127,-0.0010404991995296368,0.0033466707099431055
2025/04/09 08:49:00.979071623,1744181340,973953333,piren,0.19061826586774427,0.15295918284158777,0.048466522222235346,-0.0015096334727922466,-0.001389698010659149,0.0
2025/04/09 08:49:01.152933621,1744181341,148232647,piren,0.19042585384140479,0.0033528221635743365,-0.003019145842610771,0.000739465777774565,-0.0010069643022538979,0.006929874654767358
2025/04/09 08:49:01.325042509,1744181341,321222247,piren,0.1871934683893571,0.03481026357601838,0.012159305847244336,3.3678041688086155e-05,0.0009985700153688959,0.0034017957182806715
2025/04/09 08:49:01.496226995,1744181341,493072878,piren,0.1849542885183839,-0.0848260195483568,-0.042506370027757326,0.0020467510751347104,0.0019016192219947086,0.0031352390646244006
2025/04/09 08:49:01.669118594,1744181341,665805950,piren,0.1837663479602981,0.06361407343114121,0.024967747025879457,0.0004649142972513447,0.001234168259625167,0.0
2025/04/09 08:49:01.842437593,1744181341,837752124,piren,0.18213651719174753,0.06243927998405154,0.030963751998204645,0.00218161552013484,-0.00023911164002477018,0.006049432114952502
2025/04/09 08:49:02.11801891,1744181342,8429052,piren,0.1802770518634082,0.14818250557712412,0.07056971307030668,0.001516645108806791,-0.001488721895204992,0.002762231770179416
2025/04/09 08:49:02.215476135,1744181342,211501293,piren,0.1790257843019235,0.18218262583816774,0.08508303657998151,0.0012178064107459124,-0.0012691998696078431,0.002988380611620798
2025/04/09 08:49:02.392219132,1744181342,385791886,piren,0.17695665067888391,0.17661790361934332,0.08366877172597004,-9.93867771957614e-05,-3.844669729607816e-05,0.0026597235507314406
2025/04/09 08:49:02.568957229,1744181342,562100832,piren,0.17452303431013788,0.16391696200442074,0.06792486288057874,-0.0005334568228241503,0.0004180772813286122,0.0
2025/04/09 08:49:02.739531020,1744181342,736131602,piren,0.17449894007548386,0.055269109086322876,0.021804936365643058,-0.0003279541946483808,0.00157191701745227,0.006946242547906646
2025/04/09 08:49:02.910762163,1744181342,907374324,piren,0.17230056929384088,-0.05264954420841434,-0.021763259708200283,0.000334200226166522,0.0016516158315458608,0.0039138628115575865
2025/04/09 08:49:03.82890666,1744181343,79034092,piren,0.1704233399787942,-0.11441505269494136,-0.047066808716125494,0.0007657444680611375,0.0014991924553354034,0.0034030546737186694
2025/04/09 08:49:03.254997019,1744181343,251568096,piren,0.16977528617310936,-0.13643504769225542,-0.05670019327949606,0.0009069946365324398,0.0004730143683999002,0.0
2025/04/09 08:49:03.427172235,1744181343,424255598,piren,0.1670141583907001,-0.13341436682865523,-0.05666095360762429,0.000792068954066245,-0.0020564671980124426,0.0032492591701608403
2025/04/09 08:49:03.604623658,1744181343,596728663,piren,0.16667831284238838,-0.10290871321735683,-0.04392058782816504,0.0006771971182319938,-0.0036323546745935737,-0.0002436177983901448
2025/04/09 08:49:03.774709537,1744181343,769739001,piren,0.1654747533634275,-0.06186964343672794,-0.029288305374284142,0.0006011787204890926,-0.002899914462454306,0.0
2025/04/09 08:49:03.945731111,1744181343,942377640,piren,0.16383466159938928,0.056286373397548564,0.02177457894438428,-0.002198057017510107,-0.0008964261671160109,-0.0036806619866362714
2025/04/09 08:49:04.121407749,1744181344,115089119,piren,0.1610940256213743,0.03546255420585291,0.014147925509174266,-0.0017493404038774023,0.0021977865740631956,-0.0027315841092465883
2025/04/09 08:49:04.298741298,1744181344,294595598,piren,0.15985464982812755,0.014750998432656221,0.0048461513710679645,-0.002238109378322218,0.003072665603885195,-0.0029119265757090464
2025/04/09 08:49:04.471972887,1744181344,468146325,piren,0.15766997223144305,-0.10231930840806876,-0.0547158303763467,0.0006887958228451656,0.002823315341008298,0.0
2025/04/09 08:49:04.685577442,1744181344,682335837,piren,0.15375370293181054,0.05022529771946853,0.013202073331624709,0.0019230353087653276,0.0001829040991178414,-0.004972848842125169
2025/04/09 08:49:04.859984631,1744181344,855177567,piren,0.15050038081226993,0.012966991661396497,0.0007406417606000407,-0.00015014533877122122,-0.0029618298753110797,0.0
2025/04/09 08:49:05.32615660,1744181345,29106941,piren,0.15242394201314824,-0.1077255554753505,-0.049819301133399066,0.00015624497160941612,-0.0036785132910655224,-0.010199727870389762
2025/04/09 08:49:05.206211828,1744181345,202631399,piren,0.14885104330309154,-0.0711766686819479,-0.026456017631288818,-0.0021941408979776803,-0.0022538465827185777,-0.0044638843560157035
2025/04/09 08:49:05.383301787,1744181345,378603267,piren,0.1456394922319344,-0.13157586174773522,-0.048477475798916626,-0.00250214531707723,0.0014534320422193185,0.0
2025/04/09 08:49:05.560656152,1744181345,553978871,piren,0.14662075932423022,-0.14574961955809354,-0.06333583172402096,-0.0005372004919597345,0.002692012921529295,-0.013290911039877385
2025/04/09 08:49:05.733193734,1744181345,728359434,piren,0.1465375549229331,-0.041618921440666055,-0.015571296276440492,-0.0009709123309068814,0.002021164571125744,-0.009095174684919332
2025/04/09 08:49:05.906686515,1744181345,902831636,piren,0.14477267116453799,-0.052446301651064134,-0.026354428371598123,0.0006971769940892519,3.409747059619879e-05,-0.006193391190149118
2025/04/09 08:49:06.82705327,1744181346,79504145,piren,0.14408789909157088,0.11143548993292061,0.04933756828039558,0.0025862741332638582,-0.0017806061947387298,-0.0041380914010386936
2025/04/09 08:49:06.257274865,1744181346,253952375,piren,0.1399628762551426,0.194173276444678,0.0936972933970117,0.001371492546596187,-0.0020923744547847473,0.0
2025/04/09 08:49:06.434203629,1744181346,429862265,piren,0.13710484388738622,0.2666911283123232,0.11763869673703797,0.0006967646501174325,-0.0005146767005643049,-0.007255017430229589
2025/04/09 08:49:06.611963126,1744181346,606596156,piren,0.13399690457204386,0.21871158579966232,0.0870774598706801,0.0009499744613506781,0.0007495185517479464,-0.0034638189947229915
2025/04/09 08:49:06.785623053,1744181346,781855612,piren,0.13065258583487058,0.08641249105885139,0.03077228903276673,-0.0014290991339456168,0.0021455435106060346,-0.0020882236044555908
2025/04/09 08:49:06.958938613,1744181346,956182677,piren,0.12611121090769511,-0.07853036134882631,-0.03598308023005416,-0.00046207695039715606,0.002744516433552491,0.0
2025/04/09 08:49:07.135382202,1744181347,132268565,piren,0.12874299465991343,-0.07100186584464986,-0.02761051531484744,-0.0009830775366115115,0.0032562024355001005,-0.0040699883392275715
2025/04/09 08:49:07.344683808,1744181347,341460343,piren,0.13222306024209707,-0.15878083152114691,-0.0707623976136194,0.0005046792992265708,-0.0006332981384293342,-0.005057356635270679
2025/04/09 08:49:07.521204781,1744181347,518030300,piren,0.13342785838178947,-0.1078727410879284,-0.04087262108688578,-0.0008022508351883227,-0.006506683749598827,-0.005299730551798803
2025/04/09 08:49:07.697125136,1744181347,691629309,piren,0.13159702991907388,-0.16003463136213494,-0.07023674352581573,0.0008242436238070245,-0.006198575854463609,-0.005280791993079996
2025/04/09 08:49:07.868695482,1744181347,865217426,piren,0.12927659394331767,-0.07265309433361333,-0.029985141652478085,0.0008251307234406801,-0.002597077215114092,0.0
2025/04/09 08:49:08.55130170,1744181348,41452522,piren,0.12786685128801523,-0.008027722349779425,-0.0013984274530592295,0.0009690257859556303,0.0015778036648685717,-0.011753995610248622
2025/04/09 08:49:08.224022698,1744181348,218322855,piren,0.12511055099740193,0.15168621416723443,0.07284778351791951,0.0010118078623490752,0.005454997499788345,-0.004387617301532563
2025/04/09 08:49:08.399284224,1744181348,395832407,piren,0.12273664750395566,0.24345585749041385,0.09867489676852309,-0.00048571754147755023,0.005333348928230849,-0.003852775525791289
2025/04/09 08:49:08.576503345,1744181348,572476144,piren,0.12199692289318641,0.1654957353220375,0.05717670541888593,-0.0016537778684368363,-0.0010358029002753672,0.0
2025/04/09 08:49:08.750947255,1744181348,747688539,piren,0.12780980999237865,-0.009635914925278155,-0.00799260639587269,-7.266037951132783e-05,-0.0029861657588583015,-0.003966543529057627
2025/04/09 08:49:08.926501078,1744181348,922893462,piren,0.12163049622652314,-0.14562518492577506,-0.056950229767952915,-3.621514436291441e-05,-0.0030263035458372553,-0.0007049484943032323
2025/04/09 08:49:09.106905760,1744181349,98813179,piren,0.11772674559163318,-0.2037737549039452,-0.1055292951896318,0.001770458240736753,-0.0009600674196492969,-0.0015265774290606443
2025/04/09 08:49:09.280913835,1744181349,275563495,piren,0.117135628829784,-0.00025482365225034526,-0.005994429431877947,0.0017664704623027527,0.001964913169183232,-0.0015557884114969992
2025/04/09 08:49:09.456261667,1744181349,452439385,piren,0.11180429486714842,0.12992302964331454,0.05977842382121716,0.00017084083886653392,0.0016572419066050077,0.0
2025/04/09 08:49:09.630397046,1744181349,627571684,piren,0.11282983631974436,0.2174041967480912,0.08667315775425083,-0.0005414730841981654,-0.0003514797461038759,-0.0028828826200432284
2025/04/09 08:49:09.804093443,1744181349,800550772,piren,0.11305045488924693,0.12528001152657856,0.04464582734761802,-0.0018920206729364764,-0.0014081419825567234,-3.3305240579563324e-05
2025/04/09 08:49:10.11193059,1744181350,6483317,piren,0.11137221546520991,-0.05413388483548033,-0.01983715597667974,-0.001655486760902804,0.000132173106839024,0.001202044510518392
2025/04/09 08:49:10.195627278,1744181350,182207410,piren,0.10962793637644441,-0.15906399914686722,-0.05642612502101138,0.00023994584017033996,0.0036594731499654237,0.0003122257546318972
2025/04/09 08:49:10.360591538,1744181350,357068730,piren,0.10964684169918526,-0.21011634398281223,-0.10034878133086496,0.0015283358883480733,0.004777790034258742,0.0
2025/04/09 08:49:10.534403433,1744181350,531295690,piren,0.10406018501972901,-0.050298911523875486,-0.020491636999578147,-0.00042109219084073593,0.0003241542298895267,-0.004144913959275528
2025/04/09 08:49:10.709737105,1744181350,706507960,piren,0.10749839541548062,-0.09960240789808904,-0.045645363884113874,-0.0003595455851290425,-0.005380574965683155,-0.0027625126611239125
2025/04/09 08:49:10.884749485,1744181350,881648993,piren,0.10806051649520439,-0.013226456433750707,-0.005147228311605343,-0.0006805126837963474,-0.00716418529463173,-0.0016966281391937058
2025/04/09 08:49:11.70871256,1744181351,55733740,piren,0.10733169707118369,0.0392654701722214,0.02041574950461867,0.00038962879637042505,-0.002590057317147636,0.0
2025/04/09 08:49:11.235000029,1744181351,231059217,piren,0.10578633014653573,0.08433916664069394,0.04052942877991586,-0.0009175553472300956,0.0025634185714291584,-0.0021681131554936364
2025/04/09 08:49:11.411359575,1744181351,407329733,piren,0.10420867413979693,0.09302909204515976,0.04855974460613,0.0018730614355019696,0.006589543157548994,-0.00037543896032570255
2025/04/09 08:49:11.586319184,1744181351,583423165,piren,0.10307741510079342,0.1878787745470628,0.0772327304596664,0.0001907647802389384,0.005260974785345007,0.0006320731755675972
2025/04/09 08:49:11.761128850,1744181351,757946953,piren,0.10241702427428762,0.12554619152751256,0.051333159390214544,9.435762264970219e-05,0.00026789749182303565,0.0
2025/04/09 08:49:11.936202406,1744181351,933192469,piren,0.10842135546497851,0.08879051241088694,0.033373271741417444,-0.0004517006013847675,-0.0027611541456768864,0.0035143918681180795
2025/04/09 08:49:12.112564202,1744181352,110363254,piren,0.10311152938984997,0.035315577891815844,0.011244983800641099,-0.0012052035942459508,-0.004201864265020781,0.0018739538006204396
2025/04/09 08:49:12.291414767,1744181352,286537696,piren,0.09927454631083985,-0.0017320882106884945,-0.0034428071641158416,-0.0014986651972553394,-0.002592665085795637,0.0012673808347438513
2025/04/09 08:49:12.467093713,1744181352,461704991,piren,0.09578592968757935,-0.1451376694190494,-0.05663305952686974,-0.0013529062147591558,0.0004177453883203522,0.0
2025/04/09 08:49:12.670970063,1744181352,667803801,piren,0.09310583360095136,-0.21207104617681685,-0.08187734471420989,-0.0007922009152392555,0.0037198004239277337,0.0009214506577799067
2025/04/09 08:49:12.845953068,1744181352,843179644,piren,0.08476692754370643,-0.22403720760271617,-0.10071563684248472,0.001286239263492594,0.0031030538439582966,0.0
2025/04/09 08:49:13.30246568,1744181353,20214677,piren,0.08899549894426165,-0.09921048178715798,-0.04563350309170752,0.0014578417991741941,0.0004504522703073684,-0.001278808353421325
