time,header_stamp_secs,header_stamp_nsecs,header_frame_id,twist_linear_x,twist_linear_y,twist_linear_z,twist_angular_x,twist_angular_y,twist_angular_z
2025/04/09 08:48:17.235903929,1744181297,233171937,piren,0.0030903929331087994,0.06841811025983616,0.025576420020300333,0.0005757923449551922,0.00243817517745801,0.00042485502995536466
2025/04/09 08:48:17.392124125,1744181297,388697539,piren,0.0024755166665271673,0.038896677666798773,0.016916594998973238,-0.0009937249947023893,0.00016542189068673093,-0.0005443677905917669
2025/04/09 08:48:17.546614650,1744181297,541195624,piren,9.43929967887956e-05,-0.08187408295057111,-0.034295935603383065,0.0020812525198811898,-0.0023515638709596183,0.0
2025/04/09 08:48:17.828061320,1744181297,759169003,piren,-0.000201008298427129,0.04323148302751206,0.01814862516507742,-0.001004553401936973,-0.002800537238906359,-0.0004900723710323939
2025/04/09 08:48:18.31448724,1744181298,14262925,piren,-0.0014822104299128992,0.03332498156464708,0.017525246938025745,0.000551863582010207,-0.0018133554232016712,-0.00022091570872991533
2025/04/09 08:48:18.194055210,1744181298,184794791,piren,-0.0012275682996915718,0.1193815106124478,0.05104602039260191,0.001782130399759853,0.0016100024552900087,-0.00023161615100943388
2025/04/09 08:48:18.407100193,1744181298,401690749,piren,-0.0015049963254114996,0.1287502628137193,0.05375073981459939,0.0003179572399178149,0.0013807325652249916,-1.2572257593235514e-05
2025/04/09 08:48:18.560860529,1744181298,557159314,piren,0.0008959888331900433,0.020040344993867906,0.01032144214675481,-0.0012862941789221964,-0.0003761390537633363,0.0
2025/04/09 08:48:18.717088790,1744181298,713071947,piren,-0.002929525704485146,-0.1478644482094293,-0.06197944359169726,0.0020985282495160134,-0.000654327371815038,0.0029786493477333706
2025/04/09 08:48:18.872664286,1744181298,868413753,piren,-0.003482841609866315,-0.042197549445517915,-0.018864755551165423,-0.0008546316429333692,5.4369614900133e-06,0.0015089345882869072
2025/04/09 08:48:19.29614853,1744181299,25747131,piren,-0.00392337473754205,-0.04855044265213987,-0.019312392354175877,0.0006542958718717989,0.0007677670140158433,0.0
2025/04/09 08:48:19.182721541,1744181299,180495543,piren,-0.005687327168652789,-0.06725884556426504,-0.02585480186717748,-0.0011465962997216901,0.0010559038474538972,0.0001608834285783155
2025/04/09 08:48:19.338796655,1744181299,335350313,piren,-0.003985892542323287,-0.16773422509272645,-0.07045663902871341,0.0019292341617532223,-0.00042177317016640713,0.0
2025/04/09 08:48:19.494470822,1744181299,490810111,piren,-0.0004131148215493312,-0.016195537863813725,-0.0081423626928281,-0.0012877257815757848,-0.0016479874605414568,-0.0008764517198686999
2025/04/09 08:48:19.648346097,1744181299,645848669,piren,0.0006234707130714952,0.0019424341108336442,0.0020898473157799774,0.00019183854959443374,-0.0020384621438567356,0.0
2025/04/09 08:48:19.806347769,1744181299,802811007,piren,0.0003844700268927255,-0.007640702808975832,4.136320823418813e-05,-0.0015096505658422125,-0.000743293627916952,-0.0009419910259034677
2025/04/09 08:48:19.968605420,1744181299,962167884,piren,-0.0010510062589674787,-0.10803523121598997,-0.044176595853695495,0.0003824446413789054,0.0009786666548023681,-0.0007072781658784034
2025/04/09 08:48:20.120655528,1744181300,118361672,piren,-0.0007630294330739132,-0.06340383646993329,-0.024042191255677643,0.0003695894944827748,0.0012407452830688992,0.0
2025/04/09 08:48:20.276120005,1744181300,273547977,piren,-0.0005286632957450791,-0.02514812325198333,-0.0075224400815908955,0.0008479138668282878,0.0010034768312819397,-0.0009002002601913616
2025/04/09 08:48:20.431108228,1744181300,427454678,piren,0.001619394027193178,0.11893653537331404,0.04855555513927036,-0.0010797242785583016,0.0003894347359842585,0.0
2025/04/09 08:48:20.586095522,1744181300,583148881,piren,-0.00017002344402507956,-0.01593111475508492,-0.009421640767932622,0.0005498104619839951,-0.00028557049797148465,-0.0010255634577006657
2025/04/09 08:48:20.740997746,1744181300,738870057,piren,-0.0004875074015218132,-0.005073415197375357,-0.0022774546473158424,5.405222885359669e-05,-0.00225596420851007,0.0
2025/04/09 08:48:20.896986988,1744181300,894497460,piren,-0.0020332650502951737,0.0021460049462351206,0.002596848967681701,0.0003173004832271843,-0.0008689904864707308,0.0006043559393935283
2025/04/09 08:48:21.83364971,1744181301,80062465,piren,-0.0006121207684828705,0.12508036457829833,0.0507905329568846,0.00015176142095918349,0.0005960756723156505,0.0003676068192666477
2025/04/09 08:48:21.247590601,1744181301,238225644,piren,-0.0008200089963339423,0.07233891981131849,0.030787334860030664,-0.0010734478935668674,0.0013158608640234835,0.0
2025/04/09 08:48:21.405941787,1744181301,394638714,piren,-0.0005669299979673241,0.0488466546528801,0.02189898209123626,0.00029799045311335135,0.0010487488442659752,0.0008032662647841566
2025/04/09 08:48:21.555464333,1744181301,551946289,piren,-0.002485321694530373,-0.10566650227492544,-0.04687238590744975,-0.0009736710312631013,0.0011992146536013548,0.0
2025/04/09 08:48:21.713284052,1744181301,709531537,piren,-0.0065287057628212065,-0.1692429655455268,-0.07458322646271931,0.002226620190325887,0.00015492910993885825,0.0010175974861632389
2025/04/09 08:48:21.869361367,1744181301,865389942,piren,-0.002746501973069914,0.0058804852270898655,-0.0012517164001710768,-0.0009002422951294412,-0.0009039345101598375,0.0
2025/04/09 08:48:22.24688646,1744181302,21339856,piren,-0.00026240339179830433,0.036732969205786774,0.015190251383380371,0.0004003463578612992,-0.0016882191934827868,-0.0007128292916174947
2025/04/09 08:48:22.180231854,1744181302,176970072,piren,0.000842519624802574,0.031153142418179684,0.015519281578328048,-0.0015275976669703593,-0.0018955833336825785,-0.0006047756661634732
2025/04/09 08:48:22.334779016,1744181302,332337076,piren,-0.0006998331336490965,-0.07221483826269805,-0.029271408028494143,0.0015529471759149302,-0.00042418126370437413,0.0
2025/04/09 08:48:22.491320953,1744181302,488245387,piren,0.0005780791773758237,0.065491470226016,0.02746204750698311,-0.0014460987367732265,0.000835379062106187,-0.0004288672337116474
2025/04/09 08:48:22.648196234,1744181302,644766269,piren,0.000631665018818151,0.06593410004916249,0.029741714836895028,0.00029834282682076344,0.001191092558347467,0.0
2025/04/09 08:48:22.811125385,1744181302,803623483,piren,0.0007879146442063784,0.03865624878144471,0.01929888589598896,-0.0011577094445257019,0.0014245717424586535,-0.00042244488164625276
2025/04/09 08:48:22.966454749,1744181302,963183516,piren,-0.0009336138247818752,-0.08044288253513487,-0.033770685047657165,0.0007937041687489414,0.0006129175549376274,0.0
2025/04/09 08:48:23.128195479,1744181303,123457375,piren,-0.0008910424901842788,-0.05034057882567114,-0.02007090233036237,0.000656661018795251,-0.00034119536038982316,-0.0003204518989029559
2025/04/09 08:48:23.294729782,1744181303,283316819,piren,-0.0010057325222079243,-0.02344885144420888,-0.0080787779322403,0.0008914223705800189,-0.0014205145535473133,-0.0002370100735018778
2025/04/09 08:48:23.445453093,1744181303,441449177,piren,0.0006098278635362502,0.11295619197007933,0.04534026051256674,-0.0012509765946549071,-0.0015327721204698834,0.0
2025/04/09 08:48:23.641075150,1744181303,637207090,piren,-0.0014009209552569672,-0.03188870430749349,-0.0160660975144701,-0.001228274882642883,-0.0005130876740676215,-0.000371456662151205
2025/04/09 08:48:23.798132243,1744181303,794901603,piren,-0.0013376411635364065,0.0018712499490450563,0.000786747102437247,-0.00029669255780383045,0.00040572133375301736,0.000208809493413437
2025/04/09 08:48:23.955742458,1744181303,952451469,piren,-0.003256143747648909,-0.11775670198594498,-0.05196636127626775,-0.001535166784258253,0.0018365588131111414,0.0
2025/04/09 08:48:24.115603454,1744181304,111119134,piren,-0.0030700655892816,-0.1563640197426136,-0.06848713725504467,0.0019402278906926374,0.001558713357145623,0.00047244632223771206
2025/04/09 08:48:24.272372223,1744181304,269421893,piren,-6.141006915649696e-05,0.03423944294663697,0.011500556027864664,-0.0006411971397105713,0.0003567090995858411,-3.45737834158712e-05
2025/04/09 08:48:24.430765850,1744181304,426350628,piren,0.0005953206764842464,0.06868348216903569,0.02922391266155593,0.0005922409640297645,-0.0004543531978914392,0.0
2025/04/09 08:48:24.594670939,1744181304,585216767,piren,0.0005172405710708547,0.009805655155878695,0.005738137581417037,0.0034238230064962847,-0.0014199820029810928,-0.001010940831517984
2025/04/09 08:48:24.752571281,1744181304,743873283,piren,0.0025850945899491334,0.11017327190575116,0.04759267254748849,0.00355612894475757,-0.0017229166773129335,0.0
2025/04/09 08:48:24.908586907,1744181304,904896662,piren,0.00427484334613828,0.04162982956968364,0.020437579242084423,0.005076974415611015,-0.001192963406968304,-0.0014919816051955958
2025/04/09 08:48:25.68301048,1744181305,65314704,piren,0.011440240178671866,0.08431591811163372,0.03840987193131333,0.0029816687429750632,0.0002595916028708658,0.0
2025/04/09 08:48:25.228728133,1744181305,223569442,piren,0.0213509047739989,0.018220994461489975,0.011045935587791433,0.0003302091479574132,0.0012660515714373645,-0.0035803880626930715
2025/04/09 08:48:25.385546702,1744181305,381969177,piren,0.0365825779840633,0.08902935693163301,0.03818232966992738,-0.00434847332230275,0.0016158332450550265,-0.0022723709935276747
2025/04/09 08:48:25.544879690,1744181305,539911643,piren,0.05147980195747541,-0.09214553738074725,-0.04260696785833744,-0.003635259057598424,0.0010164050243916401,0.0
2025/04/09 08:48:25.700548933,1744181305,697979386,piren,0.072771855539031,0.0079867094174918,0.0001823360686682221,-0.006033532138588427,0.001175606980866557,-0.004916863238966356
2025/04/09 08:48:25.859011454,1744181305,856483274,piren,0.09054632932893572,-0.08997221135155058,-0.04028832669184616,-0.0035624109679873233,-0.00014655473602347531,0.0
2025/04/09 08:48:26.21220519,1744181306,15238276,piren,0.10967983085533878,-0.14597385656315934,-0.06293361738298202,0.0008944103988983127,-0.0021072835371057225,-0.011898793213570725
2025/04/09 08:48:26.176201843,1744181306,173648632,piren,0.12669359661199442,0.029052784583609825,0.01049686794615283,0.003803099418128245,-0.0023118271469599974,-0.005813488856037893
2025/04/09 08:48:26.366223756,1744181306,363419781,piren,0.1341884368346654,-0.10090621568510838,-0.04485040777290017,0.005318076289964153,-0.0016130736637391778,-0.004674867923904702
2025/04/09 08:48:26.524490252,1744181306,520541716,piren,0.1446953404510622,-0.05956706362649098,-0.022233343654226093,0.0032232451467151643,-0.0003462400335951487,0.0
2025/04/09 08:48:26.682471271,1744181306,679699972,piren,0.15220806414508833,-0.030208946184074797,-0.006925586159314183,0.0001898248422358497,0.0015930058457756934,-0.009129285771561569
2025/04/09 08:48:26.842114304,1744181306,837939884,piren,0.16054171693190247,0.002793046555280246,0.00805356745476153,-0.0024408408273037456,0.0021870081635293245,0.0
2025/04/09 08:48:27.181427,1744181306,996017431,piren,0.17363948118809266,0.046050650668803726,0.02594729265568886,-0.003906987832955526,0.0016334680147992388,-0.011389699348271207
2025/04/09 08:48:27.157121537,1744181307,153818266,piren,0.18942440311097916,0.1460399743815745,0.06404136772406516,-0.00432515293938566,-0.00020153796514030736,0.0
2025/04/09 08:48:27.316552844,1744181307,313114742,piren,0.20002986638428402,0.06891776985694409,0.03148696950889124,-0.003047604212257123,-0.0013692784150640767,-0.01664931672188291
2025/04/09 08:48:27.474201274,1744181307,470954645,piren,0.20876316385083546,0.03773386152647649,0.01857000215243757,0.0015017144079722104,-0.002023963807701903,-0.007916465292007652
2025/04/09 08:48:27.633349122,1744181307,629695232,piren,0.21528033182062237,0.11693679740642468,0.048641846279830134,0.0020757151385887656,-0.0006502320067022758,0.0
2025/04/09 08:48:27.798518337,1744181307,788996454,piren,0.21327099751511006,-0.050061866637724634,-0.02354678161262065,0.005650541119445519,0.0005758161929401922,-0.011771929365553878
2025/04/09 08:48:27.950825591,1744181307,947904982,piren,0.2192299684025783,0.0595059153467449,0.0210831973452862,0.005069060442096408,0.0008734814728875042,0.0
2025/04/09 08:48:28.108739852,1744181308,105051957,piren,0.2253571451010884,0.08518013178641044,0.033410894648825,0.0016434852063988779,0.0013465619283621756,-0.013447387126908274
2025/04/09 08:48:28.266544149,1744181308,262932667,piren,0.2272391490619156,-0.008056373846011086,-0.003057096845772385,-0.001951150707855462,0.00014289177036715255,-0.009048507452684288
2025/04/09 08:48:28.425105342,1744181308,419742873,piren,0.22987884712820228,-0.05077941283225267,-0.01906631775522421,-0.004452951913756688,-0.0004148136821422641,0.0
2025/04/09 08:48:28.581492638,1744181308,579201089,piren,0.2363718278544638,-0.06867907249174972,-0.025444965418066803,-0.005476000792679716,-0.0004260839646133432,-0.013655456066127442
2025/04/09 08:48:28.740157776,1744181308,737657757,piren,0.24451772064312532,-0.048170004522944176,-0.016423839454756367,-0.0031880881970856203,-0.0005755849819027674,0.0
2025/04/09 08:48:28.898852332,1744181308,895957032,piren,0.25900581252967636,0.06350086418051465,0.02679292057062027,-0.0007577760016644555,-0.0007667281536590932,-0.016906999423823444
2025/04/09 08:48:29.87089006,1744181309,83976302,piren,0.26322139077487916,0.00909264174329142,0.005600394381241349,0.0032154366646846688,-0.000853713096580193,-0.008823058026209604
2025/04/09 08:48:29.252653992,1744181309,243807211,piren,0.26749692593125474,0.09417886240862602,0.03801666984228616,0.004898857282125905,-0.00012505413638556822,0.0
2025/04/09 08:48:29.413200321,1744181309,402792826,piren,0.2680478623587533,0.13699417937768915,0.054009524012165126,0.003754767720282444,0.0010816054810448429,-0.018301018077898176
2025/04/09 08:48:29.569217594,1744181309,565414426,piren,0.2585671175851985,-0.08406031500348912,-0.03942707546799761,0.00190500887815902,0.0008759528799150751,0.0
2025/04/09 08:48:29.728040578,1744181309,724587617,piren,0.2621619030462625,-0.11368483876321955,-0.047934799061408045,-0.002140401452796513,0.0004896588855911687,-0.0310315606002428
2025/04/09 08:48:29.888148074,1744181309,883914222,piren,0.2638051757392077,-0.10457922352284152,-0.04164548136952179,-0.0054341705823544,0.0004901107893862809,-0.013190333188116153
2025/04/09 08:48:30.46368302,1744181310,43637921,piren,0.2626816054744722,-0.17938849289412212,-0.07419738040226244,-0.004671432677833586,0.0001399760934633807,0.0
2025/04/09 08:48:30.207624530,1744181310,203971656,piren,0.27478418936916565,-0.08266041267238473,-0.03205536882498238,-0.0033142309083409706,-0.0011964841711947624,-0.023262660529794966
2025/04/09 08:48:30.367095071,1744181310,363547975,piren,0.28395206039754156,-0.03966938824923968,-0.012806354592571283,-0.001016386343222401,-0.0015694942845268407,0.0
2025/04/09 08:48:30.528667238,1744181310,522373235,piren,0.291200249041276,-0.0022065424735043457,0.0034870300158757854,0.003148922390180138,-0.0015531125459442043,-0.03979565803039445
2025/04/09 08:48:30.686791947,1744181310,682507690,piren,0.29347713163069783,0.06243390704671615,0.029852391370386026,0.004459496178533323,-0.000717444192805702,-0.019804500974653663
2025/04/09 08:48:30.846092424,1744181310,842087823,piren,0.28991118279705,0.10963796596383904,0.04812947234986209,0.003475180005826537,0.0009470346027802152,0.0
2025/04/09 08:48:31.12152527,1744181311,4591619,piren,0.28751318861172875,0.07472768932652829,0.03288448519303342,0.0012203371098160503,0.0017981006581213545,-0.033905583511522584
2025/04/09 08:48:31.173180968,1744181311,165900674,piren,0.286951831089209,0.04238216061576199,0.018425197466628497,-0.0014798834438500528,0.00148289477064359,-0.02228363064688134
2025/04/09 08:48:31.339323048,1744181311,327009612,piren,0.2760985676890414,-0.10201154728847509,-0.047169906529415696,-0.0032566991952274853,0.0007714627156674165,0.0
2025/04/09 08:48:31.493477657,1744181311,488746437,piren,0.2829224515937767,-0.07160454417680706,-0.03309060353130705,-0.005411526221770724,-1.3725755435314267e-05,-0.03523703889116272
2025/04/09 08:48:31.687712744,1744181311,684941791,piren,0.28948601922311357,-0.11738742775623871,-0.05279884694695377,-0.003813348016600872,-0.0013667605006516717,-0.02048965498786414
2025/04/09 08:48:31.847477257,1744181311,844444405,piren,0.2889569258381471,-0.11589770166283382,-0.051387021761372165,-0.0010137214569626103,-0.0019835779687384187,0.0
2025/04/09 08:48:32.9813427,1744181312,4033083,piren,0.2978509319848854,-0.03971748809058194,-0.017194852711240584,0.0015197535270320894,-0.00098171418941243,-0.0423401597133629
2025/04/09 08:48:32.166731726,1744181312,163260582,piren,0.3050439851575902,0.01620990130441019,0.007721430407396909,0.0036851019468053274,-0.0001733630465426121,0.0
2025/04/09 08:48:32.325782067,1744181312,322180978,piren,0.3123638380472584,0.050863984080752156,0.022867089466587828,0.003587831444641846,0.000650632312347624,-0.0743880375322263
2025/04/09 08:48:32.485804900,1744181312,482666708,piren,0.3083028645831746,0.06890527816281097,0.029973988003784754,0.0021291516045653085,0.0011931995164113705,-0.03283337448938204
2025/04/09 08:48:32.649872409,1744181312,643654807,piren,0.2976287076266999,0.07265433830616563,0.03029492270926822,0.00032010114315276356,0.0019797140171113354,0.0
2025/04/09 08:48:32.808840199,1744181312,805273232,piren,0.29753485434539473,0.09083328968727107,0.03660698931871023,-0.0030291513031966972,0.0012182908529143116,-0.052580965690205754
2025/04/09 08:48:32.969360722,1744181312,966394218,piren,0.29853220288600824,0.02691932904404018,0.008715921067313899,-0.005620369696602329,-0.0007195284367137389,0.0
2025/04/09 08:48:33.130985185,1744181313,126884655,piren,0.29911234164610506,-0.07706127448527661,-0.038033031405138126,-0.004090628914182197,-0.0016753354856842055,-0.08989922637291727
2025/04/09 08:48:33.289604618,1744181313,286591243,piren,0.2897931875816539,-0.14290078072362994,-0.06826876379217844,0.0005041953705542275,-0.0013491109256125488,-0.038634157573717305
2025/04/09 08:48:33.450097028,1744181313,446793805,piren,0.3049682421501075,0.03858004909357113,0.007858509493998855,0.0014991376472487778,0.0001299583056437857,0.0
2025/04/09 08:48:33.610681400,1744181313,607967652,piren,0.3208970593513186,0.17122305204447946,0.06277762866202038,0.001477032379469168,0.0012181959002719731,-0.06296380673867585
2025/04/09 08:48:33.772150245,1744181313,769149355,piren,0.3055056624242298,0.028673484317733144,0.0045048601720338866,0.0034685810658391858,0.0002989011135791934,-0.04519802572109383
2025/04/09 08:48:33.934065258,1744181313,929541271,piren,0.3004256653227913,0.026579415247397608,0.007458091824247148,0.0032047421570229567,3.632507401265954e-05,0.0
2025/04/09 08:48:34.93170579,1744181314,89376664,piren,0.31563601059697255,0.1253046591942169,0.048375229368744145,-0.0006082065283299083,0.0008284234802797383,-0.07038358054177925
2025/04/09 08:48:34.258096569,1744181314,250691089,piren,0.3096493348690729,0.07865033162943325,0.03143377131238907,-0.0028614574677412433,0.0005357552199720638,0.0
2025/04/09 08:48:34.453054824,1744181314,448942479,piren,0.29310266802308443,-0.08255117341732296,-0.039331321205307995,-0.005681595383200492,0.0007304698532294878,-0.07798850925919734
2025/04/09 08:48:34.614481697,1744181314,611643871,piren,0.29717365446490485,-0.03479744733899646,-0.01721536485126016,-0.003810032674834833,0.0008241301447612821,-0.049839771292127945
2025/04/09 08:48:34.775678662,1744181314,773138224,piren,0.2893374936592864,-0.002602295268888735,-0.0033362119496739943,-0.001267931171259791,0.0009421134421088832,-0.05088486972725386
2025/04/09 08:48:34.938088677,1744181314,934499964,piren,0.28322666343133285,-0.0038631369741321,-0.0036288890650443043,0.0019488256767485868,-0.0006779345063744134,0.0
2025/04/09 08:48:35.98825090,1744181315,95505844,piren,0.2623140552611404,-0.10426797379723178,-0.050114362118897304,0.004887529971645389,-0.0020144099722208117,-0.07913898902415122
2025/04/09 08:48:35.258670873,1744181315,255779883,piren,0.2857480113800194,0.053790289756989615,0.01605252934517054,0.0029454932749305306,-0.001844653431006066,0.0
2025/04/09 08:48:35.420826380,1744181315,418102457,piren,0.2853317336483543,0.07913376684409773,0.029325035457605605,0.0021647364152843278,-0.0003195007217003978,-0.09892029071438094
2025/04/09 08:48:35.583239336,1744181315,579557687,piren,0.2781723951892219,0.11438394391439065,0.04422032181836215,-0.002061508105315945,-0.000684738597473426,-0.04245115591869549
2025/04/09 08:48:35.745480708,1744181315,740877115,piren,0.25175136566149386,0.004343831395545172,-0.003082526014692985,-0.0005026349671157793,-0.0014235486013111222,0.0
2025/04/09 08:48:35.909767695,1744181315,904528916,piren,0.24550367604142603,0.06804500928451522,0.022564900213589922,-0.002602586800756759,-0.0006553084635861209,-0.047948874087095486
2025/04/09 08:48:36.73395386,1744181316,67648708,piren,0.2325329760131809,0.05319549279952331,0.016215786317452796,-0.0028799705380556733,0.003878893168797475,-0.02165649168948888
2025/04/09 08:48:36.231780926,1744181316,229171619,piren,0.21084107073315872,-0.019139604342626286,-0.016391860521063957,0.0005599553111338135,0.0052869576791511495,0.0
2025/04/09 08:48:36.394702298,1744181316,390683254,piren,0.2129886068111319,8.215962561768791e-05,-0.009011231734589838,0.0028637648113620773,0.00432965896711091,-0.02598353867891949
2025/04/09 08:48:36.555952549,1744181316,553119381,piren,0.24189964597967453,0.12328411873040782,0.03867238851256012,0.0031728307767769485,0.0003021148055544556,0.0
2025/04/09 08:48:36.717621513,1744181316,714005289,piren,0.22329126316039954,0.05114742433042953,0.009874018331213468,0.0034079042411281346,-0.0030868538345878234,-0.025461209046201198
2025/04/09 08:48:36.878954879,1744181316,876208656,piren,0.190875077121109,-0.042276457710704235,-0.029359721035925535,0.002047784364497043,-0.005631207950392845,-0.0077566535033112465
2025/04/09 08:48:37.80308291,1744181317,71750838,piren,0.19395438398855738,0.01891226919701726,-0.00033164135323317245,-0.0016380370844276016,-0.004138959760732115,-0.003067402428519384
2025/04/09 08:48:37.236678203,1744181317,233910142,piren,0.16273085700586315,-0.06717060403739164,-0.03593091182629989,-0.0024402984313242823,-0.0007064738323272613,0.0
2025/04/09 08:48:37.400842926,1744181317,396681377,piren,0.14210078700616585,-0.1247239841338793,-0.060211648515107526,-0.003169055084143015,0.002635371205212353,-0.0005004828803160906
2025/04/09 08:48:37.562923792,1744181317,559181988,piren,0.14947404476383788,-0.07807270377270437,-0.03804163880515857,-0.0013974315482006955,0.005350789999581088,0.0
2025/04/09 08:48:37.724215665,1744181317,721668901,piren,0.16294271016026876,-0.004060315048718288,-0.005328706991331686,0.0006648753076939521,0.003937572744265453,0.007396912976518552
2025/04/09 08:48:37.886560951,1744181317,884237955,piren,0.17043565712274364,0.03833819641536171,0.013400838680239259,0.0011256112907639191,0.00032351154131623285,0.0061924449017296546
2025/04/09 08:48:38.50506887,1744181318,46576872,piren,0.17466676960966657,0.07509291288824929,0.029629849642874018,0.0026311085828571805,-0.003501764851710729,0.0
2025/04/09 08:48:38.211521549,1744181318,208468411,piren,0.15635056890487253,0.036964688493936,0.01375983607861785,0.002553350837712513,-0.0044028398244417,0.01372183442318613
2025/04/09 08:48:38.376830857,1744181318,371841258,piren,0.17615618452528,0.16566233606595263,0.06508697935017765,0.0022143487713092457,-0.0022154553361585613,0.011571506613601356
2025/04/09 08:48:38.541682417,1744181318,535896485,piren,0.14953279293072233,0.0871022146787712,0.03418782762693128,-0.0004902079037284249,0.0010282025215912224,0.0
2025/04/09 08:48:38.706581091,1744181318,699583529,piren,0.13852552964708598,0.05474313900235787,0.022408001422252626,-0.003164270231052298,0.002664570212334725,0.02022862054250373
2025/04/09 08:48:38.870690333,1744181318,863930448,piren,0.10965974028549685,-0.06338075645112409,-0.029604879715780165,-0.002921259157233621,0.0046302240814223485,0.0
2025/04/09 08:48:39.30491457,1744181319,27134183,piren,0.1111883598590794,-0.02915425607088734,-0.01431756735319636,-0.0009205665537702539,0.002552486649599657,0.032840607357674675
2025/04/09 08:48:39.190850162,1744181319,188343617,piren,0.11552156340849257,-0.022031417522429975,-0.009953925709984171,0.0007781013720171868,-0.000181780615605534,0.01627743443431254
2025/04/09 08:48:39.356281055,1744181319,353402502,piren,0.13489333191923839,0.058288876337656184,0.024233899470694112,0.0018401730977121455,-0.004193236418227805,0.0
2025/04/09 08:48:39.553264865,1744181319,549902483,piren,0.12043949189769597,0.00034543427891578493,0.0020613129051398164,0.002984824275790339,-0.004796383277037514,0.0337391161431389
2025/04/09 08:48:39.719891068,1744181319,714693490,piren,0.13409824775162638,0.10011350157819862,0.042819470744901986,0.0028676988562726722,-0.002236341495923362,0.016144408237206035
2025/04/09 08:48:39.884502214,1744181319,879339008,piren,0.13923325756613852,0.1447170519481918,0.0617068849742104,0.0018094515476479599,0.0010590060603652464,0.016113171905470285
2025/04/09 08:48:40.47191261,1744181320,43992076,piren,0.1369435584048006,0.15578555142305986,0.06642497730354613,-0.001392551723071396,0.002834230286770098,0.0
2025/04/09 08:48:40.212834091,1744181320,208751603,piren,0.08963999905649875,-0.05803499397234163,-0.02341978427798956,-0.0018519799809059295,0.003517069231268791,0.025415216370165004
2025/04/09 08:48:40.376779031,1744181320,373286004,piren,0.08157102774671333,-0.09689826953785968,-0.03641752066281825,-0.001341358007605719,0.00200035665867935,0.01722648048162225
2025/04/09 08:48:40.541198480,1744181320,537372914,piren,0.08337161066842785,-0.0927092574143896,-0.03251243176607623,0.0004000803275205059,0.0006696310519036747,0.0
2025/04/09 08:48:40.705496484,1744181320,700798353,piren,0.0987560297063283,-0.003321740010005403,0.003669573552596006,-0.0008186268918040834,-0.0019643246569791433,0.02453930855303763
2025/04/09 08:48:40.868438423,1744181320,864570042,piren,0.09029413909711369,-0.037664845682320175,-0.007961166796018304,0.0028044725149507957,-0.004230314761978621,0.0
2025/04/09 08:48:41.32625427,1744181321,29081855,piren,0.1001441289490231,0.03291981540423902,0.020899790090387782,0.002003095259154105,-0.004284140374299508,0.03755222953453636
2025/04/09 08:48:41.196030178,1744181321,193250508,piren,0.09009158334379211,-0.03816206031656266,-0.0056969083972674625,0.0014023300866467154,-0.0015004957616576626,0.01599625596894271
2025/04/09 08:48:41.369502640,1744181321,356807236,piren,0.08733106515242073,-0.07260529300719981,-0.018476764802040434,-0.00013606474964117742,0.002563948814504892,0.0
2025/04/09 08:48:41.535191812,1744181321,522597644,piren,0.06504017909046526,-0.1999879943990433,-0.07641444618530285,-0.0003743293455040264,0.0039191515205016045,0.03418482206086729
2025/04/09 08:48:41.691206550,1744181321,687313993,piren,0.09806951456880598,-0.0352502746040497,-0.00952499822904293,-0.0022420944915318188,0.003215070167704761,0.015403599890992596
2025/04/09 08:48:41.853393394,1744181321,849652683,piren,0.10375665335213854,-0.03465979199286237,-0.006691860608430028,-0.002803582415760655,0.0009638454582516232,0.0
2025/04/09 08:48:42.46103444,1744181322,43830241,piren,0.11925628850003706,0.05244498623997089,0.029418122852370845,-0.001983235680543198,-0.0030921935498298453,0.023246711051158064
2025/04/09 08:48:42.213104406,1744181322,207351229,piren,0.10233061955609629,-0.05705867254741831,-0.014752323896086487,-6.0573400265069533e-05,-0.0038404847638831823,0.015494053939801735
2025/04/09 08:48:42.375908418,1744181322,372743335,piren,0.08729807175473071,-0.161664800144035,-0.059028366434372245,-2.7435389365811986e-05,-0.0023823302829035055,0.01586279863697378
2025/04/09 08:48:42.541423280,1744181322,536923949,piren,0.07755356024517825,-0.21404732790183484,-0.0814773771515675,0.001888225522560702,0.0011432671111898743,0.0
2025/04/09 08:48:42.705868848,1744181322,702693588,piren,0.07133074118328296,-0.24307474820379835,-0.0957997946757583,0.0012051976831928164,0.003871840891809092,0.023343747652576678
2025/04/09 08:48:42.870666336,1744181322,867357420,piren,0.10234703117716891,-0.04472552047500328,-0.010008742318870029,-0.0012664817362993367,0.002660639102042188,0.0
2025/04/09 08:48:43.35050325,1744181323,32246385,piren,0.10082694258353514,-0.07591605290758677,-0.024126877350199288,-0.0009193364105029318,0.0003938740488447723,0.03237198574637593
2025/04/09 08:48:43.199249136,1744181323,196152861,piren,0.12164480050655585,0.008145860510194627,0.014809195618731865,-0.0015293131757292942,-0.002783634814083787,0.016136182102988
2025/04/09 08:48:43.363779586,1744181323,360594033,piren,0.13680101790109803,0.05511332158171201,0.03719973795554843,-0.0009550015868006996,-0.0033014775109574753,0.0
2025/04/09 08:48:43.527924600,1744181323,524849249,piren,0.1352191527969808,0.0060925924679398405,0.01630441037874775,0.00023741920920767332,-0.0019243843586726564,0.03309597802554786
2025/04/09 08:48:43.703404714,1744181323,690364903,piren,0.15649774186731522,0.1476438705797139,0.07340724819260522,-0.00010410493857636782,0.00036277593919200197,0.01550517878055236
2025/04/09 08:48:43.863080706,1744181323,855094032,piren,0.14325627775615432,0.03990804166455775,0.027592446040703676,0.00023157719261892185,0.0027593696328421175,0.0
2025/04/09 08:48:44.22837240,1744181324,20248711,piren,0.13987791389104134,0.009040119497558698,0.01493905305363299,0.0016149555565702035,0.0027983199095384962,0.033793727505869106
2025/04/09 08:48:44.186963426,1744181324,184266332,piren,0.13771738873624603,0.0034925103859680534,0.012200139894326157,0.0005911848900688187,0.002276369215794968,0.016652675334947978
2025/04/09 08:48:44.355832311,1744181324,350437197,piren,0.13162901956716272,-0.057520772591760465,-0.015381590034078484,-0.0011605611624959397,-8.456060893312553e-05,0.0
2025/04/09 08:48:44.554617854,1744181324,548988594,piren,0.13915668126392122,-0.009969890385627588,0.004874733362703054,-0.000572757090281958,-0.0023086731582945535,0.023049561757876317
2025/04/09 08:48:44.727860741,1744181324,715035966,piren,0.1397129410624075,-0.010808888657674907,0.005060206142967161,-0.0015745354563964989,-0.0027397002670076884,0.015181675775100911
2025/04/09 08:48:44.887037912,1744181324,881723262,piren,0.14404503794853557,-0.009520379667264642,0.006290556755045173,-0.0012054183596125858,-0.001377131233930971,0.01602818800700095
2025/04/09 08:48:45.50351517,1744181325,46332106,piren,0.14570642525218322,-0.0037163864799819564,0.008857776787254322,-0.0004570447626057684,0.000605186386565785,0.0
2025/04/09 08:48:45.216348759,1744181325,211657039,piren,0.14895207824811227,0.0006540037972629946,0.010078464578629818,0.0018182204226843378,0.002531616966627411,0.022003458782444252
2025/04/09 08:48:45.381761201,1744181325,378650129,piren,0.16578524000865402,0.08901112323237641,0.04401006930088975,0.001348745558743232,0.0024735969993785563,0.015881241064470603
2025/04/09 08:48:45.547390295,1744181325,544581747,piren,0.16454383381005758,0.04128035588955783,0.02410185346602098,0.0020065057668298266,0.0013019825260329962,0.0
2025/04/09 08:48:45.714434025,1744181325,711218558,piren,0.1615429168850824,-0.005145605428787968,0.004663267222383992,0.0018918108838333516,-0.0008263310602476409,0.024071388294593623
2025/04/09 08:48:45.879006019,1744181325,876347666,piren,0.17460063724379327,0.07482379325028915,0.03557528058848085,-0.0013388380789635793,-0.0019181010809553307,0.01512112147017603
2025/04/09 08:48:46.59238991,1744181326,43890917,piren,0.16585777144819078,-0.031377233713646716,-0.007540649485546065,0.0003461650247039892,-0.0016913432269464528,0.0
2025/04/09 08:48:46.214392260,1744181326,210255497,piren,0.16834115112715156,-0.028453819086552982,-0.00437333436335194,-0.002236858332699648,-0.000601097868258145,0.0223735867487232
2025/04/09 08:48:46.380247991,1744181326,377136954,piren,0.16874085044923962,-0.04136203607063152,-0.008468883926044763,0.0008098704167771413,0.000992516885813959,0.014637909604461935
2025/04/09 08:48:46.560317491,1744181326,554555368,piren,0.1832327582468679,0.03935818411969222,0.0233103306869797,-0.0007272961193077538,0.0016168914795506987,0.0
2025/04/09 08:48:46.734927004,1744181326,730934410,piren,0.17950805171217327,-0.006465860115940532,0.0051275903851109965,0.0011310112673871375,0.0011941320369517484,0.020943662422485965
2025/04/09 08:48:46.932847709,1744181326,928663039,piren,0.1629597943886438,-0.16430733416741503,-0.06552032050932793,0.0018991014714121947,-0.0005277562078505126,0.014287754019934911
2025/04/09 08:48:47.108324737,1744181327,95705521,piren,0.18311498650382418,-0.016532933767666402,-0.004616944806817354,0.0009622127396049958,-0.001035386062250207,0.015193910083447138
2025/04/09 08:48:47.270810901,1744181327,263752577,piren,0.18269186117104255,-0.034146997787183574,-0.008036346995828576,0.0004898710728610685,-0.0015495494328590538,0.0
2025/04/09 08:48:47.435683636,1744181327,431035431,piren,0.18457958500739552,-0.04959966556302759,-0.011695729570882558,-0.00035339948695231203,-0.0009000627074728873,0.02974390072163477
2025/04/09 08:48:47.603249727,1744181327,598346088,piren,0.19702371158409734,0.06405345410448746,0.03352098586315542,-7.394469080194213e-06,0.0003013472384766885,0.01355620382250539
2025/04/09 08:48:47.768379948,1744181327,765075901,piren,0.20690595883361312,0.11346849830119965,0.05333525910898125,-0.0008285394509783203,0.0010385314811376292,0.0
2025/04/09 08:48:47.934880881,1744181327,931097897,piren,0.19415367613664786,-0.04220991954939535,-0.011111694184575069,-0.00023962219900943235,0.0008807770848345646,0.02920927485941157
2025/04/09 08:48:48.100935719,1744181328,98020510,piren,0.1915156049763027,-0.07259518872856432,-0.02196167212335602,-0.00031524750180118914,0.0011186500840055084,0.013746811332450454
2025/04/09 08:48:48.270712688,1744181328,264663887,piren,0.1901308208746741,-0.07020731954930824,-0.020452569647534342,0.001517243853472087,0.00048803657520550656,0.0
2025/04/09 08:48:48.437050244,1744181328,433657115,piren,0.19207734858241565,-0.07428651733412124,-0.0221132844460552,0.0014054817148757867,-0.0007009297248023894,0.02852630873518398
2025/04/09 08:48:48.604934902,1744181328,601333681,piren,0.2065526922164736,0.05574132895972099,0.027799865903311623,0.0008778593323943507,-0.0013016815589506417,0.013679410774069601
2025/04/09 08:48:48.772633297,1744181328,769121695,piren,0.2062891675311221,0.007381165007246018,0.009282353185372471,-6.83273611194631e-05,-0.001289278447914727,0.012405876990005749
2025/04/09 08:48:48.938405398,1744181328,935253699,piren,0.20748659862570096,0.01587354245543822,0.013505582443409023,-0.0009207517191954338,-0.001369294083975002,0.0
2025/04/09 08:48:49.106864204,1744181329,102388360,piren,0.2032873340168408,-0.01977873201021764,-0.0008259564716489379,-0.0007931032283616591,0.0003871631026901953,0.019506290420998978
2025/04/09 08:48:49.271644978,1744181329,268698816,piren,0.20827391798698047,0.010080133734163905,0.010612746123887004,-0.000951819310861729,0.0020970376125980937,0.010290692466002522
2025/04/09 08:48:49.476386601,1744181329,469933882,piren,0.20980684616592954,-0.02531413357901299,-0.004789741488471224,-1.2754235816478507e-05,0.0016764111592052638,0.0
2025/04/09 08:48:49.643523516,1744181329,639150884,piren,0.2029833086272447,-0.162838377665457,-0.06766019631048578,0.0005059843050494051,0.0007134082711767151,0.027054468858746957
2025/04/09 08:48:49.809237749,1744181329,805489102,piren,0.20840401218188162,-0.10705488303251484,-0.04253865786390882,0.0019693191195594346,-0.0014255144738788907,0.01305266067436767
2025/04/09 08:48:49.976486111,1744181329,972138749,piren,0.21295370737198027,-0.07186315454619005,-0.026189846254570878,0.0015728060673148073,-0.00231928216125311,0.011598878423251247
2025/04/09 08:48:50.141010414,1744181330,138465040,piren,0.22434128302670614,0.08151644201416303,0.03534038818425493,0.001733776990533764,-0.0020070731899391675,0.0
2025/04/09 08:48:50.309650079,1744181330,306799173,piren,0.2184331540486255,0.03826334198311116,0.01986556703353308,-0.0019978079038754436,-0.00015978224503254647,0.017307303088127262
2025/04/09 08:48:50.478841525,1744181330,474380397,piren,0.21738355137549661,0.038896705629622656,0.021597797361608072,-0.0014291624503654941,0.0015859284660501517,0.0
2025/04/09 08:48:50.646696822,1744181330,642379048,piren,0.21378522873210387,-0.015751177973106392,-0.0011057000146063693,-0.00042149198253493684,0.002443803000648155,0.026275272722616396
2025/04/09 08:48:50.815095138,1744181330,810911327,piren,0.22414165275954476,0.0933585575950022,0.040400682597337936,-0.0013309297679925318,0.0016826177992757718,0.011260200573912292
2025/04/09 08:48:50.981121692,1744181330,978006057,piren,0.2262511945240931,0.050470939781417035,0.023673966134806438,-0.00011558243234625745,0.00011399037005838289,0.01114815279285282
2025/04/09 08:48:51.148225350,1744181331,144209395,piren,0.2239170648398613,0.008935756675009836,0.007145674677984819,0.0018892118092464513,-0.0012871796461135147,0.0
2025/04/09 08:48:51.317110462,1744181331,312231484,piren,0.22016296499309648,-0.03753031931846606,-0.011648014849585657,0.0008474084199101356,-0.001969531967408542,0.017276392234739518
2025/04/09 08:48:51.484282531,1744181331,481009920,piren,0.21932557063382777,-0.04613362394397852,-0.014703067507482352,-0.0003303508291988691,-0.001334452981486235,0.010491683311942357
2025/04/09 08:48:51.652699834,1744181331,649482441,piren,0.22017533883836224,-0.0350793692688964,-0.009967129949422919,-0.0014499115748426114,-6.064732453246787e-05,0.0
2025/04/09 08:48:51.821866592,1744181331,817866534,piren,0.213128795501234,-0.13309849874358376,-0.054296652259414546,4.790823385722188e-05,0.0014544104743690412,0.015707304573146882
2025/04/09 08:48:52.20959067,1744181332,16774007,piren,0.21755853188769836,-0.08853652852062593,-0.035122857913336594,-0.0016208610534397358,0.0016867830922464777,0.010950691811836718
2025/04/09 08:48:52.186998604,1744181332,184320383,piren,0.21988527062740107,-0.11044709442489845,-0.045570417857241086,0.0010094301238876848,0.0006846009047448922,0.009984287143047074
2025/04/09 08:48:52.355325219,1744181332,352886283,piren,0.2315091841097001,0.05438425141769615,0.021290825424528856,-0.0009009527270106639,-0.0007222854167811324,0.0
2025/04/09 08:48:52.525309097,1744181332,521154198,piren,0.23208951984606757,0.06078694724114969,0.026234020054823767,0.0001894104536254291,-0.0018335206169850394,0.015179458302071987
2025/04/09 08:48:52.696815496,1744181332,691019911,piren,0.23850719236734222,0.17328738065139107,0.07032521809292298,0.0002788632104553357,-0.0015277765937575457,0.009576582296361552
2025/04/09 08:48:52.864250955,1744181332,859681902,piren,0.23276938607596095,0.09853809692604075,0.042541101535018916,-0.0007026690086774132,0.00040329427997090627,0.0
2025/04/09 08:48:53.33095091,1744181333,29418103,piren,0.22078860189913033,-0.06448087438839108,-0.026662851420486064,-1.0170894647308394e-06,0.0017454296958030417,0.02076044448514566
2025/04/09 08:48:53.202629419,1744181333,197229569,piren,0.21461113979426047,-0.14914068158259364,-0.062228017582276945,0.0007791385740782971,0.002126895919443465,0.009199908263766628
2025/04/09 08:48:53.370160001,1744181333,366931316,piren,0.21923936060784402,-0.10154958355310523,-0.04021248042315724,0.0001739513741460923,0.0007819594124958316,0.0
2025/04/09 08:48:53.541014788,1744181333,536638530,piren,0.22290434528649714,-0.058777481032984406,-0.021108613108874845,0.00011373805209861847,-0.0010148859674340206,0.01914755846440148
2025/04/09 08:48:53.709868504,1744181333,706434699,piren,0.23092087573540995,0.0930579569913792,0.03928042404719926,0.00024788202306251094,-0.002384594957108745,0.008586832388678743
2025/04/09 08:48:53.884371377,1744181333,875979890,piren,0.23719164689273387,0.174879267471579,0.07195038250433826,-0.0009862472160325363,-0.0017966414282983225,0.00896772744664938
2025/04/09 08:48:54.49642973,1744181334,45048853,piren,0.23281241979802875,0.10516175305979261,0.04590809341285934,-0.0006882833204586375,-0.00012711326293009907,0.0
2025/04/09 08:48:54.217418299,1744181334,214313114,piren,0.2203049450408344,-0.07210512425726817,-0.03023843748391497,-0.0002365636569227873,0.0021220907409470855,0.012614568394211384
2025/04/09 08:48:54.420293147,1744181334,414512054,piren,0.21372409239693302,-0.17256521812314501,-0.07390301494543931,0.0007242446052483626,0.00237995859051486,0.008358923267551575
2025/04/09 08:48:54.588529053,1744181334,585263289,piren,0.21856639535453729,-0.1097232899042862,-0.04518238564947337,1.5681278279455185e-05,0.0009828323545092122,0.008373072418196714
2025/04/09 08:48:54.761704260,1744181334,754820619,piren,0.22170573820271788,-0.04699577341989396,-0.0174273311291042,-0.0024436394524295917,-0.0015325471528483672,0.0
2025/04/09 08:48:54.928471386,1744181334,925121743,piren,0.2191633510648899,-0.09603560804694068,-0.03923179952096872,0.0010500620559019676,-0.00289686023749435,0.01614868484352141
2025/04/09 08:48:55.100240611,1744181335,95711101,piren,0.22417203038089614,0.043496274947802074,0.019234350238794218,-0.0009384278649863672,-0.002460517419837954,0.007245506497188608
2025/04/09 08:48:55.268527763,1744181335,265631598,piren,0.22646312494566703,0.0544919623822355,0.025690735837758195,-0.0006160753263941583,-0.00010180187768691761,0.0
2025/04/09 08:48:55.438976901,1744181335,435344077,piren,0.22585324278775262,0.05496676091374894,0.02655826019098059,-0.00013102961833223937,0.0015162531320309055,0.015544347649560343
2025/04/09 08:48:55.609512609,1744181335,605660305,piren,0.22389929738260436,0.049282062378870534,0.02377711252519036,0.00042402239208368575,0.002729741969492345,0.00712527492519655
2025/04/09 08:48:55.777134993,1744181335,774174034,piren,0.22276421048841258,0.03894951430033899,0.01811116691857856,0.0013413353451734381,0.002021645770904874,0.0
2025/04/09 08:48:55.947395796,1744181335,943973876,piren,0.2262597931581695,0.1439730713303564,0.05641756803950636,0.001915003432784282,0.00032715258725487015,0.016432947934832996
2025/04/09 08:48:56.124500164,1744181336,114447650,piren,0.22573379738964833,0.17979129754894557,0.06902411325778851,9.200207876601957e-06,-0.0019171356585007881,0.006746534861652783
2025/04/09 08:48:56.290859819,1744181336,284408268,piren,0.2258655631695092,0.19799607846784995,0.07483699392345643,-0.000866585412656409,-0.0022432676144538157,0.00665253416531791
2025/04/09 08:48:56.459732249,1744181336,456587788,piren,0.21437578389386547,-0.05965816805237378,-0.0313571063514505,-0.001911997781954381,-0.0010872007150305857,0.0
2025/04/09 08:48:56.629983866,1744181336,627045115,piren,0.20715060455677306,-0.21155687782852478,-0.0928178430523818,-0.0001993923667955884,0.0008985584582914683,0.014476039625397218
2025/04/09 08:48:56.800353242,1744181336,796711340,piren,0.20752793524461596,-0.18630820715425184,-0.07731203684418905,0.00039235449324452246,0.002295408011525358,0.0062828867967769705
2025/04/09 08:48:57.7311692,1744181337,1771522,piren,0.21314856007275013,-0.019017392768182317,-0.00863058874147453,0.0013532612929309867,0.001590491217570864,0.004320129774579491
2025/04/09 08:48:57.184568712,1744181337,174999459,piren,0.2180243570024686,0.09097934772371474,0.03652705449126474,0.0010181911827391863,-0.0009245918767871698,0.004311143941178196
2025/04/09 08:48:57.348359464,1744181337,345706995,piren,0.2160269483983484,0.041015034654037955,0.019288759767841078,0.0012442828889188669,-0.0020691397505706545,0.0
2025/04/09 08:48:57.518941695,1744181337,516334107,piren,0.21178990394637368,-0.0021519779713341236,0.0034859259792863855,-0.0018016767716335432,-0.0014879252197047541,0.00828896531494902
2025/04/09 08:48:57.689832152,1744181337,686136750,piren,0.2074281288243128,-0.11752456465997026,-0.0463190039015547,-0.0011363587192488919,-0.00022447505132275553,0.00568365412183401
2025/04/09 08:48:57.859316303,1744181337,856031510,piren,0.20549688371720548,-0.1870463563624068,-0.07803628814900596,-0.0013319827849846717,0.0015417013406525874,0.0
2025/04/09 08:48:58.29795857,1744181338,26995965,piren,0.20818698429179675,0.02712289326264028,0.00765630838943461,9.069729934431984e-05,0.0016334131625060928,0.010979348267190712
2025/04/09 08:48:58.212258039,1744181338,198777168,piren,0.21121890663953308,0.11515834420802122,0.04523255471608574,-0.0006661075152585299,0.0006714844375119686,0.004634970363347248
2025/04/09 08:48:58.376533758,1744181338,370073986,piren,0.21147042345696718,0.07539191334853997,0.03161227728221621,0.00032613697235096774,-0.0005282425953530888,0.0
2025/04/09 08:48:58.546275637,1744181338,542553469,piren,0.2114522563925675,0.15545722603064888,0.06243653877335478,-0.001165097936253747,-0.0008527830175778154,0.010365841270497087
2025/04/09 08:48:58.715689832,1744181338,712934687,piren,0.20536495751216535,-0.030835009152178544,-0.01499722757272895,0.00045417287514700925,-0.0006220411411566846,0.004922352609729772
2025/04/09 08:48:58.886486784,1744181338,883083252,piren,0.20370834161872153,-0.04698673443644992,-0.018522352006647185,0.00037469928958538295,-0.0006522654780701813,0.0051903680977250745
2025/04/09 08:48:59.58116448,1744181339,53865090,piren,0.1984408816985706,-0.1557728327699348,-0.06535446496935929,0.0016034692557526404,0.0014641519579438715,0.0
2025/04/09 08:48:59.226677984,1744181339,224297546,piren,0.19951649364784318,0.0024958116955079435,-0.0008044283991626294,0.0014392670616313443,0.0015386605578538274,0.006975984303960404
2025/04/09 08:48:59.398211817,1744181339,395431423,piren,0.20274764696678177,0.10093417865318798,0.03945562142736992,-0.0015172580012738368,0.00025015104130159376,0.004535745634593625
2025/04/09 08:48:59.605904405,1744181339,602494713,piren,0.2018121823907677,0.0348209774920636,0.014806436566437528,-0.0007563980764569002,-0.0011995034283015706,0.0032085525186893765
2025/04/09 08:48:59.776189114,1744181339,773436892,piren,0.19953942970450952,-0.022485579815656534,-0.007352919469791497,0.00041303272923382515,-0.0011147695705269623,0.004235856200687088
2025/04/09 08:48:59.946320685,1744181339,943577924,piren,0.1971067727645277,-0.04023905008484661,-0.01381994658743505,0.00027037287321517704,-0.0004681980664836213,0.0
2025/04/09 08:49:00.116753981,1744181340,114149119,piren,0.1962273512752745,0.0829940451556925,0.032792405248628524,-0.00022549796630562605,0.000581659054731975,0.006006472234187127
2025/04/09 08:49:00.290958234,1744181340,286278591,piren,0.19192127437067938,-0.05422649622432771,-0.025147794879540414,-0.00045854488763134643,0.0010608633072242955,0.0038130024668127367
2025/04/09 08:49:00.461519673,1744181340,458875958,piren,0.190203054734593,-0.15174969301319802,-0.06746561744144298,-4.518951268657211e-05,0.0007556755486944019,0.0
2025/04/09 08:49:00.634581992,1744181340,630689958,piren,0.18879523310879448,-0.20264107255902641,-0.08997590108925625,0.00044238146490117625,-7.810713759940828e-05,0.007815076989282944
2025/04/09 08:49:00.805314328,1744181340,802259346,piren,0.19139606609987822,0.015373787690942053,0.000470448058597861,0.0005072230282921127,-0.0010404991995296368,0.0033466707099431055
2025/04/09 08:49:00.979077856,1744181340,973953333,piren,0.19273344149960395,0.1474411164435881,0.05653119832356099,-0.0015096334727922466,-0.001389698010659149,0.0
2025/04/09 08:49:01.152810884,1744181341,148232647,piren,0.1904513592855892,0.0007011263121515232,-0.0031860065086853004,0.000739465777774565,-0.0010069643022538979,0.006929874654767358
2025/04/09 08:49:01.324412159,1744181341,321222247,piren,0.18760467074912412,0.03167308543761492,0.014223253795465164,3.3678041688086155e-05,0.0009985700153688959,0.0034017957182806715
2025/04/09 08:49:01.496097076,1744181341,493072878,piren,0.18380441217486804,-0.08924525503675766,-0.03823030793979744,0.0020467510751347104,0.0019016192219947086,0.0031352390646244006
2025/04/09 08:49:01.669137887,1744181341,665805950,piren,0.1845871492284914,0.06139761735407802,0.024456620691688996,0.0004649142972513447,0.001234168259625167,0.0
2025/04/09 08:49:01.842311197,1744181341,837752124,piren,0.18292828450353227,0.06187901426646959,0.027191153698908392,0.00218161552013484,-0.00023911164002477018,0.006049432114952502
2025/04/09 08:49:02.11675893,1744181342,8429052,piren,0.18198363607352802,0.14997132617713788,0.06187497326569125,0.001516645108806791,-0.001488721895204992,0.002762231770179416
2025/04/09 08:49:02.215130031,1744181342,211501293,piren,0.18111319338458998,0.18454855453655938,0.07496469780091035,0.0012178064107459124,-0.0012691998696078431,0.002988380611620798
2025/04/09 08:49:02.391794264,1744181342,385791886,piren,0.17892357678160806,0.17957599913793304,0.07243492020981146,-9.93867771957614e-05,-3.844669729607816e-05,0.0026597235507314406
2025/04/09 08:49:02.568978433,1744181342,562100832,piren,0.17638324783788448,0.16334816509711375,0.06439855414904268,-0.0005334568228241503,0.0004180772813286122,0.0
2025/04/09 08:49:02.739551845,1744181342,736131602,piren,0.17503785100420827,0.05363219212258659,0.0215719364111678,-0.0003279541946483808,0.00157191701745227,0.006946242547906646
2025/04/09 08:49:02.910774411,1744181342,907374324,piren,0.17184583962425676,-0.05415679096217868,-0.02165986043295543,0.000334200226166522,0.0016516158315458608,0.0039138628115575865
2025/04/09 08:49:03.82765912,1744181343,79034092,piren,0.16941453129202272,-0.1159650001761744,-0.04691523096690804,0.0007657444680611375,0.0014991924553354034,0.0034030546737186694
2025/04/09 08:49:03.254398966,1744181343,251568096,piren,0.16861271736211164,-0.13799920388037173,-0.05638309342373513,0.0009069946365324398,0.0004730143683999002,0.0
2025/04/09 08:49:03.427179497,1744181343,424255598,piren,0.16576202453329641,-0.13540924525154843,-0.05559562542142156,0.000792068954066245,-0.0020564671980124426,0.0032492591701608403
2025/04/09 08:49:03.604645288,1744181343,596728663,piren,0.165709355635272,-0.10490118647180645,-0.04286060889627055,0.0006771971182319938,-0.0036323546745935737,-0.0002436177983901448
2025/04/09 08:49:03.772237170,1744181343,769739001,piren,0.164886919071796,-0.06491695261952338,-0.025800092887001077,0.0006011787204890926,-0.002899914462454306,0.0
2025/04/09 08:49:03.945745647,1744181343,942377640,piren,0.16442504640153857,0.05482769504228634,0.021033602450408074,-0.002198057017510107,-0.0008964261671160109,-0.0036806619866362714
2025/04/09 08:49:04.120326748,1744181344,115089119,piren,0.1614995298948088,0.03374534590052497,0.013718422348283034,-0.0017493404038774023,0.0021977865740631956,-0.0027315841092465883
2025/04/09 08:49:04.298567725,1744181344,294595598,piren,0.16001397166855896,0.01266289141585765,0.005455846532722254,-0.002238109378322218,0.003072665603885195,-0.0029119265757090464
2025/04/09 08:49:04.471980188,1744181344,468146325,piren,0.15646333046347538,-0.10746848743528936,-0.047881452974936026,0.0006887958228451656,0.002823315341008298,0.0
2025/04/09 08:49:04.685446687,1744181344,682335837,piren,0.15437819821067936,0.04822899232376621,0.013357119942733711,0.0019230353087653276,0.0001829040991178414,-0.004972848842125169
2025/04/09 08:49:04.859944181,1744181344,855177567,piren,0.15065525686381992,0.010991668182078133,0.0011103411521112983,-0.00015014533877122122,-0.0029618298753110797,0.0
2025/04/09 08:49:05.32623061,1744181345,29106941,piren,0.15082712586204255,-0.10996057700217496,-0.049796242591836265,0.00015624497160941612,-0.0036785132910655224,-0.010199727870389762
2025/04/09 08:49:05.206086852,1744181345,202631399,piren,0.14770480866623079,-0.072108388934566,-0.030105512254721453,-0.0021941408979776803,-0.0022538465827185777,-0.0044638843560157035
2025/04/09 08:49:05.383260049,1744181345,378603267,piren,0.14350394958264592,-0.1312241194155827,-0.05531710124234333,-0.00250214531707723,0.0014534320422193185,0.0
2025/04/09 08:49:05.560676099,1744181345,553978871,piren,0.1439445103774688,-0.1483623764686395,-0.06340827569871937,-0.0005372004919597345,0.002692012921529295,-0.013290911039877385
2025/04/09 08:49:05.732416384,1744181345,728359434,piren,0.14571708161447536,-0.043620470894574784,-0.017653371833747017,-0.0009709123309068814,0.002021164571125744,-0.009095174684919332
2025/04/09 08:49:05.906696762,1744181345,902831636,piren,0.14364713404816035,-0.05633440711389953,-0.02441786687364062,0.0006971769940892519,3.409747059619879e-05,-0.006193391190149118
2025/04/09 08:49:06.82483755,1744181346,79504145,piren,0.14638190367031717,0.11040855075252734,0.044672999939740186,0.0025862741332638582,-0.0017806061947387298,-0.0041380914010386936
2025/04/09 08:49:06.256958280,1744181346,253952375,piren,0.14399896698314485,0.19691818273868233,0.08099121939742276,0.001371492546596187,-0.0020923744547847473,0.0
2025/04/09 08:49:06.434078957,1744181346,429862265,piren,0.1426659136502622,0.267786096454984,0.10815638092877969,0.0006967646501174325,-0.0005146767005643049,-0.007255017430229589
2025/04/09 08:49:06.611981829,1744181346,606596156,piren,0.13867289634272317,0.21537272087816783,0.08807287401281699,0.0009499744613506781,0.0007495185517479464,-0.0034638189947229915
2025/04/09 08:49:06.785641979,1744181346,781855612,piren,0.13234138311586327,0.08227932046761491,0.0346413381239561,-0.0014290991339456168,0.0021455435106060346,-0.0020882236044555908
2025/04/09 08:49:06.958945451,1744181346,956182677,piren,0.12443159877225304,-0.08152246309659819,-0.03516678078342854,-0.00046207695039715606,0.002744516433552491,0.0
2025/04/09 08:49:07.134954326,1744181347,132268565,piren,0.1271954299673326,-0.07232934433695806,-0.03111515268461209,-0.0009830775366115115,0.0032562024355001005,-0.0040699883392275715
2025/04/09 08:49:07.344722028,1744181347,341460343,piren,0.12841438862315052,-0.16169203177587366,-0.07118313486418229,0.0005046792992265708,-0.0006332981384293342,-0.005057356635270679
2025/04/09 08:49:07.521032618,1744181347,518030300,piren,0.13078604624774934,-0.10864410318904408,-0.04692080312415959,-0.0008022508351883227,-0.006506683749598827,-0.005299730551798803
2025/04/09 08:49:07.696732159,1744181347,691629309,piren,0.12750756446525893,-0.16309544433952355,-0.07073725114590237,0.0008242436238070245,-0.006198575854463609,-0.005280791993079996
2025/04/09 08:49:07.868624468,1744181347,865217426,piren,0.12740799171765513,-0.07577097136349908,-0.030265196560723934,0.0008251307234406801,-0.002597077215114092,0.0
2025/04/09 08:49:08.55150861,1744181348,41452522,piren,0.12761182753242803,-0.01142426183114327,-0.0010194602617797574,0.0009690257859556303,0.0015778036648685717,-0.011753995610248622
2025/04/09 08:49:08.224044305,1744181348,218322855,piren,0.12949312296095752,0.1522389430627758,0.06342706381098326,0.0010118078623490752,0.005454997499788345,-0.004387617301532563
2025/04/09 08:49:08.398652397,1744181348,395832407,piren,0.12942582708774364,0.24067450271463747,0.09693561504884088,-0.00048571754147755023,0.005333348928230849,-0.003852775525791289
2025/04/09 08:49:08.575973452,1744181348,572476144,piren,0.12667175488199983,0.15922121607591216,0.06437494943041316,-0.0016537778684368363,-0.0010358029002753672,0.0
2025/04/09 08:49:08.750819256,1744181348,747688539,piren,0.12751610403565802,-0.01255407459420857,-0.008609214039897117,-7.266037951132783e-05,-0.0029861657588583015,-0.003966543529057627
2025/04/09 08:49:08.926508017,1744181348,922893462,piren,0.11771717954197822,-0.1451833599835023,-0.06563884819359271,-3.621514436291441e-05,-0.0030263035458372553,-0.0007049484943032323
2025/04/09 08:49:09.106457201,1744181349,98813179,piren,0.11192331953957374,-0.21245584704834036,-0.09410337696748916,0.001770458240736753,-0.0009600674196492969,-0.0015265774290606443
2025/04/09 08:49:09.279432313,1744181349,275563495,piren,0.11707932589943094,-0.0038084634250932226,-0.005889033361342291,0.0017664704623027527,0.001964913169183232,-0.0015557884114969992
2025/04/09 08:49:09.456144258,1744181349,452439385,piren,0.11551304141439697,0.1304294236886111,0.050976039826957024,0.00017084083886653392,0.0016572419066050077,0.0
2025/04/09 08:49:09.630405977,1744181349,627571684,piren,0.11894842846104449,0.21453581108057768,0.08563323031021747,-0.0005414730841981654,-0.0003514797461038759,-0.0028828826200432284
2025/04/09 08:49:09.804102190,1744181349,800550772,piren,0.11644048652979119,0.11969383103351028,0.05083046770929444,-0.0018920206729364764,-0.0014081419825567234,-3.3305240579563324e-05
2025/04/09 08:49:10.11201284,1744181350,6483317,piren,0.10990606712657619,-0.05603846947892596,-0.022541228215900565,-0.001655486760902804,0.000132173106839024,0.001202044510518392
2025/04/09 08:49:10.194002122,1744181350,182207410,piren,0.10539411360950918,-0.15820798710724338,-0.06607466591349007,0.00023994584017033996,0.0036594731499654237,0.0003122257546318972
2025/04/09 08:49:10.360600003,1744181350,357068730,piren,0.10411819906826178,-0.21617375536702602,-0.0931101172332976,0.0015283358883480733,0.004777790034258742,0.0
2025/04/09 08:49:10.533545179,1744181350,531295690,piren,0.10259107820093061,-0.05200653930796725,-0.023426487925610195,-0.00042109219084073593,0.0003241542298895267,-0.004144913959275528
2025/04/09 08:49:10.709299835,1744181350,706507960,piren,0.10446321305230424,-0.10287615705483368,-0.045431017471894444,-0.0003595455851290425,-0.005380574965683155,-0.0027625126611239125
2025/04/09 08:49:10.884631961,1744181350,881648993,piren,0.107627724948543,-0.01636252181042401,-0.005200868840896773,-0.0006805126837963474,-0.00716418529463173,-0.0016966281391937058
2025/04/09 08:49:11.70739114,1744181351,55733740,piren,0.10843854532445232,0.036347844055535816,0.019964701157103106,0.00038962879637042505,-0.002590057317147636,0.0
2025/04/09 08:49:11.235007312,1744181351,231059217,piren,0.1082031022710454,0.08150223992311148,0.03994935317601681,-0.0009175553472300956,0.0025634185714291584,-0.0021681131554936364
2025/04/09 08:49:11.411111232,1744181351,407329733,piren,0.10698263592821616,0.09253702169612588,0.04316855052460335,0.0018730614355019696,0.006589543157548994,-0.00037543896032570255
2025/04/09 08:49:11.586331683,1744181351,583423165,piren,0.10847562679514353,0.18530142062736593,0.07605724152441731,0.0001907647802389384,0.005260974785345007,0.0006320731755675972
2025/04/09 08:49:11.760969237,1744181351,757946953,piren,0.10620896007626483,0.12333008154792004,0.048944193794012145,9.435762264970219e-05,0.00026789749182303565,0.0
2025/04/09 08:49:11.936222174,1744181351,933192469,piren,0.11085157524771616,0.0860084519574233,0.03266795277891035,-0.0004517006013847675,-0.0027611541456768864,0.0035143918681180795
2025/04/09 08:49:12.112583244,1744181352,110363254,piren,0.10402620000754736,0.03262812300099575,0.01093537823054725,-0.0012052035942459508,-0.004201864265020781,0.0018739538006204396
2025/04/09 08:49:12.291292171,1744181352,286537696,piren,0.09919570143615615,-0.004229582923016659,-0.003551343527211861,-0.0014986651972553394,-0.002592665085795637,0.0012673808347438513
2025/04/09 08:49:12.467100127,1744181352,461704991,piren,0.09188706810900853,-0.1443023159042237,-0.06465909975316071,-0.0013529062147591558,0.0004177453883203522,0.0
2025/04/09 08:49:12.670790094,1744181352,667803801,piren,0.08776772836022259,-0.2095340779028898,-0.09348272840679746,-0.0007922009152392555,0.0037198004239277337,0.0009214506577799067
2025/04/09 08:49:12.845962093,1744181352,843179644,piren,0.07853440891958612,-0.22594345564971224,-0.10150686363457166,0.001286239263492594,0.0031030538439582966,0.0
2025/04/09 08:49:13.30057945,1744181353,20214677,piren,0.08612861320316383,-0.10151227600172168,-0.046070108984557816,0.0014578417991741941,0.0004504522703073684,-0.001278808353421325
