time,header_stamp_secs,header_stamp_nsecs,header_frame_id,status_status,status_service,latitude,longitude,altitude,position_covariance_0,position_covariance_1,position_covariance_2,position_covariance_3,position_covariance_4,position_covariance_5,position_covariance_6,position_covariance_7,position_covariance_8,position_covariance_type
2025/04/11 11:51:09.67570729,1744365069,67226676,hemisphere,2,1,63.44116363366667,10.419841267666667,43.855000000000004,0.000144,0.0,0.0,0.0,0.000144,0.0,0.0,0.0,0.002304,1
2025/04/11 11:51:09.75508443,1744365069,74767963,hemisphere,2,1,63.441163635,10.419841239666667,43.857,0.000144,0.0,0.0,0.0,0.000144,0.0,0.0,0.0,0.002304,1
2025/04/11 11:51:09.88579655,1744365069,87714762,hemisphere,2,1,63.4411636185,10.419841244166667,43.856,0.000144,0.0,0.0,0.0,0.000144,0.0,0.0,0.0,0.002304,1
2025/04/11 11:51:09.192499683,1744365069,122966362,hemisphere,2,1,63.44116362333333,10.419841254666666,43.855000000000004,0.000144,0.0,0.0,0.0,0.000144,0.0,0.0,0.0,0.002304,1
2025/04/11 11:51:09.196174824,1744365069,172625418,hemisphere,2,1,63.4411636125,10.4198412275,43.856,0.000144,0.0,0.0,0.0,0.000144,0.0,0.0,0.0,0.002304,1
2025/04/11 11:51:09.222003435,1744365069,221617576,hemisphere,2,1,63.44116362566667,10.419841230833333,43.854,0.000144,0.0,0.0,0.0,0.000144,0.0,0.0,0.0,0.002304,1
2025/04/11 11:51:09.272535350,1744365069,272121502,hemisphere,2,1,63.441163613,10.419841247166667,43.856,0.000144,0.0,0.0,0.0,0.000144,0.0,0.0,0.0,0.002304,1
2025/04/11 11:51:09.324024253,1744365069,321977271,hemisphere,2,1,63.44116361933333,10.4198412245,43.858000000000004,0.000144,0.0,0.0,0.0,0.000144,0.0,0.0,0.0,0.002304,1
2025/04/11 11:51:09.379066731,1744365069,376004455,hemisphere,2,1,63.441163624,10.419841233333333,43.853,0.000144,0.0,0.0,0.0,0.000144,0.0,0.0,0.0,0.002304,1
2025/04/11 11:51:09.422975567,1744365069,422544484,hemisphere,2,1,63.44116361383333,10.419841198,43.858000000000004,0.000144,0.0,0.0,0.0,0.000144,0.0,0.0,0.0,0.002304,1
2025/04/11 11:51:09.473996475,1744365069,472274714,hemisphere,2,1,63.44116358833333,10.419841225833334,43.855000000000004,0.000144,0.0,0.0,0.0,0.000144,0.0,0.0,0.0,0.002304,1
2025/04/11 11:51:09.529859994,1744365069,522644947,hemisphere,2,1,63.441163618833336,10.419841244,43.857,0.000144,0.0,0.0,0.0,0.000144,0.0,0.0,0.0,0.002304,1
2025/04/11 11:51:09.573467338,1744365069,572503917,hemisphere,2,1,63.4411636,10.419841225,43.854,0.000144,0.0,0.0,0.0,0.000144,0.0,0.0,0.0,0.002304,1
2025/04/11 11:51:09.624227490,1744365069,622754532,hemisphere,2,1,63.4411636065,10.4198412045,43.856,0.000144,0.0,0.0,0.0,0.000144,0.0,0.0,0.0,0.002304,1
2025/04/11 11:51:09.673987795,1744365069,673403167,hemisphere,2,1,63.441163601666666,10.419841222,43.855000000000004,0.000144,0.0,0.0,0.0,0.000144,0.0,0.0,0.0,0.002304,1
2025/04/11 11:51:09.722275882,1744365069,721939042,hemisphere,2,1,63.441163597666666,10.419841229333333,43.859,0.000144,0.0,0.0,0.0,0.000144,0.0,0.0,0.0,0.002304,1
2025/04/11 11:51:09.773049181,1744365069,772668127,hemisphere,2,1,63.44116360983333,10.4198411975,43.857,0.000144,0.0,0.0,0.0,0.000144,0.0,0.0,0.0,0.002304,1
2025/04/11 11:51:09.821856959,1744365069,821521901,hemisphere,2,1,63.44116360033333,10.419841207666666,43.857,0.000144,0.0,0.0,0.0,0.000144,0.0,0.0,0.0,0.002304,1
2025/04/11 11:51:09.872429973,1744365069,871995370,hemisphere,2,1,63.44116360383333,10.419841224333334,43.855000000000004,0.000144,0.0,0.0,0.0,0.000144,0.0,0.0,0.0,0.002304,1
2025/04/11 11:51:09.925263080,1744365069,922405859,hemisphere,2,1,63.441163589666665,10.419841224666667,43.858000000000004,0.000144,0.0,0.0,0.0,0.000144,0.0,0.0,0.0,0.002304,1
2025/04/11 11:51:09.973699702,1744365069,972849261,hemisphere,2,1,63.441163597166664,10.419841204333334,43.856,0.000144,0.0,0.0,0.0,0.000144,0.0,0.0,0.0,0.002304,1
2025/04/11 11:51:10.23516566,1744365070,22838425,hemisphere,2,1,63.441163591333336,10.419841209,43.859,0.000144,0.0,0.0,0.0,0.000144,0.0,0.0,0.0,0.002304,1
2025/04/11 11:51:10.73061877,1744365070,72397266,hemisphere,2,1,63.441163601666666,10.419841217666667,43.854,0.000144,0.0,0.0,0.0,0.000144,0.0,0.0,0.0,0.002304,1
2025/04/11 11:51:10.124001014,1744365070,123604237,hemisphere,2,1,63.441163599333336,10.419841197,43.859,0.000144,0.0,0.0,0.0,0.000144,0.0,0.0,0.0,0.002304,1
2025/04/11 11:51:10.173813505,1744365070,172473407,hemisphere,2,1,63.441163602,10.4198411925,43.857,0.000144,0.0,0.0,0.0,0.000144,0.0,0.0,0.0,0.002304,1
2025/04/11 11:51:10.380847441,1744365070,222767936,hemisphere,2,1,63.441163587666665,10.419841189833333,43.859,0.000144,0.0,0.0,0.0,0.000144,0.0,0.0,0.0,0.002304,1
2025/04/11 11:51:10.381268418,1744365070,272715856,hemisphere,2,1,63.441163591666665,10.419841183833334,43.857,0.000144,0.0,0.0,0.0,0.000144,0.0,0.0,0.0,0.002304,1
2025/04/11 11:51:10.387873148,1744365070,321927099,hemisphere,2,1,63.4411635925,10.41984119,43.859,0.000144,0.0,0.0,0.0,0.000144,0.0,0.0,0.0,0.002304,1
2025/04/11 11:51:10.394274801,1744365070,375038185,hemisphere,2,1,63.44116358466667,10.419841179,43.859,0.000144,0.0,0.0,0.0,0.000144,0.0,0.0,0.0,0.002304,1
2025/04/11 11:51:10.422091977,1744365070,421778126,hemisphere,2,1,63.441163620833336,10.419841158833334,43.859,0.000144,0.0,0.0,0.0,0.000144,0.0,0.0,0.0,0.002304,1
2025/04/11 11:51:10.472504243,1744365070,472208502,hemisphere,2,1,63.441163591,10.419841182666667,43.862,0.000144,0.0,0.0,0.0,0.000144,0.0,0.0,0.0,0.002304,1
2025/04/11 11:51:10.522763984,1744365070,522406122,hemisphere,2,1,63.441163585,10.41984116,43.859,0.000144,0.0,0.0,0.0,0.000144,0.0,0.0,0.0,0.002304,1
2025/04/11 11:51:10.576392097,1744365070,574959348,hemisphere,2,1,63.441163581333335,10.419841184333333,43.86,0.000144,0.0,0.0,0.0,0.000144,0.0,0.0,0.0,0.002304,1
2025/04/11 11:51:10.623593306,1744365070,623014401,hemisphere,2,1,63.4411635835,10.419841211166666,43.859,0.000144,0.0,0.0,0.0,0.000144,0.0,0.0,0.0,0.002304,1
2025/04/11 11:51:10.673505924,1744365070,672985240,hemisphere,2,1,63.4411635735,10.419841179833334,43.857,0.000144,0.0,0.0,0.0,0.000144,0.0,0.0,0.0,0.002304,1
2025/04/11 11:51:10.722413963,1744365070,721775697,hemisphere,2,1,63.44116357916667,10.419841173333333,43.86,0.000144,0.0,0.0,0.0,0.000144,0.0,0.0,0.0,0.002304,1
2025/04/11 11:51:10.772986800,1744365070,772293290,hemisphere,2,1,63.4411635765,10.419841204833332,43.854,0.000144,0.0,0.0,0.0,0.000144,0.0,0.0,0.0,0.002304,1
2025/04/11 11:51:10.822589572,1744365070,821999450,hemisphere,2,1,63.441163582166666,10.4198411915,43.857,0.000144,0.0,0.0,0.0,0.000144,0.0,0.0,0.0,0.002304,1
2025/04/11 11:51:10.871846665,1744365070,871234149,hemisphere,2,1,63.441163575333334,10.419841200833334,43.859,0.000144,0.0,0.0,0.0,0.000144,0.0,0.0,0.0,0.002304,1
2025/04/11 11:51:10.921806928,1744365070,921426061,hemisphere,2,1,63.441163570166665,10.419841195166667,43.856,0.000144,0.0,0.0,0.0,0.000144,0.0,0.0,0.0,0.002304,1
2025/04/11 11:51:10.972381731,1744365070,972000839,hemisphere,2,1,63.4411635865,10.419841222333334,43.861000000000004,0.000144,0.0,0.0,0.0,0.000144,0.0,0.0,0.0,0.002304,1
2025/04/11 11:51:11.22640811,1744365071,22264700,hemisphere,2,1,63.4411635675,10.419841220833334,43.854,0.000144,0.0,0.0,0.0,0.000144,0.0,0.0,0.0,0.002304,1
2025/04/11 11:51:11.73886098,1744365071,73409320,hemisphere,2,1,63.441163575,10.419841236333333,43.858000000000004,0.000144,0.0,0.0,0.0,0.000144,0.0,0.0,0.0,0.002304,1
2025/04/11 11:51:11.123094410,1744365071,122717240,hemisphere,2,1,63.44116357283333,10.419841238833333,43.859,0.000144,0.0,0.0,0.0,0.000144,0.0,0.0,0.0,0.002304,1
2025/04/11 11:51:11.173305616,1744365071,172767804,hemisphere,2,1,63.44116358033333,10.419841245333334,43.856,0.000144,0.0,0.0,0.0,0.000144,0.0,0.0,0.0,0.002304,1
2025/04/11 11:51:11.222072326,1744365071,221754839,hemisphere,2,1,63.441163573666664,10.419841229,43.857,0.000144,0.0,0.0,0.0,0.000144,0.0,0.0,0.0,0.002304,1
2025/04/11 11:51:11.272147676,1744365071,271565663,hemisphere,2,1,63.44116356716667,10.419841256833333,43.853,0.000144,0.0,0.0,0.0,0.000144,0.0,0.0,0.0,0.002304,1
2025/04/11 11:51:11.322291572,1744365071,321959695,hemisphere,2,1,63.44116358233333,10.419841252,43.859,0.000144,0.0,0.0,0.0,0.000144,0.0,0.0,0.0,0.002304,1
2025/04/11 11:51:11.375580016,1744365071,375167457,hemisphere,2,1,63.441163579333335,10.419841280333333,43.858000000000004,0.000144,0.0,0.0,0.0,0.000144,0.0,0.0,0.0,0.002304,1
2025/04/11 11:51:11.423052214,1744365071,422719844,hemisphere,2,1,63.441163569333334,10.419841253666666,43.855000000000004,0.000144,0.0,0.0,0.0,0.000144,0.0,0.0,0.0,0.002304,1
2025/04/11 11:51:11.472697295,1744365071,472400043,hemisphere,2,1,63.4411635815,10.419841256166666,43.858000000000004,0.000144,0.0,0.0,0.0,0.000144,0.0,0.0,0.0,0.002304,1
2025/04/11 11:51:11.522780592,1744365071,522149841,hemisphere,2,1,63.441163585333335,10.419841271,43.856,0.000144,0.0,0.0,0.0,0.000144,0.0,0.0,0.0,0.002304,1
2025/04/11 11:51:11.572783385,1744365071,572496591,hemisphere,2,1,63.441163556166664,10.419841276,43.855000000000004,0.000144,0.0,0.0,0.0,0.000144,0.0,0.0,0.0,0.002304,1
2025/04/11 11:51:11.622532962,1744365071,622225559,hemisphere,2,1,63.4411635885,10.419841277166666,43.858000000000004,0.000144,0.0,0.0,0.0,0.000144,0.0,0.0,0.0,0.002304,1
2025/04/11 11:51:11.673025712,1744365071,672651257,hemisphere,2,1,63.44116356716667,10.4198412755,43.858000000000004,0.000144,0.0,0.0,0.0,0.000144,0.0,0.0,0.0,0.002304,1
2025/04/11 11:51:11.722008704,1744365071,721618402,hemisphere,2,1,63.44116357683333,10.419841286333334,43.857,0.000144,0.0,0.0,0.0,0.000144,0.0,0.0,0.0,0.002304,1
2025/04/11 11:51:11.772699182,1744365071,772148138,hemisphere,2,1,63.441163585666665,10.419841282333334,43.856,0.000144,0.0,0.0,0.0,0.000144,0.0,0.0,0.0,0.002304,1
2025/04/11 11:51:11.822754130,1744365071,822453656,hemisphere,2,1,63.44116358083333,10.4198413055,43.857,0.000144,0.0,0.0,0.0,0.000144,0.0,0.0,0.0,0.002304,1
2025/04/11 11:51:11.871798479,1744365071,871508035,hemisphere,2,1,63.441163577666664,10.419841291833333,43.858000000000004,0.000144,0.0,0.0,0.0,0.000144,0.0,0.0,0.0,0.002304,1
2025/04/11 11:51:11.922817727,1744365071,922534952,hemisphere,2,1,63.4411635815,10.4198413005,43.859,0.000144,0.0,0.0,0.0,0.000144,0.0,0.0,0.0,0.002304,1
2025/04/11 11:51:11.972644080,1744365071,972284847,hemisphere,2,1,63.44116358416667,10.419841310166667,43.855000000000004,0.000144,0.0,0.0,0.0,0.000144,0.0,0.0,0.0,0.002304,1
2025/04/11 11:51:12.23070409,1744365072,22701277,hemisphere,2,1,63.44116358116667,10.419841314666666,43.854,0.000144,0.0,0.0,0.0,0.000144,0.0,0.0,0.0,0.002304,1
2025/04/11 11:51:12.73164123,1744365072,72738748,hemisphere,2,1,63.4411635645,10.419841293333333,43.855000000000004,0.000144,0.0,0.0,0.0,0.000144,0.0,0.0,0.0,0.002304,1
2025/04/11 11:51:12.123401450,1744365072,122872236,hemisphere,2,1,63.441163601666666,10.419841318833333,43.856,0.000144,0.0,0.0,0.0,0.000144,0.0,0.0,0.0,0.002304,1
2025/04/11 11:51:12.172854062,1744365072,172469067,hemisphere,2,1,63.4411635845,10.419841326166667,43.855000000000004,0.000144,0.0,0.0,0.0,0.000144,0.0,0.0,0.0,0.002304,1
2025/04/11 11:51:12.221897230,1744365072,221551762,hemisphere,2,1,63.4411635885,10.4198413275,43.856,0.000144,0.0,0.0,0.0,0.000144,0.0,0.0,0.0,0.002304,1
2025/04/11 11:51:12.272917703,1744365072,272628565,hemisphere,2,1,63.4411635835,10.419841311,43.854,0.000144,0.0,0.0,0.0,0.000144,0.0,0.0,0.0,0.002304,1
2025/04/11 11:51:12.325227349,1744365072,321630706,hemisphere,2,1,63.441163598833334,10.419841340333333,43.859,0.000144,0.0,0.0,0.0,0.000144,0.0,0.0,0.0,0.002304,1
2025/04/11 11:51:12.376281568,1744365072,375960767,hemisphere,2,1,63.44116357866667,10.419841339333333,43.856,0.000144,0.0,0.0,0.0,0.000144,0.0,0.0,0.0,0.002304,1
2025/04/11 11:51:12.422697093,1744365072,422426203,hemisphere,2,1,63.441163581666665,10.419841332,43.852000000000004,0.000144,0.0,0.0,0.0,0.000144,0.0,0.0,0.0,0.002304,1
2025/04/11 11:51:12.471842471,1744365072,471582755,hemisphere,2,1,63.441163593666666,10.419841329166667,43.85,0.000144,0.0,0.0,0.0,0.000144,0.0,0.0,0.0,0.002304,1
2025/04/11 11:51:12.523004115,1744365072,522559089,hemisphere,2,1,63.441163585333335,10.419841357333333,43.847,0.000144,0.0,0.0,0.0,0.000144,0.0,0.0,0.0,0.002304,1
2025/04/11 11:51:12.571922225,1744365072,571585385,hemisphere,2,1,63.44116359033333,10.419841339,43.854,0.000144,0.0,0.0,0.0,0.000144,0.0,0.0,0.0,0.002304,1
2025/04/11 11:51:12.622187329,1744365072,621889587,hemisphere,2,1,63.44116359183333,10.419841339833333,43.853,0.000144,0.0,0.0,0.0,0.000144,0.0,0.0,0.0,0.002304,1
2025/04/11 11:51:12.673334166,1744365072,671671869,hemisphere,2,1,63.441163587666665,10.419841352666667,43.852000000000004,0.000144,0.0,0.0,0.0,0.000144,0.0,0.0,0.0,0.002304,1
2025/04/11 11:51:12.722409676,1744365072,722063427,hemisphere,2,1,63.44116359466667,10.419841361666666,43.851,0.000144,0.0,0.0,0.0,0.000144,0.0,0.0,0.0,0.002304,1
2025/04/11 11:51:12.772058363,1744365072,771771194,hemisphere,2,1,63.441163593333336,10.419841353833334,43.85,0.000144,0.0,0.0,0.0,0.000144,0.0,0.0,0.0,0.002304,1
2025/04/11 11:51:12.821868941,1744365072,821492631,hemisphere,2,1,63.441163595,10.419841380833333,43.85,0.000144,0.0,0.0,0.0,0.000144,0.0,0.0,0.0,0.002304,1
2025/04/11 11:51:12.871909389,1744365072,871658781,hemisphere,2,1,63.4411635915,10.419841413166667,43.851,0.000144,0.0,0.0,0.0,0.000144,0.0,0.0,0.0,0.002304,1
2025/04/11 11:51:12.921908941,1744365072,921631500,hemisphere,2,1,63.441163586,10.4198413625,43.852000000000004,0.000144,0.0,0.0,0.0,0.000144,0.0,0.0,0.0,0.002304,1
2025/04/11 11:51:12.972295291,1744365072,971974851,hemisphere,2,1,63.441163591,10.419841415333334,43.849000000000004,0.000144,0.0,0.0,0.0,0.000144,0.0,0.0,0.0,0.002304,1
2025/04/11 11:51:13.22464272,1744365073,22003848,hemisphere,2,1,63.441163596833334,10.419841422666666,43.852000000000004,0.000144,0.0,0.0,0.0,0.000144,0.0,0.0,0.0,0.002304,1
2025/04/11 11:51:13.72975455,1744365073,72662775,hemisphere,2,1,63.44116359066667,10.419841419,43.85,0.000144,0.0,0.0,0.0,0.000144,0.0,0.0,0.0,0.002304,1
2025/04/11 11:51:13.123641732,1744365073,123295922,hemisphere,2,1,63.441163589666665,10.419841458,43.849000000000004,0.000144,0.0,0.0,0.0,0.000144,0.0,0.0,0.0,0.002304,1
2025/04/11 11:51:13.172290122,1744365073,172010226,hemisphere,2,1,63.4411635885,10.419841410666667,43.849000000000004,0.000144,0.0,0.0,0.0,0.000144,0.0,0.0,0.0,0.002304,1
2025/04/11 11:51:13.221817170,1744365073,221447404,hemisphere,2,1,63.4411635825,10.419841441833332,43.85,0.000144,0.0,0.0,0.0,0.000144,0.0,0.0,0.0,0.002304,1
2025/04/11 11:51:13.271977582,1744365073,271645266,hemisphere,2,1,63.44116360033333,10.4198414525,43.85,0.000144,0.0,0.0,0.0,0.000144,0.0,0.0,0.0,0.002304,1
2025/04/11 11:51:13.321793146,1744365073,321526479,hemisphere,2,1,63.44116358833333,10.4198414365,43.854,0.000144,0.0,0.0,0.0,0.000144,0.0,0.0,0.0,0.002304,1
2025/04/11 11:51:13.375952586,1744365073,375329684,hemisphere,2,1,63.441163592833334,10.419841442833333,43.852000000000004,0.000144,0.0,0.0,0.0,0.000144,0.0,0.0,0.0,0.002304,1
2025/04/11 11:51:13.422251820,1744365073,421796650,hemisphere,2,1,63.44116358616667,10.419841444666666,43.853,0.000144,0.0,0.0,0.0,0.000144,0.0,0.0,0.0,0.002304,1
2025/04/11 11:51:13.472881541,1744365073,472538375,hemisphere,2,1,63.44116358633333,10.419841435333334,43.856,0.000144,0.0,0.0,0.0,0.000144,0.0,0.0,0.0,0.002304,1
2025/04/11 11:51:13.522647747,1744365073,522325365,hemisphere,2,1,63.44116360433333,10.4198414555,43.851,0.000144,0.0,0.0,0.0,0.000144,0.0,0.0,0.0,0.002304,1
2025/04/11 11:51:13.572637312,1744365073,572307417,hemisphere,2,1,63.44116360616667,10.419841469,43.851,0.000144,0.0,0.0,0.0,0.000144,0.0,0.0,0.0,0.002304,1
2025/04/11 11:51:13.623128845,1744365073,622430820,hemisphere,2,1,63.4411635815,10.419841474,43.856,0.000144,0.0,0.0,0.0,0.000144,0.0,0.0,0.0,0.002304,1
2025/04/11 11:51:13.672251751,1744365073,671696533,hemisphere,2,1,63.441163591666665,10.419841448333333,43.849000000000004,0.000144,0.0,0.0,0.0,0.000144,0.0,0.0,0.0,0.002304,1
2025/04/11 11:51:13.722403742,1744365073,722058676,hemisphere,2,1,63.441163603666666,10.419841456333334,43.854,0.000144,0.0,0.0,0.0,0.000144,0.0,0.0,0.0,0.002304,1
2025/04/11 11:51:13.771929346,1744365073,771602987,hemisphere,2,1,63.441163595666666,10.41984145,43.853,0.000144,0.0,0.0,0.0,0.000144,0.0,0.0,0.0,0.002304,1
2025/04/11 11:51:13.824849749,1744365073,822361036,hemisphere,2,1,63.4411636085,10.419841469833333,43.855000000000004,0.000144,0.0,0.0,0.0,0.000144,0.0,0.0,0.0,0.002304,1
2025/04/11 11:51:13.871958799,1744365073,871551486,hemisphere,2,1,63.44116361,10.419841479166667,43.852000000000004,0.000144,0.0,0.0,0.0,0.000144,0.0,0.0,0.0,0.002304,1
2025/04/11 11:51:13.923025994,1744365073,922712909,hemisphere,2,1,63.441163591333336,10.419841456833334,43.855000000000004,0.000144,0.0,0.0,0.0,0.000144,0.0,0.0,0.0,0.002304,1
2025/04/11 11:51:13.972824961,1744365073,972525488,hemisphere,2,1,63.4411635955,10.419841442166666,43.855000000000004,0.000144,0.0,0.0,0.0,0.000144,0.0,0.0,0.0,0.002304,1
2025/04/11 11:51:14.22247104,1744365074,21924605,hemisphere,2,1,63.441163611,10.419841461666667,43.851,0.000144,0.0,0.0,0.0,0.000144,0.0,0.0,0.0,0.002304,1
2025/04/11 11:51:14.73344119,1744365074,72625847,hemisphere,2,1,63.441163618333334,10.419841456333334,43.851,0.000144,0.0,0.0,0.0,0.000144,0.0,0.0,0.0,0.002304,1
2025/04/11 11:51:14.123636424,1744365074,123312560,hemisphere,2,1,63.44116359466667,10.419841487,43.855000000000004,0.000144,0.0,0.0,0.0,0.000144,0.0,0.0,0.0,0.002304,1
2025/04/11 11:51:14.172831388,1744365074,172487159,hemisphere,2,1,63.441163612833336,10.419841465333333,43.852000000000004,0.000144,0.0,0.0,0.0,0.000144,0.0,0.0,0.0,0.002304,1
2025/04/11 11:51:14.224384180,1744365074,221946594,hemisphere,2,1,63.441163599,10.4198414525,43.853,0.000144,0.0,0.0,0.0,0.000144,0.0,0.0,0.0,0.002304,1
2025/04/11 11:51:14.272880883,1744365074,272338152,hemisphere,2,1,63.44116360466667,10.419841468,43.851,0.000144,0.0,0.0,0.0,0.000144,0.0,0.0,0.0,0.002304,1
2025/04/11 11:51:14.322453425,1744365074,322067390,hemisphere,2,1,63.44116360383333,10.419841457666667,43.851,0.000144,0.0,0.0,0.0,0.000144,0.0,0.0,0.0,0.002304,1
2025/04/11 11:51:14.375425774,1744365074,375051160,hemisphere,2,1,63.441163610833335,10.419841460833334,43.853,0.000144,0.0,0.0,0.0,0.000144,0.0,0.0,0.0,0.002304,1
2025/04/11 11:51:14.423090567,1744365074,422621915,hemisphere,2,1,63.441163604,10.419841438833334,43.852000000000004,0.000144,0.0,0.0,0.0,0.000144,0.0,0.0,0.0,0.002304,1
2025/04/11 11:51:14.472083183,1744365074,471810029,hemisphere,2,1,63.44116360816667,10.4198414405,43.853,0.000144,0.0,0.0,0.0,0.000144,0.0,0.0,0.0,0.002304,1
2025/04/11 11:51:14.522798468,1744365074,522362055,hemisphere,2,1,63.441163605166665,10.4198414465,43.854,0.000144,0.0,0.0,0.0,0.000144,0.0,0.0,0.0,0.002304,1
2025/04/11 11:51:14.571935767,1744365074,571378146,hemisphere,2,1,63.4411636305,10.419841418833334,43.854,0.000144,0.0,0.0,0.0,0.000144,0.0,0.0,0.0,0.002304,1
2025/04/11 11:51:14.621229330,1744365074,620867755,hemisphere,2,1,63.4411636095,10.4198414295,43.86,0.000144,0.0,0.0,0.0,0.000144,0.0,0.0,0.0,0.002304,1
2025/04/11 11:51:14.671734885,1744365074,671431354,hemisphere,2,1,63.44116363,10.419841422166666,43.854,0.000144,0.0,0.0,0.0,0.000144,0.0,0.0,0.0,0.002304,1
2025/04/11 11:51:14.721921321,1744365074,721610001,hemisphere,2,1,63.44116361983333,10.419841408833333,43.859,0.000144,0.0,0.0,0.0,0.000144,0.0,0.0,0.0,0.002304,1
2025/04/11 11:51:14.772416504,1744365074,772007142,hemisphere,2,1,63.44116363216666,10.419841385833333,43.856,0.000144,0.0,0.0,0.0,0.000144,0.0,0.0,0.0,0.002304,1
2025/04/11 11:51:14.822277179,1744365074,821710003,hemisphere,2,1,63.44116364766667,10.4198414035,43.856,0.000144,0.0,0.0,0.0,0.000144,0.0,0.0,0.0,0.002304,1
2025/04/11 11:51:14.872563218,1744365074,872120633,hemisphere,2,1,63.441163655333334,10.419841419499999,43.857,0.000144,0.0,0.0,0.0,0.000144,0.0,0.0,0.0,0.002304,1
2025/04/11 11:51:14.922744036,1744365074,922450805,hemisphere,2,1,63.44116364883333,10.419841404666666,43.857,0.000144,0.0,0.0,0.0,0.000144,0.0,0.0,0.0,0.002304,1
2025/04/11 11:51:14.971394180,1744365074,971026771,hemisphere,2,1,63.44116367033333,10.419841412,43.854,0.000144,0.0,0.0,0.0,0.000144,0.0,0.0,0.0,0.002304,1
2025/04/11 11:51:15.22380028,1744365075,22102642,hemisphere,2,1,63.441163674,10.4198414135,43.857,0.000144,0.0,0.0,0.0,0.000144,0.0,0.0,0.0,0.002304,1
2025/04/11 11:51:15.72555659,1744365075,72283515,hemisphere,2,1,63.44116369566667,10.419841400666666,43.858000000000004,0.000144,0.0,0.0,0.0,0.000144,0.0,0.0,0.0,0.002304,1
2025/04/11 11:51:15.123473712,1744365075,123255548,hemisphere,2,1,63.4411637055,10.419841402166666,43.859,0.000144,0.0,0.0,0.0,0.000144,0.0,0.0,0.0,0.002304,1
2025/04/11 11:51:15.172327811,1744365075,171966408,hemisphere,2,1,63.44116373083333,10.419841438833334,43.858000000000004,0.000144,0.0,0.0,0.0,0.000144,0.0,0.0,0.0,0.002304,1
2025/04/11 11:51:15.221651282,1744365075,221395883,hemisphere,2,1,63.441163749333334,10.419841444,43.857,0.000144,0.0,0.0,0.0,0.000144,0.0,0.0,0.0,0.002304,1
2025/04/11 11:51:15.272333254,1744365075,271894515,hemisphere,2,1,63.44116376066667,10.419841462833332,43.86,0.000144,0.0,0.0,0.0,0.000144,0.0,0.0,0.0,0.002304,1
2025/04/11 11:51:15.321620194,1744365075,321232054,hemisphere,2,1,63.441163798,10.419841489833333,43.859,0.000144,0.0,0.0,0.0,0.000144,0.0,0.0,0.0,0.002304,1
2025/04/11 11:51:15.375909081,1744365075,375478847,hemisphere,2,1,63.441163814166664,10.419841537166667,43.858000000000004,0.000144,0.0,0.0,0.0,0.000144,0.0,0.0,0.0,0.002304,1
2025/04/11 11:51:15.422227364,1744365075,421826178,hemisphere,2,1,63.4411638465,10.419841537,43.861000000000004,0.000144,0.0,0.0,0.0,0.000144,0.0,0.0,0.0,0.002304,1
2025/04/11 11:51:15.472470492,1744365075,472145450,hemisphere,2,1,63.441163872,10.419841606833334,43.856,0.000144,0.0,0.0,0.0,0.000144,0.0,0.0,0.0,0.002304,1
2025/04/11 11:51:15.523185695,1744365075,522532563,hemisphere,2,1,63.44116390483333,10.419841644833333,43.862,0.000144,0.0,0.0,0.0,0.000144,0.0,0.0,0.0,0.002304,1
2025/04/11 11:51:15.572928813,1744365075,572557007,hemisphere,2,1,63.44116395016667,10.419841704333333,43.857,0.000144,0.0,0.0,0.0,0.000144,0.0,0.0,0.0,0.002304,1
2025/04/11 11:51:15.622257891,1744365075,621963159,hemisphere,2,1,63.44116399316667,10.419841768333333,43.857,0.000144,0.0,0.0,0.0,0.000144,0.0,0.0,0.0,0.002304,1
2025/04/11 11:51:15.672702971,1744365075,672369664,hemisphere,2,1,63.441164030833335,10.419841846666667,43.86,0.000144,0.0,0.0,0.0,0.000144,0.0,0.0,0.0,0.002304,1
2025/04/11 11:51:15.721716443,1744365075,721400616,hemisphere,2,1,63.4411640765,10.419841908666667,43.856,0.000144,0.0,0.0,0.0,0.000144,0.0,0.0,0.0,0.002304,1
2025/04/11 11:51:15.772161500,1744365075,771747793,hemisphere,2,1,63.441164117666666,10.419842012666667,43.857,0.000144,0.0,0.0,0.0,0.000144,0.0,0.0,0.0,0.002304,1
2025/04/11 11:51:15.822044193,1744365075,821657803,hemisphere,2,1,63.441164177833336,10.419842099166667,43.858000000000004,0.000144,0.0,0.0,0.0,0.000144,0.0,0.0,0.0,0.002304,1
2025/04/11 11:51:15.872888193,1744365075,872572991,hemisphere,2,1,63.441164222833336,10.419842189,43.857,0.000144,0.0,0.0,0.0,0.000144,0.0,0.0,0.0,0.002304,1
2025/04/11 11:51:15.922608895,1744365075,922264005,hemisphere,2,1,63.44116427266667,10.4198422705,43.852000000000004,0.000144,0.0,0.0,0.0,0.000144,0.0,0.0,0.0,0.002304,1
2025/04/11 11:51:15.973319008,1744365075,972724214,hemisphere,2,1,63.44116432516667,10.419842372666666,43.856,0.000144,0.0,0.0,0.0,0.000144,0.0,0.0,0.0,0.002304,1
2025/04/11 11:51:16.25468655,1744365076,24607728,hemisphere,2,1,63.441164394,10.4198425115,43.855000000000004,0.000144,0.0,0.0,0.0,0.000144,0.0,0.0,0.0,0.002304,1
2025/04/11 11:51:16.74348031,1744365076,73654457,hemisphere,2,1,63.44116444916666,10.4198425995,43.855000000000004,0.000144,0.0,0.0,0.0,0.000144,0.0,0.0,0.0,0.002304,1
2025/04/11 11:51:16.123571489,1744365076,123182212,hemisphere,2,1,63.441164514,10.4198427155,43.853,0.000144,0.0,0.0,0.0,0.000144,0.0,0.0,0.0,0.002304,1
2025/04/11 11:51:16.174002111,1744365076,172229364,hemisphere,2,1,63.44116458166667,10.419842858333332,43.854,0.000144,0.0,0.0,0.0,0.000144,0.0,0.0,0.0,0.002304,1
2025/04/11 11:51:16.224021256,1744365076,222782903,hemisphere,2,1,63.441164631333336,10.419842941166667,43.855000000000004,0.000144,0.0,0.0,0.0,0.000144,0.0,0.0,0.0,0.002304,1
2025/04/11 11:51:16.272982975,1744365076,272311857,hemisphere,2,1,63.4411647195,10.419843066833334,43.853,0.000144,0.0,0.0,0.0,0.000144,0.0,0.0,0.0,0.002304,1
2025/04/11 11:51:16.323417705,1744365076,323049388,hemisphere,2,1,63.441164794833334,10.4198431715,43.854,0.000144,0.0,0.0,0.0,0.000144,0.0,0.0,0.0,0.002304,1
2025/04/11 11:51:16.375715637,1744365076,375313366,hemisphere,2,1,63.44116486666667,10.419843297833333,43.851,0.000144,0.0,0.0,0.0,0.000144,0.0,0.0,0.0,0.002304,1
2025/04/11 11:51:16.424362341,1744365076,423730759,hemisphere,2,1,63.441164944166665,10.4198434015,43.857,0.000144,0.0,0.0,0.0,0.000144,0.0,0.0,0.0,0.002304,1
2025/04/11 11:51:16.472195863,1744365076,471924335,hemisphere,2,1,63.44116503716667,10.419843491333333,43.853,0.000144,0.0,0.0,0.0,0.000144,0.0,0.0,0.0,0.002304,1
2025/04/11 11:51:16.522668730,1744365076,522285374,hemisphere,2,1,63.44116511716667,10.419843596166666,43.859,0.000144,0.0,0.0,0.0,0.000144,0.0,0.0,0.0,0.002304,1
2025/04/11 11:51:16.573841071,1744365076,572944111,hemisphere,2,1,63.441165211666664,10.4198436505,43.853,0.000144,0.0,0.0,0.0,0.000144,0.0,0.0,0.0,0.002304,1
2025/04/11 11:51:16.623362792,1744365076,621725101,hemisphere,2,1,63.44116528633333,10.419843770166667,43.855000000000004,0.000144,0.0,0.0,0.0,0.000144,0.0,0.0,0.0,0.002304,1
2025/04/11 11:51:16.672395275,1744365076,672064337,hemisphere,2,1,63.44116537233333,10.4198438425,43.855000000000004,0.000144,0.0,0.0,0.0,0.000144,0.0,0.0,0.0,0.002304,1
2025/04/11 11:51:16.721574852,1744365076,721288333,hemisphere,2,1,63.4411654555,10.419843948166667,43.855000000000004,0.000144,0.0,0.0,0.0,0.000144,0.0,0.0,0.0,0.002304,1
2025/04/11 11:51:16.772031847,1744365076,771464064,hemisphere,2,1,63.44116551883333,10.419843986666667,43.854,0.000144,0.0,0.0,0.0,0.000144,0.0,0.0,0.0,0.002304,1
2025/04/11 11:51:16.821737734,1744365076,821430850,hemisphere,2,1,63.441165603,10.419844085666666,43.849000000000004,0.000144,0.0,0.0,0.0,0.000144,0.0,0.0,0.0,0.002304,1
2025/04/11 11:51:16.872202577,1744365076,871622539,hemisphere,2,1,63.441165676,10.419844163666667,43.851,0.000144,0.0,0.0,0.0,0.000144,0.0,0.0,0.0,0.002304,1
2025/04/11 11:51:16.922560739,1744365076,922254671,hemisphere,2,1,63.441165758,10.419844189500001,43.851,0.000144,0.0,0.0,0.0,0.000144,0.0,0.0,0.0,0.002304,1
2025/04/11 11:51:16.972486576,1744365076,971713179,hemisphere,2,1,63.441165833333336,10.4198442585,43.852000000000004,0.000144,0.0,0.0,0.0,0.000144,0.0,0.0,0.0,0.002304,1
2025/04/11 11:51:17.22431822,1744365077,22117862,hemisphere,2,1,63.441165912,10.419844297,43.849000000000004,0.000144,0.0,0.0,0.0,0.000144,0.0,0.0,0.0,0.002304,1
2025/04/11 11:51:17.78100227,1744365077,73016406,hemisphere,2,1,63.441166000833334,10.419844321333333,43.851,0.000144,0.0,0.0,0.0,0.000144,0.0,0.0,0.0,0.002304,1
2025/04/11 11:51:17.124504436,1744365077,123869825,hemisphere,2,1,63.441166067666664,10.419844349333333,43.85,0.000144,0.0,0.0,0.0,0.000144,0.0,0.0,0.0,0.002304,1
2025/04/11 11:51:17.173109718,1744365077,172747819,hemisphere,2,1,63.441166147833336,10.419844365166666,43.85,0.000144,0.0,0.0,0.0,0.000144,0.0,0.0,0.0,0.002304,1
2025/04/11 11:51:17.222311639,1744365077,221955824,hemisphere,2,1,63.44116621933333,10.419844386166666,43.85,0.000144,0.0,0.0,0.0,0.000144,0.0,0.0,0.0,0.002304,1
2025/04/11 11:51:17.274234889,1744365077,273867298,hemisphere,2,1,63.441166286,10.4198444115,43.85,0.000144,0.0,0.0,0.0,0.000144,0.0,0.0,0.0,0.002304,1
2025/04/11 11:51:17.322430948,1744365077,321660567,hemisphere,2,1,63.441166345166664,10.419844437666667,43.849000000000004,0.000144,0.0,0.0,0.0,0.000144,0.0,0.0,0.0,0.002304,1
2025/04/11 11:51:17.375530166,1744365077,375003593,hemisphere,2,1,63.441166395,10.419844420333334,43.85,0.000144,0.0,0.0,0.0,0.000144,0.0,0.0,0.0,0.002304,1
2025/04/11 11:51:17.422855211,1744365077,422569364,hemisphere,2,1,63.441166464,10.419844384166666,43.851,0.000144,0.0,0.0,0.0,0.000144,0.0,0.0,0.0,0.002304,1
2025/04/11 11:51:17.473035275,1744365077,472374423,hemisphere,2,1,63.44116652216667,10.419844383,43.853,0.000144,0.0,0.0,0.0,0.000144,0.0,0.0,0.0,0.002304,1
2025/04/11 11:51:17.522416846,1744365077,522072223,hemisphere,2,1,63.441166544666665,10.419844395833334,43.849000000000004,0.000144,0.0,0.0,0.0,0.000144,0.0,0.0,0.0,0.002304,1
2025/04/11 11:51:17.572715125,1744365077,572413950,hemisphere,2,1,63.4411666075,10.419844407166666,43.853,0.000144,0.0,0.0,0.0,0.000144,0.0,0.0,0.0,0.002304,1
2025/04/11 11:51:17.622337757,1744365077,622036959,hemisphere,2,1,63.441166626,10.419844417666667,43.851,0.000144,0.0,0.0,0.0,0.000144,0.0,0.0,0.0,0.002304,1
2025/04/11 11:51:17.672290023,1744365077,671926908,hemisphere,2,1,63.4411666545,10.419844432166666,43.856,0.000144,0.0,0.0,0.0,0.000144,0.0,0.0,0.0,0.002304,1
2025/04/11 11:51:17.722227832,1744365077,721540972,hemisphere,2,1,63.441166689166664,10.419844470833333,43.852000000000004,0.000144,0.0,0.0,0.0,0.000144,0.0,0.0,0.0,0.002304,1
2025/04/11 11:51:17.772225953,1744365077,771947732,hemisphere,2,1,63.44116669933333,10.419844486666667,43.853,0.000144,0.0,0.0,0.0,0.000144,0.0,0.0,0.0,0.002304,1
2025/04/11 11:51:17.822321964,1744365077,821939443,hemisphere,2,1,63.441166703166665,10.4198445105,43.853,0.000144,0.0,0.0,0.0,0.000144,0.0,0.0,0.0,0.002304,1
2025/04/11 11:51:17.872815248,1744365077,872334106,hemisphere,2,1,63.44116672916667,10.419844543833333,43.854,0.000144,0.0,0.0,0.0,0.000144,0.0,0.0,0.0,0.002304,1
2025/04/11 11:51:17.922991555,1744365077,922548583,hemisphere,2,1,63.441166712666664,10.419844573,43.852000000000004,0.000144,0.0,0.0,0.0,0.000144,0.0,0.0,0.0,0.002304,1
2025/04/11 11:51:17.972631997,1744365077,972149113,hemisphere,2,1,63.441166703,10.419844640166666,43.85,0.000144,0.0,0.0,0.0,0.000144,0.0,0.0,0.0,0.002304,1
2025/04/11 11:51:18.22998114,1744365078,22587122,hemisphere,2,1,63.441166689333336,10.41984465,43.852000000000004,0.000144,0.0,0.0,0.0,0.000144,0.0,0.0,0.0,0.002304,1
2025/04/11 11:51:18.71962030,1744365078,71647008,hemisphere,2,1,63.441166673333335,10.419844696666667,43.85,0.000144,0.0,0.0,0.0,0.000144,0.0,0.0,0.0,0.002304,1
2025/04/11 11:51:18.123961609,1744365078,123697396,hemisphere,2,1,63.44116663316667,10.419844740833334,43.846000000000004,0.000144,0.0,0.0,0.0,0.000144,0.0,0.0,0.0,0.002304,1
2025/04/11 11:51:18.173346683,1744365078,172556950,hemisphere,2,1,63.44116660233333,10.419844767333334,43.849000000000004,0.000144,0.0,0.0,0.0,0.000144,0.0,0.0,0.0,0.002304,1
2025/04/11 11:51:18.222765996,1744365078,222128920,hemisphere,2,1,63.44116657683333,10.419844818666666,43.848,0.000144,0.0,0.0,0.0,0.000144,0.0,0.0,0.0,0.002304,1
2025/04/11 11:51:18.273170037,1744365078,272508704,hemisphere,2,1,63.441166534333334,10.4198448245,43.85,0.000144,0.0,0.0,0.0,0.000144,0.0,0.0,0.0,0.002304,1
2025/04/11 11:51:18.322923068,1744365078,322597027,hemisphere,2,1,63.441166483833335,10.419844867333333,43.847,0.000144,0.0,0.0,0.0,0.000144,0.0,0.0,0.0,0.002304,1
2025/04/11 11:51:18.385097278,1744365078,384640302,hemisphere,2,1,63.4411664365,10.4198449315,43.845,0.000144,0.0,0.0,0.0,0.000144,0.0,0.0,0.0,0.002304,1
2025/04/11 11:51:18.422869868,1744365078,422403276,hemisphere,2,1,63.441166377,10.419844999,43.85,0.000144,0.0,0.0,0.0,0.000144,0.0,0.0,0.0,0.002304,1
2025/04/11 11:51:18.473446308,1744365078,472809022,hemisphere,2,1,63.44116632916667,10.419845019,43.852000000000004,0.000144,0.0,0.0,0.0,0.000144,0.0,0.0,0.0,0.002304,1
2025/04/11 11:51:18.522986650,1744365078,522680611,hemisphere,2,1,63.441166260833334,10.419845060666667,43.848,0.000144,0.0,0.0,0.0,0.000144,0.0,0.0,0.0,0.002304,1
2025/04/11 11:51:18.572040909,1744365078,571655283,hemisphere,2,1,63.441166196833336,10.419845103833334,43.855000000000004,0.000144,0.0,0.0,0.0,0.000144,0.0,0.0,0.0,0.002304,1
2025/04/11 11:51:18.623088924,1744365078,622639191,hemisphere,2,1,63.441166120666665,10.419845131333334,43.859,0.000144,0.0,0.0,0.0,0.000144,0.0,0.0,0.0,0.002304,1
2025/04/11 11:51:18.671897084,1744365078,671539400,hemisphere,2,1,63.44116606433333,10.41984519,43.857,0.000144,0.0,0.0,0.0,0.000144,0.0,0.0,0.0,0.002304,1
2025/04/11 11:51:18.722973134,1744365078,722669339,hemisphere,2,1,63.441165991333335,10.419845196,43.857,0.000144,0.0,0.0,0.0,0.000144,0.0,0.0,0.0,0.002304,1
2025/04/11 11:51:18.773000484,1744365078,772370909,hemisphere,2,1,63.441165935166666,10.419845212,43.862,0.000144,0.0,0.0,0.0,0.000144,0.0,0.0,0.0,0.002304,1
2025/04/11 11:51:18.823048402,1744365078,822764926,hemisphere,2,1,63.44116586716667,10.419845282833334,43.862,0.000144,0.0,0.0,0.0,0.000144,0.0,0.0,0.0,0.002304,1
2025/04/11 11:51:18.872751252,1744365078,872470220,hemisphere,2,1,63.44116579666667,10.419845309833333,43.865,0.000144,0.0,0.0,0.0,0.000144,0.0,0.0,0.0,0.002304,1
2025/04/11 11:51:18.921991241,1744365078,921653463,hemisphere,2,1,63.441165739166664,10.419845384166667,43.867000000000004,0.000144,0.0,0.0,0.0,0.000144,0.0,0.0,0.0,0.002304,1
2025/04/11 11:51:18.975249387,1744365078,973559492,hemisphere,2,1,63.441165681,10.419845439333333,43.866,0.000144,0.0,0.0,0.0,0.000144,0.0,0.0,0.0,0.002304,1
2025/04/11 11:51:19.23012247,1744365079,22296441,hemisphere,2,1,63.44116560766667,10.4198455,43.870000000000005,0.000144,0.0,0.0,0.0,0.000144,0.0,0.0,0.0,0.002304,1
2025/04/11 11:51:19.73433890,1744365079,72780329,hemisphere,2,1,63.4411655765,10.419845581666667,43.872,0.000144,0.0,0.0,0.0,0.000144,0.0,0.0,0.0,0.002304,1
2025/04/11 11:51:19.124120561,1744365079,123844228,hemisphere,2,1,63.4411655225,10.419845668833334,43.871,0.000144,0.0,0.0,0.0,0.000144,0.0,0.0,0.0,0.002304,1
2025/04/11 11:51:19.174431233,1744365079,173327469,hemisphere,2,1,63.44116546466667,10.4198457465,43.872,0.000144,0.0,0.0,0.0,0.000144,0.0,0.0,0.0,0.002304,1
2025/04/11 11:51:19.221897708,1744365079,221631280,hemisphere,2,1,63.441165412,10.419845867166666,43.871,0.000144,0.0,0.0,0.0,0.000144,0.0,0.0,0.0,0.002304,1
2025/04/11 11:51:19.272559352,1744365079,272259808,hemisphere,2,1,63.441165374,10.419845927166667,43.869,0.000144,0.0,0.0,0.0,0.000144,0.0,0.0,0.0,0.002304,1
2025/04/11 11:51:19.322553530,1744365079,322017699,hemisphere,2,1,63.44116530833333,10.419846042333333,43.866,0.000144,0.0,0.0,0.0,0.000144,0.0,0.0,0.0,0.002304,1
2025/04/11 11:51:19.375646220,1744365079,375199521,hemisphere,2,1,63.4411652715,10.419846164666666,43.865,0.000144,0.0,0.0,0.0,0.000144,0.0,0.0,0.0,0.002304,1
2025/04/11 11:51:19.422000495,1744365079,421624659,hemisphere,2,1,63.4411651895,10.419846218333333,43.863,0.000144,0.0,0.0,0.0,0.000144,0.0,0.0,0.0,0.002304,1
2025/04/11 11:51:19.473392269,1744365079,472765298,hemisphere,2,1,63.44116515383333,10.4198463115,43.865,0.000144,0.0,0.0,0.0,0.000144,0.0,0.0,0.0,0.002304,1
2025/04/11 11:51:19.522659147,1744365079,522175736,hemisphere,2,1,63.441165120166666,10.419846429166666,43.858000000000004,0.000144,0.0,0.0,0.0,0.000144,0.0,0.0,0.0,0.002304,1
2025/04/11 11:51:19.572824866,1744365079,572554688,hemisphere,2,1,63.4411650635,10.419846517,43.86,0.000144,0.0,0.0,0.0,0.000144,0.0,0.0,0.0,0.002304,1
2025/04/11 11:51:19.623189096,1744365079,622893410,hemisphere,2,1,63.4411650485,10.419846609,43.858000000000004,0.000144,0.0,0.0,0.0,0.000144,0.0,0.0,0.0,0.002304,1
2025/04/11 11:51:19.672984691,1744365079,672693463,hemisphere,2,1,63.44116500683333,10.419846734166667,43.855000000000004,0.000144,0.0,0.0,0.0,0.000144,0.0,0.0,0.0,0.002304,1
2025/04/11 11:51:19.722851359,1744365079,722347612,hemisphere,2,1,63.441164964833334,10.419846820833333,43.857,0.000144,0.0,0.0,0.0,0.000144,0.0,0.0,0.0,0.002304,1
2025/04/11 11:51:19.773506109,1744365079,773105929,hemisphere,2,1,63.44116494316667,10.419846941,43.855000000000004,0.000144,0.0,0.0,0.0,0.000144,0.0,0.0,0.0,0.002304,1
2025/04/11 11:51:19.822196081,1744365079,821842643,hemisphere,2,1,63.44116489933333,10.419846999666667,43.858000000000004,0.000144,0.0,0.0,0.0,0.000144,0.0,0.0,0.0,0.002304,1
2025/04/11 11:51:19.872782706,1744365079,871975826,hemisphere,2,1,63.44116485566666,10.4198470625,43.856,0.000144,0.0,0.0,0.0,0.000144,0.0,0.0,0.0,0.002304,1
2025/04/11 11:51:19.922601924,1744365079,922032996,hemisphere,2,1,63.44116483366667,10.419847192166667,43.852000000000004,0.000144,0.0,0.0,0.0,0.000144,0.0,0.0,0.0,0.002304,1
2025/04/11 11:51:19.972282559,1744365079,971889787,hemisphere,2,1,63.441164771666664,10.419847249833333,43.856,0.000144,0.0,0.0,0.0,0.000144,0.0,0.0,0.0,0.002304,1
2025/04/11 11:51:20.23130146,1744365080,22793230,hemisphere,2,1,63.44116475,10.419847313833333,43.851,0.000144,0.0,0.0,0.0,0.000144,0.0,0.0,0.0,0.002304,1
2025/04/11 11:51:20.72711384,1744365080,72403342,hemisphere,2,1,63.44116471466667,10.419847374166666,43.855000000000004,0.000144,0.0,0.0,0.0,0.000144,0.0,0.0,0.0,0.002304,1
2025/04/11 11:51:20.123511233,1744365080,123075887,hemisphere,2,1,63.441164672166664,10.419847422333333,43.852000000000004,0.000144,0.0,0.0,0.0,0.000144,0.0,0.0,0.0,0.002304,1
2025/04/11 11:51:20.172928916,1744365080,172631147,hemisphere,2,1,63.44116462033333,10.419847479,43.855000000000004,0.000144,0.0,0.0,0.0,0.000144,0.0,0.0,0.0,0.002304,1
2025/04/11 11:51:20.225635426,1744365080,222292695,hemisphere,2,1,63.441164592,10.419847545,43.85,0.000144,0.0,0.0,0.0,0.000144,0.0,0.0,0.0,0.002304,1
2025/04/11 11:51:20.273282533,1744365080,272671468,hemisphere,2,1,63.44116453383333,10.419847569333333,43.854,0.000144,0.0,0.0,0.0,0.000144,0.0,0.0,0.0,0.002304,1
2025/04/11 11:51:20.324125719,1744365080,323400728,hemisphere,2,1,63.44116449716667,10.419847613166667,43.856,0.000144,0.0,0.0,0.0,0.000144,0.0,0.0,0.0,0.002304,1
2025/04/11 11:51:20.375432062,1744365080,374984957,hemisphere,2,1,63.44116446216667,10.419847653166666,43.855000000000004,0.000144,0.0,0.0,0.0,0.000144,0.0,0.0,0.0,0.002304,1
2025/04/11 11:51:20.422867274,1744365080,422525384,hemisphere,2,1,63.4411644165,10.419847711166666,43.857,0.000144,0.0,0.0,0.0,0.000144,0.0,0.0,0.0,0.002304,1
2025/04/11 11:51:20.472894922,1744365080,471963453,hemisphere,2,1,63.441164384833336,10.419847711833333,43.858000000000004,0.000144,0.0,0.0,0.0,0.000144,0.0,0.0,0.0,0.002304,1
2025/04/11 11:51:20.522847035,1744365080,522602769,hemisphere,2,1,63.441164304,10.419847777833333,43.857,0.000144,0.0,0.0,0.0,0.000144,0.0,0.0,0.0,0.002304,1
2025/04/11 11:51:20.573011919,1744365080,572348622,hemisphere,2,1,63.441164358,10.4198478445,43.851,0.000144,0.0,0.0,0.0,0.000144,0.0,0.0,0.0,0.002304,1
2025/04/11 11:51:20.622913534,1744365080,622564932,hemisphere,2,1,63.4411642965,10.419847848833333,43.851,0.000144,0.0,0.0,0.0,0.000144,0.0,0.0,0.0,0.002304,1
2025/04/11 11:51:20.672104459,1744365080,671742455,hemisphere,2,1,63.44116424166667,10.419847875,43.851,0.000144,0.0,0.0,0.0,0.000144,0.0,0.0,0.0,0.002304,1
2025/04/11 11:51:20.721921897,1744365080,721509866,hemisphere,2,1,63.44116421016667,10.419847919333334,43.853,0.000144,0.0,0.0,0.0,0.000144,0.0,0.0,0.0,0.002304,1
2025/04/11 11:51:20.773068877,1744365080,772677153,hemisphere,2,1,63.4411641655,10.419847951,43.854,0.000144,0.0,0.0,0.0,0.000144,0.0,0.0,0.0,0.002304,1
2025/04/11 11:51:20.821606924,1744365080,821321687,hemisphere,2,1,63.44116412416667,10.419847950666666,43.853,0.000144,0.0,0.0,0.0,0.000144,0.0,0.0,0.0,0.002304,1
2025/04/11 11:51:20.873947632,1744365080,873346761,hemisphere,2,1,63.44116406533333,10.419847992666666,43.852000000000004,0.000144,0.0,0.0,0.0,0.000144,0.0,0.0,0.0,0.002304,1
2025/04/11 11:51:20.921902584,1744365080,921628046,hemisphere,2,1,63.44116402833333,10.419848018333333,43.853,0.000144,0.0,0.0,0.0,0.000144,0.0,0.0,0.0,0.002304,1
2025/04/11 11:51:20.974102639,1744365080,973792696,hemisphere,2,1,63.44116397283333,10.419848036833333,43.852000000000004,0.000144,0.0,0.0,0.0,0.000144,0.0,0.0,0.0,0.002304,1
2025/04/11 11:51:21.22714384,1744365081,22259592,hemisphere,2,1,63.4411639215,10.419848086333333,43.851,0.000144,0.0,0.0,0.0,0.000144,0.0,0.0,0.0,0.002304,1
2025/04/11 11:51:21.72478204,1744365081,71590210,hemisphere,2,1,63.44116386766667,10.419848115166667,43.852000000000004,0.000144,0.0,0.0,0.0,0.000144,0.0,0.0,0.0,0.002304,1
2025/04/11 11:51:21.123787489,1744365081,123328122,hemisphere,2,1,63.441163813833334,10.4198481505,43.853,0.000144,0.0,0.0,0.0,0.000144,0.0,0.0,0.0,0.002304,1
2025/04/11 11:51:21.172375898,1744365081,171936178,hemisphere,2,1,63.44116375316667,10.419848188333333,43.852000000000004,0.000144,0.0,0.0,0.0,0.000144,0.0,0.0,0.0,0.002304,1
2025/04/11 11:51:21.223414178,1744365081,222706166,hemisphere,2,1,63.441163692,10.419848234,43.852000000000004,0.000144,0.0,0.0,0.0,0.000144,0.0,0.0,0.0,0.002304,1
2025/04/11 11:51:21.273619696,1744365081,272606309,hemisphere,2,1,63.44116363683333,10.419848258833333,43.85,0.000144,0.0,0.0,0.0,0.000144,0.0,0.0,0.0,0.002304,1
2025/04/11 11:51:21.323861158,1744365081,322918231,hemisphere,2,1,63.44116356233334,10.419848312833333,43.854,0.000144,0.0,0.0,0.0,0.000144,0.0,0.0,0.0,0.002304,1
2025/04/11 11:51:21.381442216,1744365081,375556289,hemisphere,2,1,63.4411635015,10.419848368833334,43.852000000000004,0.000144,0.0,0.0,0.0,0.000144,0.0,0.0,0.0,0.002304,1
2025/04/11 11:51:21.423408731,1744365081,422639257,hemisphere,2,1,63.441163455,10.419848309,43.856,0.000144,0.0,0.0,0.0,0.000144,0.0,0.0,0.0,0.002304,1
2025/04/11 11:51:21.474601980,1744365081,472826778,hemisphere,2,1,63.44116338916667,10.419848397833332,43.855000000000004,0.000144,0.0,0.0,0.0,0.000144,0.0,0.0,0.0,0.002304,1
2025/04/11 11:51:21.524465562,1744365081,521899362,hemisphere,2,1,63.44116332266667,10.419848408333333,43.856,0.000144,0.0,0.0,0.0,0.000144,0.0,0.0,0.0,0.002304,1
2025/04/11 11:51:21.571887781,1744365081,571333160,hemisphere,2,1,63.44116326,10.419848449333333,43.857,0.000144,0.0,0.0,0.0,0.000144,0.0,0.0,0.0,0.002304,1
2025/04/11 11:51:21.623958208,1744365081,623290317,hemisphere,2,1,63.441163188333334,10.419848464666666,43.854,0.000144,0.0,0.0,0.0,0.000144,0.0,0.0,0.0,0.002304,1
2025/04/11 11:51:21.672539927,1744365081,672201814,hemisphere,2,1,63.441163113,10.419848510166666,43.852000000000004,0.000144,0.0,0.0,0.0,0.000144,0.0,0.0,0.0,0.002304,1
2025/04/11 11:51:21.723003561,1744365081,722645410,hemisphere,2,1,63.441163057666664,10.419848512166666,43.856,0.000144,0.0,0.0,0.0,0.000144,0.0,0.0,0.0,0.002304,1
2025/04/11 11:51:21.772870585,1744365081,771707519,hemisphere,2,1,63.44116296466667,10.419848540666667,43.852000000000004,0.000144,0.0,0.0,0.0,0.000144,0.0,0.0,0.0,0.002304,1
2025/04/11 11:51:21.822576411,1744365081,822125039,hemisphere,2,1,63.44116290666667,10.419848573333333,43.857,0.000144,0.0,0.0,0.0,0.000144,0.0,0.0,0.0,0.002304,1
2025/04/11 11:51:21.872883554,1744365081,872401946,hemisphere,2,1,63.441162806166666,10.419848588,43.856,0.000144,0.0,0.0,0.0,0.000144,0.0,0.0,0.0,0.002304,1
2025/04/11 11:51:21.922492318,1744365081,922168643,hemisphere,2,1,63.441162741166664,10.419848594666666,43.855000000000004,0.000144,0.0,0.0,0.0,0.000144,0.0,0.0,0.0,0.002304,1
2025/04/11 11:51:21.971848235,1744365081,971481068,hemisphere,2,1,63.4411626635,10.419848615,43.856,0.000144,0.0,0.0,0.0,0.000144,0.0,0.0,0.0,0.002304,1
2025/04/11 11:51:22.23498597,1744365082,23160268,hemisphere,2,1,63.44116257583333,10.4198486235,43.856,0.000144,0.0,0.0,0.0,0.000144,0.0,0.0,0.0,0.002304,1
2025/04/11 11:51:22.73002240,1744365082,72662306,hemisphere,2,1,63.441162503166666,10.419848628333334,43.855000000000004,0.000144,0.0,0.0,0.0,0.000144,0.0,0.0,0.0,0.002304,1
2025/04/11 11:51:22.125002001,1744365082,123747424,hemisphere,2,1,63.44116243766667,10.419848626333334,43.855000000000004,0.000144,0.0,0.0,0.0,0.000144,0.0,0.0,0.0,0.002304,1
2025/04/11 11:51:22.174110392,1744365082,173128635,hemisphere,2,1,63.441162359,10.419848637333333,43.855000000000004,0.000144,0.0,0.0,0.0,0.000144,0.0,0.0,0.0,0.002304,1
2025/04/11 11:51:22.223990523,1744365082,223179638,hemisphere,2,1,63.44116229916666,10.419848631166667,43.854,0.000144,0.0,0.0,0.0,0.000144,0.0,0.0,0.0,0.002304,1
2025/04/11 11:51:22.273430256,1744365082,272648682,hemisphere,2,1,63.4411622105,10.419848619166666,43.853,0.000144,0.0,0.0,0.0,0.000144,0.0,0.0,0.0,0.002304,1
2025/04/11 11:51:22.324239826,1744365082,322861223,hemisphere,2,1,63.44116214983333,10.41984863,43.857,0.000144,0.0,0.0,0.0,0.000144,0.0,0.0,0.0,0.002304,1
2025/04/11 11:51:22.376106775,1744365082,375210632,hemisphere,2,1,63.441162075,10.419848590833332,43.852000000000004,0.000144,0.0,0.0,0.0,0.000144,0.0,0.0,0.0,0.002304,1
2025/04/11 11:51:22.423166806,1744365082,422748803,hemisphere,2,1,63.44116204616667,10.419848552,43.85,0.000144,0.0,0.0,0.0,0.000144,0.0,0.0,0.0,0.002304,1
2025/04/11 11:51:22.473598758,1744365082,473215452,hemisphere,2,1,63.441161982666664,10.419848535166667,43.852000000000004,0.000144,0.0,0.0,0.0,0.000144,0.0,0.0,0.0,0.002304,1
2025/04/11 11:51:22.523605454,1744365082,523105208,hemisphere,2,1,63.44116191283333,10.4198485205,43.851,0.000144,0.0,0.0,0.0,0.000144,0.0,0.0,0.0,0.002304,1
2025/04/11 11:51:22.572816116,1744365082,572488475,hemisphere,2,1,63.44116178633333,10.419848441,43.856,0.000144,0.0,0.0,0.0,0.000144,0.0,0.0,0.0,0.002304,1
2025/04/11 11:51:22.622505169,1744365082,621589499,hemisphere,2,1,63.44116172333333,10.419848407,43.856,0.000144,0.0,0.0,0.0,0.000144,0.0,0.0,0.0,0.002304,1
2025/04/11 11:51:22.671988281,1744365082,671398370,hemisphere,2,1,63.44116167466667,10.419848375166668,43.857,0.000144,0.0,0.0,0.0,0.000144,0.0,0.0,0.0,0.002304,1
2025/04/11 11:51:22.722061889,1744365082,721616767,hemisphere,2,1,63.441161578333336,10.419848363333333,43.854,0.000144,0.0,0.0,0.0,0.000144,0.0,0.0,0.0,0.002304,1
2025/04/11 11:51:22.772681721,1744365082,772085954,hemisphere,2,1,63.44116153666667,10.419848312666666,43.855000000000004,0.000144,0.0,0.0,0.0,0.000144,0.0,0.0,0.0,0.002304,1
2025/04/11 11:51:22.822152275,1744365082,821738233,hemisphere,2,1,63.4411614685,10.419848277,43.856,0.000144,0.0,0.0,0.0,0.000144,0.0,0.0,0.0,0.002304,1
2025/04/11 11:51:22.872125847,1744365082,871479245,hemisphere,2,1,63.44116139816666,10.419848232833333,43.856,0.000144,0.0,0.0,0.0,0.000144,0.0,0.0,0.0,0.002304,1
2025/04/11 11:51:22.922337882,1744365082,921876791,hemisphere,2,1,63.441161345666664,10.419848187666666,43.855000000000004,0.000144,0.0,0.0,0.0,0.000144,0.0,0.0,0.0,0.002304,1
2025/04/11 11:51:22.973164362,1744365082,972314574,hemisphere,2,1,63.44116128533334,10.419848119333333,43.853,0.000144,0.0,0.0,0.0,0.000144,0.0,0.0,0.0,0.002304,1
2025/04/11 11:51:23.23410117,1744365083,22818205,hemisphere,2,1,63.441161234333336,10.41984808,43.855000000000004,0.000144,0.0,0.0,0.0,0.000144,0.0,0.0,0.0,0.002304,1
2025/04/11 11:51:23.73396620,1744365083,72476499,hemisphere,2,1,63.441161161833335,10.419848038333333,43.855000000000004,0.000144,0.0,0.0,0.0,0.000144,0.0,0.0,0.0,0.002304,1
2025/04/11 11:51:23.123283721,1744365083,122846165,hemisphere,2,1,63.441161115166665,10.419847974666666,43.856,0.000144,0.0,0.0,0.0,0.000144,0.0,0.0,0.0,0.002304,1
2025/04/11 11:51:23.175857530,1744365083,172594012,hemisphere,2,1,63.44116105216666,10.419847893666667,43.856,0.000144,0.0,0.0,0.0,0.000144,0.0,0.0,0.0,0.002304,1
2025/04/11 11:51:23.223265327,1744365083,222834328,hemisphere,2,1,63.441161001333334,10.419847833166667,43.857,0.000144,0.0,0.0,0.0,0.000144,0.0,0.0,0.0,0.002304,1
2025/04/11 11:51:23.273457678,1744365083,272829177,hemisphere,2,1,63.441160953166666,10.419847794666667,43.857,0.000144,0.0,0.0,0.0,0.000144,0.0,0.0,0.0,0.002304,1
2025/04/11 11:51:23.323045025,1744365083,322642682,hemisphere,2,1,63.441160886166664,10.419847707666667,43.857,0.000144,0.0,0.0,0.0,0.000144,0.0,0.0,0.0,0.002304,1
2025/04/11 11:51:23.376084818,1744365083,375748367,hemisphere,2,1,63.441160844833334,10.419847638333334,43.857,0.000144,0.0,0.0,0.0,0.000144,0.0,0.0,0.0,0.002304,1
2025/04/11 11:51:23.423751529,1744365083,423427899,hemisphere,2,1,63.441160765166664,10.419847569,43.865,0.000144,0.0,0.0,0.0,0.000144,0.0,0.0,0.0,0.002304,1
2025/04/11 11:51:23.473516119,1744365083,472322551,hemisphere,2,1,63.441160716666666,10.419847486666667,43.868,0.000144,0.0,0.0,0.0,0.000144,0.0,0.0,0.0,0.002304,1
2025/04/11 11:51:23.523793989,1744365083,523141145,hemisphere,2,1,63.441160662166666,10.419847434833333,43.868,0.000144,0.0,0.0,0.0,0.000144,0.0,0.0,0.0,0.002304,1
2025/04/11 11:51:23.572589664,1744365083,572237655,hemisphere,2,1,63.4411606205,10.419847321,43.866,0.000144,0.0,0.0,0.0,0.000144,0.0,0.0,0.0,0.002304,1
2025/04/11 11:51:23.626294328,1744365083,625996035,hemisphere,2,1,63.44116055933333,10.419847241666666,43.867000000000004,0.000144,0.0,0.0,0.0,0.000144,0.0,0.0,0.0,0.002304,1
2025/04/11 11:51:23.672841473,1744365083,672462429,hemisphere,2,1,63.44116054316667,10.419847161833333,43.866,0.000144,0.0,0.0,0.0,0.000144,0.0,0.0,0.0,0.002304,1
2025/04/11 11:51:23.722478313,1744365083,722204398,hemisphere,2,1,63.441160494,10.4198470695,43.868,0.000144,0.0,0.0,0.0,0.000144,0.0,0.0,0.0,0.002304,1
2025/04/11 11:51:23.774419369,1744365083,773880260,hemisphere,2,1,63.4411604645,10.419846986666666,43.866,0.000144,0.0,0.0,0.0,0.000144,0.0,0.0,0.0,0.002304,1
2025/04/11 11:51:23.824032625,1744365083,823711921,hemisphere,2,1,63.441160451,10.419846858666666,43.862,0.000144,0.0,0.0,0.0,0.000144,0.0,0.0,0.0,0.002304,1
2025/04/11 11:51:23.873968037,1744365083,873023933,hemisphere,2,1,63.441160421333336,10.419846779833334,43.863,0.000144,0.0,0.0,0.0,0.000144,0.0,0.0,0.0,0.002304,1
2025/04/11 11:51:23.922720470,1744365083,922390452,hemisphere,2,1,63.44116040816667,10.419846712166667,43.863,0.000144,0.0,0.0,0.0,0.000144,0.0,0.0,0.0,0.002304,1
2025/04/11 11:51:23.973260178,1744365083,972221598,hemisphere,2,1,63.441160394,10.419846615,43.86,0.000144,0.0,0.0,0.0,0.000144,0.0,0.0,0.0,0.002304,1
2025/04/11 11:51:24.23111604,1744365084,22734759,hemisphere,2,1,63.44116038666667,10.419846542666667,43.862,0.000144,0.0,0.0,0.0,0.000144,0.0,0.0,0.0,0.002304,1
2025/04/11 11:51:24.72775837,1744365084,72182983,hemisphere,2,1,63.441160378166664,10.419846464833334,43.863,0.000144,0.0,0.0,0.0,0.000144,0.0,0.0,0.0,0.002304,1
2025/04/11 11:51:24.125031843,1744365084,124596470,hemisphere,2,1,63.441160377,10.419846343833333,43.86,0.000144,0.0,0.0,0.0,0.000144,0.0,0.0,0.0,0.002304,1
2025/04/11 11:51:24.172841065,1744365084,172546223,hemisphere,2,1,63.441160369833334,10.419846258833333,43.859,0.000144,0.0,0.0,0.0,0.000144,0.0,0.0,0.0,0.002304,1
2025/04/11 11:51:24.224045500,1744365084,223442775,hemisphere,2,1,63.4411603725,10.419846153333333,43.859,0.000144,0.0,0.0,0.0,0.000144,0.0,0.0,0.0,0.002304,1
2025/04/11 11:51:24.277379985,1744365084,274262042,hemisphere,2,1,63.44116037733333,10.4198460585,43.86,0.000144,0.0,0.0,0.0,0.000144,0.0,0.0,0.0,0.002304,1
2025/04/11 11:51:24.325650242,1744365084,322873892,hemisphere,2,1,63.44116038666667,10.4198459665,43.86,0.000144,0.0,0.0,0.0,0.000144,0.0,0.0,0.0,0.002304,1
2025/04/11 11:51:24.376543094,1744365084,375657301,hemisphere,2,1,63.44116036816666,10.4198458755,43.862,0.000144,0.0,0.0,0.0,0.000144,0.0,0.0,0.0,0.002304,1
2025/04/11 11:51:24.424654110,1744365084,424216525,hemisphere,2,1,63.44116035983333,10.419845775,43.863,0.000144,0.0,0.0,0.0,0.000144,0.0,0.0,0.0,0.002304,1
2025/04/11 11:51:24.476351882,1744365084,475896306,hemisphere,2,1,63.441160367,10.419845670333334,43.863,0.000144,0.0,0.0,0.0,0.000144,0.0,0.0,0.0,0.002304,1
2025/04/11 11:51:24.524452117,1744365084,524106201,hemisphere,2,1,63.441160368333335,10.419845571333333,43.865,0.000144,0.0,0.0,0.0,0.000144,0.0,0.0,0.0,0.002304,1
2025/04/11 11:51:24.572360903,1744365084,572043074,hemisphere,2,1,63.44116040116667,10.419845433166667,43.862,0.000144,0.0,0.0,0.0,0.000144,0.0,0.0,0.0,0.002304,1
2025/04/11 11:51:24.622397427,1744365084,621805339,hemisphere,2,1,63.44116038866667,10.419845327333334,43.864000000000004,0.000144,0.0,0.0,0.0,0.000144,0.0,0.0,0.0,0.002304,1
2025/04/11 11:51:24.672148676,1744365084,671529921,hemisphere,2,1,63.44116038116667,10.4198451875,43.862,0.000144,0.0,0.0,0.0,0.000144,0.0,0.0,0.0,0.002304,1
2025/04/11 11:51:24.725027980,1744365084,724668171,hemisphere,2,1,63.441160374666666,10.4198450865,43.863,0.000144,0.0,0.0,0.0,0.000144,0.0,0.0,0.0,0.002304,1
2025/04/11 11:51:24.776210549,1744365084,772514061,hemisphere,2,1,63.441160383833335,10.419844967166666,43.863,0.000144,0.0,0.0,0.0,0.000144,0.0,0.0,0.0,0.002304,1
2025/04/11 11:51:24.822388816,1744365084,821994365,hemisphere,2,1,63.4411603675,10.419844835666666,43.864000000000004,0.000144,0.0,0.0,0.0,0.000144,0.0,0.0,0.0,0.002304,1
2025/04/11 11:51:24.872589219,1744365084,872064345,hemisphere,2,1,63.44116036416667,10.4198447215,43.863,0.000144,0.0,0.0,0.0,0.000144,0.0,0.0,0.0,0.002304,1
2025/04/11 11:51:24.922675034,1744365084,922128007,hemisphere,2,1,63.44116035733333,10.419844622666666,43.859,0.000144,0.0,0.0,0.0,0.000144,0.0,0.0,0.0,0.002304,1
2025/04/11 11:51:24.973247324,1744365084,972302358,hemisphere,2,1,63.44116035166667,10.4198445405,43.863,0.000144,0.0,0.0,0.0,0.000144,0.0,0.0,0.0,0.002304,1
2025/04/11 11:51:25.23763316,1744365085,23158367,hemisphere,2,1,63.44116033933334,10.419844438833334,43.864000000000004,0.000144,0.0,0.0,0.0,0.000144,0.0,0.0,0.0,0.002304,1
2025/04/11 11:51:25.73274256,1744365085,72677224,hemisphere,2,1,63.441160342,10.419844326333333,43.86,0.000144,0.0,0.0,0.0,0.000144,0.0,0.0,0.0,0.002304,1
2025/04/11 11:51:25.124671286,1744365085,123980567,hemisphere,2,1,63.441160323,10.419844271166667,43.861000000000004,0.000144,0.0,0.0,0.0,0.000144,0.0,0.0,0.0,0.002304,1
2025/04/11 11:51:25.173371471,1744365085,172837128,hemisphere,2,1,63.44116033616667,10.4198441965,43.861000000000004,0.000144,0.0,0.0,0.0,0.000144,0.0,0.0,0.0,0.002304,1
2025/04/11 11:51:25.225268665,1744365085,221964668,hemisphere,2,1,63.441160318166666,10.419844142,43.859,0.000144,0.0,0.0,0.0,0.000144,0.0,0.0,0.0,0.002304,1
2025/04/11 11:51:25.272636180,1744365085,272106989,hemisphere,2,1,63.441160318166666,10.419844098333334,43.861000000000004,0.000144,0.0,0.0,0.0,0.000144,0.0,0.0,0.0,0.002304,1
2025/04/11 11:51:25.325850122,1744365085,324314286,hemisphere,2,1,63.441160333333336,10.419844033666667,43.858000000000004,0.000144,0.0,0.0,0.0,0.000144,0.0,0.0,0.0,0.002304,1
2025/04/11 11:51:25.376578513,1744365085,375288677,hemisphere,2,1,63.441160325,10.419844008,43.86,0.000144,0.0,0.0,0.0,0.000144,0.0,0.0,0.0,0.002304,1
2025/04/11 11:51:25.428645236,1744365085,424293900,hemisphere,2,1,63.4411603165,10.419843945333334,43.858000000000004,0.000144,0.0,0.0,0.0,0.000144,0.0,0.0,0.0,0.002304,1
2025/04/11 11:51:25.473635353,1744365085,473106579,hemisphere,2,1,63.441160333166664,10.419843923666667,43.861000000000004,0.000144,0.0,0.0,0.0,0.000144,0.0,0.0,0.0,0.002304,1
2025/04/11 11:51:25.525420131,1744365085,525147641,hemisphere,2,1,63.441160340833335,10.419843882833334,43.856,0.000144,0.0,0.0,0.0,0.000144,0.0,0.0,0.0,0.002304,1
2025/04/11 11:51:25.573394418,1744365085,572916793,hemisphere,2,1,63.4411603565,10.419843859166667,43.86,0.000144,0.0,0.0,0.0,0.000144,0.0,0.0,0.0,0.002304,1
2025/04/11 11:51:25.624775812,1744365085,623214751,hemisphere,2,1,63.44116038166667,10.419843867,43.857,0.000144,0.0,0.0,0.0,0.000144,0.0,0.0,0.0,0.002304,1
2025/04/11 11:51:25.673043742,1744365085,672586451,hemisphere,2,1,63.4411604075,10.41984381,43.854,0.000144,0.0,0.0,0.0,0.000144,0.0,0.0,0.0,0.002304,1
2025/04/11 11:51:25.723005499,1744365085,722295939,hemisphere,2,1,63.441160432,10.419843819833334,43.855000000000004,0.000144,0.0,0.0,0.0,0.000144,0.0,0.0,0.0,0.002304,1
2025/04/11 11:51:25.773134173,1744365085,772743085,hemisphere,2,1,63.44116046516667,10.419843800666667,43.854,0.000144,0.0,0.0,0.0,0.000144,0.0,0.0,0.0,0.002304,1
2025/04/11 11:51:25.821974880,1744365085,821655957,hemisphere,2,1,63.4411604985,10.4198437645,43.857,0.000144,0.0,0.0,0.0,0.000144,0.0,0.0,0.0,0.002304,1
2025/04/11 11:51:25.873545972,1744365085,871419618,hemisphere,2,1,63.44116054883333,10.419843770166667,43.851,0.000144,0.0,0.0,0.0,0.000144,0.0,0.0,0.0,0.002304,1
2025/04/11 11:51:25.922996496,1744365085,922562258,hemisphere,2,1,63.441160579666665,10.419843752333334,43.849000000000004,0.000144,0.0,0.0,0.0,0.000144,0.0,0.0,0.0,0.002304,1
2025/04/11 11:51:25.973310522,1744365085,972297132,hemisphere,2,1,63.4411606425,10.419843744833333,43.855000000000004,0.000144,0.0,0.0,0.0,0.000144,0.0,0.0,0.0,0.002304,1
2025/04/11 11:51:26.25953200,1744365086,25577788,hemisphere,2,1,63.44116068616667,10.419843738,43.849000000000004,0.000144,0.0,0.0,0.0,0.000144,0.0,0.0,0.0,0.002304,1
2025/04/11 11:51:26.82247352,1744365086,81948033,hemisphere,2,1,63.441160733333334,10.4198437505,43.854,0.000144,0.0,0.0,0.0,0.000144,0.0,0.0,0.0,0.002304,1
2025/04/11 11:51:26.125719380,1744365086,124727311,hemisphere,2,1,63.441160796666665,10.419843701833333,43.853,0.000144,0.0,0.0,0.0,0.000144,0.0,0.0,0.0,0.002304,1
2025/04/11 11:51:26.172925466,1744365086,172560623,hemisphere,2,1,63.441160862333334,10.419843748,43.852000000000004,0.000144,0.0,0.0,0.0,0.000144,0.0,0.0,0.0,0.002304,1
2025/04/11 11:51:26.225115267,1744365086,222221037,hemisphere,2,1,63.4411609095,10.419843736833334,43.854,0.000144,0.0,0.0,0.0,0.000144,0.0,0.0,0.0,0.002304,1
2025/04/11 11:51:26.273062490,1744365086,272699932,hemisphere,2,1,63.44116099866667,10.419843726,43.854,0.000144,0.0,0.0,0.0,0.000144,0.0,0.0,0.0,0.002304,1
2025/04/11 11:51:26.322322028,1744365086,321834756,hemisphere,2,1,63.44116107033334,10.419843751833334,43.853,0.000144,0.0,0.0,0.0,0.000144,0.0,0.0,0.0,0.002304,1
2025/04/11 11:51:26.378246912,1744365086,377723017,hemisphere,2,1,63.441161141833334,10.419843723666666,43.856,0.000144,0.0,0.0,0.0,0.000144,0.0,0.0,0.0,0.002304,1
2025/04/11 11:51:26.423931125,1744365086,422544783,hemisphere,2,1,63.44116121766667,10.419843728833333,43.856,0.000144,0.0,0.0,0.0,0.000144,0.0,0.0,0.0,0.002304,1
2025/04/11 11:51:26.472513418,1744365086,472109833,hemisphere,2,1,63.441161320166664,10.419843723666666,43.851,0.000144,0.0,0.0,0.0,0.000144,0.0,0.0,0.0,0.002304,1
2025/04/11 11:51:26.523623283,1744365086,522580190,hemisphere,2,1,63.441161412666666,10.41984369,43.856,0.000144,0.0,0.0,0.0,0.000144,0.0,0.0,0.0,0.002304,1
2025/04/11 11:51:26.571661506,1744365086,571423562,hemisphere,2,1,63.44116150683333,10.419843625,43.844,0.000144,0.0,0.0,0.0,0.000144,0.0,0.0,0.0,0.002304,1
2025/04/11 11:51:26.622489001,1744365086,621952902,hemisphere,2,1,63.441161593833336,10.419843620166667,43.844,0.000144,0.0,0.0,0.0,0.000144,0.0,0.0,0.0,0.002304,1
2025/04/11 11:51:26.671945321,1744365086,671606205,hemisphere,2,1,63.441161664166664,10.419843605833334,43.845,0.000144,0.0,0.0,0.0,0.000144,0.0,0.0,0.0,0.002304,1
2025/04/11 11:51:26.722347749,1744365086,721984446,hemisphere,2,1,63.441161744333336,10.419843594666666,43.84,0.000144,0.0,0.0,0.0,0.000144,0.0,0.0,0.0,0.002304,1
2025/04/11 11:51:26.772221237,1744365086,771844213,hemisphere,2,1,63.4411618195,10.419843595166666,43.844,0.000144,0.0,0.0,0.0,0.000144,0.0,0.0,0.0,0.002304,1
2025/04/11 11:51:26.822408668,1744365086,822061764,hemisphere,2,1,63.44116191366667,10.419843567833333,43.839,0.000144,0.0,0.0,0.0,0.000144,0.0,0.0,0.0,0.002304,1
2025/04/11 11:51:26.872230255,1744365086,871841873,hemisphere,2,1,63.44116199933333,10.419843549333333,43.843,0.000144,0.0,0.0,0.0,0.000144,0.0,0.0,0.0,0.002304,1
2025/04/11 11:51:26.921996737,1744365086,921700597,hemisphere,2,1,63.4411620555,10.419843525833333,43.842,0.000144,0.0,0.0,0.0,0.000144,0.0,0.0,0.0,0.002304,1
2025/04/11 11:51:26.973169628,1744365086,972587876,hemisphere,2,1,63.441162153166665,10.419843459500001,43.839,0.000144,0.0,0.0,0.0,0.000144,0.0,0.0,0.0,0.002304,1
2025/04/11 11:51:27.25721580,1744365087,22379976,hemisphere,2,1,63.44116225283334,10.419843456333334,43.84,0.000144,0.0,0.0,0.0,0.000144,0.0,0.0,0.0,0.002304,1
2025/04/11 11:51:27.72452187,1744365087,72045034,hemisphere,2,1,63.44116232816667,10.419843398166666,43.839,0.000144,0.0,0.0,0.0,0.000144,0.0,0.0,0.0,0.002304,1
