time,header_stamp_secs,header_stamp_nsecs,header_frame_id,sentence
2025/04/11 11:51:09.70533347,1744365069,70285575,hemisphere,"$GPRMC,095108.95,A,6326.46981802,N,01025.19047606,E,0.01,329.85,110425,4.7,E,D,S*46"
2025/04/11 11:51:09.71637795,1744365069,71461527,hemisphere,"$GPHDT,7.304,T*35"
2025/04/11 11:51:09.74432534,1744365069,74133263,hemisphere,"$GPGGA,095109.00,6326.46981810,N,01025.19047438,E,4,18,0.6,2.922,M,40.935,M,1.0,0415*45"
2025/04/11 11:51:09.77510055,1744365069,77230304,hemisphere,"$GPRMC,095109.00,A,6326.46981810,N,01025.19047438,E,0.02,249.57,110425,4.7,E,D,S*4C"
2025/04/11 11:51:09.80089937,1744365069,79731265,hemisphere,"$GPHDT,7.305,T*34"
2025/04/11 11:51:09.87320399,1744365069,84924292,hemisphere,"$GPGGA,095109.05,6326.46981711,N,01025.19047465,E,4,18,0.6,2.921,M,40.935,M,1.0,0415*45"
2025/04/11 11:51:09.90909066,1744365069,90199607,hemisphere,"$GPRMC,095109.05,A,6326.46981711,N,01025.19047465,E,0.02,192.17,110425,4.7,E,D,S*4E"
2025/04/11 11:51:09.104448603,1744365069,104203423,hemisphere,"$GPHDT,7.305,T*34"
2025/04/11 11:51:09.192415179,1744365069,122617572,hemisphere,"$GPGGA,095109.10,6326.46981740,N,01025.19047528,E,4,18,0.6,2.920,M,40.935,M,1.1,0415*4D"
2025/04/11 11:51:09.192506741,1744365069,130375324,hemisphere,"$GPRMC,095109.10,A,6326.46981740,N,01025.19047528,E,0.01,98.85,110425,4.7,E,D,S*75"
2025/04/11 11:51:09.195742182,1744365069,154623898,hemisphere,"$GPHDT,7.308,T*39"
2025/04/11 11:51:09.196188667,1744365069,172336216,hemisphere,"$GPGGA,095109.15,6326.46981675,N,01025.19047365,E,4,18,0.6,2.921,M,40.935,M,1.1,0415*41"
2025/04/11 11:51:09.196383756,1744365069,179680088,hemisphere,"$GPRMC,095109.15,A,6326.46981675,N,01025.19047365,E,0.01,186.43,110425,4.7,E,D,S*4C"
2025/04/11 11:51:09.207008126,1744365069,205429591,hemisphere,"$GPHDT,7.308,T*39"
2025/04/11 11:51:09.221601355,1744365069,221322700,hemisphere,"$GPGGA,095109.20,6326.46981754,N,01025.19047385,E,4,18,0.6,2.919,M,40.935,M,1.2,0415*43"
2025/04/11 11:51:09.228595146,1744365069,228379321,hemisphere,"$GPRMC,095109.20,A,6326.46981754,N,01025.19047385,E,0.01,0.03,110425,4.7,E,D,S*4D"
2025/04/11 11:51:09.255760970,1744365069,255476738,hemisphere,"$GPHDT,7.309,T*38"
2025/04/11 11:51:09.272171343,1744365069,271789542,hemisphere,"$GPGGA,095109.25,6326.46981678,N,01025.19047483,E,4,18,0.6,2.921,M,40.935,M,1.2,0415*43"
2025/04/11 11:51:09.280405989,1744365069,279181077,hemisphere,"$GPRMC,095109.25,A,6326.46981678,N,01025.19047483,E,0.01,145.51,110425,4.7,E,D,S*41"
2025/04/11 11:51:09.306513381,1744365069,304437197,hemisphere,"$GPHDT,7.307,T*36"
2025/04/11 11:51:09.322453827,1744365069,321665660,hemisphere,"$GPGGA,095109.30,6326.46981716,N,01025.19047347,E,4,18,0.6,2.923,M,40.935,M,1.3,0415*42"
2025/04/11 11:51:09.330442577,1744365069,329097575,hemisphere,"$GPRMC,095109.30,A,6326.46981716,N,01025.19047347,E,0.01,309.22,110425,4.7,E,D,S*4D"
2025/04/11 11:51:09.355133923,1744365069,354829519,hemisphere,"$GPHDT,7.307,T*36"
2025/04/11 11:51:09.376071092,1744365069,375471528,hemisphere,"$GPGGA,095109.35,6326.46981744,N,01025.19047400,E,4,18,0.6,2.918,M,40.935,M,1.3,0415*4C"
2025/04/11 11:51:09.386415359,1744365069,385661569,hemisphere,"$GPRMC,095109.35,A,6326.46981744,N,01025.19047400,E,0.01,266.93,110425,4.7,E,D,S*49"
2025/04/11 11:51:09.404790849,1744365069,404546652,hemisphere,"$GPHDT,7.309,T*38"
2025/04/11 11:51:09.422600570,1744365069,422271138,hemisphere,"$GPGGA,095109.40,6326.46981683,N,01025.19047188,E,4,18,0.6,2.923,M,40.935,M,0.4,0415*4F"
2025/04/11 11:51:09.430069375,1744365069,429825458,hemisphere,"$GPRMC,095109.40,A,6326.46981683,N,01025.19047188,E,0.01,179.42,110425,4.7,E,D,S*45"
2025/04/11 11:51:09.454933672,1744365069,454256284,hemisphere,"$GPHDT,7.311,T*31"
2025/04/11 11:51:09.474022787,1744365069,471965157,hemisphere,"$GPGGA,095109.45,6326.46981530,N,01025.19047355,E,4,18,0.6,2.920,M,40.935,M,0.4,0415*40"
2025/04/11 11:51:09.481300059,1744365069,479208096,hemisphere,"$GPRMC,095109.45,A,6326.46981530,N,01025.19047355,E,0.02,159.84,110425,4.7,E,D,S*42"
2025/04/11 11:51:09.505149730,1744365069,504739993,hemisphere,"$GPHDT,7.312,T*32"
2025/04/11 11:51:09.522621852,1744365069,522402516,hemisphere,"$GPGGA,095109.50,6326.46981713,N,01025.19047464,E,4,18,0.6,2.922,M,40.935,M,0.5,0415*41"
2025/04/11 11:51:09.530159519,1744365069,529906388,hemisphere,"$GPRMC,095109.50,A,6326.46981713,N,01025.19047464,E,0.00,28.27,110425,4.7,E,D,S*7C"
2025/04/11 11:51:09.556890180,1744365069,556268601,hemisphere,"$GPHDT,7.314,T*34"
2025/04/11 11:51:09.573573090,1744365069,572209931,hemisphere,"$GPGGA,095109.55,6326.46981600,N,01025.19047350,E,4,18,0.6,2.919,M,40.935,M,0.5,0415*4F"
2025/04/11 11:51:09.580028329,1744365069,579326921,hemisphere,"$GPRMC,095109.55,A,6326.46981600,N,01025.19047350,E,0.01,236.60,110425,4.7,E,D,S*45"
2025/04/11 11:51:09.607198496,1744365069,604778596,hemisphere,"$GPHDT,7.318,T*38"
2025/04/11 11:51:09.624250918,1744365069,622503393,hemisphere,"$GPGGA,095109.60,6326.46981639,N,01025.19047227,E,4,18,0.6,2.921,M,40.935,M,0.6,0415*4A"
2025/04/11 11:51:09.630708666,1744365069,629743915,hemisphere,"$GPRMC,095109.60,A,6326.46981639,N,01025.19047227,E,0.01,336.38,110425,4.7,E,D,S*44"
2025/04/11 11:51:09.655896846,1744365069,654550838,hemisphere,"$GPHDT,7.322,T*31"
2025/04/11 11:51:09.672882832,1744365069,672312063,hemisphere,"$GPGGA,095109.65,6326.46981610,N,01025.19047332,E,4,18,0.6,2.920,M,40.935,M,0.6,0415*40"
2025/04/11 11:51:09.679693853,1744365069,679452573,hemisphere,"$GPRMC,095109.65,A,6326.46981610,N,01025.19047332,E,0.01,140.95,110425,4.7,E,D,S*4B"
2025/04/11 11:51:09.704478389,1744365069,704275132,hemisphere,"$GPHDT,7.327,T*34"
2025/04/11 11:51:09.721514977,1744365069,721241930,hemisphere,"$GPGGA,095109.70,6326.46981586,N,01025.19047376,E,4,18,0.6,2.924,M,40.935,M,0.7,0415*4D"
2025/04/11 11:51:09.728716320,1744365069,728452351,hemisphere,"$GPRMC,095109.70,A,6326.46981586,N,01025.19047376,E,0.01,129.73,110425,4.7,E,D,S*44"
2025/04/11 11:51:09.755375968,1744365069,754634681,hemisphere,"$GPHDT,7.326,T*35"
2025/04/11 11:51:09.772694825,1744365069,772335014,hemisphere,"$GPGGA,095109.75,6326.46981659,N,01025.19047185,E,4,18,0.6,2.922,M,40.935,M,0.7,0415*41"
2025/04/11 11:51:09.779924055,1744365069,779573879,hemisphere,"$GPRMC,095109.75,A,6326.46981659,N,01025.19047185,E,0.01,328.27,110425,4.7,E,D,S*4C"
2025/04/11 11:51:09.804694715,1744365069,804500683,hemisphere,"$GPHDT,7.333,T*31"
2025/04/11 11:51:09.821528614,1744365069,821326506,hemisphere,"$GPGGA,095109.80,6326.46981602,N,01025.19047246,E,4,18,0.6,2.922,M,40.935,M,0.8,0415*46"
2025/04/11 11:51:09.828708668,1744365069,828493292,hemisphere,"$GPRMC,095109.80,A,6326.46981602,N,01025.19047246,E,0.01,170.57,110425,4.7,E,D,S*4C"
2025/04/11 11:51:09.855156358,1744365069,854835263,hemisphere,"$GPHDT,7.334,T*36"
2025/04/11 11:51:09.871986307,1744365069,871757451,hemisphere,"$GPGGA,095109.85,6326.46981623,N,01025.19047346,E,4,18,0.6,2.920,M,40.935,M,0.8,0415*43"
2025/04/11 11:51:09.879106453,1744365069,878850738,hemisphere,"$GPRMC,095109.85,A,6326.46981623,N,01025.19047346,E,0.00,28.79,110425,4.7,E,D,S*7A"
2025/04/11 11:51:09.905436019,1744365069,904418426,hemisphere,"$GPHDT,7.340,T*35"
2025/04/11 11:51:09.925293389,1744365069,922158685,hemisphere,"$GPGGA,095109.90,6326.46981538,N,01025.19047348,E,4,18,0.6,2.923,M,40.935,M,0.9,0415*42"
2025/04/11 11:51:09.930083644,1744365069,929561811,hemisphere,"$GPRMC,095109.90,A,6326.46981538,N,01025.19047348,E,0.01,170.79,110425,4.7,E,D,S*44"
2025/04/11 11:51:09.955378907,1744365069,955044490,hemisphere,"$GPHDT,7.341,T*34"
2025/04/11 11:51:09.972792476,1744365069,972542897,hemisphere,"$GPGGA,095109.95,6326.46981583,N,01025.19047226,E,4,18,0.6,2.921,M,40.935,M,0.9,0415*4C"
2025/04/11 11:51:09.981902379,1744365069,979890821,hemisphere,"$GPRMC,095109.95,A,6326.46981583,N,01025.19047226,E,0.01,332.62,110425,4.7,E,D,S*46"
2025/04/11 11:51:10.5677227,1744365070,4756301,hemisphere,"$GPHDT,7.347,T*32"
2025/04/11 11:51:10.22598659,1744365070,22247143,hemisphere,"$GPGGA,095110.00,6326.46981548,N,01025.19047254,E,4,18,0.6,2.924,M,40.935,M,1.0,0415*47"
2025/04/11 11:51:10.29801880,1744365070,29523171,hemisphere,"$GPRMC,095110.00,A,6326.46981548,N,01025.19047254,E,0.01,172.35,110425,4.7,E,D,S*44"
2025/04/11 11:51:10.56121782,1744365070,54998262,hemisphere,"$GPHDT,7.347,T*32"
2025/04/11 11:51:10.72265535,1744365070,71983982,hemisphere,"$GPGGA,095110.05,6326.46981610,N,01025.19047306,E,4,18,0.6,2.919,M,40.935,M,1.0,0415*44"
2025/04/11 11:51:10.79582334,1744365070,79201622,hemisphere,"$GPRMC,095110.05,A,6326.46981610,N,01025.19047306,E,0.00,355.51,110425,4.7,E,D,S*4D"
2025/04/11 11:51:10.104982018,1744365070,104644814,hemisphere,"$GPHDT,7.350,T*34"
2025/04/11 11:51:10.123520813,1744365070,123090713,hemisphere,"$GPGGA,095110.10,6326.46981596,N,01025.19047182,E,4,18,0.6,2.924,M,40.935,M,1.1,0415*4C"
2025/04/11 11:51:10.132593257,1744365070,132169581,hemisphere,"$GPRMC,095110.10,A,6326.46981596,N,01025.19047182,E,0.01,206.94,110425,4.7,E,D,S*45"
2025/04/11 11:51:10.154565283,1744365070,154346827,hemisphere,"$GPHDT,7.351,T*35"
2025/04/11 11:51:10.173740018,1744365070,172092124,hemisphere,"$GPGGA,095110.15,6326.46981612,N,01025.19047155,E,4,18,0.6,2.922,M,40.935,M,1.1,0415*4A"
2025/04/11 11:51:10.181402810,1744365070,180291262,hemisphere,"$GPRMC,095110.15,A,6326.46981612,N,01025.19047155,E,0.01,323.51,110425,4.7,E,D,S*4A"
2025/04/11 11:51:10.206544594,1744365070,206287665,hemisphere,"$GPHDT,7.355,T*31"
2025/04/11 11:51:10.380868006,1744365070,222481630,hemisphere,"$GPGGA,095110.20,6326.46981526,N,01025.19047139,E,4,18,0.6,2.924,M,40.935,M,1.2,0415*47"
2025/04/11 11:51:10.381275876,1744365070,229743120,hemisphere,"$GPRMC,095110.20,A,6326.46981526,N,01025.19047139,E,0.01,156.45,110425,4.7,E,D,S*47"
2025/04/11 11:51:10.381404096,1744365070,254462491,hemisphere,"$GPHDT,7.364,T*33"
2025/04/11 11:51:10.381495451,1744365070,272418806,hemisphere,"$GPGGA,095110.25,6326.46981550,N,01025.19047103,E,4,18,0.6,2.922,M,40.935,M,1.2,0415*4C"
2025/04/11 11:51:10.381539855,1744365070,279421496,hemisphere,"$GPRMC,095110.25,A,6326.46981550,N,01025.19047103,E,0.01,264.61,110425,4.7,E,D,S*4E"
2025/04/11 11:51:10.385534809,1744365070,304995426,hemisphere,"$GPHDT,7.368,T*3F"
2025/04/11 11:51:10.387638400,1744365070,321601782,hemisphere,"$GPGGA,095110.30,6326.46981555,N,01025.19047140,E,4,18,0.6,2.924,M,40.935,M,1.3,0415*4D"
2025/04/11 11:51:10.388431648,1744365070,329112689,hemisphere,"$GPRMC,095110.30,A,6326.46981555,N,01025.19047140,E,0.01,101.40,110425,4.7,E,D,S*4B"
2025/04/11 11:51:10.392840905,1744365070,354810355,hemisphere,"$GPHDT,7.375,T*33"
2025/04/11 11:51:10.394088918,1744365070,374764972,hemisphere,"$GPGGA,095110.35,6326.46981508,N,01025.19047074,E,4,18,0.6,2.924,M,40.935,M,1.3,0415*46"
2025/04/11 11:51:10.394957459,1744365070,382338077,hemisphere,"$GPRMC,095110.35,A,6326.46981508,N,01025.19047074,E,0.01,287.58,110425,4.7,E,D,S*44"
2025/04/11 11:51:10.404496200,1744365070,404302052,hemisphere,"$GPHDT,7.380,T*39"
2025/04/11 11:51:10.421794192,1744365070,421537703,hemisphere,"$GPGGA,095110.40,6326.46981725,N,01025.19046953,E,4,18,0.6,2.924,M,40.935,M,0.4,0415*42"
2025/04/11 11:51:10.429535120,1744365070,429236615,hemisphere,"$GPRMC,095110.40,A,6326.46981725,N,01025.19046953,E,0.01,310.33,110425,4.7,E,D,S*44"
2025/04/11 11:51:10.455314482,1744365070,454995399,hemisphere,"$GPHDT,7.383,T*3A"
2025/04/11 11:51:10.472206109,1744365070,471977054,hemisphere,"$GPGGA,095110.45,6326.46981546,N,01025.19047096,E,4,18,0.6,2.927,M,40.935,M,0.4,0415*42"
2025/04/11 11:51:10.481648094,1744365070,480653156,hemisphere,"$GPRMC,095110.45,A,6326.46981546,N,01025.19047096,E,0.01,142.08,110425,4.7,E,D,S*4A"
2025/04/11 11:51:10.510228773,1744365070,504641422,hemisphere,"$GPHDT,7.390,T*38"
2025/04/11 11:51:10.522344574,1744365070,522123847,hemisphere,"$GPGGA,095110.50,6326.46981510,N,01025.19046960,E,4,18,0.6,2.924,M,40.935,M,0.5,0415*46"
2025/04/11 11:51:10.532100197,1744365070,530086798,hemisphere,"$GPRMC,095110.50,A,6326.46981510,N,01025.19046960,E,0.01,271.22,110425,4.7,E,D,S*47"
2025/04/11 11:51:10.556096953,1744365070,555191257,hemisphere,"$GPHDT,7.396,T*3E"
2025/04/11 11:51:10.575054890,1744365070,572696017,hemisphere,"$GPGGA,095110.55,6326.46981488,N,01025.19047106,E,4,18,0.6,2.925,M,40.935,M,0.5,0415*4B"
2025/04/11 11:51:10.581564553,1744365070,579631498,hemisphere,"$GPRMC,095110.55,A,6326.46981488,N,01025.19047106,E,0.01,23.55,110425,4.7,E,D,S*7E"
2025/04/11 11:51:10.605346696,1744365070,604971340,hemisphere,"$GPHDT,7.396,T*3E"
2025/04/11 11:51:10.622541367,1744365070,622239009,hemisphere,"$GPGGA,095110.60,6326.46981501,N,01025.19047267,E,4,18,0.6,2.924,M,40.935,M,0.6,0415*4B"
2025/04/11 11:51:10.629916485,1744365070,629396444,hemisphere,"$GPRMC,095110.60,A,6326.46981501,N,01025.19047267,E,0.00,37.21,110425,4.7,E,D,S*7B"
2025/04/11 11:51:10.656411637,1744365070,656122955,hemisphere,"$GPHDT,7.402,T*34"
2025/04/11 11:51:10.672467597,1744365070,672215035,hemisphere,"$GPGGA,095110.65,6326.46981441,N,01025.19047079,E,4,18,0.6,2.922,M,40.935,M,0.6,0415*40"
2025/04/11 11:51:10.679589832,1744365070,679161865,hemisphere,"$GPRMC,095110.65,A,6326.46981441,N,01025.19047079,E,0.01,211.78,110425,4.7,E,D,S*4D"
2025/04/11 11:51:10.704910366,1744365070,704629822,hemisphere,"$GPHDT,7.404,T*32"
2025/04/11 11:51:10.721686998,1744365070,721375792,hemisphere,"$GPGGA,095110.70,6326.46981475,N,01025.19047040,E,4,18,0.6,2.925,M,40.935,M,0.7,0415*4F"
2025/04/11 11:51:10.729655508,1744365070,729221291,hemisphere,"$GPRMC,095110.70,A,6326.46981475,N,01025.19047040,E,0.01,17.18,110425,4.7,E,D,S*76"
2025/04/11 11:51:10.754794913,1744365070,754343394,hemisphere,"$GPHDT,7.411,T*36"
2025/04/11 11:51:10.773010136,1744365070,771920950,hemisphere,"$GPGGA,095110.75,6326.46981459,N,01025.19047229,E,4,18,0.6,2.919,M,40.935,M,0.7,0415*46"
2025/04/11 11:51:10.778853859,1744365070,778580595,hemisphere,"$GPRMC,095110.75,A,6326.46981459,N,01025.19047229,E,0.00,121.60,110425,4.7,E,D,S*4A"
2025/04/11 11:51:10.805678609,1744365070,805406824,hemisphere,"$GPHDT,7.413,T*34"
2025/04/11 11:51:10.821987084,1744365070,821749237,hemisphere,"$GPGGA,095110.80,6326.46981493,N,01025.19047149,E,4,18,0.6,2.922,M,40.935,M,0.8,0415*48"
2025/04/11 11:51:10.829239878,1744365070,828913853,hemisphere,"$GPRMC,095110.80,A,6326.46981493,N,01025.19047149,E,0.00,27.87,110425,4.7,E,D,S*7D"
2025/04/11 11:51:10.855287948,1744365070,855047508,hemisphere,"$GPHDT,7.417,T*30"
2025/04/11 11:51:10.871193848,1744365070,870944014,hemisphere,"$GPGGA,095110.85,6326.46981452,N,01025.19047205,E,4,18,0.6,2.924,M,40.935,M,0.8,0415*4D"
2025/04/11 11:51:10.879071254,1744365070,878700721,hemisphere,"$GPRMC,095110.85,A,6326.46981452,N,01025.19047205,E,0.00,254.16,110425,4.7,E,D,S*40"
2025/04/11 11:51:10.904613147,1744365070,904228544,hemisphere,"$GPHDT,7.419,T*3E"
2025/04/11 11:51:10.921421558,1744365070,921182045,hemisphere,"$GPGGA,095110.90,6326.46981421,N,01025.19047171,E,4,18,0.6,2.921,M,40.935,M,0.9,0415*49"
2025/04/11 11:51:10.930813384,1744365070,929398794,hemisphere,"$GPRMC,095110.90,A,6326.46981421,N,01025.19047171,E,0.00,163.66,110425,4.7,E,D,S*40"
2025/04/11 11:51:10.955527036,1744365070,954787573,hemisphere,"$GPHDT,7.422,T*36"
2025/04/11 11:51:10.971820856,1744365070,971591486,hemisphere,"$GPGGA,095110.95,6326.46981519,N,01025.19047334,E,4,18,0.6,2.926,M,40.935,M,0.9,0415*42"
2025/04/11 11:51:10.979076046,1744365070,978802573,hemisphere,"$GPRMC,095110.95,A,6326.46981519,N,01025.19047334,E,0.00,17.88,110425,4.7,E,D,S*7E"
2025/04/11 11:51:11.4580616,1744365071,4285646,hemisphere,"$GPHDT,7.426,T*32"
2025/04/11 11:51:11.22228692,1744365071,21990744,hemisphere,"$GPGGA,095111.00,6326.46981405,N,01025.19047325,E,4,18,0.6,2.919,M,40.935,M,1.0,0415*47"
2025/04/11 11:51:11.29527268,1744365071,29234127,hemisphere,"$GPRMC,095111.00,A,6326.46981405,N,01025.19047325,E,0.01,149.46,110425,4.7,E,D,S*46"
2025/04/11 11:51:11.55050479,1744365071,54824650,hemisphere,"$GPHDT,7.425,T*31"
2025/04/11 11:51:11.73404287,1744365071,73127273,hemisphere,"$GPGGA,095111.05,6326.46981450,N,01025.19047418,E,4,18,0.6,2.923,M,40.935,M,1.0,0415*42"
2025/04/11 11:51:11.80797672,1744365071,80167006,hemisphere,"$GPRMC,095111.05,A,6326.46981450,N,01025.19047418,E,0.00,6.97,110425,4.7,E,D,S*4D"
2025/04/11 11:51:11.104686671,1744365071,104429137,hemisphere,"$GPHDT,7.427,T*33"
2025/04/11 11:51:11.122703320,1744365071,122470928,hemisphere,"$GPGGA,095111.10,6326.46981437,N,01025.19047433,E,4,18,0.6,2.924,M,40.935,M,1.1,0415*48"
2025/04/11 11:51:11.130052599,1744365071,129801936,hemisphere,"$GPRMC,095111.10,A,6326.46981437,N,01025.19047433,E,0.01,143.68,110425,4.7,E,D,S*40"
2025/04/11 11:51:11.155023196,1744365071,154778601,hemisphere,"$GPHDT,7.420,T*34"
2025/04/11 11:51:11.172756723,1744365071,172533968,hemisphere,"$GPGGA,095111.15,6326.46981482,N,01025.19047472,E,4,18,0.6,2.921,M,40.935,M,1.1,0415*43"
2025/04/11 11:51:11.180363829,1744365071,179692938,hemisphere,"$GPRMC,095111.15,A,6326.46981482,N,01025.19047472,E,0.01,9.51,110425,4.7,E,D,S*4B"
2025/04/11 11:51:11.204754482,1744365071,204513311,hemisphere,"$GPHDT,7.423,T*37"
2025/04/11 11:51:11.221757727,1744365071,221494245,hemisphere,"$GPGGA,095111.20,6326.46981442,N,01025.19047374,E,4,18,0.6,2.922,M,40.935,M,1.2,0415*48"
2025/04/11 11:51:11.229304060,1744365071,228974089,hemisphere,"$GPRMC,095111.20,A,6326.46981442,N,01025.19047374,E,0.01,229.72,110425,4.7,E,D,S*41"
2025/04/11 11:51:11.254756393,1744365071,254506529,hemisphere,"$GPHDT,7.424,T*30"
2025/04/11 11:51:11.271618395,1744365071,271360302,hemisphere,"$GPGGA,095111.25,6326.46981403,N,01025.19047541,E,4,18,0.6,2.918,M,40.935,M,1.2,0415*41"
2025/04/11 11:51:11.279447946,1744365071,279153836,hemisphere,"$GPRMC,095111.25,A,6326.46981403,N,01025.19047541,E,0.01,139.59,110425,4.7,E,D,S*4A"
2025/04/11 11:51:11.306100085,1744365071,305241972,hemisphere,"$GPHDT,7.421,T*35"
2025/04/11 11:51:11.321925087,1744365071,321661350,hemisphere,"$GPGGA,095111.30,6326.46981494,N,01025.19047512,E,4,18,0.6,2.924,M,40.935,M,1.3,0415*43"
2025/04/11 11:51:11.330519235,1744365071,329436664,hemisphere,"$GPRMC,095111.30,A,6326.46981494,N,01025.19047512,E,0.01,13.68,110425,4.7,E,D,S*7D"
2025/04/11 11:51:11.354918038,1744365071,354371833,hemisphere,"$GPHDT,7.421,T*35"
2025/04/11 11:51:11.375141010,1744365071,374882387,hemisphere,"$GPGGA,095111.35,6326.46981476,N,01025.19047682,E,4,18,0.6,2.923,M,40.935,M,1.3,0415*47"
2025/04/11 11:51:11.382375377,1744365071,382126801,hemisphere,"$GPRMC,095111.35,A,6326.46981476,N,01025.19047682,E,0.01,140.90,110425,4.7,E,D,S*4E"
2025/04/11 11:51:11.405333790,1744365071,404851623,hemisphere,"$GPHDT,7.421,T*35"
2025/04/11 11:51:11.422720302,1744365071,422447324,hemisphere,"$GPGGA,095111.40,6326.46981416,N,01025.19047522,E,4,18,0.6,2.920,M,40.935,M,0.4,0415*4F"
2025/04/11 11:51:11.430064781,1744365071,429789129,hemisphere,"$GPRMC,095111.40,A,6326.46981416,N,01025.19047522,E,0.01,222.29,110425,4.7,E,D,S*46"
2025/04/11 11:51:11.454681650,1744365071,454463006,hemisphere,"$GPHDT,7.418,T*3F"
2025/04/11 11:51:11.472340214,1744365071,472150471,hemisphere,"$GPGGA,095111.45,6326.46981489,N,01025.19047537,E,4,18,0.6,2.923,M,40.935,M,0.4,0415*4B"
2025/04/11 11:51:11.479653654,1744365071,479411711,hemisphere,"$GPRMC,095111.45,A,6326.46981489,N,01025.19047537,E,0.01,334.66,110425,4.7,E,D,S*4C"
2025/04/11 11:51:11.504413577,1744365071,504199839,hemisphere,"$GPHDT,7.416,T*31"
2025/04/11 11:51:11.522099688,1744365071,521860931,hemisphere,"$GPGGA,095111.50,6326.46981512,N,01025.19047626,E,4,18,0.6,2.921,M,40.935,M,0.5,0415*4C"
2025/04/11 11:51:11.530193930,1744365071,529906470,hemisphere,"$GPRMC,095111.50,A,6326.46981512,N,01025.19047626,E,0.01,85.58,110425,4.7,E,D,S*7C"
2025/04/11 11:51:11.555443836,1744365071,555267893,hemisphere,"$GPHDT,7.415,T*32"
2025/04/11 11:51:11.572459073,1744365071,572291762,hemisphere,"$GPGGA,095111.55,6326.46981337,N,01025.19047656,E,4,18,0.6,2.920,M,40.935,M,0.5,0415*4E"
2025/04/11 11:51:11.580628606,1744365071,579536546,hemisphere,"$GPRMC,095111.55,A,6326.46981337,N,01025.19047656,E,0.01,181.30,110425,4.7,E,D,S*44"
2025/04/11 11:51:11.604922007,1744365071,604358187,hemisphere,"$GPHDT,7.408,T*3E"
2025/04/11 11:51:11.622188705,1744365071,621964565,hemisphere,"$GPGGA,095111.60,6326.46981531,N,01025.19047663,E,4,18,0.6,2.923,M,40.935,M,0.6,0415*4E"
2025/04/11 11:51:11.630569707,1744365071,629414883,hemisphere,"$GPRMC,095111.60,A,6326.46981531,N,01025.19047663,E,0.01,7.85,110425,4.7,E,D,S*45"
2025/04/11 11:51:11.654893283,1744365071,654674345,hemisphere,"$GPHDT,7.410,T*37"
2025/04/11 11:51:11.672637921,1744365071,672383218,hemisphere,"$GPGGA,095111.65,6326.46981403,N,01025.19047653,E,4,18,0.6,2.923,M,40.935,M,0.6,0415*48"
2025/04/11 11:51:11.680466143,1744365071,679639375,hemisphere,"$GPRMC,095111.65,A,6326.46981403,N,01025.19047653,E,0.01,174.54,110425,4.7,E,D,S*4A"
2025/04/11 11:51:11.704593954,1744365071,704362861,hemisphere,"$GPHDT,7.407,T*31"
2025/04/11 11:51:11.721576478,1744365071,721379365,hemisphere,"$GPGGA,095111.70,6326.46981461,N,01025.19047718,E,4,18,0.6,2.922,M,40.935,M,0.7,0415*46"
2025/04/11 11:51:11.729204689,1744365071,728738392,hemisphere,"$GPRMC,095111.70,A,6326.46981461,N,01025.19047718,E,0.01,14.50,110425,4.7,E,D,S*77"
2025/04/11 11:51:11.754985327,1744365071,754792409,hemisphere,"$GPHDT,7.404,T*32"
2025/04/11 11:51:11.772302094,1744365071,771846481,hemisphere,"$GPGGA,095111.75,6326.46981514,N,01025.19047694,E,4,18,0.6,2.921,M,40.935,M,0.7,0415*46"
2025/04/11 11:51:11.781316518,1744365071,779386765,hemisphere,"$GPRMC,095111.75,A,6326.46981514,N,01025.19047694,E,0.01,341.43,110425,4.7,E,D,S*45"
2025/04/11 11:51:11.805497152,1744365071,805199645,hemisphere,"$GPHDT,7.399,T*31"
2025/04/11 11:51:11.822429998,1744365071,822233798,hemisphere,"$GPGGA,095111.80,6326.46981485,N,01025.19047833,E,4,18,0.6,2.922,M,40.935,M,0.8,0415*4A"
2025/04/11 11:51:11.830335268,1744365071,829611969,hemisphere,"$GPRMC,095111.80,A,6326.46981485,N,01025.19047833,E,0.01,119.93,110425,4.7,E,D,S*47"
2025/04/11 11:51:11.855291107,1744365071,854806410,hemisphere,"$GPHDT,7.394,T*3C"
2025/04/11 11:51:11.871450444,1744365071,871213304,hemisphere,"$GPGGA,095111.85,6326.46981466,N,01025.19047751,E,4,18,0.6,2.923,M,40.935,M,0.8,0415*48"
2025/04/11 11:51:11.880543319,1744365071,878472880,hemisphere,"$GPRMC,095111.85,A,6326.46981466,N,01025.19047751,E,0.01,347.74,110425,4.7,E,D,S*44"
2025/04/11 11:51:11.904854924,1744365071,904636328,hemisphere,"$GPHDT,7.391,T*39"
2025/04/11 11:51:11.922511842,1744365071,922331806,hemisphere,"$GPGGA,095111.90,6326.46981489,N,01025.19047803,E,4,18,0.6,2.924,M,40.935,M,0.9,0415*43"
2025/04/11 11:51:11.929895238,1744365071,929472279,hemisphere,"$GPRMC,095111.90,A,6326.46981489,N,01025.19047803,E,0.01,95.22,110425,4.7,E,D,S*76"
2025/04/11 11:51:11.955062006,1744365071,954379515,hemisphere,"$GPHDT,7.387,T*3E"
2025/04/11 11:51:11.972236641,1744365071,972036648,hemisphere,"$GPGGA,095111.95,6326.46981505,N,01025.19047861,E,4,18,0.6,2.920,M,40.935,M,0.9,0415*43"
2025/04/11 11:51:11.979612315,1744365071,979171067,hemisphere,"$GPRMC,095111.95,A,6326.46981505,N,01025.19047861,E,0.01,90.17,110425,4.7,E,D,S*71"
2025/04/11 11:51:12.6159703,1744365072,4891210,hemisphere,"$GPHDT,7.383,T*3A"
2025/04/11 11:51:12.22666866,1744365072,22482321,hemisphere,"$GPGGA,095112.00,6326.46981487,N,01025.19047888,E,4,18,0.6,2.919,M,40.935,M,1.0,0415*42"
2025/04/11 11:51:12.30007267,1744365072,29702001,hemisphere,"$GPRMC,095112.00,A,6326.46981487,N,01025.19047888,E,0.01,282.03,110425,4.7,E,D,S*46"
2025/04/11 11:51:12.55161767,1744365072,54432142,hemisphere,"$GPHDT,7.383,T*3A"
2025/04/11 11:51:12.72739059,1744365072,72258401,hemisphere,"$GPGGA,095112.05,6326.46981387,N,01025.19047760,E,4,18,0.6,2.920,M,40.935,M,1.0,0415*43"
2025/04/11 11:51:12.80255354,1744365072,79683809,hemisphere,"$GPRMC,095112.05,A,6326.46981387,N,01025.19047760,E,0.01,176.11,110425,4.7,E,D,S*46"
2025/04/11 11:51:12.105106265,1744365072,104508635,hemisphere,"$GPHDT,7.378,T*3E"
2025/04/11 11:51:12.122885232,1744365072,122587408,hemisphere,"$GPGGA,095112.10,6326.46981610,N,01025.19047913,E,4,18,0.6,2.921,M,40.935,M,1.1,0415*46"
2025/04/11 11:51:12.131258335,1744365072,130159457,hemisphere,"$GPRMC,095112.10,A,6326.46981610,N,01025.19047913,E,0.01,358.73,110425,4.7,E,D,S*49"
2025/04/11 11:51:12.154770845,1744365072,154576494,hemisphere,"$GPHDT,7.376,T*30"
2025/04/11 11:51:12.172411791,1744365072,172262357,hemisphere,"$GPGGA,095112.15,6326.46981507,N,01025.19047957,E,4,18,0.6,2.920,M,40.935,M,1.1,0415*47"
2025/04/11 11:51:12.180915573,1744365072,179528359,hemisphere,"$GPRMC,095112.15,A,6326.46981507,N,01025.19047957,E,0.01,159.19,110425,4.7,E,D,S*46"
2025/04/11 11:51:12.204803480,1744365072,204584417,hemisphere,"$GPHDT,7.372,T*34"
2025/04/11 11:51:12.221526563,1744365072,221266862,hemisphere,"$GPGGA,095112.20,6326.46981531,N,01025.19047965,E,4,18,0.6,2.921,M,40.935,M,1.2,0415*47"
2025/04/11 11:51:12.230827372,1744365072,228501381,hemisphere,"$GPRMC,095112.20,A,6326.46981531,N,01025.19047965,E,0.01,54.27,110425,4.7,E,D,S*75"
2025/04/11 11:51:12.254862879,1744365072,254682889,hemisphere,"$GPHDT,7.370,T*36"
2025/04/11 11:51:12.272563953,1744365072,272371511,hemisphere,"$GPGGA,095112.25,6326.46981501,N,01025.19047866,E,4,18,0.6,2.919,M,40.935,M,1.2,0415*48"
2025/04/11 11:51:12.280371732,1744365072,279624853,hemisphere,"$GPRMC,095112.25,A,6326.46981501,N,01025.19047866,E,0.01,218.17,110425,4.7,E,D,S*48"
2025/04/11 11:51:12.306572909,1744365072,304874453,hemisphere,"$GPHDT,7.361,T*36"
2025/04/11 11:51:12.321584788,1744365072,321361006,hemisphere,"$GPGGA,095112.30,6326.46981593,N,01025.19048042,E,4,18,0.6,2.924,M,40.935,M,1.3,0415*49"
2025/04/11 11:51:12.328942909,1744365072,328529474,hemisphere,"$GPRMC,095112.30,A,6326.46981593,N,01025.19048042,E,0.01,36.14,110425,4.7,E,D,S*7B"
2025/04/11 11:51:12.356080301,1744365072,355464878,hemisphere,"$GPHDT,7.366,T*31"
2025/04/11 11:51:12.375910719,1744365072,375673627,hemisphere,"$GPGGA,095112.35,6326.46981472,N,01025.19048036,E,4,18,0.6,2.921,M,40.935,M,1.3,0415*44"
2025/04/11 11:51:12.382798290,1744365072,382583338,hemisphere,"$GPRMC,095112.35,A,6326.46981472,N,01025.19048036,E,0.01,202.88,110425,4.7,E,D,S*43"
2025/04/11 11:51:12.404708820,1744365072,404482736,hemisphere,"$GPHDT,7.364,T*33"
2025/04/11 11:51:12.422385064,1744365072,422209591,hemisphere,"$GPGGA,095112.40,6326.46981490,N,01025.19047992,E,4,18,0.6,2.917,M,40.935,M,0.4,0415*41"
2025/04/11 11:51:12.430076821,1744365072,429467729,hemisphere,"$GPRMC,095112.40,A,6326.46981490,N,01025.19047992,E,0.01,115.50,110425,4.7,E,D,S*45"
2025/04/11 11:51:12.454371272,1744365072,454182402,hemisphere,"$GPHDT,7.362,T*35"
2025/04/11 11:51:12.471561831,1744365072,471377482,hemisphere,"$GPGGA,095112.45,6326.46981562,N,01025.19047975,E,4,18,0.6,2.915,M,40.935,M,0.4,0415*43"
2025/04/11 11:51:12.479750232,1744365072,479245889,hemisphere,"$GPRMC,095112.45,A,6326.46981562,N,01025.19047975,E,0.01,1.13,110425,4.7,E,D,S*46"
2025/04/11 11:51:12.507241184,1744365072,504660389,hemisphere,"$GPHDT,7.361,T*36"
2025/04/11 11:51:12.522501183,1744365072,522321702,hemisphere,"$GPGGA,095112.50,6326.46981512,N,01025.19048144,E,4,18,0.6,2.912,M,40.935,M,0.5,0415*43"
2025/04/11 11:51:12.531156342,1744365072,529841714,hemisphere,"$GPRMC,095112.50,A,6326.46981512,N,01025.19048144,E,0.01,121.44,110425,4.7,E,D,S*41"
2025/04/11 11:51:12.554575121,1744365072,554338156,hemisphere,"$GPHDT,7.359,T*3D"
2025/04/11 11:51:12.571529836,1744365072,571353977,hemisphere,"$GPGGA,095112.55,6326.46981542,N,01025.19048034,E,4,18,0.6,2.919,M,40.935,M,0.5,0415*4E"
2025/04/11 11:51:12.578600041,1744365072,578299260,hemisphere,"$GPRMC,095112.55,A,6326.46981542,N,01025.19048034,E,0.01,0.67,110425,4.7,E,D,S*44"
2025/04/11 11:51:12.604943963,1744365072,604735757,hemisphere,"$GPHDT,7.355,T*31"
2025/04/11 11:51:12.621862844,1744365072,621700516,hemisphere,"$GPGGA,095112.60,6326.46981551,N,01025.19048039,E,4,18,0.6,2.918,M,40.935,M,0.6,0415*45"
2025/04/11 11:51:12.631156416,1744365072,630877434,hemisphere,"$GPRMC,095112.60,A,6326.46981551,N,01025.19048039,E,0.01,90.64,110425,4.7,E,D,S*77"
2025/04/11 11:51:12.654633833,1744365072,654413899,hemisphere,"$GPHDT,7.353,T*37"
2025/04/11 11:51:12.671627525,1744365072,671423345,hemisphere,"$GPGGA,095112.65,6326.46981526,N,01025.19048116,E,4,18,0.6,2.917,M,40.935,M,0.6,0415*43"
2025/04/11 11:51:12.681385869,1744365072,678773429,hemisphere,"$GPRMC,095112.65,A,6326.46981526,N,01025.19048116,E,0.01,17.83,110425,4.7,E,D,S*78"
2025/04/11 11:51:12.705023473,1744365072,704818333,hemisphere,"$GPHDT,7.350,T*34"
2025/04/11 11:51:12.722011910,1744365072,721858560,hemisphere,"$GPGGA,095112.70,6326.46981568,N,01025.19048170,E,4,18,0.6,2.916,M,40.935,M,0.7,0415*4D"
2025/04/11 11:51:12.729283777,1744365072,729011294,hemisphere,"$GPRMC,095112.70,A,6326.46981568,N,01025.19048170,E,0.01,22.35,110425,4.7,E,D,S*7D"
2025/04/11 11:51:12.754791498,1744365072,754592020,hemisphere,"$GPHDT,7.348,T*3D"
2025/04/11 11:51:12.771703726,1744365072,771538420,hemisphere,"$GPGGA,095112.75,6326.46981560,N,01025.19048123,E,4,18,0.6,2.915,M,40.935,M,0.7,0415*45"
2025/04/11 11:51:12.779058342,1744365072,778793572,hemisphere,"$GPRMC,095112.75,A,6326.46981560,N,01025.19048123,E,0.01,135.76,110425,4.7,E,D,S*46"
2025/04/11 11:51:12.804395569,1744365072,804232345,hemisphere,"$GPHDT,7.342,T*37"
2025/04/11 11:51:12.821462771,1744365072,821271803,hemisphere,"$GPGGA,095112.80,6326.46981570,N,01025.19048285,E,4,18,0.6,2.915,M,40.935,M,0.8,0415*4E"
2025/04/11 11:51:12.828677947,1744365072,828427025,hemisphere,"$GPRMC,095112.80,A,6326.46981570,N,01025.19048285,E,0.02,75.47,110425,4.7,E,D,S*76"
2025/04/11 11:51:12.854798630,1744365072,854614507,hemisphere,"$GPHDT,7.340,T*35"
2025/04/11 11:51:12.871643291,1744365072,871372148,hemisphere,"$GPGGA,095112.85,6326.46981549,N,01025.19048479,E,4,18,0.6,2.916,M,40.935,M,0.8,0415*47"
2025/04/11 11:51:12.880207909,1744365072,879073443,hemisphere,"$GPRMC,095112.85,A,6326.46981549,N,01025.19048479,E,0.02,104.78,110425,4.7,E,D,S*47"
2025/04/11 11:51:12.904513173,1744365072,904327199,hemisphere,"$GPHDT,7.342,T*37"
2025/04/11 11:51:12.921573841,1744365072,921389000,hemisphere,"$GPGGA,095112.90,6326.46981516,N,01025.19048175,E,4,18,0.6,2.917,M,40.935,M,0.9,0415*40"
2025/04/11 11:51:12.928935124,1744365072,928607218,hemisphere,"$GPRMC,095112.90,A,6326.46981516,N,01025.19048175,E,0.01,264.26,110425,4.7,E,D,S*4D"
2025/04/11 11:51:12.956004381,1744365072,955702930,hemisphere,"$GPHDT,7.339,T*3B"
2025/04/11 11:51:12.971932163,1744365072,971753084,hemisphere,"$GPGGA,095112.95,6326.46981546,N,01025.19048492,E,4,18,0.6,2.914,M,40.935,M,0.9,0415*4F"
2025/04/11 11:51:12.979224843,1744365072,978937954,hemisphere,"$GPRMC,095112.95,A,6326.46981546,N,01025.19048492,E,0.02,92.63,110425,4.7,E,D,S*78"
2025/04/11 11:51:13.4657658,1744365073,4459196,hemisphere,"$GPHDT,7.335,T*37"
2025/04/11 11:51:13.22035131,1744365073,21760577,hemisphere,"$GPGGA,095113.00,6326.46981581,N,01025.19048536,E,4,18,0.6,2.917,M,40.935,M,1.0,0415*4D"
2025/04/11 11:51:13.31783114,1744365073,31492718,hemisphere,"$GPRMC,095113.00,A,6326.46981581,N,01025.19048536,E,0.02,341.79,110425,4.7,E,D,S*47"
2025/04/11 11:51:13.54383246,1744365073,54198484,hemisphere,"$GPHDT,7.335,T*37"
2025/04/11 11:51:13.72712811,1744365073,72277778,hemisphere,"$GPGGA,095113.05,6326.46981544,N,01025.19048514,E,4,18,0.6,2.915,M,40.935,M,1.0,0415*43"
2025/04/11 11:51:13.80273926,1744365073,80109278,hemisphere,"$GPRMC,095113.05,A,6326.46981544,N,01025.19048514,E,0.02,161.55,110425,4.7,E,D,S*45"
2025/04/11 11:51:13.104832363,1744365073,104587022,hemisphere,"$GPHDT,7.329,T*3A"
2025/04/11 11:51:13.123286988,1744365073,123022675,hemisphere,"$GPGGA,095113.10,6326.46981538,N,01025.19048748,E,4,18,0.6,2.914,M,40.935,M,1.1,0415*47"
2025/04/11 11:51:13.132043220,1744365073,130664975,hemisphere,"$GPRMC,095113.10,A,6326.46981538,N,01025.19048748,E,0.02,93.41,110425,4.7,E,D,S*78"
2025/04/11 11:51:13.154586586,1744365073,154338448,hemisphere,"$GPHDT,7.327,T*34"
2025/04/11 11:51:13.172003299,1744365073,171821307,hemisphere,"$GPGGA,095113.15,6326.46981531,N,01025.19048464,E,4,18,0.6,2.914,M,40.935,M,1.1,0415*46"
2025/04/11 11:51:13.182489297,1744365073,182214146,hemisphere,"$GPRMC,095113.15,A,6326.46981531,N,01025.19048464,E,0.01,296.19,110425,4.7,E,D,S*40"
2025/04/11 11:51:13.204897454,1744365073,204706011,hemisphere,"$GPHDT,7.329,T*3A"
2025/04/11 11:51:13.221439973,1744365073,221250948,hemisphere,"$GPGGA,095113.20,6326.46981495,N,01025.19048651,E,4,18,0.6,2.915,M,40.935,M,1.2,0415*49"
2025/04/11 11:51:13.230319152,1744365073,229462112,hemisphere,"$GPRMC,095113.20,A,6326.46981495,N,01025.19048651,E,0.01,151.48,110425,4.7,E,D,S*41"
2025/04/11 11:51:13.254591553,1744365073,254418634,hemisphere,"$GPHDT,7.327,T*34"
2025/04/11 11:51:13.271647810,1744365073,271414930,hemisphere,"$GPGGA,095113.25,6326.46981602,N,01025.19048715,E,4,18,0.6,2.915,M,40.935,M,1.2,0415*41"
2025/04/11 11:51:13.279382918,1744365073,279062152,hemisphere,"$GPRMC,095113.25,A,6326.46981602,N,01025.19048715,E,0.01,14.01,110425,4.7,E,D,S*74"
2025/04/11 11:51:13.306921979,1744365073,304857093,hemisphere,"$GPHDT,7.325,T*36"
2025/04/11 11:51:13.321476443,1744365073,321296936,hemisphere,"$GPGGA,095113.30,6326.46981530,N,01025.19048619,E,4,18,0.6,2.919,M,40.935,M,1.3,0415*47"
2025/04/11 11:51:13.332619844,1744365073,331179016,hemisphere,"$GPRMC,095113.30,A,6326.46981530,N,01025.19048619,E,0.01,189.92,110425,4.7,E,D,S*40"
2025/04/11 11:51:13.358710572,1744365073,357334703,hemisphere,"$GPHDT,7.323,T*30"
2025/04/11 11:51:13.375301659,1744365073,375069667,hemisphere,"$GPGGA,095113.35,6326.46981557,N,01025.19048657,E,4,18,0.6,2.917,M,40.935,M,1.3,0415*47"
2025/04/11 11:51:13.382414849,1744365073,382251274,hemisphere,"$GPRMC,095113.35,A,6326.46981557,N,01025.19048657,E,0.01,14.94,110425,4.7,E,D,S*7D"
2025/04/11 11:51:13.404401259,1744365073,404203926,hemisphere,"$GPHDT,7.325,T*36"
2025/04/11 11:51:13.421780634,1744365073,421572301,hemisphere,"$GPGGA,095113.40,6326.46981517,N,01025.19048668,E,4,18,0.6,2.918,M,40.935,M,0.4,0415*44"
2025/04/11 11:51:13.429499164,1744365073,429173834,hemisphere,"$GPRMC,095113.40,A,6326.46981517,N,01025.19048668,E,0.01,215.10,110425,4.7,E,D,S*48"
2025/04/11 11:51:13.454846804,1744365073,454624066,hemisphere,"$GPHDT,7.326,T*35"
2025/04/11 11:51:13.472504361,1744365073,472327500,hemisphere,"$GPGGA,095113.45,6326.46981518,N,01025.19048612,E,4,18,0.6,2.921,M,40.935,M,0.4,0415*49"
2025/04/11 11:51:13.479854402,1744365073,479581072,hemisphere,"$GPRMC,095113.45,A,6326.46981518,N,01025.19048612,E,0.01,287.39,110425,4.7,E,D,S*4F"
2025/04/11 11:51:13.504575820,1744365073,504328090,hemisphere,"$GPHDT,7.321,T*32"
2025/04/11 11:51:13.522283069,1744365073,522091501,hemisphere,"$GPGGA,095113.50,6326.46981626,N,01025.19048733,E,4,18,0.6,2.916,M,40.935,M,0.5,0415*44"
2025/04/11 11:51:13.530586425,1744365073,529437473,hemisphere,"$GPRMC,095113.50,A,6326.46981626,N,01025.19048733,E,0.01,12.45,110425,4.7,E,D,S*72"
2025/04/11 11:51:13.555665222,1744365073,555467451,hemisphere,"$GPHDT,7.316,T*36"
2025/04/11 11:51:13.572270684,1744365073,572090358,hemisphere,"$GPGGA,095113.55,6326.46981637,N,01025.19048814,E,4,18,0.6,2.916,M,40.935,M,0.5,0415*4B"
2025/04/11 11:51:13.579874709,1744365073,579574868,hemisphere,"$GPRMC,095113.55,A,6326.46981637,N,01025.19048814,E,0.01,72.14,110425,4.7,E,D,S*7F"
2025/04/11 11:51:13.604907124,1744365073,604475317,hemisphere,"$GPHDT,7.316,T*36"
2025/04/11 11:51:13.622427528,1744365073,622181195,hemisphere,"$GPGGA,095113.60,6326.46981489,N,01025.19048844,E,4,18,0.6,2.921,M,40.935,M,0.6,0415*48"
2025/04/11 11:51:13.631002215,1744365073,629834679,hemisphere,"$GPRMC,095113.60,A,6326.46981489,N,01025.19048844,E,0.01,165.18,110425,4.7,E,D,S*40"
2025/04/11 11:51:13.654403382,1744365073,654145627,hemisphere,"$GPHDT,7.318,T*38"
2025/04/11 11:51:13.671689737,1744365073,671456133,hemisphere,"$GPGGA,095113.65,6326.46981550,N,01025.19048690,E,4,18,0.6,2.914,M,40.935,M,0.6,0415*49"
2025/04/11 11:51:13.679754741,1744365073,679085552,hemisphere,"$GPRMC,095113.65,A,6326.46981550,N,01025.19048690,E,0.01,300.72,110425,4.7,E,D,S*4A"
2025/04/11 11:51:13.704827952,1744365073,704667336,hemisphere,"$GPHDT,7.316,T*36"
2025/04/11 11:51:13.722070647,1744365073,721815009,hemisphere,"$GPGGA,095113.70,6326.46981622,N,01025.19048738,E,4,18,0.6,2.919,M,40.935,M,0.7,0415*44"
2025/04/11 11:51:13.729565079,1744365073,729260025,hemisphere,"$GPRMC,095113.70,A,6326.46981622,N,01025.19048738,E,0.01,7.35,110425,4.7,E,D,S*4C"
2025/04/11 11:51:13.754475131,1744365073,754281229,hemisphere,"$GPHDT,7.313,T*33"
2025/04/11 11:51:13.771638490,1744365073,771330439,hemisphere,"$GPGGA,095113.75,6326.46981574,N,01025.19048700,E,4,18,0.6,2.918,M,40.935,M,0.7,0415*4B"
2025/04/11 11:51:13.778735771,1744365073,778460893,hemisphere,"$GPRMC,095113.75,A,6326.46981574,N,01025.19048700,E,0.01,160.86,110425,4.7,E,D,S*4A"
2025/04/11 11:51:13.804948108,1744365073,804748002,hemisphere,"$GPHDT,7.310,T*30"
2025/04/11 11:51:13.822348175,1744365073,822117530,hemisphere,"$GPGGA,095113.80,6326.46981651,N,01025.19048819,E,4,18,0.6,2.920,M,40.935,M,0.8,0415*46"
2025/04/11 11:51:13.831251200,1744365073,829587341,hemisphere,"$GPRMC,095113.80,A,6326.46981651,N,01025.19048819,E,0.01,353.24,110425,4.7,E,D,S*49"
2025/04/11 11:51:13.854703685,1744365073,854419912,hemisphere,"$GPHDT,7.308,T*39"
2025/04/11 11:51:13.871627551,1744365073,871273441,hemisphere,"$GPGGA,095113.85,6326.46981660,N,01025.19048875,E,4,18,0.6,2.917,M,40.935,M,0.8,0415*4F"
2025/04/11 11:51:13.878798344,1744365073,878365261,hemisphere,"$GPRMC,095113.85,A,6326.46981660,N,01025.19048875,E,0.01,107.36,110425,4.7,E,D,S*44"
2025/04/11 11:51:13.905124511,1744365073,904851628,hemisphere,"$GPHDT,7.310,T*30"
2025/04/11 11:51:13.922709285,1744365073,922493662,hemisphere,"$GPGGA,095113.90,6326.46981548,N,01025.19048741,E,4,18,0.6,2.920,M,40.935,M,0.9,0415*4F"
2025/04/11 11:51:13.930012483,1744365073,929752075,hemisphere,"$GPRMC,095113.90,A,6326.46981548,N,01025.19048741,E,0.00,248.96,110425,4.7,E,D,S*42"
2025/04/11 11:51:13.955346889,1744365073,954561016,hemisphere,"$GPHDT,7.311,T*31"
2025/04/11 11:51:13.972520700,1744365073,972267143,hemisphere,"$GPGGA,095113.95,6326.46981573,N,01025.19048653,E,4,18,0.6,2.920,M,40.935,M,0.9,0415*40"
2025/04/11 11:51:13.979716523,1744365073,979409751,hemisphere,"$GPRMC,095113.95,A,6326.46981573,N,01025.19048653,E,0.00,150.85,110425,4.7,E,D,S*45"
2025/04/11 11:51:14.4455600,1744365074,4239611,hemisphere,"$GPHDT,7.310,T*30"
2025/04/11 11:51:14.21948372,1744365074,21735280,hemisphere,"$GPGGA,095114.00,6326.46981666,N,01025.19048770,E,4,18,0.6,2.916,M,40.935,M,1.0,0415*41"
2025/04/11 11:51:14.29255660,1744365074,29093013,hemisphere,"$GPRMC,095114.00,A,6326.46981666,N,01025.19048770,E,0.01,15.18,110425,4.7,E,D,S*7C"
2025/04/11 11:51:14.54973416,1744365074,54744424,hemisphere,"$GPHDT,7.309,T*38"
2025/04/11 11:51:14.72731078,1744365074,72362374,hemisphere,"$GPGGA,095114.05,6326.46981710,N,01025.19048738,E,4,18,0.6,2.916,M,40.935,M,1.0,0415*48"
2025/04/11 11:51:14.80230937,1744365074,79597917,hemisphere,"$GPRMC,095114.05,A,6326.46981710,N,01025.19048738,E,0.01,311.56,110425,4.7,E,D,S*48"
2025/04/11 11:51:14.104659115,1744365074,104316847,hemisphere,"$GPHDT,7.310,T*30"
2025/04/11 11:51:14.123246531,1744365074,123062278,hemisphere,"$GPGGA,095114.10,6326.46981568,N,01025.19048922,E,4,18,0.6,2.920,M,40.935,M,1.1,0415*40"
2025/04/11 11:51:14.133554316,1744365074,133346567,hemisphere,"$GPRMC,095114.10,A,6326.46981568,N,01025.19048922,E,0.01,135.93,110425,4.7,E,D,S*49"
2025/04/11 11:51:14.155028886,1744365074,154783698,hemisphere,"$GPHDT,7.308,T*39"
2025/04/11 11:51:14.172501788,1744365074,172268046,hemisphere,"$GPGGA,095114.15,6326.46981677,N,01025.19048792,E,4,18,0.6,2.917,M,40.935,M,1.1,0415*49"
2025/04/11 11:51:14.180900604,1744365074,179937006,hemisphere,"$GPRMC,095114.15,A,6326.46981677,N,01025.19048792,E,0.01,326.37,110425,4.7,E,D,S*4A"
2025/04/11 11:51:14.204633142,1744365074,204445216,hemisphere,"$GPHDT,7.312,T*32"
2025/04/11 11:51:14.221998625,1744365074,221687600,hemisphere,"$GPGGA,095114.20,6326.46981594,N,01025.19048715,E,4,18,0.6,2.918,M,40.935,M,1.2,0415*42"
2025/04/11 11:51:14.230782853,1744365074,229495035,hemisphere,"$GPRMC,095114.20,A,6326.46981594,N,01025.19048715,E,0.00,200.07,110425,4.7,E,D,S*4A"
2025/04/11 11:51:14.254604800,1744365074,254211659,hemisphere,"$GPHDT,7.310,T*30"
2025/04/11 11:51:14.272340684,1744365074,271910980,hemisphere,"$GPGGA,095114.25,6326.46981628,N,01025.19048808,E,4,18,0.6,2.916,M,40.935,M,1.2,0415*4E"
2025/04/11 11:51:14.279865206,1744365074,279233878,hemisphere,"$GPRMC,095114.25,A,6326.46981628,N,01025.19048808,E,0.00,45.83,110425,4.7,E,D,S*77"
2025/04/11 11:51:14.304908558,1744365074,304645445,hemisphere,"$GPHDT,7.309,T*38"
2025/04/11 11:51:14.322107940,1744365074,321808438,hemisphere,"$GPGGA,095114.30,6326.46981623,N,01025.19048746,E,4,18,0.6,2.916,M,40.935,M,1.3,0415*45"
2025/04/11 11:51:14.330437664,1744365074,329621699,hemisphere,"$GPRMC,095114.30,A,6326.46981623,N,01025.19048746,E,0.00,276.21,110425,4.7,E,D,S*47"
2025/04/11 11:51:14.355232004,1744365074,354353547,hemisphere,"$GPHDT,7.310,T*30"
2025/04/11 11:51:14.374995430,1744365074,374807716,hemisphere,"$GPGGA,095114.35,6326.46981665,N,01025.19048765,E,4,18,0.6,2.918,M,40.935,M,1.3,0415*4D"
2025/04/11 11:51:14.382410201,1744365074,382087409,hemisphere,"$GPRMC,095114.35,A,6326.46981665,N,01025.19048765,E,0.01,123.65,110425,4.7,E,D,S*43"
2025/04/11 11:51:14.404896663,1744365074,404668714,hemisphere,"$GPHDT,7.312,T*32"
2025/04/11 11:51:14.422617620,1744365074,422372700,hemisphere,"$GPGGA,095114.40,6326.46981624,N,01025.19048633,E,4,18,0.6,2.917,M,40.935,M,0.4,0415*41"
2025/04/11 11:51:14.429906243,1744365074,429625558,hemisphere,"$GPRMC,095114.40,A,6326.46981624,N,01025.19048633,E,0.00,281.33,110425,4.7,E,D,S*4F"
2025/04/11 11:51:14.454638991,1744365074,454382863,hemisphere,"$GPHDT,7.312,T*32"
2025/04/11 11:51:14.471786459,1744365074,471603932,hemisphere,"$GPGGA,095114.45,6326.46981649,N,01025.19048643,E,4,18,0.6,2.918,M,40.935,M,0.4,0415*47"
2025/04/11 11:51:14.479514514,1744365074,479297127,hemisphere,"$GPRMC,095114.45,A,6326.46981649,N,01025.19048643,E,0.00,315.10,110425,4.7,E,D,S*4B"
2025/04/11 11:51:14.505013919,1744365074,504792815,hemisphere,"$GPHDT,7.314,T*34"
2025/04/11 11:51:14.522341964,1744365074,522026861,hemisphere,"$GPGGA,095114.50,6326.46981631,N,01025.19048679,E,4,18,0.6,2.919,M,40.935,M,0.5,0415*45"
2025/04/11 11:51:14.532303308,1744365074,529814478,hemisphere,"$GPRMC,095114.50,A,6326.46981631,N,01025.19048679,E,0.00,136.51,110425,4.7,E,D,S*4F"
2025/04/11 11:51:14.554805778,1744365074,554548142,hemisphere,"$GPHDT,7.312,T*32"
2025/04/11 11:51:14.571406402,1744365074,571032016,hemisphere,"$GPGGA,095114.55,6326.46981783,N,01025.19048513,E,4,18,0.6,2.919,M,40.935,M,0.5,0415*47"
2025/04/11 11:51:14.578899948,1744365074,578662252,hemisphere,"$GPRMC,095114.55,A,6326.46981783,N,01025.19048513,E,0.01,332.94,110425,4.7,E,D,S*43"
2025/04/11 11:51:14.604412860,1744365074,604169773,hemisphere,"$GPHDT,7.311,T*31"
2025/04/11 11:51:14.620876326,1744365074,620641757,hemisphere,"$GPGGA,095114.60,6326.46981657,N,01025.19048577,E,4,18,0.6,2.925,M,40.935,M,0.6,0415*47"
2025/04/11 11:51:14.629236830,1744365074,628430893,hemisphere,"$GPRMC,095114.60,A,6326.46981657,N,01025.19048577,E,0.00,147.48,110425,4.7,E,D,S*4F"
2025/04/11 11:51:14.654809966,1744365074,654609270,hemisphere,"$GPHDT,7.306,T*37"
2025/04/11 11:51:14.671451483,1744365074,671167003,hemisphere,"$GPGGA,095114.65,6326.46981780,N,01025.19048533,E,4,18,0.6,2.919,M,40.935,M,0.6,0415*46"
2025/04/11 11:51:14.679010896,1744365074,678771277,hemisphere,"$GPRMC,095114.65,A,6326.46981780,N,01025.19048533,E,0.01,333.80,110425,4.7,E,D,S*45"
2025/04/11 11:51:14.704550554,1744365074,704308791,hemisphere,"$GPHDT,7.301,T*30"
2025/04/11 11:51:14.721653934,1744365074,721327790,hemisphere,"$GPGGA,095114.70,6326.46981719,N,01025.19048453,E,4,18,0.6,2.924,M,40.935,M,0.7,0415*4A"
2025/04/11 11:51:14.728991693,1744365074,728589966,hemisphere,"$GPRMC,095114.70,A,6326.46981719,N,01025.19048453,E,0.00,213.22,110425,4.7,E,D,S*4C"
2025/04/11 11:51:14.754941091,1744365074,754741568,hemisphere,"$GPHDT,7.293,T*3A"
2025/04/11 11:51:14.771966476,1744365074,771731220,hemisphere,"$GPGGA,095114.75,6326.46981793,N,01025.19048315,E,4,18,0.6,2.921,M,40.935,M,0.7,0415*4D"
2025/04/11 11:51:14.779138171,1744365074,778951534,hemisphere,"$GPRMC,095114.75,A,6326.46981793,N,01025.19048315,E,0.01,331.80,110425,4.7,E,D,S*46"
2025/04/11 11:51:14.804624980,1744365074,804414117,hemisphere,"$GPHDT,7.281,T*39"
2025/04/11 11:51:14.821720010,1744365074,821440990,hemisphere,"$GPGGA,095114.80,6326.46981886,N,01025.19048421,E,4,18,0.6,2.921,M,40.935,M,0.8,0415*43"
2025/04/11 11:51:14.829601385,1744365074,828866365,hemisphere,"$GPRMC,095114.80,A,6326.46981886,N,01025.19048421,E,0.01,64.72,110425,4.7,E,D,S*79"
2025/04/11 11:51:14.855318892,1744365074,854834513,hemisphere,"$GPHDT,7.263,T*35"
2025/04/11 11:51:14.872093424,1744365074,871872150,hemisphere,"$GPGGA,095114.85,6326.46981932,N,01025.19048517,E,4,18,0.6,2.922,M,40.935,M,0.8,0415*4F"
2025/04/11 11:51:14.879280613,1744365074,878999537,hemisphere,"$GPRMC,095114.85,A,6326.46981932,N,01025.19048517,E,0.01,21.59,110425,4.7,E,D,S*7E"
2025/04/11 11:51:14.904873651,1744365074,904572060,hemisphere,"$GPHDT,7.246,T*32"
2025/04/11 11:51:14.922515833,1744365074,922257232,hemisphere,"$GPGGA,095114.90,6326.46981893,N,01025.19048428,E,4,18,0.6,2.922,M,40.935,M,0.9,0415*4D"
2025/04/11 11:51:14.929741674,1744365074,929455390,hemisphere,"$GPRMC,095114.90,A,6326.46981893,N,01025.19048428,E,0.01,221.21,110425,4.7,E,D,S*40"
2025/04/11 11:51:14.954473723,1744365074,954234790,hemisphere,"$GPHDT,7.222,T*30"
2025/04/11 11:51:14.971020798,1744365074,970760801,hemisphere,"$GPGGA,095114.95,6326.46982022,N,01025.19048472,E,4,18,0.6,2.919,M,40.935,M,0.9,0415*4E"
2025/04/11 11:51:14.978585128,1744365074,978295131,hemisphere,"$GPRMC,095114.95,A,6326.46982022,N,01025.19048472,E,0.02,11.86,110425,4.7,E,D,S*74"
2025/04/11 11:51:15.4985570,1744365075,4679766,hemisphere,"$GPHDT,7.198,T*32"
2025/04/11 11:51:15.22131791,1744365075,21914222,hemisphere,"$GPGGA,095115.00,6326.46982044,N,01025.19048481,E,4,18,0.6,2.922,M,40.935,M,1.0,0415*4F"
2025/04/11 11:51:15.29884915,1744365075,29640495,hemisphere,"$GPRMC,095115.00,A,6326.46982044,N,01025.19048481,E,0.02,357.07,110425,4.7,E,D,S*4D"
2025/04/11 11:51:15.54549650,1744365075,54366304,hemisphere,"$GPHDT,7.170,T*34"
2025/04/11 11:51:15.72280976,1744365075,72078779,hemisphere,"$GPGGA,095115.05,6326.46982174,N,01025.19048404,E,4,18,0.6,2.923,M,40.935,M,1.0,0415*44"
2025/04/11 11:51:15.79579129,1744365075,79317365,hemisphere,"$GPRMC,095115.05,A,6326.46982174,N,01025.19048404,E,0.03,325.71,110425,4.7,E,D,S*42"
2025/04/11 11:51:15.105137980,1744365075,104763963,hemisphere,"$GPHDT,7.137,T*37"
2025/04/11 11:51:15.123375236,1744365075,123090418,hemisphere,"$GPGGA,095115.10,6326.46982233,N,01025.19048413,E,4,18,0.6,2.924,M,40.935,M,1.1,0415*40"
2025/04/11 11:51:15.132270084,1744365075,130611733,hemisphere,"$GPRMC,095115.10,A,6326.46982233,N,01025.19048413,E,0.03,36.47,110425,4.7,E,D,S*74"
2025/04/11 11:51:15.154912450,1744365075,154485545,hemisphere,"$GPHDT,7.101,T*32"
2025/04/11 11:51:15.171964501,1744365075,171665648,hemisphere,"$GPGGA,095115.15,6326.46982385,N,01025.19048633,E,4,18,0.6,2.923,M,40.935,M,1.1,0415*4E"
2025/04/11 11:51:15.179896195,1744365075,179317441,hemisphere,"$GPRMC,095115.15,A,6326.46982385,N,01025.19048633,E,0.03,34.33,110425,4.7,E,D,S*7C"
2025/04/11 11:51:15.204431801,1744365075,204170957,hemisphere,"$GPHDT,7.058,T*3F"
2025/04/11 11:51:15.221448867,1744365075,221213363,hemisphere,"$GPGGA,095115.20,6326.46982496,N,01025.19048664,E,4,18,0.6,2.922,M,40.935,M,1.2,0415*4D"
2025/04/11 11:51:15.228571010,1744365075,228330326,hemisphere,"$GPRMC,095115.20,A,6326.46982496,N,01025.19048664,E,0.04,12.94,110425,4.7,E,D,S*73"
2025/04/11 11:51:15.254871786,1744365075,254603523,hemisphere,"$GPHDT,7.015,T*36"
2025/04/11 11:51:15.272003032,1744365075,271608952,hemisphere,"$GPGGA,095115.25,6326.46982564,N,01025.19048777,E,4,18,0.6,2.925,M,40.935,M,1.2,0415*40"
2025/04/11 11:51:15.278942619,1744365075,278745031,hemisphere,"$GPRMC,095115.25,A,6326.46982564,N,01025.19048777,E,0.04,69.78,110425,4.7,E,D,S*77"
2025/04/11 11:51:15.304603670,1744365075,304301460,hemisphere,"$GPHDT,6.966,T*3A"
2025/04/11 11:51:15.321210869,1744365075,320926555,hemisphere,"$GPGGA,095115.30,6326.46982788,N,01025.19048939,E,4,18,0.6,2.924,M,40.935,M,1.3,0415*40"
2025/04/11 11:51:15.329236132,1744365075,328922216,hemisphere,"$GPRMC,095115.30,A,6326.46982788,N,01025.19048939,E,0.05,18.50,110425,4.7,E,D,S*7A"
2025/04/11 11:51:15.355620807,1744365075,354831172,hemisphere,"$GPHDT,6.916,T*3D"
2025/04/11 11:51:15.375515644,1744365075,375257539,hemisphere,"$GPGGA,095115.35,6326.46982885,N,01025.19049223,E,4,18,0.6,2.923,M,40.935,M,1.3,0415*41"
2025/04/11 11:51:15.383738765,1744365075,382687004,hemisphere,"$GPRMC,095115.35,A,6326.46982885,N,01025.19049223,E,0.06,26.82,110425,4.7,E,D,S*7D"
2025/04/11 11:51:15.404675307,1744365075,404420766,hemisphere,"$GPHDT,6.861,T*3C"
2025/04/11 11:51:15.421824212,1744365075,421598889,hemisphere,"$GPGGA,095115.40,6326.46983079,N,01025.19049222,E,4,18,0.6,2.926,M,40.935,M,0.4,0415*4B"
2025/04/11 11:51:15.430145196,1744365075,429210021,hemisphere,"$GPRMC,095115.40,A,6326.46983079,N,01025.19049222,E,0.07,32.81,110425,4.7,E,D,S*73"
2025/04/11 11:51:15.454311608,1744365075,454129200,hemisphere,"$GPHDT,6.803,T*38"
2025/04/11 11:51:15.472151774,1744365075,471900320,hemisphere,"$GPGGA,095115.45,6326.46983232,N,01025.19049641,E,4,18,0.6,2.921,M,40.935,M,0.4,0415*45"
2025/04/11 11:51:15.479256970,1744365075,478961175,hemisphere,"$GPRMC,095115.45,A,6326.46983232,N,01025.19049641,E,0.08,28.80,110425,4.7,E,D,S*7F"
2025/04/11 11:51:15.509343883,1744365075,504580571,hemisphere,"$GPHDT,6.747,T*37"
2025/04/11 11:51:15.522514726,1744365075,522242423,hemisphere,"$GPGGA,095115.50,6326.46983429,N,01025.19049869,E,4,18,0.6,2.927,M,40.935,M,0.5,0415*4E"
2025/04/11 11:51:15.529593581,1744365075,529365837,hemisphere,"$GPRMC,095115.50,A,6326.46983429,N,01025.19049869,E,0.08,47.93,110425,4.7,E,D,S*78"
2025/04/11 11:51:15.554454253,1744365075,554248495,hemisphere,"$GPHDT,6.683,T*3E"
2025/04/11 11:51:15.572667655,1744365075,571603155,hemisphere,"$GPGGA,095115.55,6326.46983701,N,01025.19050226,E,4,18,0.6,2.922,M,40.935,M,0.5,0415*4E"
2025/04/11 11:51:15.579402753,1744365075,579125944,hemisphere,"$GPRMC,095115.55,A,6326.46983701,N,01025.19050226,E,0.10,30.94,110425,4.7,E,D,S*73"
2025/04/11 11:51:15.604918934,1744365075,604684726,hemisphere,"$GPHDT,6.622,T*35"
2025/04/11 11:51:15.621947803,1744365075,621789889,hemisphere,"$GPGGA,095115.60,6326.46983959,N,01025.19050610,E,4,18,0.6,2.922,M,40.935,M,0.6,0415*49"
2025/04/11 11:51:15.629711490,1744365075,629465461,hemisphere,"$GPRMC,095115.60,A,6326.46983959,N,01025.19050610,E,0.11,25.88,110425,4.7,E,D,S*7F"
2025/04/11 11:51:15.654711499,1744365075,654389166,hemisphere,"$GPHDT,6.556,T*35"
2025/04/11 11:51:15.672359674,1744365075,672077553,hemisphere,"$GPGGA,095115.65,6326.46984185,N,01025.19051080,E,4,18,0.6,2.925,M,40.935,M,0.6,0415*4B"
2025/04/11 11:51:15.679529445,1744365075,679186248,hemisphere,"$GPRMC,095115.65,A,6326.46984185,N,01025.19051080,E,0.12,45.75,110425,4.7,E,D,S*7D"
2025/04/11 11:51:15.705108523,1744365075,704764490,hemisphere,"$GPHDT,6.487,T*38"
2025/04/11 11:51:15.721431575,1744365075,721190576,hemisphere,"$GPGGA,095115.70,6326.46984459,N,01025.19051452,E,4,18,0.6,2.921,M,40.935,M,0.7,0415*45"
2025/04/11 11:51:15.729321379,1744365075,728963877,hemisphere,"$GPRMC,095115.70,A,6326.46984459,N,01025.19051452,E,0.13,35.45,110425,4.7,E,D,S*73"
2025/04/11 11:51:15.754696630,1744365075,754473159,hemisphere,"$GPHDT,6.421,T*34"
2025/04/11 11:51:15.771777687,1744365075,771524247,hemisphere,"$GPGGA,095115.75,6326.46984706,N,01025.19052076,E,4,18,0.6,2.922,M,40.935,M,0.7,0415*4B"
2025/04/11 11:51:15.778868498,1744365075,778595731,hemisphere,"$GPRMC,095115.75,A,6326.46984706,N,01025.19052076,E,0.14,42.45,110425,4.7,E,D,S*79"
2025/04/11 11:51:15.804367063,1744365075,804170784,hemisphere,"$GPHDT,6.350,T*35"
2025/04/11 11:51:15.821639316,1744365075,821380887,hemisphere,"$GPGGA,095115.80,6326.46985067,N,01025.19052595,E,4,18,0.6,2.923,M,40.935,M,0.8,0415*46"
2025/04/11 11:51:15.829224522,1744365075,828971823,hemisphere,"$GPRMC,095115.80,A,6326.46985067,N,01025.19052595,E,0.16,42.65,110425,4.7,E,D,S*7A"
2025/04/11 11:51:15.854944385,1744365075,854568304,hemisphere,"$GPHDT,6.276,T*30"
2025/04/11 11:51:15.872544662,1744365075,872318620,hemisphere,"$GPGGA,095115.85,6326.46985337,N,01025.19053134,E,4,18,0.6,2.922,M,40.935,M,0.8,0415*4A"
2025/04/11 11:51:15.879739953,1744365075,879432904,hemisphere,"$GPRMC,095115.85,A,6326.46985337,N,01025.19053134,E,0.17,36.27,110425,4.7,E,D,S*73"
2025/04/11 11:51:15.904534230,1744365075,904319088,hemisphere,"$GPHDT,6.205,T*34"
2025/04/11 11:51:15.922218504,1744365075,922041610,hemisphere,"$GPGGA,095115.90,6326.46985636,N,01025.19053623,E,4,18,0.6,2.917,M,40.935,M,0.9,0415*4C"
2025/04/11 11:51:15.929328543,1744365075,929130709,hemisphere,"$GPRMC,095115.90,A,6326.46985636,N,01025.19053623,E,0.18,30.91,110425,4.7,E,D,S*76"
2025/04/11 11:51:15.955367426,1744365075,955023317,hemisphere,"$GPHDT,6.131,T*30"
2025/04/11 11:51:15.972664764,1744365075,972417303,hemisphere,"$GPGGA,095115.95,6326.46985951,N,01025.19054236,E,4,18,0.6,2.921,M,40.935,M,0.9,0415*45"
2025/04/11 11:51:15.979897299,1744365075,979646982,hemisphere,"$GPRMC,095115.95,A,6326.46985951,N,01025.19054236,E,0.19,46.64,110425,4.7,E,D,S*70"
2025/04/11 11:51:16.4912755,1744365076,4494254,hemisphere,"$GPHDT,6.049,T*3E"
2025/04/11 11:51:16.24533635,1744365076,24121230,hemisphere,"$GPGGA,095116.00,6326.46986364,N,01025.19055069,E,4,18,0.6,2.920,M,40.935,M,1.0,0415*45"
2025/04/11 11:51:16.29602643,1744365076,29359025,hemisphere,"$GPRMC,095116.00,A,6326.46986364,N,01025.19055069,E,0.21,36.68,110425,4.7,E,D,S*79"
2025/04/11 11:51:16.61973673,1744365076,61653714,hemisphere,"$GPHDT,5.964,T*3B"
2025/04/11 11:51:16.74364287,1744365076,72689347,hemisphere,"$GPGGA,095116.05,6326.46986695,N,01025.19055597,E,4,18,0.6,2.920,M,40.935,M,1.0,0415*4F"
2025/04/11 11:51:16.80654005,1744365076,80321347,hemisphere,"$GPRMC,095116.05,A,6326.46986695,N,01025.19055597,E,0.23,38.03,110425,4.7,E,D,S*72"
2025/04/11 11:51:16.107489302,1744365076,105795257,hemisphere,"$GPHDT,5.880,T*30"
2025/04/11 11:51:16.123205031,1744365076,122933355,hemisphere,"$GPGGA,095116.10,6326.46987084,N,01025.19056293,E,4,18,0.6,2.918,M,40.935,M,1.1,0415*46"
2025/04/11 11:51:16.130288509,1744365076,130054320,hemisphere,"$GPRMC,095116.10,A,6326.46987084,N,01025.19056293,E,0.24,43.16,110425,4.7,E,D,S*7E"
2025/04/11 11:51:16.154449932,1744365076,154231067,hemisphere,"$GPHDT,5.792,T*3C"
2025/04/11 11:51:16.172034785,1744365076,171624877,hemisphere,"$GPGGA,095116.15,6326.46987490,N,01025.19057150,E,4,18,0.6,2.919,M,40.935,M,1.1,0415*4E"
2025/04/11 11:51:16.180351213,1744365076,179560199,hemisphere,"$GPRMC,095116.15,A,6326.46987490,N,01025.19057150,E,0.25,39.29,110425,4.7,E,D,S*77"
2025/04/11 11:51:16.206117913,1744365076,205419778,hemisphere,"$GPHDT,5.708,T*3F"
2025/04/11 11:51:16.222886888,1744365076,222346428,hemisphere,"$GPGGA,095116.20,6326.46987788,N,01025.19057647,E,4,18,0.6,2.920,M,40.935,M,1.2,0415*4A"
2025/04/11 11:51:16.229770746,1744365076,229494214,hemisphere,"$GPRMC,095116.20,A,6326.46987788,N,01025.19057647,E,0.26,35.01,110425,4.7,E,D,S*7F"
2025/04/11 11:51:16.254581577,1744365076,254327593,hemisphere,"$GPHDT,5.619,T*3E"
2025/04/11 11:51:16.272336477,1744365076,272047532,hemisphere,"$GPGGA,095116.25,6326.46988317,N,01025.19058401,E,4,18,0.6,2.918,M,40.935,M,1.2,0415*46"
2025/04/11 11:51:16.280509054,1744365076,279836584,hemisphere,"$GPRMC,095116.25,A,6326.46988317,N,01025.19058401,E,0.27,33.27,110425,4.7,E,D,S*7B"
2025/04/11 11:51:16.308634159,1744365076,304827707,hemisphere,"$GPHDT,5.533,T*35"
2025/04/11 11:51:16.322979024,1744365076,322751089,hemisphere,"$GPGGA,095116.30,6326.46988769,N,01025.19059029,E,4,18,0.6,2.919,M,40.935,M,1.3,0415*40"
2025/04/11 11:51:16.329810848,1744365076,329548684,hemisphere,"$GPRMC,095116.30,A,6326.46988769,N,01025.19059029,E,0.28,34.33,110425,4.7,E,D,S*70"
2025/04/11 11:51:16.355421959,1744365076,354687247,hemisphere,"$GPHDT,5.446,T*36"
2025/04/11 11:51:16.375352742,1744365076,375013910,hemisphere,"$GPGGA,095116.35,6326.46989200,N,01025.19059787,E,4,18,0.6,2.916,M,40.935,M,1.3,0415*42"
2025/04/11 11:51:16.383347059,1744365076,382734991,hemisphere,"$GPRMC,095116.35,A,6326.46989200,N,01025.19059787,E,0.29,33.76,110425,4.7,E,D,S*7A"
2025/04/11 11:51:16.404493740,1744365076,404150818,hemisphere,"$GPHDT,5.362,T*37"
2025/04/11 11:51:16.423716539,1744365076,423507285,hemisphere,"$GPGGA,095116.40,6326.46989665,N,01025.19060409,E,4,18,0.6,2.922,M,40.935,M,0.4,0415*49"
2025/04/11 11:51:16.429322955,1744365076,429054957,hemisphere,"$GPRMC,095116.40,A,6326.46989665,N,01025.19060409,E,0.30,27.47,110425,4.7,E,D,S*7F"
2025/04/11 11:51:16.454764991,1744365076,454563910,hemisphere,"$GPHDT,5.274,T*31"
2025/04/11 11:51:16.471935531,1744365076,471736719,hemisphere,"$GPGGA,095116.45,6326.46990223,N,01025.19060948,E,4,18,0.6,2.918,M,40.935,M,0.4,0415*43"
2025/04/11 11:51:16.480144621,1744365076,479655418,hemisphere,"$GPRMC,095116.45,A,6326.46990223,N,01025.19060948,E,0.31,22.21,110425,4.7,E,D,S*78"
2025/04/11 11:51:16.504543226,1744365076,504287172,hemisphere,"$GPHDT,5.184,T*3D"
2025/04/11 11:51:16.522586403,1744365076,522007678,hemisphere,"$GPGGA,095116.50,6326.46990703,N,01025.19061577,E,4,18,0.6,2.924,M,40.935,M,0.5,0415*4F"
2025/04/11 11:51:16.529343406,1744365076,529133521,hemisphere,"$GPRMC,095116.50,A,6326.46990703,N,01025.19061577,E,0.32,29.95,110425,4.7,E,D,S*7D"
2025/04/11 11:51:16.554937561,1744365076,554715406,hemisphere,"$GPHDT,5.093,T*3A"
2025/04/11 11:51:16.572981438,1744365076,572610740,hemisphere,"$GPGGA,095116.55,6326.46991270,N,01025.19061903,E,4,18,0.6,2.918,M,40.935,M,0.5,0415*4A"
2025/04/11 11:51:16.579867829,1744365076,579125129,hemisphere,"$GPRMC,095116.55,A,6326.46991270,N,01025.19061903,E,0.33,23.81,110425,4.7,E,D,S*79"
2025/04/11 11:51:16.605484445,1744365076,604405528,hemisphere,"$GPHDT,4.994,T*35"
2025/04/11 11:51:16.621670116,1744365076,621425257,hemisphere,"$GPGGA,095116.60,6326.46991718,N,01025.19062621,E,4,18,0.6,2.920,M,40.935,M,0.6,0415*43"
2025/04/11 11:51:16.628852927,1744365076,628552956,hemisphere,"$GPRMC,095116.60,A,6326.46991718,N,01025.19062621,E,0.34,34.70,110425,4.7,E,D,S*77"
2025/04/11 11:51:16.655023337,1744365076,654822834,hemisphere,"$GPHDT,4.898,T*38"
2025/04/11 11:51:16.672006019,1744365076,671827320,hemisphere,"$GPGGA,095116.65,6326.46992234,N,01025.19063055,E,4,18,0.6,2.920,M,40.935,M,0.6,0415*4A"
2025/04/11 11:51:16.679119676,1744365076,678925693,hemisphere,"$GPRMC,095116.65,A,6326.46992234,N,01025.19063055,E,0.34,23.63,110425,4.7,E,D,S*7A"
2025/04/11 11:51:16.705231907,1744365076,704490732,hemisphere,"$GPHDT,4.799,T*36"
2025/04/11 11:51:16.721224516,1744365076,721050759,hemisphere,"$GPGGA,095116.70,6326.46992733,N,01025.19063689,E,4,18,0.6,2.920,M,40.935,M,0.7,0415*4A"
2025/04/11 11:51:16.728770242,1744365076,728589328,hemisphere,"$GPRMC,095116.70,A,6326.46992733,N,01025.19063689,E,0.34,28.07,110425,4.7,E,D,S*72"
2025/04/11 11:51:16.754491886,1744365076,754288749,hemisphere,"$GPHDT,4.695,T*3B"
2025/04/11 11:51:16.771410451,1744365076,771209675,hemisphere,"$GPGGA,095116.75,6326.46993113,N,01025.19063920,E,4,18,0.6,2.919,M,40.935,M,0.7,0415*4C"
