time,header_stamp_secs,header_stamp_nsecs,header_frame_id,quaternion_x,quaternion_y,quaternion_z,quaternion_w
2025/04/11 11:51:09.105257281,1744365069,104707072,hemisphere,0.0,0.0,0.06370498279461588,0.9979687746453482
2025/04/11 11:51:09.195958918,1744365069,154801624,hemisphere,0.0,0.0,0.06373110953420603,0.9979671065108003
2025/04/11 11:51:09.207381257,1744365069,205627677,hemisphere,0.0,0.0,0.06373110953420603,0.9979671065108003
2025/04/11 11:51:09.256123923,1744365069,255692175,hemisphere,0.0,0.0,0.06373981843769681,0.9979665503139519
2025/04/11 11:51:09.306521868,1744365069,304635257,hemisphere,0.0,0.0,0.06372240062586185,0.9979676626316493
2025/04/11 11:51:09.355516747,1744365069,354993866,hemisphere,0.0,0.0,0.06372240062586185,0.9979676626316493
2025/04/11 11:51:09.405135692,1744365069,404734227,hemisphere,0.0,0.0,0.06373981843769681,0.9979665503139519
2025/04/11 11:51:09.456012021,1744365069,454519883,hemisphere,0.0,0.0,0.06375723623011557,0.9979654376922567
2025/04/11 11:51:09.505951659,1744365069,504957339,hemisphere,0.0,0.0,0.06376594511904217,0.9979648812674098
2025/04/11 11:51:09.559186901,1744365069,556453706,hemisphere,0.0,0.0,0.06378336288232657,0.9979637681897181
2025/04/11 11:51:09.607219857,1744365069,604955853,hemisphere,0.0,0.0,0.06381819835060148,0.9979615411223437
2025/04/11 11:51:09.655993214,1744365069,654756243,hemisphere,0.0,0.0,0.06385303374111587,0.9979593128389834
2025/04/11 11:51:09.704911704,1744365069,704462757,hemisphere,0.0,0.0,0.06389657786984342,0.997956525774807
2025/04/11 11:51:09.755396656,1744365069,754817603,hemisphere,0.0,0.0,0.06388786905382725,0.99795708333964
2025/04/11 11:51:09.805044534,1744365069,804712695,hemisphere,0.0,0.0,0.0639488306637311,0.9979531787898376
2025/04/11 11:51:09.855552667,1744365069,855099455,hemisphere,0.0,0.0,0.0639575394456713,0.9979526206930144
2025/04/11 11:51:09.905463083,1744365069,904624218,hemisphere,0.0,0.0,0.06400979203500581,0.9979492705161096
2025/04/11 11:51:09.956410041,1744365069,955445837,hemisphere,0.0,0.0,0.06401850078283758,0.9979487118872983
2025/04/11 11:51:10.6040224,1744365070,5051996,hemisphere,0.0,0.0,0.06407075316742396,0.9979453585184708
2025/04/11 11:51:10.56762071,1744365070,55860685,hemisphere,0.0,0.0,0.06407075316742396,0.9979453585184708
2025/04/11 11:51:10.105360889,1744365070,104880579,hemisphere,0.0,0.0,0.06409687929385596,0.9979436808080849
2025/04/11 11:51:10.155204316,1744365070,154520954,hemisphere,0.0,0.0,0.06410558799290501,0.9979431214192941
2025/04/11 11:51:10.208748638,1744365070,207502952,hemisphere,0.0,0.0,0.0641404227402754,0.9979408831041541
2025/04/11 11:51:10.380906899,1744365070,254814757,hemisphere,0.0,0.0,0.06421880063604653,0.9979358424492367
2025/04/11 11:51:10.386145291,1744365070,305219721,hemisphere,0.0,0.0,0.06425363512926394,0.9979336001822343
2025/04/11 11:51:10.393363383,1744365070,355218325,hemisphere,0.0,0.0,0.06431459530398088,0.9979296732890977
2025/04/11 11:51:10.405346574,1744365070,404478121,hemisphere,0.0,0.0,0.06435813813899972,0.997926866085527
2025/04/11 11:51:10.456013806,1744365070,455248001,hemisphere,0.0,0.0,0.0643842637812025,0.9979251808514267
2025/04/11 11:51:10.510239238,1744365070,505272308,hemisphere,0.0,0.0,0.06444522344136806,0.9979212459786554
2025/04/11 11:51:10.556388880,1744365070,555489887,hemisphere,0.0,0.0,0.06449747438725786,0.9979178702667194
2025/04/11 11:51:10.605917015,1744365070,605372537,hemisphere,0.0,0.0,0.06449747438725786,0.9979178702667194
2025/04/11 11:51:10.657457143,1744365070,656816104,hemisphere,0.0,0.0,0.06454972515632418,0.9979144918189349
2025/04/11 11:51:10.705586384,1744365070,704847428,hemisphere,0.0,0.0,0.06456714204002743,0.9979133650617087
2025/04/11 11:51:10.755171770,1744365070,754529074,hemisphere,0.0,0.0,0.06462810097806625,0.9979094190175624
2025/04/11 11:51:10.806052919,1744365070,805595804,hemisphere,0.0,0.0,0.06464551777322049,0.9979082908924208
2025/04/11 11:51:10.855721455,1744365070,855277174,hemisphere,0.0,0.0,0.06468035130444713,0.9979060337301972
2025/04/11 11:51:10.905049697,1744365070,904469683,hemisphere,0.0,0.0,0.06469776804050899,0.9979049046931159
2025/04/11 11:51:10.955781316,1744365070,955276230,hemisphere,0.0,0.0,0.06472389310764745,0.9979032105675328
2025/04/11 11:51:11.5013075,1744365071,4451794,hemisphere,0.0,0.0,0.06475872646148959,0.997900950669497
2025/04/11 11:51:11.55429163,1744365071,54986607,hemisphere,0.0,0.0,0.06475001813042489,0.9979015157579979
2025/04/11 11:51:11.105030214,1744365071,104611134,hemisphere,0.0,0.0,0.06476743478762265,0.9979003855050018
2025/04/11 11:51:11.155234960,1744365071,154945433,hemisphere,0.0,0.0,0.06470647640114971,0.9979043400605829
2025/04/11 11:51:11.205404909,1744365071,204701998,hemisphere,0.0,0.0,0.06473260145350315,0.9979026457070158
2025/04/11 11:51:11.255092949,1744365071,254669940,hemisphere,0.0,0.0,0.06474130979442919,0.9979020807705041
2025/04/11 11:51:11.306625843,1744365071,305997624,hemisphere,0.0,0.0,0.06471518475686276,0.9979037753520552
2025/04/11 11:51:11.355519166,1744365071,354715727,hemisphere,0.0,0.0,0.06471518475686276,0.9979037753520552
2025/04/11 11:51:11.405453076,1744365071,405031271,hemisphere,0.0,0.0,0.06471518475686276,0.9979037753520552
2025/04/11 11:51:11.455008372,1744365071,454636216,hemisphere,0.0,0.0,0.06468905967494125,0.997905469249654
2025/04/11 11:51:11.504758884,1744365071,504392905,hemisphere,0.0,0.0,0.06467164292902734,0.9979065981347455
2025/04/11 11:51:11.555796910,1744365071,555422515,hemisphere,0.0,0.0,0.06466293454868252,0.9979071624632989
2025/04/11 11:51:11.605148977,1744365071,604650620,hemisphere,0.0,0.0,0.06460197574842376,0.9979111106353111
2025/04/11 11:51:11.655260029,1744365071,654852820,hemisphere,0.0,0.0,0.06461939257310625,0.9979099829661405
2025/04/11 11:51:11.704942289,1744365071,704568957,hemisphere,0.0,0.0,0.06459326732870259,0.9979116743559034
2025/04/11 11:51:11.755516063,1744365071,754969094,hemisphere,0.0,0.0,0.06456714204002743,0.9979133650617087
2025/04/11 11:51:11.805845340,1744365071,805413256,hemisphere,0.0,0.0,0.06452359979390292,0.9979161813848076
2025/04/11 11:51:11.855653421,1744365071,855249421,hemisphere,0.0,0.0,0.06448005742493458,0.997918995808015
2025/04/11 11:51:11.905279125,1744365071,904828744,hemisphere,0.0,0.0,0.06445393194462304,0.9979206835499893
2025/04/11 11:51:11.955080360,1744365071,954581198,hemisphere,0.0,0.0,0.06441909790215912,0.9979229328086774
2025/04/11 11:51:12.6165974,1744365072,5085309,hemisphere,0.0,0.0,0.0643842637812025,0.9979251808514267
2025/04/11 11:51:12.55168845,1744365072,54666853,hemisphere,0.0,0.0,0.0643842637812025,0.9979251808514267
2025/04/11 11:51:12.105319697,1744365072,104758603,hemisphere,0.0,0.0,0.06434072101969102,0.9979279891949451
2025/04/11 11:51:12.155111863,1744365072,154706552,hemisphere,0.0,0.0,0.06432330388078297,0.9979291120003767
2025/04/11 11:51:12.205972430,1744365072,204792027,hemisphere,0.0,0.0,0.06428846954419025,0.9979313566992801
2025/04/11 11:51:12.255200168,1744365072,254829673,hemisphere,0.0,0.0,0.06427105234651612,0.997932478592751
2025/04/11 11:51:12.306580861,1744365072,305043055,hemisphere,0.0,0.0,0.06419267471478046,0.9979375233515184
2025/04/11 11:51:12.356580860,1744365072,355944600,hemisphere,0.0,0.0,0.06423621789243897,0.9979347214677297
2025/04/11 11:51:12.409289458,1744365072,404675779,hemisphere,0.0,0.0,0.06421880063604653,0.9979358424492367
2025/04/11 11:51:12.454680205,1744365072,454357978,hemisphere,0.0,0.0,0.06420138336009193,0.9979369631267551
2025/04/11 11:51:12.507249764,1744365072,504916182,hemisphere,0.0,0.0,0.06419267471478046,0.9979375233515184
2025/04/11 11:51:12.554885440,1744365072,554532682,hemisphere,0.0,0.0,0.06417525740949259,0.9979386435730533
2025/04/11 11:51:12.605281965,1744365072,604900054,hemisphere,0.0,0.0,0.0641404227402754,0.9979408831041541
2025/04/11 11:51:12.655120316,1744365072,654617498,hemisphere,0.0,0.0,0.06412300537635668,0.9979420024137193
2025/04/11 11:51:12.705415743,1744365072,704987465,hemisphere,0.0,0.0,0.06409687929385596,0.9979436808080849
2025/04/11 11:51:12.755139799,1744365072,754720006,hemisphere,0.0,0.0,0.06407946188111478,0.9979447993576733
2025/04/11 11:51:12.804767686,1744365072,804382845,hemisphere,0.0,0.0,0.06402720952579406,0.9979481531824888
2025/04/11 11:51:12.855222564,1744365072,854774288,hemisphere,0.0,0.0,0.06400979203500581,0.9979492705161096
2025/04/11 11:51:12.904840961,1744365072,904473805,hemisphere,0.0,0.0,0.06402720952579406,0.9979481531824888
2025/04/11 11:51:12.956419523,1744365072,955902949,hemisphere,0.0,0.0,0.06400108328229943,0.9979498290689228
2025/04/11 11:51:13.5014346,1744365073,4615268,hemisphere,0.0,0.0,0.06396624822274087,0.9979520625201928
2025/04/11 11:51:13.54748124,1744365073,54362872,hemisphere,0.0,0.0,0.06396624822274087,0.9979520625201928
2025/04/11 11:51:13.105227197,1744365073,104764962,hemisphere,0.0,0.0,0.06391399548727705,0.997955410417145
2025/04/11 11:51:13.154844602,1744365073,154465567,hemisphere,0.0,0.0,0.06389657786984342,0.997956525774807
2025/04/11 11:51:13.205388463,1744365073,204863973,hemisphere,0.0,0.0,0.06391399548727705,0.997955410417145
2025/04/11 11:51:13.254909732,1744365073,254556316,hemisphere,0.0,0.0,0.06389657786984342,0.997956525774807
2025/04/11 11:51:13.306936011,1744365073,305408501,hemisphere,0.0,0.0,0.06387916023294576,0.997957640828474
2025/04/11 11:51:13.359138599,1744365073,358010152,hemisphere,0.0,0.0,0.06386174257658941,0.9979587555781458
2025/04/11 11:51:13.404770801,1744365073,404376629,hemisphere,0.0,0.0,0.06387916023294576,0.997957640828474
2025/04/11 11:51:13.455241181,1744365073,454802839,hemisphere,0.0,0.0,0.06388786905382725,0.99795708333964
2025/04/11 11:51:13.504936745,1744365073,504525570,hemisphere,0.0,0.0,0.06384432490077964,0.997959870023822
2025/04/11 11:51:13.555936027,1744365073,555613870,hemisphere,0.0,0.0,0.06380078062618146,0.9979626548080294
2025/04/11 11:51:13.605283213,1744365073,604745857,hemisphere,0.0,0.0,0.06380078062618146,0.9979626548080294
2025/04/11 11:51:13.654761605,1744365073,654326372,hemisphere,0.0,0.0,0.06381819835060148,0.9979615411223437
2025/04/11 11:51:13.705163173,1744365073,704798401,hemisphere,0.0,0.0,0.06380078062618146,0.9979626548080294
2025/04/11 11:51:13.754760156,1744365073,754416272,hemisphere,0.0,0.0,0.06377465400311273,0.9979643247665636
2025/04/11 11:51:13.805282885,1744365073,804930359,hemisphere,0.0,0.0,0.06374852733633356,0.997965994041104
2025/04/11 11:51:13.855043560,1744365073,854590158,hemisphere,0.0,0.0,0.06373110953420603,0.9979671065108003
2025/04/11 11:51:13.905419318,1744365073,905025393,hemisphere,0.0,0.0,0.06374852733633356,0.997965994041104
2025/04/11 11:51:13.956766268,1744365073,955074363,hemisphere,0.0,0.0,0.06375723623011557,0.9979654376922567
2025/04/11 11:51:14.4758095,1744365074,4412473,hemisphere,0.0,0.0,0.06374852733633356,0.997965994041104
2025/04/11 11:51:14.55432095,1744365074,54962036,hemisphere,0.0,0.0,0.06373981843769681,0.9979665503139519
2025/04/11 11:51:14.104923506,1744365074,104504225,hemisphere,0.0,0.0,0.06374852733633356,0.997965994041104
2025/04/11 11:51:14.155275741,1744365074,154914681,hemisphere,0.0,0.0,0.06373110953420603,0.9979671065108003
2025/04/11 11:51:14.205062841,1744365074,204615592,hemisphere,0.0,0.0,0.06376594511904217,0.9979648812674098
2025/04/11 11:51:14.254966341,1744365074,254548798,hemisphere,0.0,0.0,0.06374852733633356,0.997965994041104
2025/04/11 11:51:14.305331823,1744365074,304801285,hemisphere,0.0,0.0,0.06373981843769681,0.9979665503139519
2025/04/11 11:51:14.355561736,1744365074,354925339,hemisphere,0.0,0.0,0.06374852733633356,0.997965994041104
2025/04/11 11:51:14.405248583,1744365074,404828239,hemisphere,0.0,0.0,0.06376594511904217,0.9979648812674098
2025/04/11 11:51:14.455010832,1744365074,454550406,hemisphere,0.0,0.0,0.06376594511904217,0.9979648812674098
2025/04/11 11:51:14.505392983,1744365074,504925783,hemisphere,0.0,0.0,0.06378336288232657,0.9979637681897181
2025/04/11 11:51:14.555252129,1744365074,554724607,hemisphere,0.0,0.0,0.06376594511904217,0.9979648812674098
2025/04/11 11:51:14.604796880,1744365074,604347356,hemisphere,0.0,0.0,0.06375723623011557,0.9979654376922567
2025/04/11 11:51:14.655114171,1744365074,654762364,hemisphere,0.0,0.0,0.0637136917126649,0.9979682186764985
2025/04/11 11:51:14.705034961,1744365074,704497102,hemisphere,0.0,0.0,0.06367014707391236,0.9979709977607498
2025/04/11 11:51:14.757133358,1744365074,754887814,hemisphere,0.0,0.0,0.0636004753998073,0.997975440343558
2025/04/11 11:51:14.804964013,1744365074,804554868,hemisphere,0.0,0.0,0.06349596730754146,0.9979820950977425
2025/04/11 11:51:14.855461255,1744365074,854995099,hemisphere,0.0,0.0,0.06333920386391739,0.9979920567088123
2025/04/11 11:51:14.905196570,1744365074,904747668,hemisphere,0.0,0.0,0.06319114806542088,0.9980014422866201
2025/04/11 11:51:14.954792121,1744365074,954407871,hemisphere,0.0,0.0,0.0629821257477214,0.9980146551210048
2025/04/11 11:51:15.5373911,1744365075,4913079,hemisphere,0.0,0.0,0.06277310066731674,0.9980278241775682
2025/04/11 11:51:15.54896966,1744365075,54535843,hemisphere,0.0,0.0,0.06252923459399116,0.9980431327458196
2025/04/11 11:51:15.105665713,1744365075,105270520,hemisphere,0.0,0.0,0.06224181621585871,0.9980610984875381
2025/04/11 11:51:15.155345987,1744365075,154696759,hemisphere,0.0,0.0,0.0619282630080217,0.9980806030781328
2025/04/11 11:51:15.204734854,1744365075,204355220,hemisphere,0.0,0.0,0.06155373311320427,0.9981037711279467
2025/04/11 11:51:15.255223919,1744365075,254787651,hemisphere,0.0,0.0,0.06117919455104257,0.9981267986353667
2025/04/11 11:51:15.304989678,1744365075,304520171,hemisphere,0.0,0.0,0.060752384295625086,0.9981528679527985
2025/04/11 11:51:15.356128687,1744365075,355351520,hemisphere,0.0,0.0,0.06031685217664655,0.998179281163209
2025/04/11 11:51:15.404967347,1744365075,404589434,hemisphere,0.0,0.0,0.05983775358554639,0.9982081161991398
2025/04/11 11:51:15.454705429,1744365075,454300345,hemisphere,0.0,0.0,0.059332507413217384,0.9982382749444446
2025/04/11 11:51:15.509455541,1744365075,504760699,hemisphere,0.0,0.0,0.058844669098456585,0.9982671510766511
2025/04/11 11:51:15.554765382,1744365075,554389664,hemisphere,0.0,0.0,0.05828712239455981,0.9982998604442263
2025/04/11 11:51:15.605244022,1744365075,604857801,hemisphere,0.0,0.0,0.057755693766884844,0.998330746715489
2025/04/11 11:51:15.655056680,1744365075,654544514,hemisphere,0.0,0.0,0.057180686986789915,0.9983638460179329
2025/04/11 11:51:15.705696506,1744365075,705060751,hemisphere,0.0,0.0,0.056579523256607804,0.998398095725375
2025/04/11 11:51:15.754994077,1744365075,754616976,hemisphere,0.0,0.0,0.056004477881354556,0.9984305175911026
2025/04/11 11:51:15.804656140,1744365075,804297599,hemisphere,0.0,0.0,0.05538584772514657,0.9984650258630829
2025/04/11 11:51:15.855308975,1744365075,854800986,hemisphere,0.0,0.0,0.05474105564123297,0.998500584289906
2025/04/11 11:51:15.904785324,1744365075,904461515,hemisphere,0.0,0.0,0.05412238231477999,0.9985343097423207
2025/04/11 11:51:15.955785491,1744365075,955345862,hemisphere,0.0,0.0,0.05347754575273842,0.9985690522443923
2025/04/11 11:51:16.5251092,1744365076,4666187,hemisphere,0.0,0.0,0.05276297109323833,0.9986070643057829
2025/04/11 11:51:16.62636067,1744365076,61880002,hemisphere,0.0,0.0,0.052022224944424295,0.9986459272994768
2025/04/11 11:51:16.107885767,1744365076,107446737,hemisphere,0.0,0.0,0.051290165334334205,0.9986837932699102
2025/04/11 11:51:16.155076223,1744365076,154407125,hemisphere,0.0,0.0,0.05052321618913296,0.9987228868038952
2025/04/11 11:51:16.206135223,1744365076,205612274,hemisphere,0.0,0.0,0.049791100567527245,0.9987596539229417
2025/04/11 11:51:16.255044127,1744365076,254522544,hemisphere,0.0,0.0,0.04901537745238678,0.998798024013464
2025/04/11 11:51:16.308654602,1744365076,305033955,hemisphere,0.0,0.0,0.048265774213599316,0.9988345283577065
2025/04/11 11:51:16.356203606,1744365076,355094287,hemisphere,0.0,0.0,0.047507426998652395,0.9988708847393479
2025/04/11 11:51:16.404840894,1744365076,404377180,hemisphere,0.0,0.0,0.04677520369916328,0.9989054411298909
2025/04/11 11:51:16.455255751,1744365076,454711363,hemisphere,0.0,0.0,0.04600808567196669,0.9989410673572295
2025/04/11 11:51:16.504974891,1744365076,504453885,hemisphere,0.0,0.0,0.045223505082932616,0.9989768939209825
2025/04/11 11:51:16.555248861,1744365076,554888789,hemisphere,0.0,0.0,0.04443017857083308,0.9990124920300867
2025/04/11 11:51:16.605504755,1744365076,604572990,hemisphere,0.0,0.0,0.043567077263009,0.9990505041181648
2025/04/11 11:51:16.655448633,1744365076,654987199,hemisphere,0.0,0.0,0.04273009947923772,0.9990866521971428
2025/04/11 11:51:16.705327811,1744365076,704763828,hemisphere,0.0,0.0,0.04186693473609671,0.9991231954948316
2025/04/11 11:51:16.754890060,1744365076,754491340,hemisphere,0.0,0.0,0.04096014216947679,0.9991607812326584
2025/04/11 11:51:16.805396369,1744365076,804933773,hemisphere,0.0,0.0,0.04002715692033048,0.9991985922272285
2025/04/11 11:51:16.854842788,1744365076,854488948,hemisphere,0.0,0.0,0.03906797683341083,0.9992365551690672
2025/04/11 11:51:16.905277726,1744365076,904882684,hemisphere,0.0,0.0,0.038065159174347496,0.999275259203905
2025/04/11 11:51:16.955271686,1744365076,954776411,hemisphere,0.0,0.0,0.03698381720796788,0.9993158646117491
2025/04/11 11:51:17.6057852,1744365077,5024537,hemisphere,0.0,0.0,0.035902431935415334,0.9993552998714336
2025/04/11 11:51:17.55428740,1744365077,54765059,hemisphere,0.0,0.0,0.034725069567379675,0.9993969029087196
2025/04/11 11:51:17.105229606,1744365077,104510604,hemisphere,0.0,0.0,0.03348660680204709,0.9994391663152316
2025/04/11 11:51:17.155300946,1744365077,154865634,hemisphere,0.0,0.0,0.032204482047355064,0.9994813011437791
2025/04/11 11:51:17.205253467,1744365077,204595583,hemisphere,0.0,0.0,0.03083507944770544,0.9995244858808882
2025/04/11 11:51:17.257458966,1744365077,255259406,hemisphere,0.0,0.0,0.029422004653111376,0.9995670791108481
2025/04/11 11:51:17.313897445,1744365077,311421073,hemisphere,0.0,0.0,0.027965254916334847,0.9996088957774758
2025/04/11 11:51:17.361306898,1744365077,359846021,hemisphere,0.0,0.0,0.026490998621751645,0.9996490519137315
2025/04/11 11:51:17.405276185,1744365077,404840092,hemisphere,0.0,0.0,0.02492944546178761,0.9996892130802292
2025/04/11 11:51:17.454922924,1744365077,454507966,hemisphere,0.0,0.0,0.023341658674492696,0.9997275463696714
2025/04/11 11:51:17.506450526,1744365077,505722194,hemisphere,0.0,0.0,0.021701465490216464,0.9997644954665958
2025/04/11 11:51:17.555004733,1744365077,554597465,hemisphere,0.0,0.0,0.020017589424947118,0.9997996279823343
2025/04/11 11:51:17.605604767,1744365077,604577084,hemisphere,0.0,0.0,0.01829003066126784,0.9998327233984743
2025/04/11 11:51:17.654980951,1744365077,654625085,hemisphere,0.0,0.0,0.016501339116028742,0.9998638436344109
2025/04/11 11:51:17.704802864,1744365077,704398961,hemisphere,0.0,0.0,0.014730046161338632,0.9998915069846752
2025/04/11 11:51:17.755215999,1744365077,754847195,hemisphere,0.0,0.0,0.012888899640609146,0.9999169346831037
2025/04/11 11:51:17.804823773,1744365077,804479974,hemisphere,0.0,0.0,0.011073887757776514,0.9999386826250539
2025/04/11 11:51:17.856474237,1744365077,855516328,hemisphere,0.0,0.0,0.009197755466704927,0.9999576997525319
2025/04/11 11:51:17.905142489,1744365077,904705665,hemisphere,0.0,0.0,0.007347770031943182,0.9999730047734077
2025/04/11 11:51:17.955000707,1744365077,954441444,hemisphere,0.0,0.0,0.005532665502260667,0.9999846946890938
2025/04/11 11:51:18.5508202,1744365078,4744013,hemisphere,0.0,0.0,0.0037175427438776868,0.9999930899140991
2025/04/11 11:51:18.54888656,1744365078,54509994,hemisphere,0.0,0.0,0.001980947405421284,0.9999980379217637
2025/04/11 11:51:18.105476989,1744365078,104899550,hemisphere,0.0,0.0,0.00033161255180118917,0.9999999450165563
2025/04/11 11:51:18.155154823,1744365078,154790081,hemisphere,-0.0,0.0,0.0012479100912845434,-0.9999992213598989
2025/04/11 11:51:18.204926692,1744365078,204537945,hemisphere,-0.0,0.0,0.002783796561402449,-0.9999961252308455
2025/04/11 11:51:18.261494010,1744365078,254985327,hemisphere,-0.0,0.0,0.004249863935460433,-0.9999909692874882
2025/04/11 11:51:18.306911699,1744365078,304725913,hemisphere,-0.0,0.0,0.0056112040993790465,-0.9999842570703577
2025/04/11 11:51:18.357382107,1744365078,355118165,hemisphere,-0.0,0.0,0.00691144881222316,-0.9999761156524271
2025/04/11 11:51:18.405340988,1744365078,404886926,hemisphere,-0.0,0.0,0.008106965570684853,-0.9999671380146629
2025/04/11 11:51:18.461861541,1744365078,455282257,hemisphere,-0.0,0.0,0.009250113116796964,-0.9999572167884617
2025/04/11 11:51:18.508543915,1744365078,504971471,hemisphere,-0.0,0.0,0.0102361772978919,-0.9999476089647528
2025/04/11 11:51:18.555253406,1744365078,554544102,hemisphere,-0.0,0.0,0.011196053231136163,-0.9999373222317715
2025/04/11 11:51:18.609564512,1744365078,606935217,hemisphere,-0.0,0.0,0.0119901246530539,-0.9999281158717382
2025/04/11 11:51:18.654980144,1744365078,654653430,hemisphere,-0.0,0.0,0.012731832897434516,-0.9999189469307359
2025/04/11 11:51:18.705497871,1744365078,705056212,hemisphere,-0.0,0.0,0.013342646209659735,-0.999910982934043
2025/04/11 11:51:18.755300539,1744365078,754818621,hemisphere,-0.0,0.0,0.013883648135569812,-0.999903617512432
2025/04/11 11:51:18.805630596,1744365078,805217646,hemisphere,-0.0,0.0,0.014302485553188604,-0.9998977142223103
2025/04/11 11:51:18.855256885,1744365078,854895676,hemisphere,-0.0,0.0,0.014651514820669747,-0.9998926607958776
2025/04/11 11:51:18.905515606,1744365078,904533298,hemisphere,-0.0,0.0,0.014930736951321837,-0.999888530334302
2025/04/11 11:51:18.955459027,1744365078,955057930,hemisphere,-0.0,0.0,0.01509652454189547,-0.9998860409800489
2025/04/11 11:51:19.5295868,1744365079,4796016,hemisphere,-0.0,0.0,0.015192506641772206,-0.9998845872109139
2025/04/11 11:51:19.61542469,1744365079,55142282,hemisphere,-0.0,0.0,0.01523613482276288,-0.9998839233609382
2025/04/11 11:51:19.109678176,1744365079,105080860,hemisphere,-0.0,0.0,0.015201232280287304,-0.9998844545932098
2025/04/11 11:51:19.154995953,1744365079,154649276,hemisphere,-0.0,0.0,0.015061621925585656,-0.999886567339001
2025/04/11 11:51:19.205902469,1744365079,205303791,hemisphere,-0.0,0.0,0.014843480159544703,-0.9998898294796049
2025/04/11 11:51:19.257091317,1744365079,255207982,hemisphere,-0.0,0.0,0.014564257669504593,-0.999893935574437
2025/04/11 11:51:19.311541321,1744365079,307277675,hemisphere,-0.0,0.0,0.014154147584324941,-0.9998998250355688
2025/04/11 11:51:19.356070555,1744365079,355056151,hemisphere,-0.0,0.0,0.01370040599501488,-0.9999061450334086
2025/04/11 11:51:19.407036923,1744365079,405021712,hemisphere,-0.0,0.0,0.013150676837273384,-0.9999135261104941
2025/04/11 11:51:19.457068003,1744365079,455078186,hemisphere,-0.0,0.0,0.012496232194861701,-0.9999219190421481
2025/04/11 11:51:19.505765048,1744365079,505356942,hemisphere,-0.0,0.0,0.011815604092267205,-0.9999301933134807
2025/04/11 11:51:19.555576224,1744365079,555071025,hemisphere,-0.0,0.0,0.010986626604071738,-0.9999396451965803
2025/04/11 11:51:19.608092458,1744365079,607319341,hemisphere,-0.0,0.0,0.01012273677446018,-0.9999487637875228
2025/04/11 11:51:19.657017785,1744365079,656469563,hemisphere,-0.0,0.0,0.009206481743475483,-0.9999576194488979
2025/04/11 11:51:19.707155612,1744365079,706797604,hemisphere,-0.0,0.0,0.008194229134555997,-0.9999664267408633
2025/04/11 11:51:19.755257670,1744365079,754851996,hemisphere,-0.0,0.0,0.007155788862700085,-0.9999743970151198
2025/04/11 11:51:19.805347363,1744365079,804932792,hemisphere,-0.0,0.0,0.006030076020955433,-0.999981818926315
2025/04/11 11:51:19.856094722,1744365079,854719335,hemisphere,-0.0,0.0,0.004843269739110086,-0.999988271300336
2025/04/11 11:51:19.906188128,1744365079,905567913,hemisphere,-0.0,0.0,0.0036215502813581922,-0.9999934421652773
2025/04/11 11:51:19.955542510,1744365079,954846476,hemisphere,-0.0,0.0,0.0023125591976531482,-0.9999973260314037
2025/04/11 11:51:20.5676089,1744365080,5328414,hemisphere,-0.0,0.0,0.0009948375095379424,-0.9999995051490423
2025/04/11 11:51:20.55038523,1744365080,54647732,hemisphere,0.0,0.0,0.00036651913471267276,0.9999999328318597
2025/04/11 11:51:20.108503046,1744365080,104468340,hemisphere,0.0,0.0,0.0017540549988002737,0.9999984616443474
2025/04/11 11:51:20.155774106,1744365080,155411114,hemisphere,0.0,0.0,0.0032288535057638625,0.9999947872389328
2025/04/11 11:51:20.205935618,1744365080,205290055,hemisphere,0.0,0.0,0.004677465339047425,0.9999890605991658
2025/04/11 11:51:20.256121173,1744365080,255534873,hemisphere,0.0,0.0,0.006213332158276455,0.9999806970654439
2025/04/11 11:51:20.306406657,1744365080,305940150,hemisphere,0.0,0.0,0.007740457935989058,0.9999700422067359
2025/04/11 11:51:20.354810181,1744365080,354355449,hemisphere,0.0,0.0,0.009285018202778468,0.9999568932893929
2025/04/11 11:51:20.405230929,1744365080,404713900,hemisphere,0.0,0.0,0.010881913109242759,0.9999407902306431
2025/04/11 11:51:20.456082275,1744365080,455649467,hemisphere,0.0,0.0,0.012443876388505212,0.9999225719726641
2025/04/11 11:51:20.508512815,1744365080,508133987,hemisphere,0.0,0.0,0.014093067153474621,0.9999006877976471
2025/04/11 11:51:20.555651563,1744365080,555045099,hemisphere,0.0,0.0,0.015681140597415016,0.9998770433556139
2025/04/11 11:51:20.605543752,1744365080,605104592,hemisphere,0.0,0.0,0.017304075854234893,0.9998502732703687
2025/04/11 11:51:20.656877307,1744365080,656286735,hemisphere,0.0,0.0,0.018918240437355297,0.9998210340749761
2025/04/11 11:51:20.704687758,1744365080,704345783,hemisphere,0.0,0.0,0.020549805322355078,0.9997888304543181
2025/04/11 11:51:20.755755138,1744365080,754932231,hemisphere,0.0,0.0,0.02218131548237978,0.9997539643549663
2025/04/11 11:51:20.804876836,1744365080,804520431,hemisphere,0.0,0.0,0.02378659404940501,0.9997170589439438
2025/04/11 11:51:20.857000735,1744365080,855406433,hemisphere,0.0,0.0,0.025391811287899923,0.9996775759811359
2025/04/11 11:51:20.913855277,1744365080,913453120,hemisphere,0.0,0.0,0.02702313344650804,0.9996348084469309
2025/04/11 11:51:20.955810445,1744365080,955200279,hemisphere,0.0,0.0,0.028654383641402572,0.9995893788441989
2025/04/11 11:51:21.5207775,1744365081,4675533,hemisphere,0.0,0.0,0.03028555752849729,0.9995412872939207
2025/04/11 11:51:21.54988840,1744365081,54553420,hemisphere,0.0,0.0,0.03187303973189187,0.9994919255993263
2025/04/11 11:51:21.105879144,1744365081,104885127,hemisphere,0.0,0.0,0.03346916329282208,0.9994397506145523
2025/04/11 11:51:21.155097614,1744365081,154695819,hemisphere,0.0,0.0,0.035056480215311527,0.9993853326895055
2025/04/11 11:51:21.207330479,1744365081,206700637,hemisphere,0.0,0.0,0.036652429490550927,0.9993280739639212
2025/04/11 11:51:21.258014277,1744365081,257556331,hemisphere,0.0,0.0,0.038239565027764794,0.9992686003605274
2025/04/11 11:51:21.308882165,1744365081,306999007,hemisphere,0.0,0.0,0.0398440435434036,0.9992059108082335
2025/04/11 11:51:21.357548804,1744365081,355460583,hemisphere,0.0,0.0,0.04142226187477016,0.9991417297967181
2025/04/11 11:51:21.407495494,1744365081,406139128,hemisphere,0.0,0.0,0.042991658285815984,0.9990754312452267
2025/04/11 11:51:21.455362506,1744365081,454974507,hemisphere,0.0,0.0,0.04456966659532107,0.9990062786687489
2025/04/11 11:51:21.504987201,1744365081,504568057,hemisphere,0.0,0.0,0.046130129002910296,0.9989354389539771
2025/04/11 11:51:21.554803743,1744365081,554293087,hemisphere,0.0,0.0,0.047620745000013565,0.9988654887649506
2025/04/11 11:51:21.608693170,1744365081,604871352,hemisphere,0.0,0.0,0.04916355158215545,0.9987907414447877
2025/04/11 11:51:21.657990166,1744365081,656061732,hemisphere,0.0,0.0,0.05068881001944174,0.9987144960091512
2025/04/11 11:51:21.705682581,1744365081,705133281,hemisphere,0.0,0.0,0.052179091237417805,0.9986377433472247
2025/04/11 11:51:21.759505697,1744365081,758896724,hemisphere,0.0,0.0,0.053686684391557826,0.9985578300324129
2025/04/11 11:51:21.805937344,1744365081,805105663,hemisphere,0.0,0.0,0.055211581860783406,0.9984746773095601
2025/04/11 11:51:21.858753984,1744365081,858019499,hemisphere,0.0,0.0,0.05672763797258264,0.9983896909974841
2025/04/11 11:51:21.905558093,1744365081,905054224,hemisphere,0.0,0.0,0.05826098694535769,0.9983013860554101
2025/04/11 11:51:21.958463773,1744365081,958004171,hemisphere,0.0,0.0,0.05980290951260261,0.9982102043226304
2025/04/11 11:51:22.8366412,1744365082,6195110,hemisphere,0.0,0.0,0.06137082001124671,0.9981150346784419
2025/04/11 11:51:22.57217912,1744365082,55668854,hemisphere,0.0,0.0,0.06296470709641452,0.9980157542144626
2025/04/11 11:51:22.110250894,1744365082,109423026,hemisphere,0.0,0.0,0.0645148913299341,0.9979167444214406
2025/04/11 11:51:22.165395937,1744365082,159287958,hemisphere,0.0,0.0,0.06613458038720747,0.9978107121478542
2025/04/11 11:51:22.210754509,1744365082,210023240,hemisphere,0.0,0.0,0.06773668200790595,0.9977032333868423
2025/04/11 11:51:22.261523534,1744365082,257719796,hemisphere,0.0,0.0,0.06939084274619098,0.9975895503376995
2025/04/11 11:51:22.309494223,1744365082,308082177,hemisphere,0.0,0.0,0.07105351730955115,0.9974725047227825
2025/04/11 11:51:22.357762977,1744365082,355094802,hemisphere,0.0,0.0,0.07271599447299729,0.9973526879433389
2025/04/11 11:51:22.406221799,1744365082,405811084,hemisphere,0.0,0.0,0.07441307946983869,0.9972275034333016
2025/04/11 11:51:22.457207245,1744365082,455189012,hemisphere,0.0,0.0,0.076136052959598,0.9970974382876197
2025/04/11 11:51:22.505664470,1744365082,504963947,hemisphere,0.0,0.0,0.07790229984498453,0.9969609980730751
2025/04/11 11:51:22.556068732,1744365082,555595290,hemisphere,0.0,0.0,0.07968570005780469,0.9968200385256597
2025/04/11 11:51:22.605170673,1744365082,604473481,hemisphere,0.0,0.0,0.08154712373553624,0.9966694871472995
2025/04/11 11:51:22.657525910,1744365082,657131706,hemisphere,0.0,0.0,0.08335608547069591,0.9965198257009251
2025/04/11 11:51:22.708445686,1744365082,704610894,hemisphere,0.0,0.0,0.08525172165789503,0.9963594451574015
2025/04/11 11:51:22.755446173,1744365082,754956368,hemisphere,0.0,0.0,0.08712966240158443,0.9961969794823642
2025/04/11 11:51:22.805218858,1744365082,804815110,hemisphere,0.0,0.0,0.08905944550648281,0.9960263124868127
2025/04/11 11:51:22.854995564,1744365082,854543281,hemisphere,0.0,0.0,0.09102365608820169,0.9958487304969249
2025/04/11 11:51:22.908090480,1744365082,906797404,hemisphere,0.0,0.0,0.09301357909541157,0.9956648402468883
2025/04/11 11:51:22.957150101,1744365082,954774202,hemisphere,0.0,0.0,0.09499444346370961,0.9954778027213967
2025/04/11 11:51:23.5629915,1744365083,5035611,hemisphere,0.0,0.0,0.09699230278468478,0.9952851316082865
2025/04/11 11:51:23.55588361,1744365083,54835390,hemisphere,0.0,0.0,0.09905924140393867,0.9950815377105919
2025/04/11 11:51:23.105324119,1744365083,104854949,hemisphere,0.0,0.0,0.10112575271275642,0.9948736513438672
2025/04/11 11:51:23.157331994,1744365083,156594173,hemisphere,0.0,0.0,0.10324390800834167,0.9946560689299417
2025/04/11 11:51:23.209318403,1744365083,208564751,hemisphere,0.0,0.0,0.1053876293884224,0.9944312181201316
2025/04/11 11:51:23.258011896,1744365083,257508937,hemisphere,0.0,0.0,0.10754821320465502,0.9941998701651927
2025/04/11 11:51:23.308370127,1744365083,304655009,hemisphere,0.0,0.0,0.10974298503252126,0.993959997804817
2025/04/11 11:51:23.362009539,1744365083,358558964,hemisphere,0.0,0.0,0.1119372219113891,0.9937152803246816
2025/04/11 11:51:23.409163745,1744365083,406973269,hemisphere,0.0,0.0,0.11421760894963029,0.993455755333789
2025/04/11 11:51:23.454816041,1744365083,454443402,hemisphere,0.0,0.0,0.11646272536755489,0.993195063217675
2025/04/11 11:51:23.508481640,1744365083,507993730,hemisphere,0.0,0.0,0.11880256065776279,0.9929178977041146
2025/04/11 11:51:23.556006548,1744365083,554791041,hemisphere,0.0,0.0,0.1211330740167043,0.9926362769812836
2025/04/11 11:51:23.607093716,1744365083,606703602,hemisphere,0.0,0.0,0.12351487897201908,0.9923427203706023
2025/04/11 11:51:23.655150669,1744365083,654716097,hemisphere,0.0,0.0,0.12585268640302125,0.9920489409929043
2025/04/11 11:51:23.705587933,1744365083,705197191,hemisphere,0.0,0.0,0.12822441365950318,0.991745178834602
2025/04/11 11:51:23.755576135,1744365083,754790639,hemisphere,0.0,0.0,0.13061271160884966,0.991433467039611
2025/04/11 11:51:23.804909686,1744365083,804537027,hemisphere,0.0,0.0,0.13294835696180443,0.991122966327164
2025/04/11 11:51:23.865903815,1744365083,865493938,hemisphere,0.0,0.0,0.13528326423202564,0.9908069632469929
2025/04/11 11:51:23.907212758,1744365083,905753854,hemisphere,0.0,0.0,0.13753962748647827,0.9904962649454468
2025/04/11 11:51:23.955937098,1744365083,955416530,hemisphere,0.0,0.0,0.13980391817443427,0.9901792082563015
2025/04/11 11:51:24.7710769,1744365084,5647062,hemisphere,0.0,0.0,0.14200701084546508,0.9898656519299658
2025/04/11 11:51:24.56108961,1744365084,55231502,hemisphere,0.0,0.0,0.14413168100746174,0.9895585169811654
2025/04/11 11:51:24.107571109,1744365084,105996989,hemisphere,0.0,0.0,0.1462470541180094,0.9892480978813172
2025/04/11 11:51:24.155932381,1744365084,155142125,hemisphere,0.0,0.0,0.14822367614628626,0.9889538623361966
2025/04/11 11:51:24.206842892,1744365084,206376555,hemisphere,0.0,0.0,0.15017382323055092,0.9886596091761407
2025/04/11 11:51:24.259783206,1744365084,259147492,hemisphere,0.0,0.0,0.15200263391699748,0.9883800884691554
2025/04/11 11:51:24.308142848,1744365084,304655962,hemisphere,0.0,0.0,0.15374469601535315,0.9881106053712543
2025/04/11 11:51:24.357951120,1744365084,356159900,hemisphere,0.0,0.0,0.1553828333559667,0.9878543288857279
2025/04/11 11:51:24.405163686,1744365084,404484156,hemisphere,0.0,0.0,0.15695159597871122,0.9876062963143438
2025/04/11 11:51:24.455993299,1744365084,455227595,hemisphere,0.0,0.0,0.15839071675923838,0.9873765142257004
2025/04/11 11:51:24.511047803,1744365084,508978853,hemisphere,0.0,0.0,0.15970889747766617,0.9871641545692734
2025/04/11 11:51:24.555419649,1744365084,555055239,hemisphere,0.0,0.0,0.16087176174857964,0.9869753169516998
2025/04/11 11:51:24.608802887,1744365084,604907990,hemisphere,0.0,0.0,0.1619224544814245,0.9868034853681411
2025/04/11 11:51:24.660829261,1744365084,657054501,hemisphere,0.0,0.0,0.16289547339458874,0.986643332084879
2025/04/11 11:51:24.705219585,1744365084,704787615,hemisphere,0.0,0.0,0.16374781114391718,0.9865022323064333
2025/04/11 11:51:24.755411921,1744365084,754588563,hemisphere,0.0,0.0,0.16447091098995675,0.98638193385632
2025/04/11 11:51:24.805553661,1744365084,805097584,hemisphere,0.0,0.0,0.16508203362234158,0.9862798396880634
2025/04/11 11:51:24.855110495,1744365084,854695657,hemisphere,0.0,0.0,0.16562424430873737,0.9861889320496148
2025/04/11 11:51:24.907368143,1744365084,905748682,hemisphere,0.0,0.0,0.16604592912979035,0.986118020025709
2025/04/11 11:51:24.956342384,1744365084,955476819,hemisphere,0.0,0.0,0.1663643240845327,0.9860643547314225
2025/04/11 11:51:25.6506452,1744365085,5249894,hemisphere,0.0,0.0,0.16657084126976435,0.9860294898423084
2025/04/11 11:51:25.57576665,1744365085,56394624,hemisphere,0.0,0.0,0.1666999108007189,0.9860076773225614
2025/04/11 11:51:25.107218445,1744365085,105218516,hemisphere,0.0,0.0,0.16673432885999098,0.9860018577972399
2025/04/11 11:51:25.164375597,1744365085,155306509,hemisphere,0.0,0.0,0.16664828333097617,0.9860164043578782
2025/04/11 11:51:25.211216642,1744365085,205824262,hemisphere,0.0,0.0,0.1664675835899092,0.9860469276934728
2025/04/11 11:51:25.265406151,1744365085,256390811,hemisphere,0.0,0.0,0.1662008261370081,0.9860919254265172
2025/04/11 11:51:25.309481504,1744365085,305741361,hemisphere,0.0,0.0,0.16582218177624428,0.9861556692687855
2025/04/11 11:51:25.356343827,1744365085,355686806,hemisphere,0.0,0.0,0.16536605497716844,0.9862322585787225
2025/04/11 11:51:25.405814848,1744365085,405112624,hemisphere,0.0,0.0,0.16480660590042523,0.9863259008317595
2025/04/11 11:51:25.456431065,1744365085,454647480,hemisphere,0.0,0.0,0.16418684656886295,0.9864292571764955
2025/04/11 11:51:25.507159269,1744365085,506093703,hemisphere,0.0,0.0,0.16347232137028955,0.9865479208562596
2025/04/11 11:51:25.558359593,1744365085,554877700,hemisphere,0.0,0.0,0.16262855472948617,0.9866873634473072
2025/04/11 11:51:25.613423782,1744365085,608479549,hemisphere,0.0,0.0,0.161698551706866,0.9868401990068615
2025/04/11 11:51:25.655611916,1744365085,654885467,hemisphere,0.0,0.0,0.16067365986695542,0.9870075861030441
2025/04/11 11:51:25.709438364,1744365085,707211400,hemisphere,0.0,0.0,0.15957106180327127,0.9871864445154099
2025/04/11 11:51:25.755600540,1744365085,755049269,hemisphere,0.0,0.0,0.15834763418065,0.9873834243845655
2025/04/11 11:51:25.805414277,1744365085,804836365,hemisphere,0.0,0.0,0.15709810859449566,0.9875830012085223
2025/04/11 11:51:25.855303239,1744365085,854860000,hemisphere,0.0,0.0,0.15572765009388326,0.9878000298624399
2025/04/11 11:51:25.909863450,1744365085,908427241,hemisphere,0.0,0.0,0.15432240344825401,0.9880205442165433
2025/04/11 11:51:25.957216233,1744365085,954512648,hemisphere,0.0,0.0,0.15281335556462722,0.9882550674603591
2025/04/11 11:51:26.13376818,1744365086,7116754,hemisphere,0.0,0.0,0.15129532510098015,0.9884886062077746
2025/04/11 11:51:26.54949130,1744365086,54599186,hemisphere,0.0,0.0,0.14971654000236098,0.9887289606609697
2025/04/11 11:51:26.108560477,1744365086,107374751,hemisphere,0.0,0.0,0.14809422111890902,0.9889732562972487
2025/04/11 11:51:26.156558296,1744365086,155069124,hemisphere,0.0,0.0,0.1463938104177545,0.9892263908081762
2025/04/11 11:51:26.208538324,1744365086,205406902,hemisphere,0.0,0.0,0.144727506214536,0.9894715503464067
2025/04/11 11:51:26.255342079,1744365086,254892878,hemisphere,0.0,0.0,0.1430262438470496,0.989718896238222
2025/04/11 11:51:26.306015587,1744365086,305248122,hemisphere,0.0,0.0,0.14122952846182663,0.9899768786645727
2025/04/11 11:51:26.374570106,1744365086,369327588,hemisphere,0.0,0.0,0.13947555463354305,0.9902255145468963
2025/04/11 11:51:26.405190216,1744365086,404759568,hemisphere,0.0,0.0,0.13769521257847936,0.9904746480516133
2025/04/11 11:51:26.456800431,1744365086,455449734,hemisphere,0.0,0.0,0.13587119706619988,0.9907265100964029
2025/04/11 11:51:26.510715418,1744365086,508989399,hemisphere,0.0,0.0,0.13402942508990037,0.9909773525212727
2025/04/11 11:51:26.555165754,1744365086,554580234,hemisphere,0.0,0.0,0.13216123978665983,0.9912282313867241
2025/04/11 11:51:26.605992633,1744365086,605048261,hemisphere,0.0,0.0,0.13028393264536686,0.9914767253417791
2025/04/11 11:51:26.657290111,1744365086,656801936,hemisphere,0.0,0.0,0.12839750389276935,0.9917227843475748
2025/04/11 11:51:26.708079898,1744365086,705395771,hemisphere,0.0,0.0,0.12652792348973854,0.9919630459736768
2025/04/11 11:51:26.761787789,1744365086,755441679,hemisphere,0.0,0.0,0.12465789352584263,0.9921997830989985
2025/04/11 11:51:26.804844095,1744365086,804433110,hemisphere,0.0,0.0,0.12275277812387222,0.9924372803673144
2025/04/11 11:51:26.857636506,1744365086,855530669,hemisphere,0.0,0.0,0.12086453563218305,0.9926690103082784
2025/04/11 11:51:26.906402638,1744365086,905441082,hemisphere,0.0,0.0,0.11898452037023513,0.9928961093247698
2025/04/11 11:51:26.958784490,1744365086,957869001,hemisphere,0.0,0.0,0.11710407842606717,0.9931196477846874
2025/04/11 11:51:27.6458294,1744365087,5573663,hemisphere,0.0,0.0,0.11520587947840953,0.9933416357596243
2025/04/11 11:51:27.55440503,1744365087,55048786,hemisphere,0.0,0.0,0.11330725974843073,0.9935599956159173
2025/04/11 11:51:27.105324718,1744365087,104895738,hemisphere,0.0,0.0,0.11146893220632548,0.9937679191605964
2025/04/11 11:51:27.156314206,1744365087,155245215,hemisphere,0.0,0.0,0.10955215639065834,0.9939810486272647
2025/04/11 11:51:27.206139439,1744365087,205613031,hemisphere,0.0,0.0,0.1076696768298079,0.9941867232524104
2025/04/11 11:51:27.257933461,1744365087,256608136,hemisphere,0.0,0.0,0.10579548883768065,0.9943879094908568
2025/04/11 11:51:27.308468933,1744365087,307680236,hemisphere,0.0,0.0,0.10389488672344994,0.9945882829154592
2025/04/11 11:51:27.355527920,1744365087,354853965,hemisphere,0.0,0.0,0.10201126739807385,0.9947832433871405
2025/04/11 11:51:27.405060455,1744365087,404407970,hemisphere,0.0,0.0,0.10011859946159181,0.9949755102724134
2025/04/11 11:51:27.455272060,1744365087,454846477,hemisphere,0.0,0.0,0.09824293805654305,0.995162461672474
2025/04/11 11:51:27.512050163,1744365087,511113080,hemisphere,0.0,0.0,0.09635824155373551,0.9953467181262377
2025/04/11 11:51:27.556060665,1744365087,555358689,hemisphere,0.0,0.0,0.09446451188814832,0.9955282296317538
2025/04/11 11:51:27.610409664,1744365087,604791632,hemisphere,0.0,0.0,0.09252699437618267,0.9957101763624343
2025/04/11 11:51:27.655028678,1744365087,654655676,hemisphere,0.0,0.0,0.09059781721912051,0.9958875616831103
2025/04/11 11:51:27.709168957,1744365087,705816135,hemisphere,0.0,0.0,0.08862483857770759,0.9960650771847567
2025/04/11 11:51:27.754885657,1744365087,754435319,hemisphere,0.0,0.0,0.08670367497526996,0.9962341455429957
2025/04/11 11:51:27.808018912,1744365087,806534342,hemisphere,0.0,0.0,0.08476479841752792,0.9964009880310416
2025/04/11 11:51:27.856833665,1744365087,854600542,hemisphere,0.0,0.0,0.08280820751220434,0.9965655024977614
2025/04/11 11:51:27.908902609,1744365087,905898460,hemisphere,0.0,0.0,0.08087739155785219,0.996724057868976
2025/04/11 11:51:27.955112372,1744365087,954635754,hemisphere,0.0,0.0,0.07895497146155518,0.9968781833712207
2025/04/11 11:51:28.6281113,1744365088,4938962,hemisphere,0.0,0.0,0.07701485625234131,0.9970299453458914
2025/04/11 11:51:28.55484887,1744365088,54865130,hemisphere,0.0,0.0,0.07512666139326794,0.9971739992337854
2025/04/11 11:51:28.104976822,1744365088,104430572,hemisphere,0.0,0.0,0.07326430673448843,0.9973125595111669
2025/04/11 11:51:28.155469666,1744365088,154895103,hemisphere,0.0,0.0,0.07140169656176308,0.9974476415973432
2025/04/11 11:51:28.205491946,1744365088,204597219,hemisphere,0.0,0.0,0.06959107040284301,0.9975756026087379
2025/04/11 11:51:28.257790649,1744365088,255213031,hemisphere,0.0,0.0,0.0678150412276202,0.9976979102831158
2025/04/11 11:51:28.305274262,1744365088,304717874,hemisphere,0.0,0.0,0.06608233504985954,0.9978141735786068
2025/04/11 11:51:28.357333980,1744365088,354648337,hemisphere,0.0,0.0,0.06445393194462304,0.9979206835499893
2025/04/11 11:51:28.406657887,1744365088,405504238,hemisphere,0.0,0.0,0.06294728842592752,0.9980168530039075
2025/04/11 11:51:28.454956257,1744365088,454462153,hemisphere,0.0,0.0,0.06157986338773128,0.9981021593129374
2025/04/11 11:51:28.509045778,1744365088,506567628,hemisphere,0.0,0.0,0.06031685217664655,0.998179281163209
2025/04/11 11:51:28.554991393,1744365088,554613922,hemisphere,0.0,0.0,0.059254105779524176,0.9982429318298572
2025/04/11 11:51:28.610406555,1744365088,604621304,hemisphere,0.0,0.0,0.05831325780381257,0.9982983341488185
2025/04/11 11:51:28.658995218,1744365088,655214653,hemisphere,0.0,0.0,0.057616299935916646,0.998338801200121
2025/04/11 11:51:28.706443612,1744365088,704529910,hemisphere,0.0,0.0,0.05712841269969408,0.9983668386231653
2025/04/11 11:51:28.755189557,1744365088,754788233,hemisphere,0.0,0.0,0.05682347624136432,0.9983842409352459
2025/04/11 11:51:28.805612104,1744365088,804756292,hemisphere,0.0,0.0,0.05669278756337752,0.9983916705573489
2025/04/11 11:51:28.855357195,1744365088,855031897,hemisphere,0.0,0.0,0.05678862602234388,0.9983862238405007
2025/04/11 11:51:28.908450249,1744365088,907078211,hemisphere,0.0,0.0,0.05701515120721468,0.9983733132114552
2025/04/11 11:51:28.956046366,1744365088,954430274,hemisphere,0.0,0.0,0.05738978256609909,0.9983518482263736
2025/04/11 11:51:29.5150186,1744365089,4764344,hemisphere,0.0,0.0,0.05789508647187606,0.9983226727678852
2025/04/11 11:51:29.55137079,1744365089,54588792,hemisphere,0.0,0.0,0.058461357700781105,0.9982896722173286
2025/04/11 11:51:29.105619757,1744365089,105137581,hemisphere,0.0,0.0,0.05913214695634033,0.9982501636345139
2025/04/11 11:51:29.156397054,1744365089,154560379,hemisphere,0.0,0.0,0.05989001955824162,0.9982049817333679
2025/04/11 11:51:29.204666537,1744365089,204257154,hemisphere,0.0,0.0,0.060630436464637706,0.9981602828073795
2025/04/11 11:51:29.255490267,1744365089,254749303,hemisphere,0.0,0.0,0.061423081108103426,0.9981118199416272
2025/04/11 11:51:29.304666199,1744365089,304355287,hemisphere,0.0,0.0,0.06224181621585871,0.9980610984875381
2025/04/11 11:51:29.356513885,1744365089,355668424,hemisphere,0.0,0.0,0.0629995443798428,0.9980135557235343
2025/04/11 11:51:29.412826781,1744365089,404487278,hemisphere,0.0,0.0,0.06378336288232657,0.9979637681897181
2025/04/11 11:51:29.461552477,1744365089,457708715,hemisphere,0.0,0.0,0.06452359979390292,0.9979161813848076
2025/04/11 11:51:29.505124494,1744365089,504624125,hemisphere,0.0,0.0,0.06525509315968232,0.9978686150073672
2025/04/11 11:51:29.554802287,1744365089,554370889,hemisphere,0.0,0.0,0.06583852108243413,0.9978302907517279
2025/04/11 11:51:29.609810746,1744365089,609249139,hemisphere,0.0,0.0,0.06644804859873607,0.9977898861170221
2025/04/11 11:51:29.661501163,1744365089,654431085,hemisphere,0.0,0.0,0.06695306690965389,0.9977561259302753
2025/04/11 11:51:29.705556661,1744365089,704874942,hemisphere,0.0,0.0,0.06743194774144055,0.997723875841305
2025/04/11 11:51:29.755037081,1744365089,754635961,hemisphere,0.0,0.0,0.06785857394673803,0.9976949503439992
2025/04/11 11:51:29.805349741,1744365089,804978370,hemisphere,0.0,0.0,0.06824165629487451,0.9976688209752433
2025/04/11 11:51:29.857144747,1744365089,854694474,hemisphere,0.0,0.0,0.06858119814860256,0.997645537884324
2025/04/11 11:51:29.905315759,1744365089,904330384,hemisphere,0.0,0.0,0.06886849659100489,0.9976257465489224
2025/04/11 11:51:29.955233515,1744365089,954873938,hemisphere,0.0,0.0,0.06907743732678157,0.99761130088445
2025/04/11 11:51:30.4823788,1744365090,4432180,hemisphere,0.0,0.0,0.06931249203218676,0.9975949972049218
2025/04/11 11:51:30.55388571,1744365090,54930457,hemisphere,0.0,0.0,0.06949530969894348,0.9975822782757561
2025/04/11 11:51:30.104955878,1744365090,104590473,hemisphere,0.0,0.0,0.06960848137104589,0.99757438786349
2025/04/11 11:51:30.162114142,1744365090,156653548,hemisphere,0.0,0.0,0.06973035755445826,0.9975658761381764
2025/04/11 11:51:30.205185958,1744365090,204768659,hemisphere,0.0,0.0,0.06980000062064969,0.9975610056098612
2025/04/11 11:51:30.254886383,1744365090,254479448,hemisphere,0.0,0.0,0.06982611668278269,0.9975591779082594
2025/04/11 11:51:30.308830902,1744365090,306129348,hemisphere,0.0,0.0,0.06987834866345666,0.9975555204539086
2025/04/11 11:51:30.354860569,1744365090,354536593,hemisphere,0.0,0.0,0.06987834866345666,0.9975555204539086
2025/04/11 11:51:30.410012347,1744365090,407357764,hemisphere,0.0,0.0,0.06987834866345666,0.9975555204539086
2025/04/11 11:51:30.461246254,1744365090,456708409,hemisphere,0.0,0.0,0.06990446458196178,0.9975536907011618
2025/04/11 11:51:30.517716130,1744365090,504546727,hemisphere,0.0,0.0,0.06990446458196178,0.9975536907011618
2025/04/11 11:51:30.555212128,1744365090,554792267,hemisphere,0.0,0.0,0.06989575928111605,0.9975543006947122
2025/04/11 11:51:30.605387499,1744365090,604587772,hemisphere,0.0,0.0,0.06989575928111605,0.9975543006947122
2025/04/11 11:51:30.658919125,1744365090,658285354,hemisphere,0.0,0.0,0.0699392857321028,0.9975512499672803
2025/04/11 11:51:30.706327821,1744365090,705768646,hemisphere,0.0,0.0,0.0699392857321028,0.9975512499672803
2025/04/11 11:51:30.755078707,1744365090,754416378,hemisphere,0.0,0.0,0.06998281204993499,0.9975481973406516
2025/04/11 11:51:30.805112619,1744365090,804702702,hemisphere,0.0,0.0,0.07001763300827382,0.9975457538719308
2025/04/11 11:51:30.854812888,1744365090,854391572,hemisphere,0.0,0.0,0.07006986428580438,0.997542086389827
2025/04/11 11:51:30.905395045,1744365090,904860038,hemisphere,0.0,0.0,0.07010468503077771,0.9975396398824137
2025/04/11 11:51:30.956891815,1744365090,954760510,hemisphere,0.0,0.0,0.07012209537123439,0.9975384161729048
2025/04/11 11:51:31.5757770,1744365091,4974568,hemisphere,0.0,0.0,0.07018303139458468,0.9975341307966694
2025/04/11 11:51:31.55051372,1744365091,54634361,hemisphere,0.0,0.0,0.0701743262644207,0.9975347432211745
2025/04/11 11:51:31.113379423,1744365091,108699539,hemisphere,0.0,0.0,0.0701743262644207,0.9975347432211745
2025/04/11 11:51:31.155165598,1744365091,154782367,hemisphere,0.0,0.0,0.07011339020367578,0.9975390280656428
2025/04/11 11:51:31.204978804,1744365091,204504263,hemisphere,0.0,0.0,0.07001763300827382,0.9975457538719308
2025/04/11 11:51:31.259781328,1744365091,256474818,hemisphere,0.0,0.0,0.069913169877484,0.9975530806316434
2025/04/11 11:51:31.306571388,1744365091,305527144,hemisphere,0.0,0.0,0.06975647374412532,0.9975640502598243
2025/04/11 11:51:31.357014202,1744365091,355985608,hemisphere,0.0,0.0,0.06956495391079288,0.9975774241568367
2025/04/11 11:51:31.405218125,1744365091,404701709,hemisphere,0.0,0.0,0.06933860898438474,0.9975931822662536
2025/04/11 11:51:31.457446034,1744365091,456870467,hemisphere,0.0,0.0,0.06908614312507894,0.9976106980321037
2025/04/11 11:51:31.513514160,1744365091,506257076,hemisphere,0.0,0.0,0.06877273107696179,0.9976323528536031
2025/04/11 11:51:31.554814624,1744365091,554514230,hemisphere,0.0,0.0,0.06844189988531099,0.9976551039011874
2025/04/11 11:51:31.604546588,1744365091,604197470,hemisphere,0.0,0.0,0.06808494200168672,0.9976795280412578
2025/04/11 11:51:31.655100009,1744365091,654687113,hemisphere,0.0,0.0,0.0676757356592306,0.9977073693237822
2025/04/11 11:51:31.709941059,1744365091,709209703,hemisphere,0.0,0.0,0.06724910416022285,0.9977362166372671
2025/04/11 11:51:31.757782574,1744365091,757386104,hemisphere,0.0,0.0,0.06683987463710955,0.9977637150941577
2025/04/11 11:51:31.804989742,1744365091,804484169,hemisphere,0.0,0.0,0.0664393412368281,0.9977904659476439
2025/04/11 11:51:31.855316100,1744365091,854906262,hemisphere,0.0,0.0,0.06601267431826943,0.9978187845642865
2025/04/11 11:51:31.905256462,1744365091,904651961,hemisphere,0.0,0.0,0.06558599532951749,0.9978469207331536
2025/04/11 11:51:31.955540850,1744365091,954384815,hemisphere,0.0,0.0,0.06522026093426533,0.9978708922318891
2025/04/11 11:51:32.5147884,1744365092,4685652,hemisphere,0.0,0.0,0.0648545177775659,0.9978947296803603
2025/04/11 11:51:32.56009510,1744365092,54391741,hemisphere,0.0,0.0,0.06453230825295798,0.997915618272179
2025/04/11 11:51:32.105192244,1744365092,104795812,hemisphere,0.0,0.0,0.06427105234651612,0.997932478592751
2025/04/11 11:51:32.161253409,1744365092,154522669,hemisphere,0.0,0.0,0.06407075316742396,0.9979453585184708
2025/04/11 11:51:32.205440696,1744365092,204965745,hemisphere,0.0,0.0,0.06392270428869322,0.997954852624316
2025/04/11 11:51:32.255188346,1744365092,254668221,hemisphere,0.0,0.0,0.0638356160555814,0.9979604271326616
2025/04/11 11:51:32.304786228,1744365092,304346134,hemisphere,0.0,0.0,0.0638356160555814,0.9979604271326616
2025/04/11 11:51:32.355308098,1744365092,354882628,hemisphere,0.0,0.0,0.06390528668099357,0.9979559681339754
2025/04/11 11:51:32.404920451,1744365092,404484318,hemisphere,0.0,0.0,0.06404462699707851,0.9979470355448755
2025/04/11 11:51:32.455411262,1744365092,454863729,hemisphere,0.0,0.0,0.06421009200051417,0.9979364028259945
2025/04/11 11:51:32.505027648,1744365092,504618950,hemisphere,0.0,0.0,0.06449747438725786,0.9979178702667194
2025/04/11 11:51:32.555368315,1744365092,554999838,hemisphere,0.0,0.0,0.06483710121906767,0.9978958614532423
2025/04/11 11:51:32.605168627,1744365092,604721672,hemisphere,0.0,0.0,0.06522896899807146,0.9978703230397468
2025/04/11 11:51:32.654787582,1744365092,654339920,hemisphere,0.0,0.0,0.06565565802642254,0.9978423395352181
2025/04/11 11:51:32.705160871,1744365092,704777665,hemisphere,0.0,0.0,0.06616941051138622,0.9978084030075993
2025/04/11 11:51:32.755052698,1744365092,754578377,hemisphere,0.0,0.0,0.06669185267525093,0.9977736200094401
2025/04/11 11:51:32.805632248,1744365092,804869305,hemisphere,0.0,0.0,0.06724039726663894,0.9977368034584194
2025/04/11 11:51:32.866886138,1744365092,865854725,hemisphere,0.0,0.0,0.0678150412276202,0.9976979102831158
2025/04/11 11:51:32.905802289,1744365092,904791898,hemisphere,0.0,0.0,0.0683722502531292,0.9976598796159558
2025/04/11 11:51:32.955210386,1744365092,954699722,hemisphere,0.0,0.0,0.06892073205851741,0.997622139235351
2025/04/11 11:51:33.6190308,1744365093,5705179,hemisphere,0.0,0.0,0.06952142631809802,0.9975804585509368
2025/04/11 11:51:33.58260671,1744365093,57718476,hemisphere,0.0,0.0,0.07009597985254089,0.9975402516232176
2025/04/11 11:51:33.104930890,1744365093,104518162,hemisphere,0.0,0.0,0.07063569078252496,0.9975021800415654
2025/04/11 11:51:33.156194456,1744365093,155551499,hemisphere,0.0,0.0,0.07116667651821193,0.9974644375381773
2025/04/11 11:51:33.205004341,1744365093,204661757,hemisphere,0.0,0.0,0.07170634627211403,0.9974257866650048
2025/04/11 11:51:33.255114021,1744365093,254344889,hemisphere,0.0,0.0,0.07215895633820706,0.9973931446627157
2025/04/11 11:51:33.305393602,1744365093,304837288,hemisphere,0.0,0.0,0.07264636594301649,0.9973577620469364
2025/04/11 11:51:33.354864304,1744365093,354481505,hemisphere,0.0,0.0,0.073098945043733,0.9973246934842701
2025/04/11 11:51:33.409223549,1744365093,404921147,hemisphere,0.0,0.0,0.0734992909343963,0.9972952693320775
2025/04/11 11:51:33.455106652,1744365093,454630360,hemisphere,0.0,0.0,0.07388221940022595,0.9972669741129989
2025/04/11 11:51:33.505851696,1744365093,505137474,hemisphere,0.0,0.0,0.07426513697324318,0.9972385318620343
2025/04/11 11:51:33.555182045,1744365093,554757857,hemisphere,0.0,0.0,0.07458712736884258,0.9972145007122911
2025/04/11 11:51:33.607081653,1744365093,605967973,hemisphere,0.0,0.0,0.07496132265107674,0.9971864419988878
2025/04/11 11:51:33.655168605,1744365093,654810399,hemisphere,0.0,0.0,0.07529199807009786,0.9971615290546525
2025/04/11 11:51:33.705626856,1744365093,704735163,hemisphere,0.0,0.0,0.0756052618828457,0.9971378261682917
2025/04/11 11:51:33.755432975,1744365093,754971066,hemisphere,0.0,0.0,0.07591851823365338,0.9971140248683731
2025/04/11 11:51:33.805518852,1744365093,804669070,hemisphere,0.0,0.0,0.07620566330704776,0.9970921205585435
2025/04/11 11:51:33.854954053,1744365093,854381896,hemisphere,0.0,0.0,0.07648410097928263,0.9970708010454378
2025/04/11 11:51:33.907890071,1744365093,905669251,hemisphere,0.0,0.0,0.0767625326871298,0.9970494037786981
2025/04/11 11:51:33.954793221,1744365093,954438658,hemisphere,0.0,0.0,0.07702355697705235,0.9970292732265201
2025/04/11 11:51:34.5569388,1744365094,5167187,hemisphere,0.0,0.0,0.07726717488507379,0.9970104230574921
2025/04/11 11:51:34.61008217,1744365094,57769895,hemisphere,0.0,0.0,0.07750208778464492,0.9969921897332101
2025/04/11 11:51:34.104681727,1744365094,104262464,hemisphere,0.0,0.0,0.07779789790644613,0.9969691505163729
2025/04/11 11:51:34.155095957,1744365094,154673777,hemisphere,0.0,0.0,0.07810240117166743,0.996945341997855
2025/04/11 11:51:34.205214804,1744365094,204541720,hemisphere,0.0,0.0,0.0783459985392149,0.9969262282199689
2025/04/11 11:51:34.255178167,1744365094,254802337,hemisphere,0.0,0.0,0.07863308943039968,0.9969036248537924
2025/04/11 11:51:34.319864709,1744365094,319331116,hemisphere,0.0,0.0,0.07890277493372588,0.9968823160773581
2025/04/11 11:51:34.357565884,1744365094,354940864,hemisphere,0.0,0.0,0.07917245466260502,0.996860934344755
2025/04/11 11:51:34.414318632,1744365094,413736269,hemisphere,0.0,0.0,0.07943342952875893,0.996840172882945
2025/04/11 11:51:34.454859135,1744365094,454416971,hemisphere,0.0,0.0,0.07972049559269459,0.9968172563626971
2025/04/11 11:51:34.505415796,1744365094,504784133,hemisphere,0.0,0.0,0.07997276031300114,0.9967970493575508
2025/04/11 11:51:34.555315318,1744365094,554605328,hemisphere,0.0,0.0,0.08021632138998645,0.9967774785691431
2025/04/11 11:51:34.606676364,1744365094,605574415,hemisphere,0.0,0.0,0.08044248095910393,0.9967592524060884
2025/04/11 11:51:34.656681556,1744365094,655671198,hemisphere,0.0,0.0,0.0805903522851837,0.9967473075552048
2025/04/11 11:51:34.704629638,1744365094,704258436,hemisphere,0.0,0.0,0.08075561813875133,0.9967339314676853
2025/04/11 11:51:34.755186351,1744365094,754776251,hemisphere,0.0,0.0,0.08088608961304432,0.9967233520426371
2025/04/11 11:51:34.807167722,1744365094,805356149,hemisphere,0.0,0.0,0.08094697582687697,0.9967184091329321
2025/04/11 11:51:34.855269572,1744365094,854806664,hemisphere,0.0,0.0,0.08096437183250178,0.9967169961898756
2025/04/11 11:51:34.905452342,1744365094,904578866,hemisphere,0.0,0.0,0.08094697582687697,0.9967184091329321
2025/04/11 11:51:34.955261202,1744365094,954846966,hemisphere,0.0,0.0,0.0808686934965009,0.9967247636194102
2025/04/11 11:51:35.5245548,1744365095,4679537,hemisphere,0.0,0.0,0.0806860327865295,0.9967395668444046
2025/04/11 11:51:35.55237336,1744365095,54755295,hemisphere,0.0,0.0,0.08044248095910393,0.9967592524060884
2025/04/11 11:51:35.109283482,1744365095,106595998,hemisphere,0.0,0.0,0.0801380344225612,0.9967837756699737
2025/04/11 11:51:35.154778458,1744365095,154440277,hemisphere,0.0,0.0,0.07975529103044747,0.9968144729851431
2025/04/11 11:51:35.209513688,1744365095,204824064,hemisphere,0.0,0.0,0.07931164193430944,0.9968498700675463
2025/04/11 11:51:35.255504261,1744365095,254880820,hemisphere,0.0,0.0,0.07877228266808124,0.9968926358857607
2025/04/11 11:51:35.305025858,1744365095,304333993,hemisphere,0.0,0.0,0.07810240117166743,0.996945341997855
2025/04/11 11:51:35.355233022,1744365095,354774875,hemisphere,0.0,0.0,0.07740638304791224,0.9969996248060677
2025/04/11 11:51:35.404755050,1744365095,404369124,hemisphere,0.0,0.0,0.07660591558664524,0.9970614493084826
2025/04/11 11:51:35.456126484,1744365095,455659960,hemisphere,0.0,0.0,0.07570968149707952,0.9971299033363762
2025/04/11 11:51:35.504960592,1744365095,504528010,hemisphere,0.0,0.0,0.07470895954658874,0.9972053807333102
2025/04/11 11:51:35.555394841,1744365095,554903597,hemisphere,0.0,0.0,0.07362983594981132,0.9972856397532273
2025/04/11 11:51:35.604979531,1744365095,604577827,hemisphere,0.0,0.0,0.07245488566091873,0.9973716907672201
2025/04/11 11:51:35.654934020,1744365095,654315379,hemisphere,0.0,0.0,0.07124501697236513,0.9974588450440487
2025/04/11 11:51:35.705057184,1744365095,704681710,hemisphere,0.0,0.0,0.07001763300827382,0.9975457538719308
2025/04/11 11:51:35.755433365,1744365095,754924013,hemisphere,0.0,0.0,0.06872920108830452,0.9976353526804087
2025/04/11 11:51:35.805638223,1744365095,804881964,hemisphere,0.0,0.0,0.06737970694905261,0.9977274052021724
2025/04/11 11:51:35.855361129,1744365095,854712440,hemisphere,0.0,0.0,0.06609104261866923,0.997813596863451
2025/04/11 11:51:35.909485793,1744365095,905165412,hemisphere,0.0,0.0,0.06482839293241176,0.997896427225692
2025/04/11 11:51:35.960787900,1744365095,954698988,hemisphere,0.0,0.0,0.06356563944649068,0.9979776598109593
2025/04/11 11:51:36.5003985,1744365096,4424111,hemisphere,0.0,0.0,0.062372461574522364,0.9980529425021174
2025/04/11 11:51:36.55160846,1744365096,54765378,hemisphere,0.0,0.0,0.06128371780933052,0.998120386492264
2025/04/11 11:51:36.105282320,1744365096,104650048,hemisphere,0.0,0.0,0.06027329833178925,0.9981819120321742
2025/04/11 11:51:36.156806270,1744365096,156097996,hemisphere,0.0,0.0,0.05938477496571341,0.9982351669332591
2025/04/11 11:51:36.204971659,1744365096,204581654,hemisphere,0.0,0.0,0.05857460969518433,0.9982830335626549
2025/04/11 11:51:36.254798980,1744365096,254404750,hemisphere,0.0,0.0,0.0579299344718715,0.9983206512399133
2025/04/11 11:51:36.305561407,1744365096,304985418,hemisphere,0.0,0.0,0.057398494827336194,0.9983513473680277
