time,header_stamp_secs,header_stamp_nsecs,header_frame_id,twist_linear_x,twist_linear_y,twist_linear_z,twist_angular_x,twist_angular_y,twist_angular_z
2025/04/11 11:51:09.229363351,1744365069,228663364,hemisphere,2.6936246891635e-06,0.005144443739250689,0.0,0.0,0.0,0.0
2025/04/11 11:51:09.280789873,1744365069,279560742,hemisphere,0.002913105412217447,-0.004240179889962098,0.0,0.0,0.0,0.0
2025/04/11 11:51:09.331470973,1744365069,329854131,hemisphere,-0.003985523660264365,0.0032528310431687826,0.0,0.0,0.0,0.0
2025/04/11 11:51:09.386804185,1744365069,385944506,hemisphere,-0.005137061390097725,-0.00027551572785741236,0.0,0.0,0.0,0.0
2025/04/11 11:51:09.430436692,1744365069,430070949,hemisphere,5.207585696190014e-05,-0.005144180862591366,0.0,0.0,0.0,0.0
2025/04/11 11:51:09.481324587,1744365069,479487514,hemisphere,0.0035459927428814117,-0.009658528357630404,0.0,0.0,0.0,0.0
2025/04/11 11:51:09.531574737,1744365069,530195580,hemisphere,0.0,0.0,0.0,0.0,0.0,0.0
2025/04/11 11:51:09.580513154,1744365069,580228229,hemisphere,-0.0042948284521180345,-0.002831917585101476,0.0,0.0,0.0,0.0
2025/04/11 11:51:09.630731427,1744365069,630097078,hemisphere,-0.002061218789121356,0.004713457939273741,0.0,0.0,0.0,0.0
2025/04/11 11:51:09.679990524,1744365069,679691693,hemisphere,0.003240991455723859,-0.003995157446941799,0.0,0.0,0.0,0.0
2025/04/11 11:51:09.729485959,1744365069,729116382,hemisphere,0.003956412123179362,-0.0032881775732902484,0.0,0.0,0.0,0.0
2025/04/11 11:51:09.780181715,1744365069,779880196,hemisphere,-0.0027055511113226118,0.004375534461748708,0.0,0.0,0.0,0.0
2025/04/11 11:51:09.829028505,1744365069,828706225,hemisphere,0.0008428786790431544,-0.005074925041253717,0.0,0.0,0.0,0.0
2025/04/11 11:51:09.879680663,1744365069,879066300,hemisphere,0.0,0.0,0.0,0.0,0.0,0.0
2025/04/11 11:51:09.930550249,1744365069,929998471,hemisphere,0.0008233862001720624,-0.00507812404410288,0.0,0.0,0.0,0.0
2025/04/11 11:51:09.982106927,1744365069,980483547,hemisphere,-0.002365877787594761,0.004568143051185601,0.0,0.0,0.0,0.0
2025/04/11 11:51:10.30727221,1744365070,30374578,hemisphere,0.0006848353304193401,-0.005098657589222775,0.0,0.0,0.0,0.0
2025/04/11 11:51:10.80632609,1744365070,79925889,hemisphere,-0.0,0.0,0.0,0.0,0.0,0.0
2025/04/11 11:51:10.133950736,1744365070,133244189,hemisphere,-0.0023307275499312124,-0.004586176809709938,0.0,0.0,0.0,0.0
2025/04/11 11:51:10.183180995,1744365070,182660007,hemisphere,-0.0030593109711975416,0.004135930974211239,0.0,0.0,0.0,0.0
2025/04/11 11:51:10.380966390,1744365070,230138459,hemisphere,0.0020554586770267762,-0.004715972674747481,0.0,0.0,0.0,0.0
2025/04/11 11:51:10.381298817,1744365070,279893837,hemisphere,-0.005121697637386959,-0.0004832410921211289,0.0,0.0,0.0,0.0
2025/04/11 11:51:10.388673876,1744365070,329474052,hemisphere,0.005042950598327389,-0.0010168372066161814,0.0,0.0,0.0,0.0
2025/04/11 11:51:10.395369831,1744365070,382701931,hemisphere,-0.004904179117355308,0.001553813317881427,0.0,0.0,0.0,0.0
2025/04/11 11:51:10.429865844,1744365070,429517834,hemisphere,-0.003921762104908978,0.003329427974056426,0.0,0.0,0.0,0.0
2025/04/11 11:51:10.481753050,1744365070,481226014,hemisphere,0.0031615728900407994,-0.004058295886562319,0.0,0.0,0.0,0.0
2025/04/11 11:51:10.532522150,1744365070,531263117,hemisphere,-0.005143278262064736,0.00010953246505909229,0.0,0.0,0.0,0.0
2025/04/11 11:51:10.581592752,1744365070,579923743,hemisphere,0.0020554586770267745,0.0047159726747474815,0.0,0.0,0.0,0.0
2025/04/11 11:51:10.630449427,1744365070,630068125,hemisphere,0.0,0.0,0.0,0.0,0.0,0.0
2025/04/11 11:51:10.680492579,1744365070,680106372,hemisphere,-0.0027093684547851334,-0.0043731717572197855,0.0,0.0,0.0,0.0
2025/04/11 11:51:10.730385987,1744365070,729702307,hemisphere,0.0015195381015808405,0.004914907181196169,0.0,0.0,0.0,0.0
2025/04/11 11:51:10.779596519,1744365070,778812813,hemisphere,0.0,-0.0,0.0,0.0,0.0,0.0
2025/04/11 11:51:10.829954667,1744365070,829554298,hemisphere,0.0,0.0,0.0,0.0,0.0,0.0
2025/04/11 11:51:10.879772343,1744365070,879373030,hemisphere,-0.0,-0.0,0.0,0.0,0.0,0.0
2025/04/11 11:51:10.930836860,1744365070,929667705,hemisphere,0.0,-0.0,0.0,0.0,0.0,0.0
2025/04/11 11:51:10.979386526,1744365070,979060731,hemisphere,0.0,0.0,0.0,0.0,0.0,0.0
2025/04/11 11:51:11.29764900,1744365071,29488178,hemisphere,0.0026140968160504644,-0.004430779443646953,0.0,0.0,0.0,0.0
2025/04/11 11:51:11.81916153,1744365071,80597980,hemisphere,0.0,0.0,0.0,0.0,0.0,0.0
2025/04/11 11:51:11.130482175,1744365071,130034004,hemisphere,0.00304702596874421,-0.004144989914068306,0.0,0.0,0.0,0.0
2025/04/11 11:51:11.181403986,1744365071,180157329,hemisphere,0.0008499637872241414,0.005073743214071557,0.0,0.0,0.0,0.0
2025/04/11 11:51:11.229678739,1744365071,229268132,hemisphere,-0.003924666085261744,-0.003326004323678162,0.0,0.0,0.0,0.0
2025/04/11 11:51:11.279867301,1744365071,279437517,hemisphere,0.0033349005397289464,-0.003917109525153101,0.0,0.0,0.0,0.0
2025/04/11 11:51:11.331002085,1744365071,330399130,hemisphere,0.0012166559513543324,0.004998505470434504,0.0,0.0,0.0,0.0
2025/04/11 11:51:11.382703951,1744365071,382375696,hemisphere,0.003244476653782591,-0.003992327627461115,0.0,0.0,0.0,0.0
2025/04/11 11:51:11.430421890,1744365071,430063105,hemisphere,-0.0034616113372107392,-0.003805595300609834,0.0,0.0,0.0,0.0
2025/04/11 11:51:11.479952276,1744365071,479616395,hemisphere,-0.0022017652623113294,0.004649466460961806,0.0,0.0,0.0,0.0
2025/04/11 11:51:11.530548459,1744365071,530237671,hemisphere,0.005129144411331277,0.00039646721130341315,0.0,0.0,0.0,0.0
2025/04/11 11:51:11.581616615,1744365071,580416846,hemisphere,-0.00011671372715765339,-0.005143120312400104,0.0,0.0,0.0,0.0
2025/04/11 11:51:11.630579148,1744365071,629718379,hemisphere,0.0007026287944977103,0.005096236005040609,0.0,0.0,0.0,0.0
2025/04/11 11:51:11.680472739,1744365071,679893234,hemisphere,0.0004894980640100625,-0.005121103424776732,0.0,0.0,0.0,0.0
2025/04/11 11:51:11.729394013,1744365071,728973290,hemisphere,0.0012880660208567359,0.004980581749940851,0.0,0.0,0.0,0.0
2025/04/11 11:51:11.781325015,1744365071,779770520,hemisphere,-0.0016383152894053669,0.004876600419803757,0.0,0.0,0.0,0.0
2025/04/11 11:51:11.830592652,1744365071,829956642,hemisphere,0.004458358813755491,-0.002566777226355709,0.0,0.0,0.0,0.0
2025/04/11 11:51:11.881507078,1744365071,880866949,hemisphere,-0.0010924136614484947,0.0050271205509924135,0.0,0.0,0.0,0.0
2025/04/11 11:51:11.930291982,1744365071,929835528,hemisphere,0.005123108896195584,-0.00046804260452573877,0.0,0.0,0.0,0.0
2025/04/11 11:51:11.979828062,1744365071,979462125,hemisphere,0.005144421800043784,-1.5263851540274054e-05,0.0,0.0,0.0,0.0
2025/04/11 11:51:12.30456256,1744365072,30025060,hemisphere,-0.005031465264594557,0.0010722247586714255,0.0,0.0,0.0,0.0
2025/04/11 11:51:12.80723780,1744365072,80394678,hemisphere,0.0003490050831656413,-0.005132592336612574,0.0,0.0,0.0,0.0
2025/04/11 11:51:12.131265527,1744365072,130565791,hemisphere,-0.00011402077978350538,0.005143180718554146,0.0,0.0,0.0,0.0
2025/04/11 11:51:12.180943031,1744365072,179841471,hemisphere,0.0018276673686597486,-0.004808839842567636,0.0,0.0,0.0,0.0
2025/04/11 11:51:12.231223003,1744365072,230828269,hemisphere,0.004176146174653118,0.0030041823795934402,0.0,0.0,0.0,0.0
2025/04/11 11:51:12.280390840,1744365072,279945954,hemisphere,-0.003179250394267626,-0.004044462334164915,0.0,0.0,0.0,0.0
2025/04/11 11:51:12.329904695,1744365072,328782088,hemisphere,0.003033989083842988,0.004154541958032336,0.0,0.0,0.0,0.0
2025/04/11 11:51:12.383123193,1744365072,382809175,hemisphere,-0.00200017220299594,-0.004739685622516744,0.0,0.0,0.0,0.0
2025/04/11 11:51:12.430094450,1744365072,429684581,hemisphere,0.0046432998517069385,-0.0022147404202452034,0.0,0.0,0.0,0.0
2025/04/11 11:51:12.480165325,1744365072,479651470,hemisphere,0.00010145329064949364,0.0051434439699238445,0.0,0.0,0.0,0.0
2025/04/11 11:51:12.531166588,1744365072,530424339,hemisphere,0.004389172381209156,-0.002683369980073625,0.0,0.0,0.0,0.0
2025/04/11 11:51:12.580491557,1744365072,578580818,hemisphere,6.01562497962694e-05,0.00514409271568272,0.0,0.0,0.0,0.0
2025/04/11 11:51:12.631625101,1744365072,631280463,hemisphere,0.005144123508278922,-5.746280102575514e-05,0.0,0.0,0.0,0.0
2025/04/11 11:51:12.681471392,1744365072,679297432,hemisphere,0.0015751969769753473,0.0048973526650280454,0.0,0.0,0.0,0.0
2025/04/11 11:51:12.729646549,1744365072,729355535,hemisphere,0.001956244001059131,0.0047579846626749165,0.0,0.0,0.0,0.0
2025/04/11 11:51:12.779349113,1744365072,779031752,hemisphere,0.0035891010502814755,-0.0036856020258294276,0.0,0.0,0.0,0.0
2025/04/11 11:51:12.829373870,1744365072,828741875,hemisphere,0.00995981327490578,0.002581347341356622,0.0,0.0,0.0,0.0
2025/04/11 11:51:12.880639582,1744365072,880068915,hemisphere,0.009948455247840085,-0.0026247805145271376,0.0,0.0,0.0,0.0
2025/04/11 11:51:12.929331168,1744365072,928916807,hemisphere,-0.005118650144497563,-0.0005145185518177687,0.0,0.0,0.0,0.0
2025/04/11 11:51:12.979558038,1744365072,979197048,hemisphere,0.010278051405181473,-0.0004721163841315575,0.0,0.0,0.0,0.0
2025/04/11 11:51:13.32071290,1744365073,31731958,hemisphere,-0.0032152851359280926,0.009773595861421638,0.0,0.0,0.0,0.0
2025/04/11 11:51:13.80715650,1744365073,80373707,hemisphere,0.003256196351221062,-0.009760042002471759,0.0,0.0,0.0,0.0
2025/04/11 11:51:13.132050609,1744365073,130979190,hemisphere,0.01027067201811702,-0.0006119892678685927,0.0,0.0,0.0,0.0
2025/04/11 11:51:13.182835397,1744365073,182482249,hemisphere,-0.004616292181832207,0.0022704966711898987,0.0,0.0,0.0,0.0
2025/04/11 11:51:13.230556064,1744365073,230215534,hemisphere,0.0024562947194715383,-0.0045201686797094,0.0,0.0,0.0,0.0
2025/04/11 11:51:13.279767461,1744365073,279338369,hemisphere,0.0012454249370605467,0.004991415166871746,0.0,0.0,0.0,0.0
2025/04/11 11:51:13.332631590,1744365073,331835721,hemisphere,-0.0008862486607975999,-0.005067531149698444,0.0,0.0,0.0,0.0
2025/04/11 11:51:13.382786542,1744365073,382480721,hemisphere,0.0013262757860334064,0.004970543348700527,0.0,0.0,0.0,0.0
2025/04/11 11:51:13.430056709,1744365073,429478241,hemisphere,-0.002958082574397866,-0.004208925768527318,0.0,0.0,0.0,0.0
2025/04/11 11:51:13.480240373,1744365073,479847648,hemisphere,-0.00490930478315853,0.0015375419304807117,0.0,0.0,0.0,0.0
2025/04/11 11:51:13.531050659,1744365073,530456510,hemisphere,0.0011090781874807509,0.005023470335931524,0.0,0.0,0.0,0.0
2025/04/11 11:51:13.580462099,1744365073,579836490,hemisphere,0.004896527222538757,0.0015777610087926695,0.0,0.0,0.0,0.0
2025/04/11 11:51:13.631704411,1744365073,630937502,hemisphere,0.0013158626031511877,-0.004973310190562997,0.0,0.0,0.0,0.0
2025/04/11 11:51:13.679780706,1744365073,679357784,hemisphere,-0.0044225451648006045,0.002628003597263209,0.0,0.0,0.0,0.0
2025/04/11 11:51:13.729883947,1744365073,729571222,hemisphere,0.0006581295561401125,0.005102173471106641,0.0,0.0,0.0,0.0
2025/04/11 11:51:13.778925644,1744365073,778652956,hemisphere,0.0016867476758069305,-0.004860060793867654,0.0,0.0,0.0,0.0
2025/04/11 11:51:13.831662609,1744365073,830849875,hemisphere,-0.0006055562534304497,0.00510867989463627,0.0,0.0,0.0,0.0
2025/04/11 11:51:13.881411083,1744365073,878691097,hemisphere,0.0049101091652371,-0.0015349712138617458,0.0,0.0,0.0,0.0
2025/04/11 11:51:13.930369705,1744365073,930027015,hemisphere,-0.0,-0.0,0.0,0.0,0.0,0.0
2025/04/11 11:51:13.980237399,1744365073,979844548,hemisphere,0.0,-0.0,0.0,0.0,0.0,0.0
2025/04/11 11:51:14.29690652,1744365074,29306114,hemisphere,0.0013470846530626488,0.0049649442675031765,0.0,0.0,0.0,0.0
2025/04/11 11:51:14.80262061,1744365074,79877892,hemisphere,-0.0038493892853689177,0.003412844967415975,0.0,0.0,0.0,0.0
2025/04/11 11:51:14.133944919,1744365074,133651737,hemisphere,0.003578149866768176,-0.0036962348644095193,0.0,0.0,0.0,0.0
2025/04/11 11:51:14.182303719,1744365074,181562583,hemisphere,-0.0028491352680772666,0.004283425832920171,0.0,0.0,0.0,0.0
2025/04/11 11:51:14.231638092,1744365074,230482771,hemisphere,-0.0,-0.0,0.0,0.0,0.0,0.0
2025/04/11 11:51:14.281261697,1744365074,279658759,hemisphere,0.0,0.0,0.0,0.0,0.0,0.0
2025/04/11 11:51:14.332110846,1744365074,330354325,hemisphere,-0.0,0.0,0.0,0.0,0.0,0.0
2025/04/11 11:51:14.382663512,1744365074,382358058,hemisphere,0.004282431036153892,-0.0028506302921486467,0.0,0.0,0.0,0.0
2025/04/11 11:51:14.430260602,1744365074,429877726,hemisphere,-0.0,0.0,0.0,0.0,0.0,0.0
2025/04/11 11:51:14.479733997,1744365074,479488639,hemisphere,-0.0,0.0,0.0,0.0,0.0,0.0
2025/04/11 11:51:14.532333885,1744365074,531130053,hemisphere,0.0,-0.0,0.0,0.0,0.0,0.0
2025/04/11 11:51:14.579199787,1744365074,578902419,hemisphere,-0.002340327697302284,0.004581285290305479,0.0,0.0,0.0,0.0
2025/04/11 11:51:14.629287359,1744365074,628666202,hemisphere,0.0,-0.0,0.0,0.0,0.0,0.0
2025/04/11 11:51:14.679360618,1744365074,679000049,hemisphere,-0.0022713023315822384,0.00461589583509839,0.0,0.0,0.0,0.0
2025/04/11 11:51:14.729268261,1744365074,728860155,hemisphere,-0.0,-0.0,0.0,0.0,0.0,0.0
2025/04/11 11:51:14.779336833,1744365074,779129562,hemisphere,-0.0024310111570464764,0.004533816647841543,0.0,0.0,0.0,0.0
2025/04/11 11:51:14.831203097,1744365074,829602422,hemisphere,0.00465176959437637,0.00219689514605615,0.0,0.0,0.0,0.0
2025/04/11 11:51:14.879685197,1744365074,879282437,hemisphere,0.0018929614580766466,0.004783513934354735,0.0,0.0,0.0,0.0
2025/04/11 11:51:14.930061263,1744365074,929716986,hemisphere,-0.003389266856593335,-0.003870165218272665,0.0,0.0,0.0,0.0
2025/04/11 11:51:14.978809924,1744365074,978549010,hemisphere,0.0021145828059648737,0.010069248935468624,0.0,0.0,0.0,0.0
2025/04/11 11:51:15.30287124,1744365075,29872781,hemisphere,-0.0005259254178919861,0.010275438531884342,0.0,0.0,0.0,0.0
2025/04/11 11:51:15.79898405,1744365075,79555537,hemisphere,-0.008694860023946049,0.012750968078595094,0.0,0.0,0.0,0.0
2025/04/11 11:51:15.132789973,1744365075,132320804,hemisphere,0.00917360121774082,0.012410995869600082,0.0,0.0,0.0,0.0
2025/04/11 11:51:15.180000010,1744365075,179599750,hemisphere,0.008703759759369888,0.012744894814337998,0.0,0.0,0.0,0.0
2025/04/11 11:51:15.228868921,1744365075,228554999,hemisphere,0.00460799357380686,0.02005520714165346,0.0,0.0,0.0,0.0
2025/04/11 11:51:15.279319756,1744365075,278973315,hemisphere,0.01930961941502379,0.007112210367938329,0.0,0.0,0.0,0.0
2025/04/11 11:51:15.329707869,1744365075,329290457,hemisphere,0.008161780884190596,0.02439299179778283,0.0,0.0,0.0,0.0
2025/04/11 11:51:15.384189361,1744365075,383731285,hemisphere,0.013926703073092917,0.027546289271394957,0.0,0.0,0.0,0.0
2025/04/11 11:51:15.430169896,1744365075,429401125,hemisphere,0.01951279731893832,0.030266332190151204,0.0,0.0,0.0,0.0
2025/04/11 11:51:15.479674355,1744365075,479297328,hemisphere,0.01982684009856902,0.03606488825421851,0.0,0.0,0.0,0.0
2025/04/11 11:51:15.530070414,1744365075,529583169,hemisphere,0.03055087077980299,0.027575787344684688,0.0,0.0,0.0,0.0
2025/04/11 11:51:15.579664197,1744365075,579365454,hemisphere,0.026449655369739852,0.04412421778360438,0.0,0.0,0.0,0.0
2025/04/11 11:51:15.629970875,1744365075,629661153,hemisphere,0.02470035717437435,0.050913600355227406,0.0,0.0,0.0,0.0
2025/04/11 11:51:15.680072970,1744365075,679514709,hemisphere,0.04421970664071045,0.043076931054189166,0.0,0.0,0.0,0.0
2025/04/11 11:51:15.729577482,1744365075,729244159,hemisphere,0.03878859514042737,0.05448010689708779,0.0,0.0,0.0,0.0
2025/04/11 11:51:15.779115663,1744365075,778830646,hemisphere,0.048611150743502106,0.05314279365267423,0.0,0.0,0.0,0.0
2025/04/11 11:51:15.829691153,1744365075,829205574,hemisphere,0.05576726577783911,0.06054032606451526,0.0,0.0,0.0,0.0
2025/04/11 11:51:15.880024188,1744365075,879707146,hemisphere,0.05173792958944933,0.07051000524262377,0.0,0.0,0.0,0.0
2025/04/11 11:51:15.929570642,1744365075,929299589,hemisphere,0.04756778704571086,0.07944850933503461,0.0,0.0,0.0,0.0
2025/04/11 11:51:15.980349009,1744365075,979901495,hemisphere,0.07106550606862037,0.06710939030379771,0.0,0.0,0.0,0.0
2025/04/11 11:51:16.30014228,1744365076,29703985,hemisphere,0.06453319721994895,0.08664102704644096,0.0,0.0,0.0,0.0
2025/04/11 11:51:16.81235709,1744365076,80666401,hemisphere,0.07289524383153784,0.09320102841879692,0.0,0.0,0.0,0.0
2025/04/11 11:51:16.130629775,1744365076,130285806,hemisphere,0.0844558945782246,0.09006230981239181,0.0,0.0,0.0,0.0
2025/04/11 11:51:16.180753064,1744365076,179882373,hemisphere,0.08144244625122127,0.09953866509966325,0.0,0.0,0.0,0.0
2025/04/11 11:51:16.230266692,1744365076,229879015,hemisphere,0.07673815662740179,0.10955274510194962,0.0,0.0,0.0,0.0
2025/04/11 11:51:16.280855385,1744365076,280470695,hemisphere,0.07619847248013192,0.11613355583835899,0.0,0.0,0.0,0.0
2025/04/11 11:51:16.330190352,1744365076,329771778,hemisphere,0.08123509108745229,0.11895235160048799,0.0,0.0,0.0,0.0
2025/04/11 11:51:16.383939544,1744365076,383300645,hemisphere,0.08290655461740183,0.12403155956987132,0.0,0.0,0.0,0.0
2025/04/11 11:51:16.429682838,1744365076,429385852,hemisphere,0.07119151464554561,0.1369326331456811,0.0,0.0,0.0,0.0
2025/04/11 11:51:16.480385923,1744365076,480082917,hemisphere,0.06028297891345862,0.1476452642593518,0.0,0.0,0.0,0.0
2025/04/11 11:51:16.530007405,1744365076,529404590,hemisphere,0.08218666658424963,0.14263880217214836,0.0,0.0,0.0,0.0
2025/04/11 11:51:16.580357007,1744365076,579975292,hemisphere,0.0685356489058146,0.15531769358357156,0.0,0.0,0.0,0.0
2025/04/11 11:51:16.629921584,1744365076,628846531,hemisphere,0.09957331397600674,0.14380212770994097,0.0,0.0,0.0,0.0
2025/04/11 11:51:16.679482678,1744365076,679159444,hemisphere,0.07010940798504886,0.16024533597598578,0.0,0.0,0.0,0.0
2025/04/11 11:51:16.729114885,1744365076,728808798,hemisphere,0.08230441216138452,0.1543369059196132,0.0,0.0,0.0,0.0
2025/04/11 11:51:16.779514854,1744365076,778972247,hemisphere,0.06404832577965988,0.1627627376118169,0.0,0.0,0.0,0.0
2025/04/11 11:51:16.831073718,1744365076,830617211,hemisphere,0.06831511384883289,0.16101845238944384,0.0,0.0,0.0,0.0
2025/04/11 11:51:16.878976460,1744365076,878690724,hemisphere,0.07019330263248151,0.16020860481140037,0.0,0.0,0.0,0.0
2025/04/11 11:51:16.930028233,1744365076,929743960,hemisphere,0.03523056891606572,0.17132630797376372,0.0,0.0,0.0,0.0
2025/04/11 11:51:16.979474183,1744365076,978890158,hemisphere,0.05026254781633619,0.1675337968204658,0.0,0.0,0.0,0.0
2025/04/11 11:51:17.29841311,1744365077,29420905,hemisphere,0.04332118869248564,0.1694614156684071,0.0,0.0,0.0,0.0
2025/04/11 11:51:17.81063488,1744365077,80704288,hemisphere,0.023798650722661668,0.1732845088686561,0.0,0.0,0.0,0.0
2025/04/11 11:51:17.131145534,1744365077,130804314,hemisphere,0.036097274309553014,0.17114579626006443,0.0,0.0,0.0,0.0
2025/04/11 11:51:17.180573757,1744365077,180259938,hemisphere,0.013175495251329916,0.17441417119876693,0.0,0.0,0.0,0.0
2025/04/11 11:51:17.229881809,1744365077,229324782,hemisphere,0.026125208168374554,0.17294903957012797,0.0,0.0,0.0,0.0
2025/04/11 11:51:17.283398255,1744365077,280504075,hemisphere,0.038852901788673656,0.16526092440035844,0.0,0.0,0.0,0.0
2025/04/11 11:51:17.329283746,1744365077,328807725,hemisphere,0.024020088654050864,0.16286040461200943,0.0,0.0,0.0,0.0
2025/04/11 11:51:17.383510778,1744365077,382486441,hemisphere,-0.0006680169999317748,0.1594763786840613,0.0,0.0,0.0,0.0
2025/04/11 11:51:17.430324133,1744365077,429871764,hemisphere,0.03836507012301638,0.1547943248292726,0.0,0.0,0.0,0.0
2025/04/11 11:51:17.481119135,1744365077,479466988,hemisphere,0.004982340071640224,0.15425288997340422,0.0,0.0,0.0,0.0
2025/04/11 11:51:17.530088242,1744365077,529784936,hemisphere,0.053026296677778244,0.1339291373671653,0.0,0.0,0.0,0.0
2025/04/11 11:51:17.580007722,1744365077,579672103,hemisphere,-0.002991504207078499,0.14401337742672318,0.0,0.0,0.0,0.0
2025/04/11 11:51:17.629585845,1744365077,629256104,hemisphere,0.029678869807878143,0.13042129170067063,0.0,0.0,0.0,0.0
2025/04/11 11:51:17.679968509,1744365077,679599315,hemisphere,0.06428611501353851,0.1113917111713079,0.0,0.0,0.0,0.0
2025/04/11 11:51:17.728921976,1744365077,728618398,hemisphere,0.0537365330691236,0.11115935764236144,0.0,0.0,0.0,0.0
2025/04/11 11:51:17.779491126,1744365077,778945126,hemisphere,0.011280099039928554,0.11261424753708262,0.0,0.0,0.0,0.0
2025/04/11 11:51:17.834918990,1744365077,829343312,hemisphere,0.10286158516575407,-0.0023701801535227543,0.0,0.0,0.0,0.0
2025/04/11 11:51:17.880753496,1744365077,879809380,hemisphere,0.048762597150308014,0.09059984865290119,0.0,0.0,0.0,0.0
2025/04/11 11:51:17.930108907,1744365077,929679758,hemisphere,0.06657106817287813,-0.05671655031681371,0.0,0.0,0.0,0.0
2025/04/11 11:51:17.979678538,1744365077,979337712,hemisphere,0.0787145070240894,-0.024065439873157353,0.0,0.0,0.0,0.0
2025/04/11 11:51:18.36583045,1744365078,30015433,hemisphere,0.0138411888250212,-0.07067971410332886,0.0,0.0,0.0,0.0
2025/04/11 11:51:18.79897571,1744365078,79516153,hemisphere,0.05037043857190998,-0.03569066211926169,0.0,0.0,0.0,0.0
2025/04/11 11:51:18.130978480,1744365078,130654001,hemisphere,0.01963715409397917,-0.047549059331203125,0.0,0.0,0.0,0.0
2025/04/11 11:51:18.180065883,1744365078,179587194,hemisphere,0.0226443119712278,-0.04038471412980417,0.0,0.0,0.0,0.0
2025/04/11 11:51:18.229973683,1744365078,229543847,hemisphere,0.026421251700598725,-0.03155467020358637,0.0,0.0,0.0,0.0
2025/04/11 11:51:18.282043060,1744365078,280543644,hemisphere,0.009399259866139485,-0.03476282550977882,0.0,0.0,0.0,0.0
2025/04/11 11:51:18.329815011,1744365078,329395069,hemisphere,0.012752536299428609,-0.03367748419027622,0.0,0.0,0.0,0.0
2025/04/11 11:51:18.388396419,1744365078,387211040,hemisphere,0.01294042698282317,-0.03360573571515391,0.0,0.0,0.0,0.0
2025/04/11 11:51:18.429868103,1744365078,429514487,hemisphere,0.012692083342979178,-0.0445264081238445,0.0,0.0,0.0,0.0
2025/04/11 11:51:18.481842740,1744365078,480366106,hemisphere,0.014110949415429664,-0.049471324732496734,0.0,0.0,0.0,0.0
2025/04/11 11:51:18.529982668,1744365078,529638753,hemisphere,0.010108501067352199,-0.05567872620530051,0.0,0.0,0.0,0.0
2025/04/11 11:51:18.579686460,1744365078,579363017,hemisphere,0.0220830072507947,-0.05764846255711601,0.0,0.0,0.0,0.0
2025/04/11 11:51:18.630280759,1744365078,629934019,hemisphere,0.013260940592256985,-0.07079087475393159,0.0,0.0,0.0,0.0
2025/04/11 11:51:18.679105128,1744365078,678783112,hemisphere,0.035992404744071275,-0.07402476486334102,0.0,0.0,0.0,0.0
2025/04/11 11:51:18.730242617,1744365078,729945818,hemisphere,0.002182507371321846,-0.08742831840480392,0.0,0.0,0.0,0.0
2025/04/11 11:51:18.779886772,1744365078,779588088,hemisphere,0.0328375749600516,-0.08658206321593505,0.0,0.0,0.0,0.0
2025/04/11 11:51:18.830357413,1744365078,829967516,hemisphere,0.02313303839541051,-0.09496756790785495,0.0,0.0,0.0,0.0
2025/04/11 11:51:18.880060556,1744365078,879594655,hemisphere,0.030973536449686846,-0.0981160715508512,0.0,0.0,0.0,0.0
2025/04/11 11:51:18.929571139,1744365078,929310971,hemisphere,0.051333503370953514,-0.09505825867727247,0.0,0.0,0.0,0.0
2025/04/11 11:51:18.980125500,1744365078,979816073,hemisphere,0.03908508643971487,-0.10071522789077608,0.0,0.0,0.0,0.0
2025/04/11 11:51:19.30231992,1744365079,29517085,hemisphere,0.05182115221530322,-0.10061698447962097,0.0,0.0,0.0,0.0
2025/04/11 11:51:19.80656196,1744365079,79947182,hemisphere,0.07215744970272506,-0.08719238404294619,0.0,0.0,0.0,0.0
2025/04/11 11:51:19.131521953,1744365079,131091066,hemisphere,0.06808053151300857,-0.09041156237782953,0.0,0.0,0.0,0.0
2025/04/11 11:51:19.183621529,1744365079,182995101,hemisphere,0.06380074057510243,-0.09964744740157283,0.0,0.0,0.0,0.0
2025/04/11 11:51:19.229328907,1744365079,228937199,hemisphere,0.08976695503404675,-0.08476975617321818,0.0,0.0,0.0,0.0
2025/04/11 11:51:19.279796617,1744365079,279446629,hemisphere,0.0611726302624017,-0.10724703764920934,0.0,0.0,0.0,0.0
2025/04/11 11:51:19.329520500,1744365079,329154842,hemisphere,0.08385008124756209,-0.09751913543496589,0.0,0.0,0.0,0.0
2025/04/11 11:51:19.382824607,1744365079,382421468,hemisphere,0.1024290248702141,-0.07777604236101916,0.0,0.0,0.0,0.0
2025/04/11 11:51:19.429776256,1744365079,429256609,hemisphere,0.09174766459044738,-0.0901287076541362,0.0,0.0,0.0,0.0
2025/04/11 11:51:19.479933054,1744365079,479656959,hemisphere,0.0928419199277766,-0.08900110002314747,0.0,0.0,0.0,0.0
2025/04/11 11:51:19.530499082,1744365079,529435759,hemisphere,0.10875801521273072,-0.06864773869686762,0.0,0.0,0.0,0.0
2025/04/11 11:51:19.580300756,1744365079,579923806,hemisphere,0.07072296348330026,-0.1074201114193509,0.0,0.0,0.0,0.0
2025/04/11 11:51:19.629849921,1744365079,629541826,hemisphere,0.11205879381120161,-0.06311612021333843,0.0,0.0,0.0,0.0
2025/04/11 11:51:19.680204423,1744365079,679905584,hemisphere,0.10475641573147777,-0.0746117367731095,0.0,0.0,0.0,0.0
2025/04/11 11:51:19.729866340,1744365079,729591038,hemisphere,0.08220443933225623,-0.09891030307948405,0.0,0.0,0.0,0.0
2025/04/11 11:51:19.778840779,1744365079,778549607,hemisphere,0.11692852026351029,-0.05355874391910108,0.0,0.0,0.0,0.0
2025/04/11 11:51:19.829400107,1744365079,829096400,hemisphere,0.06359003431550643,-0.10583158939326268,0.0,0.0,0.0,0.0
2025/04/11 11:51:19.879110054,1744365079,878699854,hemisphere,0.07490504760364883,-0.09814912949815975,0.0,0.0,0.0,0.0
2025/04/11 11:51:19.930276456,1744365079,929851712,hemisphere,0.10215320457231802,-0.06934508326736351,0.0,0.0,0.0,0.0
2025/04/11 11:51:19.979908665,1744365079,979582145,hemisphere,0.0647327508391271,-0.11113275336283843,0.0,0.0,0.0,0.0
2025/04/11 11:51:20.30240596,1744365080,29964165,hemisphere,0.08649280913977862,-0.08810795506003563,0.0,0.0,0.0,0.0
2025/04/11 11:51:20.80000265,1744365080,79680428,hemisphere,0.07442450794223664,-0.09851401116240972,0.0,0.0,0.0,0.0
2025/04/11 11:51:20.130667607,1744365080,130300753,hemisphere,0.05384592667584536,-0.10536016539470804,0.0,0.0,0.0,0.0
2025/04/11 11:51:20.180209028,1744365080,179887684,hemisphere,0.050733902511741216,-0.10689349562770359,0.0,0.0,0.0,0.0
2025/04/11 11:51:20.229733926,1744365080,229428166,hemisphere,0.0649646402930478,-0.09267580533391022,0.0,0.0,0.0,0.0
2025/04/11 11:51:20.280382966,1744365080,279935501,hemisphere,0.03013121998686917,-0.10909316644408489,0.0,0.0,0.0,0.0
2025/04/11 11:51:20.329958850,1744365080,329612467,hemisphere,0.06137573218203049,-0.09509063508996865,0.0,0.0,0.0,0.0
2025/04/11 11:51:20.382727507,1744365080,382241689,hemisphere,0.044268152715925824,-0.09854710430149843,0.0,0.0,0.0,0.0
2025/04/11 11:51:20.430364745,1744365080,429943251,hemisphere,0.01678838806390344,-0.10672090300080264,0.0,0.0,0.0,0.0
2025/04/11 11:51:20.479791392,1744365080,479367535,hemisphere,0.024081693757920266,-0.10531511352527084,0.0,0.0,0.0,0.0
2025/04/11 11:51:20.530130943,1744365080,529834752,hemisphere,0.034070890094655526,-0.10792767870593631,0.0,0.0,0.0,0.0
2025/04/11 11:51:20.580002293,1744365080,579541471,hemisphere,0.05624798362247046,-0.08615270045203531,0.0,0.0,0.0,0.0
2025/04/11 11:51:20.629475365,1744365080,629177941,hemisphere,0.011255053463833813,-0.10744545073020627,0.0,0.0,0.0,0.0
2025/04/11 11:51:20.679130788,1744365080,678866781,hemisphere,0.038239974826191334,-0.10103912824437468,0.0,0.0,0.0,0.0
2025/04/11 11:51:20.729207285,1744365080,728865889,hemisphere,0.03675469926778841,-0.09610002881636541,0.0,0.0,0.0,0.0
2025/04/11 11:51:20.779468682,1744365080,779196490,hemisphere,0.03305554442979977,-0.09743435964392316,0.0,0.0,0.0,0.0
2025/04/11 11:51:20.828874768,1744365080,828655167,hemisphere,0.011879269553346117,-0.10220081414377663,0.0,0.0,0.0,0.0
2025/04/11 11:51:20.879561191,1744365080,879208457,hemisphere,0.029170365228058458,-0.09866718425714553,0.0,0.0,0.0,0.0
2025/04/11 11:51:20.929111734,1744365080,928793687,hemisphere,0.04310804855254916,-0.09342280025113192,0.0,0.0,0.0,0.0
2025/04/11 11:51:20.980337460,1744365080,980003997,hemisphere,0.010166834782168049,-0.10755387757585981,0.0,0.0,0.0,0.0
2025/04/11 11:51:21.29898092,1744365081,29607380,hemisphere,0.033079136516482324,-0.10284440596558896,0.0,0.0,0.0,0.0
2025/04/11 11:51:21.79845515,1744365081,78909438,hemisphere,0.03513655459892875,-0.1021597946454839,0.0,0.0,0.0,0.0
2025/04/11 11:51:21.130991894,1744365081,130540205,hemisphere,0.03367508652978,-0.1080518298313626,0.0,0.0,0.0,0.0
2025/04/11 11:51:21.179780980,1744365081,179509916,hemisphere,0.03009313745302607,-0.10910367757746386,0.0,0.0,0.0,0.0
2025/04/11 11:51:21.229640643,1744365081,229369706,hemisphere,0.03550138846178436,-0.11287072113203774,0.0,0.0,0.0,0.0
2025/04/11 11:51:21.280093407,1744365081,279762770,hemisphere,0.03326856732136264,-0.11354889123177164,0.0,0.0,0.0,0.0
2025/04/11 11:51:21.328909812,1744365081,328535630,hemisphere,0.030746653524598228,-0.11957700897241803,0.0,0.0,0.0,0.0
2025/04/11 11:51:21.384427969,1744365081,383236457,hemisphere,0.033389389511366566,-0.1188661703169143,0.0,0.0,0.0,0.0
2025/04/11 11:51:21.429852323,1744365081,429459150,hemisphere,0.015709617768099225,-0.12246316053136819,0.0,0.0,0.0,0.0
2025/04/11 11:51:21.480215542,1744365081,479875462,hemisphere,0.0546786922848608,-0.11640901387445686,0.0,0.0,0.0,0.0
2025/04/11 11:51:21.530005711,1744365081,529691117,hemisphere,-0.003501279625507864,-0.12856344325736607,0.0,0.0,0.0,0.0
2025/04/11 11:51:21.578921447,1744365081,578508753,hemisphere,0.04310050399313561,-0.12117410802949484,0.0,0.0,0.0,0.0
2025/04/11 11:51:21.630106583,1744365081,629702256,hemisphere,0.008887795655898818,-0.1334599405451815,0.0,0.0,0.0,0.0
2025/04/11 11:51:21.679721494,1744365081,679403034,hemisphere,0.024329104793254504,-0.1315243068862301,0.0,0.0,0.0,0.0
2025/04/11 11:51:21.730068784,1744365081,729797802,hemisphere,0.015772099009871542,-0.13800163365985735,0.0,0.0,0.0,0.0
2025/04/11 11:51:21.779354768,1744365081,779021195,hemisphere,0.025631779150232143,-0.14174559560306102,0.0,0.0,0.0,0.0
2025/04/11 11:51:21.829853657,1744365081,829472466,hemisphere,0.01655605798875818,-0.1430898281470268,0.0,0.0,0.0,0.0
2025/04/11 11:51:21.879222544,1744365081,878873488,hemisphere,0.01629349432520552,-0.1482964821246184,0.0,0.0,0.0,0.0
2025/04/11 11:51:21.929577435,1744365081,929299922,hemisphere,0.005258661840184106,-0.14909618051282655,0.0,0.0,0.0,0.0
2025/04/11 11:51:21.981772879,1744365081,979009337,hemisphere,0.012120508824326217,-0.1486957223113772,0.0,0.0,0.0,0.0
2025/04/11 11:51:22.29774549,1744365082,29464867,hemisphere,0.02115891242980049,-0.15287602232699754,0.0,0.0,0.0,0.0
2025/04/11 11:51:22.80147008,1744365082,79837624,hemisphere,-0.007808177085165983,-0.15413568745862624,0.0,0.0,0.0,0.0
2025/04/11 11:51:22.130591520,1744365082,130279881,hemisphere,-0.002504961077657734,-0.15431300317126886,0.0,0.0,0.0,0.0
2025/04/11 11:51:22.182466166,1744365082,181994438,hemisphere,0.008513193256742508,-0.15925039135106603,0.0,0.0,0.0,0.0
2025/04/11 11:51:22.230173381,1744365082,229777099,hemisphere,-0.010335777572131095,-0.1539868483985436,0.0,0.0,0.0,0.0
2025/04/11 11:51:22.279663890,1744365082,279379795,hemisphere,-0.009402477830428791,-0.15920036122930947,0.0,0.0,0.0,0.0
2025/04/11 11:51:22.330025136,1744365082,329722200,hemisphere,0.015864314844151375,-0.15351580144161792,0.0,0.0,0.0,0.0
2025/04/11 11:51:22.382562779,1744365082,382344453,hemisphere,-0.022938975244329623,-0.15781940634673025,0.0,0.0,0.0,0.0
2025/04/11 11:51:22.430183859,1744365082,429915375,hemisphere,-0.03298295336251127,-0.15076771061876287,0.0,0.0,0.0,0.0
2025/04/11 11:51:22.479986217,1744365082,479651705,hemisphere,-0.016935662011703375,-0.15340130745845018,0.0,0.0,0.0,0.0
2025/04/11 11:51:22.529611794,1744365082,529300507,hemisphere,-0.006947203704238696,-0.1541768923620801,0.0,0.0,0.0,0.0
2025/04/11 11:51:22.580018854,1744365082,579738166,hemisphere,-0.02350433166178297,-0.15253302649219783,0.0,0.0,0.0,0.0
2025/04/11 11:51:22.629095840,1744365082,628694548,hemisphere,-0.023820042741753252,-0.15768883019629315,0.0,0.0,0.0,0.0
2025/04/11 11:51:22.679883244,1744365082,679256626,hemisphere,-0.05693909109921299,-0.14344587021776592,0.0,0.0,0.0,0.0
2025/04/11 11:51:22.729272385,1744365082,728963695,hemisphere,-0.004336165256648032,-0.15427240663386196,0.0,0.0,0.0,0.0
2025/04/11 11:51:22.779654240,1744365082,779250824,hemisphere,-0.051263534687340594,-0.14557069687645396,0.0,0.0,0.0,0.0
2025/04/11 11:51:22.829278880,1744365082,828948573,hemisphere,-0.03553055601935626,-0.15018774040077973,0.0,0.0,0.0,0.0
2025/04/11 11:51:22.878891092,1744365082,878604205,hemisphere,-0.04830024445315472,-0.1411538556102109,0.0,0.0,0.0,0.0
2025/04/11 11:51:22.929326460,1744365082,928981408,hemisphere,-0.06316791877247516,-0.13515597880159336,0.0,0.0,0.0,0.0
2025/04/11 11:51:22.979846282,1744365082,979493221,hemisphere,-0.06146759467344439,-0.1302710128168732,0.0,0.0,0.0,0.0
2025/04/11 11:51:23.30165996,1744365083,29861038,hemisphere,-0.04642058303294156,-0.13635956675699204,0.0,0.0,0.0,0.0
2025/04/11 11:51:23.79935041,1744365083,79631525,hemisphere,-0.04841465839464413,-0.1356643756768987,0.0,0.0,0.0,0.0
2025/04/11 11:51:23.130971315,1744365083,130023477,hemisphere,-0.07213105633504631,-0.12468324942534648,0.0,0.0,0.0,0.0
2025/04/11 11:51:23.180202727,1744365083,179765769,hemisphere,-0.06377686341314842,-0.1291561600097084,0.0,0.0,0.0,0.0
2025/04/11 11:51:23.229295994,1744365083,228829375,hemisphere,-0.07189154889456,-0.12482150124403199,0.0,0.0,0.0,0.0
2025/04/11 11:51:23.280264485,1744365083,279823489,hemisphere,-0.04777986088524703,-0.13042352124426448,0.0,0.0,0.0,0.0
2025/04/11 11:51:23.329760569,1744365083,329538045,hemisphere,-0.05999484680832121,-0.12527501090166682,0.0,0.0,0.0,0.0
2025/04/11 11:51:23.383816278,1744365083,382772821,hemisphere,-0.08343713712387192,-0.1110470807745024,0.0,0.0,0.0,0.0
2025/04/11 11:51:23.430034885,1744365083,429733214,hemisphere,-0.0734000846928706,-0.11792216741158588,0.0,0.0,0.0,0.0
2025/04/11 11:51:23.480103710,1744365083,479378523,hemisphere,-0.09517184980264422,-0.09398333707145819,0.0,0.0,0.0,0.0
2025/04/11 11:51:23.530056167,1744365083,529770487,hemisphere,-0.048391059401551716,-0.12469504405524659,0.0,0.0,0.0,0.0
2025/04/11 11:51:23.579728573,1744365083,579453760,hemisphere,-0.09955580437247659,-0.08932631447503904,0.0,0.0,0.0,0.0
2025/04/11 11:51:23.630111700,1744365083,629850257,hemisphere,-0.07172893268575696,-0.1128960090424216,0.0,0.0,0.0,0.0
2025/04/11 11:51:23.679935406,1744365083,679571261,hemisphere,-0.09824714291565224,-0.08299588429625525,0.0,0.0,0.0,0.0
2025/04/11 11:51:23.729839653,1744365083,729502871,hemisphere,-0.08940535080805599,-0.0924526968135296,0.0,0.0,0.0,0.0
2025/04/11 11:51:23.780183863,1744365083,779705999,hemisphere,-0.09737264097958225,-0.08402015644991008,0.0,0.0,0.0,0.0
2025/04/11 11:51:23.829690968,1744365083,829423948,hemisphere,-0.11812204796569489,-0.03593326539769953,0.0,0.0,0.0,0.0
2025/04/11 11:51:23.879370348,1744365083,879104209,hemisphere,-0.10335652685877478,-0.05759840820085319,0.0,0.0,0.0,0.0
2025/04/11 11:51:23.929877130,1744365083,929488270,hemisphere,-0.09487581447887718,-0.06170728652001798,0.0,0.0,0.0,0.0
2025/04/11 11:51:23.979565234,1744365083,979192305,hemisphere,-0.10748483666093289,-0.03544318369823018,0.0,0.0,0.0,0.0
2025/04/11 11:51:24.29896430,1744365084,29598208,hemisphere,-0.10769136731579071,-0.008588976466750149,0.0,0.0,0.0,0.0
2025/04/11 11:51:24.79676239,1744365084,79366656,hemisphere,-0.10072558090571597,-0.020987634644663924,0.0,0.0,0.0,0.0
2025/04/11 11:51:24.131548262,1744365084,131196337,hemisphere,-0.10136297266013032,-0.017654212819423646,0.0,0.0,0.0,0.0
2025/04/11 11:51:24.179671190,1744365084,179404270,hemisphere,-0.09774310458770014,0.0005117863758329064,0.0,0.0,0.0,0.0
2025/04/11 11:51:24.230064315,1744365084,229800144,hemisphere,-0.09769621346144158,0.0030702271956673387,0.0,0.0,0.0,0.0
2025/04/11 11:51:24.280105587,1744365084,279736204,hemisphere,-0.0977418183310664,0.0007164977832396801,0.0,0.0,0.0,0.0
2025/04/11 11:51:24.331461800,1744365084,331072984,hemisphere,-0.09168526446225223,0.03387903039083978,0.0,0.0,0.0,0.0
2025/04/11 11:51:24.382973843,1744365084,382536695,hemisphere,-0.08022380906123884,-0.05584010099778179,0.0,0.0,0.0,0.0
2025/04/11 11:51:24.429734142,1744365084,429399549,hemisphere,-0.09774319242256033,0.0004947269781627996,0.0,0.0,0.0,0.0
2025/04/11 11:51:24.480148567,1744365084,479839214,hemisphere,-0.0975784143680206,-0.005694687801754022,0.0,0.0,0.0,0.0
2025/04/11 11:51:24.529964958,1744365084,529531165,hemisphere,-0.09751925439563891,-0.006631096580147148,0.0,0.0,0.0,0.0
2025/04/11 11:51:24.579475332,1744365084,579181517,hemisphere,-0.08743329471681724,0.030498835632649345,0.0,0.0,0.0,0.0
2025/04/11 11:51:24.629250591,1744365084,628987895,hemisphere,-0.09681210179828792,-0.013468235412796865,0.0,0.0,0.0,0.0
2025/04/11 11:51:24.678906472,1744365084,678606964,hemisphere,-0.09502780454303392,-0.02288433489240008,0.0,0.0,0.0,0.0
2025/04/11 11:51:24.729757897,1744365084,729238792,hemisphere,-0.09761753658347538,-0.0049792540716880615,0.0,0.0,0.0,0.0
2025/04/11 11:51:24.779042772,1744365084,778714970,hemisphere,-0.10286743777490384,0.0021008813384187984,0.0,0.0,0.0,0.0
2025/04/11 11:51:24.829469816,1744365084,829188351,hemisphere,-0.10072924240482659,-0.020970054394815335,0.0,0.0,0.0,0.0
2025/04/11 11:51:24.879150273,1744365084,878829975,hemisphere,-0.10556953157084069,-0.022940686890418383,0.0,0.0,0.0,0.0
2025/04/11 11:51:24.929658546,1744365084,929266486,hemisphere,-0.10280162072865455,-0.004236771451670818,0.0,0.0,0.0,0.0
2025/04/11 11:51:24.979282910,1744365084,978941641,hemisphere,-0.10010445130539083,-0.023774404001330216,0.0,0.0,0.0,0.0
2025/04/11 11:51:25.29673708,1744365085,29375724,hemisphere,-0.10022350161213787,-0.023267427476487967,0.0,0.0,0.0,0.0
2025/04/11 11:51:25.80235363,1744365085,79841549,hemisphere,-0.10279174319438317,0.004470009824576721,0.0,0.0,0.0,0.0
2025/04/11 11:51:25.130417361,1744365085,130153186,hemisphere,-0.08688867411582207,-0.04476979707493712,0.0,0.0,0.0,0.0
2025/04/11 11:51:25.182670950,1744365085,181403822,hemisphere,-0.09711419636526539,0.011081935032531643,0.0,0.0,0.0,0.0
2025/04/11 11:51:25.229385983,1744365085,228977130,hemisphere,-0.08563757690196884,-0.0352273391323352,0.0,0.0,0.0,0.0
2025/04/11 11:51:25.279629046,1744365085,279298091,hemisphere,-0.08712673982306572,0.007576635488227037,0.0,0.0,0.0,0.0
2025/04/11 11:51:25.329291324,1744365085,329016214,hemisphere,-0.0757789991405117,0.03213506342916252,0.0,0.0,0.0,0.0
2025/04/11 11:51:25.382668239,1744365085,382310005,hemisphere,-0.08220277267263447,-0.004221750497737966,0.0,0.0,0.0,0.0
2025/04/11 11:51:25.430516556,1744365085,430026552,hemisphere,-0.0746884523954292,0.01939921449981569,0.0,0.0,0.0,0.0
2025/04/11 11:51:25.479836522,1744365085,479514197,hemisphere,-0.05266514512950409,0.04912822999362453,0.0,0.0,0.0,0.0
2025/04/11 11:51:25.529938770,1744365085,529567211,hemisphere,-0.059219795905274604,0.0409904411632251,0.0,0.0,0.0,0.0
2025/04/11 11:51:25.579960519,1744365085,579659402,hemisphere,-0.021528612804276346,0.057857784914058075,0.0,0.0,0.0,0.0
2025/04/11 11:51:25.629935413,1744365085,629597223,hemisphere,-0.0020736267604703675,0.056550883439003316,0.0,0.0,0.0,0.0
2025/04/11 11:51:25.680207499,1744365085,679867304,hemisphere,-0.02985341197438477,0.04807365327454466,0.0,0.0,0.0,0.0
2025/04/11 11:51:25.729761317,1744365085,729467303,hemisphere,-0.0202980840885336,0.05282319687417922,0.0,0.0,0.0,0.0
2025/04/11 11:51:25.780473917,1744365085,779967490,hemisphere,-0.008598731592107138,0.05593178131152607,0.0,0.0,0.0,0.0
2025/04/11 11:51:25.829173580,1744365085,828813532,hemisphere,-0.01905478166893687,0.04778541785672806,0.0,0.0,0.0,0.0
2025/04/11 11:51:25.878897716,1744365085,878582788,hemisphere,-0.0037208011425049065,0.056466432369430004,0.0,0.0,0.0,0.0
2025/04/11 11:51:25.930177314,1744365085,929821947,hemisphere,-0.009359342404706997,0.05580954269141552,0.0,0.0,0.0,0.0
2025/04/11 11:51:25.979759269,1744365085,979453815,hemisphere,-0.005455544977973356,0.06149180005034141,0.0,0.0,0.0,0.0
2025/04/11 11:51:26.30018714,1744365086,29724749,hemisphere,-0.005326744981920546,0.06150309124211109,0.0,0.0,0.0,0.0
2025/04/11 11:51:26.83697955,1744365086,83399613,hemisphere,0.011059257810803592,0.06073464629939025,0.0,0.0,0.0,0.0
2025/04/11 11:51:26.131040038,1744365086,130692171,hemisphere,-0.023839969214188718,0.06796216860639992,0.0,0.0,0.0,0.0
2025/04/11 11:51:26.181024132,1744365086,180161781,hemisphere,0.01969887605652187,0.07460997739273176,0.0,0.0,0.0,0.0
2025/04/11 11:51:26.229669008,1744365086,229355390,hemisphere,-0.014671207852579946,0.07575915855248493,0.0,0.0,0.0,0.0
2025/04/11 11:51:26.280005892,1744365086,279575718,hemisphere,0.0018162704114405312,0.08743669343765337,0.0,0.0,0.0,0.0
2025/04/11 11:51:26.330010290,1744365086,329535645,hemisphere,-0.002472453710754867,0.09256698640786225,0.0,0.0,0.0,0.0
2025/04/11 11:51:26.383928727,1744365086,383436989,hemisphere,-0.008468004369194877,0.09737694450813228,0.0,0.0,0.0,0.0
2025/04/11 11:51:26.429664466,1744365086,429354484,hemisphere,0.013652399715238617,0.10716722023597651,0.0,0.0,0.0,0.0
2025/04/11 11:51:26.479473646,1744365086,479226120,hemisphere,-0.01659197430173917,0.11195497207120522,0.0,0.0,0.0,0.0
2025/04/11 11:51:26.530031852,1744365086,529748738,hemisphere,-0.012305562589012999,0.1228519064040901,0.0,0.0,0.0,0.0
2025/04/11 11:51:26.578677523,1744365086,578453672,hemisphere,0.004847376271156837,0.1285197293978314,0.0,0.0,0.0,0.0
2025/04/11 11:51:26.629315360,1744365086,628868509,hemisphere,0.0009104381560494674,0.13375245696550178,0.0,0.0,0.0,0.0
2025/04/11 11:51:26.679258511,1744365086,678954697,hemisphere,-0.012975101407532835,0.13829264891320472,0.0,0.0,0.0,0.0
2025/04/11 11:51:26.729548822,1744365086,729276914,hemisphere,-0.012781995858074234,0.13831063076224778,0.0,0.0,0.0,0.0
2025/04/11 11:51:26.779055776,1744365086,778725726,hemisphere,0.0021871392990117883,0.14402783896510948,0.0,0.0,0.0,0.0
2025/04/11 11:51:26.828891377,1744365086,828591019,hemisphere,-0.017250804830092625,0.14818817193209727,0.0,0.0,0.0,0.0
2025/04/11 11:51:26.879276542,1744365086,878994299,hemisphere,-0.01990416533605263,0.15304444445980944,0.0,0.0,0.0,0.0
2025/04/11 11:51:26.928994788,1744365086,928718271,hemisphere,-0.01296796325755437,0.15378754730694985,0.0,0.0,0.0,0.0
2025/04/11 11:51:26.980733280,1744365086,980206379,hemisphere,-0.037202282229310484,0.15507788946792206,0.0,0.0,0.0,0.0
2025/04/11 11:51:27.29957863,1744365087,29659489,hemisphere,-0.0183502633285276,0.16359628322522973,0.0,0.0,0.0,0.0
2025/04/11 11:51:27.79786353,1744365087,79532277,hemisphere,-0.03191891897967674,0.1614981692171918,0.0,0.0,0.0,0.0
2025/04/11 11:51:27.130688484,1744365087,130378241,hemisphere,-0.04113465657294585,0.15940017590317046,0.0,0.0,0.0,0.0
2025/04/11 11:51:27.180038085,1744365087,179627408,hemisphere,-0.056082361179494916,0.16023573220600326,0.0,0.0,0.0,0.0
2025/04/11 11:51:27.229392766,1744365087,229103094,hemisphere,-0.057897068091601174,0.16505098090125697,0.0,0.0,0.0,0.0
2025/04/11 11:51:27.280051613,1744365087,279483951,hemisphere,-0.06747109060925303,0.16137394065359054,0.0,0.0,0.0,0.0
2025/04/11 11:51:27.329761477,1744365087,329347613,hemisphere,-0.0752392881215622,0.16358194463119785,0.0,0.0,0.0,0.0
2025/04/11 11:51:27.392791486,1744365087,391873802,hemisphere,-0.07346479065101835,0.16438651897575354,0.0,0.0,0.0,0.0
2025/04/11 11:51:27.429682986,1744365087,429338875,hemisphere,-0.0843956903260306,0.16485268409805606,0.0,0.0,0.0,0.0
2025/04/11 11:51:27.480218133,1744365087,479775192,hemisphere,-0.10305280674587641,0.15388033994548417,0.0,0.0,0.0,0.0
2025/04/11 11:51:27.529985932,1744365087,529639845,hemisphere,-0.0809126544182213,0.17795799513914456,0.0,0.0,0.0,0.0
2025/04/11 11:51:27.580024493,1744365087,579815792,hemisphere,-0.1039114194472676,0.16558478972236648,0.0,0.0,0.0,0.0
2025/04/11 11:51:27.629822797,1744365087,629559778,hemisphere,-0.09988866983600797,0.1799076081367331,0.0,0.0,0.0,0.0
2025/04/11 11:51:27.678999101,1744365087,678581557,hemisphere,-0.12115644361103402,0.16632982293808182,0.0,0.0,0.0,0.0
2025/04/11 11:51:27.729228682,1744365087,728914616,hemisphere,-0.09631387142236046,0.18764813348051354,0.0,0.0,0.0,0.0
2025/04/11 11:51:27.780429489,1744365087,780094728,hemisphere,-0.11876891707959321,0.17430469919891523,0.0,0.0,0.0,0.0
2025/04/11 11:51:27.829329160,1744365087,828985828,hemisphere,-0.11729856028523193,0.18145482137263694,0.0,0.0,0.0,0.0
2025/04/11 11:51:27.879194783,1744365087,878813520,hemisphere,-0.10623077345097989,0.1940344774799942,0.0,0.0,0.0,0.0
2025/04/11 11:51:27.930190465,1744365087,929848523,hemisphere,-0.12138540145529586,0.18493225784720319,0.0,0.0,0.0,0.0
2025/04/11 11:51:27.981349933,1744365087,980766912,hemisphere,-0.11640436673306696,0.18810736052691143,0.0,0.0,0.0,0.0
2025/04/11 11:51:28.29716255,1744365088,29315913,hemisphere,-0.1211539165573064,0.19120294462586315,0.0,0.0,0.0,0.0
2025/04/11 11:51:28.80140136,1744365088,79665661,hemisphere,-0.13594004433990878,0.18098934188409907,0.0,0.0,0.0,0.0
2025/04/11 11:51:28.130622795,1744365088,130304050,hemisphere,-0.114475397042613,0.19527473211532453,0.0,0.0,0.0,0.0
2025/04/11 11:51:28.181301592,1744365088,180514782,hemisphere,-0.1479679907980613,0.1780385455430712,0.0,0.0,0.0,0.0
2025/04/11 11:51:28.229977750,1744365088,229631876,hemisphere,-0.12606725870854474,0.2002689176283625,0.0,0.0,0.0,0.0
2025/04/11 11:51:28.280541665,1744365088,280138962,hemisphere,-0.1102947303128678,0.20936968632429753,0.0,0.0,0.0,0.0
2025/04/11 11:51:28.333359251,1744365088,332695252,hemisphere,-0.12470116147198386,0.2011223841690954,0.0,0.0,0.0,0.0
2025/04/11 11:51:28.383997040,1744365088,383568908,hemisphere,-0.09619873867374974,0.2048966573869746,0.0,0.0,0.0,0.0
2025/04/11 11:51:28.430082006,1744365088,429786786,hemisphere,-0.12427436498053648,0.18918963961977425,0.0,0.0,0.0,0.0
2025/04/11 11:51:28.480046112,1744365088,479515236,hemisphere,-0.07531480035793502,0.20251539519603975,0.0,0.0,0.0,0.0
2025/04/11 11:51:28.530389661,1744365088,530093555,hemisphere,-0.0499186618006228,0.20493001495905536,0.0,0.0,0.0,0.0
2025/04/11 11:51:28.579192769,1744365088,578894018,hemisphere,-0.07625794782646299,0.18000175296991625,0.0,0.0,0.0,0.0
2025/04/11 11:51:28.630747266,1744365088,629606661,hemisphere,-0.024269588378323825,0.18360290596798148,0.0,0.0,0.0,0.0
2025/04/11 11:51:28.679638199,1744365088,679080149,hemisphere,-0.1018128286811045,0.13584869902584043,0.0,0.0,0.0,0.0
2025/04/11 11:51:28.729205038,1744365088,728886703,hemisphere,-0.009319119431151874,0.15920526253212314,0.0,0.0,0.0,0.0
2025/04/11 11:51:28.779480659,1744365088,779103731,hemisphere,0.08553938841689468,0.11589570744655046,0.0,0.0,0.0,0.0
2025/04/11 11:51:28.829029010,1744365088,828737575,hemisphere,0.04473653393096688,0.12605233505884708,0.0,0.0,0.0,0.0
2025/04/11 11:51:28.879851180,1744365088,879551448,hemisphere,0.09693377611686398,0.07647130720392534,0.0,0.0,0.0,0.0
2025/04/11 11:51:28.929168822,1744365088,928831521,hemisphere,0.10701321562889828,-0.014811238700860324,0.0,0.0,0.0,0.0
2025/04/11 11:51:28.980012647,1744365088,979695268,hemisphere,0.07420344902436257,0.06362251623934252,0.0,0.0,0.0,0.0
2025/04/11 11:51:29.30148888,1744365089,29789774,hemisphere,0.03164030807024537,-0.0815313749591997,0.0,0.0,0.0,0.0
2025/04/11 11:51:29.79544373,1744365089,79271660,hemisphere,0.07431316901361931,0.02079055928991339,0.0,0.0,0.0,0.0
2025/04/11 11:51:29.130915801,1744365089,130627016,hemisphere,0.060317597841543266,-0.028886407722525032,0.0,0.0,0.0,0.0
2025/04/11 11:51:29.179942179,1744365089,179649081,hemisphere,0.044039915060440006,-0.0355357316956146,0.0,0.0,0.0,0.0
2025/04/11 11:51:29.228958446,1744365089,228589039,hemisphere,0.049590192578381084,-0.013687354172082881,0.0,0.0,0.0,0.0
2025/04/11 11:51:29.280105246,1744365089,279767492,hemisphere,0.036682903623410625,-0.018658626284886577,0.0,0.0,0.0,0.0
2025/04/11 11:51:29.330056342,1744365089,329166748,hemisphere,0.028914096208281167,-0.021465674084752376,0.0,0.0,0.0,0.0
2025/04/11 11:51:29.383092171,1744365089,382642671,hemisphere,0.035441977393617305,-0.006377018259725261,0.0,0.0,0.0,0.0
2025/04/11 11:51:29.429965784,1744365089,429531347,hemisphere,0.024843067521387638,-0.026069563087676093,0.0,0.0,0.0,0.0
2025/04/11 11:51:29.480318335,1744365089,479982564,hemisphere,0.03493230778219091,-0.021760368243524217,0.0,0.0,0.0,0.0
2025/04/11 11:51:29.531255856,1744365089,530404361,hemisphere,0.037556981216718195,-0.02707698583453062,0.0,0.0,0.0,0.0
2025/04/11 11:51:29.579734624,1744365089,579353381,hemisphere,0.04531268413433315,-0.02435757624919012,0.0,0.0,0.0,0.0
2025/04/11 11:51:29.630519046,1744365089,630223343,hemisphere,0.041690545354635206,-0.0455291431115386,0.0,0.0,0.0,0.0
2025/04/11 11:51:29.678971014,1744365089,678726790,hemisphere,0.057325444254683965,-0.03444460192089931,0.0,0.0,0.0,0.0
2025/04/11 11:51:29.729758626,1744365089,729332652,hemisphere,0.04627573050745407,-0.05518837975352856,0.0,0.0,0.0,0.0
2025/04/11 11:51:29.779282164,1744365089,778950968,hemisphere,0.06390441414603584,-0.051878173300395854,0.0,0.0,0.0,0.0
2025/04/11 11:51:29.830274330,1744365089,829942765,hemisphere,0.05385504363537806,-0.06890651981161997,0.0,0.0,0.0,0.0
2025/04/11 11:51:29.879932891,1744365089,879638436,hemisphere,0.051762539071836235,-0.0704919410028854,0.0,0.0,0.0,0.0
2025/04/11 11:51:29.929811220,1744365089,929516788,hemisphere,0.07122574724701117,-0.05917476598255427,0.0,0.0,0.0,0.0
2025/04/11 11:51:29.981902391,1744365089,980452669,hemisphere,0.06522611551300392,-0.07279787273554664,0.0,0.0,0.0,0.0
2025/04/11 11:51:30.29947766,1744365090,29546931,hemisphere,0.026466113014411537,-0.09409315215064788,0.0,0.0,0.0,0.0
2025/04/11 11:51:30.80215062,1744365090,79923749,hemisphere,0.058578545630191554,-0.07824660000017983,0.0,0.0,0.0,0.0
2025/04/11 11:51:30.131292636,1744365090,130910675,hemisphere,0.04107652686003908,-0.08869439306322055,0.0,0.0,0.0,0.0
2025/04/11 11:51:30.179595867,1744365090,179315073,hemisphere,0.015593816569980828,-0.09649253496783246,0.0,0.0,0.0,0.0
2025/04/11 11:51:30.230390177,1744365090,230100853,hemisphere,0.02147210252812732,-0.09535683107548282,0.0,0.0,0.0,0.0
2025/04/11 11:51:30.280257166,1744365090,279584327,hemisphere,0.008688923661482328,-0.0973574805823441,0.0,0.0,0.0,0.0
2025/04/11 11:51:30.329933022,1744365090,329588568,hemisphere,-0.010352795922514065,-0.09719462966812185,0.0,0.0,0.0,0.0
2025/04/11 11:51:30.383209787,1744365090,382729956,hemisphere,-0.03356176234504176,-0.08630392869551257,0.0,0.0,0.0,0.0
2025/04/11 11:51:30.430306327,1744365090,429985078,hemisphere,-0.01814461295684146,-0.0908049173813379,0.0,0.0,0.0,0.0
2025/04/11 11:51:30.480330274,1744365090,479753967,hemisphere,-0.04463871280038266,-0.08113042166481162,0.0,0.0,0.0,0.0
2025/04/11 11:51:30.530356000,1744365090,530015289,hemisphere,-0.05848833203117395,-0.07179049391246958,0.0,0.0,0.0,0.0
2025/04/11 11:51:30.579390872,1744365090,579073783,hemisphere,-0.045175804436207584,-0.08083258435511455,0.0,0.0,0.0,0.0
2025/04/11 11:51:30.629418934,1744365090,628822889,hemisphere,-0.0586740981443987,-0.07817497442710197,0.0,0.0,0.0,0.0
2025/04/11 11:51:30.679585457,1744365090,679246849,hemisphere,-0.05546143659465889,-0.08048605761616859,0.0,0.0,0.0,0.0
2025/04/11 11:51:30.729478998,1744365090,729053641,hemisphere,-0.07433564214240264,-0.07113603702799645,0.0,0.0,0.0,0.0
2025/04/11 11:51:30.780661893,1744365090,780262682,hemisphere,-0.07169795744602464,-0.0808121526081256,0.0,0.0,0.0,0.0
2025/04/11 11:51:30.829626728,1744365090,829068997,hemisphere,-0.06708988734102839,-0.08467672719029155,0.0,0.0,0.0,0.0
2025/04/11 11:51:30.879200133,1744365090,878759866,hemisphere,-0.07654913818069174,-0.08336329423965487,0.0,0.0,0.0,0.0
2025/04/11 11:51:30.929411056,1744365090,929126405,hemisphere,-0.07528929325003848,-0.08450285027502695,0.0,0.0,0.0,0.0
2025/04/11 11:51:30.981936387,1744365090,978988202,hemisphere,-0.06578780790309771,-0.09834689930488842,0.0,0.0,0.0,0.0
2025/04/11 11:51:31.30942495,1744365091,30452405,hemisphere,-0.08130997698292143,-0.09291235343477325,0.0,0.0,0.0,0.0
2025/04/11 11:51:31.80757323,1744365091,80223341,hemisphere,-0.06308605099139351,-0.10010144075832297,0.0,0.0,0.0,0.0
2025/04/11 11:51:31.130370762,1744365091,130082812,hemisphere,-0.06314617141347953,-0.10609702546994847,0.0,0.0,0.0,0.0
2025/04/11 11:51:31.180318619,1744365091,179942770,hemisphere,-0.06290528256602983,-0.10624002636972271,0.0,0.0,0.0,0.0
2025/04/11 11:51:31.231361988,1744365091,230266649,hemisphere,-0.05348418238473849,-0.11128099573776046,0.0,0.0,0.0,0.0
2025/04/11 11:51:31.280234148,1744365091,279767708,hemisphere,-0.05332875271850773,-0.11135556524592602,0.0,0.0,0.0,0.0
2025/04/11 11:51:31.330049167,1744365091,329347660,hemisphere,-0.04174173154775674,-0.1161965818135217,0.0,0.0,0.0,0.0
2025/04/11 11:51:31.383720696,1744365091,383224590,hemisphere,-0.0577546892565726,-0.10912567821841095,0.0,0.0,0.0,0.0
2025/04/11 11:51:31.431003721,1744365091,430303680,hemisphere,-0.052159737229761895,-0.1119079067352867,0.0,0.0,0.0,0.0
2025/04/11 11:51:31.479770921,1744365091,479492183,hemisphere,-0.054162957181729046,-0.11095220523757794,0.0,0.0,0.0,0.0
2025/04/11 11:51:31.530529747,1744365091,530104050,hemisphere,-0.06102282556787213,-0.10733234618447733,0.0,0.0,0.0,0.0
2025/04/11 11:51:31.580018916,1744365091,579644636,hemisphere,-0.03751637643805246,-0.12301763857335389,0.0,0.0,0.0,0.0
2025/04/11 11:51:31.631869262,1744365091,629422995,hemisphere,-0.05994278821351516,-0.11378787300233559,0.0,0.0,0.0,0.0
2025/04/11 11:51:31.679850342,1744365091,679599454,hemisphere,-0.05906720114564909,-0.11424484080266127,0.0,0.0,0.0,0.0
2025/04/11 11:51:31.728937077,1744365091,728651006,hemisphere,-0.07042271457689767,-0.10761718809199017,0.0,0.0,0.0,0.0
2025/04/11 11:51:31.782048944,1744365091,781723211,hemisphere,-0.053436267314531084,-0.11698454272550696,0.0,0.0,0.0,0.0
2025/04/11 11:51:31.829774402,1744365091,829465227,hemisphere,-0.07100394599248507,-0.1072345912227125,0.0,0.0,0.0,0.0
2025/04/11 11:51:31.879767667,1744365091,879225279,hemisphere,-0.07678922602998879,-0.10317089059866294,0.0,0.0,0.0,0.0
2025/04/11 11:51:31.929960418,1744365091,929605954,hemisphere,-0.014832895034771603,-0.12257243981678295,0.0,0.0,0.0,0.0
2025/04/11 11:51:31.979252071,1744365091,978739911,hemisphere,-0.03189307618854988,-0.11927635754407821,0.0,0.0,0.0,0.0
2025/04/11 11:51:32.30603094,1744365092,30272964,hemisphere,-0.060460000799514586,-0.10765038820679713,0.0,0.0,0.0,0.0
2025/04/11 11:51:32.79881401,1744365092,79497874,hemisphere,-0.013271338242926754,-0.11757559207940471,0.0,0.0,0.0,0.0
2025/04/11 11:51:32.132472025,1744365092,131357178,hemisphere,-0.06206951816553986,-0.10073491542796105,0.0,0.0,0.0,0.0
2025/04/11 11:51:32.179845884,1744365092,179562691,hemisphere,0.015198422024464937,-0.11734204804564732,0.0,0.0,0.0,0.0
2025/04/11 11:51:32.230787162,1744365092,230340161,hemisphere,-0.00840713303777201,-0.11286509423545933,0.0,0.0,0.0,0.0
2025/04/11 11:51:32.282798799,1744365092,282322230,hemisphere,0.013773295244937915,-0.11233657338903338,0.0,0.0,0.0,0.0
2025/04/11 11:51:32.330102644,1744365092,329740866,hemisphere,0.026420827513713323,-0.11005066676846861,0.0,0.0,0.0,0.0
2025/04/11 11:51:32.383656848,1744365092,382703333,hemisphere,0.020243428019060334,-0.10611976598696429,0.0,0.0,0.0,0.0
2025/04/11 11:51:32.430798642,1744365092,430465449,hemisphere,0.038376298518322326,-0.09546404123440638,0.0,0.0,0.0,0.0
2025/04/11 11:51:32.479454793,1744365092,479164232,hemisphere,0.05365207768225112,-0.08779281301535748,0.0,0.0,0.0,0.0
2025/04/11 11:51:32.531752892,1744365092,529041131,hemisphere,0.02921329667913355,-0.09327679088001206,0.0,0.0,0.0,0.0
2025/04/11 11:51:32.579621579,1744365092,579319584,hemisphere,0.06593450378656439,-0.07215689592932961,0.0,0.0,0.0,0.0
2025/04/11 11:51:32.629910912,1744365092,629588835,hemisphere,0.06493877109953232,-0.0660129987810562,0.0,0.0,0.0,0.0
2025/04/11 11:51:32.680250618,1744365092,679856992,hemisphere,0.06860936075070145,-0.06218935292608606,0.0,0.0,0.0,0.0
2025/04/11 11:51:32.729421798,1744365092,729102683,hemisphere,0.06764761263978078,-0.05542810389735355,0.0,0.0,0.0,0.0
2025/04/11 11:51:32.779609918,1744365092,778969179,hemisphere,0.07430369727961565,-0.04612412349407722,0.0,0.0,0.0,0.0
2025/04/11 11:51:32.829916250,1744365092,829256370,hemisphere,0.06785914395572701,-0.04658600212434943,0.0,0.0,0.0,0.0
2025/04/11 11:51:32.879616056,1744365092,879189280,hemisphere,0.06952726851192298,-0.03347616133467392,0.0,0.0,0.0,0.0
2025/04/11 11:51:32.929467801,1744365092,929065732,hemisphere,0.07319178585698011,-0.024447022876009278,0.0,0.0,0.0,0.0
2025/04/11 11:51:32.979895281,1744365092,979481368,hemisphere,0.029798926886491352,0.05987203952513762,0.0,0.0,0.0,0.0
2025/04/11 11:51:33.29319035,1744365093,28849262,hemisphere,0.05494326727504068,-0.03812970681279286,0.0,0.0,0.0,0.0
2025/04/11 11:51:33.81022926,1744365093,80705950,hemisphere,0.06687446835150399,-0.0006653143541146901,0.0,0.0,0.0,0.0
2025/04/11 11:51:33.130362137,1744365093,130093072,hemisphere,0.04745943558380393,0.030820517836990403,0.0,0.0,0.0,0.0
2025/04/11 11:51:33.181144199,1744365093,180776593,hemisphere,0.050394138193360284,0.025743604670325115,0.0,0.0,0.0,0.0
2025/04/11 11:51:33.232369927,1744365093,231872213,hemisphere,0.051080429565795255,0.006109057174948354,0.0,0.0,0.0,0.0
2025/04/11 11:51:33.279925384,1744365093,278755326,hemisphere,0.024754173178652725,0.039126984425554255,0.0,0.0,0.0,0.0
2025/04/11 11:51:33.332124554,1744365093,331041507,hemisphere,0.046238227872557325,0.002390874986643551,0.0,0.0,0.0,0.0
2025/04/11 11:51:33.382677316,1744365093,382303802,hemisphere,0.027403697155678013,0.03731926288388049,0.0,0.0,0.0,0.0
2025/04/11 11:51:33.431535419,1744365093,431003505,hemisphere,0.019035370456484513,0.03648882602479681,0.0,0.0,0.0,0.0
2025/04/11 11:51:33.481048119,1744365093,480160790,hemisphere,0.03270329861822339,0.024985476032503378,0.0,0.0,0.0,0.0
2025/04/11 11:51:33.529719464,1744365093,529254370,hemisphere,0.036574829808610335,0.018869593995491308,0.0,0.0,0.0,0.0
2025/04/11 11:51:33.579937610,1744365093,579632490,hemisphere,0.02543326303303812,0.03868900530497769,0.0,0.0,0.0,0.0
2025/04/11 11:51:33.630124113,1744365093,629401653,hemisphere,0.04627560541248471,0.0015027786611177079,0.0,0.0,0.0,0.0
2025/04/11 11:51:33.679466016,1744365093,679054344,hemisphere,0.017673438684581242,0.042794153398082804,0.0,0.0,0.0,0.0
2025/04/11 11:51:33.730082204,1744365093,729637046,hemisphere,0.03563867992236451,0.029556293634140734,0.0,0.0,0.0,0.0
2025/04/11 11:51:33.779896987,1744365093,779434012,hemisphere,0.030314499675086634,0.034996015622431466,0.0,0.0,0.0,0.0
2025/04/11 11:51:33.829739036,1744365093,829445062,hemisphere,0.035321994767355695,0.02993403891310346,0.0,0.0,0.0,0.0
2025/04/11 11:51:33.882721721,1744365093,882368444,hemisphere,0.034239480646311674,0.031166455766852015,0.0,0.0,0.0,0.0
2025/04/11 11:51:33.933888301,1744365093,933560952,hemisphere,0.02379775845431317,0.03971595010252759,0.0,0.0,0.0,0.0
2025/04/11 11:51:33.979377717,1744365093,978997272,hemisphere,0.011357731966178744,0.04488531970010614,0.0,0.0,0.0,0.0
2025/04/11 11:51:34.32077367,1744365094,31628193,hemisphere,0.03690862911496478,0.027954303726801515,0.0,0.0,0.0,0.0
2025/04/11 11:51:34.80050376,1744365094,79542880,hemisphere,0.015119640979158517,0.04376170079713134,0.0,0.0,0.0,0.0
2025/04/11 11:51:34.130505174,1744365094,130084171,hemisphere,-0.008718250541262252,0.04022153478652043,0.0,0.0,0.0,0.0
2025/04/11 11:51:34.180750913,1744365094,180180255,hemisphere,0.017787395439978995,0.03131147851693311,0.0,0.0,0.0,0.0
2025/04/11 11:51:34.229148211,1744365094,228617773,hemisphere,0.007597753901011949,0.0352004866317812,0.0,0.0,0.0,0.0
