time,header_stamp_secs,header_stamp_nsecs,header_frame_id,orientation_x,orientation_y,orientation_z,orientation_w,orientation_covariance_0,orientation_covariance_1,orientation_covariance_2,orientation_covariance_3,orientation_covariance_4,orientation_covariance_5,orientation_covariance_6,orientation_covariance_7,orientation_covariance_8,angular_velocity_x,angular_velocity_y,angular_velocity_z,angular_velocity_covariance_0,angular_velocity_covariance_1,angular_velocity_covariance_2,angular_velocity_covariance_3,angular_velocity_covariance_4,angular_velocity_covariance_5,angular_velocity_covariance_6,angular_velocity_covariance_7,angular_velocity_covariance_8,linear_acceleration_x,linear_acceleration_y,linear_acceleration_z,linear_acceleration_covariance_0,linear_acceleration_covariance_1,linear_acceleration_covariance_2,linear_acceleration_covariance_3,linear_acceleration_covariance_4,linear_acceleration_covariance_5,linear_acceleration_covariance_6,linear_acceleration_covariance_7,linear_acceleration_covariance_8
2025/04/05 15:42:02.252960920,1743860522,247596651,mA1/imu,0.6932296576647657,0.7207117701405669,-0.0012836961449285518,0.002353346351417232,0.0,0.0,0.0,0.0,0.0,0.0,0.0,0.0,0.0,-0.000713728067912143,-0.012673284299347852,-0.008672466519710638,0.0,0.0,0.0,0.0,0.0,0.0,0.0,0.0,0.0,-0.031797891612968095,0.007823607323893533,9.808526967449302,0.0,0.0,0.0,0.0,0.0,0.0,0.0,0.0,0.0
2025/04/05 15:42:02.318579408,1743860522,299722434,mA1/imu,0.6930792179163039,0.7208555983990752,-0.0014129581888892104,0.002531303694189792,0.0,0.0,0.0,0.0,0.0,0.0,0.0,0.0,0.0,-0.0020631976280569195,-0.005970148008068055,-0.0080231345837905,0.0,0.0,0.0,0.0,0.0,0.0,0.0,0.0,0.0,-0.042077756836459895,-0.06554274930219212,9.806729366154805,0.0,0.0,0.0,0.0,0.0,0.0,0.0,0.0,0.0
2025/04/05 15:42:02.367322853,1743860522,344769526,mA1/imu,0.6929422778556495,0.7209870241812723,-0.001426989034895612,0.00258345209975909,0.0,0.0,0.0,0.0,0.0,0.0,0.0,0.0,0.0,-0.0023938321114057993,0.0008726217675371745,-0.007302585438907549,0.0,0.0,0.0,0.0,0.0,0.0,0.0,0.0,0.0,-0.03711869935662772,0.37651317846384313,9.809081239558337,0.0,0.0,0.0,0.0,0.0,0.0,0.0,0.0,0.0
2025/04/05 15:42:02.396977242,1743860522,394489313,mA1/imu,0.6928181709203535,0.721106733242409,-0.0013295110932459366,0.002508727822969469,0.0,0.0,0.0,0.0,0.0,0.0,0.0,0.0,0.0,-0.0007899888200665016,0.007480716917453779,-0.00661188824915637,0.0,0.0,0.0,0.0,0.0,0.0,0.0,0.0,0.0,-0.039032721621455,0.00748307571668062,9.813315467913338,0.0,0.0,0.0,0.0,0.0,0.0,0.0,0.0,0.0
2025/04/05 15:42:02.447738989,1743860522,446716828,mA1/imu,0.6927062469247767,0.7212152181768988,-0.0011206584938492363,0.0023256538819496748,0.0,0.0,0.0,0.0,0.0,0.0,0.0,0.0,0.0,-0.0006659130680180665,0.013357156938764157,-0.0059684538993143126,0.0,0.0,0.0,0.0,0.0,0.0,0.0,0.0,0.0,-0.030998521980659423,0.009173378956679069,9.814333312186326,0.0,0.0,0.0,0.0,0.0,0.0,0.0,0.0,0.0
2025/04/05 15:42:02.498505176,1743860522,496569179,mA1/imu,0.6926061748143932,0.7213125827424226,-0.0008247262779380503,0.0020406893433834185,0.0,0.0,0.0,0.0,0.0,0.0,0.0,0.0,0.0,-0.0006438008133104657,0.01830077681696295,-0.005316495726565149,0.0,0.0,0.0,0.0,0.0,0.0,0.0,0.0,0.0,-0.02361144862064052,4.694469147429811e-05,9.808893318530185,0.0,0.0,0.0,0.0,0.0,0.0,0.0,0.0,0.0
2025/04/05 15:42:02.548425674,1743860522,547523668,mA1/imu,0.6925176653893231,0.721398823808778,-0.0004624290047465692,0.0016751986296389915,0.0,0.0,0.0,0.0,0.0,0.0,0.0,0.0,0.0,0.0005890871089281479,0.021942819405040167,-0.004665834385418975,0.0,0.0,0.0,0.0,0.0,0.0,0.0,0.0,0.0,-0.016685958978576915,0.07893835773015564,9.807224825309895,0.0,0.0,0.0,0.0,0.0,0.0,0.0,0.0,0.0
2025/04/05 15:42:02.599699545,1743860522,599040724,mA1/imu,0.692434542127606,0.721479571829189,-5.083167773954622e-05,0.0012766040275907615,0.0,0.0,0.0,0.0,0.0,0.0,0.0,0.0,0.0,0.0004741465466052681,0.023134892181195053,-0.004706628252318818,0.0,0.0,0.0,0.0,0.0,0.0,0.0,0.0,0.0,0.032357108921806446,-0.487891627047906,9.812520159969468,0.0,0.0,0.0,0.0,0.0,0.0,0.0,0.0,0.0
2025/04/05 15:42:02.651157707,1743860522,650151245,mA1/imu,0.6923517751703285,0.7215595228052321,0.0003610531234449644,0.0008626170777113504,0.0,0.0,0.0,0.0,0.0,0.0,0.0,0.0,0.0,-0.0007493919176912414,0.02328741789219751,-0.004498868224384625,0.0,0.0,0.0,0.0,0.0,0.0,0.0,0.0,0.0,0.021549055038327405,-0.04938492924159765,9.813205793170177,0.0,0.0,0.0,0.0,0.0,0.0,0.0,0.0,0.0
2025/04/05 15:42:02.695469904,1743860522,693117656,mA1/imu,0.6922725541063872,0.7216355900220517,0.0007584214253483837,0.0004591747883438003,0.0,0.0,0.0,0.0,0.0,0.0,0.0,0.0,0.0,-0.0012788951210761681,0.02206796306544554,-0.004296745817855092,0.0,0.0,0.0,0.0,0.0,0.0,0.0,0.0,0.0,0.02082678086917342,-0.09145150724775987,9.81020340045034,0.0,0.0,0.0,0.0,0.0,0.0,0.0,0.0,0.0
2025/04/05 15:42:02.748050434,1743860522,746147942,mA1/imu,0.692196846121191,0.7217078969301647,0.001109529317081571,8.168971544945025e-05,0.0,0.0,0.0,0.0,0.0,0.0,0.0,0.0,0.0,-0.0016581162249194232,0.01955549256897633,-0.00409371444959649,0.0,0.0,0.0,0.0,0.0,0.0,0.0,0.0,0.0,0.026819362801774993,0.49866042137567557,9.810321377480907,0.0,0.0,0.0,0.0,0.0,0.0,0.0,0.0,0.0
2025/04/05 15:42:02.797215964,1743860522,796085167,mA1/imu,0.6921251079127501,0.7217761391476266,0.0014082571271503593,-0.00023825568993672997,0.0,0.0,0.0,0.0,0.0,0.0,0.0,0.0,0.0,-0.0002558460069096742,0.016080887900951486,-0.0038328244334439035,0.0,0.0,0.0,0.0,0.0,0.0,0.0,0.0,0.0,0.02240311711756113,0.5921355708618897,9.810891172715463,0.0,0.0,0.0,0.0,0.0,0.0,0.0,0.0,0.0
2025/04/05 15:42:02.852895307,1743860522,849157115,mA1/imu,0.6920580775066693,0.7218397980421387,0.0016396117755000648,-0.00048476126428948494,0.0,0.0,0.0,0.0,0.0,0.0,0.0,0.0,0.0,0.001594052501174604,0.011751355992203852,-0.003580436096407542,0.0,0.0,0.0,0.0,0.0,0.0,0.0,0.0,0.0,0.02237641888404421,0.08447209648410611,9.810472040129467,0.0,0.0,0.0,0.0,0.0,0.0,0.0,0.0,0.0
2025/04/05 15:42:02.891881788,1743860522,890877054,mA1/imu,0.6919912097854688,0.7219034138578049,0.0017939822025259278,-0.0006389584861751503,0.0,0.0,0.0,0.0,0.0,0.0,0.0,0.0,0.0,0.0001172855151035983,0.006537144879576359,-0.0038589510706967638,0.0,0.0,0.0,0.0,0.0,0.0,0.0,0.0,0.0,0.0424400550210253,-0.20290481188749823,9.81315560394134,0.0,0.0,0.0,0.0,0.0,0.0,0.0,0.0,0.0
2025/04/05 15:42:02.945273330,1743860522,944504427,mA1/imu,0.6919174383106755,0.7219739243577785,0.0018505519495172961,-0.0006975431910758865,0.0,0.0,0.0,0.0,0.0,0.0,0.0,0.0,0.0,-0.0001710170148727748,0.001020790268531839,-0.004244772624331211,0.0,0.0,0.0,0.0,0.0,0.0,0.0,0.0,0.0,0.044975103318315654,-0.6889270812213053,9.810725092681526,0.0,0.0,0.0,0.0,0.0,0.0,0.0,0.0,0.0
2025/04/05 15:42:02.999344248,1743860522,996380609,mA1/imu,0.6918436118461315,0.7220447938373908,0.001811186961874114,-0.0006723405446716203,0.0,0.0,0.0,0.0,0.0,0.0,0.0,0.0,0.0,-8.410394868468447e-05,-0.0034799763328962727,-0.003854129258939685,0.0,0.0,0.0,0.0,0.0,0.0,0.0,0.0,0.0,0.0003078584223086128,-0.024862449224246512,9.807953595844623,0.0,0.0,0.0,0.0,0.0,0.0,0.0,0.0,0.0
2025/04/05 15:42:03.56479776,1743860523,51279208,mA1/imu,0.6917808936877619,0.7221052360045456,0.0017010365513458212,-0.0005742282054107416,0.0,0.0,0.0,0.0,0.0,0.0,0.0,0.0,0.0,0.0007173788909650666,-0.0074305813909754615,-0.0032582508251482165,0.0,0.0,0.0,0.0,0.0,0.0,0.0,0.0,0.0,0.0010898204781577443,0.02141917015787653,9.80860546014165,0.0,0.0,0.0,0.0,0.0,0.0,0.0,0.0,0.0
2025/04/05 15:42:03.94713684,1743860523,91294262,mA1/imu,0.6917260414107924,0.7221582952817407,0.0015222439358100496,-0.00040368716215526525,0.0,0.0,0.0,0.0,0.0,0.0,0.0,0.0,0.0,0.00044313671685443937,-0.011478614406104582,-0.0029733845297584046,0.0,0.0,0.0,0.0,0.0,0.0,0.0,0.0,0.0,0.017851221884909216,0.6169169893249333,9.809461396352944,0.0,0.0,0.0,0.0,0.0,0.0,0.0,0.0,0.0
2025/04/05 15:42:03.144366739,1743860523,142696006,mA1/imu,0.6916750047705611,0.7222077412574659,0.001280134499545828,-0.00016582851488823006,0.0,0.0,0.0,0.0,0.0,0.0,0.0,0.0,0.0,0.0014401316759525599,-0.014838208759581265,-0.0027686108737472875,0.0,0.0,0.0,0.0,0.0,0.0,0.0,0.0,0.0,0.008506712955297608,0.0571090569566609,9.808407785662517,0.0,0.0,0.0,0.0,0.0,0.0,0.0,0.0,0.0
2025/04/05 15:42:03.197227644,1743860523,192608524,mA1/imu,0.6916230044214676,0.7222579950124217,0.0009951024940044466,0.0001347838473134095,0.0,0.0,0.0,0.0,0.0,0.0,0.0,0.0,0.0,2.531540094860464e-06,-0.017676217375905693,-0.0030951696013235518,0.0,0.0,0.0,0.0,0.0,0.0,0.0,0.0,0.0,0.023740783145418894,-0.05671596367420899,9.81240090084675,0.0,0.0,0.0,0.0,0.0,0.0,0.0,0.0,0.0
2025/04/05 15:42:03.246288474,1743860523,245145455,mA1/imu,0.6915628734474605,0.7223158054428432,0.0006676789210840091,0.00047273820112809367,0.0,0.0,0.0,0.0,0.0,0.0,0.0,0.0,0.0,-4.444728303424894e-05,-0.01944830260732718,-0.0035357267888833925,0.0,0.0,0.0,0.0,0.0,0.0,0.0,0.0,0.0,0.01836719822785498,-0.6829226066509055,9.810104908043156,0.0,0.0,0.0,0.0,0.0,0.0,0.0,0.0,0.0
2025/04/05 15:42:03.298832532,1743860523,295994773,mA1/imu,0.6914943388615926,0.7223813341549624,0.00031855860969020407,0.0008281951930060362,0.0,0.0,0.0,0.0,0.0,0.0,0.0,0.0,0.0,-0.00040204550337854985,-0.02006398761226495,-0.003971460641556805,0.0,0.0,0.0,0.0,0.0,0.0,0.0,0.0,0.0,0.014757327414869823,-0.05789484095167488,9.80683361888299,0.0,0.0,0.0,0.0,0.0,0.0,0.0,0.0,0.0
2025/04/05 15:42:03.347786421,1743860523,346921626,mA1/imu,0.6914179324145403,0.7224540410220314,-2.5774558905667625e-05,0.0011835042083765332,0.0,0.0,0.0,0.0,0.0,0.0,0.0,0.0,0.0,-0.0007477222523125496,-0.019415121326830043,-0.0043930603361780965,0.0,0.0,0.0,0.0,0.0,0.0,0.0,0.0,0.0,0.0051868826125491645,0.5627801532243728,9.810221720248519,0.0,0.0,0.0,0.0,0.0,0.0,0.0,0.0,0.0
2025/04/05 15:42:03.399402409,1743860523,397263904,mA1/imu,0.6913419735911226,0.7225260387238788,-0.0003326551896679638,0.001512698792331789,0.0,0.0,0.0,0.0,0.0,0.0,0.0,0.0,0.0,-0.0007173781824568959,-0.01671186588192215,-0.003936331772856677,0.0,0.0,0.0,0.0,0.0,0.0,0.0,0.0,0.0,-0.0345862172762346,0.5885763228128382,9.81003428351471,0.0,0.0,0.0,0.0,0.0,0.0,0.0,0.0,0.0
2025/04/05 15:42:03.449187503,1743860523,448226983,mA1/imu,0.6912774304358461,0.7225870334537945,-0.000580334621081752,0.0017766446426962226,0.0,0.0,0.0,0.0,0.0,0.0,0.0,0.0,0.0,0.0011946924750241468,-0.012875684703004283,-0.003315315438452414,0.0,0.0,0.0,0.0,0.0,0.0,0.0,0.0,0.0,-0.03745826302779622,-0.5498370421873615,9.806137456395723,0.0,0.0,0.0,0.0,0.0,0.0,0.0,0.0,0.0
2025/04/05 15:42:03.500568340,1743860523,498066786,mA1/imu,0.6912162622362993,0.7226448693474076,-0.0007626895184285424,0.0019722907104210248,0.0,0.0,0.0,0.0,0.0,0.0,0.0,0.0,0.0,0.0011770707724058198,-0.009399341568002293,-0.0035706041330684076,0.0,0.0,0.0,0.0,0.0,0.0,0.0,0.0,0.0,0.0058134662776239965,-0.5817714962042859,9.80997998874655,0.0,0.0,0.0,0.0,0.0,0.0,0.0,0.0,0.0
2025/04/05 15:42:03.549966584,1743860523,549011014,mA1/imu,0.6911470768006912,0.7227105305806414,-0.000880146444067821,0.0021053645632415556,0.0,0.0,0.0,0.0,0.0,0.0,0.0,0.0,0.0,-0.0005405566285045032,-0.005571573936284854,-0.00399011049948044,0.0,0.0,0.0,0.0,0.0,0.0,0.0,0.0,0.0,0.004127517146810054,-0.055052782768815534,9.813989824775817,0.0,0.0,0.0,0.0,0.0,0.0,0.0,0.0,0.0
2025/04/05 15:42:03.600077063,1743860523,599261759,mA1/imu,0.6910779631999157,0.7227764103888026,-0.0009213582318418391,0.002158810770317334,0.0,0.0,0.0,0.0,0.0,0.0,0.0,0.0,0.0,-0.0020928091812506037,-0.0005300866269354919,-0.0035612561884572464,0.0,0.0,0.0,0.0,0.0,0.0,0.0,0.0,0.0,-0.03775347986206224,0.4949512626289098,9.811278787943909,0.0,0.0,0.0,0.0,0.0,0.0,0.0,0.0,0.0
2025/04/05 15:42:03.643420968,1743860523,641500089,mA1/imu,0.6910209624358997,0.7228310978289793,-0.0008820918469304275,0.0021107817246633913,0.0,0.0,0.0,0.0,0.0,0.0,0.0,0.0,0.0,-0.00045715817351008964,0.004515476346159357,-0.0029002698494036234,0.0,0.0,0.0,0.0,0.0,0.0,0.0,0.0,0.0,-0.03208831581724823,-0.03713621750073176,9.80812995421837,0.0,0.0,0.0,0.0,0.0,0.0,0.0,0.0,0.0
2025/04/05 15:42:03.691945965,1743860523,691316856,mA1/imu,0.6909754948170465,0.7228750915323271,-0.0007623351987264522,0.001971408002460611,0.0,0.0,0.0,0.0,0.0,0.0,0.0,0.0,0.0,0.001209837124245953,0.009156279367363811,-0.002276057545986,0.0,0.0,0.0,0.0,0.0,0.0,0.0,0.0,0.0,-0.029247753298762197,0.06887934581745174,9.808278433564332,0.0,0.0,0.0,0.0,0.0,0.0,0.0,0.0,0.0
2025/04/05 15:42:03.746663971,1743860523,743127319,mA1/imu,0.6909412273815384,0.7229085736715984,-0.0005653440588560991,0.0017592051282998996,0.0,0.0,0.0,0.0,0.0,0.0,0.0,0.0,0.0,0.0013798229924237083,0.01306159695574698,-0.0016597878202374127,0.0,0.0,0.0,0.0,0.0,0.0,0.0,0.0,0.0,-0.02486791403101537,0.07697562275314818,9.810953819250999,0.0,0.0,0.0,0.0,0.0,0.0,0.0,0.0,0.0
2025/04/05 15:42:03.794358352,1743860523,792722705,mA1/imu,0.690909886568519,0.7229392645435458,-0.00031287909656966303,0.0015001765843116392,0.0,0.0,0.0,0.0,0.0,0.0,0.0,0.0,0.0,-7.485218011409324e-05,0.015067224637631618,-0.001957505077127713,0.0,0.0,0.0,0.0,0.0,0.0,0.0,0.0,0.0,0.02340597576305145,-0.05492662213652702,9.814436995904531,0.0,0.0,0.0,0.0,0.0,0.0,0.0,0.0,0.0
2025/04/05 15:42:03.844738517,1743860523,843701226,mA1/imu,0.6908693554829034,0.722978595973527,-4.3383404822549426e-05,0.0012171839077820296,0.0,0.0,0.0,0.0,0.0,0.0,0.0,0.0,0.0,-0.00013413036243149792,0.015858590901039152,-0.0024527547976089573,0.0,0.0,0.0,0.0,0.0,0.0,0.0,0.0,0.0,0.033036401865208564,-0.6813235260866733,9.811662063336033,0.0,0.0,0.0,0.0,0.0,0.0,0.0,0.0,0.0
2025/04/05 15:42:03.894402893,1743860523,893554308,mA1/imu,0.6908413112498102,0.7230058223981988,0.00025719606589782925,0.0008929160827137406,0.0,0.0,0.0,0.0,0.0,0.0,0.0,0.0,0.0,-0.0003279611839574977,0.019326963874189,-0.0005413051975883278,0.0,0.0,0.0,0.0,0.0,0.0,0.0,0.0,0.0,-0.10833612778256946,-0.03845199771274035,9.805560883442828,0.0,0.0,0.0,0.0,0.0,0.0,0.0,0.0,0.0
2025/04/05 15:42:03.945325260,1743860523,944492063,mA1/imu,0.6908581534969866,0.7229898866945936,0.0006192247253449627,0.0005020406477923353,0.0,0.0,0.0,0.0,0.0,0.0,0.0,0.0,0.0,-0.0004546400786287734,0.022454310330061254,0.0019213200751631472,0.0,0.0,0.0,0.0,0.0,0.0,0.0,0.0,0.0,-0.10318545858102507,0.5855587697276676,9.815062792266197,0.0,0.0,0.0,0.0,0.0,0.0,0.0,0.0,0.0
2025/04/05 15:42:04.3325202,1743860524,1177135,mA1/imu,0.6909015278721379,0.7229481830347355,0.0009964505975678763,0.00010255206799010091,0.0,0.0,0.0,0.0,0.0,0.0,0.0,0.0,0.0,-0.00033717336290138507,0.020937188115564054,0.0024377910393096293,0.0,0.0,0.0,0.0,0.0,0.0,0.0,0.0,0.0,0.028008624832949684,0.5825077435686284,9.810779493306194,0.0,0.0,0.0,0.0,0.0,0.0,0.0,0.0,0.0
2025/04/05 15:42:04.44273963,1743860524,43336809,mA1/imu,0.6909451267316546,0.7229059647952798,0.0013190621355054352,-0.00024079922370446065,0.0,0.0,0.0,0.0,0.0,0.0,0.0,0.0,0.0,0.0014439880944634358,0.017302087165224612,0.00244853956939501,0.0,0.0,0.0,0.0,0.0,0.0,0.0,0.0,0.0,0.034246596847005255,-0.5551310236957493,9.807857724390317,0.0,0.0,0.0,0.0,0.0,0.0,0.0,0.0,0.0
2025/04/05 15:42:04.95707412,1743860524,94395267,mA1/imu,0.6909889829933554,0.7228634044646801,0.0015702903813776111,-0.0005079917901334146,0.0,0.0,0.0,0.0,0.0,0.0,0.0,0.0,0.0,0.0014888498007204353,0.01273801126937583,0.0024681609409115445,0.0,0.0,0.0,0.0,0.0,0.0,0.0,0.0,0.0,0.03861934485378367,-0.5567138888106518,9.810651098096326,0.0,0.0,0.0,0.0,0.0,0.0,0.0,0.0,0.0
2025/04/05 15:42:04.150233600,1743860524,147053363,mA1/imu,0.6910332286067555,0.7228205803931058,0.0017368386142640022,-0.0006847723160927619,0.0,0.0,0.0,0.0,0.0,0.0,0.0,0.0,0.0,-0.0001493565340657812,0.007592117097889034,0.0024712898996928087,0.0,0.0,0.0,0.0,0.0,0.0,0.0,0.0,0.0,0.03793572158123766,-0.0364068459309416,9.812069331373682,0.0,0.0,0.0,0.0,0.0,0.0,0.0,0.0,0.0
2025/04/05 15:42:04.203823727,1743860524,200954244,mA1/imu,0.6910783280402201,0.7227771993032894,0.0018111644132821768,-0.0007644369792371698,0.0,0.0,0.0,0.0,0.0,0.0,0.0,0.0,0.0,-0.001820794226188003,0.00223068169745062,0.0025403850389473783,0.0,0.0,0.0,0.0,0.0,0.0,0.0,0.0,0.0,0.030237575792963794,0.4825701616798442,9.809731692055449,0.0,0.0,0.0,0.0,0.0,0.0,0.0,0.0,0.0
2025/04/05 15:42:04.242035490,1743860524,241166178,mA1/imu,0.6911254753621837,0.7227321911199436,0.0017865479763585087,-0.0007519778515123655,0.0,0.0,0.0,0.0,0.0,0.0,0.0,0.0,0.0,-0.0003526813513880429,-0.003133299964932785,0.0026427825760398766,0.0,0.0,0.0,0.0,0.0,0.0,0.0,0.0,0.0,0.02682987663637465,-0.046752268791023774,9.80776001877888,0.0,0.0,0.0,0.0,0.0,0.0,0.0,0.0,0.0
2025/04/05 15:42:04.295983271,1743860524,294582841,mA1/imu,0.6911759916969205,0.7226842416374881,0.0016765195995926678,-0.0006516691331471858,0.0,0.0,0.0,0.0,0.0,0.0,0.0,0.0,0.0,0.0011433857776920657,-0.007701774931950988,0.0029079931707991277,0.0,0.0,0.0,0.0,0.0,0.0,0.0,0.0,0.0,0.009604229395867137,0.08890678464607016,9.807624138530825,0.0,0.0,0.0,0.0,0.0,0.0,0.0,0.0,0.0
2025/04/05 15:42:04.348675728,1743860524,347410257,mA1/imu,0.6912326873205401,0.7226305359237701,0.0015034447297852856,-0.0004692377792676522,0.0,0.0,0.0,0.0,0.0,0.0,0.0,0.0,0.0,0.0010644828269986732,-0.01157085747667706,0.003258043235614992,0.0,0.0,0.0,0.0,0.0,0.0,0.0,0.0,0.0,0.0017222284910277906,0.06440246043055434,9.809057444700974,0.0,0.0,0.0,0.0,0.0,0.0,0.0,0.0,0.0
2025/04/05 15:42:04.399479680,1743860524,398267929,mA1/imu,0.691295436376144,0.7225710595814887,0.0012792252527384623,-0.00021698745104029352,0.0,0.0,0.0,0.0,0.0,0.0,0.0,0.0,0.0,-0.00021031435463052524,-0.014699776857824542,0.003569979117675514,0.0,0.0,0.0,0.0,0.0,0.0,0.0,0.0,0.0,0.0034669534661569586,-0.02557299277823887,9.811033520320139,0.0,0.0,0.0,0.0,0.0,0.0,0.0,0.0,0.0
2025/04/05 15:42:04.453023486,1743860524,450412519,mA1/imu,0.6913636382114079,0.7225062630731477,0.0010067200168085845,7.806387526504644e-05,0.0,0.0,0.0,0.0,0.0,0.0,0.0,0.0,0.0,-0.0004383629013983919,-0.016866443448916392,0.0038818106137664355,0.0,0.0,0.0,0.0,0.0,0.0,0.0,0.0,0.0,-0.002555225955599566,-0.6690882467331678,9.809181418658277,0.0,0.0,0.0,0.0,0.0,0.0,0.0,0.0,0.0
2025/04/05 15:42:04.504640406,1743860524,500896656,mA1/imu,0.6914376303469234,0.7224357088683805,0.0007017036480021553,0.0003968678142883101,0.0,0.0,0.0,0.0,0.0,0.0,0.0,0.0,0.0,-0.0009090383705421026,-0.01801274317637009,0.00418753081111228,0.0,0.0,0.0,0.0,0.0,0.0,0.0,0.0,0.0,-0.006521516088119144,-0.06317150776300536,9.807692902617616,0.0,0.0,0.0,0.0,0.0,0.0,0.0,0.0,0.0
2025/04/05 15:42:04.546861767,1743860524,544118070,mA1/imu,0.6915164930289468,0.722360205334749,0.00038700314225756474,0.000723772238785274,0.0,0.0,0.0,0.0,0.0,0.0,0.0,0.0,0.0,-0.0002669392794056306,-0.018081423011777974,0.00445754536024086,0.0,0.0,0.0,0.0,0.0,0.0,0.0,0.0,0.0,-0.012207806113023557,0.19458404845557126,9.809196604415401,0.0,0.0,0.0,0.0,0.0,0.0,0.0,0.0,0.0
2025/04/05 15:42:04.596502655,1743860524,595586508,mA1/imu,0.6915993801933419,0.722280526646417,7.016834912669816e-05,0.0010645280469990248,0.0,0.0,0.0,0.0,0.0,0.0,0.0,0.0,0.0,-0.0008050092247867265,-0.01890212168777701,0.004548919615596763,0.0,0.0,0.0,0.0,0.0,0.0,0.0,0.0,0.0,0.04411734664327647,0.5807365452359987,9.810365983619638,0.0,0.0,0.0,0.0,0.0,0.0,0.0,0.0,0.0
2025/04/05 15:42:04.647994617,1743860524,646724171,mA1/imu,0.6916803148850096,0.7222023915885114,-0.00025505975902623127,0.0014080230565903882,0.0,0.0,0.0,0.0,0.0,0.0,0.0,0.0,0.0,0.000934188768289776,-0.018745299655992958,0.004440456937579863,0.0,0.0,0.0,0.0,0.0,0.0,0.0,0.0,0.0,0.035194093598863524,-0.3536428884723412,9.807231755934938,0.0,0.0,0.0,0.0,0.0,0.0,0.0,0.0,0.0
2025/04/05 15:42:04.702730514,1743860524,697846368,mA1/imu,0.6917594312239707,0.7221257206682619,-0.0005600945057006486,0.0017375719199321541,0.0,0.0,0.0,0.0,0.0,0.0,0.0,0.0,0.0,-3.571711192061474e-05,-0.017321693392440447,0.004341972706516214,0.0,0.0,0.0,0.0,0.0,0.0,0.0,0.0,0.0,0.033009342066770114,-0.053265430692763086,9.81298445900929,0.0,0.0,0.0,0.0,0.0,0.0,0.0,0.0,0.0
2025/04/05 15:42:04.749929214,1743860524,748779602,mA1/imu,0.6918368560255472,0.7220505371708046,-0.0008382958036956034,0.002020810774017846,0.0,0.0,0.0,0.0,0.0,0.0,0.0,0.0,0.0,0.0008727504882875777,-0.014860922533114305,0.004315480329546065,0.0,0.0,0.0,0.0,0.0,0.0,0.0,0.0,0.0,0.03807612292196977,-0.5683251263078237,9.8126002795741,0.0,0.0,0.0,0.0,0.0,0.0,0.0,0.0,0.0
2025/04/05 15:42:04.799462246,1743860524,798564734,mA1/imu,0.6919166258562539,0.7219730954602496,-0.0010678846769632698,0.0022565277660301767,0.0,0.0,0.0,0.0,0.0,0.0,0.0,0.0,0.0,0.00027400724958056617,-0.011973191845559105,0.0045063277743376,0.0,0.0,0.0,0.0,0.0,0.0,0.0,0.0,0.0,0.039899743449909986,-0.26983396490307704,9.80607891172627,0.0,0.0,0.0,0.0,0.0,0.0,0.0,0.0,0.0
2025/04/05 15:42:04.850681931,1743860524,849540405,mA1/imu,0.6919994364956548,0.7218928997025518,-0.0012460571069243436,0.0024225173733252504,0.0,0.0,0.0,0.0,0.0,0.0,0.0,0.0,0.0,-0.000653697059185606,-0.008176911465575335,0.004647160224872871,0.0,0.0,0.0,0.0,0.0,0.0,0.0,0.0,0.0,0.033018884989895095,-0.08857425034768426,9.81181858751035,0.0,0.0,0.0,0.0,0.0,0.0,0.0,0.0,0.0
2025/04/05 15:42:04.902145179,1743860524,899305287,mA1/imu,0.6920842977848057,0.7218110455234756,-0.0013646752947024314,0.002505390460401895,0.0,0.0,0.0,0.0,0.0,0.0,0.0,0.0,0.0,-0.0005804055757171915,-0.0038883763058863477,0.004753264019992082,0.0,0.0,0.0,0.0,0.0,0.0,0.0,0.0,0.0,0.024604820304045868,0.5416683098763768,9.812729404096654,0.0,0.0,0.0,0.0,0.0,0.0,0.0,0.0,0.0
2025/04/05 15:42:04.949763604,1743860524,943512830,mA1/imu,0.6921705321577158,0.7217282564111497,-0.0014057559242231102,0.002510410426167388,0.0,0.0,0.0,0.0,0.0,0.0,0.0,0.0,0.0,-0.000400933623518231,0.0005288693631795971,0.0048146658457668065,0.0,0.0,0.0,0.0,0.0,0.0,0.0,0.0,0.0,0.025054874413275384,0.5068841555229732,9.810114043418867,0.0,0.0,0.0,0.0,0.0,0.0,0.0,0.0,0.0
2025/04/05 15:42:04.994820511,1743860524,994213971,mA1/imu,0.6922605057312152,0.7216422953757347,-0.0013823913122045176,0.002424607981311088,0.0,0.0,0.0,0.0,0.0,0.0,0.0,0.0,0.0,0.0011997946748370384,0.00503499091511391,0.005166035834252293,0.0,0.0,0.0,0.0,0.0,0.0,0.0,0.0,0.0,0.003096205075901408,0.6524969984723119,9.81112712992297,0.0,0.0,0.0,0.0,0.0,0.0,0.0,0.0,0.0
2025/04/05 15:42:05.46319528,1743860525,45164330,mA1/imu,0.6923609518465516,0.7215466666166643,-0.0012750776125498044,0.0022570843137380233,0.0,0.0,0.0,0.0,0.0,0.0,0.0,0.0,0.0,0.0017602282010571906,0.009608060987005744,0.005790717149582979,0.0,0.0,0.0,0.0,0.0,0.0,0.0,0.0,0.0,0.006953596448906842,0.6719111012712745,9.810646154185656,0.0,0.0,0.0,0.0,0.0,0.0,0.0,0.0,0.0
2025/04/05 15:42:05.104785092,1743860525,97531706,mA1/imu,0.692472129835826,0.7214409907889036,-0.0010951581837840443,0.0020116755982056717,0.0,0.0,0.0,0.0,0.0,0.0,0.0,0.0,0.0,0.0022551606630319037,0.013589455118718967,0.00636804128289158,0.0,0.0,0.0,0.0,0.0,0.0,0.0,0.0,0.0,0.009874424636987088,0.0633104548437066,9.808652469480055,0.0,0.0,0.0,0.0,0.0,0.0,0.0,0.0,0.0
2025/04/05 15:42:05.151515911,1743860525,149412067,mA1/imu,0.6925936143422419,0.7213254856508002,-0.000861056543218898,0.0016993247530262949,0.0,0.0,0.0,0.0,0.0,0.0,0.0,0.0,0.0,0.0017838554753533246,0.016594119254919357,0.0069570436228562115,0.0,0.0,0.0,0.0,0.0,0.0,0.0,0.0,0.0,0.02465377509943344,0.033858789863977556,9.812161505996373,0.0,0.0,0.0,0.0,0.0,0.0,0.0,0.0,0.0
2025/04/05 15:42:05.202492155,1743860525,199722074,mA1/imu,0.6927294923071224,0.7211960328383925,-0.0005912036383847223,0.0013353592545624527,0.0,0.0,0.0,0.0,0.0,0.0,0.0,0.0,0.0,0.0026600798556045903,0.018712455598886894,0.007874366590101305,0.0,0.0,0.0,0.0,0.0,0.0,0.0,0.0,0.0,0.02164416751542627,0.0832456809613993,9.811720726413268,0.0,0.0,0.0,0.0,0.0,0.0,0.0,0.0,0.0
2025/04/05 15:42:05.243516017,1743860525,240909653,mA1/imu,0.6928790803785976,0.7210531092529145,-0.00029889170313420475,0.0009509333115996622,0.0,0.0,0.0,0.0,0.0,0.0,0.0,0.0,0.0,0.0012309118496645851,0.01935006476262009,0.008549153743764394,0.0,0.0,0.0,0.0,0.0,0.0,0.0,0.0,0.0,0.032264735689463954,0.6155255571309042,9.80962477496953,0.0,0.0,0.0,0.0,0.0,0.0,0.0,0.0,0.0
2025/04/05 15:42:05.293676438,1743860525,291594237,mA1/imu,0.6930463903295146,0.7208927698149739,-1.3726481363392326e-05,0.0005613299464823087,0.0,0.0,0.0,0.0,0.0,0.0,0.0,0.0,0.0,0.0030898785550574235,0.018960314207339513,0.00980105140641089,0.0,0.0,0.0,0.0,0.0,0.0,0.0,0.0,0.0,0.025407880615186725,0.19023355120652574,9.808876536288984,0.0,0.0,0.0,0.0,0.0,0.0,0.0,0.0,0.0
2025/04/05 15:42:05.346621344,1743860525,345143600,mA1/imu,0.6932376600136088,0.7207089822693026,0.000265758909263471,0.000197452283952071,0.0,0.0,0.0,0.0,0.0,0.0,0.0,0.0,0.0,0.003381368957647938,0.017520369015336847,0.011163654756384415,0.0,0.0,0.0,0.0,0.0,0.0,0.0,0.0,0.0,0.03772054344188777,-0.4788597242111932,9.804632957779472,0.0,0.0,0.0,0.0,0.0,0.0,0.0,0.0,0.0
2025/04/05 15:42:05.396032762,1743860525,394953020,mA1/imu,0.6934537385661086,0.7205009676935885,0.0004999965002542403,-0.0001342564311210438,0.0,0.0,0.0,0.0,0.0,0.0,0.0,0.0,0.0,0.0015632082096450626,0.01499952172918048,0.012563733925153505,0.0,0.0,0.0,0.0,0.0,0.0,0.0,0.0,0.0,0.03593931697712423,0.021980394392231886,9.814135617546484,0.0,0.0,0.0,0.0,0.0,0.0,0.0,0.0,0.0
2025/04/05 15:42:05.447431164,1743860525,446805835,mA1/imu,0.693693606044394,0.7202697805745972,0.0006689153004988341,-0.00042032899876505827,0.0,0.0,0.0,0.0,0.0,0.0,0.0,0.0,0.0,0.002076404156254285,0.011407499370686865,0.013782858228822886,0.0,0.0,0.0,0.0,0.0,0.0,0.0,0.0,0.0,0.0651650827219695,0.6917293222236126,9.809413936576052,0.0,0.0,0.0,0.0,0.0,0.0,0.0,0.0,0.0
2025/04/05 15:42:05.501306331,1743860525,498693105,mA1/imu,0.6939544681693969,0.7200181932470584,0.0007854394302184675,-0.0006169164226663173,0.0,0.0,0.0,0.0,0.0,0.0,0.0,0.0,0.0,0.0011461875595234852,0.007279208966669211,0.015020801930336676,0.0,0.0,0.0,0.0,0.0,0.0,0.0,0.0,0.0,0.04352917707698632,0.6437729953200256,9.809831337096217,0.0,0.0,0.0,0.0,0.0,0.0,0.0,0.0,0.0
2025/04/05 15:42:05.552196275,1743860525,549681055,mA1/imu,0.6942368252580176,0.7197457944028518,0.0008274309735503524,-0.0007329754844529953,0.0,0.0,0.0,0.0,0.0,0.0,0.0,0.0,0.0,0.0017462737506245612,0.0025624442947814285,0.016048656858854836,0.0,0.0,0.0,0.0,0.0,0.0,0.0,0.0,0.0,0.06093622423386079,0.07924604283563946,9.807550306660561,0.0,0.0,0.0,0.0,0.0,0.0,0.0,0.0,0.0
2025/04/05 15:42:05.596627472,1743860525,591016243,mA1/imu,0.6945303592057755,0.719462574385529,0.0007933374029874685,-0.0007448595899628773,0.0,0.0,0.0,0.0,0.0,0.0,0.0,0.0,0.0,0.0005014793435813225,-0.00274406070650688,0.016426811313026174,0.0,0.0,0.0,0.0,0.0,0.0,0.0,0.0,0.0,0.07437965123494437,-0.06973681208761837,9.807754964485213,0.0,0.0,0.0,0.0,0.0,0.0,0.0,0.0,0.0
2025/04/05 15:42:05.644579814,1743860525,642041091,mA1/imu,0.6948297416875558,0.7191736441420591,0.0006795662269173923,-0.000661685407757519,0.0,0.0,0.0,0.0,0.0,0.0,0.0,0.0,0.0,-0.0005381000674840703,-0.007171900508935825,0.016869814036508172,0.0,0.0,0.0,0.0,0.0,0.0,0.0,0.0,0.0,0.04420557440481902,-0.009642150794037107,9.81124296895369,0.0,0.0,0.0,0.0,0.0,0.0,0.0,0.0,0.0
2025/04/05 15:42:05.692976318,1743860525,692097027,mA1/imu,0.6951418043375615,0.7188722806248489,0.0005071985036698682,-0.000508685783001552,0.0,0.0,0.0,0.0,0.0,0.0,0.0,0.0,0.0,0.00010776276559939794,-0.01042163942312307,0.017681314764947473,0.0,0.0,0.0,0.0,0.0,0.0,0.0,0.0,0.0,0.03399904880194225,0.08011367073038762,9.811162057199342,0.0,0.0,0.0,0.0,0.0,0.0,0.0,0.0,0.0
2025/04/05 15:42:05.743945485,1743860525,743138558,mA1/imu,0.6954657284558246,0.718559147278554,0.0003000418545647771,-0.00028702022945252027,0.0,0.0,0.0,0.0,0.0,0.0,0.0,0.0,0.0,-0.0006112388863743472,-0.013159857413016156,0.01823787386610223,0.0,0.0,0.0,0.0,0.0,0.0,0.0,0.0,0.0,0.03175274963299138,-0.03252818724711182,9.810090873054314,0.0,0.0,0.0,0.0,0.0,0.0,0.0,0.0,0.0
2025/04/05 15:42:05.793733529,1743860525,792967688,mA1/imu,0.6958013234527419,0.7182343027301804,6.488309211572131e-05,-2.1290580903663477e-05,0.0,0.0,0.0,0.0,0.0,0.0,0.0,0.0,0.0,-0.0007574794245542396,-0.01473735127484556,0.01897134017626438,0.0,0.0,0.0,0.0,0.0,0.0,0.0,0.0,0.0,0.024319472106501983,0.10120719104934732,9.810348474484233,0.0,0.0,0.0,0.0,0.0,0.0,0.0,0.0,0.0
2025/04/05 15:42:05.845648944,1743860525,844225770,mA1/imu,0.6961469081970154,0.7178992783946411,-0.00017568130314236596,0.0002782521690754517,0.0,0.0,0.0,0.0,0.0,0.0,0.0,0.0,0.0,-0.0010309091665791292,-0.01555059277102959,0.01943294415544189,0.0,0.0,0.0,0.0,0.0,0.0,0.0,0.0,0.0,0.018847132861261925,-0.3429105828129703,9.810357529861996,0.0,0.0,0.0,0.0,0.0,0.0,0.0,0.0,0.0
2025/04/05 15:42:05.896311196,1743860525,894275266,mA1/imu,0.6964997085033594,0.7175567138404635,-0.00040419314225437474,0.0005959069679190114,0.0,0.0,0.0,0.0,0.0,0.0,0.0,0.0,0.0,-0.0031614633683583766,-0.015311197837905155,0.01982358632676431,0.0,0.0,0.0,0.0,0.0,0.0,0.0,0.0,0.0,0.014470803795225733,-0.1072585441541413,9.812044005546731,0.0,0.0,0.0,0.0,0.0,0.0,0.0,0.0,0.0
2025/04/05 15:42:05.947324118,1743860525,945331077,mA1/imu,0.6968586316836924,0.7172076864499682,-0.0006294288267114367,0.0008864335100776288,0.0,0.0,0.0,0.0,0.0,0.0,0.0,0.0,0.0,-0.0026739935265646746,-0.013989775130392885,0.02015211714281575,0.0,0.0,0.0,0.0,0.0,0.0,0.0,0.0,0.0,0.00720897872380721,0.06429482371768198,9.80878185800588,0.0,0.0,0.0,0.0,0.0,0.0,0.0,0.0,0.0
2025/04/05 15:42:05.998610701,1743860525,997836403,mA1/imu,0.6972199433908579,0.7168558641629158,-0.0008025724986903371,0.0011732138221380607,0.0,0.0,0.0,0.0,0.0,0.0,0.0,0.0,0.0,-0.0012350723237933765,-0.012333801428641286,0.02017831014209009,0.0,0.0,0.0,0.0,0.0,0.0,0.0,0.0,0.0,0.009599343595948585,-0.4466416975729721,9.809878164531035,0.0,0.0,0.0,0.0,0.0,0.0,0.0,0.0,0.0
2025/04/05 15:42:06.51053189,1743860526,49071103,mA1/imu,0.6975834904801359,0.7165015033996526,-0.0009324242898797404,0.0014142208212794265,0.0,0.0,0.0,0.0,0.0,0.0,0.0,0.0,0.0,-0.003344189535340126,-0.00932292871048337,0.020395072067871115,0.0,0.0,0.0,0.0,0.0,0.0,0.0,0.0,0.0,-0.0014123066689338201,0.055949370755999074,9.813639628563827,0.0,0.0,0.0,0.0,0.0,0.0,0.0,0.0,0.0
2025/04/05 15:42:06.101688463,1743860526,98838553,mA1/imu,0.6979502559869296,0.7161437543053003,-0.0010092921945282528,0.0015952011018350613,0.0,0.0,0.0,0.0,0.0,0.0,0.0,0.0,0.0,-0.002105076073032703,-0.005946260369240318,0.02055870329527362,0.0,0.0,0.0,0.0,0.0,0.0,0.0,0.0,0.0,-0.002909134886302081,0.1462216237115319,9.809377111499158,0.0,0.0,0.0,0.0,0.0,0.0,0.0,0.0,0.0
2025/04/05 15:42:06.151273225,1743860526,149810473,mA1/imu,0.6983192112835269,0.7157836964152747,-0.001017703054558281,0.001715627853371084,0.0,0.0,0.0,0.0,0.0,0.0,0.0,0.0,0.0,-0.0022113447889832256,-0.0021767676525369433,0.02066283127736197,0.0,0.0,0.0,0.0,0.0,0.0,0.0,0.0,0.0,-0.0066253303666937505,0.13586310515100994,9.809816088828567,0.0,0.0,0.0,0.0,0.0,0.0,0.0,0.0,0.0
2025/04/05 15:42:06.201673018,1743860526,200450884,mA1/imu,0.6986895614050518,0.7154221532649339,-0.0009616163976125617,0.0017648499328590081,0.0,0.0,0.0,0.0,0.0,0.0,0.0,0.0,0.0,-0.002415996418542049,0.0016564003372394743,0.02072929189786496,0.0,0.0,0.0,0.0,0.0,0.0,0.0,0.0,0.0,-0.005869675854346661,0.09959145030113244,9.813531323273319,0.0,0.0,0.0,0.0,0.0,0.0,0.0,0.0,0.0
2025/04/05 15:42:06.243317604,1743860526,241311584,mA1/imu,0.6990606486505144,0.7150597532938436,-0.0008396020876989883,0.0017475113744406805,0.0,0.0,0.0,0.0,0.0,0.0,0.0,0.0,0.0,-0.0033337998906032163,0.005320550731693198,0.02076369402765958,0.0,0.0,0.0,0.0,0.0,0.0,0.0,0.0,0.0,-0.004191448509922223,-0.1677451449460764,9.81368174344709,0.0,0.0,0.0,0.0,0.0,0.0,0.0,0.0,0.0
2025/04/05 15:42:06.293365657,1743860526,291568494,mA1/imu,0.6994316204820762,0.7146972933629431,-0.0006722392485503798,0.0016538512306746036,0.0,0.0,0.0,0.0,0.0,0.0,0.0,0.0,0.0,-0.003115102899953795,0.008653836152259859,0.0207522416455544,0.0,0.0,0.0,0.0,0.0,0.0,0.0,0.0,0.0,-0.004756093823820681,-0.03420754921468469,9.810198571684477,0.0,0.0,0.0,0.0,0.0,0.0,0.0,0.0,0.0
2025/04/05 15:42:06.343475395,1743860526,342547870,mA1/imu,0.6998021941447229,0.7143349676251943,-0.00046863041918586174,0.001491135028861636,0.0,0.0,0.0,0.0,0.0,0.0,0.0,0.0,0.0,-0.0005300635172865567,0.011401283787632643,0.02072343599673055,0.0,0.0,0.0,0.0,0.0,0.0,0.0,0.0,0.0,-0.0017668121140270408,0.15037349963742935,9.811028221737931,0.0,0.0,0.0,0.0,0.0,0.0,0.0,0.0,0.0
2025/04/05 15:42:06.393713838,1743860526,392374758,mA1/imu,0.7001742481886309,0.7139708116804402,-0.00021612912079115043,0.0012866740309127721,0.0,0.0,0.0,0.0,0.0,0.0,0.0,0.0,0.0,-0.00046369858049236584,0.013750057649786979,0.020913478029017912,0.0,0.0,0.0,0.0,0.0,0.0,0.0,0.0,0.0,-0.004279392145360633,0.1119520540258539,9.808334129959162,0.0,0.0,0.0,0.0,0.0,0.0,0.0,0.0,0.0
2025/04/05 15:42:06.444723132,1743860526,443447991,mA1/imu,0.7005464749200926,0.7136060198093552,5.215407934228047e-05,0.001040311892636205,0.0,0.0,0.0,0.0,0.0,0.0,0.0,0.0,0.0,-0.00011891906793086817,0.014924522734028018,0.020812806553446483,0.0,0.0,0.0,0.0,0.0,0.0,0.0,0.0,0.0,0.0051760232767512245,-0.5034758106865063,9.80883123387547,0.0,0.0,0.0,0.0,0.0,0.0,0.0,0.0,0.0
2025/04/05 15:42:06.495487754,1743860526,493233932,mA1/imu,0.7009161192736504,0.7132432282736423,0.00031796611651352207,0.0007680896480504706,0.0,0.0,0.0,0.0,0.0,0.0,0.0,0.0,0.0,0.00021385654795088446,0.015288552142986028,0.020667934232980873,0.0,0.0,0.0,0.0,0.0,0.0,0.0,0.0,0.0,0.004255905183077925,0.07832593931037349,9.810093283981482,0.0,0.0,0.0,0.0,0.0,0.0,0.0,0.0,0.0
2025/04/05 15:42:06.545263006,1743860526,544144925,mA1/imu,0.7012822009797957,0.7128833737861278,0.0005741078454645157,0.0004902738249573409,0.0,0.0,0.0,0.0,0.0,0.0,0.0,0.0,0.0,0.0006814131161452431,0.014819921147915794,0.020457125357509248,0.0,0.0,0.0,0.0,0.0,0.0,0.0,0.0,0.0,0.010117911451975579,0.06981862059852983,9.809983601251664,0.0,0.0,0.0,0.0,0.0,0.0,0.0,0.0,0.0
2025/04/05 15:42:06.596021449,1743860526,595345679,mA1/imu,0.7016459043045495,0.7125253146210151,0.0008081421948367615,0.00021886769325624948,0.0,0.0,0.0,0.0,0.0,0.0,0.0,0.0,0.0,0.0006003467099175348,0.013803411891375513,0.02040802731196124,0.0,0.0,0.0,0.0,0.0,0.0,0.0,0.0,0.0,0.003490628211946206,0.0230084453793902,9.810886025573943,0.0,0.0,0.0,0.0,0.0,0.0,0.0,0.0,0.0
2025/04/05 15:42:06.649008069,1743860526,647460519,mA1/imu,0.7020058485910411,0.7121704783242556,0.0009985198835664882,-3.613053157884208e-05,0.0,0.0,0.0,0.0,0.0,0.0,0.0,0.0,0.0,0.0013958448373773587,0.011731792437506041,0.02010338813350479,0.0,0.0,0.0,0.0,0.0,0.0,0.0,0.0,0.0,0.008463254883388113,-0.18801298024788105,9.810748191451989,0.0,0.0,0.0,0.0,0.0,0.0,0.0,0.0,0.0
2025/04/05 15:42:06.700984751,1743860526,696833568,mA1/imu,0.7023578665146952,0.7118230571343473,0.001140377727398477,-0.0002494303036784351,0.0,0.0,0.0,0.0,0.0,0.0,0.0,0.0,0.0,0.001653277535662217,0.008890514912542847,0.01958811660190181,0.0,0.0,0.0,0.0,0.0,0.0,0.0,0.0,0.0,0.009665491229435622,0.04155003685747969,9.810061297991615,0.0,0.0,0.0,0.0,0.0,0.0,0.0,0.0,0.0
2025/04/05 15:42:06.749878791,1743860526,747942912,mA1/imu,0.7027024090798776,0.7114827131217142,0.001223315520870718,-0.0004203587013019475,0.0,0.0,0.0,0.0,0.0,0.0,0.0,0.0,0.0,0.00263055714678149,0.006012384105666986,0.019230675390816264,0.0,0.0,0.0,0.0,0.0,0.0,0.0,0.0,0.0,0.003687730230206507,0.045309373000398945,9.80952095905609,0.0,0.0,0.0,0.0,0.0,0.0,0.0,0.0,0.0
2025/04/05 15:42:06.800480562,1743860526,798533975,mA1/imu,0.7030398194737395,0.7111491778011981,0.0012525872054333607,-0.0005386764376029787,0.0,0.0,0.0,0.0,0.0,0.0,0.0,0.0,0.0,0.0033363913978447725,0.0029298996276626572,0.01880798373422999,0.0,0.0,0.0,0.0,0.0,0.0,0.0,0.0,0.0,2.4806313967701277e-05,-0.43074898922066784,9.8105130046899,0.0,0.0,0.0,0.0,0.0,0.0,0.0,0.0,0.0
2025/04/05 15:42:06.851138005,1743860526,849449471,mA1/imu,0.7033689586212182,0.7108236338881255,0.0012270652313931957,-0.000603212318266432,0.0,0.0,0.0,0.0,0.0,0.0,0.0,0.0,0.0,0.0035338328193759198,-0.00013118572989675076,0.018332719338129123,0.0,0.0,0.0,0.0,0.0,0.0,0.0,0.0,0.0,-0.0033026296287023103,-0.37198335190758314,9.808756463369944,0.0,0.0,0.0,0.0,0.0,0.0,0.0,0.0,0.0
2025/04/05 15:42:06.899977320,1743860526,899348916,mA1/imu,0.7036896866248677,0.7105062426286451,0.001155584055096527,-0.0006072470764421196,0.0,0.0,0.0,0.0,0.0,0.0,0.0,0.0,0.0,0.0011805674855584697,-0.0030421989198397012,0.017858036339978327,0.0,0.0,0.0,0.0,0.0,0.0,0.0,0.0,0.0,-0.006671810581297195,0.6198044566886062,9.811322967442624,0.0,0.0,0.0,0.0,0.0,0.0,0.0,0.0,0.0
2025/04/05 15:42:06.944170377,1743860526,942692269,mA1/imu,0.7040015640873379,0.7101974442052486,0.0010341708677678683,-0.0005643558548611605,0.0,0.0,0.0,0.0,0.0,0.0,0.0,0.0,0.0,0.0006552001864935949,-0.005631509866655579,0.01735326467677295,0.0,0.0,0.0,0.0,0.0,0.0,0.0,0.0,0.0,-0.011090117105029013,0.5980184562443993,9.811218461811364,0.0,0.0,0.0,0.0,0.0,0.0,0.0,0.0,0.0
2025/04/05 15:42:06.993150198,1743860526,992447746,mA1/imu,0.7043072750005106,0.7098945399410138,0.0008795616570002405,-0.000480535725044708,0.0,0.0,0.0,0.0,0.0,0.0,0.0,0.0,0.0,0.0015106132967223234,-0.007265348040171296,0.017155363973469905,0.0,0.0,0.0,0.0,0.0,0.0,0.0,0.0,0.0,-0.03553018989097122,0.15535770737066287,9.807757177139438,0.0,0.0,0.0,0.0,0.0,0.0,0.0,0.0,0.0
2025/04/05 15:42:07.45783674,1743860527,44205033,mA1/imu,0.7046074483157565,0.7095968676413755,0.0007108737424961228,-0.0003519517422613731,0.0,0.0,0.0,0.0,0.0,0.0,0.0,0.0,0.0,9.499913399736758e-05,-0.009095066262026077,0.016745274892898475,0.0,0.0,0.0,0.0,0.0,0.0,0.0,0.0,0.0,-0.011532991262495412,0.615559890460393,9.810577296237136,0.0,0.0,0.0,0.0,0.0,0.0,0.0,0.0,0.0
2025/04/05 15:42:07.96304884,1743860527,94901466,mA1/imu,0.7049004563961984,0.7093060289074898,0.0005146715011709925,-0.00019758837046466692,0.0,0.0,0.0,0.0,0.0,0.0,0.0,0.0,0.0,8.434469386768053e-05,-0.010345607872262932,0.016360699856711184,0.0,0.0,0.0,0.0,0.0,0.0,0.0,0.0,0.0,-0.01505522406425502,0.40789199199123927,9.811194427774044,0.0,0.0,0.0,0.0,0.0,0.0,0.0,0.0,0.0
2025/04/05 15:42:07.147706134,1743860527,146018802,mA1/imu,0.7051867246294256,0.7090215682219697,0.00031457307443955355,-1.5692745769119946e-05,0.0,0.0,0.0,0.0,0.0,0.0,0.0,0.0,0.0,-0.00017848213032252742,-0.01101528394191149,0.015990109473887865,0.0,0.0,0.0,0.0,0.0,0.0,0.0,0.0,0.0,-0.01594661734765423,0.659798704857055,9.811811734315349,0.0,0.0,0.0,0.0,0.0,0.0,0.0,0.0,0.0
2025/04/05 15:42:07.199606812,1743860527,196892061,mA1/imu,0.7054710419258773,0.7087387113089508,0.00012828641822040118,0.0001778728191362916,0.0,0.0,0.0,0.0,0.0,0.0,0.0,0.0,0.0,-0.0007932572761859873,-0.010495179738374147,0.016067085755048772,0.0,0.0,0.0,0.0,0.0,0.0,0.0,0.0,0.0,-0.026256758936254315,0.025549895708340646,9.811422179524447,0.0,0.0,0.0,0.0,0.0,0.0,0.0,0.0,0.0
2025/04/05 15:42:07.251172639,1743860527,247997966,mA1/imu,0.7057521792445489,0.7084586952276958,-4.317166863800466e-05,0.00036984327479974553,0.0,0.0,0.0,0.0,0.0,0.0,0.0,0.0,0.0,-0.0004181726143625419,-0.010074159502548129,0.015737207959658633,0.0,0.0,0.0,0.0,0.0,0.0,0.0,0.0,0.0,-0.015020965144366731,-0.5469585882357576,9.811130886314478,0.0,0.0,0.0,0.0,0.0,0.0,0.0,0.0,0.0
2025/04/05 15:42:07.300589258,1743860527,297802987,mA1/imu,0.7060273739946947,0.7081842992804694,-0.00019858960918122848,0.000553159066738779,0.0,0.0,0.0,0.0,0.0,0.0,0.0,0.0,0.0,-0.0008425155219696225,-0.009208356867828628,0.0153989260656816,0.0,0.0,0.0,0.0,0.0,0.0,0.0,0.0,0.0,-0.010830862107247107,-0.39343106294407804,9.809990129014164,0.0,0.0,0.0,0.0,0.0,0.0,0.0,0.0,0.0
2025/04/05 15:42:07.349376425,1743860527,348853911,mA1/imu,0.7062952869730077,0.7079168954089524,-0.00032370861833776546,0.0007293880978178871,0.0,0.0,0.0,0.0,0.0,0.0,0.0,0.0,0.0,-0.0019149267622336097,-0.00801719961664609,0.014971352314025715,0.0,0.0,0.0,0.0,0.0,0.0,0.0,0.0,0.0,-0.009720061312776359,0.04111019962964025,9.810505026861758,0.0,0.0,0.0,0.0,0.0,0.0,0.0,0.0,0.0
2025/04/05 15:42:07.399739879,1743860527,398585927,mA1/imu,0.7065557479509603,0.7076567077039466,-0.00041796951289411625,0.0008856526160267173,0.0,0.0,0.0,0.0,0.0,0.0,0.0,0.0,0.0,-0.0011335219141251998,-0.006429221499136677,0.014563080087534618,0.0,0.0,0.0,0.0,0.0,0.0,0.0,0.0,0.0,-0.009783853949849815,-0.4360553916123859,9.810069694758772,0.0,0.0,0.0,0.0,0.0,0.0,0.0,0.0,0.0
2025/04/05 15:42:07.451783991,1743860527,449804222,mA1/imu,0.706808985794306,0.707403563153892,-0.0004744232011873941,0.0010155590717694633,0.0,0.0,0.0,0.0,0.0,0.0,0.0,0.0,0.0,-0.002589668827475042,-0.004478178238251439,0.014166352861043455,0.0,0.0,0.0,0.0,0.0,0.0,0.0,0.0,0.0,-0.011122848462342811,0.4789886863915257,9.809846212903752,0.0,0.0,0.0,0.0,0.0,0.0,0.0,0.0,0.0
2025/04/05 15:42:07.502590260,1743860527,499730137,mA1/imu,0.7070547672141598,0.7071577426785912,-0.0004866631595993555,0.0011163728850433693,0.0,0.0,0.0,0.0,0.0,0.0,0.0,0.0,0.0,-0.0035482714499742245,-0.002294485535622019,0.01374346089420861,0.0,0.0,0.0,0.0,0.0,0.0,0.0,0.0,0.0,-0.014477690530933125,0.3224952715849235,9.809620780481048,0.0,0.0,0.0,0.0,0.0,0.0,0.0,0.0,0.0
2025/04/05 15:42:07.547678385,1743860527,540972633,mA1/imu,0.7072950044076127,0.7069173904654577,-0.0004626805329786919,0.0011686420610981432,0.0,0.0,0.0,0.0,0.0,0.0,0.0,0.0,0.0,-0.001913507178520085,0.0002016565079905131,0.013500000122795166,0.0,0.0,0.0,0.0,0.0,0.0,0.0,0.0,0.0,-0.019493293688474793,-0.5407061694739894,9.808409224548427,0.0,0.0,0.0,0.0,0.0,0.0,0.0,0.0,0.0
2025/04/05 15:42:07.592287988,1743860527,590929538,mA1/imu,0.7075297950844681,0.7066824202907288,-0.00039526392878256006,0.0011788495216092229,0.0,0.0,0.0,0.0,0.0,0.0,0.0,0.0,0.0,-0.0016269801948272232,0.002529645946764198,0.013137997875006722,0.0,0.0,0.0,0.0,0.0,0.0,0.0,0.0,0.0,-0.014882240926790802,0.10410911326717699,9.808646206128486,0.0,0.0,0.0,0.0,0.0,0.0,0.0,0.0,0.0
2025/04/05 15:42:07.643469371,1743860527,642154223,mA1/imu,0.7077592120495652,0.7064527533328259,-0.00028391910832235726,0.0011508507237585942,0.0,0.0,0.0,0.0,0.0,0.0,0.0,0.0,0.0,-0.0006916344883594429,0.004803393604290774,0.012883342148884501,0.0,0.0,0.0,0.0,0.0,0.0,0.0,0.0,0.0,-0.014167812578497568,-0.36287517884275355,9.807819018952566,0.0,0.0,0.0,0.0,0.0,0.0,0.0,0.0,0.0
2025/04/05 15:42:07.693092477,1743860527,691995548,mA1/imu,0.707988236466919,0.7062233934664071,-0.00013392593365688988,0.0010759224409170897,0.0,0.0,0.0,0.0,0.0,0.0,0.0,0.0,0.0,-0.002267338252212934,0.007289403444856606,0.013027458579616463,0.0,0.0,0.0,0.0,0.0,0.0,0.0,0.0,0.0,-0.020761150637406897,0.03200691195771427,9.80918107679348,0.0,0.0,0.0,0.0,0.0,0.0,0.0,0.0,0.0
2025/04/05 15:42:07.745046152,1743860527,742980812,mA1/imu,0.7082157287653587,0.7059954406903313,3.5696743045000954e-05,0.0009581124983524304,0.0,0.0,0.0,0.0,0.0,0.0,0.0,0.0,0.0,-0.0005492586151749395,0.00860418493474951,0.012786413486416532,0.0,0.0,0.0,0.0,0.0,0.0,0.0,0.0,0.0,-0.0072743350420027275,0.12962591927402187,9.80779350045883,0.0,0.0,0.0,0.0,0.0,0.0,0.0,0.0,0.0
2025/04/05 15:42:07.795565123,1743860527,792828030,mA1/imu,0.7084372487599473,0.705773282449908,0.00022646017078118482,0.0008288939076524006,0.0,0.0,0.0,0.0,0.0,0.0,0.0,0.0,0.0,-0.00040733024515976837,0.009223087854635229,0.012399695485194836,0.0,0.0,0.0,0.0,0.0,0.0,0.0,0.0,0.0,-0.0025905578363190525,-0.4449405757335323,9.810169605614245,0.0,0.0,0.0,0.0,0.0,0.0,0.0,0.0,0.0
2025/04/05 15:42:07.845045071,1743860527,843777280,mA1/imu,0.7086531586821099,0.7055565776799254,0.0004049438671438122,0.000672609042601351,0.0,0.0,0.0,0.0,0.0,0.0,0.0,0.0,0.0,-0.0011374762196420683,0.009534768297634931,0.01214046223336152,0.0,0.0,0.0,0.0,0.0,0.0,0.0,0.0,0.0,-0.004636440531350457,0.31607276219043307,9.810537009715546,0.0,0.0,0.0,0.0,0.0,0.0,0.0,0.0,0.0
2025/04/05 15:42:07.894870950,1743860527,894252961,mA1/imu,0.7088644371377086,0.7053443230915464,0.000577336370249082,0.0005121783710156193,0.0,0.0,0.0,0.0,0.0,0.0,0.0,0.0,0.0,0.0005112866303689606,0.009235925468660582,0.011882990434557128,0.0,0.0,0.0,0.0,0.0,0.0,0.0,0.0,0.0,-0.0030622672631981213,0.06364566877359416,9.809832531617099,0.0,0.0,0.0,0.0,0.0,0.0,0.0,0.0,0.0
2025/04/05 15:42:07.947240460,1743860527,945217715,mA1/imu,0.7090712717378324,0.7051363448180895,0.0007341536253201977,0.0003575347982182728,0.0,0.0,0.0,0.0,0.0,0.0,0.0,0.0,0.0,0.001097662904887179,0.00840989784764555,0.011639023361523419,0.0,0.0,0.0,0.0,0.0,0.0,0.0,0.0,0.0,-0.00020844093170513216,-0.5212902317382064,9.809012480597275,0.0,0.0,0.0,0.0,0.0,0.0,0.0,0.0,0.0
2025/04/05 15:42:07.998357117,1743860527,996164006,mA1/imu,0.7092780194415145,0.7049282876221569,0.0008697401527654948,0.0002097600602748393,0.0,0.0,0.0,0.0,0.0,0.0,0.0,0.0,0.0,0.00033238062818817077,0.007642514042743214,0.01180604322140947,0.0,0.0,0.0,0.0,0.0,0.0,0.0,0.0,0.0,-0.007797026385330788,0.020927421587082634,9.811127726480716,0.0,0.0,0.0,0.0,0.0,0.0,0.0,0.0,0.0
2025/04/05 15:42:08.48907942,1743860528,47140103,mA1/imu,0.7094831554784051,0.7047217344872148,0.0009612928477305779,7.035480023850931e-05,0.0,0.0,0.0,0.0,0.0,0.0,0.0,0.0,0.0,-0.0001191199105993353,0.005711780911302487,0.011529615804056982,0.0,0.0,0.0,0.0,0.0,0.0,0.0,0.0,0.0,0.00939814802572551,0.591289749543296,9.809889465196369,0.0,0.0,0.0,0.0,0.0,0.0,0.0,0.0,0.0
2025/04/05 15:42:08.99851169,1743860528,98131010,mA1/imu,0.7096829030295703,0.7045205041776746,0.0010176479087503063,-2.7083030073492644e-05,0.0,0.0,0.0,0.0,0.0,0.0,0.0,0.0,0.0,0.0014921032257837277,0.0033932248086441775,0.011222941652332842,0.0,0.0,0.0,0.0,0.0,0.0,0.0,0.0,0.0,0.00895782321292091,0.04907962968206911,9.81038195987304,0.0,0.0,0.0,0.0,0.0,0.0,0.0,0.0,0.0
2025/04/05 15:42:08.151178079,1743860528,149129076,mA1/imu,0.7098773430316283,0.7043245753929904,0.0010206759530459368,-9.256586035660363e-05,0.0,0.0,0.0,0.0,0.0,0.0,0.0,0.0,0.0,0.0018401521996611817,0.0009379436121236411,0.010926902210801209,0.0,0.0,0.0,0.0,0.0,0.0,0.0,0.0,0.0,0.00819154681007883,0.051937975871391984,9.810481468066993,0.0,0.0,0.0,0.0,0.0,0.0,0.0,0.0,0.0
2025/04/05 15:42:08.200353871,1743860528,199237541,mA1/imu,0.7100649506535388,0.7041354981110559,0.0009762665550560575,-0.0001142667762704176,0.0,0.0,0.0,0.0,0.0,0.0,0.0,0.0,0.0,0.0017740964747512068,-0.0016871645192859548,0.010479579403219608,0.0,0.0,0.0,0.0,0.0,0.0,0.0,0.0,0.0,0.008344579684130311,0.03363614889532489,9.810557185040743,0.0,0.0,0.0,0.0,0.0,0.0,0.0,0.0,0.0
2025/04/05 15:42:08.251425540,1743860528,250186150,mA1/imu,0.7102462319991474,0.7039527678983735,0.0008834504604850784,-0.0001000725532063138,0.0,0.0,0.0,0.0,0.0,0.0,0.0,0.0,0.0,0.0024679821723127895,-0.00391680232391132,0.010173928512704555,0.0,0.0,0.0,0.0,0.0,0.0,0.0,0.0,0.0,0.004597513227046622,0.07237678539753108,9.810745312608322,0.0,0.0,0.0,0.0,0.0,0.0,0.0,0.0,0.0
2025/04/05 15:42:08.304404779,1743860528,300032768,mA1/imu,0.710422823779353,0.7037747054516015,0.0007572047592043695,-4.5396415291958276e-05,0.0,0.0,0.0,0.0,0.0,0.0,0.0,0.0,0.0,0.0021512518922984945,-0.005916050935029619,0.009934073982018466,0.0,0.0,0.0,0.0,0.0,0.0,0.0,0.0,0.0,0.0055948520802998405,0.05190921664795417,9.810933154504603,0.0,0.0,0.0,0.0,0.0,0.0,0.0,0.0,0.0
2025/04/05 15:42:08.341794274,1743860528,340943997,mA1/imu,0.7105945033526949,0.7036015155595908,0.0005977747282500919,4.210175726528266e-05,0.0,0.0,0.0,0.0,0.0,0.0,0.0,0.0,0.0,0.0022223750532176095,-0.0076619587640706375,0.009632087338823385,0.0,0.0,0.0,0.0,0.0,0.0,0.0,0.0,0.0,0.0047179804551889006,-0.10212145943244941,9.810664230033643,0.0,0.0,0.0,0.0,0.0,0.0,0.0,0.0,0.0
2025/04/05 15:42:08.396494410,1743860528,390738234,mA1/imu,0.7107608432842355,0.7034335994533731,0.000412896653652278,0.00015598175267172014,0.0,0.0,0.0,0.0,0.0,0.0,0.0,0.0,0.0,0.0029508575104020994,-0.008928532128649582,0.00933156785931217,0.0,0.0,0.0,0.0,0.0,0.0,0.0,0.0,0.0,0.003094317930406352,-0.3042478399576128,9.80986791344896,0.0,0.0,0.0,0.0,0.0,0.0,0.0,0.0,0.0
2025/04/05 15:42:08.442444678,1743860528,441726580,mA1/imu,0.7109216824525565,0.703271088306284,0.00022245962375060273,0.0002971246156720471,0.0,0.0,0.0,0.0,0.0,0.0,0.0,0.0,0.0,0.0016595531250804395,-0.009631618932534336,0.009021878167104857,0.0,0.0,0.0,0.0,0.0,0.0,0.0,0.0,0.0,0.00013503849124596294,0.05665280890773024,9.809797615825607,0.0,0.0,0.0,0.0,0.0,0.0,0.0,0.0,0.0
2025/04/05 15:42:08.493874017,1743860528,491979007,mA1/imu,0.7110771792884161,0.7031138214632928,2.5543513756860617e-05,0.00044554465933944825,0.0,0.0,0.0,0.0,0.0,0.0,0.0,0.0,0.0,0.0011059089141617576,-0.009801824561851804,0.0087231255771902,0.0,0.0,0.0,0.0,0.0,0.0,0.0,0.0,0.0,-0.00020277978567833678,0.04163011963990442,9.810200512153163,0.0,0.0,0.0,0.0,0.0,0.0,0.0,0.0,0.0
2025/04/05 15:42:08.544741127,1743860528,543017403,mA1/imu,0.7112274612268361,0.7029616719455175,-0.00015800408508164488,0.0006010050755850591,0.0,0.0,0.0,0.0,0.0,0.0,0.0,0.0,0.0,0.000293213620347858,-0.00938645302092747,0.008435183589146206,0.0,0.0,0.0,0.0,0.0,0.0,0.0,0.0,0.0,-0.003197607952849322,0.1489658597030966,9.809962134270226,0.0,0.0,0.0,0.0,0.0,0.0,0.0,0.0,0.0
2025/04/05 15:42:08.594538236,1743860528,592849353,mA1/imu,0.7113727204307125,0.7028144786474335,-0.00032794130862202463,0.0007441001556654749,0.0,0.0,0.0,0.0,0.0,0.0,0.0,0.0,0.0,-0.0005294029133424311,-0.008423042146555745,0.008153572708972668,0.0,0.0,0.0,0.0,0.0,0.0,0.0,0.0,0.0,-0.003592487765426578,0.6149731281921876,9.811195493449453,0.0,0.0,0.0,0.0,0.0,0.0,0.0,0.0,0.0
2025/04/05 15:42:08.644967828,1743860528,644314805,mA1/imu,0.7115130649858591,0.7026721641497968,-0.000460390350891614,0.0008809791111578612,0.0,0.0,0.0,0.0,0.0,0.0,0.0,0.0,0.0,-0.0007567965652193621,-0.0070170312165944914,0.007887644807069959,0.0,0.0,0.0,0.0,0.0,0.0,0.0,0.0,0.0,-0.005419944311969283,0.12892573633963766,9.80974337402126,0.0,0.0,0.0,0.0,0.0,0.0,0.0,0.0,0.0
2025/04/05 15:42:08.694479834,1743860528,693757893,mA1/imu,0.7116487972815864,0.7025344763970363,-0.00056063412586521,0.0009922149921270669,0.0,0.0,0.0,0.0,0.0,0.0,0.0,0.0,0.0,-0.0012611546421896732,-0.005227795935149946,0.007626617180215496,0.0,0.0,0.0,0.0,0.0,0.0,0.0,0.0,0.0,-0.0058071635747016515,0.6222431500805616,9.810338844636611,0.0,0.0,0.0,0.0,0.0,0.0,0.0,0.0,0.0
2025/04/05 15:42:08.746244576,1743860528,744863410,mA1/imu,0.7117798527498359,0.7024015213031509,-0.0006174250303049101,0.0010783676428501084,0.0,0.0,0.0,0.0,0.0,0.0,0.0,0.0,0.0,-0.0017881744212994263,-0.0032004714073651597,0.007364336748279833,0.0,0.0,0.0,0.0,0.0,0.0,0.0,0.0,0.0,-0.006136194833348457,0.6134685724896821,9.809694372194057,0.0,0.0,0.0,0.0,0.0,0.0,0.0,0.0,0.0
2025/04/05 15:42:08.798516478,1743860528,797806347,mA1/imu,0.7119077262201052,0.7022718238925254,-0.0006300361772790142,0.0011303845366171772,0.0,0.0,0.0,0.0,0.0,0.0,0.0,0.0,0.0,-0.0013549787876516856,-0.0008941597132621264,0.007239334482871909,0.0,0.0,0.0,0.0,0.0,0.0,0.0,0.0,0.0,-0.006945657489632325,0.3196400319122068,9.809683568458967,0.0,0.0,0.0,0.0,0.0,0.0,0.0,0.0,0.0
2025/04/05 15:42:08.850364342,1743860528,848761783,mA1/imu,0.7120324577744631,0.7021453542403706,-0.0005974227508429795,0.0011505130937184093,0.0,0.0,0.0,0.0,0.0,0.0,0.0,0.0,0.0,-0.00019269252366631003,0.001173321846957486,0.007016520994939462,0.0,0.0,0.0,0.0,0.0,0.0,0.0,0.0,0.0,-0.001775551079346252,-0.4365176226952075,9.808971267011872,0.0,0.0,0.0,0.0,0.0,0.0,0.0,0.0,0.0
2025/04/05 15:42:08.902629166,1743860528,898764272,mA1/imu,0.7121532563357738,0.7020229034204043,-0.0005185094223573484,0.0011461725518741395,0.0,0.0,0.0,0.0,0.0,0.0,0.0,0.0,0.0,-0.0010819317165356114,0.003115054225012549,0.006790952240233286,0.0,0.0,0.0,0.0,0.0,0.0,0.0,0.0,0.0,0.0008895711113750572,-0.5408792545078196,9.806574027617444,0.0,0.0,0.0,0.0,0.0,0.0,0.0,0.0,0.0
2025/04/05 15:42:08.951179863,1743860528,949725446,mA1/imu,0.7122701332040546,0.7019044594696967,-0.00041351262007608346,0.0011027825462033326,0.0,0.0,0.0,0.0,0.0,0.0,0.0,0.0,0.0,-0.001135302974074281,0.004886881222003438,0.006574583147327831,0.0,0.0,0.0,0.0,0.0,0.0,0.0,0.0,0.0,0.001645859671594186,-0.18835514043292173,9.80863701845673,0.0,0.0,0.0,0.0,0.0,0.0,0.0,0.0,0.0
2025/04/05 15:42:09.1723067,1743860528,999574146,mA1/imu,0.7123895619767169,0.7017834303513155,-0.0002674756662536154,0.0010282644260058069,0.0,0.0,0.0,0.0,0.0,0.0,0.0,0.0,0.0,-0.0018303910103105565,0.007098828532351233,0.0069634564114554685,0.0,0.0,0.0,0.0,0.0,0.0,0.0,0.0,0.0,-0.011541901291125044,0.04587678692690978,9.809191876656682,0.0,0.0,0.0,0.0,0.0,0.0,0.0,0.0,0.0
2025/04/05 15:42:09.42903387,1743860529,41207468,mA1/imu,0.7125110017791034,0.7016603175409692,-9.34563986226393e-05,0.0009286538355520631,0.0,0.0,0.0,0.0,0.0,0.0,0.0,0.0,0.0,-0.00015201609834708508,0.008124104581334059,0.006897666733622381,0.0,0.0,0.0,0.0,0.0,0.0,0.0,0.0,0.0,0.0019345892083539613,-0.46403521053017155,9.807851215522076,0.0,0.0,0.0,0.0,0.0,0.0,0.0,0.0,0.0
2025/04/05 15:42:09.98304232,1743860529,91746098,mA1/imu,0.7126249182185475,0.7015447502774419,8.826788454246076e-05,0.0008255307086975173,0.0,0.0,0.0,0.0,0.0,0.0,0.0,0.0,0.0,-0.003566981078664379,0.007965236683166444,0.006228439771724866,0.0,0.0,0.0,0.0,0.0,0.0,0.0,0.0,0.0,0.01879168853389422,0.5453413356875294,9.81092768894795,0.0,0.0,0.0,0.0,0.0,0.0,0.0,0.0,0.0
2025/04/05 15:42:09.145825131,1743860529,144200422,mA1/imu,0.712731781152111,0.7014362675998802,0.0002556562906540066,0.0007108242747680649,0.0,0.0,0.0,0.0,0.0,0.0,0.0,0.0,0.0,-0.001936833343136214,0.007977796196507153,0.006011286297958123,0.0,0.0,0.0,0.0,0.0,0.0,0.0,0.0,0.0,0.007777724411756313,0.6428485345641121,9.80945311606082,0.0,0.0,0.0,0.0,0.0,0.0,0.0,0.0,0.0
2025/04/05 15:42:09.194958482,1743860529,193986148,mA1/imu,0.7128295599602011,0.701336924534491,0.00041077569728487914,0.0006066257281568052,0.0,0.0,0.0,0.0,0.0,0.0,0.0,0.0,0.0,2.3237920642425435e-05,0.00687181556278957,0.005302653671048101,0.0,0.0,0.0,0.0,0.0,0.0,0.0,0.0,0.0,0.019407445192081037,-0.41453231469927465,9.809781423761542,0.0,0.0,0.0,0.0,0.0,0.0,0.0,0.0,0.0
2025/04/05 15:42:09.246941986,1743860529,244989068,mA1/imu,0.7129198512230985,0.7012451227480393,0.0005472200748906302,0.0005139108014423786,0.0,0.0,0.0,0.0,0.0,0.0,0.0,0.0,0.0,-0.0010016182704809602,0.006167347662490552,0.005059817813413178,0.0,0.0,0.0,0.0,0.0,0.0,0.0,0.0,0.0,0.008091098272786684,0.05728585596324573,9.809678565651247,0.0,0.0,0.0,0.0,0.0,0.0,0.0,0.0,0.0
2025/04/05 15:42:09.299904400,1743860529,297101484,mA1/imu,0.7130059838264997,0.7011575076858525,0.0006580163504675575,0.0004283198004909547,0.0,0.0,0.0,0.0,0.0,0.0,0.0,0.0,0.0,-0.0007877502519824228,0.005103439489032361,0.004826271038012268,0.0,0.0,0.0,0.0,0.0,0.0,0.0,0.0,0.0,0.008713973156062121,0.3270797690395831,9.81152437734006,0.0,0.0,0.0,0.0,0.0,0.0,0.0,0.0,0.0
2025/04/05 15:42:09.349617345,1743860529,348023639,mA1/imu,0.7130879520057792,0.7010741032291046,0.0007394706038850238,0.000357307900855137,0.0,0.0,0.0,0.0,0.0,0.0,0.0,0.0,0.0,-0.0001383221012384114,0.0037387365449304696,0.004580722128607241,0.0,0.0,0.0,0.0,0.0,0.0,0.0,0.0,0.0,0.01250056823440579,-0.39683287571573633,9.810444404282938,0.0,0.0,0.0,0.0,0.0,0.0,0.0,0.0,0.0
2025/04/05 15:42:09.405143594,1743860529,400089072,mA1/imu,0.7131668642315876,0.700993804665224,0.0007861227633874955,0.00030264510361453935,0.0,0.0,0.0,0.0,0.0,0.0,0.0,0.0,0.0,0.0011278151108953054,0.0022396432490540056,0.004463333509890358,0.0,0.0,0.0,0.0,0.0,0.0,0.0,0.0,0.0,0.010161046024545425,-0.5514854006628365,9.810700507295564,0.0,0.0,0.0,0.0,0.0,0.0,0.0,0.0,0.0
2025/04/05 15:42:09.442075075,1743860529,441198937,mA1/imu,0.7132427604243557,0.7009165812742191,0.000797891642468469,0.00027233441402287073,0.0,0.0,0.0,0.0,0.0,0.0,0.0,0.0,0.0,0.0011032228034719323,0.0004554525299549915,0.0042467245367175345,0.0,0.0,0.0,0.0,0.0,0.0,0.0,0.0,0.0,0.01388735245131574,-0.40839941808343927,9.810325456308137,0.0,0.0,0.0,0.0,0.0,0.0,0.0,0.0,0.0
2025/04/05 15:42:09.493085004,1743860529,490811528,mA1/imu,0.7133075250957925,0.7008507203103228,0.000754569070331057,0.00027038442098842124,0.0,0.0,0.0,0.0,0.0,0.0,0.0,0.0,0.0,0.0007656031003699726,-0.002467860411880152,0.0032025153436318846,0.0,0.0,0.0,0.0,0.0,0.0,0.0,0.0,0.0,0.0594169700246594,-0.009887938036224293,9.813061271461148,0.0,0.0,0.0,0.0,0.0,0.0,0.0,0.0,0.0
2025/04/05 15:42:09.543155986,1743860529,541894280,mA1/imu,0.7133613599820692,0.7007959965094925,0.0006696057818166244,0.00030494080899907733,0.0,0.0,0.0,0.0,0.0,0.0,0.0,0.0,0.0,0.000588448839010401,-0.003973682511628934,0.0029832967837285524,0.0,0.0,0.0,0.0,0.0,0.0,0.0,0.0,0.0,0.007837377704769074,-0.042117494707138804,9.812659873530283,0.0,0.0,0.0,0.0,0.0,0.0,0.0,0.0,0.0
2025/04/05 15:42:09.594280839,1743860529,591662166,mA1/imu,0.7134114757232207,0.7007450581450364,0.0005516894620191047,0.0003541616340943597,0.0,0.0,0.0,0.0,0.0,0.0,0.0,0.0,0.0,0.0027194247003643835,-0.0052292648361034425,0.002769803644959563,0.0,0.0,0.0,0.0,0.0,0.0,0.0,0.0,0.0,0.007236710189843908,-0.42803855915308325,9.810120864025192,0.0,0.0,0.0,0.0,0.0,0.0,0.0,0.0,0.0
2025/04/05 15:42:09.646512341,1743860529,643879878,mA1/imu,0.713457747397168,0.7006980069700095,0.000412430519011243,0.0004190564186927412,0.0,0.0,0.0,0.0,0.0,0.0,0.0,0.0,0.0,0.002664097587112492,-0.006127083154804525,0.002550627318050434,0.0,0.0,0.0,0.0,0.0,0.0,0.0,0.0,0.0,0.003017800315140703,0.07662890270032413,9.81100435299819,0.0,0.0,0.0,0.0,0.0,0.0,0.0,0.0,0.0
2025/04/05 15:42:09.695546378,1743860529,693643151,mA1/imu,0.7135003902422787,0.7006546026819926,0.000265693494994565,0.0005002715479369041,0.0,0.0,0.0,0.0,0.0,0.0,0.0,0.0,0.0,0.0011204089916548657,-0.0066317866042885625,0.0023502293058569788,0.0,0.0,0.0,0.0,0.0,0.0,0.0,0.0,0.0,0.0028862654317841313,0.5924239922177449,9.811520579788775,0.0,0.0,0.0,0.0,0.0,0.0,0.0,0.0,0.0
2025/04/05 15:42:09.748471599,1743860529,746280486,mA1/imu,0.7135395526078264,0.700614695372068,0.0001130820220144427,0.0005854104402292608,0.0,0.0,0.0,0.0,0.0,0.0,0.0,0.0,0.0,0.0012781554235974692,-0.006759097146518163,0.0021528956683013736,0.0,0.0,0.0,0.0,0.0,0.0,0.0,0.0,0.0,0.0024095822014399736,-0.02756285175309231,9.809474587245468,0.0,0.0,0.0,0.0,0.0,0.0,0.0,0.0,0.0
2025/04/05 15:42:09.798025517,1743860529,796370834,mA1/imu,0.7135751459575362,0.700578380875969,-4.231019162639416e-05,0.0006644777906950531,0.0,0.0,0.0,0.0,0.0,0.0,0.0,0.0,0.0,0.0027260378854719663,-0.00653663492341947,0.001948704552021121,0.0,0.0,0.0,0.0,0.0,0.0,0.0,0.0,0.0,0.001614654933725668,-0.5491690792008578,9.80822797279295,0.0,0.0,0.0,0.0,0.0,0.0,0.0,0.0,0.0
2025/04/05 15:42:09.849168548,1743860529,847918325,mA1/imu,0.7136071796403289,0.7005456549519438,-0.00018717641946168245,0.0007371965242295327,0.0,0.0,0.0,0.0,0.0,0.0,0.0,0.0,0.0,0.001267058898198566,-0.005886125022420943,0.0017481902345998612,0.0,0.0,0.0,0.0,0.0,0.0,0.0,0.0,0.0,-0.0011983486599392232,0.6226062907611227,9.810666389761874,0.0,0.0,0.0,0.0,0.0,0.0,0.0,0.0,0.0
2025/04/05 15:42:09.898408147,1743860529,897745088,mA1/imu,0.7136357383460178,0.7005164470123416,-0.00030880318585733925,0.0008031569781516108,0.0,0.0,0.0,0.0,0.0,0.0,0.0,0.0,0.0,0.001177634704562127,-0.004896144981613051,0.0015530506022893593,0.0,0.0,0.0,0.0,0.0,0.0,0.0,0.0,0.0,-0.0019106451143685796,0.00551964450882583,9.809258003384139,0.0,0.0,0.0,0.0,0.0,0.0,0.0,0.0,0.0
2025/04/05 15:42:09.949890758,1743860529,948764084,mA1/imu,0.713660926475537,0.7004906756652695,-0.0004033581880519495,0.0008559382363314681,0.0,0.0,0.0,0.0,0.0,0.0,0.0,0.0,0.0,0.0007717130039260356,-0.0036770841663137503,0.0013610665666464589,0.0,0.0,0.0,0.0,0.0,0.0,0.0,0.0,0.0,4.7274554236108324e-05,-0.24170743327149605,9.808578748932938,0.0,0.0,0.0,0.0,0.0,0.0,0.0,0.0,0.0
2025/04/05 15:42:10.728750,1743860529,999650146,mA1/imu,0.7136838759698397,0.7004672145622637,-0.00047272318938495957,0.0008848936864310373,0.0,0.0,0.0,0.0,0.0,0.0,0.0,0.0,0.0,0.00015219979871271695,-0.0021834433089783977,0.0012857230133172292,0.0,0.0,0.0,0.0,0.0,0.0,0.0,0.0,0.0,-0.0015968295665921665,0.6050176020141049,9.810128428136332,0.0,0.0,0.0,0.0,0.0,0.0,0.0,0.0,0.0
2025/04/05 15:42:10.52864469,1743860530,50750962,mA1/imu,0.7137040834082083,0.700446583295524,-0.0005092133113421235,0.0008977627075813781,0.0,0.0,0.0,0.0,0.0,0.0,0.0,0.0,0.0,0.000898468557153021,-0.0010684687839375216,0.0009422116918991219,0.0,0.0,0.0,0.0,0.0,0.0,0.0,0.0,0.0,0.0479295400495109,-0.2551371247538076,9.80739040095002,0.0,0.0,0.0,0.0,0.0,0.0,0.0,0.0,0.0
