time,header_stamp_secs,header_stamp_nsecs,header_frame_id,wrench_force_x,wrench_force_y,wrench_force_z,wrench_torque_x,wrench_torque_y,wrench_torque_z
2025/05/06 15:12:22.35561158,1746537142,35327002,,-2.220446049250313e-16,0.0,0.0,0.0,0.0,0.0
2025/05/06 15:12:22.131479646,1746537142,130211229,,-2.220446049250313e-16,0.0,0.0,0.0,0.0,0.0
2025/05/06 15:12:22.231743105,1746537142,230360938,,-2.220446049250313e-16,0.0,0.0,0.0,0.0,0.0
2025/05/06 15:12:22.331784457,1746537142,331518459,,-2.220446049250313e-16,0.0,0.0,0.0,0.0,0.0
2025/05/06 15:12:22.430266932,1746537142,430111096,,-2.220446049250313e-16,0.0,0.0,0.0,0.0,0.0
2025/05/06 15:12:22.533207428,1746537142,530915687,,-2.220446049250313e-16,0.0,0.0,0.0,0.0,0.0
2025/05/06 15:12:22.632778159,1746537142,632639315,,-2.220446049250313e-16,0.0,0.0,0.0,0.0,0.0
2025/05/06 15:12:22.737631311,1746537142,737277936,,-2.220446049250313e-16,0.0,0.0,0.0,0.0,0.0
2025/05/06 15:12:22.862415689,1746537142,862239493,,-2.220446049250313e-16,0.0,0.0,0.0,0.0,0.0
2025/05/06 15:12:22.941230636,1746537142,940718864,,-2.220446049250313e-16,0.0,0.0,0.0,0.0,0.0
2025/05/06 15:12:23.109378170,1746537143,108572323,,-2.220446049250313e-16,0.0,0.0,0.0,0.0,0.0
2025/05/06 15:12:23.207156816,1746537143,205985831,,-2.220446049250313e-16,0.0,0.0,0.0,0.0,0.0
2025/05/06 15:12:23.281082032,1746537143,280591652,,-2.220446049250313e-16,0.0,0.0,0.0,0.0,0.0
2025/05/06 15:12:23.421910051,1746537143,420884399,,0.09352989653520788,1.4194670362910493,0.0,0.0,0.0,-0.07477981562480246
2025/05/06 15:12:23.546387180,1746537143,546144195,,0.09352979026393013,1.419465934393898,0.0,0.0,0.0,-0.07477915773107308
2025/05/06 15:12:23.658771112,1746537143,657328631,,0.09364440907534148,1.419465948625625,0.0,0.0,0.0,-0.07487099499450015
2025/05/06 15:12:23.786265625,1746537143,778175899,,0.09364440907534698,1.4194659486288614,0.0,0.0,0.0,-0.07487099499447444
2025/05/06 15:12:23.871983615,1746537143,871450329,,0.09372082449252721,1.4194659579650128,0.0,0.0,0.0,-0.07493222213421696
2025/05/06 15:12:23.967126215,1746537143,964758945,,0.09372082449249178,1.4194659579671303,0.0,0.0,0.0,-0.0749322221341778
2025/05/06 15:12:24.89078263,1746537144,87827710,,0.052526295802091866,-5.54598547860725,0.0,0.0,0.0,0.04191307604344813
2025/05/06 15:12:24.245269724,1746537144,234933343,,0.05263309728773173,-1.4227743733661136,0.0,0.0,0.0,0.041931480038870816
2025/05/06 15:12:24.340424008,1746537144,336904750,,0.05252309241700201,-1.4227722276145478,0.0,0.0,0.0,0.04184219570530048
2025/05/06 15:12:24.445636089,1746537144,435160420,,0.05252309256663586,-1.4227722275894976,0.0,0.0,0.0,0.04184219579108592
2025/05/06 15:12:24.565330207,1746537144,533382823,,0.05244485422100367,-1.422772120670551,0.0,0.0,0.0,0.04177988856165582
2025/05/06 15:12:24.654051837,1746537144,652977832,,0.05244485432277665,-1.4227721206536046,0.0,0.0,0.0,0.04177988862015042
2025/05/06 15:12:24.779209098,1746537144,758407998,,0.052366615876981215,-1.4227720156445613,0.0,0.0,0.0,0.04171757706402153
2025/05/06 15:12:24.862117676,1746537144,845964320,,0.05236661598185516,-1.4227720156270678,0.0,0.0,0.0,0.04171757712456861
2025/05/06 15:12:24.959724516,1746537144,951826869,,0.05228838705137616,-1.4227719105999945,0.0,0.0,0.0,0.04165526900718493
2025/05/06 15:12:25.64235098,1746537145,61830596,,0.05228838715137665,-1.4227719105833216,0.0,0.0,0.0,0.04165526906514884
2025/05/06 15:12:25.211667121,1746537145,204394545,,-0.04920483233530237,-1.418999589363131,0.0,0.0,0.0,-0.039529068518890376
2025/05/06 15:12:25.275612459,1746537145,273662945,,-0.04920482164089937,-1.4189995742571666,0.0,0.0,0.0,-0.039529064615602794
2025/05/06 15:12:25.409897673,1746537145,402166020,,-0.04928783440835682,-1.4189995877596902,0.0,0.0,0.0,-0.03959557881786499
2025/05/06 15:12:25.706460873,1746537145,648498856,,-0.0489546805083559,-1.4167800851336496,0.0,0.0,0.0,-0.03929616123832168
2025/05/06 15:12:25.773702257,1746537145,735558805,,-0.048995553637334516,-1.4167801647318523,0.0,0.0,0.0,-0.03932890860628442
2025/05/06 15:12:25.863560927,1746537145,849958846,,-0.049036417939868376,-1.4167801685639594,0.0,0.0,0.0,-0.03936165117158068
2025/05/06 15:12:25.998146426,1746537145,997277841,,-0.04907728596959722,-1.4167801723973605,0.0,0.0,0.0,-0.03939439671564139
2025/05/06 15:12:26.63231586,1746537146,58866694,,-0.04907728596957421,-1.4167801723972282,0.0,0.0,0.0,-0.039394396715629595
2025/05/06 15:12:26.425261201,1746537146,240591260,,-0.04915901457488103,-1.416780180308101,0.0,0.0,0.0,-0.03945988184631816
2025/05/06 15:12:26.482936577,1746537146,355903940,,-0.04915901457485114,-1.4167801803078266,0.0,0.0,0.0,-0.039459881846311884
2025/05/06 15:12:26.774732900,1746537146,672440142,,0.22856050508018952,-17.867400252521907,0.0,0.0,0.0,0.18266016736487062
2025/05/06 15:12:26.877592642,1746537146,830397391,,0.22655442616234128,-7.865645818993482,0.0,0.0,0.0,0.18113939650381228
2025/05/06 15:12:26.951092937,1746537146,944297739,,0.23148652234409325,-1.430175257645793,0.0,0.0,0.0,0.18543669502280535
2025/05/06 15:12:27.73541131,1746537147,72367810,,0.2314102539823464,-1.430170399298742,0.0,0.0,0.0,0.18537744957283211
2025/05/06 15:12:27.228740721,1746537147,227413988,,0.23141025396090817,-1.4301703992133348,0.0,0.0,0.0,0.18537744955728708
2025/05/06 15:12:27.326251004,1746537147,322000407,,0.231297865589762,-1.43017141977111,0.0,0.0,0.0,0.185290050417763
2025/05/06 15:12:27.426379464,1746537147,420808664,,0.23129786555822351,-1.4301714196471842,0.0,0.0,0.0,0.18529005039512456
2025/05/06 15:12:27.498125284,1746537147,497789437,,0.231297865558058,-1.43017141964717,0.0,0.0,0.0,0.18529005039508997
2025/05/06 15:12:27.554671720,1746537147,551858996,,0.24874160058035022,-1.4270219004378184,0.0,0.0,0.0,0.19877758227745795
2025/05/06 15:12:27.672652875,1746537147,669690605,,0.24870455401334063,-1.4270218245525434,0.0,0.0,0.0,0.19874780838374723
2025/05/06 15:12:27.757642372,1746537147,757453376,,0.24866741168857653,-1.4270218445847966,0.0,0.0,0.0,0.19871805405299106
2025/05/06 15:12:27.865287869,1746537147,861329856,,0.24863024025357322,-1.4270218655154174,0.0,0.0,0.0,0.19868827615415166
2025/05/06 15:12:27.961163554,1746537147,959379667,,0.24859306949898313,-1.427021885439725,0.0,0.0,0.0,0.19865849850737216
2025/05/06 15:12:28.61680606,1746537148,60551190,,0.2485558994003948,-1.427021906265587,0.0,0.0,0.0,0.19862872110348653
2025/05/06 15:12:28.146770943,1746537148,145854315,,0.24851872993257312,-1.4270219260882868,0.0,0.0,0.0,0.19859894393309224
2025/05/06 15:12:28.246357008,1746537148,243878727,,0.24848159089046168,-1.4270219468155219,0.0,0.0,0.0,0.1985691908178663
2025/05/06 15:12:28.393954863,1746537148,392901959,,0.24844442203428196,-1.4270219665424086,0.0,0.0,0.0,0.19853941362301325
2025/05/06 15:12:28.447139060,1746537148,446629182,,0.2484444220341649,-1.427021966542501,0.0,0.0,0.0,0.1985394136229506
2025/05/06 15:12:28.543163117,1746537148,541376341,,0.09909161286823076,-1.4191292456136635,0.0,0.0,0.0,0.07916679272464491
2025/05/06 15:12:28.634153603,1746537148,633780674,,0.09905389055584649,-1.4191286334774675,0.0,0.0,0.0,0.07913657349777337
2025/05/06 15:12:28.740757203,1746537148,737664583,,0.09901618292850742,-1.419128637848341,0.0,0.0,0.0,0.07910635988456707
2025/05/06 15:12:28.834837051,1746537148,834564433,,0.09897847646372379,-1.41912864174249,0.0,0.0,0.0,0.07907614720324838
2025/05/06 15:12:28.957465523,1746537148,957147941,,0.09894076138052796,-1.4191286461126031,0.0,0.0,0.0,0.07904592763213673
2025/05/06 15:12:29.50993315,1746537149,50086746,,0.09890305491419246,-1.4191286500061855,0.0,0.0,0.0,0.0790157149503791
2025/05/06 15:12:29.142973366,1746537149,141553487,,105.1405258427125,0.5367196309102127,0.0,0.0,0.0,0.9413796707594249
2025/05/06 15:12:29.242044069,1746537149,239429294,,94.6716606383825,0.08829874615721689,0.0,0.0,0.0,0.16319233288527268
2025/05/06 15:12:29.345819133,1746537149,345577724,,83.46144239252392,-7.884894213524252,0.0,0.0,0.0,-4.787484245131733
2025/05/06 15:12:29.434396383,1746537149,433245970,,70.9875182705794,-0.48987586128344773,0.0,0.0,0.0,0.009813493513130211
2025/05/06 15:12:29.595993998,1746537149,594089204,,57.95291238419047,-0.7195668166041038,0.0,0.0,0.0,-0.6203132698932645
2025/05/06 15:12:29.761166609,1746537149,760910755,,45.045743716027985,-0.7195569020867794,0.0,0.0,0.0,-0.6726630802629678
2025/05/06 15:12:29.931483165,1746537149,931283349,,34.47741058872765,-0.719556398795028,0.0,0.0,0.0,-0.6809799106692189
2025/05/06 15:12:30.93163232,1746537150,92892791,,22.069973281932405,-0.7195513906081636,0.0,0.0,0.0,-0.6978580530383987
2025/05/06 15:12:30.188558809,1746537150,186416278,,12.862851723036385,-0.7199104100431768,0.0,0.0,0.0,-0.7059069126601756
2025/05/06 15:12:30.239223783,1746537150,234674444,,0.7838313128960976,-0.7193922395229357,0.0,0.0,0.0,-0.7043269594544839
2025/05/06 15:12:30.330945325,1746537150,330751618,,0.7805594172016015,-0.7138930319768324,0.0,0.0,0.0,-0.7051128649752485
2025/05/06 15:12:30.437728998,1746537150,434928649,,0.7762922231638356,-0.7136259984511195,0.0,0.0,0.0,-0.7061249399898886
2025/05/06 15:12:30.534891705,1746537150,532584983,,0.7730989028428326,-0.7136124070730965,0.0,0.0,0.0,-0.7069944793873351
2025/05/06 15:12:30.642096256,1746537150,639586704,,0.7740827888887907,-0.7134167849283735,0.0,0.0,0.0,-0.7066099858261277
2025/05/06 15:12:30.735295621,1746537150,732601527,,0.7748424270736223,-0.7134820844210541,0.0,0.0,0.0,-0.7069109792610382
2025/05/06 15:12:30.851774414,1746537150,851395968,,0.7757422914496033,-0.7134685281319282,0.0,0.0,0.0,-0.7069938368598914
2025/05/06 15:12:30.965765023,1746537150,962070070,,0.7767286681636278,-0.7134250460515794,0.0,0.0,0.0,-0.7069895123815773
2025/05/06 15:12:31.36720294,1746537151,36411436,,0.7777327535320637,-0.7133970737262576,0.0,0.0,0.0,-0.7070348953098882
2025/05/06 15:12:31.137814185,1746537151,134092876,,0.7788118341827612,-0.7133675005589133,0.0,0.0,0.0,-0.7070534731076066
2025/05/06 15:12:31.238231571,1746537151,236426083,,0.779955619763598,-0.7133367675943205,0.0,0.0,0.0,-0.7070544764784863
2025/05/06 15:12:31.344161581,1746537151,342982797,,0.7811672912241647,-0.7133060309799433,0.0,0.0,0.0,-0.7070376628186503
2025/05/06 15:12:31.436402922,1746537151,436057813,,0.782303938827738,0.7086004161369783,0.0,0.0,0.0,0.7074329045852541
2025/05/06 15:12:31.537303485,1746537151,536006093,,0.7836946256095132,0.7085315594558672,0.0,0.0,0.0,0.7072010208766017
2025/05/06 15:12:31.632420071,1746537151,631465680,,0.7850158855576126,0.7085864009188612,0.0,0.0,0.0,0.7072951138257382
2025/05/06 15:12:31.739639708,1746537151,738529550,,0.7864715735985897,0.7084602496106798,0.0,0.0,0.0,0.7070030572443622
2025/05/06 15:12:31.833240452,1746537151,832595967,,0.7879433910323712,0.7084536706202789,0.0,0.0,0.0,0.70696072367053
2025/05/06 15:12:31.932565146,1746537151,932171822,,0.7894657625397485,0.7084428701174383,0.0,0.0,0.0,0.7069172783926965
2025/05/06 15:12:32.34692579,1746537152,32078142,,0.7908461373336024,0.7086602194324181,0.0,0.0,0.0,0.707444982034773
2025/05/06 15:12:32.174654805,1746537152,173951187,,0.7924689888355374,0.7086617398870199,0.0,0.0,0.0,0.7074365250822827
2025/05/06 15:12:32.235210527,1746537152,234741351,,0.7943531974685811,0.708382185948309,0.0,0.0,0.0,0.7067589409292476
2025/05/06 15:12:32.334434482,1746537152,334166131,,0.7940110567769807,0.7096358143091726,0.0,0.0,0.0,0.7067603381966514
2025/05/06 15:12:32.436734972,1746537152,436488527,,0.7956356313142692,0.7095325032351854,0.0,0.0,0.0,0.7061396806360145
2025/05/06 15:12:32.535302630,1746537152,534397056,,0.7974057304785731,0.7100997971901482,0.0,0.0,0.0,0.7072165913862156
2025/05/06 15:12:32.636026896,1746537152,635538889,,0.799308186065673,0.7100819879017752,0.0,0.0,0.0,0.7071788720465659
2025/05/06 15:12:32.733497497,1746537152,731437007,,0.801051440631511,0.7100779408792395,0.0,0.0,0.0,0.7073383966521085
2025/05/06 15:12:32.838127366,1746537152,837831148,,0.8028797342132066,0.7100889295065853,0.0,0.0,0.0,0.7075020036269677
2025/05/06 15:12:32.935011983,1746537152,934654153,,0.8049745271592315,0.7100818967807809,0.0,0.0,0.0,0.7074652839865418
2025/05/06 15:12:33.37863728,1746537153,37629280,,0.8073209902225358,0.7100721936110936,0.0,0.0,0.0,0.7072675305368408
2025/05/06 15:12:33.130349726,1746537153,129953362,,0.8097852138403994,0.7100573870970042,0.0,0.0,0.0,0.7070112475584291
2025/05/06 15:12:33.236956634,1746537153,235529108,,0.811622334448856,0.7099636319511884,0.0,0.0,0.0,0.7071579509597183
2025/05/06 15:12:33.369526327,1746537153,368340497,,0.8104507596660824,0.7079594458949111,0.0,0.0,0.0,0.7069687650580293
2025/05/06 15:12:33.438509622,1746537153,438192906,,1.5192695481504188,0.8522960161870888,0.0,0.0,0.0,1.5331544434524522
2025/05/06 15:12:33.542849488,1746537153,541239153,,1.5215187101866263,0.833704241473481,0.0,0.0,0.0,1.4997178819981536
2025/05/06 15:12:33.636183599,1746537153,635078497,,1.5237395854987028,0.8141636595268651,0.0,0.0,0.0,1.4645725919729093
2025/05/06 15:12:33.739610970,1746537153,737974083,,1.525552007320357,0.7946594492984095,0.0,0.0,0.0,1.4294936872005843
2025/05/06 15:12:33.836023482,1746537153,833749638,,1.5263189432468494,0.7759630203168523,0.0,0.0,0.0,1.3958674884532436
2025/05/06 15:12:33.941777054,1746537153,941210537,,1.526335741400743,0.7575769630955086,0.0,0.0,0.0,1.3627993352705432
2025/05/06 15:12:34.31824049,1746537154,31302419,,1.5258945225458547,0.7391654942308582,0.0,0.0,0.0,1.3296860791491367
2025/05/06 15:12:34.141546349,1746537154,141231282,,1.5252382852616222,0.7205103248979312,0.0,0.0,0.0,1.2961339481078005
2025/05/06 15:12:34.232088814,1746537154,231783488,,1.5245085064736372,0.7014701247849852,0.0,0.0,0.0,1.2618894834714212
2025/05/06 15:12:34.331711598,1746537154,331478721,,1.523806545518255,0.6819593342166416,0.0,0.0,0.0,1.2267993982495278
2025/05/06 15:12:34.547500448,1746537154,547241168,,8.572838453112752,18.2422904847913,0.0,0.0,0.0,10.444923651859156
2025/05/06 15:12:34.706080853,1746537154,700789318,,3.6772406484605256,7.230939608108031,0.0,0.0,0.0,4.314570253124664
2025/05/06 15:12:34.751707258,1746537154,751272627,,0.8102313187160348,0.7776135394508685,0.0,0.0,0.0,0.7291474049630366
2025/05/06 15:12:34.839470569,1746537154,838981221,,0.8249587981566435,0.7303776931180863,0.0,0.0,0.0,0.7035127873547395
2025/05/06 15:12:34.932969855,1746537154,932631468,,0.8186745698313018,0.7306763475873126,0.0,0.0,0.0,0.7055502069675175
2025/05/06 15:12:35.45495817,1746537155,43664843,,0.8130078263336031,0.7306665974190452,0.0,0.0,0.0,0.7067593664615615
2025/05/06 15:12:35.133420327,1746537155,132448645,,0.8104881368578276,0.7306531382408537,0.0,0.0,0.0,0.7072895540625954
2025/05/06 15:12:35.231686117,1746537155,231353081,,0.8109011899525171,0.7306315557929963,0.0,0.0,0.0,0.7072924733378194
2025/05/06 15:12:35.451649970,1746537155,451413615,,4.361978505599069,-8.755465813103037,0.0,0.0,0.0,-5.168182879593221
2025/05/06 15:12:35.496529881,1746537155,496267966,,0.8065518477205273,-0.7557106524034083,0.0,0.0,0.0,-0.7221079009170168
2025/05/06 15:12:35.544993886,1746537155,543744804,,0.8071868422133832,-0.7659437793673547,0.0,0.0,0.0,-0.7241865248191957
2025/05/06 15:12:35.630332603,1746537155,629999942,,0.8195008993638453,-0.7292940277707558,0.0,0.0,0.0,-0.7047508008968926
2025/05/06 15:12:35.739610957,1746537155,736235995,,0.8156964317734037,-0.7293482620440628,0.0,0.0,0.0,-0.7058361708520966
2025/05/06 15:12:35.860110017,1746537155,859077182,,0.8122042009869972,-0.7293716413047946,0.0,0.0,0.0,-0.7067683945260317
2025/05/06 15:12:35.943595641,1746537155,942528946,,0.811449360995141,-0.7294062838138728,0.0,0.0,0.0,-0.7071230968242626
2025/05/06 15:12:36.40214805,1746537156,39044903,,0.8127447706450255,-0.7294306021292627,0.0,0.0,0.0,-0.7071304927706477
2025/05/06 15:12:36.140064310,1746537156,139787046,,0.8141269401342583,-0.7294553866083575,0.0,0.0,0.0,-0.7071358546034829
2025/05/06 15:12:36.231576886,1746537156,231259864,,0.8155817497122371,-0.729480507008887,0.0,0.0,0.0,-0.7071459852537783
2025/05/06 15:12:36.410446344,1746537156,410079690,,3.345671911018883,6.459624569252501,0.0,0.0,0.0,3.8931864899813995
2025/05/06 15:12:36.456582607,1746537156,455587914,,0.8102900843077236,0.7465142939602423,0.0,0.0,0.0,0.7189086385973944
2025/05/06 15:12:36.535041671,1746537156,533831189,,0.8125882511592124,0.7425924134933766,0.0,0.0,0.0,0.7143269828911567
2025/05/06 15:12:36.642649267,1746537156,636890361,,0.8178423265325705,0.7259680261574672,0.0,0.0,0.0,0.7064572566845833
2025/05/06 15:12:36.739043755,1746537156,738513791,,0.8160067860544018,0.725965062031591,0.0,0.0,0.0,0.7071742322573982
2025/05/06 15:12:36.843711375,1746537156,840754665,,0.8178019908946226,0.7259376944451645,0.0,0.0,0.0,0.7072042848990983
2025/05/06 15:12:36.931030928,1746537156,930685646,,0.8196598872102072,0.7259096121100868,0.0,0.0,0.0,0.7072211166012663
2025/05/06 15:12:37.62814437,1746537157,62565578,,0.8215593344915817,0.7258804519271962,0.0,0.0,0.0,0.7072381000767245
2025/05/06 15:12:37.130732081,1746537157,130532235,,0.8235284712872613,0.7258245476486636,0.0,0.0,0.0,0.7071839835627944
2025/05/06 15:12:37.238850255,1746537157,238597805,,0.825519684259973,0.7258179262365445,0.0,0.0,0.0,0.7072307058886305
2025/05/06 15:12:37.332885706,1746537157,332174680,,0.8275823950161225,0.7257927875804242,0.0,0.0,0.0,0.7072148065230888
2025/05/06 15:12:37.435637651,1746537157,434605991,,0.8226633766363989,0.7473654625873749,0.0,0.0,0.0,0.7137812315268235
2025/05/06 15:12:37.537281601,1746537157,534780665,,0.8275708114635449,0.7329527146634973,0.0,0.0,0.0,0.7063902720490027
2025/05/06 15:12:37.631793522,1746537157,631228293,,0.8267544515247778,0.7330411449519971,0.0,0.0,0.0,0.7071752555377131
2025/05/06 15:12:37.734164733,1746537157,733905077,,0.828945652549578,0.7330081490101747,0.0,0.0,0.0,0.7071319940477672
2025/05/06 15:12:37.833574189,1746537157,832752222,,0.8311816365387017,0.7329769114059417,0.0,0.0,0.0,0.7070734431304708
2025/05/06 15:12:37.941788346,1746537157,939883369,,0.8334651098859354,0.7329479452375764,0.0,0.0,0.0,0.7069966178724796
2025/05/06 15:12:38.31675166,1746537158,30948126,,0.8357483572459046,0.7329231358559198,0.0,0.0,0.0,0.7069413935626843
2025/05/06 15:12:38.178901180,1746537158,171055871,,0.8380294129576669,0.7328993400211132,0.0,0.0,0.0,0.7069020654515237
2025/05/06 15:12:38.267046943,1746537158,265061000,,0.8402757953202808,0.7328760964840839,0.0,0.0,0.0,0.7069022858578435
2025/05/06 15:12:38.331820322,1746537158,331342667,,0.8424748766162793,0.7328508004094658,0.0,0.0,0.0,0.7069460432775436
2025/05/06 15:12:38.431215496,1746537158,430962066,,0.8356932358565814,-0.7252481053239261,0.0,0.0,0.0,-0.712134534972054
2025/05/06 15:12:38.550772582,1746537158,550569704,,0.8394041208496219,-0.7148039668340935,0.0,0.0,0.0,-0.7069137674953812
2025/05/06 15:12:38.631349901,1746537158,631060601,,0.8404790596129033,-0.7148440693942621,0.0,0.0,0.0,-0.7070339709718989
2025/05/06 15:12:38.737034393,1746537158,736321985,,0.8426995289472643,-0.7148717754268752,0.0,0.0,0.0,-0.7070887865024638
2025/05/06 15:12:38.837108953,1746537158,836197996,,0.8450647691211088,-0.714899079214506,0.0,0.0,0.0,-0.7070312089478703
2025/05/06 15:12:38.934275215,1746537158,932903167,,0.8473655891438625,-0.7149264702567919,0.0,0.0,0.0,-0.7070282022410659
2025/05/06 15:12:39.34252885,1746537159,33108457,,0.8496322137670518,-0.7149531892982441,0.0,0.0,0.0,-0.7070533024237424
2025/05/06 15:12:39.142415913,1746537159,141269605,,0.8518909729260713,-0.7149797388111381,0.0,0.0,0.0,-0.7070855673605638
2025/05/06 15:12:39.236204883,1746537159,231937213,,0.8541676857140601,-0.7150048196920746,0.0,0.0,0.0,-0.7071011551916209
2025/05/06 15:12:39.340020101,1746537159,339709733,,0.8563738643450733,-0.715031477139739,0.0,0.0,0.0,-0.7071755937131043
2025/05/06 15:12:39.591656679,1746537159,591369768,,14.16510103481636,-30.802242299961556,0.0,0.0,0.0,-17.454300823844697
2025/05/06 15:12:39.681147967,1746537159,680945069,,8.584255804051281,-18.223180603608867,0.0,0.0,0.0,-10.41186095084614
2025/05/06 15:12:39.798084437,1746537159,797560246,,5.552147549486847,-8.37764216695524,0.0,0.0,0.0,-4.939367841177514
2025/05/06 15:12:39.850740133,1746537159,849884632,,0.856940367998277,-0.8273909668672843,0.0,0.0,0.0,-0.7433645779024189
2025/05/06 15:12:39.934541697,1746537159,934278334,,0.8958733436104467,-0.7488161376025744,0.0,0.0,0.0,-0.6998300910738564
2025/05/06 15:12:40.48879698,1746537160,48501081,,0.894867331000512,-0.7488341326903623,0.0,0.0,0.0,-0.7005072045208536
2025/05/06 15:12:40.131628962,1746537160,131051043,,0.8938440656365856,-0.7488512771248281,0.0,0.0,0.0,-0.701186631751824
2025/05/06 15:12:40.232570645,1746537160,232284480,,0.8927692487628747,-0.7488219923702957,0.0,0.0,0.0,-0.7018127557836067
2025/05/06 15:12:40.347593572,1746537160,336277641,,0.8768697186998224,-0.7201808064731949,0.0,0.0,0.0,-0.7046557388347026
2025/05/06 15:12:40.432989854,1746537160,432837595,,0.8734792753252236,-0.7180547622141908,0.0,0.0,0.0,-0.7054670441764248
2025/05/06 15:12:40.540683644,1746537160,540356790,,0.8719911079815006,-0.7182063777450161,0.0,0.0,0.0,-0.7066973831990708
2025/05/06 15:12:40.636561075,1746537160,634795487,,0.8708481122667422,-0.7181829266645323,0.0,0.0,0.0,-0.7073231055846476
2025/05/06 15:12:40.767589331,1746537160,767240865,,0.8713947949394765,-0.718137901547184,0.0,0.0,0.0,-0.7076638618511755
2025/05/06 15:12:40.831491852,1746537160,830828603,,0.8736623924813216,-0.7181581595120647,0.0,0.0,0.0,-0.7076009994702446
2025/05/06 15:12:40.944204553,1746537160,944013076,,0.875905743970975,-0.7181821666811459,0.0,0.0,0.0,-0.7075563840613768
2025/05/06 15:12:41.31241170,1746537161,30894087,,0.8781911579762323,-0.7182052886412187,0.0,0.0,0.0,-0.7074683717811614
2025/05/06 15:12:41.138392849,1746537161,138145992,,0.8807318636210084,-0.7182320141812006,0.0,0.0,0.0,-0.7071743071443535
2025/05/06 15:12:41.237672055,1746537161,235281627,,0.8830772342599289,-0.7182683189981383,0.0,0.0,0.0,-0.7070449338072549
2025/05/06 15:12:41.339996041,1746537161,339648227,,0.8752021550809559,0.7223446576624681,0.0,0.0,0.0,0.708013074047722
2025/05/06 15:12:41.434692213,1746537161,431850585,,0.875848441558162,0.7203948566628213,0.0,0.0,0.0,0.7054749364779109
2025/05/06 15:12:41.535687294,1746537161,534536065,,0.8779907058038816,0.7203742576545089,0.0,0.0,0.0,0.7054983316691033
2025/05/06 15:12:41.633771499,1746537161,632300515,,0.8800758676892428,0.7203369169010649,0.0,0.0,0.0,0.7055271768355471
2025/05/06 15:12:41.730754513,1746537161,730323153,,0.8821577714254545,0.7202960355162737,0.0,0.0,0.0,0.7055418940841758
2025/05/06 15:12:41.842522448,1746537161,842219562,,0.8845493076262301,0.7201444454092254,0.0,0.0,0.0,0.705099128957956
2025/05/06 15:12:41.960521574,1746537161,959970159,,0.88659239433332,0.7201059023160248,0.0,0.0,0.0,0.705128027962509
2025/05/06 15:12:42.44756636,1746537162,44343491,,0.8885753696234815,0.7200783562003004,0.0,0.0,0.0,0.7052141067722584
2025/05/06 15:12:42.135495273,1746537162,135265830,,0.8905008439392645,0.7200723637935056,0.0,0.0,0.0,0.7053741420854021
2025/05/06 15:12:42.240967262,1746537162,240635217,,0.8927017447140315,0.7199894540005225,0.0,0.0,0.0,0.7051643735926643
2025/05/06 15:12:42.330789353,1746537162,330549655,,0.8947039567901811,0.7199516491513052,0.0,0.0,0.0,0.7051838100465098
2025/05/06 15:12:42.435702387,1746537162,435326377,,1.5947008853102034,-0.30446448793611935,0.0,0.0,0.0,-0.5591669016542973
2025/05/06 15:12:42.539194623,1746537162,538834072,,1.5961761596163342,-0.3593104753844081,0.0,0.0,0.0,-0.6577218310966018
2025/05/06 15:12:42.635277657,1746537162,633551572,,1.5981708483026296,-0.4138909646321629,0.0,0.0,0.0,-0.7558763713141374
2025/05/06 15:12:42.745271343,1746537162,743268087,,1.6001661071443323,-0.4680824196050857,0.0,0.0,0.0,-0.8533327037361254
2025/05/06 15:12:42.844028144,1746537162,843591069,,1.6030457507457072,-0.5216986659925134,0.0,0.0,0.0,-0.9498122729694387
2025/05/06 15:12:42.938322407,1746537162,937268988,,1.6049948883455727,-0.575232535706526,0.0,0.0,0.0,-1.0461098046658819
2025/05/06 15:12:43.31045865,1746537163,30738496,,1.606890201424676,-0.6281291576259491,0.0,0.0,0.0,-1.14120763534779
2025/05/06 15:12:43.176725954,1746537163,176397127,,1.6082117802882294,-0.680987096580667,0.0,0.0,0.0,-1.2362411321299511
2025/05/06 15:12:43.232294252,1746537163,231949334,,1.6104424340800279,-0.7332578075445912,0.0,0.0,0.0,-1.330278363682563
2025/05/06 15:12:43.350965803,1746537163,347776065,,1.6117838442242487,-0.7847930286773845,0.0,0.0,0.0,-1.4228411856152476
2025/05/06 15:12:43.510601414,1746537163,505752876,,0.9015565499892091,-0.7055864036434896,0.0,0.0,0.0,-0.7103770962321505
2025/05/06 15:12:43.564782913,1746537163,562500352,,0.9014532185160533,-0.7055738362540307,0.0,0.0,0.0,-0.7104368956417275
2025/05/06 15:12:43.633481108,1746537163,633063751,,0.9049934045777377,-0.7056644119401083,0.0,0.0,0.0,-0.7105245195416536
2025/05/06 15:12:43.737013631,1746537163,736711104,,0.9068600577446659,-0.7057343796561586,0.0,0.0,0.0,-0.7105207034970853
2025/05/06 15:12:43.835420513,1746537163,832358207,,0.9087103896437725,-0.705800101457962,0.0,0.0,0.0,-0.7105122229858196
2025/05/06 15:12:43.945523597,1746537163,943035232,,0.9106182364648703,-0.7059734122524093,0.0,0.0,0.0,-0.7106416131779589
2025/05/06 15:12:44.36162138,1746537164,32919047,,0.9125431907615962,-0.7060702868545201,0.0,0.0,0.0,-0.7106096737811818
2025/05/06 15:12:44.134461143,1746537164,134157234,,0.9144399035707806,-0.7061490245528725,0.0,0.0,0.0,-0.710557606394481
2025/05/06 15:12:44.231757203,1746537164,230336059,,0.9162884035236516,-0.7062053937457691,0.0,0.0,0.0,-0.7104937483531799
2025/05/06 15:12:44.363661041,1746537164,362249790,,0.9113324081722567,-0.7267686300594498,0.0,0.0,0.0,-0.7164473649105858
2025/05/06 15:12:44.446049494,1746537164,443290593,,0.9147837441181537,-0.7130235859129268,0.0,0.0,0.0,-0.7091255355301698
2025/05/06 15:12:44.535251105,1746537164,533590905,,0.9146082799217652,-0.7135129760559682,0.0,0.0,0.0,-0.7102591541845626
2025/05/06 15:12:44.635549522,1746537164,634313644,,0.9165217259241558,-0.7136442401518099,0.0,0.0,0.0,-0.7102425583153078
2025/05/06 15:12:44.732737961,1746537164,732483614,,0.9180312223561486,-0.7136209035530552,0.0,0.0,0.0,-0.7102598673744431
2025/05/06 15:12:44.835796834,1746537164,835495342,,0.9199316277592402,-0.7137653476937675,0.0,0.0,0.0,-0.7102577456059969
2025/05/06 15:12:44.931258030,1746537164,930973599,,0.9213092787736059,-0.7137101241637467,0.0,0.0,0.0,-0.7103032159079845
2025/05/06 15:12:45.50926283,1746537165,49875898,,0.9229385210144301,-0.7137820990530024,0.0,0.0,0.0,-0.7103673598251348
2025/05/06 15:12:45.143524678,1746537165,141597255,,0.9245875087934792,-0.7138257968267414,0.0,0.0,0.0,-0.7103551510581916
2025/05/06 15:12:45.235674884,1746537165,235358912,,0.9265616477147205,-0.7139678442156363,0.0,0.0,0.0,-0.7102511310463413
2025/05/06 15:12:45.341055341,1746537165,339854825,,0.9271937916938668,-0.7058417519547207,0.0,0.0,0.0,-0.7093359595066637
2025/05/06 15:12:45.431639786,1746537165,431402307,,0.9287028022822597,-0.7058230459981383,0.0,0.0,0.0,-0.7093112515914406
2025/05/06 15:12:45.573204082,1746537165,567620650,,0.9304727858531123,-0.7061134428569478,0.0,0.0,0.0,-0.7096254864561224
2025/05/06 15:12:45.632366538,1746537165,632143320,,0.9316665547497678,-0.7059129904340051,0.0,0.0,0.0,-0.70950570998491
2025/05/06 15:12:45.735870086,1746537165,735269540,,0.933228990400039,-0.7059448409035665,0.0,0.0,0.0,-0.7095007056600462
2025/05/06 15:12:45.831934008,1746537165,831567776,,0.9349206247962911,-0.7060973139992268,0.0,0.0,0.0,-0.7096004198990205
2025/05/06 15:12:45.944698313,1746537165,933883067,,0.9365012168709654,-0.7060399267323643,0.0,0.0,0.0,-0.7094012065470281
2025/05/06 15:12:46.34294797,1746537166,32099870,,0.9380080462566411,-0.7060802430723196,0.0,0.0,0.0,-0.7094274865822818
2025/05/06 15:12:46.141102200,1746537166,140757317,,0.9393164710686506,-0.7059929297513121,0.0,0.0,0.0,-0.7093728010815035
2025/05/06 15:12:46.236616534,1746537166,232074647,,0.9407127493496432,-0.7060420519437134,0.0,0.0,0.0,-0.7094844878933007
2025/05/06 15:12:46.337396289,1746537166,336427160,,1.6441312667421357,-0.8931468219927927,0.0,0.0,0.0,-1.6031173265132237
2025/05/06 15:12:46.435267794,1746537166,435045957,,1.6467999649979674,-0.9469054687600407,0.0,0.0,0.0,-1.69974205397161
2025/05/06 15:12:46.538555982,1746537166,537227727,,1.6483256497864431,-0.9554579848909159,0.0,0.0,0.0,-1.715125422779474
2025/05/06 15:12:46.631328327,1746537166,631192230,,1.6497869042308366,-0.9639421231063015,0.0,0.0,0.0,-1.7303915781437098
2025/05/06 15:12:46.758699114,1746537166,756914124,,1.6511931299995695,-0.9723562729378696,0.0,0.0,0.0,-1.7455362604571123
2025/05/06 15:12:46.852819221,1746537166,844396573,,1.652590949792227,-0.9806903860843157,0.0,0.0,0.0,-1.7605348232514473
2025/05/06 15:12:46.931499209,1746537166,930429017,,1.6539655691298094,-0.9889488494583194,0.0,0.0,0.0,-1.775397230621369
2025/05/06 15:12:47.37555406,1746537167,35700560,,1.6553360449024694,-0.9971180085507183,0.0,0.0,0.0,-1.790094314214703
2025/05/06 15:12:47.134109228,1746537167,132158177,,0.9493188906610044,-0.7094209042937165,0.0,0.0,0.0,-0.7063118439102141
2025/05/06 15:12:47.234829604,1746537167,234364367,,0.9504164413179979,-0.7094874984640538,0.0,0.0,0.0,-0.7066497445535553
2025/05/06 15:12:47.334841030,1746537167,334727499,,1.5570629334043815,-2.1423513641517182,0.0,0.0,0.0,-1.4898302868868072
2025/05/06 15:12:47.440007239,1746537167,439693239,,0.9576773331063464,-0.7241791677571001,0.0,0.0,0.0,-0.7024848871098897
2025/05/06 15:12:47.537294543,1746537167,536186898,,0.9552063871943801,-0.724184088224689,0.0,0.0,0.0,-0.7029730459541632
2025/05/06 15:12:47.635266098,1746537167,633399885,,0.9515741763116239,-0.7240436549696696,0.0,0.0,0.0,-0.7041099367686563
2025/05/06 15:12:47.735723095,1746537167,734533543,,0.9485492231776789,-0.7242730524539596,0.0,0.0,0.0,-0.7055548190908958
2025/05/06 15:12:47.835197581,1746537167,834062324,,0.9502829529466794,-0.7241307595687232,0.0,0.0,0.0,-0.7049781065918097
2025/05/06 15:12:47.968166116,1746537167,967319431,,0.9517329634178964,-0.7240540991484181,0.0,0.0,0.0,-0.7047377401727672
2025/05/06 15:12:48.36677872,1746537168,36349084,,0.9530850583062715,-0.724038135781818,0.0,0.0,0.0,-0.704676114301126
2025/05/06 15:12:48.139882290,1746537168,137889725,,0.9544114507399399,-0.7240295074830669,0.0,0.0,0.0,-0.7046395151995881
2025/05/06 15:12:48.230871724,1746537168,230689105,,0.9557098257776602,-0.7240285111310243,0.0,0.0,0.0,-0.704630416720974
2025/05/06 15:12:48.456927827,1746537168,455318613,,6.6545625811560285,13.666766963146895,0.0,0.0,0.0,7.915829513166194
2025/05/06 15:12:48.502028982,1746537168,501743922,,2.217447998615114,3.6753032159598362,0.0,0.0,0.0,2.342891757868024
2025/05/06 15:12:48.546687462,1746537168,546349619,,0.9714126492347646,0.726109391479909,0.0,0.0,0.0,0.7043191073885069
2025/05/06 15:12:48.634670836,1746537168,632792739,,0.9681753558829769,0.7261607996850827,0.0,0.0,0.0,0.705286909016035
2025/05/06 15:12:48.746214377,1746537168,745861420,,0.9648672874166664,0.7263006672719001,0.0,0.0,0.0,0.7064552402755666
2025/05/06 15:12:48.840584770,1746537168,838269899,,0.9619663311111708,0.726327386060909,0.0,0.0,0.0,0.7070792500142069
2025/05/06 15:12:48.931935559,1746537168,931114557,,0.9582430917980673,0.7262066138586363,0.0,0.0,0.0,0.7080789394925588
2025/05/06 15:12:49.40563893,1746537169,36996326,,0.9554730449332283,0.7262785554954618,0.0,0.0,0.0,0.7086493988133853
2025/05/06 15:12:49.161646199,1746537169,160113765,,0.9514278405375762,0.7261679023675214,0.0,0.0,0.0,0.7098947131997555
2025/05/06 15:12:49.233766730,1746537169,233377807,,0.9500698398779264,0.7262730457849642,0.0,0.0,0.0,0.7104870659445446
2025/05/06 15:12:49.332581978,1746537169,330791216,,1.6413950162946094,0.5124613129813724,0.0,0.0,0.0,0.9370891603558817
2025/05/06 15:12:49.434773894,1746537169,432523116,,0.9327215940178348,-0.7148584593540033,0.0,0.0,0.0,-0.7029651675726392
2025/05/06 15:12:49.531516524,1746537169,530926775,,0.9337027438560881,-0.7148872296857718,0.0,0.0,0.0,-0.7031755264667439
2025/05/06 15:12:49.635960907,1746537169,635451063,,0.9348507652155149,-0.7148690285980273,0.0,0.0,0.0,-0.7031598381215396
2025/05/06 15:12:49.735570862,1746537169,732616751,,0.9359859958185552,-0.7148515241446862,0.0,0.0,0.0,-0.7031477810718556
2025/05/06 15:12:49.832993454,1746537169,831930165,,0.9371081952149325,-0.7148350424833367,0.0,0.0,0.0,-0.7031401833565383
2025/05/06 15:12:49.934743380,1746537169,934228213,,0.9371710681489276,-0.7151317666396508,0.0,0.0,0.0,-0.704536310356005
2025/05/06 15:12:50.31736091,1746537170,31472151,,0.9382955855573982,-0.7151277680735895,0.0,0.0,0.0,-0.7045338488257222
2025/05/06 15:12:50.141551153,1746537170,140877797,,0.9394596010296254,-0.7151144966703384,0.0,0.0,0.0,-0.704475438364792
2025/05/06 15:12:50.238045315,1746537170,236910638,,0.9411736750459454,-0.7148781557765886,0.0,0.0,0.0,-0.7035678046463545
2025/05/06 15:12:50.385593750,1746537170,385210684,,0.9178767633162579,0.7154783773700397,0.0,0.0,0.0,0.7125717065157922
2025/05/06 15:12:50.431381637,1746537170,431182708,,0.918926653135486,0.7101262153511883,0.0,0.0,0.0,0.7097540757230121
2025/05/06 15:12:50.540250874,1746537170,539943766,,0.9195488148459958,0.7100094862078237,0.0,0.0,0.0,0.7098716606147875
2025/05/06 15:12:50.631610989,1746537170,631033491,,0.9205948185365855,0.7100106303209346,0.0,0.0,0.0,0.7098566785946758
2025/05/06 15:12:50.731156881,1746537170,730958648,,0.9216353733419282,0.7100036421621096,0.0,0.0,0.0,0.7098244845490491
2025/05/06 15:12:50.834334067,1746537170,834022053,,0.9227013536754498,0.7100085363829365,0.0,0.0,0.0,0.70978657486652
2025/05/06 15:12:50.932894186,1746537170,932569041,,0.9237949555540581,0.7100296951813831,0.0,0.0,0.0,0.7097491160984291
2025/05/06 15:12:51.32492064,1746537171,32355615,,0.9247915455637212,0.7100358396649114,0.0,0.0,0.0,0.7097552784058934
2025/05/06 15:12:51.132570442,1746537171,132198814,,0.9257835284645353,0.7100426550397927,0.0,0.0,0.0,0.7097596376633035
2025/05/06 15:12:51.243650587,1746537171,243303227,,0.9267716762157079,0.7100502734950016,0.0,0.0,0.0,0.7097618872737641
2025/05/06 15:12:51.338448063,1746537171,336496773,,0.9053940282132089,0.7131410614139213,0.0,0.0,0.0,0.7081936551226562
2025/05/06 15:12:51.442057294,1746537171,441788584,,0.9062017742903663,0.7130468518973547,0.0,0.0,0.0,0.7081608039498395
2025/05/06 15:12:51.569386910,1746537171,569083856,,0.9070771914763327,0.7130139594724909,0.0,0.0,0.0,0.708177789786415
2025/05/06 15:12:51.632961892,1746537171,632655994,,0.9082388522759857,0.7131474489506235,0.0,0.0,0.0,0.7082596488791282
2025/05/06 15:12:51.734537246,1746537171,731859025,,0.9091920369199897,0.7131458913209627,0.0,0.0,0.0,0.7082580034124062
2025/05/06 15:12:51.837033951,1746537171,836714841,,0.9101315194270683,0.7131423091419151,0.0,0.0,0.0,0.7082571797546926
2025/05/06 15:12:51.934049989,1746537171,931420855,,0.9110548680114903,0.7131356867094745,0.0,0.0,0.0,0.7082573729047512
2025/05/06 15:12:52.33780231,1746537172,31866133,,0.9117087168415878,0.7129864105506059,0.0,0.0,0.0,0.708209157010252
2025/05/06 15:12:52.146818723,1746537172,146448614,,0.9129392989971166,0.7131441041156741,0.0,0.0,0.0,0.7082476794574069
2025/05/06 15:12:52.233808803,1746537172,233336501,,0.9138624281605416,0.7131445489331067,0.0,0.0,0.0,0.7082418909971704
2025/05/06 15:12:52.338431798,1746537172,336487284,,1.5990959252249013,-0.7436255830619358,0.0,0.0,0.0,-1.3415894966007658
2025/05/06 15:12:52.433892041,1746537172,432780294,,1.6003646949306471,-0.7578043855622241,0.0,0.0,0.0,-1.3671120022217558
2025/05/06 15:12:52.533518617,1746537172,533237197,,1.6012339422564992,-0.7719235809299629,0.0,0.0,0.0,-1.3925014080365035
2025/05/06 15:12:52.632369847,1746537172,631705512,,1.6020957657676718,-0.7859285663765281,0.0,0.0,0.0,-1.4176864670287914
2025/05/06 15:12:52.768286035,1746537172,767998771,,1.6029410321224873,-0.7998225954930573,0.0,0.0,0.0,-1.4426726270628656
2025/05/06 15:12:52.838961184,1746537172,832522930,,1.6037628031377835,-0.8136087939418362,0.0,0.0,0.0,-1.46746516712163
2025/05/06 15:12:52.931748990,1746537172,931461783,,1.6046107823638067,-0.8272489146331465,0.0,0.0,0.0,-1.4919922108732262
2025/05/06 15:12:53.37293110,1746537173,35816794,,1.605466140156068,-0.8406702901748897,0.0,0.0,0.0,-1.516105928288554
2025/05/06 15:12:53.131500315,1746537173,131331473,,1.6060940356788933,-0.8542623496240589,0.0,0.0,0.0,-1.5405626347091355
2025/05/06 15:12:53.238525725,1746537173,237340014,,1.606969845714616,-0.8675523877393894,0.0,0.0,0.0,-1.5644638370521697
2025/05/06 15:12:53.334729463,1746537173,334423147,,0.8796144092548843,-0.7328148982787539,0.0,0.0,0.0,-0.7195645423903301
2025/05/06 15:12:53.438674848,1746537173,438396775,,0.8848012813534183,-0.7119394813078515,0.0,0.0,0.0,-0.7089459990947518
2025/05/06 15:12:53.534288381,1746537173,531943905,,0.8812493009133959,-0.711958068116477,0.0,0.0,0.0,-0.7098874174515011
2025/05/06 15:12:53.635496796,1746537173,635150519,,0.8820604557390652,-0.711982621739983,0.0,0.0,0.0,-0.709890861621858
2025/05/06 15:12:53.734966721,1746537173,731854000,,0.8828721248848979,-0.7120083636436476,0.0,0.0,0.0,-0.7098911047566148
2025/05/06 15:12:53.830846990,1746537173,830582682,,0.8836716003434049,-0.7120313039224371,0.0,0.0,0.0,-0.7098907066809517
2025/05/06 15:12:53.964758772,1746537173,963172480,,0.8844175108158652,-0.7120300410387674,0.0,0.0,0.0,-0.7098843727701762
2025/05/06 15:12:54.34641136,1746537174,33731127,,0.8856892301876087,-0.7122161903092383,0.0,0.0,0.0,-0.7097910439481581
2025/05/06 15:12:54.137659993,1746537174,135201095,,0.8859613479628479,-0.7120623305589646,0.0,0.0,0.0,-0.7098778943201971
2025/05/06 15:12:54.233224104,1746537174,232890486,,0.8867505136487921,-0.7120969691347163,0.0,0.0,0.0,-0.7098867793045152
2025/05/06 15:12:54.338930316,1746537174,338249543,,2.878243738592232,-5.28749224124423,0.0,0.0,0.0,-3.241672925463625
2025/05/06 15:12:54.433906437,1746537174,431881903,,0.8733338203505809,-0.7800540542151637,0.0,0.0,0.0,-0.7345603093888045
2025/05/06 15:12:54.544742005,1746537174,544379512,,0.891711754108087,-0.7289812129761941,0.0,0.0,0.0,-0.7071573232325754
2025/05/06 15:12:54.634073038,1746537174,633837135,,0.8870502994735716,-0.7289340131967919,0.0,0.0,0.0,-0.7083260039488728
2025/05/06 15:12:54.738549368,1746537174,738300672,,0.8827525323165446,-0.7290141494845699,0.0,0.0,0.0,-0.7094249998359565
2025/05/06 15:12:54.835435982,1746537174,834384258,,0.8784999187581661,-0.7291038841986932,0.0,0.0,0.0,-0.710496116990825
2025/05/06 15:12:54.939302165,1746537174,938977212,,0.8770660817017983,-0.7291058292802646,0.0,0.0,0.0,-0.7108259285276795
2025/05/06 15:12:55.33499977,1746537175,33271536,,0.8778929037508192,-0.7291766979782537,0.0,0.0,0.0,-0.7108242515996501
2025/05/06 15:12:55.157739574,1746537175,157391433,,0.8787549422059442,-0.7292531545281591,0.0,0.0,0.0,-0.7107999906186606
2025/05/06 15:12:55.243169835,1746537175,241853428,,0.8795673362592424,-0.7293028015353613,0.0,0.0,0.0,-0.7107625581326147
2025/05/06 15:12:55.334341471,1746537175,331563004,,0.8696577123208726,-0.7259599983941101,0.0,0.0,0.0,-0.7115787840921897
2025/05/06 15:12:55.446667827,1746537175,445616249,,0.8698304540167783,-0.7258233632345608,0.0,0.0,0.0,-0.7117004676696581
2025/05/06 15:12:55.534253444,1746537175,533314474,,0.870497520283152,-0.7258394523497458,0.0,0.0,0.0,-0.7116985839093104
2025/05/06 15:12:55.636442731,1746537175,636168572,,0.8711529166479295,-0.7258521505969497,0.0,0.0,0.0,-0.7116956387114612
2025/05/06 15:12:55.736083356,1746537175,735558920,,0.8718388203360519,-0.7258830747883636,0.0,0.0,0.0,-0.7116969615640514
2025/05/06 15:12:55.837635227,1746537175,837034907,,0.872501026154282,-0.7259046253578489,0.0,0.0,0.0,-0.7116961052001329
2025/05/06 15:12:55.942281657,1746537175,940789532,,0.873136047771709,-0.7259146115356145,0.0,0.0,0.0,-0.7116919440906031
2025/05/06 15:12:56.36139649,1746537176,35808399,,0.8737397366862751,-0.7259093330558457,0.0,0.0,0.0,-0.7116811536095256
2025/05/06 15:12:56.143221121,1746537176,140778813,,0.8743977076240981,-0.7259369828455036,0.0,0.0,0.0,-0.7116822850623663
2025/05/06 15:12:56.234430459,1746537176,233961457,,0.8750731618350756,-0.7259774229269311,0.0,0.0,0.0,-0.7116884639120471
2025/05/06 15:12:56.363548038,1746537176,362788189,,0.8667595621719215,-0.7155364566001552,0.0,0.0,0.0,-0.7131140198830224
2025/05/06 15:12:56.437316542,1746537176,435973987,,0.8673509550859535,-0.7155403872197112,0.0,0.0,0.0,-0.7131030614969802
2025/05/06 15:12:56.538401158,1746537176,538141140,,0.868000105793044,-0.7155817437809802,0.0,0.0,0.0,-0.7131095637034974
2025/05/06 15:12:56.633106294,1746537176,632417286,,0.8686604665593904,-0.7156301461602226,0.0,0.0,0.0,-0.7131159995251011
2025/05/06 15:12:56.734439682,1746537176,734169623,,0.8693186704240929,-0.7156786748846358,0.0,0.0,0.0,-0.7131205667829548
2025/05/06 15:12:56.836651842,1746537176,836012364,,0.8699709198540404,-0.7157262365847217,0.0,0.0,0.0,-0.713124385826994
2025/05/06 15:12:56.935349804,1746537176,935050257,,0.870673587189799,-0.7157947865365095,0.0,0.0,0.0,-0.7131220209677878
2025/05/06 15:12:57.52512208,1746537177,52104396,,0.8713790718643395,-0.715862021728622,0.0,0.0,0.0,-0.7131113486414407
2025/05/06 15:12:57.133681710,1746537177,133408685,,0.8720705775378974,-0.7159194690140929,0.0,0.0,0.0,-0.7130905306068911
2025/05/06 15:12:57.238449778,1746537177,237935940,,0.8727422664824189,-0.7159668376866435,0.0,0.0,0.0,-0.7130637351620095
2025/05/06 15:12:57.332762170,1746537177,332585646,,0.8616577180256968,-0.7091827641255843,0.0,0.0,0.0,-0.7144785495399972
2025/05/06 15:12:57.438438640,1746537177,437041876,,0.8620823053943241,-0.7091964819830885,0.0,0.0,0.0,-0.7145711922967664
2025/05/06 15:12:57.559301032,1746537177,557488153,,0.862657071088961,-0.7092233902975398,0.0,0.0,0.0,-0.7145642530050651
2025/05/06 15:12:57.634445054,1746537177,633619883,,0.8632245023933933,-0.7092467612368534,0.0,0.0,0.0,-0.7145533553187278
2025/05/06 15:12:57.736077078,1746537177,735806783,,0.8637893870993025,-0.7092713860349527,0.0,0.0,0.0,-0.7145433410951085
2025/05/06 15:12:57.837013352,1746537177,835377624,,0.8643652019698038,-0.709316256190391,0.0,0.0,0.0,-0.7145576955431778
2025/05/06 15:12:57.942970729,1746537177,941705583,,0.8649390038045794,-0.7093611744246431,0.0,0.0,0.0,-0.7145704018544095
2025/05/06 15:12:58.38236492,1746537178,37043896,,0.8655187310034762,-0.7094088051242586,0.0,0.0,0.0,-0.7145799437387836
2025/05/06 15:12:58.141101434,1746537178,140928282,,0.866102930768534,-0.7094615085446456,0.0,0.0,0.0,-0.7145917539509128
2025/05/06 15:12:58.232198827,1746537178,230726612,,0.8667105836144628,-0.7095262459067548,0.0,0.0,0.0,-0.714603266422273
2025/05/06 15:12:58.460598567,1746537178,460271590,,7.0879365120542275,-14.809186511087475,0.0,0.0,0.0,-8.54984673449298
2025/05/06 15:12:58.549266201,1746537178,549027723,,2.769193324241087,-5.088298874698289,0.0,0.0,0.0,-3.1335558529078753
2025/05/06 15:12:58.594089660,1746537178,593804909,,0.8795599658239439,-0.7285074940858465,0.0,0.0,0.0,-0.710468350265856
2025/05/06 15:12:58.644590369,1746537178,643930809,,0.873534477507178,-0.7290082179435942,0.0,0.0,0.0,-0.712640453676272
2025/05/06 15:12:58.758726045,1746537178,758434286,,0.8687041659004535,-0.7289159406172914,0.0,0.0,0.0,-0.7135128535821309
2025/05/06 15:12:58.832104973,1746537178,831425601,,0.8638114193084903,-0.728927947943653,0.0,0.0,0.0,-0.7146169270150722
2025/05/06 15:12:58.933770010,1746537178,933238192,,0.8594544947978875,-0.7290559689790257,0.0,0.0,0.0,-0.7158490111812341
2025/05/06 15:12:59.47658900,1746537179,45332532,,0.8599510548324361,-0.7290842831637789,0.0,0.0,0.0,-0.7158500523563305
2025/05/06 15:12:59.134334184,1746537179,131097081,,0.8604389356341926,-0.7291103720880443,0.0,0.0,0.0,-0.7158510719692259
2025/05/06 15:12:59.240082890,1746537179,238568300,,0.8609224982906198,-0.7291362075716705,0.0,0.0,0.0,-0.7158521334224872
2025/05/06 15:12:59.485523256,1746537179,484720372,,15.843764160987234,-34.62702157433331,0.0,0.0,0.0,-19.608024125012335
2025/05/06 15:12:59.618777082,1746537179,616780238,,10.55129967755397,-22.672477752589188,0.0,0.0,0.0,-12.885646112534616
2025/05/06 15:12:59.696186687,1746537179,695830078,,5.933482995407019,-12.29994543661617,0.0,0.0,0.0,-7.118861424617222
2025/05/06 15:12:59.745181045,1746537179,744907931,,0.851106206817974,-0.8775129501367331,0.0,0.0,0.0,-0.7693001032166649
2025/05/06 15:12:59.831241334,1746537179,830757054,,0.8970575058965551,-0.7655049802412606,0.0,0.0,0.0,-0.708057671610419
2025/05/06 15:12:59.936999383,1746537179,935077881,,0.8921022854957528,-0.7655020655303844,0.0,0.0,0.0,-0.7091121637838569
2025/05/06 15:13:00.58762899,1746537180,57055392,,0.886941993653295,-0.7657058952828493,0.0,0.0,0.0,-0.7106970369812302
2025/05/06 15:13:00.134031978,1746537180,132894213,,0.8821491165330713,-0.7657548400962639,0.0,0.0,0.0,-0.7117048538516002
2025/05/06 15:13:00.236143034,1746537180,234215753,,0.8772447340699046,-0.7657508251262186,0.0,0.0,0.0,-0.7127005324091158
2025/05/06 15:13:00.338451556,1746537180,338205763,,0.8579616162494972,-0.7546070358755799,0.0,0.0,0.0,-0.715467311097882
2025/05/06 15:13:00.433693545,1746537180,432504157,,0.8529924272756375,-0.7545476040908454,0.0,0.0,0.0,-0.7164015221795808
2025/05/06 15:13:00.541150662,1746537180,538897041,,0.8486642734333145,-0.7546033363688309,0.0,0.0,0.0,-0.7176618286265182
2025/05/06 15:13:00.634801894,1746537180,634541842,,0.8491029462162487,-0.7546352885926382,0.0,0.0,0.0,-0.7176618168465723
2025/05/06 15:13:00.732536026,1746537180,730415514,,0.8495285594395909,-0.754662526339601,0.0,0.0,0.0,-0.717661246357693
2025/05/06 15:13:00.864647715,1746537180,840831678,,0.8499508277071754,-0.7546896834384427,0.0,0.0,0.0,-0.7176607134429815
2025/05/06 15:13:00.931475920,1746537180,930936152,,0.8503697706646562,-0.7547167459524786,0.0,0.0,0.0,-0.7176602197512523
2025/05/06 15:13:01.46783648,1746537181,43971221,,0.8507913133072407,-0.754746286373603,0.0,0.0,0.0,-0.7176596882603832
2025/05/06 15:13:01.136609675,1746537181,134293471,,0.8512105444451095,-0.7547761594507989,0.0,0.0,0.0,-0.717659199323748
2025/05/06 15:13:01.269521605,1746537181,269186362,,0.8516265911940764,-0.7548059869318564,0.0,0.0,0.0,-0.7176587667809713
2025/05/06 15:13:01.330528531,1746537181,330216884,,0.8479889074504854,-0.726453604460481,0.0,0.0,0.0,-0.7172176904324488
2025/05/06 15:13:01.441327238,1746537181,439625461,,0.8485508925382987,-0.726527229144672,0.0,0.0,0.0,-0.7171774356043557
2025/05/06 15:13:01.533886529,1746537181,530888731,,0.8489441443966257,-0.7265515886061351,0.0,0.0,0.0,-0.7171806124171667
2025/05/06 15:13:01.632690637,1746537181,632462924,,0.8493365988864525,-0.7265771042487046,0.0,0.0,0.0,-0.7171842009935006
2025/05/06 15:13:01.734598830,1746537181,734124828,,0.8497263842381813,-0.7266027393377144,0.0,0.0,0.0,-0.7171878113124563
2025/05/06 15:13:01.831300067,1746537181,831049992,,0.85011341617178,-0.7266284336404638,0.0,0.0,0.0,-0.7171914431674935
2025/05/06 15:13:01.933880849,1746537181,932322055,,0.8504976199400289,-0.7266541512484537,0.0,0.0,0.0,-0.7171950924973487
2025/05/06 15:13:02.31725108,1746537182,31388276,,0.8508824415716845,-0.7266815325821767,0.0,0.0,0.0,-0.7171990061796407
2025/05/06 15:13:02.138164148,1746537182,137839818,,0.8512624259333279,-0.7267091068707217,0.0,0.0,0.0,-0.7172048877145301
2025/05/06 15:13:02.230375496,1746537182,229890485,,0.8516371929771367,-0.7267364983720341,0.0,0.0,0.0,-0.7172123962023846
2025/05/06 15:13:02.335122467,1746537182,333480891,,0.843820523838076,-0.7290745580728952,0.0,0.0,0.0,-0.7163052922780935
2025/05/06 15:13:02.467312857,1746537182,466760116,,0.8442369565107697,-0.7291150441049794,0.0,0.0,0.0,-0.7163026993883648
2025/05/06 15:13:02.538647929,1746537182,536740375,,0.8446259605922251,-0.7291460821835116,0.0,0.0,0.0,-0.7163027824178272
2025/05/06 15:13:02.631368369,1746537182,630294917,,0.8450139237581311,-0.7291778571038066,0.0,0.0,0.0,-0.7163028489509884
2025/05/06 15:13:02.741087264,1746537182,740862560,,0.8454013614156679,-0.7292106130299416,0.0,0.0,0.0,-0.7163029423023914
2025/05/06 15:13:02.837975008,1746537182,836508034,,2.038160737305816,-3.479192113065679,0.0,0.0,0.0,-2.2335151160495172
2025/05/06 15:13:02.937198399,1746537182,936972706,,0.8371537087521119,-0.7736602959927268,0.0,0.0,0.0,-0.7294806699075025
2025/05/06 15:13:03.54195915,1746537183,45631013,,0.8449286585120035,-0.7444496927208917,0.0,0.0,0.0,-0.7141081636855517
2025/05/06 15:13:03.131764209,1746537183,131423879,,0.8396031662515497,-0.7449133114447761,0.0,0.0,0.0,-0.7161495962228486
2025/05/06 15:13:03.235756324,1746537183,233563155,,0.8380875245067045,-0.7446270683504963,0.0,0.0,0.0,-0.7160201871448351
2025/05/06 15:13:03.343631163,1746537183,339807272,,0.8384476278208695,-0.7446541499384551,0.0,0.0,0.0,-0.7160205250805518
2025/05/06 15:13:03.443242213,1746537183,442940509,,0.8387961152583898,-0.744677215707199,0.0,0.0,0.0,-0.7160208606596257
2025/05/06 15:13:03.534782891,1746537183,533329115,,0.8391329999763002,-0.7446962827729777,0.0,0.0,0.0,-0.7160212322347661
2025/05/06 15:13:03.672128753,1746537183,671294868,,0.8394673653953078,-0.7447153574238286,0.0,0.0,0.0,-0.7160216227034653
2025/05/06 15:13:03.736644043,1746537183,736385271,,0.839799217141433,-0.744734427081525,0.0,0.0,0.0,-0.7160220238087618
2025/05/06 15:13:03.838747753,1746537183,838439755,,0.8280436943984455,-0.7497176136702564,0.0,0.0,0.0,-0.715881570623722
2025/05/06 15:13:03.934156202,1746537183,933277048,,0.8270975975575254,-0.7500668899281635,0.0,0.0,0.0,-0.7159908814738003
2025/05/06 15:13:04.36991923,1746537184,34283254,,0.8274273306500106,-0.7500882264117195,0.0,0.0,0.0,-0.7159913837943179
2025/05/06 15:13:04.135215687,1746537184,134525685,,0.8277539159943785,-0.7501092594195313,0.0,0.0,0.0,-0.7159919295741588
2025/05/06 15:13:04.231313332,1746537184,231088371,,0.8280764631614375,-0.7501295423814724,0.0,0.0,0.0,-0.7159924354931206
2025/05/06 15:13:04.345521870,1746537184,344752882,,0.8283963088529163,-0.7501496654086139,0.0,0.0,0.0,-0.7159929236079279
2025/05/06 15:13:04.432242390,1746537184,432030653,,0.8287134974860919,-0.7501696362053565,0.0,0.0,0.0,-0.7159933821573219
2025/05/06 15:13:04.537240875,1746537184,536652499,,0.8290280631724727,-0.750189449157034,0.0,0.0,0.0,-0.7159937877217004
2025/05/06 15:13:04.639729679,1746537184,639390613,,0.829340054407794,-0.7502091271827567,0.0,0.0,0.0,-0.7159941724063117
2025/05/06 15:13:04.739432223,1746537184,737826014,,0.8296494884670551,-0.750228680309533,0.0,0.0,0.0,-0.7159945389379061
2025/05/06 15:13:04.866916748,1746537184,864641789,,0.8218632304503615,-0.7476221053964736,0.0,0.0,0.0,-0.7161573274530326
2025/05/06 15:13:04.937957630,1746537184,937548900,,0.8212275521090362,-0.7472190111567443,0.0,0.0,0.0,-0.716213362368677
2025/05/06 15:13:05.35977328,1746537185,34968539,,0.8215306294428615,-0.7472393246675324,0.0,0.0,0.0,-0.7162140380628443
2025/05/06 15:13:05.131687566,1746537185,130885072,,0.8218314842072232,-0.7472596533485927,0.0,0.0,0.0,-0.7162147484192332
2025/05/06 15:13:05.241974370,1746537185,238417837,,0.8221296584040374,-0.7472797355856642,0.0,0.0,0.0,-0.7162154250715957
2025/05/06 15:13:05.334130562,1746537185,333794365,,0.8224250896292915,-0.7472995424472657,0.0,0.0,0.0,-0.7162160569720584
2025/05/06 15:13:05.448100142,1746537185,447824909,,0.8227179967053075,-0.7473191711740697,0.0,0.0,0.0,-0.7162166700432806
2025/05/06 15:13:05.538493782,1746537185,537161322,,0.8230084091850927,-0.7473386294634707,0.0,0.0,0.0,-0.7162172661577131
2025/05/06 15:13:05.640399161,1746537185,640064830,,0.8232963413918526,-0.7473579173712039,0.0,0.0,0.0,-0.7162178461597932
2025/05/06 15:13:05.731558810,1746537185,731296955,,0.8235818229082668,-0.7473770311257368,0.0,0.0,0.0,-0.716218408894207
2025/05/06 15:13:05.840001090,1746537185,839761051,,0.8238648604881291,-0.7473959783998367,0.0,0.0,0.0,-0.7162189580936342
2025/05/06 15:13:05.939992211,1746537185,939362831,,0.8202982317183114,-0.74029858484991,0.0,0.0,0.0,-0.716789391773645
2025/05/06 15:13:06.70242886,1746537186,69779736,,0.8205731004516679,-0.7403166508208301,0.0,0.0,0.0,-0.7167897898719957
2025/05/06 15:13:06.140352817,1746537186,136415602,,0.8208502202729449,-0.7403366781337581,0.0,0.0,0.0,-0.7167903305359289
2025/05/06 15:13:06.241877799,1746537186,241511736,,0.8211256769724571,-0.7403568605605813,0.0,0.0,0.0,-0.7167908862362111
2025/05/06 15:13:06.333517784,1746537186,332613564,,0.821399007332559,-0.7403769716287343,0.0,0.0,0.0,-0.7167914436673755
2025/05/06 15:13:06.435279537,1746537186,434961693,,0.8216695064358532,-0.7403966930422001,0.0,0.0,0.0,-0.7167920025272281
2025/05/06 15:13:06.538101370,1746537186,537864508,,0.8219371939438815,-0.7404160259440005,0.0,0.0,0.0,-0.7167925623492692
2025/05/06 15:13:06.631817783,1746537186,631607265,,0.822202548652001,-0.7404351749060822,0.0,0.0,0.0,-0.7167931135485048
2025/05/06 15:13:06.746034394,1746537186,745606959,,0.8224654650263403,-0.7404540763413365,0.0,0.0,0.0,-0.716793651820069
2025/05/06 15:13:06.836227219,1746537186,835896486,,0.8227260775549894,-0.7404727895103917,0.0,0.0,0.0,-0.7167941819477903
2025/05/06 15:13:06.941641305,1746537186,941342323,,0.8165114753767568,-0.7528272562554719,0.0,0.0,0.0,-0.7216183791645108
2025/05/06 15:13:07.34875477,1746537187,33676789,,0.8167664934611594,-0.7448158158398286,0.0,0.0,0.0,-0.7178916835831615
2025/05/06 15:13:07.135776788,1746537187,135576977,,0.817019333725284,-0.7448353477502963,0.0,0.0,0.0,-0.7178921998192038
2025/05/06 15:13:07.270185561,1746537187,267925865,,0.8172700158712018,-0.7448547117821533,0.0,0.0,0.0,-0.7178927139435274
2025/05/06 15:13:07.339794196,1746537187,339431825,,0.8175185486190344,-0.7448739074860953,0.0,0.0,0.0,-0.7178932272194061
2025/05/06 15:13:07.452004172,1746537187,442879255,,0.8177649553865649,-0.7448929422392041,0.0,0.0,0.0,-0.7178937358179525
2025/05/06 15:13:07.537145775,1746537187,536815891,,0.8180092573776392,-0.7449118091060996,0.0,0.0,0.0,-0.7178942452699317
2025/05/06 15:13:07.640315090,1746537187,636204673,,0.8183009031214397,-0.7449512536441034,0.0,0.0,0.0,-0.7178926923892703
2025/05/06 15:13:07.735316008,1746537187,734911422,,0.8185407232847979,-0.7449697799760315,0.0,0.0,0.0,-0.7178934116524687
2025/05/06 15:13:07.838266333,1746537187,837605850,,0.8187803665841216,-0.7449890649829172,0.0,0.0,0.0,-0.7178942831295103
2025/05/06 15:13:07.940330803,1746537187,940024413,,0.8124653814907106,-0.7779092311926945,0.0,0.0,0.0,-0.7312413848764834
2025/05/06 15:13:08.43791194,1746537188,43598580,,0.8185232258712176,-0.7519585514788218,0.0,0.0,0.0,-0.7179896281098053
2025/05/06 15:13:08.138779671,1746537188,138471986,,0.813182178597117,-0.7518683482846598,0.0,0.0,0.0,-0.7188633221642391
2025/05/06 15:13:08.232607880,1746537188,232189091,,0.8131144979187752,-0.7519723527772015,0.0,0.0,0.0,-0.7191783537670773
2025/05/06 15:13:08.332502729,1746537188,331877358,,0.8133441619022506,-0.7519927575012986,0.0,0.0,0.0,-0.7191791128529275
2025/05/06 15:13:08.471291129,1746537188,470874522,,0.8136715149327927,-0.752101876629041,0.0,0.0,0.0,-0.7192604703537739
2025/05/06 15:13:08.538845167,1746537188,538047617,,0.8138984870860213,-0.7521248017098827,0.0,0.0,0.0,-0.7192653807401399
2025/05/06 15:13:08.633690661,1746537188,633394061,,0.8140190925830666,-0.752050991555123,0.0,0.0,0.0,-0.7191797244318252
2025/05/06 15:13:08.753169575,1746537188,750186368,,0.8142813590973503,-0.752091484100589,0.0,0.0,0.0,-0.7191857128536299
2025/05/06 15:13:08.835501911,1746537188,833383590,,0.8147417254944003,-0.7516499757712012,0.0,0.0,0.0,-0.7181640108707086
2025/05/06 15:13:08.962175553,1746537188,961907419,,7.032801001264659,-14.803983503919667,0.0,0.0,0.0,-8.51660824579153
2025/05/06 15:13:09.33086511,1746537189,32658579,,1.186493179886611,-1.6692695400970052,0.0,0.0,0.0,-1.2149815377269135
2025/05/06 15:13:09.140756429,1746537189,140451344,,0.8312158431405123,-0.7698770789976948,0.0,0.0,0.0,-0.716147568976055
2025/05/06 15:13:09.237936599,1746537189,236536863,,0.825805234808314,-0.7696921881925789,0.0,0.0,0.0,-0.7168746140529265
2025/05/06 15:13:09.336693226,1746537189,336343500,,0.8201294702603832,-0.7699841821792148,0.0,0.0,0.0,-0.7186715641601609
2025/05/06 15:13:09.435047067,1746537189,432422222,,0.8147738831818856,-0.7697908868049979,0.0,0.0,0.0,-0.7193348866139786
2025/05/06 15:13:09.531211509,1746537189,530800525,,0.8131571873625205,-0.76915641785871,0.0,0.0,0.0,-0.7183617788626293
2025/05/06 15:13:09.673587337,1746537189,673347587,,0.8133944868531273,-0.7691306739169477,0.0,0.0,0.0,-0.7182549553492095
2025/05/06 15:13:09.732070868,1746537189,731811334,,0.8136296760156938,-0.7691052182751292,0.0,0.0,0.0,-0.7181492302163974
2025/05/06 15:13:09.840020140,1746537189,839434386,,0.8134278968314845,-0.7699606382547017,0.0,0.0,0.0,-0.7199795797503583
2025/05/06 15:13:09.935722813,1746537189,934232677,,0.8112655783859282,-0.802082387276954,0.0,0.0,0.0,-0.7325704294596136
2025/05/06 15:13:10.37604245,1746537190,34428467,,0.8167506160383482,-0.7773741531467238,0.0,0.0,0.0,-0.7196497550590948
2025/05/06 15:13:10.135352554,1746537190,135065920,,0.8115927036735968,-0.777870395982518,0.0,0.0,0.0,-0.7217372283129606
2025/05/06 15:13:10.240228660,1746537190,239870565,,0.8117900558086149,-0.7778877600632654,0.0,0.0,0.0,-0.721731463270757
2025/05/06 15:13:10.331731452,1746537190,331536981,,0.8119857036002713,-0.7779049567213292,0.0,0.0,0.0,-0.7217257519526044
2025/05/06 15:13:10.434207631,1746537190,433849762,,0.8121788704082178,-0.7779213054547256,0.0,0.0,0.0,-0.7217194538867915
2025/05/06 15:13:10.535197369,1746537190,533738573,,0.8123694987021679,-0.7779367269991724,0.0,0.0,0.0,-0.7217125124439718
2025/05/06 15:13:10.644420052,1746537190,642624428,,0.8125584859710671,-0.7779520166290581,0.0,0.0,0.0,-0.7217056274676992
2025/05/06 15:13:10.734226457,1746537190,730452904,,0.812745848162649,-0.7779671662045473,0.0,0.0,0.0,-0.7216987964911681
2025/05/06 15:13:10.861138790,1746537190,860823066,,0.812931608562053,-0.7779821755904948,0.0,0.0,0.0,-0.7216920199292503
2025/05/06 15:13:10.936934980,1746537190,933580737,,0.8111641734422221,-0.7717178620837615,0.0,0.0,0.0,-0.7206414735803435
2025/05/06 15:13:11.33706246,1746537191,32313950,,0.8113496130096678,-0.7717324665435967,0.0,0.0,0.0,-0.7206333549604693
2025/05/06 15:13:11.139188654,1746537191,138812019,,0.8114507010272973,-0.7716421654775729,0.0,0.0,0.0,-0.7205027963584882
2025/05/06 15:13:11.252370191,1746537191,252093009,,0.8116404222423057,-0.7716208335307329,0.0,0.0,0.0,-0.7204244401003876
2025/05/06 15:13:11.338022347,1746537191,337119038,,0.8118284599887602,-0.7715997244189623,0.0,0.0,0.0,-0.7203468866081266
2025/05/06 15:13:11.437650663,1746537191,437272741,,0.8120198498778848,-0.7715784707958164,0.0,0.0,0.0,-0.7202654632192917
2025/05/06 15:13:11.543767099,1746537191,541191630,,0.8122121873207107,-0.7715572571583209,0.0,0.0,0.0,-0.7201824222093336
2025/05/06 15:13:11.631663506,1746537191,631498315,,0.812402823816285,-0.7715362687001743,0.0,0.0,0.0,-0.7201002256881708
2025/05/06 15:13:11.745506954,1746537191,744510115,,0.812591760178691,-0.7715155126426225,0.0,0.0,0.0,-0.7200188712930355
2025/05/06 15:13:11.831702406,1746537191,831317184,,0.8127790331838582,-0.7714949720751463,0.0,0.0,0.0,-0.7199383382531721
2025/05/06 15:13:11.939074223,1746537191,938775827,,0.8100519685235099,-0.7547162174763002,0.0,0.0,0.0,-0.7190163702330068
2025/05/06 15:13:12.63021884,1746537192,62716977,,0.8102226841016318,-0.7547288301169317,0.0,0.0,0.0,-0.7190091952245012
2025/05/06 15:13:12.139288019,1746537192,138957116,,0.8112167035495759,-0.7531697870626033,0.0,0.0,0.0,-0.7155123864784514
