time,header_stamp_secs,header_stamp_nsecs,header_frame_id,wrench_force_x,wrench_force_y,wrench_force_z,wrench_torque_x,wrench_torque_y,wrench_torque_z
2025/05/06 15:12:22.35540486,1746537142,35166069,,2.220446049250313e-16,0.0,0.0,0.0,0.0,0.0
2025/05/06 15:12:22.131456160,1746537142,130059855,,2.220446049250313e-16,0.0,0.0,0.0,0.0,0.0
2025/05/06 15:12:22.231733800,1746537142,230207077,,2.220446049250313e-16,0.0,0.0,0.0,0.0,0.0
2025/05/06 15:12:22.331768049,1746537142,331374056,,2.220446049250313e-16,0.0,0.0,0.0,0.0,0.0
2025/05/06 15:12:22.430248875,1746537142,429966436,,2.220446049250313e-16,0.0,0.0,0.0,0.0,0.0
2025/05/06 15:12:22.531018045,1746537142,530762474,,2.220446049250313e-16,0.0,0.0,0.0,0.0,0.0
2025/05/06 15:12:22.632758283,1746537142,632382501,,2.220446049250313e-16,0.0,0.0,0.0,0.0,0.0
2025/05/06 15:12:22.737464838,1746537142,737065752,,2.220446049250313e-16,0.0,0.0,0.0,0.0,0.0
2025/05/06 15:12:22.862397742,1746537142,862074379,,2.220446049250313e-16,0.0,0.0,0.0,0.0,0.0
2025/05/06 15:12:22.941209165,1746537142,940464160,,2.220446049250313e-16,0.0,0.0,0.0,0.0,0.0
2025/05/06 15:12:23.107945336,1746537143,106179550,,2.220446049250313e-16,0.0,0.0,0.0,0.0,0.0
2025/05/06 15:12:23.205932387,1746537143,205382162,,2.220446049250313e-16,0.0,0.0,0.0,0.0,0.0
2025/05/06 15:12:23.280413956,1746537143,279994761,,2.220446049250313e-16,0.0,0.0,0.0,0.0,0.0
2025/05/06 15:12:23.420995105,1746537143,420694824,,0.06416918178624903,8.142790730432584,0.0,0.0,0.0,0.05133611487910067
2025/05/06 15:12:23.545897405,1746537143,545298738,,0.06416928805752678,8.142791832329735,0.0,0.0,0.0,0.05133545698537128
2025/05/06 15:12:23.657091934,1746537143,656562267,,0.06405544410649751,8.142836640790879,0.0,0.0,0.0,0.05124438249514388
2025/05/06 15:12:23.783183119,1746537143,777929969,,0.06405544410649201,8.142836640787642,0.0,0.0,0.0,0.05124438249511817
2025/05/06 15:12:23.871976407,1746537143,871159587,,0.06397955022995357,8.1428661953553,0.0,0.0,0.0,0.05118366784487599
2025/05/06 15:12:23.965402799,1746537143,964386499,,0.063979550229989,8.142866195353182,0.0,0.0,0.0,0.051183667844836835
2025/05/06 15:12:24.88962093,1746537144,87623912,,0.116916357853914,-10.58575509146111,0.0,0.0,0.0,-0.09353308633001772
2025/05/06 15:12:24.244200041,1746537144,234728447,,0.11680955636827413,-14.708966196702246,0.0,0.0,0.0,-0.09355149032544041
2025/05/06 15:12:24.340417454,1746537144,336533961,,0.11692044040751429,-14.709038914353226,0.0,0.0,0.0,-0.09364848913324467
2025/05/06 15:12:24.445625638,1746537144,434465560,,0.11692044025788044,-14.709038914378276,0.0,0.0,0.0,-0.0936484892190301
2025/05/06 15:12:24.565324433,1746537144,533147592,,0.11699927464996038,-14.70908479766441,0.0,0.0,0.0,-0.09371036826698953
2025/05/06 15:12:24.654046801,1746537144,652790760,,0.1169992745481874,-14.709084797681356,0.0,0.0,0.0,-0.09371036832548413
2025/05/06 15:12:24.779198304,1746537144,758080399,,0.1170780941392694,-14.70913258640622,0.0,0.0,0.0,-0.09377224677203506
2025/05/06 15:12:24.862041564,1746537144,844380712,,0.11707809403439545,-14.709132586423713,0.0,0.0,0.0,-0.09377224683258215
2025/05/06 15:12:24.959714457,1746537144,951490837,,0.11715690411016101,-14.709178467817974,0.0,0.0,0.0,-0.09383412871787829
2025/05/06 15:12:25.64225356,1746537145,61586443,,0.11715690401016052,-14.709178467834647,0.0,0.0,0.0,-0.0938341287758422
2025/05/06 15:12:25.211661752,1746537145,203742872,,0.1505117550690861,-7.2077132097091345,0.0,0.0,0.0,-0.12040932650445557
2025/05/06 15:12:25.274708085,1746537145,273488109,,0.1505117443746831,-7.207713224815099,0.0,0.0,0.0,-0.12040933040774315
2025/05/06 15:12:25.409832409,1746537145,400851225,,0.15059501046188084,-7.207739914193435,0.0,0.0,0.0,-0.12047594317958679
2025/05/06 15:12:25.863556244,1746537145,848157239,,0.11863900426885168,-2.7687261752775933,0.0,0.0,0.0,-0.09491119242773878
2025/05/06 15:12:25.998122144,1746537145,997069892,,0.11867991700206411,-2.768732847164407,0.0,0.0,0.0,-0.09494392258596383
2025/05/06 15:12:26.63222508,1746537146,58683395,,0.1186799170020411,-2.7687328471645394,0.0,0.0,0.0,-0.09494392258597563
2025/05/06 15:12:26.425244138,1746537146,240169849,,0.11876174991547628,-2.7687466675312544,0.0,0.0,0.0,-0.0950093888598586
2025/05/06 15:12:26.482919734,1746537146,355617036,,0.11876174991544639,-2.768746667531529,0.0,0.0,0.0,-0.09500938885986487
2025/05/06 15:12:26.774721596,1746537146,672189419,,0.15910682303908844,-12.772160446940983,0.0,0.0,0.0,-0.12112956240633638
2025/05/06 15:12:26.870646935,1746537146,828609831,,0.16111290195693667,-22.77391488046941,0.0,0.0,0.0,-0.11960879154527804
2025/05/06 15:12:26.951087038,1746537146,944123472,,0.15618408403064735,-29.209566639937215,0.0,0.0,0.0,-0.12413523639581982
2025/05/06 15:12:27.73153568,1746537147,71855160,,0.1562620213224479,-29.209661143670008,0.0,0.0,0.0,-0.12419056224897576
2025/05/06 15:12:27.228720692,1746537147,226689505,,0.15626202134388614,-29.209661143755415,0.0,0.0,0.0,-0.12419056223343072
2025/05/06 15:12:27.326241195,1746537147,321849371,,0.15637688330779048,-29.209797452299203,0.0,0.0,0.0,-0.12427502191124559
2025/05/06 15:12:27.426374016,1746537147,420636190,,0.15637688333932898,-29.20979745242313,0.0,0.0,0.0,-0.12427502188860715
2025/05/06 15:12:27.498057650,1746537147,497603100,,0.15637688333949448,-29.209797452423143,0.0,0.0,0.0,-0.12427502188857256
2025/05/06 15:12:27.554660985,1746537147,551676658,,0.2643770837114894,-23.25255688069011,0.0,0.0,0.0,-0.21150152549604678
2025/05/06 15:12:27.670038916,1746537147,669513168,,0.2644152627667497,-23.252595103548042,0.0,0.0,0.0,-0.21153214880262244
2025/05/06 15:12:27.757629299,1746537147,757251503,,0.2644535971844093,-23.252631323139813,0.0,0.0,0.0,-0.21156279167215267
2025/05/06 15:12:27.865281005,1746537147,860809054,,0.26449190110766335,-23.252669449181848,0.0,0.0,0.0,-0.21159341097359965
2025/05/06 15:12:27.961153138,1746537147,959186795,,0.2645302043505042,-23.252705668881564,0.0,0.0,0.0,-0.21162403052710654
2025/05/06 15:12:28.61667938,1746537148,60386260,,0.26456850693734324,-23.25274379502836,0.0,0.0,0.0,-0.2116546503235073
2025/05/06 15:12:28.146534916,1746537148,145386683,,0.26460680889341565,-23.252780014829682,0.0,0.0,0.0,-0.2116852703533994
2025/05/06 15:12:28.246342789,1746537148,243677483,,0.2646451400284226,-23.252818141075103,0.0,0.0,0.0,-0.21171591443845986
2025/05/06 15:12:28.393544628,1746537148,392739832,,0.26468344137285305,-23.25285436097224,0.0,0.0,0.0,-0.21174653537521576
2025/05/06 15:12:28.446954039,1746537148,446387122,,0.2646834413729701,-23.252854360972147,0.0,0.0,0.0,-0.21174653537515312
2025/05/06 15:12:28.543153445,1746537148,541204925,,0.12570502502449232,-7.467904216910751,0.0,0.0,0.0,-0.1005640182834027
2025/05/06 15:12:28.634078091,1746537148,633588895,,0.1257431943717124,-7.467918180487376,0.0,0.0,0.0,-0.10059453432691212
2025/05/06 15:12:28.740751551,1746537148,737492973,,0.1257813490338873,-7.467932481231249,0.0,0.0,0.0,-0.10062505784673195
2025/05/06 15:12:28.834821357,1746537148,834412903,,0.12581950253350674,-7.4679458287775295,0.0,0.0,0.0,-0.10065558043579423
2025/05/06 15:12:28.957396750,1746537148,956731496,,0.1258576497503772,-7.4679601295221625,0.0,0.0,0.0,-0.10068609799770871
2025/05/06 15:12:29.50976511,1746537149,49880213,,0.1258958032515485,-7.46797347706901,0.0,0.0,0.0,-0.10071662058633205
2025/05/06 15:12:29.141971102,1746537149,141390998,,14.405044530822648,-1.7367789256108352,0.0,0.0,0.0,0.4207620576417592
2025/05/06 15:12:29.241727591,1746537149,239242316,,25.03907086796515,-2.2120415649896144,0.0,0.0,0.0,1.1504998792195247
2025/05/06 15:12:29.345743491,1746537149,345413091,,36.34655626470264,-16.289488949927897,0.0,0.0,0.0,6.028246598075153
2025/05/06 15:12:29.434386839,1746537149,433040295,,49.19872287932294,-24.026742867354248,0.0,0.0,0.0,1.2118981420764694
2025/05/06 15:12:29.595984633,1746537149,593923291,,62.717978423915,-23.9752459580541,0.0,0.0,0.0,1.8310073445240018
2025/05/06 15:12:29.761152014,1746537149,760767613,,75.62514709207748,-23.975255872571424,0.0,0.0,0.0,1.8833571548937051
2025/05/06 15:12:29.931471235,1746537149,931111842,,88.28526183558876,-23.975824765755753,0.0,0.0,0.0,1.8833890588854665
2025/05/06 15:12:30.93093904,1746537150,92742385,,100.692699142384,-23.975829773942618,0.0,0.0,0.0,1.9002672012546462
2025/05/06 15:12:30.186974110,1746537150,186241393,,112.94778670469799,-23.664315435293737,0.0,0.0,0.0,1.912141129350239
2025/05/06 15:12:30.236425565,1746537150,234523072,,125.02680711483828,-23.66483360581398,0.0,0.0,0.0,1.9105611761445473
2025/05/06 15:12:30.330939103,1746537150,330597997,,127.5194894109234,-12.84469213495432,0.0,0.0,0.0,1.8867537283938276
2025/05/06 15:12:30.437723069,1746537150,434724434,,128.96639881687523,-12.243512063072318,0.0,0.0,0.0,1.88655773646816
2025/05/06 15:12:30.534870935,1746537150,532384715,,130.5166044662978,-12.133058697358056,0.0,0.0,0.0,1.8873090202503722
2025/05/06 15:12:30.640077574,1746537150,639386053,,132.1688340812284,-12.029060632063814,0.0,0.0,0.0,1.8862117743469407
2025/05/06 15:12:30.735286172,1746537150,732421859,,133.92748911589513,-11.931729135366544,0.0,0.0,0.0,1.885194432248709
2025/05/06 15:12:30.851706352,1746537150,851245426,,135.79218983745665,-11.841733955998931,0.0,0.0,0.0,1.8833579010765051
2025/05/06 15:12:30.965754562,1746537150,961845027,,137.76298995976606,-11.75913583651678,0.0,0.0,0.0,1.8808479165411232
2025/05/06 15:12:31.36702148,1746537151,36249607,,139.83998880408512,-11.683845472355285,0.0,0.0,0.0,1.8778225873798955
2025/05/06 15:12:31.137795915,1746537151,133877898,,142.02309856620786,-11.615738830312669,0.0,0.0,0.0,1.8742309118435685
2025/05/06 15:12:31.238218436,1746537151,236280837,,144.31234479527546,-11.554605660994547,0.0,0.0,0.0,1.8701095387724926
2025/05/06 15:12:31.344155921,1746537151,342783643,,146.70772431033834,-11.50019399190824,0.0,0.0,0.0,1.8654868357922831
2025/05/06 15:12:31.436384727,1746537151,435880707,,148.97094618324257,2.0327435589301603,0.0,0.0,0.0,0.39359518016968975
2025/05/06 15:12:31.537298584,1746537151,535669006,,151.57854902673424,2.0745583167190595,0.0,0.0,0.0,0.38833235009507794
2025/05/06 15:12:31.632250300,1746537151,631281763,,154.29242246893457,2.110372119970421,0.0,0.0,0.0,0.3823450267077091
2025/05/06 15:12:31.739629213,1746537151,738368486,,157.11234739612797,2.140778146080238,0.0,0.0,0.0,0.3763723967046124
2025/05/06 15:12:31.833235189,1746537151,832437218,,160.03847262459263,2.1657578791386323,0.0,0.0,0.0,0.36980421754498516
2025/05/06 15:12:31.932497828,1746537151,931963655,,163.0707484708587,2.1857095327603693,0.0,0.0,0.0,0.3629162386818885
2025/05/06 15:12:32.33209788,1746537152,31653892,,166.20936748571327,2.2006663339123085,0.0,0.0,0.0,0.35515944530287347
2025/05/06 15:12:32.174650025,1746537152,173756888,,169.45396045452384,2.2113268923151286,0.0,0.0,0.0,0.34766355826885253
2025/05/06 15:12:32.234799210,1746537152,234412456,,172.80447797928923,2.218000594126764,0.0,0.0,0.0,0.34058264423005413
2025/05/06 15:12:32.334418281,1746537152,333976270,,172.12452226841833,4.7260722316503,0.0,0.0,0.0,0.3430666414404946
2025/05/06 15:12:32.436723178,1746537152,436302102,,175.10348851419354,5.096508737456953,0.0,0.0,0.0,0.3884171278356652
2025/05/06 15:12:32.534986800,1746537152,534128282,,178.77273892284174,5.0910633993735726,0.0,0.0,0.0,0.3789477638917995
2025/05/06 15:12:32.635794829,1746537152,635282661,,182.54805814694214,5.082809514478596,0.0,0.0,0.0,0.3704126663826943
2025/05/06 15:12:32.733487828,1746537152,731268808,,186.4297377439388,5.07133942896329,0.0,0.0,0.0,0.36151569689952723
2025/05/06 15:12:32.838059592,1746537152,837647646,,190.4175334737946,5.056834498075202,0.0,0.0,0.0,0.35246515659794686
2025/05/06 15:12:32.934945742,1746537152,934464128,,194.51127913495014,5.039499917031475,0.0,0.0,0.0,0.3434792827401427
2025/05/06 15:12:33.37799310,1746537153,37484569,,198.71098955665246,5.019484366905264,0.0,0.0,0.0,0.3345321339605347
2025/05/06 15:12:33.130202707,1746537153,129788106,,203.01678338967523,4.996946683184978,0.0,0.0,0.0,0.32553360374467144
2025/05/06 15:12:33.236947650,1746537153,235354882,,207.4294054975824,4.972108530676985,0.0,0.0,0.0,0.31603373948522795
2025/05/06 15:12:33.368945205,1746537153,368165618,,204.30136564658392,0.802984920560167,0.0,0.0,0.0,0.1816764666657561
2025/05/06 15:12:33.438492789,1746537153,437978451,,207.47017136981833,0.3765711570077964,0.0,0.0,0.0,-0.6778623616195666
2025/05/06 15:12:33.542388684,1746537153,541029372,,212.2010002107118,0.3633470452239067,0.0,0.0,0.0,-0.6540519502964935
2025/05/06 15:12:33.635580176,1746537153,634830188,,217.03805851020442,0.3491986051063136,0.0,0.0,0.0,-0.6285918786054473
2025/05/06 15:12:33.738985436,1746537153,737762051,,220.6655490668984,0.3351183398174963,0.0,0.0,0.0,-0.603248677301445
2025/05/06 15:12:33.835803114,1746537153,833491718,,222.0925165059719,0.3218544006426204,0.0,0.0,0.0,-0.5793735600207791
2025/05/06 15:12:33.941618373,1746537153,940996253,,222.12255952227113,0.30887840113178633,0.0,0.0,0.0,-0.5560164339834645
2025/05/06 15:12:34.31809095,1746537154,31145171,,221.31561243546196,0.29583542606485713,0.0,0.0,0.0,-0.5325357056902745
2025/05/06 15:12:34.141482568,1746537154,141069043,,220.0595548055587,0.2824886231992978,0.0,0.0,0.0,-0.5085113771162844
2025/05/06 15:12:34.232067881,1746537154,231544944,,218.620907753292,0.2686889290175051,0.0,0.0,0.0,-0.48367234661152736
2025/05/06 15:12:34.331551523,1746537154,331324818,,217.18066122791924,0.2543467251438626,0.0,0.0,0.0,-0.4578542407216043
2025/05/06 15:12:34.547486716,1746537154,547087403,,199.61534819239506,28.943260204905965,0.0,0.0,0.0,-9.822333229228846
2025/05/06 15:12:34.706070009,1746537154,700603949,,204.5109459970473,39.954611081589235,0.0,0.0,0.0,-3.691979830494354
2025/05/06 15:12:34.751549385,1746537154,751078407,,204.77633179163553,46.29677305722882,0.0,0.0,0.0,-0.13317838364269363
2025/05/06 15:12:34.839449883,1746537154,838773812,,204.45018768621836,46.304664115963945,0.0,0.0,0.0,-0.11612737132385575
2025/05/06 15:12:34.932950690,1746537154,932465986,,204.43932103563745,46.263944929268156,0.0,0.0,0.0,-0.12660701400868568
2025/05/06 15:12:35.45490561,1746537155,42778197,,204.71996641683046,46.222519437737205,0.0,0.0,0.0,-0.13612017340354754
2025/05/06 15:12:35.133415454,1746537155,132287255,,205.28303298130623,46.180140166202506,0.0,0.0,0.0,-0.14481971401285176
2025/05/06 15:12:35.231672056,1746537155,231201054,,206.11933562645373,46.13687256408005,0.0,0.0,0.0,-0.15286121370570882
2025/05/06 15:12:35.451584183,1746537155,451241237,,193.8886013283853,-23.98075168567626,0.0,0.0,0.0,5.7606818377040305
2025/05/06 15:12:35.496510643,1746537155,496083554,,197.44402798626385,-31.98050684637589,0.0,0.0,0.0,1.3146068590278261
2025/05/06 15:12:35.544984270,1746537155,543567860,,198.7014038560288,-43.46180127678499,0.0,0.0,0.0,1.312557920883954
2025/05/06 15:12:35.630262203,1746537155,629819416,,200.5110044717299,-43.54476908258081,0.0,0.0,0.0,1.2855711229336357
2025/05/06 15:12:35.739511736,1746537155,736036188,,202.55133848033597,-43.591620365885625,0.0,0.0,0.0,1.2792156278490143
2025/05/06 15:12:35.859245731,1746537155,858898399,,204.79352394842707,-43.639036561820205,0.0,0.0,0.0,1.272813380774048
2025/05/06 15:12:35.942676455,1746537155,942253564,,207.22305076107517,-43.68692977575644,0.0,0.0,0.0,1.2659362515216808
2025/05/06 15:12:36.40205720,1746537156,38882764,,209.82897886216747,-43.73527200407191,0.0,0.0,0.0,1.2588108788370844
2025/05/06 15:12:36.140045668,1746537156,139627263,,212.60213282549074,-43.78400286534477,0.0,0.0,0.0,1.2517790182845132
2025/05/06 15:12:36.231564454,1746537156,231075498,,215.53183035966276,-43.833088157541894,0.0,0.0,0.0,1.2448441945395143
2025/05/06 15:12:36.410441004,1746537156,409918087,,202.4895789434733,23.479241092368593,0.0,0.0,0.0,-4.209373007458435
2025/05/06 15:12:36.456572009,1746537156,455433744,,205.02496077018446,29.19235136766085,0.0,0.0,0.0,-1.03509515607443
2025/05/06 15:12:36.534107878,1746537156,533655234,,209.38270899005173,36.89011708968045,0.0,0.0,0.0,-1.1371048144455695
2025/05/06 15:12:36.642644174,1746537156,636688558,,212.83804146252993,36.85408339596167,0.0,0.0,0.0,-1.135848163972181
2025/05/06 15:12:36.738656204,1746537156,738363809,,216.41095244246122,36.801172694316065,0.0,0.0,0.0,-1.143095603240522
2025/05/06 15:12:36.843701329,1746537156,840510876,,220.08283277473038,36.74806895838687,0.0,0.0,0.0,-1.1495764281676835
2025/05/06 15:12:36.930934366,1746537156,930531489,,223.8497737065398,36.69477520234304,0.0,0.0,0.0,-1.1559672017681974
2025/05/06 15:12:37.62756480,1746537157,62425225,,227.70471630027404,36.64133375095366,0.0,0.0,0.0,-1.162283978963901
2025/05/06 15:12:37.130716531,1746537157,130381299,,231.64094906777524,36.587800788044696,0.0,0.0,0.0,-1.1684581007941635
2025/05/06 15:12:37.238791084,1746537157,238421012,,235.65214144855253,36.534123174837674,0.0,0.0,0.0,-1.1746639200762525
2025/05/06 15:12:37.332879947,1746537157,331821099,,239.73224731689794,36.480403043718404,0.0,0.0,0.0,-1.1807403008601707
2025/05/06 15:12:37.435632414,1746537157,434442768,,229.65594380109798,51.07908107061575,0.0,0.0,0.0,-1.4822556911749558
2025/05/06 15:12:37.537270615,1746537157,534613564,,233.85432921295052,51.03874146868611,0.0,0.0,0.0,-1.4808209046402503
2025/05/06 15:12:37.631376543,1746537157,630941663,,238.11121857093616,50.98389687384683,0.0,0.0,0.0,-1.487500727892602
2025/05/06 15:12:37.734145767,1746537157,733448446,,242.4130434831926,50.929196593421466,0.0,0.0,0.0,-1.493292999544746
2025/05/06 15:12:37.833327160,1746537157,832538036,,246.7582196085785,50.87453651632843,0.0,0.0,0.0,-1.499012522891976
2025/05/06 15:12:37.941375940,1746537157,939699321,,251.14241074460625,50.819942832350314,0.0,0.0,0.0,-1.504658041555646
2025/05/06 15:12:38.31254766,1746537158,30786946,,255.5615905099416,50.765425100228065,0.0,0.0,0.0,-1.5102710997547009
2025/05/06 15:12:38.178891167,1746537158,170892961,,260.01185462024546,50.7110131660824,0.0,0.0,0.0,-1.515847602064988
2025/05/06 15:12:38.266813792,1746537158,264912260,,264.48961922421097,50.65671512055693,0.0,0.0,0.0,-1.5214126909214727
2025/05/06 15:12:38.331593244,1746537158,331181578,,268.99144846322747,50.60256027136788,0.0,0.0,0.0,-1.5269716661222397
2025/05/06 15:12:38.431199564,1746537158,430809827,,255.71563733054967,-14.464266054832324,0.0,0.0,0.0,0.547973329680306
2025/05/06 15:12:38.550733178,1746537158,550422277,,260.25431536157225,-14.526417461083387,0.0,0.0,0.0,0.5373031479503982
2025/05/06 15:12:38.631339226,1746537158,630913797,,264.810369329059,-14.57789865979275,0.0,0.0,0.0,0.5320192665060328
2025/05/06 15:12:38.737018720,1746537158,736103534,,269.3772406565996,-14.629194844446172,0.0,0.0,0.0,0.5267142684656214
2025/05/06 15:12:38.836440872,1746537158,836020604,,273.95336662736327,-14.6802835303436,0.0,0.0,0.0,0.5213401950156422
2025/05/06 15:12:38.934265487,1746537158,932720445,,278.5364845085124,-14.731155644916548,0.0,0.0,0.0,0.516063041513565
2025/05/06 15:12:39.33539672,1746537159,32813746,,283.12424473935795,-14.781802410677342,0.0,0.0,0.0,0.5108554648325712
2025/05/06 15:12:39.142406745,1746537159,141112606,,287.7144847594958,-14.832214742084858,0.0,0.0,0.0,0.5056956883722978
2025/05/06 15:12:39.236194097,1746537159,231788829,,292.3050730369422,-14.882386308847964,0.0,0.0,0.0,0.5005590805112925
2025/05/06 15:12:39.340001783,1746537159,339527390,,296.8941754520612,-14.932307390047761,0.0,0.0,0.0,0.49552042398768625
2025/05/06 15:12:39.591639630,1746537159,591200617,,271.15939237338677,-52.21896741683532,0.0,0.0,0.0,20.49897259775522
2025/05/06 15:12:39.681127518,1746537159,680728003,,276.74023760415184,-64.79802911318801,0.0,0.0,0.0,13.456532724756663
2025/05/06 15:12:39.798065756,1746537159,797163664,,293.49936612238815,-74.75320957865023,0.0,0.0,0.0,7.968529056006005
2025/05/06 15:12:39.850509112,1746537159,849641733,,298.1945733038767,-82.30346077873818,0.0,0.0,0.0,3.77252579273091
2025/05/06 15:12:39.934530311,1746537159,934103438,,307.26110907826455,-82.45387398690914,0.0,0.0,0.0,3.7188384891298867
2025/05/06 15:12:40.48861442,1746537160,48329203,,311.79708823540574,-82.48939371154792,0.0,0.0,0.0,3.714494268882426
2025/05/06 15:12:40.131480353,1746537160,130896186,,316.31959587576966,-82.52466251682048,0.0,0.0,0.0,3.7101886020429617
2025/05/06 15:12:40.232558075,1746537160,232027335,,320.8275676652996,-82.55972598126252,0.0,0.0,0.0,3.7058658716283333
2025/05/06 15:12:40.347287772,1746537160,336049257,,312.0902933672377,-25.177325907393993,0.0,0.0,0.0,0.287015261415803
2025/05/06 15:12:40.432980179,1746537160,432595683,,314.2813058809248,-21.00732899633073,0.0,0.0,0.0,-1.024651230512296
2025/05/06 15:12:40.540624260,1746537160,540190474,,318.73976426311225,-21.058092145204203,0.0,0.0,0.0,-1.0280570599695693
2025/05/06 15:12:40.636534356,1746537160,634599132,,323.17953640921763,-21.108706111421405,0.0,0.0,0.0,-1.0320362732300496
2025/05/06 15:12:40.767574286,1746537160,767084093,,327.598453837873,-21.159017402407894,0.0,0.0,0.0,-1.0362693389850062
2025/05/06 15:12:40.831112755,1746537160,830677268,,331.9957528907218,-21.208937253695943,0.0,0.0,0.0,-1.0408755058092964
2025/05/06 15:12:40.944190305,1746537160,943754366,,336.3724768243884,-21.258521477117682,0.0,0.0,0.0,-1.0454331465019777
2025/05/06 15:12:41.31217443,1746537161,30716286,,340.7279184611644,-21.30777470708632,0.0,0.0,0.0,-1.0500043817436189
2025/05/06 15:12:41.138379462,1746537161,137960750,,345.06073542153524,-21.356690547464307,0.0,0.0,0.0,-1.0547519862287544
2025/05/06 15:12:41.235999685,1746537161,234895508,,349.37095108605257,-21.405261115205963,0.0,0.0,0.0,-1.0593055739289512
2025/05/06 15:12:41.339956299,1746537161,339501481,,334.7324333429659,18.978916862723274,0.0,0.0,0.0,-13.949516789562859
2025/05/06 15:12:41.433874300,1746537161,431681938,,336.1189940877387,25.68029522207253,0.0,0.0,0.0,-13.916714751236212
2025/05/06 15:12:41.535675223,1746537161,534373808,,340.3586731125555,25.592501490026155,0.0,0.0,0.0,-13.920654886844885
2025/05/06 15:12:41.633766383,1746537161,632053944,,344.5742088002795,25.505296704314755,0.0,0.0,0.0,-13.924582352616797
2025/05/06 15:12:41.730664113,1746537161,730174714,,348.7651200606058,25.418671478521812,0.0,0.0,0.0,-13.928479478007516
2025/05/06 15:12:41.842503432,1746537161,842053427,,352.9308193447175,25.3327367954355,0.0,0.0,0.0,-13.931902908560007
2025/05/06 15:12:41.960144612,1746537161,959741962,,357.07162904121355,25.247272714016983,0.0,0.0,0.0,-13.935781790779892
2025/05/06 15:12:42.44605891,1746537162,44166464,,361.186986153814,25.162383191651262,0.0,0.0,0.0,-13.939700686667278
2025/05/06 15:12:42.135477034,1746537162,135073472,,365.27661341387324,25.078057671606885,0.0,0.0,0.0,-13.943678280268996
2025/05/06 15:12:42.240949650,1746537162,240481442,,369.3399947884891,24.9944022543735,0.0,0.0,0.0,-13.94727081127577
2025/05/06 15:12:42.330783409,1746537162,330389199,,373.3773602521942,24.91129110292389,0.0,0.0,0.0,-13.951076334765748
2025/05/06 15:12:42.435640146,1746537162,435164425,,358.2184399838304,9.581775813009362,0.0,0.0,0.0,-20.323357588702148
2025/05/06 15:12:42.539124761,1746537162,538642629,,362.2028045532743,9.528431263958627,0.0,0.0,0.0,-20.228344605670976
2025/05/06 15:12:42.635272936,1746537162,633393698,,366.1599468274786,9.47559273922933,0.0,0.0,0.0,-20.133724382470042
2025/05/06 15:12:42.745265194,1746537162,742809728,,370.0902940979338,9.423138610095808,0.0,0.0,0.0,-20.039794737670125
2025/05/06 15:12:42.843106849,1746537162,842586016,,373.99284047972304,9.370883655921713,0.0,0.0,0.0,-19.946836134012983
2025/05/06 15:12:42.937488877,1746537162,937072974,,377.8693398284513,9.319319754944807,0.0,0.0,0.0,-19.854050031149548
2025/05/06 15:12:43.30981002,1746537163,30590512,,381.71882390990345,9.267892989718234,0.0,0.0,0.0,-19.76245790725475
2025/05/06 15:12:43.176706957,1746537163,176235082,,385.54178211619615,9.217200971397562,0.0,0.0,0.0,-19.6709243952138
2025/05/06 15:12:43.232196901,1746537163,231762919,,389.3366400854512,9.1666951549567,0.0,0.0,0.0,-19.580379519007867
2025/05/06 15:12:43.349034251,1746537163,347506721,,393.1052266538226,9.116226324880998,0.0,0.0,0.0,-19.49130142302733
2025/05/06 15:12:43.510593542,1746537163,503478152,,386.9287962332139,4.057764023577572,0.0,0.0,0.0,-24.276612878743435
2025/05/06 15:12:43.564773353,1746537163,562234508,,386.9288995646871,4.057751456188113,0.0,0.0,0.0,-24.27655307933386
2025/05/06 15:12:43.633346294,1746537163,632899716,,394.3284660680785,3.8316605247635946,0.0,0.0,0.0,-24.283257523915378
2025/05/06 15:12:43.736996371,1746537163,736537820,,397.9873965340522,3.7199348286460268,0.0,0.0,0.0,-24.286650698480454
2025/05/06 15:12:43.835410546,1746537163,832189258,,401.6192131943406,3.6090648624290314,0.0,0.0,0.0,-24.290046630163594
2025/05/06 15:12:43.945514214,1746537163,942767180,,405.2238422127539,3.499160076833708,0.0,0.0,0.0,-24.293302783794697
2025/05/06 15:12:44.36150125,1746537164,32705676,,408.8014155494728,3.3900338240707066,0.0,0.0,0.0,-24.296714544968818
2025/05/06 15:12:44.134393750,1746537164,134000449,,412.3520090710386,3.2817415424056557,0.0,0.0,0.0,-24.300142619435597
2025/05/06 15:12:44.231747316,1746537164,230173511,,415.8757343015545,3.1742756623767505,0.0,0.0,0.0,-24.303580577208344
2025/05/06 15:12:44.363651551,1746537164,362094245,,406.9942767226871,-11.891661507574828,0.0,0.0,0.0,-22.81540917195465
2025/05/06 15:12:44.446044336,1746537164,443063020,,410.4628712851787,-12.006996708276526,0.0,0.0,0.0,-22.82611082311241
2025/05/06 15:12:44.533906519,1746537164,533409922,,413.90842028453136,-12.107292573565614,0.0,0.0,0.0,-22.82835130418946
2025/05/06 15:12:44.635544595,1746537164,634130686,,417.3252690455602,-12.20714547847612,0.0,0.0,0.0,-22.831738185092895
2025/05/06 15:12:44.732717067,1746537164,732329350,,420.71600198076885,-12.30635475867839,0.0,0.0,0.0,-22.83508543902204
2025/05/06 15:12:44.835778827,1746537164,835255140,,424.07994630192826,-12.404602801109943,0.0,0.0,0.0,-22.83844640173287
2025/05/06 15:12:44.931163308,1746537164,930821080,,427.41813774271077,-12.502261822552562,0.0,0.0,0.0,-22.841752142978734
2025/05/06 15:12:45.50249738,1746537165,49701893,,430.72989351023557,-12.599006864264869,0.0,0.0,0.0,-22.84503539591217
2025/05/06 15:12:45.143514561,1746537165,141407140,,434.01553700292527,-12.695000077501872,0.0,0.0,0.0,-22.8483892794838
2025/05/06 15:12:45.235606273,1746537165,235203723,,437.27494592064465,-12.790117696555848,0.0,0.0,0.0,-22.851827344905807
2025/05/06 15:12:45.341049580,1746537165,339571565,,438.5938938547905,3.418599339387582,0.0,0.0,0.0,-15.88639005367693
2025/05/06 15:12:45.431586168,1746537165,431250891,,441.8027119926396,3.3436010897450865,0.0,0.0,0.0,-15.889750714350942
2025/05/06 15:12:45.572059168,1746537165,566681171,,444.98572594461564,3.2695242018291157,0.0,0.0,0.0,-15.892760988153253
2025/05/06 15:12:45.632317660,1746537165,631988479,,448.1438644511096,3.195565147263839,0.0,0.0,0.0,-15.89619382919966
2025/05/06 15:12:45.735852437,1746537165,734915043,,451.27636573616246,3.122443025107668,0.0,0.0,0.0,-15.899500454007923
2025/05/06 15:12:45.831918542,1746537165,831414981,,454.38359133809433,3.050042578815511,0.0,0.0,0.0,-15.902689008811917
2025/05/06 15:12:45.944693448,1746537165,933662359,,457.4659035682853,2.9780292722829014,0.0,0.0,0.0,-15.906166954463714
2025/05/06 15:12:46.34270757,1746537166,31928966,,460.5234482525715,2.9067066163633353,0.0,0.0,0.0,-15.909406055287835
2025/05/06 15:12:46.141035431,1746537166,140620590,,463.556441585572,2.8358457015103453,0.0,0.0,0.0,-15.912716584904825
2025/05/06 15:12:46.235955431,1746537166,231890522,,466.564810932291,2.7657063013638794,0.0,0.0,0.0,-15.915847390768809
2025/05/06 15:12:46.337378892,1746537166,336282092,,458.82251302036724,-3.469997098905645,0.0,0.0,0.0,6.723593572393351
2025/05/06 15:12:46.435208227,1746537166,434836026,,461.78215511312703,-3.4227267753500668,0.0,0.0,0.0,6.601416324601493
2025/05/06 15:12:46.538546610,1746537166,536900951,,464.71834305138543,-3.429758251223586,0.0,0.0,0.0,6.613713126484308
2025/05/06 15:12:46.631317889,1746537166,630859174,,467.63060860358166,-3.4367260211197728,0.0,0.0,0.0,6.625918464130038
2025/05/06 15:12:46.758694194,1746537166,756746551,,470.5191559910942,-3.443632649181271,0.0,0.0,0.0,6.638027601094319
2025/05/06 15:12:46.852813923,1746537166,844243663,,473.3840301439578,-3.450489137383702,0.0,0.0,0.0,6.65001541407176
2025/05/06 15:12:46.931034856,1746537166,930283330,,476.2254289621202,-3.4572930061630185,0.0,0.0,0.0,6.6618918671570135
2025/05/06 15:12:47.37550481,1746537167,35424829,,479.04351649416003,-3.4640579100283833,0.0,0.0,0.0,6.673627315160748
2025/05/06 15:12:47.134088075,1746537167,131890878,,482.545798296839,-3.766562715396225,0.0,0.0,0.0,5.586908004798886
2025/05/06 15:12:47.234815324,1746537167,234148954,,485.31795514071325,-3.781177937326962,0.0,0.0,0.0,5.584332907242764
2025/05/06 15:12:47.334731340,1746537167,334266485,,470.8657581115175,-31.779775405867813,0.0,0.0,0.0,18.380232127096768
2025/05/06 15:12:47.439940057,1746537167,439521985,,474.19283536220615,-33.18503485201829,0.0,0.0,0.0,17.590151589380397
2025/05/06 15:12:47.536413692,1746537167,536022186,,476.9004759858525,-33.17222399283,0.0,0.0,0.0,17.587937035211976
2025/05/06 15:12:47.635260901,1746537167,633207656,,479.5868779721259,-33.15966529888775,0.0,0.0,0.0,17.586399823243266
2025/05/06 15:12:47.735718548,1746537167,734246137,,482.25048642135357,-33.14683977103237,0.0,0.0,0.0,17.585201120360427
2025/05/06 15:12:47.835186971,1746537167,833872731,,484.88727197869395,-33.13449274506995,0.0,0.0,0.0,17.582009432885755
2025/05/06 15:12:47.967808597,1746537167,966904454,,487.50242963423835,-33.12218308346877,0.0,0.0,0.0,17.57918460906925
2025/05/06 15:12:48.36609407,1746537168,36157243,,490.0959566897406,-33.10991572164006,0.0,0.0,0.0,17.57656522868101
2025/05/06 15:12:48.138275795,1746537168,137714776,,492.66790300238506,-33.09774402156967,0.0,0.0,0.0,17.574001392640994
2025/05/06 15:12:48.230856599,1746537168,230417163,,495.21848451015984,-33.08566768637874,0.0,0.0,0.0,17.571491760104763
2025/05/06 15:12:48.456905933,1746537168,455124598,,456.7253812665002,24.179668583728105,0.0,0.0,0.0,17.382558014299626
2025/05/06 15:12:48.501965827,1746537168,501544745,,461.16249584904114,34.171132330915164,0.0,0.0,0.0,22.955495769597796
2025/05/06 15:12:48.546525523,1746537168,546161179,,467.4063644503746,37.17896186706501,0.0,0.0,0.0,24.589479339266767
2025/05/06 15:12:48.634652911,1746537168,632605732,,469.877283628492,37.2078563817114,0.0,0.0,0.0,24.586262773601153
2025/05/06 15:12:48.746197503,1746537168,745704770,,472.32764369891146,37.23642211104841,0.0,0.0,0.0,24.58287619588166
2025/05/06 15:12:48.838769606,1746537168,838000018,,474.7571193622482,37.26485684855823,0.0,0.0,0.0,24.580064457261184
2025/05/06 15:12:48.931924157,1746537168,930946466,,477.16712311913943,37.293202565828864,0.0,0.0,0.0,24.576909463827754
2025/05/06 15:12:49.40049803,1746537169,36837079,,479.5560015644418,37.32111524333266,0.0,0.0,0.0,24.57421040343271
2025/05/06 15:12:49.161641173,1746537169,159930363,,481.9261966711812,37.34897400437076,0.0,0.0,0.0,24.570868912898877
2025/05/06 15:12:49.233749240,1746537169,233176179,,484.2738376308252,37.37638427233027,0.0,0.0,0.0,24.568207086887487
2025/05/06 15:12:49.331698428,1746537169,330644584,,449.6531606477679,-12.569433816643482,0.0,0.0,0.0,26.836663052168532
2025/05/06 15:12:49.434764202,1746537169,432331788,,448.9082513063728,-14.880505157589356,0.0,0.0,0.0,28.51606979708924
2025/05/06 15:12:49.531396760,1746537169,530769232,,451.1949288479408,-14.848694236989033,0.0,0.0,0.0,28.514351826515572
2025/05/06 15:12:49.635817526,1746537169,635287790,,453.46218292619074,-14.817200177639766,0.0,0.0,0.0,28.51243832628072
2025/05/06 15:12:49.735519263,1746537169,732463717,,455.71040682644707,-14.785972450464689,0.0,0.0,0.0,28.510555160222246
2025/05/06 15:12:49.832984096,1746537169,831766890,,457.93972285947257,-14.755009775631898,0.0,0.0,0.0,28.508706971076265
2025/05/06 15:12:49.934725291,1746537169,934039939,,460.15129939083545,-14.723997109092771,0.0,0.0,0.0,28.508289209525927
2025/05/06 15:12:50.31671508,1746537170,31330302,,462.3432290726457,-14.693547425713032,0.0,0.0,0.0,28.50650146967533
2025/05/06 15:12:50.141226555,1746537170,140716915,,464.5166256040485,-14.663365460910228,0.0,0.0,0.0,28.50468448377495
2025/05/06 15:12:50.238026868,1746537170,236751476,,466.67113101245405,-14.633663103989036,0.0,0.0,0.0,28.50204688484655
2025/05/06 15:12:50.385577272,1746537170,384995878,,420.08248944762124,3.9076490831096966,0.0,0.0,0.0,19.01322022463655
2025/05/06 15:12:50.431328327,1746537170,431006237,,421.9308963449114,5.058140462505257,0.0,0.0,0.0,18.884985838217418
2025/05/06 15:12:50.540186625,1746537170,539702890,,424.0325691050759,5.073320954313417,0.0,0.0,0.0,18.883023847197713
2025/05/06 15:12:50.631378233,1746537170,630823716,,426.11608731036966,5.088255303669544,0.0,0.0,0.0,18.88121921862212
2025/05/06 15:12:50.731103905,1746537170,730785744,,428.18197180439245,5.103070469776367,0.0,0.0,0.0,18.879452782907006
2025/05/06 15:12:50.834315870,1746537170,833831411,,430.2304053357777,5.117747391656614,0.0,0.0,0.0,18.87771685836102
2025/05/06 15:12:50.932876455,1746537170,932408749,,432.2614772612428,5.132283117623793,0.0,0.0,0.0,18.876003371084188
2025/05/06 15:12:51.32331566,1746537171,32032104,,434.27549531967065,5.146709403407598,0.0,0.0,0.0,18.874267243566763
2025/05/06 15:12:51.132553028,1746537171,131992553,,436.27245865903546,5.1610115174760764,0.0,0.0,0.0,18.87255771463162
2025/05/06 15:12:51.243633081,1746537171,243121455,,438.2525496128468,5.175190758151727,0.0,0.0,0.0,18.870871276178384
2025/05/06 15:12:51.337007894,1746537171,336255910,,394.9377456202243,11.124345205675922,0.0,0.0,0.0,6.806738500486475
2025/05/06 15:12:51.442039675,1746537171,441614600,,396.884661262819,11.118911918854598,0.0,0.0,0.0,6.80481059726476
2025/05/06 15:12:51.569370190,1746537171,568904731,,398.8150297421174,11.113464998657392,0.0,0.0,0.0,6.802851453682823
2025/05/06 15:12:51.632946808,1746537171,632478713,,400.72878507350526,11.107897472924376,0.0,0.0,0.0,6.8008455566567605
2025/05/06 15:12:51.734532286,1746537171,731675437,,402.62651352948626,11.102512678014975,0.0,0.0,0.0,6.798940807164986
2025/05/06 15:12:51.836967904,1746537171,836479756,,404.5081424063542,11.097174730347831,0.0,0.0,0.0,6.797053832513374
2025/05/06 15:12:51.932952957,1746537171,931166837,,406.37388775894163,11.091885599301268,0.0,0.0,0.0,6.7951834840288425
2025/05/06 15:12:52.33770297,1746537172,31708772,,408.22406398823654,11.086783944674004,0.0,0.0,0.0,6.793379187563723
2025/05/06 15:12:52.146800887,1746537172,146286008,,410.05797744904976,11.08142109668999,0.0,0.0,0.0,6.791505795731802
2025/05/06 15:12:52.233470206,1746537172,233171613,,411.87663439801133,11.076259366472167,0.0,0.0,0.0,6.7896943577821265
2025/05/06 15:12:52.338419569,1746537172,336211670,,366.6688178931345,2.952364148506882,0.0,0.0,0.0,-6.18831343842731
2025/05/06 15:12:52.433882296,1746537172,432611198,,368.456184377335,2.9391100324585864,0.0,0.0,0.0,-6.165012993963547
2025/05/06 15:12:52.533500937,1746537172,533072963,,370.2288136651654,2.926030674740998,0.0,0.0,0.0,-6.141832297865596
2025/05/06 15:12:52.632357960,1746537172,631377695,,371.9863746932167,2.913069326798281,0.0,0.0,0.0,-6.118842597149675
2025/05/06 15:12:52.768223205,1746537172,767729941,,373.72902918272126,2.9002275732915193,0.0,0.0,0.0,-6.0960379671143805
2025/05/06 15:12:52.835450183,1746537172,832259031,,375.4569061421747,2.8875063941157864,0.0,0.0,0.0,-6.073414082451124
2025/05/06 15:12:52.931734255,1746537172,931309668,,377.17010845591744,2.8748658732513106,0.0,0.0,0.0,-6.051042342654606
2025/05/06 15:12:53.36395643,1746537173,35655106,,378.8687159887502,2.862230959120202,0.0,0.0,0.0,-6.029070577753926
2025/05/06 15:12:53.131463152,1746537173,131176910,,380.55314668697736,2.8499894118494007,0.0,0.0,0.0,-6.006742472407564
2025/05/06 15:12:53.238437385,1746537173,237119941,,382.2229862089729,2.837666738058298,0.0,0.0,0.0,-5.984957473372635
2025/05/06 15:12:53.334709730,1746537173,334238826,,343.5582212841045,-8.65719879648443,0.0,0.0,0.0,-19.41503895797588
2025/05/06 15:12:53.438612443,1746537173,438189275,,345.1951547733341,-8.720562311599863,0.0,0.0,0.0,-19.428144683888647
2025/05/06 15:12:53.534283293,1746537173,531691022,,346.8268805818991,-8.762669426695535,0.0,0.0,0.0,-19.42968091140592
2025/05/06 15:12:53.635480365,1746537173,634994033,,348.4403882747297,-8.804409132410408,0.0,0.0,0.0,-19.43214366901779
2025/05/06 15:12:53.734943268,1746537173,731688553,,350.04016254308385,-8.845791929325102,0.0,0.0,0.0,-19.434600090922096
2025/05/06 15:12:53.830829985,1746537173,830428019,,351.6263686828597,-8.88682276101897,0.0,0.0,0.0,-19.437045709945025
2025/05/06 15:12:53.964754442,1746537173,963022396,,353.19910910051226,-8.927526843726858,0.0,0.0,0.0,-19.439489635408535
2025/05/06 15:12:54.33959808,1746537174,33572715,,354.75795701004677,-8.967695423155117,0.0,0.0,0.0,-19.442007204342858
2025/05/06 15:12:54.137650240,1746537174,134985078,,356.3045293746934,-9.007858781501582,0.0,0.0,0.0,-19.444336964688592
2025/05/06 15:12:54.233207488,1746537174,232699977,,357.83743161525746,-9.047491272442432,0.0,0.0,0.0,-19.44673324633025
2025/05/06 15:12:54.338909325,1746537174,337777808,,330.13722867351714,-33.2798982006503,0.0,0.0,0.0,-23.989041872510008
2025/05/06 15:12:54.433896269,1746537174,431733398,,331.02943717574317,-42.69191936497429,0.0,0.0,0.0,-26.37249153997643
2025/05/06 15:12:54.544726152,1746537174,544192423,,332.50568814823566,-42.79051951944568,0.0,0.0,0.0,-26.40250568641098
2025/05/06 15:12:54.634061695,1746537174,633688234,,333.99225267904205,-42.83768204515282,0.0,0.0,0.0,-26.40394053657847
2025/05/06 15:12:54.738533363,1746537174,738148274,,335.46584976260533,-42.88432050627715,0.0,0.0,0.0,-26.405435534832012
2025/05/06 15:12:54.834331992,1746537174,833799124,,336.92692000311683,-42.93054501106498,0.0,0.0,0.0,-26.406948875074605
2025/05/06 15:12:54.939162290,1746537174,938819350,,338.3727202952513,-42.976464391667,0.0,0.0,0.0,-26.40919589154068
2025/05/06 15:12:55.33485000,1746537175,33043641,,339.8039918618742,-43.02191812013698,0.0,0.0,0.0,-26.411764859728475
2025/05/06 15:12:55.157675530,1746537175,157239477,,341.22305169841906,-43.066980976331216,0.0,0.0,0.0,-26.414346875226066
2025/05/06 15:12:55.242147583,1746537175,241701621,,342.63004570085013,-43.111685357644326,0.0,0.0,0.0,-26.416934432834182
2025/05/06 15:12:55.332455077,1746537175,331384585,,322.5362260767416,-36.35783364174261,0.0,0.0,0.0,-33.122855725185154
2025/05/06 15:12:55.446662876,1746537175,445324527,,323.9197203272332,-36.40951828105255,0.0,0.0,0.0,-33.12549206773073
2025/05/06 15:12:55.533352780,1746537175,532681921,,325.2909404679981,-36.46061532059947,0.0,0.0,0.0,-33.12824816291686
2025/05/06 15:12:55.636379409,1746537175,635907709,,326.6504840462427,-36.511273246131566,0.0,0.0,0.0,-33.13099769014596
2025/05/06 15:12:55.735710639,1746537175,735263010,,327.9984309550546,-36.56148188492843,0.0,0.0,0.0,-33.133731505232824
2025/05/06 15:12:55.837255497,1746537175,836852366,,329.3348964347832,-36.611268836556214,0.0,0.0,0.0,-33.13646368483893
2025/05/06 15:12:55.942271881,1746537175,940627307,,330.66000604207204,-36.66064392117923,0.0,0.0,0.0,-33.13918772509885
2025/05/06 15:12:56.36068843,1746537176,35649771,,331.9738554781575,-36.709610839063295,0.0,0.0,0.0,-33.14191458003305
2025/05/06 15:12:56.143211927,1746537176,140613689,,333.27642016346965,-36.75812139728145,0.0,0.0,0.0,-33.14461806894154
2025/05/06 15:12:56.234128812,1746537176,233796497,,334.5678894846493,-36.80621099260041,0.0,0.0,0.0,-33.14731269575592
2025/05/06 15:12:56.363526675,1746537176,362617706,,317.96463081868745,-15.909280437931095,0.0,0.0,0.0,-44.0332658324119
2025/05/06 15:12:56.436452323,1746537176,435788510,,319.2337842988203,-15.968009493761734,0.0,0.0,0.0,-44.036351436794035
2025/05/06 15:12:56.538339262,1746537176,537981992,,320.4920157633476,-16.02619949096023,0.0,0.0,0.0,-44.03941195118908
2025/05/06 15:12:56.633039926,1746537176,632139661,,321.73955486547186,-16.083882716998957,0.0,0.0,0.0,-44.04246490257451
2025/05/06 15:12:56.734420934,1746537176,733992806,,322.97641497215403,-16.141071813396614,0.0,0.0,0.0,-44.045512093129155
2025/05/06 15:12:56.836340631,1746537176,835739340,,324.20275246881783,-16.197771688219966,0.0,0.0,0.0,-44.04855621720035
2025/05/06 15:12:56.935333251,1746537176,934900374,,325.4185415007008,-16.25396610823888,0.0,0.0,0.0,-44.051602710477525
2025/05/06 15:12:57.52392552,1746537177,51832248,,326.62398225626066,-16.30967928381337,0.0,0.0,0.0,-44.054646067130044
2025/05/06 15:12:57.133674631,1746537177,133242204,,327.81915256699335,-16.364923502787665,0.0,0.0,0.0,-44.0576957547935
2025/05/06 15:12:57.238439116,1746537177,237636188,,329.00414982336133,-16.419704777913942,0.0,0.0,0.0,-44.060743790472756
2025/05/06 15:12:57.332754631,1746537177,332306050,,307.69077148119305,-3.2755419959299577,0.0,0.0,0.0,-55.35477346462016
2025/05/06 15:12:57.438429536,1746537177,436882247,,308.8553249211682,-3.340316381176091,0.0,0.0,0.0,-55.35810642000792
2025/05/06 15:12:57.557864046,1746537177,557325076,,310.00977945234854,-3.4045227759317083,0.0,0.0,0.0,-55.36153514274689
2025/05/06 15:12:57.633933152,1746537177,633454340,,311.15438414018473,-3.4681824379818966,0.0,0.0,0.0,-55.36496019448596
2025/05/06 15:12:57.735826788,1746537177,735492344,,312.28922574961945,-3.5312948676271567,0.0,0.0,0.0,-55.36838054806505
2025/05/06 15:12:57.837004490,1746537177,835199035,,313.4143518390458,-3.5938463185776754,0.0,0.0,0.0,-55.371768903577916
2025/05/06 15:12:57.942292451,1746537177,941516102,,314.52989742197667,-3.6558608028092436,0.0,0.0,0.0,-55.375155092530356
2025/05/06 15:12:58.38231078,1746537178,36837761,,315.6359155951684,-3.71734137798121,0.0,0.0,0.0,-55.37853681651512
2025/05/06 15:12:58.141089142,1746537178,140768863,,316.7324688465752,-3.7782894985354325,0.0,0.0,0.0,-55.38191245747487
2025/05/06 15:12:58.232189081,1746537178,230570630,,317.8196602659949,-3.838702971622542,0.0,0.0,0.0,-55.38528458147812
2025/05/06 15:12:58.460580560,1746537178,460094449,,290.9373320426333,-28.632841534566822,0.0,0.0,0.0,-58.31495276501874
2025/05/06 15:12:58.549203120,1746537178,548837108,,295.2560752304464,-38.35372917095601,0.0,0.0,0.0,-63.73124364660384
2025/05/06 15:12:58.594022253,1746537178,593609851,,300.3246026318323,-42.91886189067978,0.0,0.0,0.0,-66.16565317073024
2025/05/06 15:12:58.644266172,1746537178,643748025,,300.3306281201491,-42.91836116682203,0.0,0.0,0.0,-66.16348106731982
2025/05/06 15:12:58.758709550,1746537178,758256309,,301.37705389074017,-42.985729445124896,0.0,0.0,0.0,-66.16636995891787
2025/05/06 15:12:58.832087365,1746537178,831266932,,302.41466148108213,-43.05242123418525,0.0,0.0,0.0,-66.16902717698883
2025/05/06 15:12:58.933612173,1746537178,933073365,,303.4429136692646,-43.118424804946756,0.0,0.0,0.0,-66.17154875493205
2025/05/06 15:12:59.45881175,1746537179,45141325,,304.45755382798006,-43.1839596926663,0.0,0.0,0.0,-66.1752937464718
2025/05/06 15:12:59.134324121,1746537179,130909041,,305.46356619131893,-43.248936045148284,0.0,0.0,0.0,-66.17903875957374
2025/05/06 15:12:59.240077712,1746537179,238190820,,306.46094639819376,-43.31335951996739,0.0,0.0,0.0,-66.1827761014408
2025/05/06 15:12:59.485051713,1746537179,484504226,,269.62544360268464,-78.9198076492995,0.0,0.0,0.0,-58.074417586413446
2025/05/06 15:12:59.617094222,1746537179,616611562,,274.9179080861179,-90.87435147104362,0.0,0.0,0.0,-64.79679559889117
2025/05/06 15:12:59.696168989,1746537179,695525891,,281.4604684206086,-104.0981182230518,0.0,0.0,0.0,-70.45692135126168
2025/05/06 15:12:59.745163719,1746537179,744737022,,286.54284520919765,-115.52055070953124,0.0,0.0,0.0,-76.80648267266224
2025/05/06 15:12:59.830966287,1746537179,830604001,,288.39957335347844,-115.77283272727827,0.0,0.0,0.0,-76.87598773854583
2025/05/06 15:12:59.936990279,1746537179,934899048,,289.343676523098,-115.84208002675477,0.0,0.0,0.0,-76.8790607488138
2025/05/06 15:13:00.58744775,1746537180,56861746,,290.27998915869046,-115.9105254889945,0.0,0.0,0.0,-76.88160337805783
2025/05/06 15:13:00.134013483,1746537180,132708216,,291.20796929167005,-115.97853837279436,0.0,0.0,0.0,-76.88471543423434
2025/05/06 15:13:00.236126599,1746537180,234038537,,292.1281568772582,-116.04601675299878,0.0,0.0,0.0,-76.88783199932917
2025/05/06 15:13:00.338437574,1746537180,338023213,,280.3234348681255,-94.15381734156583,0.0,0.0,0.0,-79.96348776702712
2025/05/06 15:13:00.433688421,1746537180,432303109,,281.22797070749,-94.2224650301865,0.0,0.0,0.0,-79.96678024051573
2025/05/06 15:13:00.541140929,1746537180,538742114,,282.12417508203544,-94.29041772076008,0.0,0.0,0.0,-79.96973898924458
2025/05/06 15:13:00.634733737,1746537180,634279180,,283.0079832354244,-94.35780672800892,0.0,0.0,0.0,-79.9739580562003
2025/05/06 15:13:00.730748000,1746537180,730256135,,283.88426660657603,-94.42462061575024,0.0,0.0,0.0,-79.97817005247043
2025/05/06 15:13:00.862420503,1746537180,840583365,,284.7530459984647,-94.49087000894437,0.0,0.0,0.0,-79.9823820111664
2025/05/06 15:13:00.931183575,1746537180,930777845,,285.6144129441791,-94.55654729213346,0.0,0.0,0.0,-79.98658630124484
2025/05/06 15:13:01.46773788,1746537181,43777260,,286.46842255388026,-94.62166515161468,0.0,0.0,0.0,-79.99079062912243
2025/05/06 15:13:01.135053200,1746537181,134046611,,287.31514077391427,-94.68621810324451,0.0,0.0,0.0,-79.99498728505125
2025/05/06 15:13:01.269351324,1746537181,269036964,,288.1545989947434,-94.75022178406424,0.0,0.0,0.0,-79.99918388458622
2025/05/06 15:13:01.330463730,1746537181,330062729,,280.99960630739326,-38.06102198147702,0.0,0.0,0.0,-76.31291078857146
2025/05/06 15:13:01.441318337,1746537181,439462223,,281.8248194687898,-38.1213426439022,0.0,0.0,0.0,-76.31699462250111
2025/05/06 15:13:01.532729050,1746537181,530684935,,282.6431212852909,-38.181197587419256,0.0,0.0,0.0,-76.32102739539533
2025/05/06 15:13:01.632676287,1746537181,632304764,,283.4544658913479,-38.24053257592708,0.0,0.0,0.0,-76.32505975652603
2025/05/06 15:13:01.734580559,1746537181,733937603,,284.25885515873057,-38.299363904949395,0.0,0.0,0.0,-76.32908446651957
2025/05/06 15:13:01.831247904,1746537181,830906627,,285.0563807244532,-38.357687820021646,0.0,0.0,0.0,-76.33310915497704
2025/05/06 15:13:01.933866477,1746537181,932166197,,285.8470731808412,-38.415515801144124,0.0,0.0,0.0,-76.33712619656515
2025/05/06 15:13:02.31662943,1746537182,31220819,,286.6310206346002,-38.47284239319907,0.0,0.0,0.0,-76.3411353444063
2025/05/06 15:13:02.138037201,1746537182,137693290,,287.4082590584417,-38.5296805110492,0.0,0.0,0.0,-76.34514252439484
2025/05/06 15:13:02.230135260,1746537182,229738406,,288.17888038514786,-38.58603053043656,0.0,0.0,0.0,-76.3491404480359
2025/05/06 15:13:02.333843642,1746537182,333107526,,272.36665921249005,-43.219594875520855,0.0,0.0,0.0,-69.56646295723363
2025/05/06 15:13:02.467243717,1746537182,466594337,,273.12439097317673,-43.27070185042627,0.0,0.0,0.0,-69.57019632404914
2025/05/06 15:13:02.537469344,1746537182,536576694,,273.87568043589215,-43.32138339779696,0.0,0.0,0.0,-69.57391938555092
2025/05/06 15:13:02.631358662,1746537182,630121473,,274.62053173053874,-43.371625518140334,0.0,0.0,0.0,-69.57763483415448
2025/05/06 15:13:02.741027904,1746537182,740684045,,275.3590053768656,-43.42143941138412,0.0,0.0,0.0,-69.5813502559398
2025/05/06 15:13:02.837164633,1746537182,836252899,,259.1441207568348,-67.21856179318432,0.0,0.0,0.0,-65.89498677604033
2025/05/06 15:13:02.937128555,1746537182,936704463,,258.65707846898226,-74.0969528021518,0.0,0.0,0.0,-67.24096305567844
2025/05/06 15:13:03.54191417,1746537183,45485965,,259.36948784539425,-74.17340461636114,0.0,0.0,0.0,-67.25994426551367
2025/05/06 15:13:03.131747924,1746537183,131267081,,260.0888331130453,-74.2197778506646,0.0,0.0,0.0,-67.26150390719512
2025/05/06 15:13:03.235745982,1746537183,233369534,,260.7982650145558,-74.26649658887607,0.0,0.0,0.0,-67.26522676109735
2025/05/06 15:13:03.340464330,1746537183,339610118,,261.4997481729604,-74.31250527388967,0.0,0.0,0.0,-67.26881986798585
2025/05/06 15:13:03.443182015,1746537183,442797708,,262.1952615019291,-74.3581288756014,0.0,0.0,0.0,-67.272412977231
2025/05/06 15:13:03.534777582,1746537183,533121665,,262.8848355058831,-74.40335974750046,0.0,0.0,0.0,-67.27599079169102
2025/05/06 15:13:03.672022117,1746537183,671091540,,263.5685221365578,-74.44820914208789,0.0,0.0,0.0,-67.27956858725747
2025/05/06 15:13:03.736627938,1746537183,736224264,,264.24635190590544,-74.49266944254738,0.0,0.0,0.0,-67.28314637218733
2025/05/06 15:13:03.838731112,1746537183,838274030,,240.25243115911718,-84.23515329697427,0.0,0.0,0.0,-66.12220741863409
2025/05/06 15:13:03.934137684,1746537183,933110400,,238.38722735361435,-84.94449030001324,0.0,0.0,0.0,-66.96236910387776
2025/05/06 15:13:04.36980406,1746537184,34082565,,239.047816809975,-84.98760556020937,0.0,0.0,0.0,-66.96590864061974
2025/05/06 15:13:04.135202129,1746537184,134367130,,239.70276366213062,-85.03035491294375,0.0,0.0,0.0,-66.9694481339024
2025/05/06 15:13:04.231301242,1746537184,230938108,,240.35211457687763,-85.07274643418103,0.0,0.0,0.0,-66.97298766704594
2025/05/06 15:13:04.345013000,1746537184,344560002,,240.9958987350924,-85.11476427502107,0.0,0.0,0.0,-66.9765195885991
2025/05/06 15:13:04.432231576,1746537184,431878623,,241.63419238630297,-85.15643131594308,0.0,0.0,0.0,-66.98004391032315
2025/05/06 15:13:04.537030450,1746537184,536469770,,242.2670107551869,-85.19773993316718,0.0,0.0,0.0,-66.9835682850322
2025/05/06 15:13:04.639713400,1746537184,639210539,,242.89443008719377,-85.23869010377427,0.0,0.0,0.0,-66.9870850512265
2025/05/06 15:13:04.738401187,1746537184,737449064,,243.5164808826267,-85.2792970765264,0.0,0.0,0.0,-66.99059420617928
2025/05/06 15:13:04.866907523,1746537184,864453586,,227.89827531935433,-80.04943600007228,0.0,0.0,0.0,-68.27780782147275
2025/05/06 15:13:04.937789669,1746537184,937309534,,226.63357591468784,-79.24745567146044,0.0,0.0,0.0,-68.72143922552195
2025/05/06 15:13:05.35959383,1746537185,34803524,,227.23973340864308,-79.28784063138716,0.0,0.0,0.0,-68.72500147707387
2025/05/06 15:13:05.131674659,1746537185,130697429,,227.84070513688653,-79.32788988278422,0.0,0.0,0.0,-68.72856369396358
2025/05/06 15:13:05.241968413,1746537185,238239007,,228.43655259257253,-79.36758842847684,0.0,0.0,0.0,-68.73212594455731
2025/05/06 15:13:05.334113765,1746537185,333630920,,229.02729109689415,-79.40695155618555,0.0,0.0,0.0,-68.73568061050841
2025/05/06 15:13:05.448081067,1746537185,447639826,,229.61296620739625,-79.44597153927515,0.0,0.0,0.0,-68.73922766589422
2025/05/06 15:13:05.538475645,1746537185,537016225,,230.1936389296821,-79.48466362883731,0.0,0.0,0.0,-68.74277473823682
2025/05/06 15:13:05.640335762,1746537185,639782189,,230.76933976700658,-79.5230278248163,0.0,0.0,0.0,-68.74632182669177
2025/05/06 15:13:05.731503643,1746537185,731152051,,231.3401297249433,-79.5610565015891,0.0,0.0,0.0,-68.74985367362532
2025/05/06 15:13:05.839946195,1746537185,839605630,,231.9060240555275,-79.59876491027204,0.0,0.0,0.0,-68.7533931634884
2025/05/06 15:13:05.939972629,1746537185,939183698,,224.80871482980513,-65.42429797276728,0.0,0.0,0.0,-73.21061691926151
2025/05/06 15:13:06.70223929,1746537186,69613201,,225.36483644544677,-65.46334240679636,0.0,0.0,0.0,-73.21432440690535
2025/05/06 15:13:06.140341887,1746537186,136092463,,225.916195067813,-65.50204918612405,0.0,0.0,0.0,-73.21802412258907
2025/05/06 15:13:06.241860787,1746537186,241355626,,226.4628251286916,-65.54042774637301,0.0,0.0,0.0,-73.22171619384191
2025/05/06 15:13:06.332814834,1746537186,332420578,,227.0047881264565,-65.5784783140158,0.0,0.0,0.0,-73.22540826336387
2025/05/06 15:13:06.435264686,1746537186,434772908,,227.5421152836032,-65.61620120734842,0.0,0.0,0.0,-73.22909270206262
2025/05/06 15:13:06.538079888,1746537186,537634806,,228.0748370980483,-65.65359642522787,0.0,0.0,0.0,-73.23277713979917
2025/05/06 15:13:06.631804982,1746537186,631396163,,228.60299886736362,-65.69067902187126,0.0,0.0,0.0,-73.236453956764
2025/05/06 15:13:06.746017144,1746537186,745419634,,229.12664647345022,-65.72744143147116,0.0,0.0,0.0,-73.2401307866565
2025/05/06 15:13:06.836160382,1746537186,835750575,,229.64581029939814,-65.76389122416148,0.0,0.0,0.0,-73.24380762469283
2025/05/06 15:13:06.941496131,1746537186,941122261,,217.3523270255998,-74.4636949605414,0.0,0.0,0.0,-81.76022366185111
2025/05/06 15:13:07.34866076,1746537187,33460872,,217.86238694892165,-74.51112748250002,0.0,0.0,0.0,-81.76795578956137
2025/05/06 15:13:07.135760018,1746537187,135403470,,218.36806977760284,-74.55019333877314,0.0,0.0,0.0,-81.77196833484876
2025/05/06 15:13:07.269768606,1746537187,267671479,,218.86943652709755,-74.5889236695655,0.0,0.0,0.0,-81.77596562345882
2025/05/06 15:13:07.339730810,1746537187,339262595,,219.36650244747472,-74.6273184753264,0.0,0.0,0.0,-81.77997054231184
2025/05/06 15:13:07.443077353,1746537187,441602865,,219.85931329168375,-74.66539300746783,0.0,0.0,0.0,-81.78396020705314
2025/05/06 15:13:07.537074206,1746537187,536648338,,220.347914814888,-74.70313201413609,0.0,0.0,0.0,-81.78795750033554
2025/05/06 15:13:07.640304071,1746537187,636025892,,220.8322728273473,-74.74053763795746,0.0,0.0,0.0,-81.79194159716151
2025/05/06 15:13:07.735259632,1746537187,734677244,,221.31253227476208,-74.77763611602006,0.0,0.0,0.0,-81.79593105123816
2025/05/06 15:13:07.838249478,1746537187,837371923,,221.78868728478307,-74.81442103023193,0.0,0.0,0.0,-81.79991272370643
2025/05/06 15:13:07.940278089,1746537187,939857547,,209.25986127866554,-88.73425965308465,0.0,0.0,0.0,-91.82645209656883
2025/05/06 15:13:08.43727498,1746537188,43356838,,209.72175997725378,-88.80028754227118,0.0,0.0,0.0,-91.84409075519098
2025/05/06 15:13:08.138761631,1746537188,138173368,,210.1910445059732,-88.84011926157862,0.0,0.0,0.0,-91.84760396299201
2025/05/06 15:13:08.232588383,1746537188,232026588,,210.6510883829406,-88.87942107983999,0.0,0.0,0.0,-91.85166820385011
2025/05/06 15:13:08.332073553,1746537188,331707209,,211.10689814766806,-88.91846317511589,0.0,0.0,0.0,-91.8560467172252
2025/05/06 15:13:08.471274295,1746537188,470724682,,211.55871923213752,-88.95708086262877,0.0,0.0,0.0,-91.86033700279076
2025/05/06 15:13:08.538733131,1746537188,537838394,,212.00674970627335,-88.99546430961824,0.0,0.0,0.0,-91.8647037354708
2025/05/06 15:13:08.633671372,1746537188,633161443,,212.45105659101068,-89.03360879848394,0.0,0.0,0.0,-91.86915340545099
2025/05/06 15:13:08.753163929,1746537188,749875336,,212.8914223762542,-89.07131092068457,0.0,0.0,0.0,-91.87351143070106
2025/05/06 15:13:08.835491858,1746537188,833193868,,213.32780588192747,-89.10917460918974,0.0,0.0,0.0,-91.87889714635585
2025/05/06 15:13:08.962162258,1746537188,961745431,,200.98914113740722,-110.67123622264283,0.0,0.0,0.0,-92.64446353155222
2025/05/06 15:13:09.33020397,1746537189,32482618,,207.26457188358995,-123.84585954925846,0.0,0.0,0.0,-99.95079757604262
2025/05/06 15:13:09.140739892,1746537189,140308194,,208.04531003576574,-124.78481805039684,0.0,0.0,0.0,-100.45434651061379
2025/05/06 15:13:09.237926979,1746537189,236303589,,208.47251935015262,-124.82423328788164,0.0,0.0,0.0,-100.45831917256817
2025/05/06 15:13:09.336673265,1746537189,336127604,,208.8963927465365,-124.86283594721532,0.0,0.0,0.0,-100.46122955888671
2025/05/06 15:13:09.435037043,1746537189,432069572,,209.3163754088103,-124.90158820255047,0.0,0.0,0.0,-100.46525831406962
2025/05/06 15:13:09.531205754,1746537189,530604071,,209.72904862318435,-124.94046119688738,0.0,0.0,0.0,-100.47093112885221
2025/05/06 15:13:09.673543373,1746537189,673178439,,210.13635832076406,-124.9783897728604,0.0,0.0,0.0,-100.47573003000235
2025/05/06 15:13:09.732011742,1746537189,731661577,,210.54019112476556,-125.01600525535768,0.0,0.0,0.0,-100.48052783277188
2025/05/06 15:13:09.839645652,1746537189,839267629,,210.94098189320758,-125.05241179826874,0.0,0.0,0.0,-100.48338193148011
2025/05/06 15:13:09.935717754,1746537189,933972200,,206.8600295876297,-139.96766248576992,0.0,0.0,0.0,-107.33762000022789
2025/05/06 15:13:10.37594470,1746537190,34227692,,207.24808397868821,-140.03134166716578,0.0,0.0,0.0,-107.35551503986278
2025/05/06 15:13:10.135286404,1746537190,134786834,,207.64342438617015,-140.06946541944717,0.0,0.0,0.0,-107.35840193184329
2025/05/06 15:13:10.240212445,1746537190,239389415,,208.03005259555857,-140.10776287470236,0.0,0.0,0.0,-107.36337443272534
2025/05/06 15:13:10.331674094,1746537190,331386627,,208.4133713520638,-140.1457095452318,0.0,0.0,0.0,-107.36834687988333
2025/05/06 15:13:10.434190259,1746537190,433628760,,208.79341194990428,-140.18335188790465,0.0,0.0,0.0,-107.37331228439446
2025/05/06 15:13:10.535191946,1746537190,533484700,,209.17020496418846,-140.22065946440708,0.0,0.0,0.0,-107.37827833228259
2025/05/06 15:13:10.644410718,1746537190,642456932,,209.54376475621643,-140.25766199704282,0.0,0.0,0.0,-107.38324432370418
2025/05/06 15:13:10.734214667,1746537190,730248185,,209.9141218276186,-140.29434423516264,0.0,0.0,0.0,-107.38820263173149
2025/05/06 15:13:10.861013561,1746537190,860631358,,210.281321931477,-140.3307061789017,0.0,0.0,0.0,-107.39316088534419
2025/05/06 15:13:10.936470663,1746537190,933399320,,206.55419227187028,-128.31719510178343,0.0,0.0,0.0,-103.44158997173216
2025/05/06 15:13:11.33696939,1746537191,32154252,,206.9152281457794,-128.35177217212828,0.0,0.0,0.0,-103.44638172072312
2025/05/06 15:13:11.139182850,1746537191,138634149,,207.27325083705864,-128.38614897221774,0.0,0.0,0.0,-103.45128828030167
2025/05/06 15:13:11.252348976,1746537191,251931170,,207.628133137328,-128.4201821449849,0.0,0.0,0.0,-103.45615026693086
2025/05/06 15:13:11.337116490,1746537191,336620627,,207.97996536325343,-128.45390991913573,0.0,0.0,0.0,-103.46100382139969
2025/05/06 15:13:11.437554562,1746537191,436927469,,208.3287729968018,-128.48734792080575,0.0,0.0,0.0,-103.46585361637055
2025/05/06 15:13:11.543761646,1746537191,540998476,,208.6746042189293,-128.520511224287,0.0,0.0,0.0,-103.47070502896254
2025/05/06 15:13:11.631613412,1746537191,631347337,,209.0174769369259,-128.5533843855967,0.0,0.0,0.0,-103.47555559706574
2025/05/06 15:13:11.745147548,1746537191,744351412,,209.35739114997756,-128.5859826563027,0.0,0.0,0.0,-103.48039769364837
2025/05/06 15:13:11.831627934,1746537191,831144621,,209.69440785646458,-128.61829079452642,0.0,0.0,0.0,-103.48523896887573
2025/05/06 15:13:11.939056132,1746537191,938554429,,204.02574820237493,-94.82932919267995,0.0,0.0,0.0,-95.3746878533998
2025/05/06 15:13:12.62947073,1746537192,62493650,,204.3572425258593,-94.85877367232447,0.0,0.0,0.0,-95.3791124478419
2025/05/06 15:13:12.139224728,1746537192,138814214,,204.68506015191917,-94.8895304082499,0.0,0.0,0.0,-95.38701904662702
2025/05/06 15:13:12.231955493,1746537192,231596695,,205.0108902434876,-94.91850602204796,0.0,0.0,0.0,-95.39150298227928
2025/05/06 15:13:12.334241553,1746537192,332973300,,205.33392975683938,-94.9472297885213,0.0,0.0,0.0,-95.39598624574622
2025/05/06 15:13:12.441066760,1746537192,439475161,,205.6541936914612,-94.97571680854244,0.0,0.0,0.0,-95.40046113694241
2025/05/06 15:13:12.543141621,1746537192,542631279,,205.97172779797074,-95.00395183741297,0.0,0.0,0.0,-95.40493529823642
2025/05/06 15:13:12.635552393,1746537192,635127506,,206.2865290214827,-95.03195024252413,0.0,0.0,0.0,-95.40940374493869
2025/05/06 15:13:12.736193451,1746537192,735767127,,206.5986273680781,-95.05971204529698,0.0,0.0,0.0,-95.41388216792961
2025/05/06 15:13:12.843110009,1746537192,834482928,,206.9080569457779,-95.08722948886538,0.0,0.0,0.0,-95.41835220064331
