time,header_stamp_secs,header_stamp_nsecs,header_frame_id,wrench_force_x,wrench_force_y,wrench_force_z,wrench_torque_x,wrench_torque_y,wrench_torque_z
2025/05/06 15:12:22.37614971,1746537142,36556242,stern_starboard_thruster,0.003535533905932738,-0.0035355339059327372,0.0,0.0,0.0,0.0
2025/05/06 15:12:22.131687348,1746537142,130772144,stern_starboard_thruster,0.003535533905932738,-0.0035355339059327372,0.0,0.0,0.0,0.0
2025/05/06 15:12:22.231724765,1746537142,230932428,stern_starboard_thruster,0.003535533905932738,-0.0035355339059327372,0.0,0.0,0.0,0.0
2025/05/06 15:12:22.332304658,1746537142,332208889,stern_starboard_thruster,0.003535533905932738,-0.0035355339059327372,0.0,0.0,0.0,0.0
2025/05/06 15:12:22.430968957,1746537142,430728282,stern_starboard_thruster,0.003535533905932738,-0.0035355339059327372,0.0,0.0,0.0,0.0
2025/05/06 15:12:22.533194477,1746537142,531575887,stern_starboard_thruster,0.003535533905932738,-0.0035355339059327372,0.0,0.0,0.0,0.0
2025/05/06 15:12:22.634292916,1746537142,633288995,stern_starboard_thruster,0.003535533905932738,-0.0035355339059327372,0.0,0.0,0.0,0.0
2025/05/06 15:12:22.739746359,1746537142,738954640,stern_starboard_thruster,0.003535533905932738,-0.0035355339059327372,0.0,0.0,0.0,0.0
2025/05/06 15:12:22.865231991,1746537142,865120589,stern_starboard_thruster,0.003535533905932738,-0.0035355339059327372,0.0,0.0,0.0,0.0
2025/05/06 15:12:22.942596581,1746537142,942038014,stern_starboard_thruster,0.003535533905932738,-0.0035355339059327372,0.0,0.0,0.0,0.0
2025/05/06 15:12:23.114380361,1746537143,112319397,stern_starboard_thruster,0.003535533905932738,-0.0035355339059327372,0.0,0.0,0.0,0.0
2025/05/06 15:12:23.211325016,1746537143,210688138,stern_starboard_thruster,0.003535533905932738,-0.0035355339059327372,0.0,0.0,0.0,0.0
2025/05/06 15:12:23.286935444,1746537143,283761479,stern_starboard_thruster,0.003535533905932738,-0.0035355339059327372,0.0,0.0,0.0,0.0
2025/05/06 15:12:23.424155035,1746537143,421636639,stern_starboard_thruster,0.003535533905932738,-0.0035355339059327372,0.0,0.0,0.0,0.0
2025/05/06 15:12:23.549315960,1746537143,547983200,stern_starboard_thruster,0.003535533905932738,-0.0035355339059327372,0.0,0.0,0.0,0.0
2025/05/06 15:12:23.666968925,1746537143,659543414,stern_starboard_thruster,0.003535533905932738,-0.0035355339059327372,0.0,0.0,0.0,0.0
2025/05/06 15:12:23.790799586,1746537143,778989209,stern_starboard_thruster,0.003535533905932738,-0.0035355339059327372,0.0,0.0,0.0,0.0
2025/05/06 15:12:23.875660032,1746537143,872324121,stern_starboard_thruster,0.003535533905932738,-0.0035355339059327372,0.0,0.0,0.0,0.0
2025/05/06 15:12:23.967110581,1746537143,966836687,stern_starboard_thruster,0.003535533905932738,-0.0035355339059327372,0.0,0.0,0.0,0.0
2025/05/06 15:12:24.89664194,1746537144,89176399,stern_starboard_thruster,0.0005840818021448703,-0.02999992163452039,0.0,0.0,0.0,0.0
2025/05/06 15:12:24.251750696,1746537144,239162212,stern_starboard_thruster,0.0005834828693053714,-0.0403078051682011,0.0,0.0,0.0,0.0
2025/05/06 15:12:24.340405108,1746537144,338191161,stern_starboard_thruster,0.0005840484727339027,-0.040307975446250206,0.0,0.0,0.0,0.0
2025/05/06 15:12:24.445615561,1746537144,440515808,stern_starboard_thruster,0.0005840484721752469,-0.040307975446027426,0.0,0.0,0.0,0.0
2025/05/06 15:12:24.582546767,1746537144,535457520,stern_starboard_thruster,0.0005844428798800508,-0.04030809180488957,0.0,0.0,0.0,0.0
2025/05/06 15:12:24.654995653,1746537144,654270438,stern_starboard_thruster,0.0005844428795000991,-0.04030809180473761,0.0,0.0,0.0,0.0
2025/05/06 15:12:24.785369869,1746537144,760733825,stern_starboard_thruster,0.0005848372105564355,-0.040308212911586316,0.0,0.0,0.0,0.0
2025/05/06 15:12:24.867940470,1746537144,848094995,stern_starboard_thruster,0.0005848372101663018,-0.040308212911429435,0.0,0.0,0.0,0.0
2025/05/06 15:12:24.959704103,1746537144,953022186,stern_starboard_thruster,0.0005852314910629526,-0.04030832923460302,0.0,0.0,0.0,0.0
2025/05/06 15:12:25.64215743,1746537145,63074685,stern_starboard_thruster,0.0005852314906924347,-0.04030832923445309,0.0,0.0,0.0,0.0
2025/05/06 15:12:25.224125504,1746537145,205333675,stern_starboard_thruster,0.0007520587937609284,-0.021554817037915033,0.0,0.0,0.0,0.0
2025/05/06 15:12:25.280544561,1746537145,274900568,stern_starboard_thruster,0.0007520587374577691,-0.021554817058376044,0.0,0.0,0.0,0.0
2025/05/06 15:12:25.420028078,1746537145,404449409,stern_starboard_thruster,0.0007524750679173993,-0.021554883781957877,0.0,0.0,0.0,0.0
2025/05/06 15:12:25.616126172,1746537145,586232495,stern_starboard_thruster,0.0007524750679174135,-0.02155488378195761,0.0,0.0,0.0,0.0
2025/05/06 15:12:25.774794391,1746537145,736496959,stern_starboard_thruster,0.0005924904366880022,-0.010457332679627358,0.0,0.0,0.0,0.0
2025/05/06 15:12:25.867223819,1746537145,854581282,stern_starboard_thruster,0.0005926950189859332,-0.010457349359386919,0.0,0.0,0.0,0.0
2025/05/06 15:12:26.416404,1746537145,999454273,stern_starboard_thruster,0.0005928995826669618,-0.01045736603914332,0.0,0.0,0.0,0.0
2025/05/06 15:12:26.63213208,1746537146,60516305,stern_starboard_thruster,0.0005928995826668549,-0.01045736603914361,0.0,0.0,0.0,0.0
2025/05/06 15:12:26.425227763,1746537146,242316990,stern_starboard_thruster,0.0005933087472639635,-0.010457400590139377,0.0,0.0,0.0,0.0
2025/05/06 15:12:26.485014470,1746537146,357073303,stern_starboard_thruster,0.0005933087472638437,-0.01045740059014002,0.0,0.0,0.0,0.0
2025/05/06 15:12:26.774708947,1746537146,673686948,stern_starboard_thruster,0.0007949869930136818,-0.03547448487887538,0.0,0.0,0.0,0.0
2025/05/06 15:12:26.877707779,1746537146,834927043,stern_starboard_thruster,0.000805070550315793,-0.060483212121023304,0.0,0.0,0.0,0.0
2025/05/06 15:12:26.952590392,1746537146,944985910,stern_starboard_thruster,0.0007805362855832041,-0.07656057832637118,0.0,0.0,0.0,0.0
2025/05/06 15:12:27.75669070,1746537147,74187499,stern_starboard_thruster,0.0007809302525518392,-0.07656082434123135,0.0,0.0,0.0,0.0
2025/05/06 15:12:27.236908760,1746537147,231437746,stern_starboard_thruster,0.0007809302527089901,-0.07656082434149028,0.0,0.0,0.0,0.0
2025/05/06 15:12:27.326231123,1746537147,323121442,stern_starboard_thruster,0.0007815062262648611,-0.07656117543214601,0.0,0.0,0.0,0.0
2025/05/06 15:12:27.427598494,1746537147,423310521,stern_starboard_thruster,0.0007815062264948239,-0.0765611754325223,0.0,0.0,0.0,0.0
2025/05/06 15:12:27.499687169,1746537147,498506574,stern_starboard_thruster,0.0007815062264956859,-0.07656117543252257,0.0,0.0,0.0,0.0
2025/05/06 15:12:27.554650696,1746537147,552604536,stern_starboard_thruster,0.0013213824921105952,-0.061666926304148495,0.0,0.0,0.0,0.0
2025/05/06 15:12:27.672637505,1746537147,671539373,stern_starboard_thruster,0.0013215663348642881,-0.0616670217500956,0.0,0.0,0.0,0.0
2025/05/06 15:12:27.759595543,1746537147,758947282,stern_starboard_thruster,0.0013217580234178008,-0.0616671123333314,0.0,0.0,0.0,0.0
2025/05/06 15:12:27.868758666,1746537147,862016126,stern_starboard_thruster,0.0013219495592516276,-0.06166720768154365,0.0,0.0,0.0,0.0
2025/05/06 15:12:27.961143034,1746537147,960738297,stern_starboard_thruster,0.0013221410914420221,-0.061667298262794004,0.0,0.0,0.0,0.0
2025/05/06 15:12:28.65096581,1746537148,63674987,stern_starboard_thruster,0.0013223326201138178,-0.06166739360909581,0.0,0.0,0.0,0.0
2025/05/06 15:12:28.149720703,1746537148,148217921,stern_starboard_thruster,0.0013225241454004153,-0.061667484188508793,0.0,0.0,0.0,0.0
2025/05/06 15:12:28.247420617,1746537148,244891328,stern_starboard_thruster,0.0013227158163515915,-0.06166757953304311,0.0,0.0,0.0,0.0
2025/05/06 15:12:28.394001362,1746537148,393796924,stern_starboard_thruster,0.0013229073381291702,-0.06166767011075649,0.0,0.0,0.0,0.0
2025/05/06 15:12:28.447599658,1746537148,447306838,stern_starboard_thruster,0.0013229073381343657,-0.06166767011075648,0.0,0.0,0.0,0.0
2025/05/06 15:12:28.543143329,1746537148,542081641,stern_starboard_thruster,0.0006280251846651193,-0.022205294450620992,0.0,0.0,0.0,0.0
2025/05/06 15:12:28.636922930,1746537148,634497137,stern_starboard_thruster,0.0006282160209461574,-0.02220532938655459,0.0,0.0,0.0,0.0
2025/05/06 15:12:28.740822627,1746537148,739091381,stern_starboard_thruster,0.0006284067945073065,-0.022205365138705826,0.0,0.0,0.0,0.0
2025/05/06 15:12:28.836021350,1746537148,835754229,stern_starboard_thruster,0.0006285975622561028,-0.022205398507864075,0.0,0.0,0.0,0.0
2025/05/06 15:12:28.959581712,1746537148,958172162,stern_starboard_thruster,0.0006287882985915934,-0.022205434260019526,0.0,0.0,0.0,0.0
2025/05/06 15:12:29.53284277,1746537149,50760925,stern_starboard_thruster,0.0006289790663490053,-0.022205467629181522,0.0,0.0,0.0,0.0
2025/05/06 15:12:29.144563038,1746537149,142913791,stern_starboard_thruster,0.04800264525941981,-0.0087188363074922,0.0,0.0,0.0,0.0
2025/05/06 15:12:29.242030147,1746537149,240089824,stern_starboard_thruster,0.07498063275635118,-0.011061136369663542,0.0,0.0,0.0,0.0
2025/05/06 15:12:29.349343116,1746537149,347089874,stern_starboard_thruster,0.10154648045976282,-0.053999387730240135,0.0,0.0,0.0,0.0
2025/05/06 15:12:29.434377445,1746537149,433958146,stern_starboard_thruster,0.1403285195082079,-0.06959794470652506,0.0,0.0,0.0,0.0
2025/05/06 15:12:29.595974726,1746537149,594772234,stern_starboard_thruster,0.18217400617440813,-0.07399800722071255,0.0,0.0,0.0,0.0
2025/05/06 15:12:29.761819904,1746537149,761519772,stern_starboard_thruster,0.22183428937296223,-0.07720984707630171,0.0,0.0,0.0,0.0
2025/05/06 15:12:29.932388851,1746537149,931934944,stern_starboard_thruster,0.2600377931969803,-0.08009985560496664,0.0,0.0,0.0,0.0
2025/05/06 15:12:30.93794192,1746537150,93519277,stern_starboard_thruster,0.2971386214577325,-0.08277883500950699,0.0,0.0,0.0,0.0
2025/05/06 15:12:30.189211766,1746537150,187608737,stern_starboard_thruster,0.3334591708421133,-0.08452591795344183,0.0,0.0,0.0,0.0
2025/05/06 15:12:30.241596723,1746537150,235378118,stern_starboard_thruster,0.3688543841143019,-0.0868319641674879,0.0,0.0,0.0,0.0
2025/05/06 15:12:30.331812054,1746537150,331365371,stern_starboard_thruster,0.35631844216155023,-0.05140675793046157,0.0,0.0,0.0,0.0
2025/05/06 15:12:30.437922980,1746537150,435663705,stern_starboard_thruster,0.3385513802135457,-0.040399935559122295,0.0,0.0,0.0,0.0
2025/05/06 15:12:30.536304891,1746537150,533871720,stern_starboard_thruster,0.32805885149153974,-0.03373902860628835,0.0,0.0,0.0,0.0
2025/05/06 15:12:30.642153076,1746537150,640459000,stern_starboard_thruster,0.3321873925055014,-0.03347594911935034,0.0,0.0,0.0,0.0
2025/05/06 15:12:30.735276311,1746537150,733901381,stern_starboard_thruster,0.33658562672564607,-0.033232448333047254,0.0,0.0,0.0,0.0
2025/05/06 15:12:30.852344086,1746537150,851985328,stern_starboard_thruster,0.34124781985493075,-0.033005254549582454,0.0,0.0,0.0,0.0
2025/05/06 15:12:30.965744111,1746537150,963034130,stern_starboard_thruster,0.3461747926221831,-0.03279524766593531,0.0,0.0,0.0,0.0
2025/05/06 15:12:31.37576351,1746537151,37041242,stern_starboard_thruster,0.3513674772393195,-0.03260288456180114,0.0,0.0,0.0,0.0
2025/05/06 15:12:31.140662259,1746537151,137055895,stern_starboard_thruster,0.3568253355549868,-0.03242767217247737,0.0,0.0,0.0,0.0
2025/05/06 15:12:31.238204407,1746537151,237080213,stern_starboard_thruster,0.36254845326070034,-0.03226911519234279,0.0,0.0,0.0,0.0
2025/05/06 15:12:31.344568565,1746537151,343727990,stern_starboard_thruster,0.3685368307002389,-0.03212664456857256,0.0,0.0,0.0,0.0
2025/05/06 15:12:31.438129462,1746537151,436691556,stern_starboard_thruster,0.3741945472316368,3.8100432710604536e-07,0.0,0.0,0.0,0.0
2025/05/06 15:12:31.538545188,1746537151,537217673,stern_starboard_thruster,0.38071475380757125,8.265620261079043e-07,0.0,0.0,0.0,0.0
2025/05/06 15:12:31.633378772,1746537151,632348899,stern_starboard_thruster,0.3874989465981678,6.445191552141207e-07,0.0,0.0,0.0,0.0
2025/05/06 15:12:31.739618268,1746537151,739121037,stern_starboard_thruster,0.3945507586188838,1.3113356086920831e-06,0.0,0.0,0.0,0.0
2025/05/06 15:12:31.833616756,1746537151,833374583,stern_starboard_thruster,0.40186633481504436,1.4027054826526017e-06,0.0,0.0,0.0,0.0
2025/05/06 15:12:31.934642811,1746537151,934246704,stern_starboard_thruster,0.40944731816109264,1.5020604915496538e-06,0.0,0.0,0.0,0.0
2025/05/06 15:12:32.34673353,1746537152,32763179,stern_starboard_thruster,0.4172911849925387,5.06825549870242e-07,0.0,0.0,0.0,0.0
2025/05/06 15:12:32.175354389,1746537152,174798005,stern_starboard_thruster,0.42540272458756656,5.248173041170728e-07,0.0,0.0,0.0,0.0
2025/05/06 15:12:32.236886026,1746537152,235789235,stern_starboard_thruster,0.433782720194462,1.8666035030164036e-06,0.0,0.0,0.0,0.0
2025/05/06 15:12:32.335450416,1746537152,335049628,stern_starboard_thruster,0.4320827593857664,1.8131965227420972e-06,0.0,0.0,0.0,0.0
2025/05/06 15:12:32.438806205,1746537152,437602434,stern_starboard_thruster,0.4395343048977289,3.263683347512313e-06,0.0,0.0,0.0,0.0
2025/05/06 15:12:32.535651801,1746537152,535147467,stern_starboard_thruster,0.4486989994993279,5.296315988528077e-07,0.0,0.0,0.0,0.0
2025/05/06 15:12:32.639770296,1746537152,636761658,stern_starboard_thruster,0.4581374931133193,6.070625609053055e-07,0.0,0.0,0.0,0.0
2025/05/06 15:12:32.733478005,1746537152,732056386,stern_starboard_thruster,0.4678421836933178,6.133731931085572e-07,0.0,0.0,0.0,0.0
2025/05/06 15:12:32.839046361,1746537152,838769025,stern_starboard_thruster,0.4778117893298402,5.177681393597712e-07,0.0,0.0,0.0,0.0
2025/05/06 15:12:32.937333176,1746537152,935469997,stern_starboard_thruster,0.4880460131966758,5.12760307658477e-07,0.0,0.0,0.0,0.0
2025/05/06 15:12:33.38849725,1746537153,38218596,stern_starboard_thruster,0.49854467261658925,5.135557235118839e-07,0.0,0.0,0.0,0.0
2025/05/06 15:12:33.132263940,1746537153,130906873,stern_starboard_thruster,0.50930844127277,5.341315749862987e-07,0.0,0.0,0.0,0.0
2025/05/06 15:12:33.236938315,1746537153,236275893,stern_starboard_thruster,0.5203421600954696,9.129479514388596e-07,0.0,0.0,0.0,0.0
2025/05/06 15:12:33.372136552,1746537153,369094324,stern_starboard_thruster,0.512519825948537,5.209028016095821e-07,0.0,0.0,0.0,0.0
2025/05/06 15:12:33.440943838,1746537153,439000434,stern_starboard_thruster,0.522211069452371,4.741603176217495e-07,0.0,0.0,0.0,0.0
2025/05/06 15:12:33.544681612,1746537153,542392550,stern_starboard_thruster,0.5340381196480043,4.5537570496596985e-07,0.0,0.0,0.0,0.0
2025/05/06 15:12:33.637579545,1746537153,636188168,stern_starboard_thruster,0.5461307876483629,4.519717350777718e-07,0.0,0.0,0.0,0.0
2025/05/06 15:12:33.741617546,1746537153,738873074,stern_starboard_thruster,0.5551995180282724,4.4338898440578995e-07,0.0,0.0,0.0,0.0
2025/05/06 15:12:33.836636014,1746537153,834692845,stern_starboard_thruster,0.5587669365423128,4.4051335459386603e-07,0.0,0.0,0.0,0.0
2025/05/06 15:12:33.942219853,1746537153,941864346,stern_starboard_thruster,0.5588420430614426,4.427732435849688e-07,0.0,0.0,0.0,0.0
2025/05/06 15:12:34.32836960,1746537154,31925055,stern_starboard_thruster,0.556824664803255,4.4380689331462494e-07,0.0,0.0,0.0,0.0
2025/05/06 15:12:34.143195892,1746537154,141914200,stern_starboard_thruster,0.5536845204678218,4.509426079781763e-07,0.0,0.0,0.0,0.0
2025/05/06 15:12:34.235117280,1746537154,232609730,stern_starboard_thruster,0.5500879041466002,4.58699998499366e-07,0.0,0.0,0.0,0.0
2025/05/06 15:12:34.333075855,1746537154,332130433,stern_starboard_thruster,0.5464872811490517,4.625804667600884e-07,0.0,0.0,0.0,0.0
2025/05/06 15:12:34.549171269,1746537154,547840527,stern_starboard_thruster,0.4300905258085454,5.201312310540657e-07,0.0,0.0,0.0,0.0
2025/05/06 15:12:34.706059120,1746537154,701427800,stern_starboard_thruster,0.4174796891258321,1.829681361093327e-06,0.0,0.0,0.0,0.0
2025/05/06 15:12:34.752645081,1746537154,752093770,stern_starboard_thruster,0.42759771659386303,4.807233145027461e-07,0.0,0.0,0.0,0.0
2025/05/06 15:12:34.840888912,1746537154,840583951,stern_starboard_thruster,0.4526002067734373,1.3598324420753597e-06,0.0,0.0,0.0,0.0
2025/05/06 15:12:34.933938651,1746537154,933246717,stern_starboard_thruster,0.47759995445814957,5.958872475932136e-07,0.0,0.0,0.0,0.0
2025/05/06 15:12:35.46568685,1746537155,45307366,stern_starboard_thruster,0.5025997898308169,5.437909466046625e-07,0.0,0.0,0.0,0.0
2025/05/06 15:12:35.135686068,1746537155,134016674,stern_starboard_thruster,0.514975071155776,5.137763617467299e-07,0.0,0.0,0.0,0.0
2025/05/06 15:12:35.232311303,1746537155,231978276,stern_starboard_thruster,0.5170658404754789,5.140209727908143e-07,0.0,0.0,0.0,0.0
2025/05/06 15:12:35.453463030,1746537155,452229440,stern_starboard_thruster,0.542065885426086,-0.0934385495024321,0.0,0.0,0.0,0.0
2025/05/06 15:12:35.498330816,1746537155,497468659,stern_starboard_thruster,0.5535965670386584,-0.10843748442210684,0.0,0.0,0.0,0.0
2025/05/06 15:12:35.544974703,1746537155,544339684,stern_starboard_thruster,0.5650786776345113,-0.14084396611258945,0.0,0.0,0.0,0.0
2025/05/06 15:12:35.631615338,1746537155,630798321,stern_starboard_thruster,0.5491264262014747,-0.13191323422621434,0.0,0.0,0.0,0.0
2025/05/06 15:12:35.740320365,1746537155,737252920,stern_starboard_thruster,0.5343286109809235,-0.12317762985886005,0.0,0.0,0.0,0.0
2025/05/06 15:12:35.860101004,1746537155,859801129,stern_starboard_thruster,0.5205393424522545,-0.11466752692079091,0.0,0.0,0.0,0.0
2025/05/06 15:12:35.943906865,1746537155,943525302,stern_starboard_thruster,0.5198251375506833,-0.1117608445241134,0.0,0.0,0.0,0.0
2025/05/06 15:12:36.40196126,1746537156,39642791,stern_starboard_thruster,0.5263399766633828,-0.11187179463373353,0.0,0.0,0.0,0.0
2025/05/06 15:12:36.140907594,1746537156,140410554,stern_starboard_thruster,0.5332728725860959,-0.11198384830570758,0.0,0.0,0.0,0.0
2025/05/06 15:12:36.235846717,1746537156,231936380,stern_starboard_thruster,0.5405971414873816,-0.11209691576539932,0.0,0.0,0.0,0.0
2025/05/06 15:12:36.411301701,1746537156,410716928,stern_starboard_thruster,0.45039044586834537,-2.240905561067251e-07,0.0,0.0,0.0,0.0
2025/05/06 15:12:36.459499712,1746537156,457217602,stern_starboard_thruster,0.4709259198061775,5.887198851286554e-07,0.0,0.0,0.0,0.0
2025/05/06 15:12:36.535027961,1746537156,534472961,stern_starboard_thruster,0.4950846855509744,4.251961223006353e-07,0.0,0.0,0.0,0.0
2025/05/06 15:12:36.643515800,1746537156,637875247,stern_starboard_thruster,0.5200842937942436,6.274712029799945e-07,0.0,0.0,0.0,0.0
2025/05/06 15:12:36.739912437,1746537156,739236850,stern_starboard_thruster,0.5427949864548314,5.232619665802326e-07,0.0,0.0,0.0,0.0
2025/05/06 15:12:36.843690996,1746537156,841541948,stern_starboard_thruster,0.5519747958686144,5.235236377652745e-07,0.0,0.0,0.0,0.0
2025/05/06 15:12:36.931823218,1746537156,931379433,stern_starboard_thruster,0.561392211868318,5.162306714524229e-07,0.0,0.0,0.0,0.0
2025/05/06 15:12:37.64158505,1746537157,63242096,stern_starboard_thruster,0.5710296419873067,5.063307257311258e-07,0.0,0.0,0.0,0.0
2025/05/06 15:12:37.133716029,1746537157,131316960,stern_starboard_thruster,0.5808709022473451,7.899856652664937e-07,0.0,0.0,0.0,0.0
2025/05/06 15:12:37.239879222,1746537157,239647389,stern_starboard_thruster,0.5908982663504648,4.793922282382383e-07,0.0,0.0,0.0,0.0
2025/05/06 15:12:37.335513004,1746537157,333720989,stern_starboard_thruster,0.6010984433149389,4.6831973225606476e-07,0.0,0.0,0.0,0.0
2025/05/06 15:12:37.435622763,1746537157,435398554,stern_starboard_thruster,0.5509823526036477,5.022091215127085e-07,0.0,0.0,0.0,0.0
2025/05/06 15:12:37.538424360,1746537157,536379509,stern_starboard_thruster,0.5759819421399441,1.0278858302606068e-06,0.0,0.0,0.0,0.0
2025/05/06 15:12:37.635297362,1746537157,633719864,stern_starboard_thruster,0.5970459262981446,4.583489944454822e-07,0.0,0.0,0.0,0.0
2025/05/06 15:12:37.736966576,1746537157,735085359,stern_starboard_thruster,0.6078004002529901,4.3770048573439903e-07,0.0,0.0,0.0,0.0
2025/05/06 15:12:37.835532321,1746537157,834148378,stern_starboard_thruster,0.6186631917431891,4.240032136935766e-07,0.0,0.0,0.0,0.0
2025/05/06 15:12:37.941990208,1746537157,940628804,stern_starboard_thruster,0.6296234535280075,4.232039162373502e-07,0.0,0.0,0.0,0.0
2025/05/06 15:12:38.32200960,1746537158,31643131,stern_starboard_thruster,0.6406712149012564,4.32840462261605e-07,0.0,0.0,0.0,0.0
2025/05/06 15:12:38.178881230,1746537158,173068371,stern_starboard_thruster,0.6517967218706572,4.4127202409141536e-07,0.0,0.0,0.0,0.0
2025/05/06 15:12:38.267383042,1746537158,265698834,stern_starboard_thruster,0.662991092347021,4.4675337400139534e-07,0.0,0.0,0.0,0.0
2025/05/06 15:12:38.333892932,1746537158,332569520,stern_starboard_thruster,0.6742457801791197,4.4638580966252165e-07,0.0,0.0,0.0,0.0
2025/05/06 15:12:38.433079501,1746537158,431602524,stern_starboard_thruster,0.659392623584794,-0.045856364360226394,0.0,0.0,0.0,0.0
2025/05/06 15:12:38.552210378,1746537158,551249829,stern_starboard_thruster,0.6570853694568287,-0.03992852251104527,0.0,0.0,0.0,0.0
2025/05/06 15:12:38.632344257,1746537158,631694976,stern_starboard_thruster,0.6637928128845879,-0.03796919013457074,0.0,0.0,0.0,0.0
2025/05/06 15:12:38.738477403,1746537158,737180349,stern_starboard_thruster,0.6752101772435809,-0.038090025515337064,0.0,0.0,0.0,0.0
2025/05/06 15:12:38.839023532,1746537158,837164606,stern_starboard_thruster,0.6866502933378269,-0.0382103504783272,0.0,0.0,0.0,0.0
2025/05/06 15:12:38.934255917,1746537158,933626636,stern_starboard_thruster,0.6981080633477348,-0.03833019931096929,0.0,0.0,0.0,0.0
2025/05/06 15:12:39.35715469,1746537159,34336503,stern_starboard_thruster,0.7095775351970416,-0.038449551107533356,0.0,0.0,0.0,0.0
2025/05/06 15:12:39.142397042,1746537159,141910979,stern_starboard_thruster,0.7210532281555048,-0.03856837179001092,0.0,0.0,0.0,0.0
2025/05/06 15:12:39.236182807,1746537159,233223051,stern_starboard_thruster,0.7325297494629327,-0.03868665247485214,0.0,0.0,0.0,0.0
2025/05/06 15:12:39.340806892,1746537159,340619988,stern_starboard_thruster,0.7440027244116096,-0.03880434810180616,0.0,0.0,0.0,0.0
2025/05/06 15:12:39.593870248,1746537159,592157533,stern_starboard_thruster,0.7701028437399781,-0.20003724203067624,0.0,0.0,0.0,0.0
2025/05/06 15:12:39.683231078,1746537159,682351279,stern_starboard_thruster,0.8206590238510562,-0.23793255581772246,0.0,0.0,0.0,0.0
2025/05/06 15:12:39.801008374,1746537159,798795486,stern_starboard_thruster,0.8794546030355471,-0.2627083510455827,0.0,0.0,0.0,0.0
2025/05/06 15:12:39.852384308,1746537159,850851339,stern_starboard_thruster,0.8905252983504285,-0.27545974535054446,0.0,0.0,0.0,0.0
2025/05/06 15:12:39.935403372,1746537159,934936111,stern_starboard_thruster,0.9108579787965603,-0.27472410005935416,0.0,0.0,0.0,0.0
2025/05/06 15:12:40.49925775,1746537160,49161361,stern_starboard_thruster,0.9085379836233419,-0.268735770519823,0.0,0.0,0.0,0.0
2025/05/06 15:12:40.133830310,1746537160,131684912,stern_starboard_thruster,0.906150722754093,-0.26273191740831736,0.0,0.0,0.0,0.0
2025/05/06 15:12:40.234772708,1746537160,233214566,stern_starboard_thruster,0.9036917146184571,-0.2567113536439959,0.0,0.0,0.0,0.0
2025/05/06 15:12:40.348209982,1746537160,337180530,stern_starboard_thruster,0.8350040267692392,-0.08768795187588924,0.0,0.0,0.0,0.0
2025/05/06 15:12:40.435228865,1746537160,433499263,stern_starboard_thruster,0.8209536315023044,-0.06676281548478895,0.0,0.0,0.0,0.0
2025/05/06 15:12:40.542809428,1746537160,541243581,stern_starboard_thruster,0.818248008495476,-0.060728307934355685,0.0,0.0,0.0,0.0
2025/05/06 15:12:40.640007166,1746537160,637912115,stern_starboard_thruster,0.8154475974815533,-0.05467126468786214,0.0,0.0,0.0,0.0
2025/05/06 15:12:40.768381435,1746537160,767854855,stern_starboard_thruster,0.8207642502998467,-0.05224330987679804,0.0,0.0,0.0,0.0
2025/05/06 15:12:40.831838205,1746537160,831455639,stern_starboard_thruster,0.8317573271338059,-0.05236181204640995,0.0,0.0,0.0,0.0
2025/05/06 15:12:40.946073082,1746537160,945022619,stern_starboard_thruster,0.8426989999314798,-0.05247950727782334,0.0,0.0,0.0,0.0
2025/05/06 15:12:41.32650614,1746537161,31640094,stern_starboard_thruster,0.8535873359899391,-0.052596418652709545,0.0,0.0,0.0,0.0
2025/05/06 15:12:41.139745012,1746537161,139207523,stern_starboard_thruster,0.8644184498264332,-0.05271252636482035,0.0,0.0,0.0,0.0
2025/05/06 15:12:41.242284039,1746537161,237595117,stern_starboard_thruster,0.8751935220383291,-0.05282779419264577,0.0,0.0,0.0,0.0
2025/05/06 15:12:41.341187844,1746537161,340440760,stern_starboard_thruster,0.8367474998595137,4.984505366971245e-07,0.0,0.0,0.0,0.0
2025/05/06 15:12:41.433973626,1746537161,432782965,stern_starboard_thruster,0.8477250884536617,4.860910244355136e-07,0.0,0.0,0.0,0.0
2025/05/06 15:12:41.536613791,1746537161,535209099,stern_starboard_thruster,0.8583273815410466,4.319089343709592e-07,0.0,0.0,0.0,0.0
2025/05/06 15:12:41.634643852,1746537161,633746766,stern_starboard_thruster,0.8688683150969639,3.9848789685992305e-07,0.0,0.0,0.0,0.0
2025/05/06 15:12:41.732077670,1746537161,731077026,stern_starboard_thruster,0.8793475901422692,3.8238780226970645e-07,0.0,0.0,0.0,0.0
2025/05/06 15:12:41.844810070,1746537161,842993455,stern_starboard_thruster,0.8897616209924618,9.047494473801458e-07,0.0,0.0,0.0,0.0
2025/05/06 15:12:41.961848975,1746537161,960578479,stern_starboard_thruster,0.9001156640830018,8.752162466372359e-07,0.0,0.0,0.0,0.0
2025/05/06 15:12:42.45300028,1746537162,45090214,stern_starboard_thruster,0.9104061586561111,7.840542268739719e-07,0.0,0.0,0.0,0.0
2025/05/06 15:12:42.136345688,1746537162,136130578,stern_starboard_thruster,0.9206327446271277,6.002701644976629e-07,0.0,0.0,0.0,0.0
2025/05/06 15:12:42.242368609,1746537162,241723048,stern_starboard_thruster,0.9307927850309516,8.297097695690623e-07,0.0,0.0,0.0,0.0
2025/05/06 15:12:42.333534870,1746537162,331363397,stern_starboard_thruster,0.9408882099845937,8.083515926748431e-07,0.0,0.0,0.0,0.0
2025/05/06 15:12:42.436653310,1746537162,436190438,stern_starboard_thruster,0.9086946373820254,7.604258384844983e-07,0.0,0.0,0.0,0.0
2025/05/06 15:12:42.540580763,1746537162,539866862,stern_starboard_thruster,0.918658696322073,2.652579790859273e-07,0.0,0.0,0.0,0.0
2025/05/06 15:12:42.635577301,1746537162,634158813,stern_starboard_thruster,0.9285530805116833,3.044969138917224e-07,0.0,0.0,0.0,0.0
2025/05/06 15:12:42.746969371,1746537162,744614527,stern_starboard_thruster,0.9383804730241976,3.5353658777468705e-07,0.0,0.0,0.0,0.0
2025/05/06 15:12:42.845814389,1746537162,844985949,stern_starboard_thruster,0.9481402774594713,8.339823674997797e-07,0.0,0.0,0.0,0.0
2025/05/06 15:12:42.938313145,1746537162,938182734,stern_starboard_thruster,0.9578316162028387,1.035856373373393e-06,0.0,0.0,0.0,0.0
2025/05/06 15:12:43.31737921,1746537163,31361200,stern_starboard_thruster,0.9674583765736974,8.846570597079767e-07,0.0,0.0,0.0,0.0
2025/05/06 15:12:43.177828855,1746537163,177028765,stern_starboard_thruster,0.977014872467355,7.337610049496735e-07,0.0,0.0,0.0,0.0
2025/05/06 15:12:43.234253029,1746537163,232651748,stern_starboard_thruster,0.9865031598698291,1.0284268624876076e-06,0.0,0.0,0.0,0.0
2025/05/06 15:12:43.350950492,1746537163,348561656,stern_starboard_thruster,0.9959301444099942,2.784190689337512e-07,0.0,0.0,0.0,0.0
2025/05/06 15:12:43.511520611,1746537163,507932266,stern_starboard_thruster,0.9808195012283286,7.866049141387712e-07,0.0,0.0,0.0,0.0
2025/05/06 15:12:43.564763800,1746537163,563759570,stern_starboard_thruster,0.9808191393636416,7.168660895161306e-07,0.0,0.0,0.0,0.0
2025/05/06 15:12:43.634109690,1746537163,633840977,stern_starboard_thruster,0.9993208932033205,5.949542126374486e-07,0.0,0.0,0.0,0.0
2025/05/06 15:12:43.738491677,1746537163,738254512,stern_starboard_thruster,1.0084697248035104,6.660678117866516e-07,0.0,0.0,0.0,0.0
2025/05/06 15:12:43.835400882,1746537163,832983047,stern_starboard_thruster,1.0175508978305279,7.185044415114112e-07,0.0,0.0,0.0,0.0
2025/05/06 15:12:43.945504652,1746537163,944469747,stern_starboard_thruster,1.0265602727668601,1.2983196453683254e-06,0.0,0.0,0.0,0.0
2025/05/06 15:12:44.36138076,1746537164,33567175,stern_starboard_thruster,1.0355054938212693,1.5132931035883557e-06,0.0,0.0,0.0,0.0
2025/05/06 15:12:44.135220026,1746537164,134812161,stern_starboard_thruster,1.0443838459467363,1.641087924482483e-06,0.0,0.0,0.0,0.0
2025/05/06 15:12:44.231737403,1746537164,231103001,stern_starboard_thruster,1.0531956071785693,1.6596387932720225e-06,0.0,0.0,0.0,0.0
2025/05/06 15:12:44.363642132,1746537164,362861480,stern_starboard_thruster,1.054840926508533,-0.014643134235253166,0.0,0.0,0.0,0.0
2025/05/06 15:12:44.446485173,1746537164,444624414,stern_starboard_thruster,1.0471897752154948,-0.007657810096024266,0.0,0.0,0.0,0.0
2025/05/06 15:12:44.535237068,1746537164,534208448,stern_starboard_thruster,1.0475244279388927,-0.004228952229460145,0.0,0.0,0.0,0.0
2025/05/06 15:12:44.635895703,1746537164,635164450,stern_starboard_thruster,1.0560669559587192,-0.004475073487747945,0.0,0.0,0.0,0.0
2025/05/06 15:12:44.733669244,1746537164,733237754,stern_starboard_thruster,1.0645466279460578,-0.004718798253093226,0.0,0.0,0.0,0.0
2025/05/06 15:12:44.837992063,1746537164,837280865,stern_starboard_thruster,1.0729565289047578,-0.004960915676800881,0.0,0.0,0.0,0.0
2025/05/06 15:12:44.934286013,1746537164,931599684,stern_starboard_thruster,1.0813049603798148,-0.005200436817226167,0.0,0.0,0.0,0.0
2025/05/06 15:12:45.51190123,1746537165,50509667,stern_starboard_thruster,1.0895847273727937,-0.005438046655694468,0.0,0.0,0.0,0.0
2025/05/06 15:12:45.143504443,1746537165,142412280,stern_starboard_thruster,1.0978007753943972,-0.005674210323610616,0.0,0.0,0.0,0.0
2025/05/06 15:12:45.237087631,1746537165,236001939,stern_starboard_thruster,1.105950757098433,-0.005909244545007839,0.0,0.0,0.0,0.0
2025/05/06 15:12:45.343482346,1746537165,340582989,stern_starboard_thruster,1.1056580054834384,4.5862199144525275e-07,0.0,0.0,0.0,0.0
2025/05/06 15:12:45.432537710,1746537165,432021729,stern_starboard_thruster,1.1136831719475822,1.7948148147403584e-07,0.0,0.0,0.0,0.0
2025/05/06 15:12:45.573188274,1746537165,568333758,stern_starboard_thruster,1.1216335732546308,1.4220708167636738e-06,0.0,0.0,0.0,0.0
2025/05/06 15:12:45.634443445,1746537165,632903118,stern_starboard_thruster,1.129536553846096,2.4467678608180145e-07,0.0,0.0,0.0,0.0
2025/05/06 15:12:45.739758723,1746537165,737632072,stern_starboard_thruster,1.137369625163614,2.2177668289772707e-07,0.0,0.0,0.0,0.0
2025/05/06 15:12:45.832737131,1746537165,832229164,stern_starboard_thruster,1.1451360705208828,7.964946953472737e-07,0.0,0.0,0.0,0.0
2025/05/06 15:12:45.946704248,1746537165,934483517,stern_starboard_thruster,1.1528479094909145,3.4305725726129506e-07,0.0,0.0,0.0,0.0
2025/05/06 15:12:46.34391750,1746537166,32811480,stern_starboard_thruster,1.1604930800648228,3.6471418470962316e-07,0.0,0.0,0.0,0.0
2025/05/06 15:12:46.142335358,1746537166,141710606,stern_starboard_thruster,1.168080280496021,-2.4539083493704604e-07,0.0,0.0,0.0,0.0
2025/05/06 15:12:46.237634831,1746537166,232759360,stern_starboard_thruster,1.1756014032211977,-1.8159760134057394e-07,0.0,0.0,0.0,0.0
2025/05/06 15:12:46.337687759,1746537166,337026817,stern_starboard_thruster,1.149099320224466,-0.017350143753062926,0.0,0.0,0.0,0.0
2025/05/06 15:12:46.437797726,1746537166,436012347,stern_starboard_thruster,1.1566143337857149,-0.017112651563172605,0.0,0.0,0.0,0.0
2025/05/06 15:12:46.538537298,1746537166,537954708,stern_starboard_thruster,1.1639559281772656,-0.01714782485074639,0.0,0.0,0.0,0.0
2025/05/06 15:12:46.633043124,1746537166,631856216,stern_starboard_thruster,1.1712376440832792,-0.0171827199986958,0.0,0.0,0.0,0.0
2025/05/06 15:12:46.758912442,1746537166,757681432,stern_starboard_thruster,1.1784600212818932,-0.017217340322844818,0.0,0.0,0.0,0.0
2025/05/06 15:12:46.853794053,1746537166,844983066,stern_starboard_thruster,1.1856233124946363,-0.017251695011248038,0.0,0.0,0.0,0.0
2025/05/06 15:12:46.932189130,1746537166,931246884,stern_starboard_thruster,1.1927279673860347,-0.017285786117066104,0.0,0.0,0.0,0.0
2025/05/06 15:12:47.37612854,1746537167,37030028,stern_starboard_thruster,1.199774565525365,-0.017319650064303957,0.0,0.0,0.0,0.0
2025/05/06 15:12:47.137301795,1746537167,134817728,stern_starboard_thruster,1.2067632578204874,-0.017353245252157864,0.0,0.0,0.0,0.0
2025/05/06 15:12:47.238266239,1746537167,235582429,stern_starboard_thruster,1.2136961636460066,-0.017387108318664694,0.0,0.0,0.0,0.0
2025/05/06 15:12:47.337592878,1746537167,336018975,stern_starboard_thruster,1.2388204157504097,-0.13237976847641972,0.0,0.0,0.0,0.0
2025/05/06 15:12:47.441529087,1746537167,440302584,stern_starboard_thruster,1.230455283229453,-0.12738140153334324,0.0,0.0,0.0,0.0
2025/05/06 15:12:47.537280993,1746537167,536791668,stern_starboard_thruster,1.2189874883210756,-0.11924232588158837,0.0,0.0,0.0,0.0
2025/05/06 15:12:47.635705302,1746537167,633995683,stern_starboard_thruster,1.2074231099028114,-0.1110819655878829,0.0,0.0,0.0,0.0
2025/05/06 15:12:47.736855411,1746537167,736146926,stern_starboard_thruster,1.199841598907051,-0.10471981112910447,0.0,0.0,0.0,0.0
2025/05/06 15:12:47.835177102,1746537167,834753078,stern_starboard_thruster,1.2064357113640716,-0.10468544420875446,0.0,0.0,0.0,0.0
2025/05/06 15:12:47.968347148,1746537167,967990571,stern_starboard_thruster,1.2129762425197128,-0.10465180169324337,0.0,0.0,0.0,0.0
2025/05/06 15:12:48.37646692,1746537168,37255963,stern_starboard_thruster,1.219461180724107,-0.10461803013696594,0.0,0.0,0.0,0.0
2025/05/06 15:12:48.139867999,1746537168,138498487,stern_starboard_thruster,1.2258920130670299,-0.10458451873868102,0.0,0.0,0.0,0.0
2025/05/06 15:12:48.231653995,1746537168,231486097,stern_starboard_thruster,1.2322692939596867,-0.10455126917289144,0.0,0.0,0.0,0.0
2025/05/06 15:12:48.457613286,1746537168,456054610,stern_starboard_thruster,1.0147366289070718,4.013664051471702e-07,0.0,0.0,0.0,0.0
2025/05/06 15:12:48.502794132,1746537168,502536285,stern_starboard_thruster,1.0084620437512575,4.997006071127446e-07,0.0,0.0,0.0,0.0
2025/05/06 15:12:48.548694662,1746537168,546992562,stern_starboard_thruster,1.0334613091329496,7.436358289328936e-07,0.0,0.0,0.0,0.0
2025/05/06 15:12:48.634999974,1746537168,633390090,stern_starboard_thruster,1.0584608614350632,5.635413073399014e-07,0.0,0.0,0.0,0.0
2025/05/06 15:12:48.747147208,1746537168,746542082,stern_starboard_thruster,1.0834599544959895,5.6141523344439136e-08,0.0,0.0,0.0,0.0
2025/05/06 15:12:48.840703846,1746537168,839312834,stern_starboard_thruster,1.1084623603217,-1.4954239219201016e-07,0.0,0.0,0.0,0.0
2025/05/06 15:12:48.933515522,1746537168,931775865,stern_starboard_thruster,1.1334624288728705,5.000676533152614e-07,0.0,0.0,0.0,0.0
2025/05/06 15:12:49.44247836,1746537169,41367008,stern_starboard_thruster,1.1584663036262162,1.586803747438743e-07,0.0,0.0,0.0,0.0
2025/05/06 15:12:49.161973660,1746537169,160755436,stern_starboard_thruster,1.183465676772524,8.422234731582955e-07,0.0,0.0,0.0,0.0
2025/05/06 15:12:49.235640252,1746537169,234159444,stern_starboard_thruster,1.2005712426888762,4.208857051438254e-07,0.0,0.0,0.0,0.0
2025/05/06 15:12:49.333717446,1746537169,331392125,stern_starboard_thruster,1.1145069287059455,-0.06284543740805133,0.0,0.0,0.0,0.0
2025/05/06 15:12:49.434754386,1746537169,433127269,stern_starboard_thruster,1.1108530646176913,-0.0717321387676164,0.0,0.0,0.0,0.0
2025/05/06 15:12:49.531920964,1746537169,531605834,stern_starboard_thruster,1.1165706781229632,-0.07165059444564346,0.0,0.0,0.0,0.0
2025/05/06 15:12:49.637816668,1746537169,636788312,stern_starboard_thruster,1.1222397092256127,-0.07156961191682332,0.0,0.0,0.0,0.0
2025/05/06 15:12:49.735782033,1746537169,733205454,stern_starboard_thruster,1.127861162342024,-0.07148933351093889,0.0,0.0,0.0,0.0
2025/05/06 15:12:49.832974537,1746537169,832563254,stern_starboard_thruster,1.1334353285896426,-0.07140975727437039,0.0,0.0,0.0,0.0
2025/05/06 15:12:49.936836435,1746537169,935222019,stern_starboard_thruster,1.1389637752031179,-0.07133131259012983,0.0,0.0,0.0,0.0
2025/05/06 15:12:50.34287607,1746537170,32090086,stern_starboard_thruster,1.144443723396793,-0.07125287726322442,0.0,0.0,0.0,0.0
2025/05/06 15:12:50.143527842,1746537170,141520517,stern_starboard_thruster,1.1498771279632432,-0.07117501252777751,0.0,0.0,0.0,0.0
2025/05/06 15:12:50.240604370,1746537170,239002786,stern_starboard_thruster,1.1552664401205077,-0.07109833501541771,0.0,0.0,0.0,0.0
2025/05/06 15:12:50.386784424,1746537170,386143744,stern_starboard_thruster,1.0318899689269059,-0.006925723263668284,0.0,0.0,0.0,0.0
2025/05/06 15:12:50.434970447,1746537170,431888744,stern_starboard_thruster,1.0476438267913175,-0.008819141678505006,0.0,0.0,0.0,0.0
2025/05/06 15:12:50.541895438,1746537170,540736726,stern_starboard_thruster,1.0529006053389407,-0.008780218670245522,0.0,0.0,0.0,0.0
2025/05/06 15:12:50.634697154,1746537170,632950119,stern_starboard_thruster,1.0581100769748182,-0.008740711258497427,0.0,0.0,0.0,0.0
2025/05/06 15:12:50.731830829,1746537170,731738619,stern_starboard_thruster,1.063275110226319,-0.008701440994518495,0.0,0.0,0.0,0.0
2025/05/06 15:12:50.836641573,1746537170,835260676,stern_starboard_thruster,1.0683964414512404,-0.008662466860891657,0.0,0.0,0.0,0.0
2025/05/06 15:12:50.934953298,1746537170,933494936,stern_starboard_thruster,1.0734743951055183,-0.00862380688729444,0.0,0.0,0.0,0.0
2025/05/06 15:12:51.36017598,1746537171,33954651,stern_starboard_thruster,1.078510469582195,-0.008585791508704149,0.0,0.0,0.0,0.0
2025/05/06 15:12:51.135259214,1746537171,133267974,stern_starboard_thruster,1.0835038622446462,-0.008548100170644031,0.0,0.0,0.0,0.0
2025/05/06 15:12:51.245695003,1746537171,244517100,stern_starboard_thruster,1.088455025225073,-0.008510722506103106,0.0,0.0,0.0,0.0
2025/05/06 15:12:51.338434259,1746537171,337266880,stern_starboard_thruster,0.9863863636868367,4.2276517203141526e-07,0.0,0.0,0.0,0.0
2025/05/06 15:12:51.442746740,1746537171,442597705,stern_starboard_thruster,0.991253717987063,8.931357878329422e-07,0.0,0.0,0.0,0.0
2025/05/06 15:12:51.571622388,1746537171,569995207,stern_starboard_thruster,0.9960808030956725,1.0366702054925365e-06,0.0,0.0,0.0,0.0
2025/05/06 15:12:51.635331344,1746537171,634115577,stern_starboard_thruster,1.0008684373947727,3.2246146850244636e-07,0.0,0.0,0.0,0.0
2025/05/06 15:12:51.735741981,1746537171,732527551,stern_starboard_thruster,1.0056137155199032,3.174214302909889e-07,0.0,0.0,0.0,0.0
2025/05/06 15:12:51.837580707,1746537171,837311579,stern_starboard_thruster,1.0103187420772126,3.222777042616882e-07,0.0,0.0,0.0,0.0
2025/05/06 15:12:51.934112511,1746537171,932343509,stern_starboard_thruster,1.014984059940547,3.4203784397085606e-07,0.0,0.0,0.0,0.0
2025/05/06 15:12:52.33760346,1746537172,32567710,stern_starboard_thruster,1.0196088359404893,1.0941486355241668e-06,0.0,0.0,0.0,0.0
2025/05/06 15:12:52.148697840,1746537172,147651227,stern_starboard_thruster,1.0241960542898894,2.775895411931959e-07,0.0,0.0,0.0,0.0
2025/05/06 15:12:52.235515237,1746537172,234239180,stern_starboard_thruster,1.0287435378365302,2.646864617076347e-07,0.0,0.0,0.0,0.0
2025/05/06 15:12:52.338405698,1746537172,337400616,stern_starboard_thruster,0.9229390097985031,8.474971983929508e-07,0.0,0.0,0.0,0.0
2025/05/06 15:12:52.433873144,1746537172,433427489,stern_starboard_thruster,0.9274091665228268,1.0242488464420475e-06,0.0,0.0,0.0,0.0
2025/05/06 15:12:52.534932941,1746537172,533861205,stern_starboard_thruster,0.9318418714542581,1.0174052708201202e-06,0.0,0.0,0.0,0.0
2025/05/06 15:12:52.635666425,1746537172,633526624,stern_starboard_thruster,0.936236838791827,1.017667400361891e-06,0.0,0.0,0.0,0.0
2025/05/06 15:12:52.769773066,1746537172,768928846,stern_starboard_thruster,0.9405944454102035,1.022144201240708e-06,0.0,0.0,0.0,0.0
2025/05/06 15:12:52.839845633,1746537172,836816338,stern_starboard_thruster,0.9449149948021279,1.0283888088937064e-06,0.0,0.0,0.0,0.0
2025/05/06 15:12:52.934302385,1746537172,932103516,stern_starboard_thruster,0.9491991918294833,1.0157573516812534e-06,0.0,0.0,0.0,0.0
2025/05/06 15:12:53.37279620,1746537173,36806421,stern_starboard_thruster,0.953448120288238,8.658843461539916e-07,0.0,0.0,0.0,0.0
2025/05/06 15:12:53.132986315,1746537173,131950188,stern_starboard_thruster,0.9576582804079969,9.6122354202342e-07,0.0,0.0,0.0,0.0
2025/05/06 15:12:53.239914531,1746537173,238635013,stern_starboard_thruster,0.9618341161310765,9.74744203302577e-07,0.0,0.0,0.0,0.0
2025/05/06 15:12:53.336503827,1746537173,335048803,stern_starboard_thruster,0.9087187442734355,-0.016821028491451943,0.0,0.0,0.0,0.0
2025/05/06 15:12:53.439448973,1746537173,439281642,stern_starboard_thruster,0.8919025375894347,-0.007668848970560016,0.0,0.0,0.0,0.0
2025/05/06 15:12:53.534510373,1746537173,532774394,stern_starboard_thruster,0.8780652565170375,5.931139883382925e-07,0.0,0.0,0.0,0.0
2025/05/06 15:12:53.637950043,1746537173,636025137,stern_starboard_thruster,0.8821001771590359,6.127423747474593e-07,0.0,0.0,0.0,0.0
2025/05/06 15:12:53.735057693,1746537173,732508446,stern_starboard_thruster,0.8861009648512261,-1.1066634030683272e-05,0.0,0.0,0.0,0.0
2025/05/06 15:12:53.831746801,1746537173,831194751,stern_starboard_thruster,0.8900677031497101,-0.00011082123957795635,0.0,0.0,0.0,0.0
2025/05/06 15:12:53.967348718,1746537173,963822001,stern_starboard_thruster,0.894001313943188,-0.00020972568968701083,0.0,0.0,0.0,0.0
2025/05/06 15:12:54.34744837,1746537174,34335220,stern_starboard_thruster,0.8978988668950063,-0.00030904866916479435,0.0,0.0,0.0,0.0
2025/05/06 15:12:54.137640663,1746537174,136145801,stern_starboard_thruster,0.901767593663536,-0.0004049581159264047,0.0,0.0,0.0,0.0
2025/05/06 15:12:54.234807608,1746537174,233747192,stern_starboard_thruster,0.9056007057995515,-0.000501249549610555,0.0,0.0,0.0,0.0
2025/05/06 15:12:54.341238991,1746537174,339225570,stern_starboard_thruster,0.9306064605344926,-0.09666267703839472,0.0,0.0,0.0,0.0
2025/05/06 15:12:54.433886494,1746537174,432554180,stern_starboard_thruster,0.9369730380184443,-0.11872308194531656,0.0,0.0,0.0,0.0
2025/05/06 15:12:54.547089867,1746537174,545280834,stern_starboard_thruster,0.9193540165816353,-0.10945709580847862,0.0,0.0,0.0,0.0
2025/05/06 15:12:54.636937233,1746537174,634586058,stern_starboard_thruster,0.9017914959526334,-0.1001142657271632,0.0,0.0,0.0,0.0
2025/05/06 15:12:54.739462803,1746537174,738901503,stern_starboard_thruster,0.8841611037994663,-0.09075627136092494,0.0,0.0,0.0,0.0
2025/05/06 15:12:54.837066590,1746537174,835078079,stern_starboard_thruster,0.8664663227220618,-0.08138284688947535,0.0,0.0,0.0,0.0
2025/05/06 15:12:54.940111039,1746537174,939581877,stern_starboard_thruster,0.860525799818056,-0.07724837836183483,0.0,0.0,0.0,0.0
2025/05/06 15:12:55.34388157,1746537175,33903561,stern_starboard_thruster,0.8641047366371318,-0.07735935581390853,0.0,0.0,0.0,0.0
2025/05/06 15:12:55.159104680,1746537175,158019271,stern_starboard_thruster,0.8676535456200112,-0.0774695778171247,0.0,0.0,0.0,0.0
2025/05/06 15:12:55.243156788,1746537175,242563100,stern_starboard_thruster,0.8711728428978526,-0.0775788638026015,0.0,0.0,0.0,0.0
2025/05/06 15:12:55.334327109,1746537175,332990930,stern_starboard_thruster,0.8243946253199049,-0.052917008561439244,0.0,0.0,0.0,0.0
2025/05/06 15:12:55.446758095,1746537175,446652261,stern_starboard_thruster,0.8278549998969998,-0.05304134462966456,0.0,0.0,0.0,0.0
2025/05/06 15:12:55.535809352,1746537175,534434985,stern_starboard_thruster,0.8312846788982746,-0.05316586887282217,0.0,0.0,0.0,0.0
2025/05/06 15:12:55.639788262,1746537175,637376999,stern_starboard_thruster,0.8346852254625173,-0.05328929279497262,0.0,0.0,0.0,0.0
2025/05/06 15:12:55.738341766,1746537175,736761999,stern_starboard_thruster,0.8380564032447966,-0.053411668577777544,0.0,0.0,0.0,0.0
2025/05/06 15:12:55.838894769,1746537175,837687215,stern_starboard_thruster,0.8413990582590806,-0.05353296316788123,0.0,0.0,0.0,0.0
2025/05/06 15:12:55.942262048,1746537175,941420484,stern_starboard_thruster,0.84471354625649,-0.053653202609122194,0.0,0.0,0.0,0.0
2025/05/06 15:12:56.37511953,1746537176,36436126,stern_starboard_thruster,0.8480001983206199,-0.05377237776681363,0.0,0.0,0.0,0.0
2025/05/06 15:12:56.143202935,1746537176,141618849,stern_starboard_thruster,0.8512579453356013,-0.05389053268517602,0.0,0.0,0.0,0.0
2025/05/06 15:12:56.235902209,1746537176,234645607,stern_starboard_thruster,0.8544876815396022,-0.054007681618259744,0.0,0.0,0.0,0.0
2025/05/06 15:12:56.364237982,1746537176,363749119,stern_starboard_thruster,0.8185903934014209,6.855580028013174e-07,0.0,0.0,0.0,0.0
2025/05/06 15:12:56.437302689,1746537176,436601924,stern_starboard_thruster,0.8217654893698915,5.479426418578765e-07,0.0,0.0,0.0,0.0
2025/05/06 15:12:56.539048476,1746537176,538730930,stern_starboard_thruster,0.8249123449420124,6.147027822940167e-07,0.0,0.0,0.0,0.0
2025/05/06 15:12:56.635885855,1746537176,634403128,stern_starboard_thruster,0.8280323629652029,7.178440464689015e-07,0.0,0.0,0.0,0.0
2025/05/06 15:12:56.735301808,1746537176,734810323,stern_starboard_thruster,0.8311257038359072,8.211224199221764e-07,0.0,0.0,0.0,0.0
2025/05/06 15:12:56.838270172,1746537176,836932043,stern_starboard_thruster,0.8341927526279573,9.200989708990871e-07,0.0,0.0,0.0,0.0
2025/05/06 15:12:56.936040232,1746537176,935668097,stern_starboard_thruster,0.8372331973192035,1.1194963195962182e-06,0.0,0.0,0.0,0.0
2025/05/06 15:12:57.53846025,1746537177,53495371,stern_starboard_thruster,0.8402478981986852,1.3059427870965539e-06,0.0,0.0,0.0,0.0
2025/05/06 15:12:57.134340065,1746537177,134022107,stern_starboard_thruster,0.8432372524317231,1.4354376238714847e-06,0.0,0.0,0.0,0.0
2025/05/06 15:12:57.239081413,1746537177,238886981,stern_starboard_thruster,0.8462014357953099,1.5103508833968449e-06,0.0,0.0,0.0,0.0
2025/05/06 15:12:57.334924563,1746537177,333602703,stern_starboard_thruster,0.7987442986355153,4.210522255195145e-07,0.0,0.0,0.0,0.0
2025/05/06 15:12:57.438419833,1746537177,437662913,stern_starboard_thruster,0.8016558433446044,3.480351231628155e-07,0.0,0.0,0.0,0.0
2025/05/06 15:12:57.559285922,1746537177,558204022,stern_starboard_thruster,0.8045439294051484,3.206428776823157e-07,0.0,0.0,0.0,0.0
2025/05/06 15:12:57.635225619,1746537177,634256506,stern_starboard_thruster,0.8074074985177668,2.760107226066441e-07,0.0,0.0,0.0,0.0
2025/05/06 15:12:57.737449128,1746537177,736680653,stern_starboard_thruster,0.8102466153916309,2.3915428992680107e-07,0.0,0.0,0.0,0.0
2025/05/06 15:12:57.836995494,1746537177,836062294,stern_starboard_thruster,0.8130607405043679,3.1040933536204947e-07,0.0,0.0,0.0,0.0
2025/05/06 15:12:57.946183197,1746537177,942409588,stern_starboard_thruster,0.8158509285885797,3.8292688232487824e-07,0.0,0.0,0.0,0.0
2025/05/06 15:12:58.38410585,1746537178,37793310,stern_starboard_thruster,0.8186173032554658,4.6964373870791167e-07,0.0,0.0,0.0,0.0
2025/05/06 15:12:58.141989801,1746537178,141811184,stern_starboard_thruster,0.821359881653882,5.836135750611676e-07,0.0,0.0,0.0,0.0
2025/05/06 15:12:58.232179862,1746537178,231339061,stern_starboard_thruster,0.8240788481081908,7.5902615573881e-07,0.0,0.0,0.0,0.0
2025/05/06 15:12:58.461725841,1746537178,460872841,stern_starboard_thruster,0.8491023167777015,-0.044714495567962434,0.0,0.0,0.0,0.0
2025/05/06 15:12:58.551093257,1746537178,549868744,stern_starboard_thruster,0.8752788546017942,-0.06831894763264881,0.0,0.0,0.0,0.0
2025/05/06 15:12:58.595223611,1746537178,594560027,stern_starboard_thruster,0.8756228719225839,-0.07086890910343038,0.0,0.0,0.0,0.0
2025/05/06 15:12:58.645509537,1746537178,644957724,stern_starboard_thruster,0.850650797158588,-0.059768271865121785,0.0,0.0,0.0,0.0
2025/05/06 15:12:58.762233052,1746537178,759273110,stern_starboard_thruster,0.8308826119222777,-0.04998347396978068,0.0,0.0,0.0,0.0
2025/05/06 15:12:58.835923898,1746537178,832056497,stern_starboard_thruster,0.8110707670153013,-0.04018803730701487,0.0,0.0,0.0,0.0
2025/05/06 15:12:58.936330294,1746537178,933904515,stern_starboard_thruster,0.7937026289004132,-0.03148794072708495,0.0,0.0,0.0,0.0
2025/05/06 15:12:59.50892755,1746537179,46722794,stern_starboard_thruster,0.7962412135479321,-0.031647407611805366,0.0,0.0,0.0,0.0
2025/05/06 15:12:59.134313672,1746537179,133415776,stern_starboard_thruster,0.7987582731597459,-0.03180547449386623,0.0,0.0,0.0,0.0
2025/05/06 15:12:59.240794508,1746537179,240264958,stern_starboard_thruster,0.8012537474322828,-0.03196216796753568,0.0,0.0,0.0,0.0
2025/05/06 15:12:59.485812704,1746537179,485680513,stern_starboard_thruster,0.8270281088363259,-0.1846856608830246,0.0,0.0,0.0,0.0
2025/05/06 15:12:59.618762849,1746537179,617707786,stern_starboard_thruster,0.8723983098242997,-0.2194587905917746,0.0,0.0,0.0,0.0
2025/05/06 15:12:59.696862349,1746537179,696518602,stern_starboard_thruster,0.9245754143144665,-0.26057705643679585,0.0,0.0,0.0,0.0
2025/05/06 15:12:59.747618560,1746537179,746296338,stern_starboard_thruster,0.9651248137089118,-0.292688846882784,0.0,0.0,0.0,0.0
2025/05/06 15:12:59.832746160,1746537179,831388145,stern_starboard_thruster,0.949407865243716,-0.2841749874619075,0.0,0.0,0.0,0.0
2025/05/06 15:12:59.936980547,1746537179,935818806,stern_starboard_thruster,0.929128178036598,-0.27428159038482963,0.0,0.0,0.0,0.0
2025/05/06 15:13:00.60192071,1746537180,57722347,stern_starboard_thruster,0.9088126005296726,-0.2643789264928406,0.0,0.0,0.0,0.0
2025/05/06 15:13:00.135948732,1746537180,134786618,stern_starboard_thruster,0.8884515668847202,-0.25446537451454027,0.0,0.0,0.0,0.0
2025/05/06 15:13:00.236116360,1746537180,235055368,stern_starboard_thruster,0.8680516720175114,-0.24454099379511285,0.0,0.0,0.0,0.0
2025/05/06 15:13:00.340984066,1746537180,339198470,stern_starboard_thruster,0.7840270149655946,-0.16131036188730202,0.0,0.0,0.0,0.0
2025/05/06 15:13:00.435725298,1746537180,433637995,stern_starboard_thruster,0.7635481749995563,-0.15137031633646017,0.0,0.0,0.0,0.0
2025/05/06 15:13:00.541658597,1746537180,540242702,stern_starboard_thruster,0.7475179383603892,-0.14341424432892397,0.0,0.0,0.0,0.0
2025/05/06 15:13:00.638600534,1746537180,635663880,stern_starboard_thruster,0.7497295583755311,-0.14357779364880327,0.0,0.0,0.0,0.0
2025/05/06 15:13:00.732623740,1746537180,731026835,stern_starboard_thruster,0.751922350180391,-0.14373988281864775,0.0,0.0,0.0,0.0
2025/05/06 15:13:00.864529151,1746537180,841770354,stern_starboard_thruster,0.7540963759308291,-0.14390056107017654,0.0,0.0,0.0,0.0
2025/05/06 15:13:00.931836366,1746537180,931612330,stern_starboard_thruster,0.7562518610761846,-0.14405981821268615,0.0,0.0,0.0,0.0
2025/05/06 15:13:01.46764435,1746537181,44915642,stern_starboard_thruster,0.7583888791333901,-0.14421768214379616,0.0,0.0,0.0,0.0
2025/05/06 15:13:01.136595428,1746537181,135357079,stern_starboard_thruster,0.7605076494015215,-0.14437414383043604,0.0,0.0,0.0,0.0
2025/05/06 15:13:01.270938214,1746537181,270468693,stern_starboard_thruster,0.7626082647873398,-0.14452923278323163,0.0,0.0,0.0,0.0
2025/05/06 15:13:01.331936179,1746537181,330826691,stern_starboard_thruster,0.7428207460596388,-0.007081342758251289,0.0,0.0,0.0,0.0
2025/05/06 15:13:01.441309532,1746537181,440424773,stern_starboard_thruster,0.744886573449832,-0.0072281063011948215,0.0,0.0,0.0,0.0
2025/05/06 15:13:01.533871470,1746537181,531739504,stern_starboard_thruster,0.7469343888732408,-0.007373000474300827,0.0,0.0,0.0,0.0
2025/05/06 15:13:01.634507300,1746537181,633088965,stern_starboard_thruster,0.7489647682122442,-0.007516594215789121,0.0,0.0,0.0,0.0
2025/05/06 15:13:01.736411248,1746537181,734998309,stern_starboard_thruster,0.7509777493292535,-0.00765893936671884,0.0,0.0,0.0,0.0
2025/05/06 15:13:01.831960517,1746537181,831699234,stern_starboard_thruster,0.7529735661814593,-0.007800017408967125,0.0,0.0,0.0,0.0
2025/05/06 15:13:01.935641842,1746537181,932987559,stern_starboard_thruster,0.7549522920653801,-0.007939865714854276,0.0,0.0,0.0,0.0
2025/05/06 15:13:02.32582193,1746537182,32084640,stern_starboard_thruster,0.7569141054748293,-0.008078472802988887,0.0,0.0,0.0,0.0
2025/05/06 15:13:02.139986634,1746537182,138515943,stern_starboard_thruster,0.7588590645156247,-0.008215835847452856,0.0,0.0,0.0,0.0
2025/05/06 15:13:02.232270673,1746537182,230511336,stern_starboard_thruster,0.7607874160799343,-0.008351967871321355,0.0,0.0,0.0,0.0
2025/05/06 15:13:02.337232244,1746537182,335798157,stern_starboard_thruster,0.7177618969116131,-0.027803078129634645,0.0,0.0,0.0,0.0
2025/05/06 15:13:02.469529609,1746537182,468338852,stern_starboard_thruster,0.7196579696295797,-0.027926599560575915,0.0,0.0,0.0,0.0
2025/05/06 15:13:02.538633671,1746537182,537542705,stern_starboard_thruster,0.7215379994299886,-0.028049002250947176,0.0,0.0,0.0,0.0
2025/05/06 15:13:02.631349279,1746537182,630921741,stern_starboard_thruster,0.723401915985497,-0.02817032040700922,0.0,0.0,0.0,0.0
2025/05/06 15:13:02.742641618,1746537182,741595956,stern_starboard_thruster,0.7252498701210728,-0.028290574332328445,0.0,0.0,0.0,0.0
2025/05/06 15:13:02.839517791,1746537182,837158213,stern_starboard_thruster,0.7508005315666129,-0.12227666542906951,0.0,0.0,0.0,0.0
2025/05/06 15:13:02.938670903,1746537182,938423672,stern_starboard_thruster,0.7362310751103879,-0.13166901912456472,0.0,0.0,0.0,0.0
2025/05/06 15:13:03.55073762,1746537183,46316455,stern_starboard_thruster,0.7147926578297319,-0.12151327046239375,0.0,0.0,0.0,0.0
2025/05/06 15:13:03.132367255,1746537183,132023623,stern_starboard_thruster,0.6933889128719275,-0.11131595943063573,0.0,0.0,0.0,0.0
2025/05/06 15:13:03.235735957,1746537183,234371133,stern_starboard_thruster,0.6876551726129985,-0.10808957575519534,0.0,0.0,0.0,0.0
2025/05/06 15:13:03.343614589,1746537183,340519638,stern_starboard_thruster,0.6894106059450574,-0.10820042876002148,0.0,0.0,0.0,0.0
2025/05/06 15:13:03.444531399,1746537183,443559898,stern_starboard_thruster,0.6911511977372673,-0.10831031059976738,0.0,0.0,0.0,0.0
2025/05/06 15:13:03.536408101,1746537183,535193601,stern_starboard_thruster,0.6928769920131539,-0.10841921385948858,0.0,0.0,0.0,0.0
2025/05/06 15:13:03.672716897,1746537183,672083227,stern_starboard_thruster,0.6945880606528236,-0.10852716314634071,0.0,0.0,0.0,0.0
2025/05/06 15:13:03.737351901,1746537183,737120853,stern_starboard_thruster,0.696284484646295,-0.10863414047839444,0.0,0.0,0.0,0.0
2025/05/06 15:13:03.840455749,1746537183,839365127,stern_starboard_thruster,0.6356986921832968,-0.13433704974810246,0.0,0.0,0.0,0.0
2025/05/06 15:13:03.935964750,1746537183,933973686,stern_starboard_thruster,0.6314688802787743,-0.13513595458462643,0.0,0.0,0.0,0.0
2025/05/06 15:13:04.36970441,1746537184,35643987,stern_starboard_thruster,0.6331222079690028,-0.1352396427330724,0.0,0.0,0.0,0.0
2025/05/06 15:13:04.138264939,1746537184,135333602,stern_starboard_thruster,0.6347614381542107,-0.1353424169732883,0.0,0.0,0.0,0.0
2025/05/06 15:13:04.232948392,1746537184,231714636,stern_starboard_thruster,0.6363866838632553,-0.1354442933752621,0.0,0.0,0.0,0.0
2025/05/06 15:13:04.346354499,1746537184,345569268,stern_starboard_thruster,0.6379980064237286,-0.13554524419826006,0.0,0.0,0.0,0.0
2025/05/06 15:13:04.434587511,1746537184,432654632,stern_starboard_thruster,0.6395955948475411,-0.13564532634749135,0.0,0.0,0.0,0.0
2025/05/06 15:13:04.538640719,1746537184,537791131,stern_starboard_thruster,0.6411794876267135,-0.1357445113136308,0.0,0.0,0.0,0.0
2025/05/06 15:13:04.641062093,1746537184,640042165,stern_starboard_thruster,0.6427498752194863,-0.13584280865210926,0.0,0.0,0.0,0.0
2025/05/06 15:13:04.739493639,1746537184,738425098,stern_starboard_thruster,0.64430683406944,-0.13594025652772293,0.0,0.0,0.0,0.0
2025/05/06 15:13:04.866898491,1746537184,865711014,stern_starboard_thruster,0.6059239654890007,-0.12137257240892706,0.0,0.0,0.0,0.0
2025/05/06 15:13:04.939695131,1746537184,938506801,stern_starboard_thruster,0.6029907854687017,-0.11885306623875368,0.0,0.0,0.0,0.0
2025/05/06 15:13:05.38705594,1746537185,37033125,stern_starboard_thruster,0.6045080509043771,-0.1189499059610439,0.0,0.0,0.0,0.0
2025/05/06 15:13:05.134077720,1746537185,131565536,stern_starboard_thruster,0.6060123527651097,-0.11904590766995808,0.0,0.0,0.0,0.0
2025/05/06 15:13:05.243041757,1746537185,239215059,stern_starboard_thruster,0.6075038423682445,-0.11914103192894664,0.0,0.0,0.0,0.0
2025/05/06 15:13:05.334917677,1746537185,334646626,stern_starboard_thruster,0.6089825535374085,-0.1192353254925949,0.0,0.0,0.0,0.0
2025/05/06 15:13:05.450579780,1746537185,448826593,stern_starboard_thruster,0.6104486008110263,-0.11932876972884443,0.0,0.0,0.0,0.0
2025/05/06 15:13:05.539219315,1746537185,537811229,stern_starboard_thruster,0.6119021406702997,-0.11942139392329808,0.0,0.0,0.0,0.0
2025/05/06 15:13:05.641040942,1746537185,640746039,stern_starboard_thruster,0.6133432494063018,-0.11951319808059761,0.0,0.0,0.0,0.0
2025/05/06 15:13:05.732958025,1746537185,731931492,stern_starboard_thruster,0.614772071702395,-0.11960418083649631,0.0,0.0,0.0,0.0
2025/05/06 15:13:05.840718937,1746537185,840435099,stern_starboard_thruster,0.6161886575159133,-0.11969435378101662,0.0,0.0,0.0,0.0
2025/05/06 15:13:05.942476803,1746537185,940600756,stern_starboard_thruster,0.6007425709364823,-0.07908858479064045,0.0,0.0,0.0,0.0
2025/05/06 15:13:06.72198200,1746537186,70801541,stern_starboard_thruster,0.6021348079637063,-0.07918189264618068,0.0,0.0,0.0,0.0
2025/05/06 15:13:06.140331314,1746537186,138683200,stern_starboard_thruster,0.6035151237569675,-0.0792743773894027,0.0,0.0,0.0,0.0
2025/05/06 15:13:06.242436403,1746537186,242125081,stern_starboard_thruster,0.6048836123813873,-0.07936605210687556,0.0,0.0,0.0,0.0
2025/05/06 15:13:06.333682398,1746537186,333500692,stern_starboard_thruster,0.6062404332124707,-0.07945690740969909,0.0,0.0,0.0,0.0
2025/05/06 15:13:06.437221928,1746537186,436329060,stern_starboard_thruster,0.6075856679543754,-0.07954695230576557,0.0,0.0,0.0,0.0
2025/05/06 15:13:06.538881667,1746537186,538756118,stern_starboard_thruster,0.6089193965853816,-0.07963617792065013,0.0,0.0,0.0,0.0
2025/05/06 15:13:06.632650421,1746537186,632217361,stern_starboard_thruster,0.610241721512302,-0.07972463072625421,0.0,0.0,0.0,0.0
2025/05/06 15:13:06.747307174,1746537186,746797928,stern_starboard_thruster,0.6115527607448338,-0.07981228240131345,0.0,0.0,0.0,0.0
2025/05/06 15:13:06.836961800,1746537186,836501809,stern_starboard_thruster,0.6128525905248352,-0.07989915233060918,0.0,0.0,0.0,0.0
2025/05/06 15:13:06.942782112,1746537186,942072796,stern_starboard_thruster,0.6014195272977937,-0.09839807574280071,0.0,0.0,0.0,0.0
2025/05/06 15:13:07.34856051,1746537187,34546990,stern_starboard_thruster,0.587788135905923,-0.09188078862660849,0.0,0.0,0.0,0.0
2025/05/06 15:13:07.136865736,1746537187,136477054,stern_starboard_thruster,0.5890544110291075,-0.09197379943387068,0.0,0.0,0.0,0.0
2025/05/06 15:13:07.270299832,1746537187,268545638,stern_starboard_thruster,0.5903098880927913,-0.09206598912309995,0.0,0.0,0.0,0.0
2025/05/06 15:13:07.340511148,1746537187,340060814,stern_starboard_thruster,0.5915546170193883,-0.09215733115070737,0.0,0.0,0.0,0.0
2025/05/06 15:13:07.453493825,1746537187,444566492,stern_starboard_thruster,0.5927887003955189,-0.09224789018609526,0.0,0.0,0.0,0.0
2025/05/06 15:13:07.538643377,1746537187,538206178,stern_starboard_thruster,0.594012264404149,-0.09233760156130913,0.0,0.0,0.0,0.0
2025/05/06 15:13:07.640467359,1746537187,637023571,stern_starboard_thruster,0.5952245755129381,-0.0924265138187297,0.0,0.0,0.0,0.0
2025/05/06 15:13:07.736297881,1746537187,735848710,stern_starboard_thruster,0.596427307702246,-0.09251464014892635,0.0,0.0,0.0,0.0
2025/05/06 15:13:07.839670615,1746537187,838401804,stern_starboard_thruster,0.5976197651916842,-0.09260199444302072,0.0,0.0,0.0,0.0
2025/05/06 15:13:07.941085772,1746537187,940722266,stern_starboard_thruster,0.6196800875635711,-0.13720104860276963,0.0,0.0,0.0,0.0
