time,header_stamp_secs,header_stamp_nsecs,header_frame_id,wrench_force_x,wrench_force_y,wrench_force_z,wrench_torque_x,wrench_torque_y,wrench_torque_z
2025/05/06 15:12:22.37633117,1746537142,36631360,stern_port_thruster,0.003535533905932738,0.0035355339059327372,0.0,0.0,0.0,0.0
2025/05/06 15:12:22.131696053,1746537142,130836079,stern_port_thruster,0.003535533905932738,0.0035355339059327372,0.0,0.0,0.0,0.0
2025/05/06 15:12:22.231738427,1746537142,230996230,stern_port_thruster,0.003535533905932738,0.0035355339059327372,0.0,0.0,0.0,0.0
2025/05/06 15:12:22.332379464,1746537142,332280165,stern_port_thruster,0.003535533905932738,0.0035355339059327372,0.0,0.0,0.0,0.0
2025/05/06 15:12:22.430978133,1746537142,430800144,stern_port_thruster,0.003535533905932738,0.0035355339059327372,0.0,0.0,0.0,0.0
2025/05/06 15:12:22.533203343,1746537142,531643998,stern_port_thruster,0.003535533905932738,0.0035355339059327372,0.0,0.0,0.0,0.0
2025/05/06 15:12:22.634277697,1746537142,633356104,stern_port_thruster,0.003535533905932738,0.0035355339059327372,0.0,0.0,0.0,0.0
2025/05/06 15:12:22.739930016,1746537142,739021116,stern_port_thruster,0.003535533905932738,0.0035355339059327372,0.0,0.0,0.0,0.0
2025/05/06 15:12:22.865395814,1746537142,865293565,stern_port_thruster,0.003535533905932738,0.0035355339059327372,0.0,0.0,0.0,0.0
2025/05/06 15:12:22.942605060,1746537142,942105403,stern_port_thruster,0.003535533905932738,0.0035355339059327372,0.0,0.0,0.0,0.0
2025/05/06 15:12:23.114389905,1746537143,112388002,stern_port_thruster,0.003535533905932738,0.0035355339059327372,0.0,0.0,0.0,0.0
2025/05/06 15:12:23.214124645,1746537143,210810005,stern_port_thruster,0.003535533905932738,0.0035355339059327372,0.0,0.0,0.0,0.0
2025/05/06 15:12:23.286952514,1746537143,283833094,stern_port_thruster,0.003535533905932738,0.0035355339059327372,0.0,0.0,0.0,0.0
2025/05/06 15:12:23.424164902,1746537143,421704803,stern_port_thruster,0.00032034036202271564,0.0238925096633335,0.0,0.0,0.0,0.0
2025/05/06 15:12:23.549324712,1746537143,548051781,stern_port_thruster,0.000320346468573953,0.023892513449896863,0.0,0.0,0.0,0.0
2025/05/06 15:12:23.667252006,1746537143,659621544,stern_port_thruster,0.0003197772490629899,0.023892625470118344,0.0,0.0,0.0,0.0
2025/05/06 15:12:23.795798678,1746537143,779056054,stern_port_thruster,0.00031977724906312205,0.02389262547011028,0.0,0.0,0.0,0.0
2025/05/06 15:12:23.875670073,1746537143,872392455,stern_port_thruster,0.00031939777984236686,0.02389269935590305,0.0,0.0,0.0,0.0
2025/05/06 15:12:23.967120549,1746537143,966903936,stern_port_thruster,0.0003193977798426587,0.02389269935589785,0.0,0.0,0.0,0.0
2025/05/06 15:12:24.89673352,1746537144,89277130,stern_port_thruster,0.003535533905932738,0.0035355339059327372,0.0,0.0,0.0,0.0
2025/05/06 15:12:24.251761843,1746537144,240118843,stern_port_thruster,0.003535533905932738,0.0035355339059327372,0.0,0.0,0.0,0.0
2025/05/06 15:12:24.342934098,1746537144,338261136,stern_port_thruster,0.003535533905932738,0.0035355339059327372,0.0,0.0,0.0,0.0
2025/05/06 15:12:24.445631189,1746537144,440585256,stern_port_thruster,0.003535533905932738,0.0035355339059327372,0.0,0.0,0.0,0.0
2025/05/06 15:12:24.582556678,1746537144,535622684,stern_port_thruster,0.003535533905932738,0.0035355339059327372,0.0,0.0,0.0,0.0
2025/05/06 15:12:24.655462313,1746537144,654468094,stern_port_thruster,0.003535533905932738,0.0035355339059327372,0.0,0.0,0.0,0.0
2025/05/06 15:12:24.785381012,1746537144,760807335,stern_port_thruster,0.003535533905932738,0.0035355339059327372,0.0,0.0,0.0,0.0
2025/05/06 15:12:24.868263350,1746537144,848212029,stern_port_thruster,0.003535533905932738,0.0035355339059327372,0.0,0.0,0.0,0.0
2025/05/06 15:12:24.959719588,1746537144,953094773,stern_port_thruster,0.003535533905932738,0.0035355339059327372,0.0,0.0,0.0,0.0
2025/05/06 15:12:25.64230125,1746537145,63155079,stern_port_thruster,0.003535533905932738,0.0035355339059327372,0.0,0.0,0.0,0.0
2025/05/06 15:12:25.224135854,1746537145,205618000,stern_port_thruster,0.003535533905932738,0.0035355339059327372,0.0,0.0,0.0,0.0
2025/05/06 15:12:25.280565040,1746537145,274968234,stern_port_thruster,0.003535533905932738,0.0035355339059327372,0.0,0.0,0.0,0.0
2025/05/06 15:12:25.420291432,1746537145,404518053,stern_port_thruster,0.003535533905932738,0.0035355339059327372,0.0,0.0,0.0,0.0
2025/05/06 15:12:25.774804287,1746537145,736563894,stern_port_thruster,0.003535533905932738,0.0035355339059327372,0.0,0.0,0.0,0.0
2025/05/06 15:12:25.867234865,1746537145,854650376,stern_port_thruster,0.003535533905932738,0.0035355339059327372,0.0,0.0,0.0,0.0
2025/05/06 15:12:26.426489,1746537145,999523377,stern_port_thruster,0.003535533905932738,0.0035355339059327372,0.0,0.0,0.0,0.0
2025/05/06 15:12:26.63227064,1746537146,60585544,stern_port_thruster,0.003535533905932738,0.0035355339059327372,0.0,0.0,0.0,0.0
2025/05/06 15:12:26.425253811,1746537146,242387410,stern_port_thruster,0.003535533905932738,0.0035355339059327372,0.0,0.0,0.0,0.0
2025/05/06 15:12:26.485024168,1746537146,357149615,stern_port_thruster,0.003535533905932738,0.0035355339059327372,0.0,0.0,0.0,0.0
2025/05/06 15:12:26.774727231,1746537146,673754275,stern_port_thruster,0.003535533905932738,0.0035355339059327372,0.0,0.0,0.0,0.0
2025/05/06 15:12:26.877717748,1746537146,834998682,stern_port_thruster,0.003535533905932738,0.0035355339059327372,0.0,0.0,0.0,0.0
2025/05/06 15:12:26.952599747,1746537146,945055935,stern_port_thruster,0.003535533905932738,0.0035355339059327372,0.0,0.0,0.0,0.0
2025/05/06 15:12:27.75678682,1746537147,74721576,stern_port_thruster,0.003535533905932738,0.0035355339059327372,0.0,0.0,0.0,0.0
2025/05/06 15:12:27.236919829,1746537147,231938503,stern_port_thruster,0.003535533905932738,0.0035355339059327372,0.0,0.0,0.0,0.0
2025/05/06 15:12:27.326246058,1746537147,323198033,stern_port_thruster,0.003535533905932738,0.0035355339059327372,0.0,0.0,0.0,0.0
2025/05/06 15:12:27.427607919,1746537147,423387612,stern_port_thruster,0.003535533905932738,0.0035355339059327372,0.0,0.0,0.0,0.0
2025/05/06 15:12:27.499697432,1746537147,498578798,stern_port_thruster,0.003535533905932738,0.0035355339059327372,0.0,0.0,0.0,0.0
2025/05/06 15:12:27.554666474,1746537147,552674914,stern_port_thruster,0.003535533905932738,0.0035355339059327372,0.0,0.0,0.0,0.0
2025/05/06 15:12:27.672647502,1746537147,671609631,stern_port_thruster,0.003535533905932738,0.0035355339059327372,0.0,0.0,0.0,0.0
2025/05/06 15:12:27.759605351,1746537147,759018253,stern_port_thruster,0.003535533905932738,0.0035355339059327372,0.0,0.0,0.0,0.0
2025/05/06 15:12:27.868769855,1746537147,862082842,stern_port_thruster,0.003535533905932738,0.0035355339059327372,0.0,0.0,0.0,0.0
2025/05/06 15:12:27.961158386,1746537147,960868500,stern_port_thruster,0.003535533905932738,0.0035355339059327372,0.0,0.0,0.0,0.0
2025/05/06 15:12:28.65780905,1746537148,63744089,stern_port_thruster,0.003535533905932738,0.0035355339059327372,0.0,0.0,0.0,0.0
2025/05/06 15:12:28.149813252,1746537148,148285904,stern_port_thruster,0.003535533905932738,0.0035355339059327372,0.0,0.0,0.0,0.0
2025/05/06 15:12:28.247430673,1746537148,244958712,stern_port_thruster,0.003535533905932738,0.0035355339059327372,0.0,0.0,0.0,0.0
2025/05/06 15:12:28.394805318,1746537148,393883848,stern_port_thruster,0.003535533905932738,0.0035355339059327372,0.0,0.0,0.0,0.0
2025/05/06 15:12:28.447608844,1746537148,447375370,stern_port_thruster,0.003535533905932738,0.0035355339059327372,0.0,0.0,0.0,0.0
2025/05/06 15:12:28.543158339,1746537148,542157048,stern_port_thruster,0.003535533905932738,0.0035355339059327372,0.0,0.0,0.0,0.0
2025/05/06 15:12:28.636934799,1746537148,634564093,stern_port_thruster,0.003535533905932738,0.0035355339059327372,0.0,0.0,0.0,0.0
2025/05/06 15:12:28.740831264,1746537148,739163667,stern_port_thruster,0.003535533905932738,0.0035355339059327372,0.0,0.0,0.0,0.0
2025/05/06 15:12:28.836081151,1746537148,835847451,stern_port_thruster,0.003535533905932738,0.0035355339059327372,0.0,0.0,0.0,0.0
2025/05/06 15:12:28.959592882,1746537148,958253246,stern_port_thruster,0.003535533905932738,0.0035355339059327372,0.0,0.0,0.0,0.0
2025/05/06 15:12:29.53293412,1746537149,50827382,stern_port_thruster,0.003535533905932738,0.0035355339059327372,0.0,0.0,0.0,0.0
2025/05/06 15:12:29.144572486,1746537149,142983689,stern_port_thruster,0.031093645206558912,3.4941679438024746e-05,0.0,0.0,0.0,0.0
2025/05/06 15:12:29.242039205,1746537149,240161952,stern_port_thruster,0.05728578939534005,9.285447154692055e-07,0.0,0.0,0.0,0.0
2025/05/06 15:12:29.349357816,1746537149,348102661,stern_port_thruster,0.08282000431127592,-0.0002444194780899543,0.0,0.0,0.0,0.0
2025/05/06 15:12:29.434391821,1746537149,434023839,stern_port_thruster,0.10888168089263191,3.157802318489629e-06,0.0,0.0,0.0,0.0
2025/05/06 15:12:29.595989312,1746537149,594872817,stern_port_thruster,0.13441618636539115,-6.372530745050328e-07,0.0,0.0,0.0,0.0
2025/05/06 15:12:29.761828928,1746537149,761621442,stern_port_thruster,0.1596212661203432,-5.711050495450029e-07,0.0,0.0,0.0,0.0
2025/05/06 15:12:29.932398223,1746537149,932000954,stern_port_thruster,0.18477233314316593,-5.712697586431892e-07,0.0,0.0,0.0,0.0
2025/05/06 15:12:30.93803055,1746537150,93584869,stern_port_thruster,0.20981608399503604,-5.317679173245089e-07,0.0,0.0,0.0,0.0
2025/05/06 15:12:30.189221629,1746537150,187680393,stern_port_thruster,0.23481469639437355,2.5758974192100115e-06,0.0,0.0,0.0,0.0
2025/05/06 15:12:30.241603444,1746537150,235446830,stern_port_thruster,0.2598146924740821,-5.033556683910756e-07,0.0,0.0,0.0,0.0
2025/05/06 15:12:30.332171085,1746537150,331431945,stern_port_thruster,0.2848145123156121,-9.059708619308948e-07,0.0,0.0,0.0,0.0
2025/05/06 15:12:30.437932475,1746537150,435731937,stern_port_thruster,0.30981531051153866,-7.172043563678979e-07,0.0,0.0,0.0,0.0
2025/05/06 15:12:30.536314455,1746537150,533942273,stern_port_thruster,0.32805924180172386,-5.710074337879353e-07,0.0,0.0,0.0,0.0
2025/05/06 15:12:30.642163674,1746537150,640527448,stern_port_thruster,0.3321917014045914,-1.2933493632313279e-06,0.0,0.0,0.0,0.0
2025/05/06 15:12:30.735290927,1746537150,733968941,stern_port_thruster,0.3365868326729036,-7.218936109375663e-07,0.0,0.0,0.0,0.0
2025/05/06 15:12:30.852353313,1746537150,852051823,stern_port_thruster,0.3412481650528203,-5.634015785071863e-07,0.0,0.0,0.0,0.0
2025/05/06 15:12:30.965759879,1746537150,963100040,stern_port_thruster,0.34617519779403944,-5.74481134206289e-07,0.0,0.0,0.0,0.0
2025/05/06 15:12:31.37585972,1746537151,37110509,stern_port_thruster,0.3513676399077669,-5.342719496552737e-07,0.0,0.0,0.0,0.0
2025/05/06 15:12:31.140671591,1746537151,137127509,stern_port_thruster,0.3568253720545612,-5.103994831342829e-07,0.0,0.0,0.0,0.0
2025/05/06 15:12:31.238225670,1746537151,237152847,stern_port_thruster,0.3625484896060102,-5.094475992387224e-07,0.0,0.0,0.0,0.0
2025/05/06 15:12:31.344578096,1746537151,343795547,stern_port_thruster,0.3685369540353342,-5.235259959521201e-07,0.0,0.0,0.0,0.0
2025/05/06 15:12:31.438144059,1746537151,436755108,stern_port_thruster,0.37419519601702156,0.005320752201608119,0.0,0.0,0.0,0.0
2025/05/06 15:12:31.538565583,1746537151,537287465,stern_port_thruster,0.3807129673115993,0.005431619928060439,0.0,0.0,0.0,0.0
2025/05/06 15:12:31.633384521,1746537151,632415833,stern_port_thruster,0.3874981568812904,0.0055298703459440825,0.0,0.0,0.0,0.0
2025/05/06 15:12:31.739634496,1746537151,739194716,stern_port_thruster,0.39454635124145954,0.005612625157443925,0.0,0.0,0.0,0.0
2025/05/06 15:12:31.833625649,1746537151,833440688,stern_port_thruster,0.40186144054591394,0.005683988646826983,0.0,0.0,0.0,0.0
2025/05/06 15:12:31.934651718,1746537151,934330988,stern_port_thruster,0.40944189571368605,0.00574320451634534,0.0,0.0,0.0,0.0
2025/05/06 15:12:32.34687534,1746537152,32829619,stern_port_thruster,0.41729115879063805,0.0057935565030556605,0.0,0.0,0.0,0.0
2025/05/06 15:12:32.175363455,1746537152,174866412,stern_port_thruster,0.4254025977559572,0.005830575451299557,0.0,0.0,0.0,0.0
2025/05/06 15:12:32.236895241,1746537152,235856448,stern_port_thruster,0.43377537068539496,0.005854107280247202,0.0,0.0,0.0,0.0
2025/05/06 15:12:32.335459903,1746537152,335117342,stern_port_thruster,0.43207554097246287,0.012120921576696619,0.0,0.0,0.0,0.0
2025/05/06 15:12:32.438815405,1746537152,437666516,stern_port_thruster,0.43951943708057095,0.012980740057717675,0.0,0.0,0.0,0.0
2025/05/06 15:12:32.535660871,1746537152,535214807,stern_port_thruster,0.44869883710397845,0.012986759956411673,0.0,0.0,0.0,0.0
2025/05/06 15:12:32.639780628,1746537152,636828893,stern_port_thruster,0.4581369309261237,0.012977815202534609,0.0,0.0,0.0,0.0
2025/05/06 15:12:32.733492563,1746537152,732122204,stern_port_thruster,0.46784162393723266,0.012961272096837761,0.0,0.0,0.0,0.0
2025/05/06 15:12:32.839051473,1746537152,838838459,stern_port_thruster,0.4778117398046986,0.012937623875364426,0.0,0.0,0.0,0.0
2025/05/06 15:12:32.937342292,1746537152,935545204,stern_port_thruster,0.48804599918331387,0.012906835160301862,0.0,0.0,0.0,0.0
2025/05/06 15:12:33.38859070,1746537153,38284489,stern_port_thruster,0.4985446609228007,0.012869496144805419,0.0,0.0,0.0,0.0
2025/05/06 15:12:33.132273784,1746537153,130973966,stern_port_thruster,0.5093083253221438,0.0128259475077869,0.0,0.0,0.0,0.0
2025/05/06 15:12:33.236952256,1746537153,236341137,stern_port_thruster,0.5203399074202342,0.012775705986975566,0.0,0.0,0.0,0.0
2025/05/06 15:12:33.372149660,1746537153,369169216,stern_port_thruster,0.51251973231091,0.0025408894499433224,0.0,0.0,0.0,0.0
2025/05/06 15:12:33.440954437,1746537153,439067698,stern_port_thruster,0.5222108552085863,0.001882381624721361,0.0,0.0,0.0,0.0
2025/05/06 15:12:33.544691452,1746537153,542463393,stern_port_thruster,0.5340379492174202,0.0018162798504145678,0.0,0.0,0.0,0.0
2025/05/06 15:12:33.637588495,1746537153,636256810,stern_port_thruster,0.5461305727145248,0.001745541053796491,0.0,0.0,0.0,0.0
2025/05/06 15:12:33.741627498,1746537153,738941868,stern_port_thruster,0.5551992951180852,0.001675148310103076,0.0,0.0,0.0,0.0
2025/05/06 15:12:33.836645435,1746537153,834762435,stern_port_thruster,0.5587667137994123,0.0016088314898585077,0.0,0.0,0.0,0.0
2025/05/06 15:12:33.942229584,1746537153,941931286,stern_port_thruster,0.5588418223617786,0.001543949232415347,0.0,0.0,0.0,0.0
2025/05/06 15:12:34.32845970,1746537154,31991358,stern_port_thruster,0.5568244651859204,0.0014787333234309711,0.0,0.0,0.0,0.0
2025/05/06 15:12:34.143206444,1746537154,141983577,stern_port_thruster,0.5536843213718372,0.001411992173388511,0.0,0.0,0.0,0.0
2025/05/06 15:12:34.235126985,1746537154,232676465,stern_port_thruster,0.5500877024317252,0.0013429859450890258,0.0,0.0,0.0,0.0
2025/05/06 15:12:34.333168830,1746537154,332215787,stern_port_thruster,0.54648709280241,0.001271271045252553,0.0,0.0,0.0,0.0
2025/05/06 15:12:34.549180644,1746537154,547907236,stern_port_thruster,0.571504859174014,0.11821459478979618,0.0,0.0,0.0,0.0
2025/05/06 15:12:34.706075237,1746537154,701495808,stern_port_thruster,0.6086104410330653,0.1482716521306181,0.0,0.0,0.0,0.0
2025/05/06 15:12:34.752654567,1746537154,752166969,stern_port_thruster,0.5998188346299541,0.15498359824866512,0.0,0.0,0.0,0.0
2025/05/06 15:12:34.843811886,1746537154,840700739,stern_port_thruster,0.5731856150613115,0.14350416462788038,0.0,0.0,0.0,0.0
2025/05/06 15:12:34.933947298,1746537154,933311898,stern_port_thruster,0.5481319126407584,0.13229461263843567,0.0,0.0,0.0,0.0
2025/05/06 15:12:35.46742701,1746537155,45434174,stern_port_thruster,0.524535200183377,0.12140510398520889,0.0,0.0,0.0,0.0
2025/05/06 15:12:35.135698045,1746537155,134086957,stern_port_thruster,0.514975071199619,0.11643677299901678,0.0,0.0,0.0,0.0
2025/05/06 15:12:35.232320252,1746537155,232045147,stern_port_thruster,0.5170658405323283,0.11633976685119114,0.0,0.0,0.0,0.0
2025/05/06 15:12:35.453562022,1746537155,452296181,stern_port_thruster,0.43091268614316874,-6.549680040386761e-07,0.0,0.0,0.0,0.0
2025/05/06 15:12:35.498340368,1746537155,497546404,stern_port_thruster,0.43715863630879875,-5.000259464594429e-07,0.0,0.0,0.0,0.0
2025/05/06 15:12:35.544989027,1746537155,544404452,stern_port_thruster,0.43196337412653757,-4.98378141715945e-07,0.0,0.0,0.0,0.0
2025/05/06 15:12:35.631723822,1746537155,630872866,stern_port_thruster,0.45696363073560853,-6.103063783713979e-07,0.0,0.0,0.0,0.0
2025/05/06 15:12:35.740329231,1746537155,737324323,stern_port_thruster,0.4819633225302381,-5.794618819302997e-07,0.0,0.0,0.0,0.0
2025/05/06 15:12:35.860362620,1746537155,859878911,stern_port_thruster,0.5069633357284451,-5.310897481371196e-07,0.0,0.0,0.0,0.0
2025/05/06 15:12:35.943917097,1746537155,943622658,stern_port_thruster,0.5198251376068732,-5.127987233414267e-07,0.0,0.0,0.0,0.0
2025/05/06 15:12:36.40210425,1746537156,39709263,stern_port_thruster,0.5263399767035226,-5.135338661177551e-07,0.0,0.0,0.0,0.0
2025/05/06 15:12:36.140916895,1746537156,140475237,stern_port_thruster,0.5332728726277424,-5.156461238287501e-07,0.0,0.0,0.0,0.0
2025/05/06 15:12:36.235857869,1746537156,232005269,stern_port_thruster,0.5405971415554055,-5.185651754951735e-07,0.0,0.0,0.0,0.0
2025/05/06 15:12:36.411310771,1746537156,410781618,stern_port_thruster,0.565592120108904,0.0909309161746235,0.0,0.0,0.0,0.0
2025/05/06 15:12:36.459509356,1746537156,457286627,stern_port_thruster,0.5577336807817909,0.09449437342724433,0.0,0.0,0.0,0.0
2025/05/06 15:12:36.535037071,1746537156,534554719,stern_port_thruster,0.5553644277380315,0.10798534458373665,0.0,0.0,0.0,0.0
2025/05/06 15:12:36.643525689,1746537156,637940294,stern_port_thruster,0.5476412455452632,0.1006216340322243,0.0,0.0,0.0,0.0
2025/05/06 15:12:36.739921045,1746537156,739303447,stern_port_thruster,0.542794980610292,0.09437578728154854,0.0,0.0,0.0,0.0
2025/05/06 15:12:36.843706677,1746537156,841607592,stern_port_thruster,0.5519747780926259,0.09425198056662641,0.0,0.0,0.0,0.0
2025/05/06 15:12:36.931832530,1746537156,931445595,stern_port_thruster,0.5613921942232198,0.09412760124607049,0.0,0.0,0.0,0.0
2025/05/06 15:12:37.64167654,1746537157,63309098,stern_port_thruster,0.5710296177869445,0.09400274809269103,0.0,0.0,0.0,0.0
2025/05/06 15:12:37.133725043,1746537157,131382746,stern_port_thruster,0.5808697081065798,0.09387690571467207,0.0,0.0,0.0,0.0
2025/05/06 15:12:37.239889477,1746537157,239762489,stern_port_thruster,0.5908981930555918,0.09375191562357152,0.0,0.0,0.0,0.0
2025/05/06 15:12:37.335518696,1746537157,333790459,stern_port_thruster,0.6010984237463868,0.0936261047666423,0.0,0.0,0.0,0.0
2025/05/06 15:12:37.436177593,1746537157,435465449,stern_port_thruster,0.6008324014797541,0.14161946261850752,0.0,0.0,0.0,0.0
2025/05/06 15:12:37.538433670,1746537157,536448359,stern_port_thruster,0.5968255435022547,0.13507003917493646,0.0,0.0,0.0,0.0
2025/05/06 15:12:37.635311486,1746537157,633787772,stern_port_thruster,0.5970458870489553,0.1303108810844195,0.0,0.0,0.0,0.0
2025/05/06 15:12:37.736976645,1746537157,735531998,stern_port_thruster,0.6078003396263418,0.13018223510951304,0.0,0.0,0.0,0.0
2025/05/06 15:12:37.835541445,1746537157,834216791,stern_port_thruster,0.6186631147485703,0.13005360854015283,0.0,0.0,0.0,0.0
2025/05/06 15:12:37.941999306,1746537157,940693240,stern_port_thruster,0.6296233559023183,0.129925062152205,0.0,0.0,0.0,0.0
2025/05/06 15:12:38.32209687,1746537158,31708358,stern_port_thruster,0.64067112480362,0.1297966376728918,0.0,0.0,0.0,0.0
2025/05/06 15:12:38.178895926,1746537158,173142020,stern_port_thruster,0.6517966557161069,0.12966841268422294,0.0,0.0,0.0,0.0
2025/05/06 15:12:38.267392260,1746537158,265767142,stern_port_thruster,0.6629910648604446,0.12954040961627108,0.0,0.0,0.0,0.0
2025/05/06 15:12:38.333902135,1746537158,332636595,stern_port_thruster,0.6742457780154015,0.1294126926666161,0.0,0.0,0.0,0.0
2025/05/06 15:12:38.433088364,1746537158,431669125,stern_port_thruster,0.6227205962818744,-4.997127137762246e-07,0.0,0.0,0.0,0.0
2025/05/06 15:12:38.552220267,1746537158,551315616,stern_port_thruster,0.6477209935914315,-5.882775640516148e-07,0.0,0.0,0.0,0.0
2025/05/06 15:12:38.632349689,1746537158,631762148,stern_port_thruster,0.6637928892727983,-5.023654059127123e-07,0.0,0.0,0.0,0.0
2025/05/06 15:12:38.738486650,1746537158,737248498,stern_port_thruster,0.6752101846354058,-4.873739921245942e-07,0.0,0.0,0.0,0.0
2025/05/06 15:12:38.839031995,1746537158,837231210,stern_port_thruster,0.6866503160495279,-5.01696081577505e-07,0.0,0.0,0.0,0.0
2025/05/06 15:12:38.934270391,1746537158,933691651,stern_port_thruster,0.6981080902278689,-5.128920219618387e-07,0.0,0.0,0.0,0.0
2025/05/06 15:12:39.35727203,1746537159,34405468,stern_port_thruster,0.7095775544168101,-5.169925463343468e-07,0.0,0.0,0.0,0.0
2025/05/06 15:12:39.142411367,1746537159,141975336,stern_port_thruster,0.7210532422680556,-5.217597701929983e-07,0.0,0.0,0.0,0.0
2025/05/06 15:12:39.236199570,1746537159,233292777,stern_port_thruster,0.7325297531834957,-5.179378857278206e-07,0.0,0.0,0.0,0.0
2025/05/06 15:12:39.341106539,1746537159,340689894,stern_port_thruster,0.7440027322014777,-5.277775663673827e-07,0.0,0.0,0.0,0.0
2025/05/06 15:12:39.593879637,1746537159,592223369,stern_port_thruster,0.5891397785519015,-6.323582934810751e-07,0.0,0.0,0.0,0.0
2025/05/06 15:12:39.683246890,1746537159,682424993,stern_port_thruster,0.5665771984014228,-5.588673605856881e-07,0.0,0.0,0.0,0.0
2025/05/06 15:12:39.801018180,1746537159,798861495,stern_port_thruster,0.5915771976864951,-6.306012325477979e-07,0.0,0.0,0.0,0.0
2025/05/06 15:12:39.852394842,1746537159,850935930,stern_port_thruster,0.603982554809814,-4.867998986997648e-07,0.0,0.0,0.0,0.0
2025/05/06 15:12:39.935412221,1746537159,935002576,stern_port_thruster,0.6289824867854674,-4.4717221095663247e-07,0.0,0.0,0.0,0.0
2025/05/06 15:12:40.49934718,1746537160,49226895,stern_port_thruster,0.6539823883561501,-4.5186062666671215e-07,0.0,0.0,0.0,0.0
2025/05/06 15:12:40.133840182,1746537160,131751772,stern_port_thruster,0.6789822178991417,-4.7002933358425807e-07,0.0,0.0,0.0,0.0
2025/05/06 15:12:40.234783075,1746537160,233282982,stern_port_thruster,0.7039815114914248,-7.490543140008413e-07,0.0,0.0,0.0,0.0
2025/05/06 15:12:40.348219327,1746537160,337247760,stern_port_thruster,0.728981986493716,-3.42235811355242e-07,0.0,0.0,0.0,0.0
2025/05/06 15:12:40.435239000,1746537160,433567806,stern_port_thruster,0.7539857963177886,-3.8131497351841683e-07,0.0,0.0,0.0,0.0
2025/05/06 15:12:40.542818504,1746537160,541308667,stern_port_thruster,0.7789852620148762,-3.542262473626373e-08,0.0,0.0,0.0,0.0
2025/05/06 15:12:40.640019462,1746537160,637980750,stern_port_thruster,0.803984891251362,-2.2073458959725555e-07,0.0,0.0,0.0,0.0
2025/05/06 15:12:40.768390634,1746537160,767921113,stern_port_thruster,0.8207642491056495,-4.90389505079896e-07,0.0,0.0,0.0,0.0
2025/05/06 15:12:40.831847928,1746537160,831521672,stern_port_thruster,0.831757323326103,-4.674660433684862e-07,0.0,0.0,0.0,0.0
2025/05/06 15:12:40.946082138,1746537160,945088415,stern_port_thruster,0.8426989958762662,-4.6375177927234105e-07,0.0,0.0,0.0,0.0
2025/05/06 15:12:41.32659847,1746537161,31707607,stern_port_thruster,0.8535873304726859,-4.5628976582649945e-07,0.0,0.0,0.0,0.0
2025/05/06 15:12:41.139754340,1746537161,139275358,stern_port_thruster,0.864418431343781,-4.6274118487099025e-07,0.0,0.0,0.0,0.0
2025/05/06 15:12:41.242294104,1746537161,237666111,stern_port_thruster,0.8751934848898464,-5.127343424075837e-07,0.0,0.0,0.0,0.0
2025/05/06 15:12:41.341196951,1746537161,340512797,stern_port_thruster,0.8404496967406527,0.06842961920459056,0.0,0.0,0.0,0.0
2025/05/06 15:12:41.433982887,1746537161,432861443,stern_port_thruster,0.8364051537232883,0.08179921386159293,0.0,0.0,0.0,0.0
2025/05/06 15:12:41.536618889,1746537161,535276759,stern_port_thruster,0.8470010678353111,0.08158388033509326,0.0,0.0,0.0,0.0
2025/05/06 15:12:41.634652810,1746537161,633811944,stern_port_thruster,0.8575378968079881,0.08137042578915452,0.0,0.0,0.0,0.0
2025/05/06 15:12:41.732086842,1746537161,731150116,stern_port_thruster,0.8680132331646628,0.08115840399025853,0.0,0.0,0.0,0.0
2025/05/06 15:12:41.844820198,1746537161,843061475,stern_port_thruster,0.8784266313950341,0.08094789629003678,0.0,0.0,0.0,0.0
2025/05/06 15:12:41.961859423,1746537161,960644374,stern_port_thruster,0.8887767507271902,0.08073875568975218,0.0,0.0,0.0,0.0
2025/05/06 15:12:42.45338742,1746537162,45180125,stern_port_thruster,0.8990633410649469,0.08053113182720889,0.0,0.0,0.0,0.0
2025/05/06 15:12:42.136835159,1746537162,136212665,stern_port_thruster,0.9092853251827413,0.080324907215221,0.0,0.0,0.0,0.0
2025/05/06 15:12:42.242378194,1746537162,241807509,stern_port_thruster,0.9194415400609754,0.08011982354013776,0.0,0.0,0.0,0.0
2025/05/06 15:12:42.333544675,1746537162,331432099,stern_port_thruster,0.9295330068307586,0.07991645856036927,0.0,0.0,0.0,0.0
2025/05/06 15:12:42.436662089,1746537162,436256249,stern_port_thruster,0.8894686303489923,0.047908118639208325,0.0,0.0,0.0,0.0
2025/05/06 15:12:42.542005675,1746537162,539934240,stern_port_thruster,0.8994263942561639,0.04764189106181405,0.0,0.0,0.0,0.0
2025/05/06 15:12:42.635586436,1746537162,634225875,stern_port_thruster,0.9093177214375754,0.04737765919923276,0.0,0.0,0.0,0.0
2025/05/06 15:12:42.746981491,1746537162,744683348,stern_port_thruster,0.919142065277337,0.04711533951389127,0.0,0.0,0.0,0.0
2025/05/06 15:12:42.845824583,1746537162,845055622,stern_port_thruster,0.9288949927510095,0.04685358429724106,0.0,0.0,0.0,0.0
2025/05/06 15:12:42.939221973,1746537162,938248565,stern_port_thruster,0.9385861507512832,0.04659556291835066,0.0,0.0,0.0,0.0
2025/05/06 15:12:43.31747398,1746537163,31427961,stern_port_thruster,0.9482068107876853,0.04633858029153147,0.0,0.0,0.0,0.0
2025/05/06 15:12:43.177837803,1746537163,177096250,stern_port_thruster,0.9577651059254914,0.04608527109598286,0.0,0.0,0.0,0.0
2025/05/06 15:12:43.234262865,1746537163,232716993,stern_port_thruster,0.9672511083692927,0.04583244734792102,0.0,0.0,0.0,0.0
2025/05/06 15:12:43.350960754,1746537163,348634755,stern_port_thruster,0.9766670566709845,0.04558085320533605,0.0,0.0,0.0,0.0
2025/05/06 15:12:43.511530016,1746537163,508002802,stern_port_thruster,0.9573579825692108,0.03786134493239265,0.0,0.0,0.0,0.0
2025/05/06 15:12:43.564778211,1746537163,563828912,stern_port_thruster,0.957359436231063,0.0378618314571945,0.0,0.0,0.0,0.0
2025/05/06 15:12:43.634118228,1746537163,633906945,stern_port_thruster,0.9758564156547501,0.037305176953632654,0.0,0.0,0.0,0.0
2025/05/06 15:12:43.738500976,1746537163,738325252,stern_port_thruster,0.9850019878858747,0.037029724816053454,0.0,0.0,0.0,0.0
2025/05/06 15:12:43.835415628,1746537163,833049946,stern_port_thruster,0.9940796802289819,0.03675639212116832,0.0,0.0,0.0,0.0
2025/05/06 15:12:43.945519086,1746537163,944722024,stern_port_thruster,1.0030924040039735,0.036486084434889786,0.0,0.0,0.0,0.0
2025/05/06 15:12:44.36155748,1746537164,33643575,stern_port_thruster,1.012034180560611,0.036216833815528204,0.0,0.0,0.0,0.0
2025/05/06 15:12:44.135229339,1746537164,134878547,stern_port_thruster,1.0209080786124782,0.035949587307949775,0.0,0.0,0.0,0.0
2025/05/06 15:12:44.231752456,1746537164,231176370,stern_port_thruster,1.0297144969151943,0.03568439243232702,0.0,0.0,0.0,0.0
2025/05/06 15:12:44.363656192,1746537164,362928719,stern_port_thruster,0.9836654915136478,-4.997721925839732e-07,0.0,0.0,0.0,0.0
2025/05/06 15:12:44.446494076,1746537164,444689794,stern_port_thruster,1.0086633139160879,-3.1491771404856094e-06,0.0,0.0,0.0,0.0
2025/05/06 15:12:44.535246253,1746537164,534272475,stern_port_thruster,1.0255540674152723,-1.021149519083159e-06,0.0,0.0,0.0,0.0
2025/05/06 15:12:44.635904828,1746537164,635232537,stern_port_thruster,1.034094402186653,-6.22432782365224e-07,0.0,0.0,0.0,0.0
2025/05/06 15:12:44.733678670,1746537164,733303011,stern_port_thruster,1.0425696430365445,-9.792322100131214e-07,0.0,0.0,0.0,0.0
2025/05/06 15:12:44.838000609,1746537164,837346967,stern_port_thruster,1.0509779508126627,-5.041449408802301e-07,0.0,0.0,0.0,0.0
2025/05/06 15:12:44.934295744,1746537164,931666409,stern_port_thruster,1.0593223842475339,-1.0037695407263384e-06,0.0,0.0,0.0,0.0
2025/05/06 15:12:45.51199624,1746537165,50575480,stern_port_thruster,1.0676014117705879,-8.573043936315974e-07,0.0,0.0,0.0,0.0
2025/05/06 15:12:45.143519531,1746537165,142510285,stern_port_thruster,1.0758135720573587,-8.84473477525198e-07,0.0,0.0,0.0,0.0
2025/05/06 15:12:45.237097202,1746537165,236070503,stern_port_thruster,1.0839585169794368,-4.5915206037010087e-07,0.0,0.0,0.0,0.0
2025/05/06 15:12:45.343492030,1746537165,340650311,stern_port_thruster,1.090846229608343,0.026533119718999455,0.0,0.0,0.0,0.0
2025/05/06 15:12:45.432547267,1746537165,432088082,stern_port_thruster,1.0988658785672594,0.02634950575935865,0.0,0.0,0.0,0.0
2025/05/06 15:12:45.573198581,1746537165,568403013,stern_port_thruster,1.1068285430859128,0.0261695317254981,0.0,0.0,0.0,0.0
2025/05/06 15:12:45.634453067,1746537165,632967328,stern_port_thruster,1.1147192277613127,0.02598850749975348,0.0,0.0,0.0,0.0
2025/05/06 15:12:45.739768400,1746537165,737702408,stern_port_thruster,1.1225487025515306,0.0258095272189602,0.0,0.0,0.0,0.0
2025/05/06 15:12:45.832746828,1746537165,832297866,stern_port_thruster,1.1303171833874803,0.0256325651918318,0.0,0.0,0.0,0.0
2025/05/06 15:12:45.946714293,1746537165,934548925,stern_port_thruster,1.1380171164828345,0.025455216962955735,0.0,0.0,0.0,0.0
2025/05/06 15:12:46.34289011,1746537166,32878894,stern_port_thruster,1.1456597589354702,0.02528084552489394,0.0,0.0,0.0,0.0
2025/05/06 15:12:46.142344886,1746537166,141892675,stern_port_thruster,1.1532391067981644,0.025107507758446043,0.0,0.0,0.0,0.0
2025/05/06 15:12:46.237645147,1746537166,232830016,stern_port_thruster,1.1607603100344153,0.024936568192747692,0.0,0.0,0.0,0.0
2025/05/06 15:12:46.337696512,1746537166,337091637,stern_port_thruster,1.1520843126892357,1.5825853470021103e-07,0.0,0.0,0.0,0.0
2025/05/06 15:12:46.437807265,1746537166,436081207,stern_port_thruster,1.159367509591786,-9.823135777267485e-07,0.0,0.0,0.0,0.0
2025/05/06 15:12:46.538551206,1746537166,538021164,stern_port_thruster,1.1667068548915271,-9.664053715414238e-07,0.0,0.0,0.0,0.0
2025/05/06 15:12:46.633051696,1746537166,631923291,stern_port_thruster,1.1739864667464945,-9.101069030640635e-07,0.0,0.0,0.0,0.0
2025/05/06 15:12:46.758921669,1746537166,757748507,stern_port_thruster,1.1812068264854434,-8.229230615385237e-07,0.0,0.0,0.0,0.0
2025/05/06 15:12:46.853802842,1746537166,845048492,stern_port_thruster,1.1883679060370183,-7.506756704718344e-07,0.0,0.0,0.0,0.0
2025/05/06 15:12:46.932194231,1746537166,931314435,stern_port_thruster,1.195470245236432,-6.789137489875061e-07,0.0,0.0,0.0,0.0
2025/05/06 15:12:47.37621866,1746537167,37099797,stern_port_thruster,1.2025140847573004,-6.394858379600226e-07,0.0,0.0,0.0,0.0
2025/05/06 15:12:47.137311456,1746537167,134888664,stern_port_thruster,1.2094998222765916,-6.25930303882644e-07,0.0,0.0,0.0,0.0
2025/05/06 15:12:47.238275436,1746537167,235652638,stern_port_thruster,1.2164288734990587,-3.203441152446432e-07,0.0,0.0,0.0,0.0
2025/05/06 15:12:47.337602021,1746537167,336086116,stern_port_thruster,1.119043552430181,-6.043279043737697e-07,0.0,0.0,0.0,0.0
2025/05/06 15:12:47.441538760,1746537167,440369816,stern_port_thruster,1.1440436307459245,-3.9238885246544397e-07,0.0,0.0,0.0,0.0
2025/05/06 15:12:47.537290102,1746537167,536856792,stern_port_thruster,1.1690468584282172,-3.090682129196862e-07,0.0,0.0,0.0,0.0
2025/05/06 15:12:47.635714240,1746537167,634061138,stern_port_thruster,1.194046800583678,-9.433038719316276e-07,0.0,0.0,0.0,0.0
2025/05/06 15:12:47.736864939,1746537167,736216514,stern_port_thruster,1.2149473084666444,1.8059316863439905e-07,0.0,0.0,0.0,0.0
2025/05/06 15:12:47.835192441,1746537167,834820269,stern_port_thruster,1.2215356532858705,-4.943403937878109e-07,0.0,0.0,0.0,0.0
2025/05/06 15:12:47.968355894,1746537167,968070585,stern_port_thruster,1.228070490656203,-7.978992806187273e-07,0.0,0.0,0.0,0.0
2025/05/06 15:12:48.37659559,1746537168,37323893,stern_port_thruster,1.2345529616421131,-8.61535045008129e-07,0.0,0.0,0.0,0.0
2025/05/06 15:12:48.139877439,1746537168,138566012,stern_port_thruster,1.2409816788542136,-8.932751030964569e-07,0.0,0.0,0.0,0.0
2025/05/06 15:12:48.231903270,1746537168,231551970,stern_port_thruster,1.247357177935419,-8.907080514168588e-07,0.0,0.0,0.0,0.0
2025/05/06 15:12:48.457622154,1746537168,456120572,stern_port_thruster,1.2723916976999181,0.09435626536865964,0.0,0.0,0.0,0.0
2025/05/06 15:12:48.502803130,1746537168,502602946,stern_port_thruster,1.3008854671323005,0.11931346690325191,0.0,0.0,0.0,0.0
2025/05/06 15:12:48.548891853,1746537168,547058111,stern_port_thruster,1.3071059809569388,0.12039022234903854,0.0,0.0,0.0,0.0
2025/05/06 15:12:48.635008608,1746537168,633455203,stern_port_thruster,1.2944606888026107,0.1121016598016805,0.0,0.0,0.0,0.0
2025/05/06 15:12:48.747156911,1746537168,746608895,stern_port_thruster,1.2817129566893213,0.10379019937836068,0.0,0.0,0.0,0.0
2025/05/06 15:12:48.840801095,1746537168,839395842,stern_port_thruster,1.2688557309197703,0.09545263413530419,0.0,0.0,0.0,0.0
2025/05/06 15:12:48.933524353,1746537168,931888589,stern_port_thruster,1.25590818451043,0.08709387112756291,0.0,0.0,0.0,0.0
2025/05/06 15:12:49.44257524,1746537169,41436691,stern_port_thruster,1.2428454619040514,0.07870921906355417,0.0,0.0,0.0,0.0
2025/05/06 15:12:49.161982770,1746537169,160821813,stern_port_thruster,1.229700947330551,0.07030554099125488,0.0,0.0,0.0,0.0
2025/05/06 15:12:49.235649336,1746537169,234228993,stern_port_thruster,1.2243324025342968,0.06538420119405217,0.0,0.0,0.0,0.0
2025/05/06 15:12:49.333726916,1746537169,331458000,stern_port_thruster,1.1408299423447597,-1.7316751660735688e-06,0.0,0.0,0.0,0.0
2025/05/06 15:12:49.434769240,1746537169,433757178,stern_port_thruster,1.1372216978857237,-1.2051939324919846e-06,0.0,0.0,0.0,0.0
2025/05/06 15:12:49.531930132,1746537169,531674189,stern_port_thruster,1.1429380799817568,-9.747032243656182e-07,0.0,0.0,0.0,0.0
2025/05/06 15:12:49.637825762,1746537169,636855231,stern_port_thruster,1.1486052593430698,-9.892597059086671e-07,0.0,0.0,0.0,0.0
2025/05/06 15:12:49.735795433,1746537169,733270564,stern_port_thruster,1.1542248794130934,-1.0004750679775633e-06,0.0,0.0,0.0,0.0
2025/05/06 15:12:49.832988699,1746537169,832630816,stern_port_thruster,1.1597972607915596,-1.0069636729319618e-06,0.0,0.0,0.0,0.0
2025/05/06 15:12:49.936890879,1746537169,935288865,stern_port_thruster,1.165330506638981,5.733623717744406e-07,0.0,0.0,0.0,0.0
2025/05/06 15:12:50.34296381,1746537170,32161741,stern_port_thruster,1.1708100236998205,6.087076253620677e-07,0.0,0.0,0.0,0.0
2025/05/06 15:12:50.143537162,1746537170,141589899,stern_port_thruster,1.1762432195361554,5.911458595618557e-07,0.0,0.0,0.0,0.0
2025/05/06 15:12:50.240613735,1746537170,239072304,stern_port_thruster,1.1816242324031039,-5.007663814097108e-07,0.0,0.0,0.0,0.0
2025/05/06 15:12:50.386793423,1746537170,386211320,stern_port_thruster,1.072057511685147,-4.982969616086423e-07,0.0,0.0,0.0,0.0
2025/05/06 15:12:50.434979922,1746537170,431956632,stern_port_thruster,1.0655449002981783,-6.772841365612282e-07,0.0,0.0,0.0,0.0
2025/05/06 15:12:50.541904381,1746537170,540802615,stern_port_thruster,1.0707991670952617,-7.814077583730803e-08,0.0,0.0,0.0,0.0
2025/05/06 15:12:50.634710023,1746537170,633018498,stern_port_thruster,1.0760072946282384,-4.3749508861032066e-08,0.0,0.0,0.0,0.0
2025/05/06 15:12:50.731897580,1746537170,731805381,stern_port_thruster,1.0811717123796099,3.4166297410199066e-08,0.0,0.0,0.0,0.0
2025/05/06 15:12:50.836650550,1746537170,835327396,stern_port_thruster,1.086292354249428,5.3389703619815735e-08,0.0,0.0,0.0,0.0
2025/05/06 15:12:50.934981022,1746537170,933560641,stern_port_thruster,1.0913693118456287,-9.132475684269258e-09,0.0,0.0,0.0,0.0
2025/05/06 15:12:51.36026922,1746537171,34023251,stern_port_thruster,1.096403383908054,-4.988657619416446e-09,0.0,0.0,0.0,0.0
2025/05/06 15:12:51.135268807,1746537171,133335537,stern_port_thruster,1.101394841512093,-4.168709542237467e-09,0.0,0.0,0.0,0.0
2025/05/06 15:12:51.245704386,1746537171,244583101,stern_port_thruster,1.106344140233495,-7.276331320755601e-09,0.0,0.0,0.0,0.0
2025/05/06 15:12:51.338443525,1746537171,337332954,stern_port_thruster,0.9918368742534038,0.02035376311818953,0.0,0.0,0.0,0.0
2025/05/06 15:12:51.443644829,1746537171,442667370,stern_port_thruster,0.9967053371732827,0.020342358198888633,0.0,0.0,0.0,0.0
2025/05/06 15:12:51.571631301,1746537171,570062396,stern_port_thruster,1.0015306732192888,0.02033080110323577,0.0,0.0,0.0,0.0
2025/05/06 15:12:51.635341212,1746537171,634188391,stern_port_thruster,1.0063101741634894,0.020318939812118377,0.0,0.0,0.0,0.0
2025/05/06 15:12:51.735751519,1746537171,732597689,stern_port_thruster,1.0110535119992627,0.020307703023542532,0.0,0.0,0.0,0.0
2025/05/06 15:12:51.837589558,1746537171,837456484,stern_port_thruster,1.015756640663445,0.020296549933943742,0.0,0.0,0.0,0.0
2025/05/06 15:12:51.934121218,1746537171,932410419,stern_port_thruster,1.020420114716551,0.02028548083825348,0.0,0.0,0.0,0.0
2025/05/06 15:12:52.33775209,1746537172,32634397,stern_port_thruster,1.0250482329831594,0.02027477592411535,0.0,0.0,0.0,0.0
2025/05/06 15:12:52.148706500,1746537172,147717457,stern_port_thruster,1.0296282983107912,0.020263705208630866,0.0,0.0,0.0,0.0
2025/05/06 15:12:52.235524531,1746537172,234305280,stern_port_thruster,1.0341740181666759,0.0202529558169906,0.0,0.0,0.0,0.0
2025/05/06 15:12:52.338425613,1746537172,337469369,stern_port_thruster,0.9174761474790347,0.014760973245336017,0.0,0.0,0.0,0.0
2025/05/06 15:12:52.433887189,1746537172,433491918,stern_port_thruster,0.9219428231757136,0.01469452591344649,0.0,0.0,0.0,0.0
2025/05/06 15:12:52.534942623,1746537172,533927437,stern_port_thruster,0.9263732646834343,0.014629135968434171,0.0,0.0,0.0,0.0
2025/05/06 15:12:52.635676088,1746537172,633595779,stern_port_thruster,0.9307661024861221,0.014564328966591045,0.0,0.0,0.0,0.0
2025/05/06 15:12:52.769782435,1746537172,768994560,stern_port_thruster,0.9351217683152683,0.014500115722256355,0.0,0.0,0.0,0.0
2025/05/06 15:12:52.839853335,1746537172,836885354,stern_port_thruster,0.939440603720611,0.01443650358177004,0.0,0.0,0.0,0.0
2025/05/06 15:12:52.934312063,1746537172,932178546,stern_port_thruster,0.9437224182619695,0.014373313608904871,0.0,0.0,0.0,0.0
2025/05/06 15:12:53.37288699,1746537173,36873609,stern_port_thruster,0.9479665274673783,0.014310288911254859,0.0,0.0,0.0,0.0
2025/05/06 15:12:53.132995747,1746537173,132014666,stern_port_thruster,0.9521785208387554,0.01424898583570498,0.0,0.0,0.0,0.0
2025/05/06 15:12:53.239923236,1746537173,238705650,stern_port_thruster,0.9563518827256534,0.01418735894608819,0.0,0.0,0.0,0.0
2025/05/06 15:12:53.336518493,1746537173,335175343,stern_port_thruster,0.8126073959164337,-4.993691305532646e-07,0.0,0.0,0.0,0.0
2025/05/06 15:12:53.439655526,1746537173,439363750,stern_port_thruster,0.8376078025084083,-4.084500875370784e-07,0.0,0.0,0.0,0.0
2025/05/06 15:12:53.534519510,1746537173,532845939,stern_port_thruster,0.8596041001047755,0.0001901189158232435,0.0,0.0,0.0,0.0
2025/05/06 15:12:53.637959699,1746537173,636091944,stern_port_thruster,0.8636366790900972,8.864152127513111e-05,0.0,0.0,0.0,0.0
2025/05/06 15:12:53.734961454,1746537173,732576520,stern_port_thruster,0.8676346811006005,-3.6157990895643887e-07,0.0,0.0,0.0,0.0
2025/05/06 15:12:53.831755923,1746537173,831262235,stern_port_thruster,0.8715989310650877,-3.4975382120095053e-07,0.0,0.0,0.0,0.0
2025/05/06 15:12:53.967358891,1746537173,963887981,stern_port_thruster,0.8755293214135901,-4.6036761749399546e-07,0.0,0.0,0.0,0.0
2025/05/06 15:12:54.34749918,1746537174,34398916,stern_port_thruster,0.8794228293442141,3.3252315956681464e-07,0.0,0.0,0.0,0.0
2025/05/06 15:12:54.137655032,1746537174,136215585,stern_port_thruster,0.8832902235435185,-5.025198257610649e-07,0.0,0.0,0.0,0.0
2025/05/06 15:12:54.234816992,1746537174,233822953,stern_port_thruster,0.8871214419856651,-4.251042196682739e-07,0.0,0.0,0.0,0.0
2025/05/06 15:12:54.341248585,1746537174,339293182,stern_port_thruster,0.7236189206765188,-1.036935059112814e-06,0.0,0.0,0.0,0.0
2025/05/06 15:12:54.433901351,1746537174,432619960,stern_port_thruster,0.7217091410792831,-4.718909330204148e-07,0.0,0.0,0.0,0.0
2025/05/06 15:12:54.547100244,1746537174,545348155,stern_port_thruster,0.7467092498381029,-3.915094176363259e-07,0.0,0.0,0.0,0.0
2025/05/06 15:12:54.636947293,1746537174,634652402,stern_port_thruster,0.7717065367695152,-9.681222589083968e-07,0.0,0.0,0.0,0.0
2025/05/06 15:12:54.739471834,1746537174,738967960,stern_port_thruster,0.7967043133402237,-6.894273778867295e-07,0.0,0.0,0.0,0.0
2025/05/06 15:12:54.837076687,1746537174,835862815,stern_port_thruster,0.82170345916267,-2.532010523585428e-07,0.0,0.0,0.0,0.0
2025/05/06 15:12:54.940120276,1746537174,939646245,stern_port_thruster,0.8348722810685902,-3.435706876003276e-08,0.0,0.0,0.0,0.0
2025/05/06 15:12:55.34397226,1746537175,33969353,stern_port_thruster,0.8384489362009488,1.9954778032974818e-07,0.0,0.0,0.0,0.0
2025/05/06 15:12:55.159113594,1746537175,158088343,stern_port_thruster,0.8419944545508129,4.0332470286783533e-07,0.0,0.0,0.0,0.0
2025/05/06 15:12:55.243165571,1746537175,242679302,stern_port_thruster,0.8455095061329847,4.406651722285504e-07,0.0,0.0,0.0,0.0
2025/05/06 15:12:55.334336581,1746537175,333076821,stern_port_thruster,0.7918178394715314,4.975748374594185e-07,0.0,0.0,0.0,0.0
2025/05/06 15:12:55.446841247,1746537175,446749383,stern_port_thruster,0.7952781219212518,-2.8891235951055614e-08,0.0,0.0,0.0,0.0
2025/05/06 15:12:55.535814756,1746537175,534502679,stern_port_thruster,0.7987046808708644,-8.218243141513336e-08,0.0,0.0,0.0,0.0
2025/05/06 15:12:55.639798558,1746537175,637458744,stern_port_thruster,0.8021020336753099,-1.5368236677146516e-07,0.0,0.0,0.0,0.0
2025/05/06 15:12:55.738350663,1746537175,736831645,stern_port_thruster,0.8054705044478295,-1.231976045234864e-07,0.0,0.0,0.0,0.0
2025/05/06 15:12:55.838903790,1746537175,837752970,stern_port_thruster,0.8088102233368163,-1.434305994701325e-07,0.0,0.0,0.0,0.0
2025/05/06 15:12:55.942276990,1746537175,941486727,stern_port_thruster,0.8121214909306136,-2.2783363271599413e-07,0.0,0.0,0.0,0.0
2025/05/06 15:12:56.37521290,1746537176,36529750,stern_port_thruster,0.8154044952965773,-4.0232735377996187e-07,0.0,0.0,0.0,0.0
2025/05/06 15:12:56.143216597,1746537176,141758022,stern_port_thruster,0.8186595227480067,-3.841863200168814e-07,0.0,0.0,0.0,0.0
2025/05/06 15:12:56.235911234,1746537176,234713578,stern_port_thruster,0.8218869065456811,-2.8981774688977424e-07,0.0,0.0,0.0,0.0
2025/05/06 15:12:56.364246821,1746537176,363816980,stern_port_thruster,0.7747679554393139,0.01085935788625821,0.0,0.0,0.0,0.0
2025/05/06 15:12:56.437311889,1746537176,436669229,stern_port_thruster,0.7779389599422355,0.010716123224835313,0.0,0.0,0.0,0.0
2025/05/06 15:12:56.539053693,1746537176,538794634,stern_port_thruster,0.7810831048745231,0.010574194973233786,0.0,0.0,0.0,0.0
2025/05/06 15:12:56.635897188,1746537176,634469587,stern_port_thruster,0.7842005105245399,0.01043348304144402,0.0,0.0,0.0,0.0
2025/05/06 15:12:56.735311459,1746537176,734879923,stern_port_thruster,0.787291181558472,0.010293981794392044,0.0,0.0,0.0,0.0
2025/05/06 15:12:56.838280327,1746537176,837002215,stern_port_thruster,0.7903555385925204,0.010155700321943175,0.0,0.0,0.0,0.0
2025/05/06 15:12:56.936044919,1746537176,935736705,stern_port_thruster,0.7933933875792616,0.010018524518336094,0.0,0.0,0.0,0.0
2025/05/06 15:12:57.53855420,1746537177,53564272,stern_port_thruster,0.7964052072070931,0.0098824899011417,0.0,0.0,0.0,0.0
2025/05/06 15:12:57.134349559,1746537177,134089961,stern_port_thruster,0.799391111864402,0.009747587260836153,0.0,0.0,0.0,0.0
2025/05/06 15:12:57.239271851,1746537177,238966924,stern_port_thruster,0.8023514417402831,0.009613831091520331,0.0,0.0,0.0,0.0
2025/05/06 15:12:57.334933764,1746537177,333671613,stern_port_thruster,0.743244776611387,0.055573382215464984,0.0,0.0,0.0,0.0
2025/05/06 15:12:57.438434046,1746537177,437729530,stern_port_thruster,0.7461568607949951,0.0554164597446774,0.0,0.0,0.0,0.0
2025/05/06 15:12:57.559295573,1746537177,558270212,stern_port_thruster,0.749041083371594,0.05525988270879262,0.0,0.0,0.0,0.0
2025/05/06 15:12:57.635230924,1746537177,634321584,stern_port_thruster,0.7519006005794527,0.055104648752467886,0.0,0.0,0.0,0.0
2025/05/06 15:12:57.737458164,1746537177,736745615,stern_port_thruster,0.7547357361261314,0.05495078014724365,0.0,0.0,0.0,0.0
2025/05/06 15:12:57.837008959,1746537177,836127672,stern_port_thruster,0.7575471135965325,0.054798397312738695,0.0,0.0,0.0,0.0
2025/05/06 15:12:57.946194414,1746537177,942476126,stern_port_thruster,0.760334510418803,0.054647339564799405,0.0,0.0,0.0,0.0
2025/05/06 15:12:58.38473747,1746537178,37859811,stern_port_thruster,0.7630980173072922,0.0544975644513297,0.0,0.0,0.0,0.0
2025/05/06 15:12:58.142037051,1746537178,141876309,stern_port_thruster,0.765837925956928,0.05434911324638243,0.0,0.0,0.0,0.0
2025/05/06 15:12:58.232194070,1746537178,231405077,stern_port_thruster,0.7685544423369628,0.05420193780397099,0.0,0.0,0.0,0.0
2025/05/06 15:12:58.461735002,1746537178,460938122,stern_port_thruster,0.6090955931086296,-5.164965447357497e-07,0.0,0.0,0.0,0.0
2025/05/06 15:12:58.551103183,1746537178,549935941,stern_port_thruster,0.6045365554346845,-4.998066199806644e-07,0.0,0.0,0.0,0.0
2025/05/06 15:12:58.595232711,1746537178,594703973,stern_port_thruster,0.6295369086563616,-2.674810211250169e-06,0.0,0.0,0.0,0.0
2025/05/06 15:12:58.645518952,1746537178,645022975,stern_port_thruster,0.6545372592801982,-5.050922589954591e-07,0.0,0.0,0.0,0.0
2025/05/06 15:12:58.762243094,1746537178,759341120,stern_port_thruster,0.6795380152533563,-9.595353908608889e-07,0.0,0.0,0.0,0.0
2025/05/06 15:12:58.835933157,1746537178,832123569,stern_port_thruster,0.7045382397516318,-1.1215246333021609e-06,0.0,0.0,0.0,0.0
2025/05/06 15:12:58.936339719,1746537178,933972726,stern_port_thruster,0.7270478309166383,-9.64531190137646e-07,0.0,0.0,0.0,0.0
2025/05/06 15:12:59.50903986,1746537179,46789677,stern_port_thruster,0.7295825190281281,-9.833932072166156e-07,0.0,0.0,0.0,0.0
2025/05/06 15:12:59.134329175,1746537179,133516114,stern_port_thruster,0.7320956236855171,-1.0120968023693623e-06,0.0,0.0,0.0,0.0
2025/05/06 15:12:59.240803684,1746537179,240333524,stern_port_thruster,0.7345871527428014,-1.0405397664972343e-06,0.0,0.0,0.0,0.0
2025/05/06 15:12:59.485848059,1746537179,485758958,stern_port_thruster,0.5244962706680861,-6.659233423980142e-07,0.0,0.0,0.0,0.0
2025/05/06 15:12:59.618772172,1746537179,617774944,stern_port_thruster,0.5057256754917061,-2.6247827295232754e-07,0.0,0.0,0.0,0.0
2025/05/06 15:12:59.696871964,1746537179,696596750,stern_port_thruster,0.4862620803150798,-1.2597402552013606e-07,0.0,0.0,0.0,0.0
2025/05/06 15:12:59.747635341,1746537179,746363476,stern_port_thruster,0.47112445110806583,-5.020993959173335e-07,0.0,0.0,0.0,0.0
2025/05/06 15:12:59.832756292,1746537179,831455446,stern_port_thruster,0.49612463213105473,-3.7145656304574607e-07,0.0,0.0,0.0,0.0
2025/05/06 15:12:59.936994838,1746537179,935885703,stern_port_thruster,0.5211249421685236,-3.7332877332160016e-07,0.0,0.0,0.0,0.0
2025/05/06 15:13:00.60200850,1746537180,57790003,stern_port_thruster,0.5461228831810235,-7.708141810208446e-07,0.0,0.0,0.0,0.0
2025/05/06 15:13:00.135958099,1746537180,134854417,stern_port_thruster,0.5711226249726998,-1.2538652376838483e-07,0.0,0.0,0.0,0.0
2025/05/06 15:13:00.236137482,1746537180,235122572,stern_port_thruster,0.5961231139320377,2.428188838174795e-08,0.0,0.0,0.0,0.0
2025/05/06 15:13:00.340993202,1746537180,339264367,stern_port_thruster,0.6211244688798815,-2.93877459375546e-07,0.0,0.0,0.0,0.0
2025/05/06 15:13:00.435734847,1746537180,433705463,stern_port_thruster,0.6461261841645727,-5.521316609191837e-07,0.0,0.0,0.0,0.0
2025/05/06 15:13:00.541667961,1746537180,540514827,stern_port_thruster,0.6666396251886166,-1.0942312053398597e-06,0.0,0.0,0.0,0.0
2025/05/06 15:13:00.638610194,1746537180,635731548,stern_port_thruster,0.6688470613767321,-1.083923279309247e-06,0.0,0.0,0.0,0.0
2025/05/06 15:13:00.732633194,1746537180,731094311,stern_port_thruster,0.6710357580928182,-1.0735720987758828e-06,0.0,0.0,0.0,0.0
2025/05/06 15:13:00.864540146,1746537180,841840614,stern_port_thruster,0.6732056977883566,-1.0616538923933902e-06,0.0,0.0,0.0,0.0
2025/05/06 15:13:00.931845777,1746537180,931681901,stern_port_thruster,0.6753571128988684,-1.0483181461286806e-06,0.0,0.0,0.0,0.0
2025/05/06 15:13:01.46778844,1746537181,44982971,stern_port_thruster,0.6774901629742085,-1.0170020927047345e-06,0.0,0.0,0.0,0.0
2025/05/06 15:13:01.136604686,1746537181,135424302,stern_port_thruster,0.6796049942357973,-9.820228467802636e-07,0.0,0.0,0.0,0.0
2025/05/06 15:13:01.270947250,1746537181,270536380,stern_port_thruster,0.6817016771583485,-9.459414227075715e-07,0.0,0.0,0.0,0.0
2025/05/06 15:13:01.331945579,1746537181,330892337,stern_port_thruster,0.6657145915402509,-1.0397153875650178e-06,0.0,0.0,0.0,0.0
2025/05/06 15:13:01.441322999,1746537181,440515138,stern_port_thruster,0.6677739812825227,-1.0250197023013466e-06,0.0,0.0,0.0,0.0
2025/05/06 15:13:01.533881956,1746537181,531805576,stern_port_thruster,0.6698177731068735,-1.0394505477522667e-06,0.0,0.0,0.0,0.0
2025/05/06 15:13:01.634516863,1746537181,633160590,stern_port_thruster,0.6718441944787914,-1.0449646362904902e-06,0.0,0.0,0.0,0.0
2025/05/06 15:13:01.736416233,1746537181,735067678,stern_port_thruster,0.6738532317148465,-1.0486756720297307e-06,0.0,0.0,0.0,0.0
2025/05/06 15:13:01.831969286,1746537181,831763442,stern_port_thruster,0.6758451099525116,-1.0508767541320384e-06,0.0,0.0,0.0,0.0
2025/05/06 15:13:01.935651479,1746537181,933053136,stern_port_thruster,0.6778199094964097,-1.0517868326636193e-06,0.0,0.0,0.0,0.0
2025/05/06 15:13:02.32591543,1746537182,32161574,stern_port_thruster,0.6797778676039864,-1.042040976438578e-06,0.0,0.0,0.0,0.0
2025/05/06 15:13:02.139995658,1746537182,138582569,stern_port_thruster,0.6817191363167081,-1.0209175457006282e-06,0.0,0.0,0.0,0.0
2025/05/06 15:13:02.232279878,1746537182,230682889,stern_port_thruster,0.6836439329538766,-9.920169094323724e-07,0.0,0.0,0.0,0.0
2025/05/06 15:13:02.337241338,1746537182,335867534,stern_port_thruster,0.6476078846130362,-1.0648737304475747e-06,0.0,0.0,0.0,0.0
2025/05/06 15:13:02.469808717,1746537182,468411842,stern_port_thruster,0.6495002253958033,-1.0094790087790923e-06,0.0,0.0,0.0,0.0
2025/05/06 15:13:02.538642857,1746537182,537610256,stern_port_thruster,0.6513765517890227,-9.829665647100158e-07,0.0,0.0,0.0,0.0
2025/05/06 15:13:02.631363512,1746537182,630989510,stern_port_thruster,0.6532367855088291,-9.517735494784244e-07,0.0,0.0,0.0,0.0
2025/05/06 15:13:02.742651103,1746537182,741663004,stern_port_thruster,0.6550810747319169,-9.144478509885294e-07,0.0,0.0,0.0,0.0
2025/05/06 15:13:02.839526626,1746537182,837224408,stern_port_thruster,0.5484544184947859,-6.651108281397859e-07,0.0,0.0,0.0,0.0
2025/05/06 15:13:02.939667135,1746537182,938641422,stern_port_thruster,0.5605893929219307,-3.97373020419314e-07,0.0,0.0,0.0,0.0
2025/05/06 15:13:03.55083283,1746537183,46383416,stern_port_thruster,0.5855902164328497,-1.0016371040643207e-06,0.0,0.0,0.0,0.0
2025/05/06 15:13:03.132376444,1746537183,132088073,stern_port_thruster,0.6105903488472276,-1.821432851895699e-07,0.0,0.0,0.0,0.0
2025/05/06 15:13:03.235751389,1746537183,234440102,stern_port_thruster,0.6198723421231399,-1.1193573295854352e-06,0.0,0.0,0.0,0.0
2025/05/06 15:13:03.343625538,1746537183,340588300,stern_port_thruster,0.6216242576297542,-1.0942563132568086e-06,0.0,0.0,0.0,0.0
2025/05/06 15:13:03.444540257,1746537183,443626440,stern_port_thruster,0.6233612254308052,-1.0878897265568869e-06,0.0,0.0,0.0,0.0
2025/05/06 15:13:03.536417141,1746537183,535261464,stern_port_thruster,0.6250833522227218,-1.0962754332886618e-06,0.0,0.0,0.0,0.0
2025/05/06 15:13:03.672726160,1746537183,672164406,stern_port_thruster,0.6267907645737455,-1.1031926133457358e-06,0.0,0.0,0.0,0.0
2025/05/06 15:13:03.737614044,1746537183,737196840,stern_port_thruster,0.6284835344885976,-1.1094697577156778e-06,0.0,0.0,0.0,0.0
2025/05/06 15:13:03.840465132,1746537183,839431631,stern_port_thruster,0.569097993238104,-4.869976177106959e-07,0.0,0.0,0.0,0.0
2025/05/06 15:13:03.935970286,1746537183,934040689,stern_port_thruster,0.5640018815533442,-5.232929651311786e-07,0.0,0.0,0.0,0.0
2025/05/06 15:13:04.36986561,1746537184,35709068,stern_port_thruster,0.5656515068555742,-5.287556108001688e-07,0.0,0.0,0.0,0.0
2025/05/06 15:13:04.138276160,1746537184,135439690,stern_port_thruster,0.5672870194146659,-5.361882481997133e-07,0.0,0.0,0.0,0.0
2025/05/06 15:13:04.232957521,1746537184,231858429,stern_port_thruster,0.568908545065009,-5.455206790456911e-07,0.0,0.0,0.0,0.0
2025/05/06 15:13:04.346363538,1746537184,345637181,stern_port_thruster,0.5705161593815228,-5.543327454619935e-07,0.0,0.0,0.0,0.0
2025/05/06 15:13:04.434596410,1746537184,432721523,stern_port_thruster,0.5721100544185446,-5.622683155685869e-07,0.0,0.0,0.0,0.0
2025/05/06 15:13:04.538649543,1746537184,537858605,stern_port_thruster,0.5736902673337564,-5.685501396635861e-07,0.0,0.0,0.0,0.0
2025/05/06 15:13:04.641071792,1746537184,640107504,stern_port_thruster,0.5752569891664715,-5.740172654577214e-07,0.0,0.0,0.0,0.0
2025/05/06 15:13:04.739502443,1746537184,738489666,stern_port_thruster,0.5768102959790664,-5.787143143479078e-07,0.0,0.0,0.0,0.0
2025/05/06 15:13:04.866912266,1746537184,865780391,stern_port_thruster,0.5371019311656972,-4.13856373223559e-07,0.0,0.0,0.0,0.0
2025/05/06 15:13:04.939703712,1746537184,938578206,stern_port_thruster,0.5337116269762595,-3.947784026467319e-07,0.0,0.0,0.0,0.0
2025/05/06 15:13:05.39038179,1746537185,37163124,stern_port_thruster,0.5352251513726903,-4.007014214197875e-07,0.0,0.0,0.0,0.0
2025/05/06 15:13:05.134087030,1746537185,131633970,stern_port_thruster,0.5367257083229855,-4.0676212577681884e-07,0.0,0.0,0.0,0.0
2025/05/06 15:13:05.243051282,1746537185,239289727,stern_port_thruster,0.538213456770417,-4.124934478980372e-07,0.0,0.0,0.0,0.0
2025/05/06 15:13:05.334926826,1746537185,334758410,stern_port_thruster,0.5396884398774476,-4.1778137197162776e-07,0.0,0.0,0.0,0.0
2025/05/06 15:13:05.450590135,1746537185,448894133,stern_port_thruster,0.5411507697547079,-4.2276991945479347e-07,0.0,0.0,0.0,0.0
2025/05/06 15:13:05.539228603,1746537185,537877050,stern_port_thruster,0.5426005949571335,-4.2746702378640953e-07,0.0,0.0,0.0,0.0
2025/05/06 15:13:05.641050271,1746537185,640810994,stern_port_thruster,0.5440379917177997,-4.318802154603457e-07,0.0,0.0,0.0,0.0
2025/05/06 15:13:05.732967259,1746537185,731997101,stern_port_thruster,0.5454631203890994,-4.360170820200644e-07,0.0,0.0,0.0,0.0
2025/05/06 15:13:05.840728684,1746537185,840503388,stern_port_thruster,0.5468760072812796,-4.398846949316356e-07,0.0,0.0,0.0,0.0
2025/05/06 15:13:05.942486380,1746537185,940668667,stern_port_thruster,0.5268356359436592,-3.855475418041661e-07,0.0,0.0,0.0,0.0
2025/05/06 15:13:06.72203683,1746537186,70869683,stern_port_thruster,0.5282240278349036,-3.8933217325899594e-07,0.0,0.0,0.0,0.0
2025/05/06 15:13:06.140347473,1746537186,138772576,stern_port_thruster,0.529600496673451,-3.898065400661638e-07,0.0,0.0,0.0,0.0
2025/05/06 15:13:06.242445063,1746537186,242196337,stern_port_thruster,0.5309651454437293,-3.897826909550547e-07,0.0,0.0,0.0,0.0
2025/05/06 15:13:06.335221211,1746537186,333566210,stern_port_thruster,0.5323181254247392,-3.8969726159803037e-07,0.0,0.0,0.0,0.0
2025/05/06 15:13:06.437237964,1746537186,436399974,stern_port_thruster,0.53365951610366,-3.9129808781891655e-07,0.0,0.0,0.0,0.0
2025/05/06 15:13:06.538943352,1746537186,538855834,stern_port_thruster,0.5349893899467801,-3.945390421858777e-07,0.0,0.0,0.0,0.0
2025/05/06 15:13:06.632659289,1746537186,632281797,stern_port_thruster,0.5363078676303709,-3.978635722067163e-07,0.0,0.0,0.0,0.0
2025/05/06 15:13:06.747316500,1746537186,747063834,stern_port_thruster,0.5376150613020491,-4.012125679344985e-07,0.0,0.0,0.0,0.0
2025/05/06 15:13:06.836970482,1746537186,836567642,stern_port_thruster,0.5389110459140617,-4.045801062160488e-07,0.0,0.0,0.0,0.0
2025/05/06 15:13:06.942790992,1746537186,942143203,stern_port_thruster,0.4888771416587291,-4.998220721471087e-07,0.0,0.0,0.0,0.0
2025/05/06 15:13:07.34870880,1746537187,34614483,stern_port_thruster,0.5050588325076508,-4.998255112057119e-07,0.0,0.0,0.0,0.0
2025/05/06 15:13:07.136875813,1746537187,136551355,stern_port_thruster,0.50632097151659,-4.998183721777013e-07,0.0,0.0,0.0,0.0
2025/05/06 15:13:07.270308922,1746537187,268611303,stern_port_thruster,0.507572328189033,-4.998114071121365e-07,0.0,0.0,0.0,0.0
2025/05/06 15:13:07.340520331,1746537187,340127749,stern_port_thruster,0.5088129288534885,-4.99804900428463e-07,0.0,0.0,0.0,0.0
2025/05/06 15:13:07.453503129,1746537187,444633980,stern_port_thruster,0.5100428996883444,-4.997991328353336e-07,0.0,0.0,0.0,0.0
2025/05/06 15:13:07.538652822,1746537187,538275573,stern_port_thruster,0.5112623432855634,-4.997936047953032e-07,0.0,0.0,0.0,0.0
2025/05/06 15:13:07.640309786,1746537187,637095378,stern_port_thruster,0.5124714657838529,-3.5592030543078335e-07,0.0,0.0,0.0,0.0
2025/05/06 15:13:07.736307935,1746537187,735920199,stern_port_thruster,0.5136700340163693,-3.594928345879952e-07,0.0,0.0,0.0,0.0
2025/05/06 15:13:07.839680172,1746537187,838468546,stern_port_thruster,0.514858342605371,-3.6135519766355444e-07,0.0,0.0,0.0,0.0
2025/05/06 15:13:07.941094937,1746537187,940787779,stern_port_thruster,0.43015425160411014,-4.995062570810502e-07,0.0,0.0,0.0,0.0
2025/05/06 15:13:08.44657617,1746537188,44337864,stern_port_thruster,0.45515424796691656,-3.8679687776212964e-07,0.0,0.0,0.0,0.0
2025/05/06 15:13:08.140146194,1746537188,139285976,stern_port_thruster,0.4801551847766628,-7.332595245226788e-07,0.0,0.0,0.0,0.0
2025/05/06 15:13:08.234356501,1746537188,232848937,stern_port_thruster,0.48183317874149517,-5.05056414402642e-07,0.0,0.0,0.0,0.0
2025/05/06 15:13:08.333277748,1746537188,332657314,stern_port_thruster,0.4829704595239773,-5.01543584731414e-07,0.0,0.0,0.0,0.0
2025/05/06 15:13:08.472278716,1746537188,471934431,stern_port_thruster,0.48409482532947196,-9.186476196168971e-07,0.0,0.0,0.0,0.0
2025/05/06 15:13:08.541032385,1746537188,539544053,stern_port_thruster,0.4852124668442492,-9.468551869150593e-07,0.0,0.0,0.0,0.0
2025/05/06 15:13:08.636956389,1746537188,635130129,stern_port_thruster,0.4863241614618425,-4.849803067005708e-07,0.0,0.0,0.0,0.0
2025/05/06 15:13:08.753598842,1746537188,751254065,stern_port_thruster,0.4874227007943654,-4.331384690987021e-07,0.0,0.0,0.0,0.0
2025/05/06 15:13:08.835496856,1746537188,834072777,stern_port_thruster,0.4885098207806967,-1.3487730783363454e-06,0.0,0.0,0.0,0.0
2025/05/06 15:13:08.963047407,1746537188,962612099,stern_port_thruster,0.3902343828115149,-5.37979798750861e-07,0.0,0.0,0.0,0.0
2025/05/06 15:13:09.34030552,1746537189,33376996,stern_port_thruster,0.365233390792334,-5.985402103725978e-07,0.0,0.0,0.0,0.0
2025/05/06 15:13:09.141397403,1746537189,141240707,stern_port_thruster,0.390233682390344,-6.348931361833212e-07,0.0,0.0,0.0,0.0
2025/05/06 15:13:09.237931666,1746537189,237462854,stern_port_thruster,0.41523420065512573,-1.482441483174857e-06,0.0,0.0,0.0,0.0
2025/05/06 15:13:09.338734539,1746537189,337382050,stern_port_thruster,0.44023418434031597,-3.451894250467264e-07,0.0,0.0,0.0,0.0
2025/05/06 15:13:09.435041835,1746537189,433935015,stern_port_thruster,0.4652353010597566,-9.738321489069424e-07,0.0,0.0,0.0,0.0
2025/05/06 15:13:09.532164800,1746537189,531805495,stern_port_thruster,0.475083912905598,-2.426521868859043e-06,0.0,0.0,0.0,0.0
2025/05/06 15:13:09.675300201,1746537189,674429158,stern_port_thruster,0.47609985524349824,-2.4148808059370858e-06,0.0,0.0,0.0,0.0
