time,header_stamp_secs,header_stamp_nsecs,header_frame_id,wrench_force_x,wrench_force_y,wrench_force_z,wrench_torque_x,wrench_torque_y,wrench_torque_z
2025/05/06 15:12:22.37563136,1746537142,36404166,bow_port_thruster,-0.0035355339059327372,0.003535533905932738,0.0,0.0,0.0,0.0
2025/05/06 15:12:22.131659939,1746537142,130638572,bow_port_thruster,-0.0035355339059327372,0.003535533905932738,0.0,0.0,0.0,0.0
2025/05/06 15:12:22.231767973,1746537142,230795041,bow_port_thruster,-0.0035355339059327372,0.003535533905932738,0.0,0.0,0.0,0.0
2025/05/06 15:12:22.332243996,1746537142,332051116,bow_port_thruster,-0.0035355339059327372,0.003535533905932738,0.0,0.0,0.0,0.0
2025/05/06 15:12:22.430950952,1746537142,430588241,bow_port_thruster,-0.0035355339059327372,0.003535533905932738,0.0,0.0,0.0,0.0
2025/05/06 15:12:22.533162359,1746537142,531420070,bow_port_thruster,-0.0035355339059327372,0.003535533905932738,0.0,0.0,0.0,0.0
2025/05/06 15:12:22.634208545,1746537142,633146891,bow_port_thruster,-0.0035355339059327372,0.003535533905932738,0.0,0.0,0.0,0.0
2025/05/06 15:12:22.739172584,1746537142,738796080,bow_port_thruster,-0.0035355339059327372,0.003535533905932738,0.0,0.0,0.0,0.0
2025/05/06 15:12:22.865006049,1746537142,864862729,bow_port_thruster,-0.0035355339059327372,0.003535533905932738,0.0,0.0,0.0,0.0
2025/05/06 15:12:22.942578660,1746537142,941877025,bow_port_thruster,-0.0035355339059327372,0.003535533905932738,0.0,0.0,0.0,0.0
2025/05/06 15:12:23.114360976,1746537143,112127921,bow_port_thruster,-0.0035355339059327372,0.003535533905932738,0.0,0.0,0.0,0.0
2025/05/06 15:12:23.209650469,1746537143,208907132,bow_port_thruster,-0.0035355339059327372,0.003535533905932738,0.0,0.0,0.0,0.0
2025/05/06 15:12:23.285494216,1746537143,283373036,bow_port_thruster,-0.0035355339059327372,0.003535533905932738,0.0,0.0,0.0,0.0
2025/05/06 15:12:23.424111351,1746537143,421481043,bow_port_thruster,5.055469085290035e-07,0.023892511800694894,0.0,0.0,0.0,0.0
2025/05/06 15:12:23.549305018,1746537143,547823528,bow_port_thruster,4.999717136803588e-07,0.023892513523617286,0.0,0.0,0.0,0.0
2025/05/06 15:12:23.666640285,1746537143,659127798,bow_port_thruster,4.999714694971149e-07,0.02389262554570153,0.0,0.0,0.0,0.0
2025/05/06 15:12:23.790554823,1746537143,778840910,bow_port_thruster,4.999714693374346e-07,0.023892625545693408,0.0,0.0,0.0,0.0
2025/05/06 15:12:23.875625430,1746537143,872161945,bow_port_thruster,4.99971307400383e-07,0.02389269943273892,0.0,0.0,0.0,0.0
2025/05/06 15:12:23.967073292,1746537143,966665961,bow_port_thruster,4.999713072857623e-07,0.023892699432733533,0.0,0.0,0.0,0.0
2025/05/06 15:12:24.89049537,1746537144,88710123,bow_port_thruster,-0.0035355339059327372,0.003535533905932738,0.0,0.0,0.0,0.0
2025/05/06 15:12:24.251709256,1746537144,237239063,bow_port_thruster,-0.0035355339059327372,0.003535533905932738,0.0,0.0,0.0,0.0
2025/05/06 15:12:24.338859871,1746537144,337994055,bow_port_thruster,-0.0035355339059327372,0.003535533905932738,0.0,0.0,0.0,0.0
2025/05/06 15:12:24.445528491,1746537144,440281293,bow_port_thruster,-0.0035355339059327372,0.003535533905932738,0.0,0.0,0.0,0.0
2025/05/06 15:12:24.582527963,1746537144,535181476,bow_port_thruster,-0.0035355339059327372,0.003535533905932738,0.0,0.0,0.0,0.0
2025/05/06 15:12:24.654869962,1746537144,653681470,bow_port_thruster,-0.0035355339059327372,0.003535533905932738,0.0,0.0,0.0,0.0
2025/05/06 15:12:24.785328295,1746537144,760329165,bow_port_thruster,-0.0035355339059327372,0.003535533905932738,0.0,0.0,0.0,0.0
2025/05/06 15:12:24.867910320,1746537144,847909666,bow_port_thruster,-0.0035355339059327372,0.003535533905932738,0.0,0.0,0.0,0.0
2025/05/06 15:12:24.959424717,1746537144,952842295,bow_port_thruster,-0.0035355339059327372,0.003535533905932738,0.0,0.0,0.0,0.0
2025/05/06 15:12:25.64175069,1746537145,62914981,bow_port_thruster,-0.0035355339059327372,0.003535533905932738,0.0,0.0,0.0,0.0
2025/05/06 15:12:25.211616816,1746537145,205170758,bow_port_thruster,-0.0035355339059327372,0.003535533905932738,0.0,0.0,0.0,0.0
2025/05/06 15:12:25.278051812,1746537145,274733919,bow_port_thruster,-0.0035355339059327372,0.003535533905932738,0.0,0.0,0.0,0.0
2025/05/06 15:12:25.419999232,1746537145,404274736,bow_port_thruster,-0.0035355339059327372,0.003535533905932738,0.0,0.0,0.0,0.0
2025/05/06 15:12:25.774138714,1746537145,736333919,bow_port_thruster,-0.0035355339059327372,0.003535533905932738,0.0,0.0,0.0,0.0
2025/05/06 15:12:25.867200127,1746537145,854382973,bow_port_thruster,-0.0035355339059327372,0.003535533905932738,0.0,0.0,0.0,0.0
2025/05/06 15:12:26.395727,1746537145,999257655,bow_port_thruster,-0.0035355339059327372,0.003535533905932738,0.0,0.0,0.0,0.0
2025/05/06 15:12:26.63181606,1746537146,60351119,bow_port_thruster,-0.0035355339059327372,0.003535533905932738,0.0,0.0,0.0,0.0
2025/05/06 15:12:26.425154887,1746537146,242118991,bow_port_thruster,-0.0035355339059327372,0.003535533905932738,0.0,0.0,0.0,0.0
2025/05/06 15:12:26.484988968,1746537146,356901398,bow_port_thruster,-0.0035355339059327372,0.003535533905932738,0.0,0.0,0.0,0.0
2025/05/06 15:12:26.774646690,1746537146,673512184,bow_port_thruster,-0.0035355339059327372,0.003535533905932738,0.0,0.0,0.0,0.0
2025/05/06 15:12:26.877682220,1746537146,834120700,bow_port_thruster,-0.0035355339059327372,0.003535533905932738,0.0,0.0,0.0,0.0
2025/05/06 15:12:26.952578379,1746537146,944817997,bow_port_thruster,-0.0035355339059327372,0.003535533905932738,0.0,0.0,0.0,0.0
2025/05/06 15:12:27.75632003,1746537147,73932065,bow_port_thruster,-0.0035355339059327372,0.003535533905932738,0.0,0.0,0.0,0.0
2025/05/06 15:12:27.236887469,1746537147,230451691,bow_port_thruster,-0.0035355339059327372,0.003535533905932738,0.0,0.0,0.0,0.0
2025/05/06 15:12:27.326192242,1746537147,322961171,bow_port_thruster,-0.0035355339059327372,0.003535533905932738,0.0,0.0,0.0,0.0
2025/05/06 15:12:27.427578887,1746537147,421731766,bow_port_thruster,-0.0035355339059327372,0.003535533905932738,0.0,0.0,0.0,0.0
2025/05/06 15:12:27.499425063,1746537147,498340372,bow_port_thruster,-0.0035355339059327372,0.003535533905932738,0.0,0.0,0.0,0.0
2025/05/06 15:12:27.554604694,1746537147,552433796,bow_port_thruster,-0.0035355339059327372,0.003535533905932738,0.0,0.0,0.0,0.0
2025/05/06 15:12:27.672597141,1746537147,671350997,bow_port_thruster,-0.0035355339059327372,0.003535533905932738,0.0,0.0,0.0,0.0
2025/05/06 15:12:27.759555438,1746537147,758760031,bow_port_thruster,-0.0035355339059327372,0.003535533905932738,0.0,0.0,0.0,0.0
2025/05/06 15:12:27.868728840,1746537147,861865575,bow_port_thruster,-0.0035355339059327372,0.003535533905932738,0.0,0.0,0.0,0.0
2025/05/06 15:12:27.961096370,1746537147,960349193,bow_port_thruster,-0.0035355339059327372,0.003535533905932738,0.0,0.0,0.0,0.0
2025/05/06 15:12:28.65057062,1746537148,63489088,bow_port_thruster,-0.0035355339059327372,0.003535533905932738,0.0,0.0,0.0,0.0
2025/05/06 15:12:28.149533076,1746537148,147821437,bow_port_thruster,-0.0035355339059327372,0.003535533905932738,0.0,0.0,0.0,0.0
2025/05/06 15:12:28.247386596,1746537148,244724412,bow_port_thruster,-0.0035355339059327372,0.003535533905932738,0.0,0.0,0.0,0.0
2025/05/06 15:12:28.393995743,1746537148,393608237,bow_port_thruster,-0.0035355339059327372,0.003535533905932738,0.0,0.0,0.0,0.0
2025/05/06 15:12:28.447594324,1746537148,447136685,bow_port_thruster,-0.0035355339059327372,0.003535533905932738,0.0,0.0,0.0,0.0
2025/05/06 15:12:28.543097495,1746537148,541923751,bow_port_thruster,-0.0035355339059327372,0.003535533905932738,0.0,0.0,0.0,0.0
2025/05/06 15:12:28.636905765,1746537148,634343975,bow_port_thruster,-0.0035355339059327372,0.003535533905932738,0.0,0.0,0.0,0.0
2025/05/06 15:12:28.740807894,1746537148,738933687,bow_port_thruster,-0.0035355339059327372,0.003535533905932738,0.0,0.0,0.0,0.0
2025/05/06 15:12:28.835718755,1746537148,835554995,bow_port_thruster,-0.0035355339059327372,0.003535533905932738,0.0,0.0,0.0,0.0
2025/05/06 15:12:28.959564468,1746537148,957974434,bow_port_thruster,-0.0035355339059327372,0.003535533905932738,0.0,0.0,0.0,0.0
2025/05/06 15:12:29.53273417,1746537149,50613030,bow_port_thruster,-0.0035355339059327372,0.003535533905932738,0.0,0.0,0.0,0.0
2025/05/06 15:12:29.144334266,1746537149,142728082,bow_port_thruster,-0.0035355339059327372,0.003535533905932738,0.0,0.0,0.0,0.0
2025/05/06 15:12:29.242000068,1746537149,239940439,bow_port_thruster,-0.0035355339059327372,0.003535533905932738,0.0,0.0,0.0,0.0
2025/05/06 15:12:29.348403240,1746537149,346913253,bow_port_thruster,-0.0035355339059327372,0.003535533905932738,0.0,0.0,0.0,0.0
2025/05/06 15:12:29.434340656,1746537149,433811850,bow_port_thruster,-0.0035355339059327372,0.003535533905932738,0.0,0.0,0.0,0.0
2025/05/06 15:12:29.595936262,1746537149,594607290,bow_port_thruster,-0.0035355339059327372,0.003535533905932738,0.0,0.0,0.0,0.0
2025/05/06 15:12:29.761794645,1746537149,761384704,bow_port_thruster,-0.0035355339059327372,0.003535533905932738,0.0,0.0,0.0,0.0
2025/05/06 15:12:29.932358441,1746537149,931786581,bow_port_thruster,-0.0035355339059327372,0.003535533905932738,0.0,0.0,0.0,0.0
2025/05/06 15:12:30.93789035,1746537150,93376048,bow_port_thruster,-0.0035355339059327372,0.003535533905932738,0.0,0.0,0.0,0.0
2025/05/06 15:12:30.189194510,1746537150,187423102,bow_port_thruster,-0.0035355339059327372,0.003535533905932738,0.0,0.0,0.0,0.0
2025/05/06 15:12:30.241265665,1746537150,235220860,bow_port_thruster,-0.0035355339059327372,0.003535533905932738,0.0,0.0,0.0,0.0
2025/05/06 15:12:30.331801984,1746537150,331224408,bow_port_thruster,-0.0035355339059327372,0.003535533905932738,0.0,0.0,0.0,0.0
2025/05/06 15:12:30.437904189,1746537150,435515722,bow_port_thruster,-0.0035355339059327372,0.003535533905932738,0.0,0.0,0.0,0.0
2025/05/06 15:12:30.536266187,1746537150,533652924,bow_port_thruster,-0.0035355339059327372,0.003535533905932738,0.0,0.0,0.0,0.0
2025/05/06 15:12:30.642067312,1746537150,640156398,bow_port_thruster,-0.0035355339059327372,0.003535533905932738,0.0,0.0,0.0,0.0
2025/05/06 15:12:30.735237783,1746537150,733746152,bow_port_thruster,-0.0035355339059327372,0.003535533905932738,0.0,0.0,0.0,0.0
2025/05/06 15:12:30.852338328,1746537150,851844756,bow_port_thruster,-0.0035355339059327372,0.003535533905932738,0.0,0.0,0.0,0.0
2025/05/06 15:12:30.965845266,1746537150,962746284,bow_port_thruster,-0.0035355339059327372,0.003535533905932738,0.0,0.0,0.0,0.0
2025/05/06 15:12:31.37570770,1746537151,36894565,bow_port_thruster,-0.0035355339059327372,0.003535533905932738,0.0,0.0,0.0,0.0
2025/05/06 15:12:31.140368337,1746537151,136876488,bow_port_thruster,-0.0035355339059327372,0.003535533905932738,0.0,0.0,0.0,0.0
2025/05/06 15:12:31.238149810,1746537151,236938477,bow_port_thruster,-0.0035355339059327372,0.003535533905932738,0.0,0.0,0.0,0.0
2025/05/06 15:12:31.344563161,1746537151,343574502,bow_port_thruster,-0.0035355339059327372,0.003535533905932738,0.0,0.0,0.0,0.0
2025/05/06 15:12:31.438109674,1746537151,436550585,bow_port_thruster,5.215734873210378e-07,0.008378118494648314,0.0,0.0,0.0,0.0
2025/05/06 15:12:31.537259127,1746537151,537047251,bow_port_thruster,5.579204334317282e-07,0.00847587899944149,0.0,0.0,0.0,0.0
2025/05/06 15:12:31.633322006,1746537151,632198548,bow_port_thruster,5.427711474389337e-07,0.008556879640685548,0.0,0.0,0.0,0.0
2025/05/06 15:12:31.739579106,1746537151,738976278,bow_port_thruster,1.6102622941541263e-07,0.008625488143281311,0.0,0.0,0.0,0.0
2025/05/06 15:12:31.833602072,1746537151,833228011,bow_port_thruster,1.2166793758113981e-07,0.008678931949316264,0.0,0.0,0.0,0.0
2025/05/06 15:12:31.934616070,1746537151,933259149,bow_port_thruster,6.238544745811758e-08,0.008719374992897695,0.0,0.0,0.0,0.0
2025/05/06 15:12:32.34098837,1746537152,32613400,bow_port_thruster,2.7551322326555447e-08,0.008744802246888752,0.0,0.0,0.0,0.0
2025/05/06 15:12:32.175345017,1746537152,174651999,bow_port_thruster,1.3835028317832874e-08,0.008761068098904708,0.0,0.0,0.0,0.0
2025/05/06 15:12:32.236848241,1746537152,235631528,bow_port_thruster,-1.6707747795462261e-07,0.008769562992816341,0.0,0.0,0.0,0.0
2025/05/06 15:12:32.335416443,1746537152,334887875,bow_port_thruster,-1.551102048804035e-07,0.015043160290964879,0.0,0.0,0.0,0.0
2025/05/06 15:12:32.438801000,1746537152,437452823,bow_port_thruster,-7.655013993121338e-07,0.016034073852152317,0.0,0.0,0.0,0.0
2025/05/06 15:12:32.535640776,1746537152,534994931,bow_port_thruster,1.3919168351495517e-06,0.016003561314790075,0.0,0.0,0.0,0.0
2025/05/06 15:12:32.639750124,1746537152,636597200,bow_port_thruster,1.4006012003775163e-06,0.015971159213230206,0.0,0.0,0.0,0.0
2025/05/06 15:12:32.733439681,1746537152,731914994,bow_port_thruster,4.149950763771168e-07,0.015930345580718316,0.0,0.0,0.0,0.0
2025/05/06 15:12:32.839000261,1746537152,838609076,bow_port_thruster,-3.278596329780202e-07,0.01588156475280496,0.0,0.0,0.0,0.0
2025/05/06 15:12:32.937307409,1746537152,935314378,bow_port_thruster,-8.279930617785652e-08,0.015825685570480596,0.0,0.0,0.0,0.0
2025/05/06 15:12:33.38830408,1746537153,38074847,bow_port_thruster,1.148149805224028e-06,0.015762946039930125,0.0,0.0,0.0,0.0
2025/05/06 15:12:33.132232451,1746537153,130747849,bow_port_thruster,2.684259395182485e-06,0.015693785682495742,0.0,0.0,0.0,0.0
2025/05/06 15:12:33.236909816,1746537153,236118101,bow_port_thruster,4.938781408490886e-07,0.015619457624390662,0.0,0.0,0.0,0.0
2025/05/06 15:12:33.371944537,1746537153,368939265,bow_port_thruster,2.803879405516356e-06,0.005009048155988642,0.0,0.0,0.0,0.0
2025/05/06 15:12:33.440905841,1746537153,438853690,bow_port_thruster,-0.0035355339059327372,0.003535533905932738,0.0,0.0,0.0,0.0
2025/05/06 15:12:33.544667579,1746537153,542083921,bow_port_thruster,-0.0035355339059327372,0.003535533905932738,0.0,0.0,0.0,0.0
2025/05/06 15:12:33.637551565,1746537153,635968994,bow_port_thruster,-0.0035355339059327372,0.003535533905932738,0.0,0.0,0.0,0.0
2025/05/06 15:12:33.741500514,1746537153,738712620,bow_port_thruster,-0.0035355339059327372,0.003535533905932738,0.0,0.0,0.0,0.0
2025/05/06 15:12:33.836513656,1746537153,834525275,bow_port_thruster,-0.0035355339059327372,0.003535533905932738,0.0,0.0,0.0,0.0
2025/05/06 15:12:33.942214535,1746537153,941716278,bow_port_thruster,-0.0035355339059327372,0.003535533905932738,0.0,0.0,0.0,0.0
2025/05/06 15:12:34.32805912,1746537154,31778394,bow_port_thruster,-0.0035355339059327372,0.003535533905932738,0.0,0.0,0.0,0.0
2025/05/06 15:12:34.143166576,1746537154,141728771,bow_port_thruster,-0.0035355339059327372,0.003535533905932738,0.0,0.0,0.0,0.0
2025/05/06 15:12:34.235082078,1746537154,232458237,bow_port_thruster,-0.0035355339059327372,0.003535533905932738,0.0,0.0,0.0,0.0
2025/05/06 15:12:34.332896366,1746537154,331985548,bow_port_thruster,-0.0035355339059327372,0.003535533905932738,0.0,0.0,0.0,0.0
2025/05/06 15:12:34.549149174,1746537154,547701608,bow_port_thruster,1.6889885348852337e-05,0.030036720009435327,0.0,0.0,0.0,0.0
2025/05/06 15:12:34.706015557,1746537154,701281831,bow_port_thruster,1.337322718125769e-07,0.05503510750189974,0.0,0.0,0.0,0.0
2025/05/06 15:12:34.752545558,1746537154,751942591,bow_port_thruster,6.416402933240013e-07,0.08003532022009723,0.0,0.0,0.0,0.0
2025/05/06 15:12:34.840165163,1746537154,839559457,bow_port_thruster,6.505022757277064e-07,0.09155333002543001,0.0,0.0,0.0,0.0
2025/05/06 15:12:34.933908437,1746537154,933101015,bow_port_thruster,2.7198521199926307e-07,0.10256005002659027,0.0,0.0,0.0,0.0
2025/05/06 15:12:35.45451828,1746537155,45093380,bow_port_thruster,3.7597589116854657e-07,0.11324248331846329,0.0,0.0,0.0,0.0
2025/05/06 15:12:35.135607818,1746537155,133793966,bow_port_thruster,5.56457069009514e-07,0.11799894796156674,0.0,0.0,0.0,0.0
2025/05/06 15:12:35.232285507,1746537155,231836712,bow_port_thruster,5.310303942464606e-07,0.11787961585416908,0.0,0.0,0.0,0.0
2025/05/06 15:12:35.453230616,1746537155,452080132,bow_port_thruster,-0.0035355339059327372,0.003535533905932738,0.0,0.0,0.0,0.0
2025/05/06 15:12:35.498320802,1746537155,497010613,bow_port_thruster,-0.0035355339059327372,0.003535533905932738,0.0,0.0,0.0,0.0
2025/05/06 15:12:35.544937896,1746537155,544199900,bow_port_thruster,-0.0035355339059327372,0.003535533905932738,0.0,0.0,0.0,0.0
2025/05/06 15:12:35.630900539,1746537155,630644522,bow_port_thruster,-0.0035355339059327372,0.003535533905932738,0.0,0.0,0.0,0.0
2025/05/06 15:12:35.740039812,1746537155,737063351,bow_port_thruster,-0.0035355339059327372,0.003535533905932738,0.0,0.0,0.0,0.0
2025/05/06 15:12:35.860066430,1746537155,859646041,bow_port_thruster,-0.0035355339059327372,0.003535533905932738,0.0,0.0,0.0,0.0
2025/05/06 15:12:35.943558523,1746537155,943280143,bow_port_thruster,-0.0035355339059327372,0.003535533905932738,0.0,0.0,0.0,0.0
2025/05/06 15:12:36.40165392,1746537156,39507576,bow_port_thruster,-0.0035355339059327372,0.003535533905932738,0.0,0.0,0.0,0.0
2025/05/06 15:12:36.140878184,1746537156,140271009,bow_port_thruster,-0.0035355339059327372,0.003535533905932738,0.0,0.0,0.0,0.0
2025/05/06 15:12:36.235816972,1746537156,231780322,bow_port_thruster,-0.0035355339059327372,0.003535533905932738,0.0,0.0,0.0,0.0
2025/05/06 15:12:36.411271973,1746537156,410575220,bow_port_thruster,8.626460499324581e-07,0.030001047283708317,0.0,0.0,0.0,0.0
2025/05/06 15:12:36.459481374,1746537156,457050627,bow_port_thruster,7.3716888682819e-07,0.05500232859710752,0.0,0.0,0.0,0.0
2025/05/06 15:12:36.534998463,1746537156,534325584,bow_port_thruster,-3.4432814494814865e-08,0.08000034957447603,0.0,0.0,0.0,0.0
2025/05/06 15:12:36.643503260,1746537156,637737338,bow_port_thruster,2.01879075498275e-07,0.08718368938231383,0.0,0.0,0.0,0.0
2025/05/06 15:12:36.739888022,1746537156,739090999,bow_port_thruster,3.2905311566565177e-07,0.09316508683399796,0.0,0.0,0.0,0.0
2025/05/06 15:12:36.843653452,1746537156,841401610,bow_port_thruster,1.238183442830051e-07,0.0930233746076029,0.0,0.0,0.0,0.0
2025/05/06 15:12:36.931792001,1746537156,931237323,bow_port_thruster,-3.6529061225323874e-09,0.092881292440906,0.0,0.0,0.0,0.0
2025/05/06 15:12:37.64138427,1746537157,63092705,bow_port_thruster,-1.4436694818759025e-07,0.0927389482372843,0.0,0.0,0.0,0.0
2025/05/06 15:12:37.133707451,1746537157,131165856,bow_port_thruster,-3.3110911572791637e-07,0.09259684214581888,0.0,0.0,0.0,0.0
2025/05/06 15:12:37.239630577,1746537157,239451561,bow_port_thruster,-2.1825736109167197e-07,0.09245375476432134,0.0,0.0,0.0,0.0
2025/05/06 15:12:37.335027250,1746537157,333542186,bow_port_thruster,-9.65709033137459e-08,0.0923109760381502,0.0,0.0,0.0,0.0
2025/05/06 15:12:37.435582281,1746537157,435248547,bow_port_thruster,4.988280209576318e-07,0.11731097443138247,0.0,0.0,0.0,0.0
2025/05/06 15:12:37.538407909,1746537157,536197858,bow_port_thruster,-3.0567151348949313e-07,0.12365817418859662,0.0,0.0,0.0,0.0
2025/05/06 15:12:37.634747291,1746537157,633537214,bow_port_thruster,-1.865864863793176e-07,0.12814367884175298,0.0,0.0,0.0,0.0
2025/05/06 15:12:37.736932711,1746537157,734909344,bow_port_thruster,1.1442563918843133e-08,0.1279988440630413,0.0,0.0,0.0,0.0
2025/05/06 15:12:37.835522086,1746537157,833966348,bow_port_thruster,3.254570657629846e-07,0.1278541839442084,0.0,0.0,0.0,0.0
2025/05/06 15:12:37.941981099,1746537157,940492438,bow_port_thruster,7.781986381529038e-07,0.12770976271156306,0.0,0.0,0.0,0.0
2025/05/06 15:12:38.32177605,1746537158,31497654,bow_port_thruster,1.146750764264563e-06,0.12756558889371902,0.0,0.0,0.0,0.0
2025/05/06 15:12:38.178840182,1746537158,172869709,bow_port_thruster,1.429420396133703e-06,0.1274217457800977,0.0,0.0,0.0,0.0
2025/05/06 15:12:38.267376891,1746537158,265548299,bow_port_thruster,1.4728195220109644e-06,0.12727825313907232,0.0,0.0,0.0,0.0
2025/05/06 15:12:38.333883731,1746537158,332408074,bow_port_thruster,1.2180275487141657e-06,0.12713519621034636,0.0,0.0,0.0,0.0
2025/05/06 15:12:38.433074056,1746537158,431448289,bow_port_thruster,-0.0035355339059327372,0.003535533905932738,0.0,0.0,0.0,0.0
2025/05/06 15:12:38.551822998,1746537158,551107075,bow_port_thruster,-0.0035355339059327372,0.003535533905932738,0.0,0.0,0.0,0.0
2025/05/06 15:12:38.632232435,1746537158,631554668,bow_port_thruster,-0.0035355339059327372,0.003535533905932738,0.0,0.0,0.0,0.0
2025/05/06 15:12:38.738467321,1746537158,737014906,bow_port_thruster,-0.0035355339059327372,0.003535533905932738,0.0,0.0,0.0,0.0
2025/05/06 15:12:38.839005957,1746537158,837001316,bow_port_thruster,-0.0035355339059327372,0.003535533905932738,0.0,0.0,0.0,0.0
2025/05/06 15:12:38.934197347,1746537158,933482925,bow_port_thruster,-0.0035355339059327372,0.003535533905932738,0.0,0.0,0.0,0.0
2025/05/06 15:12:39.35628481,1746537159,34150944,bow_port_thruster,-0.0035355339059327372,0.003535533905932738,0.0,0.0,0.0,0.0
2025/05/06 15:12:39.142357889,1746537159,141772600,bow_port_thruster,-0.0035355339059327372,0.003535533905932738,0.0,0.0,0.0,0.0
2025/05/06 15:12:39.236141581,1746537159,233037224,bow_port_thruster,-0.0035355339059327372,0.003535533905932738,0.0,0.0,0.0,0.0
2025/05/06 15:12:39.340775433,1746537159,340458139,bow_port_thruster,-0.0035355339059327372,0.003535533905932738,0.0,0.0,0.0,0.0
2025/05/06 15:12:39.593839762,1746537159,592001685,bow_port_thruster,-0.0035355339059327372,0.003535533905932738,0.0,0.0,0.0,0.0
2025/05/06 15:12:39.682152265,1746537159,681917880,bow_port_thruster,-0.0035355339059327372,0.003535533905932738,0.0,0.0,0.0,0.0
2025/05/06 15:12:39.800985585,1746537159,798637250,bow_port_thruster,-0.0035355339059327372,0.003535533905932738,0.0,0.0,0.0,0.0
2025/05/06 15:12:39.851986089,1746537159,850651229,bow_port_thruster,-0.0035355339059327372,0.003535533905932738,0.0,0.0,0.0,0.0
2025/05/06 15:12:39.935388766,1746537159,934785332,bow_port_thruster,-0.0035355339059327372,0.003535533905932738,0.0,0.0,0.0,0.0
2025/05/06 15:12:40.49894229,1746537160,49013106,bow_port_thruster,-0.0035355339059327372,0.003535533905932738,0.0,0.0,0.0,0.0
2025/05/06 15:12:40.133797683,1746537160,131539010,bow_port_thruster,-0.0035355339059327372,0.003535533905932738,0.0,0.0,0.0,0.0
2025/05/06 15:12:40.234724758,1746537160,233047141,bow_port_thruster,-0.0035355339059327372,0.003535533905932738,0.0,0.0,0.0,0.0
2025/05/06 15:12:40.348193495,1746537160,337028528,bow_port_thruster,-0.0035355339059327372,0.003535533905932738,0.0,0.0,0.0,0.0
2025/05/06 15:12:40.435153068,1746537160,433357119,bow_port_thruster,-0.0035355339059327372,0.003535533905932738,0.0,0.0,0.0,0.0
2025/05/06 15:12:40.542783104,1746537160,541085547,bow_port_thruster,-0.0035355339059327372,0.003535533905932738,0.0,0.0,0.0,0.0
2025/05/06 15:12:40.639117927,1746537160,637718772,bow_port_thruster,-0.0035355339059327372,0.003535533905932738,0.0,0.0,0.0,0.0
2025/05/06 15:12:40.768365421,1746537160,767712652,bow_port_thruster,-0.0035355339059327372,0.003535533905932738,0.0,0.0,0.0,0.0
2025/05/06 15:12:40.831819108,1746537160,831307233,bow_port_thruster,-0.0035355339059327372,0.003535533905932738,0.0,0.0,0.0,0.0
2025/05/06 15:12:40.946056565,1746537160,944875721,bow_port_thruster,-0.0035355339059327372,0.003535533905932738,0.0,0.0,0.0,0.0
2025/05/06 15:12:41.32620411,1746537161,31496392,bow_port_thruster,-0.0035355339059327372,0.003535533905932738,0.0,0.0,0.0,0.0
2025/05/06 15:12:41.139735576,1746537161,139051482,bow_port_thruster,-0.0035355339059327372,0.003535533905932738,0.0,0.0,0.0,0.0
2025/05/06 15:12:41.242272243,1746537161,237259258,bow_port_thruster,-0.0035355339059327372,0.003535533905932738,0.0,0.0,0.0,0.0
2025/05/06 15:12:41.341177461,1746537161,340256315,bow_port_thruster,5.040205960445734e-07,0.030000000564421855,0.0,0.0,0.0,0.0
2025/05/06 15:12:41.433949399,1746537161,432603267,bow_port_thruster,2.6216767652273136e-07,0.050137310063678026,0.0,0.0,0.0,0.0
2025/05/06 15:12:41.536557295,1746537161,535047844,bow_port_thruster,4.5009235242598074e-07,0.04991372911203589,0.0,0.0,0.0,0.0
2025/05/06 15:12:41.634638034,1746537161,633593588,bow_port_thruster,3.660023783876011e-07,0.04969119315045514,0.0,0.0,0.0,0.0
2025/05/06 15:12:41.732057606,1746537161,730935387,bow_port_thruster,3.109020297779989e-07,0.049470104920481005,0.0,0.0,0.0,0.0
2025/05/06 15:12:41.844784427,1746537161,842836182,bow_port_thruster,1.378242024486038e-06,0.04925041684362607,0.0,0.0,0.0,0.0
2025/05/06 15:12:41.961817868,1746537161,960439003,bow_port_thruster,1.2643018083677585e-06,0.049032266570018836,0.0,0.0,0.0,0.0
2025/05/06 15:12:42.45294598,1746537162,44932290,bow_port_thruster,9.649539451280517e-07,0.04881553398275329,0.0,0.0,0.0,0.0
2025/05/06 15:12:42.136311620,1746537162,135957542,bow_port_thruster,5.311654299451503e-07,0.04860031477858168,0.0,0.0,0.0,0.0
2025/05/06 15:12:42.241771584,1746537162,241112114,bow_port_thruster,1.1827564510855616e-06,0.04838689192789291,0.0,0.0,0.0,0.0
2025/05/06 15:12:42.333529685,1746537162,331208256,bow_port_thruster,1.118351551700456e-06,0.048174722508590236,0.0,0.0,0.0,0.0
2025/05/06 15:12:42.436635492,1746537162,436026364,bow_port_thruster,-0.0035355339059327372,0.003535533905932738,0.0,0.0,0.0,0.0
2025/05/06 15:12:42.540566507,1746537162,539717044,bow_port_thruster,-0.0035355339059327372,0.003535533905932738,0.0,0.0,0.0,0.0
2025/05/06 15:12:42.635547886,1746537162,634015342,bow_port_thruster,-0.0035355339059327372,0.003535533905932738,0.0,0.0,0.0,0.0
2025/05/06 15:12:42.746933952,1746537162,744436778,bow_port_thruster,-0.0035355339059327372,0.003535533905932738,0.0,0.0,0.0,0.0
2025/05/06 15:12:42.845796818,1746537162,844753077,bow_port_thruster,-0.0035355339059327372,0.003535533905932738,0.0,0.0,0.0,0.0
2025/05/06 15:12:42.938283496,1746537162,938028313,bow_port_thruster,-0.0035355339059327372,0.003535533905932738,0.0,0.0,0.0,0.0
2025/05/06 15:12:43.31717599,1746537163,31215783,bow_port_thruster,-0.0035355339059327372,0.003535533905932738,0.0,0.0,0.0,0.0
2025/05/06 15:12:43.177647811,1746537163,176886605,bow_port_thruster,-0.0035355339059327372,0.003535533905932738,0.0,0.0,0.0,0.0
2025/05/06 15:12:43.234218445,1746537163,232510177,bow_port_thruster,-0.0035355339059327372,0.003535533905932738,0.0,0.0,0.0,0.0
2025/05/06 15:12:43.350910760,1746537163,348407700,bow_port_thruster,-0.0035355339059327372,0.003535533905932738,0.0,0.0,0.0,0.0
2025/05/06 15:12:43.511512640,1746537163,507709160,bow_port_thruster,-0.0035355339059327372,0.003535533905932738,0.0,0.0,0.0,0.0
2025/05/06 15:12:43.564729212,1746537163,563569406,bow_port_thruster,-0.0035355339059327372,0.003535533905932738,0.0,0.0,0.0,0.0
2025/05/06 15:12:43.634079068,1746537163,633695712,bow_port_thruster,-0.0035355339059327372,0.003535533905932738,0.0,0.0,0.0,0.0
2025/05/06 15:12:43.738453520,1746537163,738049157,bow_port_thruster,-0.0035355339059327372,0.003535533905932738,0.0,0.0,0.0,0.0
2025/05/06 15:12:43.835363736,1746537163,832840131,bow_port_thruster,-0.0035355339059327372,0.003535533905932738,0.0,0.0,0.0,0.0
2025/05/06 15:12:43.945467400,1746537163,944315518,bow_port_thruster,-0.0035355339059327372,0.003535533905932738,0.0,0.0,0.0,0.0
2025/05/06 15:12:44.36082749,1746537164,33418891,bow_port_thruster,-0.0035355339059327372,0.003535533905932738,0.0,0.0,0.0,0.0
2025/05/06 15:12:44.135205495,1746537164,134627524,bow_port_thruster,-0.0035355339059327372,0.003535533905932738,0.0,0.0,0.0,0.0
2025/05/06 15:12:44.231486300,1746537164,230954839,bow_port_thruster,-0.0035355339059327372,0.003535533905932738,0.0,0.0,0.0,0.0
2025/05/06 15:12:44.363617689,1746537164,362714780,bow_port_thruster,-0.0035355339059327372,0.003535533905932738,0.0,0.0,0.0,0.0
2025/05/06 15:12:44.446473460,1746537164,444460364,bow_port_thruster,-0.0035355339059327372,0.003535533905932738,0.0,0.0,0.0,0.0
2025/05/06 15:12:44.535202021,1746537164,534060375,bow_port_thruster,-0.0035355339059327372,0.003535533905932738,0.0,0.0,0.0,0.0
2025/05/06 15:12:44.635885564,1746537164,634984181,bow_port_thruster,-0.0035355339059327372,0.003535533905932738,0.0,0.0,0.0,0.0
2025/05/06 15:12:44.733638616,1746537164,733087768,bow_port_thruster,-0.0035355339059327372,0.003535533905932738,0.0,0.0,0.0,0.0
2025/05/06 15:12:44.837985861,1746537164,837120450,bow_port_thruster,-0.0035355339059327372,0.003535533905932738,0.0,0.0,0.0,0.0
2025/05/06 15:12:44.934215541,1746537164,931451262,bow_port_thruster,-0.0035355339059327372,0.003535533905932738,0.0,0.0,0.0,0.0
2025/05/06 15:12:45.51236934,1746537165,50367697,bow_port_thruster,-0.0035355339059327372,0.003535533905932738,0.0,0.0,0.0,0.0
2025/05/06 15:12:45.143464864,1746537165,142076691,bow_port_thruster,-0.0035355339059327372,0.003535533905932738,0.0,0.0,0.0,0.0
2025/05/06 15:12:45.237077645,1746537165,235850940,bow_port_thruster,-0.0035355339059327372,0.003535533905932738,0.0,0.0,0.0,0.0
2025/05/06 15:12:45.343471598,1746537165,340435560,bow_port_thruster,-0.0035355339059327372,0.003535533905932738,0.0,0.0,0.0,0.0
2025/05/06 15:12:45.432532066,1746537165,431877837,bow_port_thruster,-0.0035355339059327372,0.003535533905932738,0.0,0.0,0.0,0.0
2025/05/06 15:12:45.573154021,1746537165,568174928,bow_port_thruster,-0.0035355339059327372,0.003535533905932738,0.0,0.0,0.0,0.0
2025/05/06 15:12:45.634422264,1746537165,632762978,bow_port_thruster,-0.0035355339059327372,0.003535533905932738,0.0,0.0,0.0,0.0
2025/05/06 15:12:45.739724688,1746537165,737451766,bow_port_thruster,-0.0035355339059327372,0.003535533905932738,0.0,0.0,0.0,0.0
2025/05/06 15:12:45.832705492,1746537165,832066997,bow_port_thruster,-0.0035355339059327372,0.003535533905932738,0.0,0.0,0.0,0.0
2025/05/06 15:12:45.946691636,1746537165,934344338,bow_port_thruster,-0.0035355339059327372,0.003535533905932738,0.0,0.0,0.0,0.0
2025/05/06 15:12:46.34366929,1746537166,32648880,bow_port_thruster,-0.0035355339059327372,0.003535533905932738,0.0,0.0,0.0,0.0
2025/05/06 15:12:46.142329555,1746537166,141547824,bow_port_thruster,-0.0035355339059327372,0.003535533905932738,0.0,0.0,0.0,0.0
2025/05/06 15:12:46.237609295,1746537166,232590018,bow_port_thruster,-0.0035355339059327372,0.003535533905932738,0.0,0.0,0.0,0.0
2025/05/06 15:12:46.337658964,1746537166,336890419,bow_port_thruster,-0.0035355339059327372,0.003535533905932738,0.0,0.0,0.0,0.0
2025/05/06 15:12:46.437757786,1746537166,435798141,bow_port_thruster,-0.0035355339059327372,0.003535533905932738,0.0,0.0,0.0,0.0
2025/05/06 15:12:46.538505763,1746537166,537810605,bow_port_thruster,-0.0035355339059327372,0.003535533905932738,0.0,0.0,0.0,0.0
2025/05/06 15:12:46.633027853,1746537166,631715987,bow_port_thruster,-0.0035355339059327372,0.003535533905932738,0.0,0.0,0.0,0.0
2025/05/06 15:12:46.758901832,1746537166,757532936,bow_port_thruster,-0.0035355339059327372,0.003535533905932738,0.0,0.0,0.0,0.0
2025/05/06 15:12:46.853603463,1746537166,844846928,bow_port_thruster,-0.0035355339059327372,0.003535533905932738,0.0,0.0,0.0,0.0
2025/05/06 15:12:46.932137545,1746537166,931080270,bow_port_thruster,-0.0035355339059327372,0.003535533905932738,0.0,0.0,0.0,0.0
2025/05/06 15:12:47.37598731,1746537167,36733795,bow_port_thruster,-0.0035355339059327372,0.003535533905932738,0.0,0.0,0.0,0.0
2025/05/06 15:12:47.137278395,1746537167,134610770,bow_port_thruster,-0.0035355339059327372,0.003535533905932738,0.0,0.0,0.0,0.0
2025/05/06 15:12:47.238024330,1746537167,235207620,bow_port_thruster,-0.0035355339059327372,0.003535533905932738,0.0,0.0,0.0,0.0
2025/05/06 15:12:47.337498453,1746537167,335837493,bow_port_thruster,-0.0035355339059327372,0.003535533905932738,0.0,0.0,0.0,0.0
2025/05/06 15:12:47.441483815,1746537167,440162297,bow_port_thruster,-0.0035355339059327372,0.003535533905932738,0.0,0.0,0.0,0.0
2025/05/06 15:12:47.537251656,1746537167,536651684,bow_port_thruster,-0.0035355339059327372,0.003535533905932738,0.0,0.0,0.0,0.0
2025/05/06 15:12:47.635628377,1746537167,633857305,bow_port_thruster,-0.0035355339059327372,0.003535533905932738,0.0,0.0,0.0,0.0
2025/05/06 15:12:47.736841456,1746537167,735960540,bow_port_thruster,-0.0035355339059327372,0.003535533905932738,0.0,0.0,0.0,0.0
2025/05/06 15:12:47.835126384,1746537167,834601203,bow_port_thruster,-0.0035355339059327372,0.003535533905932738,0.0,0.0,0.0,0.0
2025/05/06 15:12:47.968341989,1746537167,967774660,bow_port_thruster,-0.0035355339059327372,0.003535533905932738,0.0,0.0,0.0,0.0
2025/05/06 15:12:48.37587455,1746537168,37090594,bow_port_thruster,-0.0035355339059327372,0.003535533905932738,0.0,0.0,0.0,0.0
2025/05/06 15:12:48.139831672,1746537168,138359197,bow_port_thruster,-0.0035355339059327372,0.003535533905932738,0.0,0.0,0.0,0.0
2025/05/06 15:12:48.231623966,1746537168,231341718,bow_port_thruster,-0.0035355339059327372,0.003535533905932738,0.0,0.0,0.0,0.0
2025/05/06 15:12:48.457598194,1746537168,455909192,bow_port_thruster,3.411363144400311e-05,0.030077210089508477,0.0,0.0,0.0,0.0
2025/05/06 15:12:48.502763365,1746537168,502389812,bow_port_thruster,5.022675805125419e-07,0.05507722895664953,0.0,0.0,0.0,0.0
2025/05/06 15:12:48.548120175,1746537168,546852849,bow_port_thruster,6.606791748238394e-08,0.06903937725639031,0.0,0.0,0.0,0.0
2025/05/06 15:12:48.634990430,1746537168,633252826,bow_port_thruster,4.018107191628284e-07,0.07747259247150189,0.0,0.0,0.0,0.0
2025/05/06 15:12:48.747105440,1746537168,746387260,bow_port_thruster,8.412151793557657e-07,0.08592738894129079,0.0,0.0,0.0,0.0
2025/05/06 15:12:48.840539595,1746537168,839145175,bow_port_thruster,3.0394757034619374e-06,0.09440733355581188,0.0,0.0,0.0,0.0
2025/05/06 15:12:48.933500288,1746537168,931614508,bow_port_thruster,5.361183292778517e-07,0.10290717553986083,0.0,0.0,0.0,0.0
2025/05/06 15:12:49.44225077,1746537169,41169236,bow_port_thruster,3.7761978740094203e-06,0.11143173237866716,0.0,0.0,0.0,0.0
2025/05/06 15:12:49.161962565,1746537169,160612442,bow_port_thruster,-1.0684123606854778e-07,0.1199740207130585,0.0,0.0,0.0,0.0
2025/05/06 15:12:49.235607224,1746537169,233987997,bow_port_thruster,1.0768368858954357e-06,0.12503283318782676,0.0,0.0,0.0,0.0
2025/05/06 15:12:49.333763932,1746537169,331254482,bow_port_thruster,-0.0035355339059327372,0.003535533905932738,0.0,0.0,0.0,0.0
2025/05/06 15:12:49.434716127,1746537169,432989604,bow_port_thruster,-0.0035355339059327372,0.003535533905932738,0.0,0.0,0.0,0.0
2025/05/06 15:12:49.531910957,1746537169,531451948,bow_port_thruster,-0.0035355339059327372,0.003535533905932738,0.0,0.0,0.0,0.0
2025/05/06 15:12:49.637811042,1746537169,636617877,bow_port_thruster,-0.0035355339059327372,0.003535533905932738,0.0,0.0,0.0,0.0
2025/05/06 15:12:49.735678713,1746537169,733064455,bow_port_thruster,-0.0035355339059327372,0.003535533905932738,0.0,0.0,0.0,0.0
2025/05/06 15:12:49.832935121,1746537169,832417018,bow_port_thruster,-0.0035355339059327372,0.003535533905932738,0.0,0.0,0.0,0.0
2025/05/06 15:12:49.936584632,1746537169,935053846,bow_port_thruster,-0.0035355339059327372,0.003535533905932738,0.0,0.0,0.0,0.0
2025/05/06 15:12:50.34267168,1746537170,31945397,bow_port_thruster,-0.0035355339059327372,0.003535533905932738,0.0,0.0,0.0,0.0
2025/05/06 15:12:50.143498850,1746537170,141366256,bow_port_thruster,-0.0035355339059327372,0.003535533905932738,0.0,0.0,0.0,0.0
2025/05/06 15:12:50.240580047,1746537170,238816101,bow_port_thruster,-0.0035355339059327372,0.003535533905932738,0.0,0.0,0.0,0.0
2025/05/06 15:12:50.386771092,1746537170,385995152,bow_port_thruster,5.005319860393543e-07,0.030000000882111112,0.0,0.0,0.0,0.0
2025/05/06 15:12:50.434932615,1746537170,431742135,bow_port_thruster,1.288540994120946e-06,0.03764605518110059,0.0,0.0,0.0,0.0
2025/05/06 15:12:50.541885613,1746537170,540583782,bow_port_thruster,-1.3930028900028663e-06,0.03768243548852118,0.0,0.0,0.0,0.0
2025/05/06 15:12:50.634473158,1746537170,632773106,bow_port_thruster,-1.4011452754456014e-06,0.03771756543228674,0.0,0.0,0.0,0.0
2025/05/06 15:12:50.731820198,1746537170,731590602,bow_port_thruster,-1.4296780339407433e-06,0.03775229308303566,0.0,0.0,0.0,0.0
2025/05/06 15:12:50.836626670,1746537170,835087426,bow_port_thruster,-1.2351158472141859e-06,0.03778668433540385,0.0,0.0,0.0,0.0
2025/05/06 15:12:50.934926208,1746537170,933340688,bow_port_thruster,-7.867390000833716e-07,0.037820765513821825,0.0,0.0,0.0,0.0
2025/05/06 15:12:51.36012246,1746537171,33784031,bow_port_thruster,-8.429859632100678e-07,0.0378548774203325,0.0,0.0,0.0,0.0
2025/05/06 15:12:51.135227491,1746537171,133088926,bow_port_thruster,-8.765556288898582e-07,0.03788869583266669,0.0,0.0,0.0,0.0
2025/05/06 15:12:51.245677707,1746537171,244371761,bow_port_thruster,-8.834884013735573e-07,0.037922217479125796,0.0,0.0,0.0,0.0
2025/05/06 15:12:51.338403651,1746537171,337117785,bow_port_thruster,1.024066813648749e-06,0.03880307405095079,0.0,0.0,0.0,0.0
2025/05/06 15:12:51.442741267,1746537171,442422372,bow_port_thruster,-2.1494031783728548e-07,0.03878684216552927,0.0,0.0,0.0,0.0
2025/05/06 15:12:51.571616604,1746537171,569847048,bow_port_thruster,-7.936984413076688e-07,0.03877102112577843,0.0,0.0,0.0,0.0
2025/05/06 15:12:51.635312331,1746537171,633959549,bow_port_thruster,8.477151968658188e-07,0.03875575899696774,0.0,0.0,0.0,0.0
2025/05/06 15:12:51.735731002,1746537171,732377620,bow_port_thruster,8.740341980034613e-07,0.03874007685103479,0.0,0.0,0.0,0.0
2025/05/06 15:12:51.837574924,1746537171,837171811,bow_port_thruster,8.631970462498592e-07,0.03872453534602389,0.0,0.0,0.0,0.0
2025/05/06 15:12:51.934093048,1746537171,932196715,bow_port_thruster,7.980435428931277e-07,0.03870913902634163,0.0,0.0,0.0,0.0
2025/05/06 15:12:52.33721704,1746537172,32416031,bow_port_thruster,-1.2150765330867918e-06,0.038693583556551885,0.0,0.0,0.0,0.0
2025/05/06 15:12:52.148664025,1746537172,147500144,bow_port_thruster,1.0685505012722514e-06,0.03867865659121063,0.0,0.0,0.0,0.0
2025/05/06 15:12:52.235509803,1746537172,234085340,bow_port_thruster,1.1498927832145555e-06,0.03866361023484127,0.0,0.0,0.0,0.0
2025/05/06 15:12:52.338348739,1746537172,337128833,bow_port_thruster,-0.0035355339059327372,0.003535533905932738,0.0,0.0,0.0,0.0
2025/05/06 15:12:52.433835340,1746537172,433289325,bow_port_thruster,-0.0035355339059327372,0.003535533905932738,0.0,0.0,0.0,0.0
2025/05/06 15:12:52.534923678,1746537172,533716600,bow_port_thruster,-0.0035355339059327372,0.003535533905932738,0.0,0.0,0.0,0.0
2025/05/06 15:12:52.635650427,1746537172,633342290,bow_port_thruster,-0.0035355339059327372,0.003535533905932738,0.0,0.0,0.0,0.0
2025/05/06 15:12:52.769737542,1746537172,768777525,bow_port_thruster,-0.0035355339059327372,0.003535533905932738,0.0,0.0,0.0,0.0
2025/05/06 15:12:52.839539611,1746537172,836630942,bow_port_thruster,-0.0035355339059327372,0.003535533905932738,0.0,0.0,0.0,0.0
2025/05/06 15:12:52.934269711,1746537172,931947951,bow_port_thruster,-0.0035355339059327372,0.003535533905932738,0.0,0.0,0.0,0.0
2025/05/06 15:12:53.37252381,1746537173,36638906,bow_port_thruster,-0.0035355339059327372,0.003535533905932738,0.0,0.0,0.0,0.0
2025/05/06 15:12:53.132951870,1746537173,131811139,bow_port_thruster,-0.0035355339059327372,0.003535533905932738,0.0,0.0,0.0,0.0
2025/05/06 15:12:53.239908999,1746537173,238446441,bow_port_thruster,-0.0035355339059327372,0.003535533905932738,0.0,0.0,0.0,0.0
2025/05/06 15:12:53.336284595,1746537173,334909354,bow_port_thruster,-0.0035355339059327372,0.003535533905932738,0.0,0.0,0.0,0.0
2025/05/06 15:12:53.439419047,1746537173,439118431,bow_port_thruster,-0.0035355339059327372,0.003535533905932738,0.0,0.0,0.0,0.0
2025/05/06 15:12:53.534487916,1746537173,532617904,bow_port_thruster,-0.0035355339059327372,0.003535533905932738,0.0,0.0,0.0,0.0
2025/05/06 15:12:53.637939828,1746537173,635877968,bow_port_thruster,-0.0035355339059327372,0.003535533905932738,0.0,0.0,0.0,0.0
2025/05/06 15:12:53.735034026,1746537173,732358482,bow_port_thruster,-0.0035355339059327372,0.003535533905932738,0.0,0.0,0.0,0.0
2025/05/06 15:12:53.831715195,1746537173,831044907,bow_port_thruster,-0.0035355339059327372,0.003535533905932738,0.0,0.0,0.0,0.0
2025/05/06 15:12:53.967316396,1746537173,963675458,bow_port_thruster,-0.0035355339059327372,0.003535533905932738,0.0,0.0,0.0,0.0
2025/05/06 15:12:54.34698478,1746537174,34197528,bow_port_thruster,-0.0035355339059327372,0.003535533905932738,0.0,0.0,0.0,0.0
2025/05/06 15:12:54.137604925,1746537174,135955822,bow_port_thruster,-0.0035355339059327372,0.003535533905932738,0.0,0.0,0.0,0.0
2025/05/06 15:12:54.234773451,1746537174,233589396,bow_port_thruster,-0.0035355339059327372,0.003535533905932738,0.0,0.0,0.0,0.0
2025/05/06 15:12:54.341204331,1746537174,339039200,bow_port_thruster,-0.0035355339059327372,0.003535533905932738,0.0,0.0,0.0,0.0
2025/05/06 15:12:54.433848942,1746537174,432407132,bow_port_thruster,-0.0035355339059327372,0.003535533905932738,0.0,0.0,0.0,0.0
2025/05/06 15:12:54.546624999,1746537174,545074937,bow_port_thruster,-0.0035355339059327372,0.003535533905932738,0.0,0.0,0.0,0.0
2025/05/06 15:12:54.636796135,1746537174,634442786,bow_port_thruster,-0.0035355339059327372,0.003535533905932738,0.0,0.0,0.0,0.0
2025/05/06 15:12:54.739431051,1746537174,738756677,bow_port_thruster,-0.0035355339059327372,0.003535533905932738,0.0,0.0,0.0,0.0
2025/05/06 15:12:54.837054062,1746537174,834924530,bow_port_thruster,-0.0035355339059327372,0.003535533905932738,0.0,0.0,0.0,0.0
2025/05/06 15:12:54.940096974,1746537174,939442941,bow_port_thruster,-0.0035355339059327372,0.003535533905932738,0.0,0.0,0.0,0.0
2025/05/06 15:12:55.34356114,1746537175,33757121,bow_port_thruster,-0.0035355339059327372,0.003535533905932738,0.0,0.0,0.0,0.0
2025/05/06 15:12:55.159074588,1746537175,157868609,bow_port_thruster,-0.0035355339059327372,0.003535533905932738,0.0,0.0,0.0,0.0
2025/05/06 15:12:55.243122004,1746537175,242405419,bow_port_thruster,-0.0035355339059327372,0.003535533905932738,0.0,0.0,0.0,0.0
2025/05/06 15:12:55.334289663,1746537175,332032361,bow_port_thruster,-0.0035355339059327372,0.003535533905932738,0.0,0.0,0.0,0.0
2025/05/06 15:12:55.446622217,1746537175,446438167,bow_port_thruster,-0.0035355339059327372,0.003535533905932738,0.0,0.0,0.0,0.0
2025/05/06 15:12:55.535736613,1746537175,534275148,bow_port_thruster,-0.0035355339059327372,0.003535533905932738,0.0,0.0,0.0,0.0
2025/05/06 15:12:55.639600058,1746537175,637139832,bow_port_thruster,-0.0035355339059327372,0.003535533905932738,0.0,0.0,0.0,0.0
2025/05/06 15:12:55.738330844,1746537175,736582605,bow_port_thruster,-0.0035355339059327372,0.003535533905932738,0.0,0.0,0.0,0.0
2025/05/06 15:12:55.838880373,1746537175,837541403,bow_port_thruster,-0.0035355339059327372,0.003535533905932738,0.0,0.0,0.0,0.0
2025/05/06 15:12:55.942221592,1746537175,941279693,bow_port_thruster,-0.0035355339059327372,0.003535533905932738,0.0,0.0,0.0,0.0
2025/05/06 15:12:56.37497138,1746537176,36288864,bow_port_thruster,-0.0035355339059327372,0.003535533905932738,0.0,0.0,0.0,0.0
2025/05/06 15:12:56.143169195,1746537176,141469199,bow_port_thruster,-0.0035355339059327372,0.003535533905932738,0.0,0.0,0.0,0.0
2025/05/06 15:12:56.235870920,1746537176,234499621,bow_port_thruster,-0.0035355339059327372,0.003535533905932738,0.0,0.0,0.0,0.0
2025/05/06 15:12:56.364232765,1746537176,363563862,bow_port_thruster,-0.0035355339059327372,0.003535533905932738,0.0,0.0,0.0,0.0
2025/05/06 15:12:56.437271778,1746537176,436461926,bow_port_thruster,-0.0035355339059327372,0.003535533905932738,0.0,0.0,0.0,0.0
2025/05/06 15:12:56.538992343,1746537176,538593568,bow_port_thruster,-0.0035355339059327372,0.003535533905932738,0.0,0.0,0.0,0.0
2025/05/06 15:12:56.635588752,1746537176,634228399,bow_port_thruster,-0.0035355339059327372,0.003535533905932738,0.0,0.0,0.0,0.0
2025/05/06 15:12:56.735282052,1746537176,734656168,bow_port_thruster,-0.0035355339059327372,0.003535533905932738,0.0,0.0,0.0,0.0
2025/05/06 15:12:56.838252183,1746537176,836738014,bow_port_thruster,-0.0035355339059327372,0.003535533905932738,0.0,0.0,0.0,0.0
2025/05/06 15:12:56.935993308,1746537176,935525038,bow_port_thruster,-0.0035355339059327372,0.003535533905932738,0.0,0.0,0.0,0.0
2025/05/06 15:12:57.53676792,1746537177,53326759,bow_port_thruster,-0.0035355339059327372,0.003535533905932738,0.0,0.0,0.0,0.0
2025/05/06 15:12:57.134309948,1746537177,133880322,bow_port_thruster,-0.0035355339059327372,0.003535533905932738,0.0,0.0,0.0,0.0
2025/05/06 15:12:57.239051120,1746537177,238718333,bow_port_thruster,-0.0035355339059327372,0.003535533905932738,0.0,0.0,0.0,0.0
2025/05/06 15:12:57.334919365,1746537177,333421427,bow_port_thruster,-0.0035355339059327372,0.003535533905932738,0.0,0.0,0.0,0.0
2025/05/06 15:12:57.438379395,1746537177,437519874,bow_port_thruster,-0.0035355339059327372,0.003535533905932738,0.0,0.0,0.0,0.0
2025/05/06 15:12:57.559251713,1746537177,558048047,bow_port_thruster,-0.0035355339059327372,0.003535533905932738,0.0,0.0,0.0,0.0
2025/05/06 15:12:57.635163982,1746537177,634103256,bow_port_thruster,-0.0035355339059327372,0.003535533905932738,0.0,0.0,0.0,0.0
2025/05/06 15:12:57.737422944,1746537177,736533796,bow_port_thruster,-0.0035355339059327372,0.003535533905932738,0.0,0.0,0.0,0.0
2025/05/06 15:12:57.836956797,1746537177,835923520,bow_port_thruster,-0.0035355339059327372,0.003535533905932738,0.0,0.0,0.0,0.0
2025/05/06 15:12:57.946169196,1746537177,942257248,bow_port_thruster,-0.0035355339059327372,0.003535533905932738,0.0,0.0,0.0,0.0
2025/05/06 15:12:58.38404326,1746537178,37649085,bow_port_thruster,-0.0035355339059327372,0.003535533905932738,0.0,0.0,0.0,0.0
2025/05/06 15:12:58.141957668,1746537178,141658007,bow_port_thruster,-0.0035355339059327372,0.003535533905932738,0.0,0.0,0.0,0.0
2025/05/06 15:12:58.232141436,1746537178,231198637,bow_port_thruster,-0.0035355339059327372,0.003535533905932738,0.0,0.0,0.0,0.0
2025/05/06 15:12:58.461714064,1746537178,460733038,bow_port_thruster,-0.0035355339059327372,0.003535533905932738,0.0,0.0,0.0,0.0
2025/05/06 15:12:58.551056084,1746537178,549712990,bow_port_thruster,-0.0035355339059327372,0.003535533905932738,0.0,0.0,0.0,0.0
2025/05/06 15:12:58.595217988,1746537178,594398863,bow_port_thruster,-0.0035355339059327372,0.003535533905932738,0.0,0.0,0.0,0.0
2025/05/06 15:12:58.645484160,1746537178,644807821,bow_port_thruster,-0.0035355339059327372,0.003535533905932738,0.0,0.0,0.0,0.0
2025/05/06 15:12:58.762199384,1746537178,759118641,bow_port_thruster,-0.0035355339059327372,0.003535533905932738,0.0,0.0,0.0,0.0
2025/05/06 15:12:58.835889523,1746537178,831913731,bow_port_thruster,-0.0035355339059327372,0.003535533905932738,0.0,0.0,0.0,0.0
2025/05/06 15:12:58.936234211,1746537178,933756003,bow_port_thruster,-0.0035355339059327372,0.003535533905932738,0.0,0.0,0.0,0.0
2025/05/06 15:12:59.50838119,1746537179,46543758,bow_port_thruster,-0.0035355339059327372,0.003535533905932738,0.0,0.0,0.0,0.0
2025/05/06 15:12:59.134271530,1746537179,132528646,bow_port_thruster,-0.0035355339059327372,0.003535533905932738,0.0,0.0,0.0,0.0
2025/05/06 15:12:59.240716556,1746537179,240084591,bow_port_thruster,-0.0035355339059327372,0.003535533905932738,0.0,0.0,0.0,0.0
2025/05/06 15:12:59.485764620,1746537179,485510906,bow_port_thruster,-0.0035355339059327372,0.003535533905932738,0.0,0.0,0.0,0.0
2025/05/06 15:12:59.618728184,1746537179,617557469,bow_port_thruster,-0.0035355339059327372,0.003535533905932738,0.0,0.0,0.0,0.0
2025/05/06 15:12:59.696835679,1746537179,696360031,bow_port_thruster,-0.0035355339059327372,0.003535533905932738,0.0,0.0,0.0,0.0
2025/05/06 15:12:59.746668613,1746537179,746068848,bow_port_thruster,-0.0035355339059327372,0.003535533905932738,0.0,0.0,0.0,0.0
2025/05/06 15:12:59.832709771,1746537179,831237521,bow_port_thruster,-0.0035355339059327372,0.003535533905932738,0.0,0.0,0.0,0.0
2025/05/06 15:12:59.936943185,1746537179,935672132,bow_port_thruster,-0.0035355339059327372,0.003535533905932738,0.0,0.0,0.0,0.0
2025/05/06 15:13:00.60177941,1746537180,57575835,bow_port_thruster,-0.0035355339059327372,0.003535533905932738,0.0,0.0,0.0,0.0
2025/05/06 15:13:00.135933942,1746537180,134604888,bow_port_thruster,-0.0035355339059327372,0.003535533905932738,0.0,0.0,0.0,0.0
2025/05/06 15:13:00.236075074,1746537180,234902959,bow_port_thruster,-0.0035355339059327372,0.003535533905932738,0.0,0.0,0.0,0.0
2025/05/06 15:13:00.340961695,1746537180,339034994,bow_port_thruster,-0.0035355339059327372,0.003535533905932738,0.0,0.0,0.0,0.0
2025/05/06 15:13:00.435708145,1746537180,433473738,bow_port_thruster,-0.0035355339059327372,0.003535533905932738,0.0,0.0,0.0,0.0
2025/05/06 15:13:00.541653317,1746537180,539556188,bow_port_thruster,-0.0035355339059327372,0.003535533905932738,0.0,0.0,0.0,0.0
2025/05/06 15:13:00.638569166,1746537180,635511042,bow_port_thruster,-0.0035355339059327372,0.003535533905932738,0.0,0.0,0.0,0.0
2025/05/06 15:13:00.732604702,1746537180,730878552,bow_port_thruster,-0.0035355339059327372,0.003535533905932738,0.0,0.0,0.0,0.0
2025/05/06 15:13:00.864498259,1746537180,841605392,bow_port_thruster,-0.0035355339059327372,0.003535533905932738,0.0,0.0,0.0,0.0
2025/05/06 15:13:00.931826739,1746537180,931406834,bow_port_thruster,-0.0035355339059327372,0.003535533905932738,0.0,0.0,0.0,0.0
2025/05/06 15:13:01.46611592,1746537181,44738949,bow_port_thruster,-0.0035355339059327372,0.003535533905932738,0.0,0.0,0.0,0.0
2025/05/06 15:13:01.136564558,1746537181,135189042,bow_port_thruster,-0.0035355339059327372,0.003535533905932738,0.0,0.0,0.0,0.0
2025/05/06 15:13:01.270757667,1746537181,270297006,bow_port_thruster,-0.0035355339059327372,0.003535533905932738,0.0,0.0,0.0,0.0
2025/05/06 15:13:01.331905368,1746537181,330680871,bow_port_thruster,-0.0035355339059327372,0.003535533905932738,0.0,0.0,0.0,0.0
2025/05/06 15:13:01.441281674,1746537181,440269819,bow_port_thruster,-0.0035355339059327372,0.003535533905932738,0.0,0.0,0.0,0.0
2025/05/06 15:13:01.533838314,1746537181,531586950,bow_port_thruster,-0.0035355339059327372,0.003535533905932738,0.0,0.0,0.0,0.0
2025/05/06 15:13:01.634487775,1746537181,632947615,bow_port_thruster,-0.0035355339059327372,0.003535533905932738,0.0,0.0,0.0,0.0
2025/05/06 15:13:01.736362413,1746537181,734846749,bow_port_thruster,-0.0035355339059327372,0.003535533905932738,0.0,0.0,0.0,0.0
2025/05/06 15:13:01.831955374,1746537181,831558107,bow_port_thruster,-0.0035355339059327372,0.003535533905932738,0.0,0.0,0.0,0.0
2025/05/06 15:13:01.935631353,1746537181,932846894,bow_port_thruster,-0.0035355339059327372,0.003535533905932738,0.0,0.0,0.0,0.0
2025/05/06 15:13:02.32567063,1746537182,31926010,bow_port_thruster,-0.0035355339059327372,0.003535533905932738,0.0,0.0,0.0,0.0
2025/05/06 15:13:02.139954685,1746537182,138372295,bow_port_thruster,-0.0035355339059327372,0.003535533905932738,0.0,0.0,0.0,0.0
2025/05/06 15:13:02.232265083,1746537182,230369581,bow_port_thruster,-0.0035355339059327372,0.003535533905932738,0.0,0.0,0.0,0.0
2025/05/06 15:13:02.337206639,1746537182,335620273,bow_port_thruster,-0.0035355339059327372,0.003535533905932738,0.0,0.0,0.0,0.0
2025/05/06 15:13:02.468179982,1746537182,467661929,bow_port_thruster,-0.0035355339059327372,0.003535533905932738,0.0,0.0,0.0,0.0
2025/05/06 15:13:02.538603515,1746537182,537394012,bow_port_thruster,-0.0035355339059327372,0.003535533905932738,0.0,0.0,0.0,0.0
2025/05/06 15:13:02.631309868,1746537182,630778050,bow_port_thruster,-0.0035355339059327372,0.003535533905932738,0.0,0.0,0.0,0.0
2025/05/06 15:13:02.742607011,1746537182,741451593,bow_port_thruster,-0.0035355339059327372,0.003535533905932738,0.0,0.0,0.0,0.0
2025/05/06 15:13:02.839492142,1746537182,837017937,bow_port_thruster,-0.0035355339059327372,0.003535533905932738,0.0,0.0,0.0,0.0
2025/05/06 15:13:02.938502614,1746537182,938228874,bow_port_thruster,-0.0035355339059327372,0.003535533905932738,0.0,0.0,0.0,0.0
2025/05/06 15:13:03.55050814,1746537183,46175113,bow_port_thruster,-0.0035355339059327372,0.003535533905932738,0.0,0.0,0.0,0.0
2025/05/06 15:13:03.132337893,1746537183,131883145,bow_port_thruster,-0.0035355339059327372,0.003535533905932738,0.0,0.0,0.0,0.0
2025/05/06 15:13:03.235695441,1746537183,234205706,bow_port_thruster,-0.0035355339059327372,0.003535533905932738,0.0,0.0,0.0,0.0
2025/05/06 15:13:03.343571856,1746537183,340362036,bow_port_thruster,-0.0035355339059327372,0.003535533905932738,0.0,0.0,0.0,0.0
2025/05/06 15:13:03.444502256,1746537183,443415286,bow_port_thruster,-0.0035355339059327372,0.003535533905932738,0.0,0.0,0.0,0.0
2025/05/06 15:13:03.536396597,1746537183,535005558,bow_port_thruster,-0.0035355339059327372,0.003535533905932738,0.0,0.0,0.0,0.0
2025/05/06 15:13:03.672702158,1746537183,671942943,bow_port_thruster,-0.0035355339059327372,0.003535533905932738,0.0,0.0,0.0,0.0
2025/05/06 15:13:03.737320589,1746537183,736889071,bow_port_thruster,-0.0035355339059327372,0.003535533905932738,0.0,0.0,0.0,0.0
2025/05/06 15:13:03.840510912,1746537183,839158109,bow_port_thruster,-0.0035355339059327372,0.003535533905932738,0.0,0.0,0.0,0.0
2025/05/06 15:13:03.935896262,1746537183,933823483,bow_port_thruster,-0.0035355339059327372,0.003535533905932738,0.0,0.0,0.0,0.0
2025/05/06 15:13:04.36932985,1746537184,35504047,bow_port_thruster,-0.0035355339059327372,0.003535533905932738,0.0,0.0,0.0,0.0
2025/05/06 15:13:04.138228461,1746537184,135015749,bow_port_thruster,-0.0035355339059327372,0.003535533905932738,0.0,0.0,0.0,0.0
2025/05/06 15:13:04.232996743,1746537184,231569106,bow_port_thruster,-0.0035355339059327372,0.003535533905932738,0.0,0.0,0.0,0.0
2025/05/06 15:13:04.346330352,1746537184,345412883,bow_port_thruster,-0.0035355339059327372,0.003535533905932738,0.0,0.0,0.0,0.0
2025/05/06 15:13:04.434549164,1746537184,432508366,bow_port_thruster,-0.0035355339059327372,0.003535533905932738,0.0,0.0,0.0,0.0
2025/05/06 15:13:04.538620283,1746537184,537636236,bow_port_thruster,-0.0035355339059327372,0.003535533905932738,0.0,0.0,0.0,0.0
2025/05/06 15:13:04.641052876,1746537184,639894454,bow_port_thruster,-0.0035355339059327372,0.003535533905932738,0.0,0.0,0.0,0.0
2025/05/06 15:13:04.739488402,1746537184,738284767,bow_port_thruster,-0.0035355339059327372,0.003535533905932738,0.0,0.0,0.0,0.0
2025/05/06 15:13:04.866862982,1746537184,865539055,bow_port_thruster,-0.0035355339059327372,0.003535533905932738,0.0,0.0,0.0,0.0
2025/05/06 15:13:04.939665565,1746537184,938355766,bow_port_thruster,-0.0035355339059327372,0.003535533905932738,0.0,0.0,0.0,0.0
2025/05/06 15:13:05.37223817,1746537185,36860055,bow_port_thruster,-0.0035355339059327372,0.003535533905932738,0.0,0.0,0.0,0.0
2025/05/06 15:13:05.134049418,1746537185,131409518,bow_port_thruster,-0.0035355339059327372,0.003535533905932738,0.0,0.0,0.0,0.0
2025/05/06 15:13:05.242931987,1746537185,238923279,bow_port_thruster,-0.0035355339059327372,0.003535533905932738,0.0,0.0,0.0,0.0
2025/05/06 15:13:05.334912041,1746537185,334498905,bow_port_thruster,-0.0035355339059327372,0.003535533905932738,0.0,0.0,0.0,0.0
2025/05/06 15:13:05.450542103,1746537185,448633102,bow_port_thruster,-0.0035355339059327372,0.003535533905932738,0.0,0.0,0.0,0.0
2025/05/06 15:13:05.539195875,1746537185,537668046,bow_port_thruster,-0.0035355339059327372,0.003535533905932738,0.0,0.0,0.0,0.0
2025/05/06 15:13:05.641020702,1746537185,640598376,bow_port_thruster,-0.0035355339059327372,0.003535533905932738,0.0,0.0,0.0,0.0
2025/05/06 15:13:05.732927183,1746537185,731787615,bow_port_thruster,-0.0035355339059327372,0.003535533905932738,0.0,0.0,0.0,0.0
2025/05/06 15:13:05.840703105,1746537185,840280364,bow_port_thruster,-0.0035355339059327372,0.003535533905932738,0.0,0.0,0.0,0.0
2025/05/06 15:13:05.942322736,1746537185,940441604,bow_port_thruster,-0.0035355339059327372,0.003535533905932738,0.0,0.0,0.0,0.0
2025/05/06 15:13:06.72148588,1746537186,70637053,bow_port_thruster,-0.0035355339059327372,0.003535533905932738,0.0,0.0,0.0,0.0
2025/05/06 15:13:06.140290069,1746537186,138400826,bow_port_thruster,-0.0035355339059327372,0.003535533905932738,0.0,0.0,0.0,0.0
2025/05/06 15:13:06.242406188,1746537186,241988245,bow_port_thruster,-0.0035355339059327372,0.003535533905932738,0.0,0.0,0.0,0.0
2025/05/06 15:13:06.333663434,1746537186,333345248,bow_port_thruster,-0.0035355339059327372,0.003535533905932738,0.0,0.0,0.0,0.0
2025/05/06 15:13:06.436289840,1746537186,435888936,bow_port_thruster,-0.0035355339059327372,0.003535533905932738,0.0,0.0,0.0,0.0
2025/05/06 15:13:06.538851508,1746537186,538607659,bow_port_thruster,-0.0035355339059327372,0.003535533905932738,0.0,0.0,0.0,0.0
2025/05/06 15:13:06.632621416,1746537186,632074059,bow_port_thruster,-0.0035355339059327372,0.003535533905932738,0.0,0.0,0.0,0.0
2025/05/06 15:13:06.747297117,1746537186,746496970,bow_port_thruster,-0.0035355339059327372,0.003535533905932738,0.0,0.0,0.0,0.0
2025/05/06 15:13:06.836930906,1746537186,836365509,bow_port_thruster,-0.0035355339059327372,0.003535533905932738,0.0,0.0,0.0,0.0
2025/05/06 15:13:06.942664289,1746537186,941929207,bow_port_thruster,-0.0035355339059327372,0.003535533905932738,0.0,0.0,0.0,0.0
2025/05/06 15:13:07.34816105,1746537187,34396759,bow_port_thruster,-0.0035355339059327372,0.003535533905932738,0.0,0.0,0.0,0.0
2025/05/06 15:13:07.136563382,1746537187,136257356,bow_port_thruster,-0.0035355339059327372,0.003535533905932738,0.0,0.0,0.0,0.0
2025/05/06 15:13:07.270349995,1746537187,268408046,bow_port_thruster,-0.0035355339059327372,0.003535533905932738,0.0,0.0,0.0,0.0
2025/05/06 15:13:07.340479220,1746537187,339915191,bow_port_thruster,-0.0035355339059327372,0.003535533905932738,0.0,0.0,0.0,0.0
2025/05/06 15:13:07.453465454,1746537187,444389500,bow_port_thruster,-0.0035355339059327372,0.003535533905932738,0.0,0.0,0.0,0.0
2025/05/06 15:13:07.538610874,1746537187,538038851,bow_port_thruster,-0.0035355339059327372,0.003535533905932738,0.0,0.0,0.0,0.0
2025/05/06 15:13:07.640438791,1746537187,636866872,bow_port_thruster,-0.0035355339059327372,0.003535533905932738,0.0,0.0,0.0,0.0
2025/05/06 15:13:07.736282960,1746537187,735688945,bow_port_thruster,-0.0035355339059327372,0.003535533905932738,0.0,0.0,0.0,0.0
2025/05/06 15:13:07.839651248,1746537187,838247991,bow_port_thruster,-0.0035355339059327372,0.003535533905932738,0.0,0.0,0.0,0.0
2025/05/06 15:13:07.941055606,1746537187,940575866,bow_port_thruster,-0.0035355339059327372,0.003535533905932738,0.0,0.0,0.0,0.0
2025/05/06 15:13:08.44614704,1746537188,44107155,bow_port_thruster,-0.0035355339059327372,0.003535533905932738,0.0,0.0,0.0,0.0
2025/05/06 15:13:08.140100135,1746537188,139062812,bow_port_thruster,-0.0035355339059327372,0.003535533905932738,0.0,0.0,0.0,0.0
2025/05/06 15:13:08.234327183,1746537188,232641617,bow_port_thruster,-0.0035355339059327372,0.003535533905932738,0.0,0.0,0.0,0.0
2025/05/06 15:13:08.333234303,1746537188,332419248,bow_port_thruster,-0.0035355339059327372,0.003535533905932738,0.0,0.0,0.0,0.0
2025/05/06 15:13:08.472258909,1746537188,471711414,bow_port_thruster,-0.0035355339059327372,0.003535533905932738,0.0,0.0,0.0,0.0
2025/05/06 15:13:08.539308358,1746537188,538925903,bow_port_thruster,-0.0035355339059327372,0.003535533905932738,0.0,0.0,0.0,0.0
2025/05/06 15:13:08.636545812,1746537188,634893239,bow_port_thruster,-0.0035355339059327372,0.003535533905932738,0.0,0.0,0.0,0.0
2025/05/06 15:13:08.753584597,1746537188,750878257,bow_port_thruster,-0.0035355339059327372,0.003535533905932738,0.0,0.0,0.0,0.0
2025/05/06 15:13:08.835445847,1746537188,833870606,bow_port_thruster,-0.0035355339059327372,0.003535533905932738,0.0,0.0,0.0,0.0
2025/05/06 15:13:08.963007837,1746537188,962400857,bow_port_thruster,-0.0035355339059327372,0.003535533905932738,0.0,0.0,0.0,0.0
2025/05/06 15:13:09.33989991,1746537189,33161317,bow_port_thruster,-0.0035355339059327372,0.003535533905932738,0.0,0.0,0.0,0.0
2025/05/06 15:13:09.141362851,1746537189,141028498,bow_port_thruster,-0.0035355339059327372,0.003535533905932738,0.0,0.0,0.0,0.0
2025/05/06 15:13:09.237883278,1746537189,237242046,bow_port_thruster,-0.0035355339059327372,0.003535533905932738,0.0,0.0,0.0,0.0
2025/05/06 15:13:09.338687372,1746537189,337100049,bow_port_thruster,-0.0035355339059327372,0.003535533905932738,0.0,0.0,0.0,0.0
2025/05/06 15:13:09.434987793,1746537189,433709205,bow_port_thruster,-0.0035355339059327372,0.003535533905932738,0.0,0.0,0.0,0.0
