time,header_stamp_secs,header_stamp_nsecs,header_frame_id,wrench_force_x,wrench_force_y,wrench_force_z,wrench_torque_x,wrench_torque_y,wrench_torque_z
2025/05/06 15:12:22.37619328,1746537142,36487579,bow_starboard_thruster,-0.0035355339059327372,-0.003535533905932738,0.0,0.0,0.0,0.0
2025/05/06 15:12:22.131691576,1746537142,130707443,bow_starboard_thruster,-0.0035355339059327372,-0.003535533905932738,0.0,0.0,0.0,0.0
2025/05/06 15:12:22.231729265,1746537142,230865167,bow_starboard_thruster,-0.0035355339059327372,-0.003535533905932738,0.0,0.0,0.0,0.0
2025/05/06 15:12:22.332249743,1746537142,332135724,bow_starboard_thruster,-0.0035355339059327372,-0.003535533905932738,0.0,0.0,0.0,0.0
2025/05/06 15:12:22.430973483,1746537142,430661447,bow_starboard_thruster,-0.0035355339059327372,-0.003535533905932738,0.0,0.0,0.0,0.0
2025/05/06 15:12:22.533199109,1746537142,531505786,bow_starboard_thruster,-0.0035355339059327372,-0.003535533905932738,0.0,0.0,0.0,0.0
2025/05/06 15:12:22.634272144,1746537142,633222626,bow_starboard_thruster,-0.0035355339059327372,-0.003535533905932738,0.0,0.0,0.0,0.0
2025/05/06 15:12:22.739841073,1746537142,738887593,bow_starboard_thruster,-0.0035355339059327372,-0.003535533905932738,0.0,0.0,0.0,0.0
2025/05/06 15:12:22.865163605,1746537142,865016321,bow_starboard_thruster,-0.0035355339059327372,-0.003535533905932738,0.0,0.0,0.0,0.0
2025/05/06 15:12:22.942600732,1746537142,941969806,bow_starboard_thruster,-0.0035355339059327372,-0.003535533905932738,0.0,0.0,0.0,0.0
2025/05/06 15:12:23.114384884,1746537143,112250324,bow_starboard_thruster,-0.0035355339059327372,-0.003535533905932738,0.0,0.0,0.0,0.0
2025/05/06 15:12:23.210897690,1746537143,209487235,bow_starboard_thruster,-0.0035355339059327372,-0.003535533905932738,0.0,0.0,0.0,0.0
2025/05/06 15:12:23.286946044,1746537143,283687085,bow_starboard_thruster,-0.0035355339059327372,-0.003535533905932738,0.0,0.0,0.0,0.0
2025/05/06 15:12:23.424159668,1746537143,421567625,bow_starboard_thruster,-0.0035355339059327372,-0.003535533905932738,0.0,0.0,0.0,0.0
2025/05/06 15:12:23.549320186,1746537143,547913625,bow_starboard_thruster,-0.0035355339059327372,-0.003535533905932738,0.0,0.0,0.0,0.0
2025/05/06 15:12:23.667241487,1746537143,659243783,bow_starboard_thruster,-0.0035355339059327372,-0.003535533905932738,0.0,0.0,0.0,0.0
2025/05/06 15:12:23.790809557,1746537143,778921193,bow_starboard_thruster,-0.0035355339059327372,-0.003535533905932738,0.0,0.0,0.0,0.0
2025/05/06 15:12:23.875664794,1746537143,872255094,bow_starboard_thruster,-0.0035355339059327372,-0.003535533905932738,0.0,0.0,0.0,0.0
2025/05/06 15:12:23.967115551,1746537143,966766153,bow_starboard_thruster,-0.0035355339059327372,-0.003535533905932738,0.0,0.0,0.0,0.0
2025/05/06 15:12:24.89073740,1746537144,88858680,bow_starboard_thruster,4.999871246991161e-07,-0.02999992163465063,0.0,0.0,0.0,0.0
2025/05/06 15:12:24.251756362,1746537144,237396866,bow_starboard_thruster,5.649125359987912e-07,-0.040308093627175606,0.0,0.0,0.0,0.0
2025/05/06 15:12:24.340411028,1746537144,338114216,bow_starboard_thruster,5.537293036681857e-07,-0.040308286937381414,0.0,0.0,0.0,0.0
2025/05/06 15:12:24.445620538,1746537144,440442006,bow_starboard_thruster,5.537291141546765e-07,-0.040308286937729434,0.0,0.0,0.0,0.0
2025/05/06 15:12:24.582551684,1746537144,535349974,bow_starboard_thruster,5.53493369750551e-07,-0.040308399995297964,0.0,0.0,0.0,0.0
2025/05/06 15:12:24.655004292,1746537144,654000411,bow_starboard_thruster,5.534932408374559e-07,-0.04030839999553465,0.0,0.0,0.0,0.0
2025/05/06 15:12:24.785375468,1746537144,760644800,bow_starboard_thruster,5.532601399108401e-07,-0.04030851783231026,0.0,0.0,0.0,0.0
2025/05/06 15:12:24.867949002,1746537144,848025669,bow_starboard_thruster,5.532600056748294e-07,-0.04030851783255462,0.0,0.0,0.0,0.0
2025/05/06 15:12:24.959709157,1746537144,952951576,bow_starboard_thruster,5.530294878518156e-07,-0.04030863091635233,0.0,0.0,0.0,0.0
2025/05/06 15:12:25.64220358,1746537145,63002962,bow_starboard_thruster,5.530293583673677e-07,-0.040308630916585625,0.0,0.0,0.0,0.0
2025/05/06 15:12:25.211656101,1746537145,205261167,bow_starboard_thruster,4.99981584501491e-07,-0.02155481682249611,0.0,0.0,0.0,0.0
2025/05/06 15:12:25.280559532,1746537145,274831595,bow_starboard_thruster,4.999844156458643e-07,-0.021554816877564928,0.0,0.0,0.0,0.0
2025/05/06 15:12:25.420034258,1746537145,404379441,bow_starboard_thruster,4.999843920043525e-07,-0.021554883600874774,0.0,0.0,0.0,0.0
2025/05/06 15:12:25.774152338,1746537145,736428964,bow_starboard_thruster,5.000023732654545e-07,-0.010457332649185545,0.0,0.0,0.0,0.0
2025/05/06 15:12:25.867229029,1746537145,854510179,bow_starboard_thruster,5.000023583246468e-07,-0.010457349328866524,0.0,0.0,0.0,0.0
2025/05/06 15:12:26.421492,1746537145,999385362,bow_starboard_thruster,5.000023433581442e-07,-0.010457366008544189,0.0,0.0,0.0,0.0
2025/05/06 15:12:26.63217657,1746537146,60446865,bow_starboard_thruster,5.000023433500279e-07,-0.010457366008544562,0.0,0.0,0.0,0.0
2025/05/06 15:12:26.425235473,1746537146,242245444,bow_starboard_thruster,5.000023134174097e-07,-0.01045740055938237,0.0,0.0,0.0,0.0
2025/05/06 15:12:26.485019130,1746537146,357002071,bow_starboard_thruster,5.000023133877608e-07,-0.0104574005593831,0.0,0.0,0.0,0.0
2025/05/06 15:12:26.774715194,1746537146,673615923,bow_starboard_thruster,5.471221817597332e-07,-0.03545738516769501,0.0,0.0,0.0,0.0
2025/05/06 15:12:26.877712632,1746537146,834840936,bow_starboard_thruster,4.939594688897538e-07,-0.06045743009318922,0.0,0.0,0.0,0.0
2025/05/06 15:12:26.952595044,1746537146,944913077,bow_starboard_thruster,3.8413457003208327e-07,-0.07655832268518037,0.0,0.0,0.0,0.0
2025/05/06 15:12:27.75673896,1746537147,74036896,bow_starboard_thruster,3.7985406039973974e-07,-0.07655854918898418,0.0,0.0,0.0,0.0
2025/05/06 15:12:27.236914163,1746537147,230990526,bow_starboard_thruster,3.798540104400919e-07,-0.07655854918915228,0.0,0.0,0.0,0.0
2025/05/06 15:12:27.326236111,1746537147,323053107,bow_starboard_thruster,3.781902740907972e-07,-0.0765588796412155,0.0,0.0,0.0,0.0
2025/05/06 15:12:27.427603057,1746537147,422337936,bow_starboard_thruster,3.7819020182038197e-07,-0.07655887964145883,0.0,0.0,0.0,0.0
2025/05/06 15:12:27.499440924,1746537147,498432472,bow_starboard_thruster,3.78190201786066e-07,-0.07655887964145862,0.0,0.0,0.0,0.0
2025/05/06 15:12:27.554655415,1746537147,552533166,bow_starboard_thruster,5.029264468511291e-07,-0.06166692591116754,0.0,0.0,0.0,0.0
2025/05/06 15:12:27.672641981,1746537147,671468030,bow_starboard_thruster,5.09978969460002e-07,-0.0616670215795101,0.0,0.0,0.0,0.0
2025/05/06 15:12:27.759600334,1746537147,758876127,bow_starboard_thruster,5.099625042452036e-07,-0.06166711209423314,0.0,0.0,0.0,0.0
2025/05/06 15:12:27.868764237,1746537147,861948556,bow_starboard_thruster,5.099462866886405e-07,-0.06166720737623106,0.0,0.0,0.0,0.0
2025/05/06 15:12:27.961147938,1746537147,960627337,bow_starboard_thruster,5.099303104982157e-07,-0.06166729789347929,0.0,0.0,0.0,0.0
2025/05/06 15:12:28.65102022,1746537148,63604575,bow_starboard_thruster,5.099145728979623e-07,-0.061667393177911464,0.0,0.0,0.0,0.0
2025/05/06 15:12:28.149629038,1746537148,148141937,bow_starboard_thruster,5.098990666624163e-07,-0.0616674836975051,0.0,0.0,0.0,0.0
2025/05/06 15:12:28.247425630,1746537148,244822155,bow_starboard_thruster,5.0988379052099e-07,-0.06166757898419789,0.0,0.0,0.0,0.0
2025/05/06 15:12:28.394005887,1746537148,393728098,bow_starboard_thruster,5.098687350946126e-07,-0.0616676695059702,0.0,0.0,0.0,0.0
2025/05/06 15:12:28.447604047,1746537148,447222945,bow_starboard_thruster,5.098687304843252e-07,-0.06166766950596975,0.0,0.0,0.0,0.0
2025/05/06 15:12:28.543148394,1746537148,542012773,bow_starboard_thruster,4.999404573417728e-07,-0.022205294445798242,0.0,0.0,0.0,0.0
2025/05/06 15:12:28.636929188,1746537148,634429044,bow_starboard_thruster,4.999509124040819e-07,-0.022205329327747766,0.0,0.0,0.0,0.0
2025/05/06 15:12:28.740826878,1746537148,739022310,bow_starboard_thruster,4.999506621294913e-07,-0.02220536507931589,0.0,0.0,0.0,0.0
2025/05/06 15:12:28.835760003,1746537148,835661599,bow_starboard_thruster,4.999504114303462e-07,-0.022205398447889046,0.0,0.0,0.0,0.0
2025/05/06 15:12:28.959587244,1746537148,958096795,bow_starboard_thruster,4.999501602920481e-07,-0.022205434199456767,0.0,0.0,0.0,0.0
2025/05/06 15:12:29.53288719,1746537149,50693270,bow_starboard_thruster,4.999499087367043e-07,-0.022205467568029005,0.0,0.0,0.0,0.0
2025/05/06 15:12:29.144344932,1746537149,142825326,bow_starboard_thruster,-0.0035355339059327372,-0.003535533905932738,0.0,0.0,0.0,0.0
2025/05/06 15:12:29.242034756,1746537149,240023581,bow_starboard_thruster,-0.0035355339059327372,-0.003535533905932738,0.0,0.0,0.0,0.0
2025/05/06 15:12:29.348408793,1746537149,347021097,bow_starboard_thruster,0.0009018304584072092,-0.030739171447242135,0.0,0.0,0.0,0.0
2025/05/06 15:12:29.434381993,1746537149,433890822,bow_starboard_thruster,0.00031894790170761855,-0.054074461338497415,0.0,0.0,0.0,0.0
2025/05/06 15:12:29.595979481,1746537149,594702521,bow_starboard_thruster,0.0005352334857084496,-0.04941311922241616,0.0,0.0,0.0,0.0
2025/05/06 15:12:29.761824448,1746537149,761455124,bow_starboard_thruster,0.00020571387301471366,-0.0462013950874386,0.0,0.0,0.0,0.0
2025/05/06 15:12:29.932393367,1746537149,931865658,bow_starboard_thruster,0.00015171674373029576,-0.043314230859986216,0.0,0.0,0.0,0.0
2025/05/06 15:12:30.93798620,1746537150,93453324,bow_starboard_thruster,4.4324165084196026e-05,-0.040635315998221525,0.0,0.0,0.0,0.0
2025/05/06 15:12:30.189216516,1746537150,187539233,bow_starboard_thruster,6.001929358150695e-07,-0.037333769026378805,0.0,0.0,0.0,0.0
2025/05/06 15:12:30.241284589,1746537150,235308724,bow_starboard_thruster,4.928917401092421e-07,-0.03502723441184636,0.0,0.0,0.0,0.0
2025/05/06 15:12:30.331816409,1746537150,331298112,bow_starboard_thruster,2.648338732976014e-08,-0.016351330679380834,0.0,0.0,0.0,0.0
2025/05/06 15:12:30.437927464,1746537150,435593446,bow_starboard_thruster,8.37265224571398e-07,-0.024352441457815677,0.0,0.0,0.0,0.0
2025/05/06 15:12:30.536309468,1746537150,533799860,bow_starboard_thruster,4.629441580828087e-07,-0.030461227779000878,0.0,0.0,0.0,0.0
2025/05/06 15:12:30.642158730,1746537150,640367528,bow_starboard_thruster,6.104019820707765e-07,-0.03020359459753824,0.0,0.0,0.0,0.0
2025/05/06 15:12:30.735281072,1746537150,733831233,bow_starboard_thruster,5.200868586406712e-07,-0.029961009356107265,0.0,0.0,0.0,0.0
2025/05/06 15:12:30.852348722,1746537150,851917853,bow_starboard_thruster,4.981854650189588e-07,-0.029738385734766438,0.0,0.0,0.0,0.0
2025/05/06 15:12:30.965749371,1746537150,962961962,bow_starboard_thruster,4.932885406413771e-07,-0.029535390941447123,0.0,0.0,0.0,0.0
2025/05/06 15:12:31.37581098,1746537151,36975920,bow_starboard_thruster,3.607792719954303e-07,-0.02935134243395837,0.0,0.0,0.0,0.0
2025/05/06 15:12:31.140666876,1746537151,136984218,bow_starboard_thruster,3.191274241106382e-07,-0.029186045485535585,0.0,0.0,0.0,0.0
2025/05/06 15:12:31.238211080,1746537151,237012770,bow_starboard_thruster,3.1501559959971753e-07,-0.029038937570963434,0.0,0.0,0.0,0.0
2025/05/06 15:12:31.344573177,1746537151,343660650,bow_starboard_thruster,3.70722051379055e-07,-0.028909335770905435,0.0,0.0,0.0,0.0
2025/05/06 15:12:31.438138619,1746537151,436624345,bow_starboard_thruster,-0.0035355339059327372,-0.003535533905932738,0.0,0.0,0.0,0.0
2025/05/06 15:12:31.538560629,1746537151,537140457,bow_starboard_thruster,-0.0035355339059327372,-0.003535533905932738,0.0,0.0,0.0,0.0
2025/05/06 15:12:31.633338143,1746537151,632279861,bow_starboard_thruster,-0.0035355339059327372,-0.003535533905932738,0.0,0.0,0.0,0.0
2025/05/06 15:12:31.739623757,1746537151,739053113,bow_starboard_thruster,-0.0035355339059327372,-0.003535533905932738,0.0,0.0,0.0,0.0
2025/05/06 15:12:31.833621058,1746537151,833306044,bow_starboard_thruster,-0.0035355339059327372,-0.003535533905932738,0.0,0.0,0.0,0.0
2025/05/06 15:12:31.934647279,1746537151,933355683,bow_starboard_thruster,-0.0035355339059327372,-0.003535533905932738,0.0,0.0,0.0,0.0
2025/05/06 15:12:32.34681695,1746537152,32695096,bow_starboard_thruster,-0.0035355339059327372,-0.003535533905932738,0.0,0.0,0.0,0.0
2025/05/06 15:12:32.175359043,1746537152,174729472,bow_starboard_thruster,-0.0035355339059327372,-0.003535533905932738,0.0,0.0,0.0,0.0
2025/05/06 15:12:32.236890678,1746537152,235721198,bow_starboard_thruster,-0.0035355339059327372,-0.003535533905932738,0.0,0.0,0.0,0.0
2025/05/06 15:12:32.335455273,1746537152,334979699,bow_starboard_thruster,-0.0035355339059327372,-0.003535533905932738,0.0,0.0,0.0,0.0
2025/05/06 15:12:32.438810662,1746537152,437536020,bow_starboard_thruster,-0.0035355339059327372,-0.003535533905932738,0.0,0.0,0.0,0.0
2025/05/06 15:12:32.535656262,1746537152,535073031,bow_starboard_thruster,-0.0035355339059327372,-0.003535533905932738,0.0,0.0,0.0,0.0
2025/05/06 15:12:32.639775520,1746537152,636693277,bow_starboard_thruster,-0.0035355339059327372,-0.003535533905932738,0.0,0.0,0.0,0.0
2025/05/06 15:12:32.733482504,1746537152,731989780,bow_starboard_thruster,-0.0035355339059327372,-0.003535533905932738,0.0,0.0,0.0,0.0
2025/05/06 15:12:32.839010980,1746537152,838698679,bow_starboard_thruster,-0.0035355339059327372,-0.003535533905932738,0.0,0.0,0.0,0.0
2025/05/06 15:12:32.937337675,1746537152,935399010,bow_starboard_thruster,-0.0035355339059327372,-0.003535533905932738,0.0,0.0,0.0,0.0
2025/05/06 15:12:33.38854494,1746537153,38152028,bow_starboard_thruster,-0.0035355339059327372,-0.003535533905932738,0.0,0.0,0.0,0.0
2025/05/06 15:12:33.132268925,1746537153,130838306,bow_starboard_thruster,-0.0035355339059327372,-0.003535533905932738,0.0,0.0,0.0,0.0
2025/05/06 15:12:33.236942892,1746537153,236207002,bow_starboard_thruster,-0.0035355339059327372,-0.003535533905932738,0.0,0.0,0.0,0.0
2025/05/06 15:12:33.372145045,1746537153,369022429,bow_starboard_thruster,-0.0035355339059327372,-0.003535533905932738,0.0,0.0,0.0,0.0
2025/05/06 15:12:33.440949534,1746537153,438934178,bow_starboard_thruster,-0.0035355339059327372,-0.003535533905932738,0.0,0.0,0.0,0.0
2025/05/06 15:12:33.544686266,1746537153,542317671,bow_starboard_thruster,-0.0035355339059327372,-0.003535533905932738,0.0,0.0,0.0,0.0
2025/05/06 15:12:33.637583961,1746537153,636051937,bow_starboard_thruster,-0.0035355339059327372,-0.003535533905932738,0.0,0.0,0.0,0.0
2025/05/06 15:12:33.741622334,1746537153,738801387,bow_starboard_thruster,-0.0035355339059327372,-0.003535533905932738,0.0,0.0,0.0,0.0
2025/05/06 15:12:33.836640544,1746537153,834622158,bow_starboard_thruster,-0.0035355339059327372,-0.003535533905932738,0.0,0.0,0.0,0.0
2025/05/06 15:12:33.942224922,1746537153,941795958,bow_starboard_thruster,-0.0035355339059327372,-0.003535533905932738,0.0,0.0,0.0,0.0
2025/05/06 15:12:34.32841210,1746537154,31858302,bow_starboard_thruster,-0.0035355339059327372,-0.003535533905932738,0.0,0.0,0.0,0.0
2025/05/06 15:12:34.143200953,1746537154,141813854,bow_starboard_thruster,-0.0035355339059327372,-0.003535533905932738,0.0,0.0,0.0,0.0
2025/05/06 15:12:34.235122066,1746537154,232540477,bow_starboard_thruster,-0.0035355339059327372,-0.003535533905932738,0.0,0.0,0.0,0.0
2025/05/06 15:12:34.332987420,1746537154,332063518,bow_starboard_thruster,-0.0035355339059327372,-0.003535533905932738,0.0,0.0,0.0,0.0
2025/05/06 15:12:34.549175916,1746537154,547773615,bow_starboard_thruster,-0.0035355339059327372,-0.003535533905932738,0.0,0.0,0.0,0.0
2025/05/06 15:12:34.706064507,1746537154,701360018,bow_starboard_thruster,-0.0035355339059327372,-0.003535533905932738,0.0,0.0,0.0,0.0
2025/05/06 15:12:34.752649697,1746537154,752025166,bow_starboard_thruster,-0.0035355339059327372,-0.003535533905932738,0.0,0.0,0.0,0.0
2025/05/06 15:12:34.840588996,1746537154,839655238,bow_starboard_thruster,-0.0035355339059327372,-0.003535533905932738,0.0,0.0,0.0,0.0
2025/05/06 15:12:34.933942937,1746537154,933179708,bow_starboard_thruster,-0.0035355339059327372,-0.003535533905932738,0.0,0.0,0.0,0.0
2025/05/06 15:12:35.46688339,1746537155,45213643,bow_starboard_thruster,-0.0035355339059327372,-0.003535533905932738,0.0,0.0,0.0,0.0
2025/05/06 15:12:35.135693324,1746537155,133901675,bow_starboard_thruster,-0.0035355339059327372,-0.003535533905932738,0.0,0.0,0.0,0.0
2025/05/06 15:12:35.232315778,1746537155,231911266,bow_starboard_thruster,-0.0035355339059327372,-0.003535533905932738,0.0,0.0,0.0,0.0
2025/05/06 15:12:35.453554095,1746537155,452161625,bow_starboard_thruster,-3.102139546900524e-08,-0.030000087863877898,0.0,0.0,0.0,0.0
2025/05/06 15:12:35.498335759,1746537155,497092606,bow_starboard_thruster,4.7048979476216964e-07,-0.05500008368975889,0.0,0.0,0.0,0.0
2025/05/06 15:12:35.544979362,1746537155,544271925,bow_starboard_thruster,5.014250279950105e-07,-0.08000007579912652,0.0,0.0,0.0,0.0
2025/05/06 15:12:35.630905812,1746537155,630727556,bow_starboard_thruster,4.993274990764752e-07,-0.08934553478624406,0.0,0.0,0.0,0.0
2025/05/06 15:12:35.740324883,1746537155,737181005,bow_starboard_thruster,2.9279645105978943e-07,-0.0983154264146189,0.0,0.0,0.0,0.0
2025/05/06 15:12:35.860105424,1746537155,859732995,bow_starboard_thruster,4.7546736851882276e-07,-0.10706265870449472,0.0,0.0,0.0,0.0
2025/05/06 15:12:35.943591049,1746537155,943435807,bow_starboard_thruster,5.125537521801616e-07,-0.11020882546187818,0.0,0.0,0.0,0.0
2025/05/06 15:12:36.40200673,1746537156,39577837,bow_starboard_thruster,4.748498647174402e-07,-0.11033958575869265,0.0,0.0,0.0,0.0
2025/05/06 15:12:36.140912198,1746537156,140344968,bow_starboard_thruster,4.528195481208237e-07,-0.11047118428082518,0.0,0.0,0.0,0.0
2025/05/06 15:12:36.235852262,1746537156,231866947,bow_starboard_thruster,4.02661459556283e-07,-0.1106035403630674,0.0,0.0,0.0,0.0
2025/05/06 15:12:36.411306073,1746537156,410651764,bow_starboard_thruster,-0.0035355339059327372,-0.003535533905932738,0.0,0.0,0.0,0.0
2025/05/06 15:12:36.459504086,1746537156,457150030,bow_starboard_thruster,-0.0035355339059327372,-0.003535533905932738,0.0,0.0,0.0,0.0
2025/05/06 15:12:36.535032428,1746537156,534406022,bow_starboard_thruster,-0.0035355339059327372,-0.003535533905932738,0.0,0.0,0.0,0.0
2025/05/06 15:12:36.643520888,1746537156,637808492,bow_starboard_thruster,-0.0035355339059327372,-0.003535533905932738,0.0,0.0,0.0,0.0
2025/05/06 15:12:36.739916579,1746537156,739170058,bow_starboard_thruster,-0.0035355339059327372,-0.003535533905932738,0.0,0.0,0.0,0.0
2025/05/06 15:12:36.843695900,1746537156,841475933,bow_starboard_thruster,-0.0035355339059327372,-0.003535533905932738,0.0,0.0,0.0,0.0
2025/05/06 15:12:36.931827759,1746537156,931312856,bow_starboard_thruster,-0.0035355339059327372,-0.003535533905932738,0.0,0.0,0.0,0.0
2025/05/06 15:12:37.64163067,1746537157,63174035,bow_starboard_thruster,-0.0035355339059327372,-0.003535533905932738,0.0,0.0,0.0,0.0
2025/05/06 15:12:37.133720501,1746537157,131249458,bow_starboard_thruster,-0.0035355339059327372,-0.003535533905932738,0.0,0.0,0.0,0.0
2025/05/06 15:12:37.239884583,1746537157,239530082,bow_starboard_thruster,-0.0035355339059327372,-0.003535533905932738,0.0,0.0,0.0,0.0
2025/05/06 15:12:37.335450133,1746537157,333651921,bow_starboard_thruster,-0.0035355339059327372,-0.003535533905932738,0.0,0.0,0.0,0.0
2025/05/06 15:12:37.435627397,1746537157,435329605,bow_starboard_thruster,-0.0035355339059327372,-0.003535533905932738,0.0,0.0,0.0,0.0
2025/05/06 15:12:37.538428925,1746537157,536309055,bow_starboard_thruster,-0.0035355339059327372,-0.003535533905932738,0.0,0.0,0.0,0.0
2025/05/06 15:12:37.635306565,1746537157,633650166,bow_starboard_thruster,-0.0035355339059327372,-0.003535533905932738,0.0,0.0,0.0,0.0
2025/05/06 15:12:37.736971591,1746537157,735016059,bow_starboard_thruster,-0.0035355339059327372,-0.003535533905932738,0.0,0.0,0.0,0.0
2025/05/06 15:12:37.835537056,1746537157,834072032,bow_starboard_thruster,-0.0035355339059327372,-0.003535533905932738,0.0,0.0,0.0,0.0
2025/05/06 15:12:37.941994723,1746537157,940563585,bow_starboard_thruster,-0.0035355339059327372,-0.003535533905932738,0.0,0.0,0.0,0.0
2025/05/06 15:12:38.32205151,1746537158,31575381,bow_starboard_thruster,-0.0035355339059327372,-0.003535533905932738,0.0,0.0,0.0,0.0
2025/05/06 15:12:38.178885790,1746537158,172998844,bow_starboard_thruster,-0.0035355339059327372,-0.003535533905932738,0.0,0.0,0.0,0.0
2025/05/06 15:12:38.267387875,1746537158,265629907,bow_starboard_thruster,-0.0035355339059327372,-0.003535533905932738,0.0,0.0,0.0,0.0
2025/05/06 15:12:38.333897617,1746537158,332499809,bow_starboard_thruster,-0.0035355339059327372,-0.003535533905932738,0.0,0.0,0.0,0.0
2025/05/06 15:12:38.433083726,1746537158,431532940,bow_starboard_thruster,5.006920127903195e-07,-0.030000000107154187,0.0,0.0,0.0,0.0
2025/05/06 15:12:38.552215521,1746537158,551184018,bow_starboard_thruster,7.476655340246939e-07,-0.03623851042274036,0.0,0.0,0.0,0.0
2025/05/06 15:12:38.632241856,1746537158,631628203,bow_starboard_thruster,1.6783938415734033e-06,-0.03845533470491983,0.0,0.0,0.0,0.0
2025/05/06 15:12:38.738482084,1746537158,737104651,bow_starboard_thruster,1.3753099440161316e-06,-0.038590995238834414,0.0,0.0,0.0,0.0
2025/05/06 15:12:38.839027747,1746537158,837091313,bow_starboard_thruster,1.757655394525678e-06,-0.03872609938324196,0.0,0.0,0.0,0.0
2025/05/06 15:12:38.934260563,1746537158,933560069,bow_starboard_thruster,1.8028728911059845e-06,-0.03886059992752423,0.0,0.0,0.0,0.0
2025/05/06 15:12:39.35721817,1746537159,34265143,bow_starboard_thruster,1.6679888708606924e-06,-0.038994477859239755,0.0,0.0,0.0,0.0
2025/05/06 15:12:39.142401832,1746537159,141844608,bow_starboard_thruster,1.487279851484607e-06,-0.03912771406657591,0.0,0.0,0.0,0.0
2025/05/06 15:12:39.236188578,1746537159,233109892,bow_starboard_thruster,1.3964442155141391e-06,-0.039260295037434695,0.0,0.0,0.0,0.0
2025/05/06 15:12:39.340811552,1746537159,340548879,bow_starboard_thruster,9.545531514002982e-07,-0.03939219497679901,0.0,0.0,0.0,0.0
2025/05/06 15:12:39.593874656,1746537159,592084718,bow_starboard_thruster,8.987348098692504e-05,-0.06459249660113961,0.0,0.0,0.0,0.0
2025/05/06 15:12:39.683241822,1746537159,682253033,bow_starboard_thruster,4.9967421322257e-07,-0.0895925647867897,0.0,0.0,0.0,0.0
2025/05/06 15:12:39.801013067,1746537159,798725233,bow_starboard_thruster,5.637958314650239e-07,-0.11459260015236857,0.0,0.0,0.0,0.0
2025/05/06 15:12:39.852077992,1746537159,850773436,bow_starboard_thruster,5.472650740600518e-07,-0.1395926056491805,0.0,0.0,0.0,0.0
2025/05/06 15:12:39.935407803,1746537159,934867617,bow_starboard_thruster,6.137152277351902e-07,-0.14108035660891333,0.0,0.0,0.0,0.0
2025/05/06 15:12:40.49930437,1746537160,49087180,bow_starboard_thruster,6.031034695571796e-07,-0.14724628008322266,0.0,0.0,0.0,0.0
2025/05/06 15:12:40.133835137,1746537160,131617599,bow_starboard_thruster,5.726315465179608e-07,-0.1534264590523842,0.0,0.0,0.0,0.0
2025/05/06 15:12:40.234778114,1746537160,233142201,bow_starboard_thruster,1.4612254892462433e-07,-0.15962206111393548,0.0,0.0,0.0,0.0
2025/05/06 15:12:40.348214563,1746537160,337107136,bow_starboard_thruster,9.874791656419188e-07,-0.0417338693312021,0.0,0.0,0.0,0.0
2025/05/06 15:12:40.435234407,1746537160,433431268,bow_starboard_thruster,2.6354904636470877e-06,-0.04180898208782392,0.0,0.0,0.0,0.0
2025/05/06 15:12:40.542813741,1746537160,541176633,bow_starboard_thruster,1.0847111418711298e-06,-0.048097651274973334,0.0,0.0,0.0,0.0
2025/05/06 15:12:40.640013185,1746537160,637840491,bow_starboard_thruster,7.272191057284786e-07,-0.054407579040588024,0.0,0.0,0.0,0.0
2025/05/06 15:12:40.768385897,1746537160,767785968,bow_starboard_thruster,-6.963101983343094e-07,-0.05708682065166909,0.0,0.0,0.0,0.0
2025/05/06 15:12:40.831842846,1746537160,831386084,bow_starboard_thruster,-3.5210036706563446e-07,-0.057217940661959135,0.0,0.0,0.0,0.0
2025/05/06 15:12:40.946077390,1746537160,944955354,bow_starboard_thruster,-7.777987109231883e-08,-0.05734817026191852,0.0,0.0,0.0,0.0
2025/05/06 15:12:41.32655044,1746537161,31573679,bow_starboard_thruster,4.5974912975802936e-07,-0.057477532498888984,0.0,0.0,0.0,0.0
2025/05/06 15:12:41.139749665,1746537161,139137892,bow_starboard_thruster,2.3298433947860324e-06,-0.05760599753724904,0.0,0.0,0.0,0.0
2025/05/06 15:12:41.242289014,1746537161,237521498,bow_starboard_thruster,3.2824080201317335e-06,-0.057733532554974376,0.0,0.0,0.0,0.0
2025/05/06 15:12:41.341192496,1746537161,340363978,bow_starboard_thruster,-0.0035355339059327372,-0.003535533905932738,0.0,0.0,0.0,0.0
2025/05/06 15:12:41.433977971,1746537161,432703775,bow_starboard_thruster,-0.0035355339059327372,-0.003535533905932738,0.0,0.0,0.0,0.0
2025/05/06 15:12:41.536572646,1746537161,535130911,bow_starboard_thruster,-0.0035355339059327372,-0.003535533905932738,0.0,0.0,0.0,0.0
2025/05/06 15:12:41.634648254,1746537161,633678818,bow_starboard_thruster,-0.0035355339059327372,-0.003535533905932738,0.0,0.0,0.0,0.0
2025/05/06 15:12:41.732082303,1746537161,731009901,bow_starboard_thruster,-0.0035355339059327372,-0.003535533905932738,0.0,0.0,0.0,0.0
2025/05/06 15:12:41.844815187,1746537161,842923742,bow_starboard_thruster,-0.0035355339059327372,-0.003535533905932738,0.0,0.0,0.0,0.0
2025/05/06 15:12:41.961854157,1746537161,960512659,bow_starboard_thruster,-0.0035355339059327372,-0.003535533905932738,0.0,0.0,0.0,0.0
2025/05/06 15:12:42.45304138,1746537162,45022356,bow_starboard_thruster,-0.0035355339059327372,-0.003535533905932738,0.0,0.0,0.0,0.0
2025/05/06 15:12:42.136350199,1746537162,136057193,bow_starboard_thruster,-0.0035355339059327372,-0.003535533905932738,0.0,0.0,0.0,0.0
2025/05/06 15:12:42.241800499,1746537162,241188565,bow_starboard_thruster,-0.0035355339059327372,-0.003535533905932738,0.0,0.0,0.0,0.0
2025/05/06 15:12:42.333539851,1746537162,331295390,bow_starboard_thruster,-0.0035355339059327372,-0.003535533905932738,0.0,0.0,0.0,0.0
2025/05/06 15:12:42.436657592,1746537162,436114426,bow_starboard_thruster,-0.0035355339059327372,-0.003535533905932738,0.0,0.0,0.0,0.0
2025/05/06 15:12:42.540585563,1746537162,539798505,bow_starboard_thruster,-0.0035355339059327372,-0.003535533905932738,0.0,0.0,0.0,0.0
2025/05/06 15:12:42.635581906,1746537162,634086439,bow_starboard_thruster,-0.0035355339059327372,-0.003535533905932738,0.0,0.0,0.0,0.0
2025/05/06 15:12:42.746975651,1746537162,744544434,bow_starboard_thruster,-0.0035355339059327372,-0.003535533905932738,0.0,0.0,0.0,0.0
2025/05/06 15:12:42.845819555,1746537162,844912487,bow_starboard_thruster,-0.0035355339059327372,-0.003535533905932738,0.0,0.0,0.0,0.0
2025/05/06 15:12:42.938317601,1746537162,938111953,bow_starboard_thruster,-0.0035355339059327372,-0.003535533905932738,0.0,0.0,0.0,0.0
2025/05/06 15:12:43.31742540,1746537163,31293951,bow_starboard_thruster,-0.0035355339059327372,-0.003535533905932738,0.0,0.0,0.0,0.0
2025/05/06 15:12:43.177833349,1746537163,176961168,bow_starboard_thruster,-0.0035355339059327372,-0.003535533905932738,0.0,0.0,0.0,0.0
2025/05/06 15:12:43.234257869,1746537163,232585290,bow_starboard_thruster,-0.0035355339059327372,-0.003535533905932738,0.0,0.0,0.0,0.0
2025/05/06 15:12:43.350955327,1746537163,348493109,bow_starboard_thruster,-0.0035355339059327372,-0.003535533905932738,0.0,0.0,0.0,0.0
2025/05/06 15:12:43.511525211,1746537163,507860928,bow_starboard_thruster,2.0312744630253358e-06,-0.021108845325351663,0.0,0.0,0.0,0.0
2025/05/06 15:12:43.564768392,1746537163,563680110,bow_starboard_thruster,1.4561346634052028e-06,-0.021109324948276192,0.0,0.0,0.0,0.0
2025/05/06 15:12:43.634113903,1746537163,633775072,bow_starboard_thruster,5.553882546498098e-07,-0.02168300318996005,0.0,0.0,0.0,0.0
2025/05/06 15:12:43.738496321,1746537163,738180641,bow_starboard_thruster,8.038868087222131e-07,-0.02196625064656784,0.0,0.0,0.0,0.0
2025/05/06 15:12:43.835405321,1746537163,832916511,bow_starboard_thruster,1.0218181259512198e-06,-0.022247320219397407,0.0,0.0,0.0,0.0
2025/05/06 15:12:43.945509383,1746537163,944402136,bow_starboard_thruster,2.068198868447498e-06,-0.022527116276299348,0.0,0.0,0.0,0.0
2025/05/06 15:12:44.36144201,1746537164,33497574,bow_starboard_thruster,2.937271416401796e-06,-0.022803711894210998,0.0,0.0,0.0,0.0
2025/05/06 15:12:44.135224797,1746537164,134728785,bow_starboard_thruster,3.65470191113192e-06,-0.023078054589778713,0.0,0.0,0.0,0.0
2025/05/06 15:12:44.231742237,1746537164,231035381,bow_starboard_thruster,4.10131994158326e-06,-0.023350207665169275,0.0,0.0,0.0,0.0
2025/05/06 15:12:44.363646909,1746537164,362792469,bow_starboard_thruster,4.994971875986449e-07,-0.04835020743636112,0.0,0.0,0.0,0.0
2025/05/06 15:12:44.446489521,1746537164,444557459,bow_starboard_thruster,-3.19879975663065e-06,-0.05590955817415061,0.0,0.0,0.0,0.0
2025/05/06 15:12:44.535241514,1746537164,534140383,bow_starboard_thruster,-8.600255755816057e-07,-0.059842023394781584,0.0,0.0,0.0,0.0
2025/05/06 15:12:44.635900019,1746537164,635081281,bow_starboard_thruster,5.209883616671237e-07,-0.06009556537778303,0.0,0.0,0.0,0.0
2025/05/06 15:12:44.733674096,1746537164,733171182,bow_starboard_thruster,-7.271728255002564e-07,-0.06034753021402146,0.0,0.0,0.0,0.0
2025/05/06 15:12:44.837996324,1746537164,837213240,bow_starboard_thruster,7.856981536650618e-07,-0.0605971280897407,0.0,0.0,0.0,0.0
2025/05/06 15:12:44.934290983,1746537164,931531673,bow_starboard_thruster,-1.122007861993292e-06,-0.06084540243192866,0.0,0.0,0.0,0.0
2025/05/06 15:12:45.51195100,1746537165,50441171,bow_starboard_thruster,-1.1376862707968436e-06,-0.061091664267168985,0.0,0.0,0.0,0.0
2025/05/06 15:12:45.143509277,1746537165,142234165,bow_starboard_thruster,-1.1285311968682521e-06,-0.061335439496353956,0.0,0.0,0.0,0.0
2025/05/06 15:12:45.237092391,1746537165,235932183,bow_starboard_thruster,9.894312860179806e-07,-0.06157641869164377,0.0,0.0,0.0,0.0
2025/05/06 15:12:45.343486991,1746537165,340513351,bow_starboard_thruster,7.680881038650718e-07,-0.01297611554998573,0.0,0.0,0.0,0.0
2025/05/06 15:12:45.432542616,1746537165,431953672,bow_starboard_thruster,4.3354289375263205e-08,-0.013167213698047433,0.0,0.0,0.0,0.0
2025/05/06 15:12:45.573193626,1746537165,568264197,bow_starboard_thruster,2.0472884675611878e-06,-0.01335886669310202,0.0,0.0,0.0,0.0
2025/05/06 15:12:45.634448147,1746537165,632836580,bow_starboard_thruster,-9.254459279164335e-07,-0.013546460346153102,0.0,0.0,0.0,0.0
2025/05/06 15:12:45.739763301,1746537165,737560574,bow_starboard_thruster,-9.65128399287199e-07,-0.013733067776037496,0.0,0.0,0.0,0.0
2025/05/06 15:12:45.832741812,1746537165,832159252,bow_starboard_thruster,2.3668804149257179e-07,-0.013918682698382333,0.0,0.0,0.0,0.0
2025/05/06 15:12:45.946709499,1746537165,934416452,bow_starboard_thruster,2.57736099745767e-08,-0.01410094756473123,0.0,0.0,0.0,0.0
2025/05/06 15:12:46.34396263,1746537166,32730903,bow_starboard_thruster,-6.383150248571858e-08,-0.014283211063194712,0.0,0.0,0.0,0.0
2025/05/06 15:12:46.142340201,1746537166,141640096,bow_starboard_thruster,-1.6454603929228687e-06,-0.01446356776599212,0.0,0.0,0.0,0.0
2025/05/06 15:12:46.237639838,1746537166,232682888,bow_starboard_thruster,-2.1246882251622196e-06,-0.014643388994259692,0.0,0.0,0.0,0.0
2025/05/06 15:12:46.337692038,1746537166,336960394,bow_starboard_thruster,-0.0035355339059327372,-0.003535533905932738,0.0,0.0,0.0,0.0
2025/05/06 15:12:46.437802398,1746537166,435935508,bow_starboard_thruster,-0.0035355339059327372,-0.003535533905932738,0.0,0.0,0.0,0.0
2025/05/06 15:12:46.538541843,1746537166,537888147,bow_starboard_thruster,-0.0035355339059327372,-0.003535533905932738,0.0,0.0,0.0,0.0
2025/05/06 15:12:46.633047175,1746537166,631789357,bow_starboard_thruster,-0.0035355339059327372,-0.003535533905932738,0.0,0.0,0.0,0.0
2025/05/06 15:12:46.758917043,1746537166,757611909,bow_starboard_thruster,-0.0035355339059327372,-0.003535533905932738,0.0,0.0,0.0,0.0
2025/05/06 15:12:46.853613637,1746537166,844916692,bow_starboard_thruster,-0.0035355339059327372,-0.003535533905932738,0.0,0.0,0.0,0.0
2025/05/06 15:12:46.932151780,1746537166,931177957,bow_starboard_thruster,-0.0035355339059327372,-0.003535533905932738,0.0,0.0,0.0,0.0
2025/05/06 15:12:47.37617236,1746537167,36952840,bow_starboard_thruster,-0.0035355339059327372,-0.003535533905932738,0.0,0.0,0.0,0.0
2025/05/06 15:12:47.137306562,1746537167,134747610,bow_starboard_thruster,1.4452930487342108e-06,-0.0050144763004521175,0.0,0.0,0.0,0.0
2025/05/06 15:12:47.238130208,1746537167,235511770,bow_starboard_thruster,2.724644336257428e-07,-0.005053994929787612,0.0,0.0,0.0,0.0
2025/05/06 15:12:47.337597500,1746537167,335947118,bow_starboard_thruster,3.5628292946939585e-07,-0.03005403813094774,0.0,0.0,0.0,0.0
2025/05/06 15:12:47.441533950,1746537167,440236065,bow_starboard_thruster,7.967415859042583e-07,-0.04207891424382848,0.0,0.0,0.0,0.0
2025/05/06 15:12:47.537285453,1746537167,536725319,bow_starboard_thruster,3.567085902385555e-06,-0.05015401892028143,0.0,0.0,0.0,0.0
2025/05/06 15:12:47.635709721,1746537167,633928194,bow_starboard_thruster,1.3280072812649911e-08,-0.058250951508616665,0.0,0.0,0.0,0.0
2025/05/06 15:12:47.736860147,1746537167,736071849,bow_starboard_thruster,-9.413609946371999e-07,-0.06455010222515875,0.0,0.0,0.0,0.0
2025/05/06 15:12:47.835182182,1746537167,834682700,bow_starboard_thruster,5.291494604224378e-07,-0.06452205908213421,0.0,0.0,0.0,0.0
2025/05/06 15:12:47.968351580,1746537167,967883828,bow_starboard_thruster,9.489012088605139e-07,-0.06449384973075259,0.0,0.0,0.0,0.0
2025/05/06 15:12:48.37654771,1746537168,37186474,bow_starboard_thruster,1.1749884159135602e-06,-0.06446622084212207,0.0,0.0,0.0,0.0
2025/05/06 15:12:48.139872586,1746537168,138433195,bow_starboard_thruster,1.356996614611364e-06,-0.06443884199999696,0.0,0.0,0.0,0.0
2025/05/06 15:12:48.231658658,1746537168,231419223,bow_starboard_thruster,1.484561626509922e-06,-0.0644117124568836,0.0,0.0,0.0,0.0
2025/05/06 15:12:48.457617709,1746537168,455986195,bow_starboard_thruster,-0.0035355339059327372,-0.003535533905932738,0.0,0.0,0.0,0.0
2025/05/06 15:12:48.502798405,1746537168,502469198,bow_starboard_thruster,-0.0035355339059327372,-0.003535533905932738,0.0,0.0,0.0,0.0
2025/05/06 15:12:48.548506489,1746537168,546926142,bow_starboard_thruster,-0.0035355339059327372,-0.003535533905932738,0.0,0.0,0.0,0.0
2025/05/06 15:12:48.635004229,1746537168,633325496,bow_starboard_thruster,-0.0035355339059327372,-0.003535533905932738,0.0,0.0,0.0,0.0
2025/05/06 15:12:48.747152417,1746537168,746476185,bow_starboard_thruster,-0.0035355339059327372,-0.003535533905932738,0.0,0.0,0.0,0.0
2025/05/06 15:12:48.840579343,1746537168,839242810,bow_starboard_thruster,-0.0035355339059327372,-0.003535533905932738,0.0,0.0,0.0,0.0
2025/05/06 15:12:48.933519859,1746537168,931702034,bow_starboard_thruster,-0.0035355339059327372,-0.003535533905932738,0.0,0.0,0.0,0.0
2025/05/06 15:12:49.44252542,1746537169,41296037,bow_starboard_thruster,-0.0035355339059327372,-0.003535533905932738,0.0,0.0,0.0,0.0
2025/05/06 15:12:49.161978007,1746537169,160689264,bow_starboard_thruster,-0.0035355339059327372,-0.003535533905932738,0.0,0.0,0.0,0.0
2025/05/06 15:12:49.235644683,1746537169,234082030,bow_starboard_thruster,-0.0035355339059327372,-0.003535533905932738,0.0,0.0,0.0,0.0
2025/05/06 15:12:49.333722077,1746537169,331327845,bow_starboard_thruster,-0.0035355339059327372,-0.003535533905932738,0.0,0.0,0.0,0.0
2025/05/06 15:12:49.434758931,1746537169,433061196,bow_starboard_thruster,2.027934381610136e-06,-0.006204715732330628,0.0,0.0,0.0,0.0
2025/05/06 15:12:49.531925275,1746537169,531537836,bow_starboard_thruster,1.4200409170207917e-06,-0.006127435942010071,0.0,0.0,0.0,0.0
2025/05/06 15:12:49.637821141,1746537169,636721219,bow_starboard_thruster,1.4799682041469908e-06,-0.0060509336176023335,0.0,0.0,0.0,0.0
2025/05/06 15:12:49.735790223,1746537169,733138800,bow_starboard_thruster,1.5262830507419069e-06,-0.005975062172249301,0.0,0.0,0.0,0.0
2025/05/06 15:12:49.832979271,1746537169,832495100,bow_starboard_thruster,1.5588220935764817e-06,-0.005899818546048897,0.0,0.0,0.0,0.0
2025/05/06 15:12:49.936750486,1746537169,935152499,bow_starboard_thruster,-2.2509819890140153e-06,-0.005824780223638547,0.0,0.0,0.0,0.0
2025/05/06 15:12:50.34291795,1746537170,32024089,bow_starboard_thruster,-2.067827451938021e-06,-0.005751002478898845,0.0,0.0,0.0,0.0
2025/05/06 15:12:50.143532289,1746537170,141450889,bow_starboard_thruster,-1.6855732232713097e-06,-0.005677939828565938,0.0,0.0,0.0,0.0
2025/05/06 15:12:50.240609086,1746537170,238931341,bow_starboard_thruster,5.164445915749805e-07,-0.005605013644078811,0.0,0.0,0.0,0.0
2025/05/06 15:12:50.386788869,1746537170,386071944,bow_starboard_thruster,-0.0035355339059327372,-0.003535533905932738,0.0,0.0,0.0,0.0
2025/05/06 15:12:50.434975139,1746537170,431819899,bow_starboard_thruster,-0.0035355339059327372,-0.003535533905932738,0.0,0.0,0.0,0.0
2025/05/06 15:12:50.541899712,1746537170,540668654,bow_starboard_thruster,-0.0035355339059327372,-0.003535533905932738,0.0,0.0,0.0,0.0
2025/05/06 15:12:50.634705191,1746537170,632881239,bow_starboard_thruster,-0.0035355339059327372,-0.003535533905932738,0.0,0.0,0.0,0.0
2025/05/06 15:12:50.731835117,1746537170,731670984,bow_starboard_thruster,-0.0035355339059327372,-0.003535533905932738,0.0,0.0,0.0,0.0
2025/05/06 15:12:50.836645882,1746537170,835190123,bow_starboard_thruster,-0.0035355339059327372,-0.003535533905932738,0.0,0.0,0.0,0.0
2025/05/06 15:12:50.934958003,1746537170,933427410,bow_starboard_thruster,-0.0035355339059327372,-0.003535533905932738,0.0,0.0,0.0,0.0
2025/05/06 15:12:51.36022208,1746537171,33884514,bow_starboard_thruster,-0.0035355339059327372,-0.003535533905932738,0.0,0.0,0.0,0.0
2025/05/06 15:12:51.135263758,1746537171,133196763,bow_starboard_thruster,-0.0035355339059327372,-0.003535533905932738,0.0,0.0,0.0,0.0
2025/05/06 15:12:51.245699536,1746537171,244450288,bow_starboard_thruster,-0.0035355339059327372,-0.003535533905932738,0.0,0.0,0.0,0.0
2025/05/06 15:12:51.338438839,1746537171,337200575,bow_starboard_thruster,-0.0035355339059327372,-0.003535533905932738,0.0,0.0,0.0,0.0
2025/05/06 15:12:51.442751726,1746537171,442516664,bow_starboard_thruster,-0.0035355339059327372,-0.003535533905932738,0.0,0.0,0.0,0.0
2025/05/06 15:12:51.571626734,1746537171,569926574,bow_starboard_thruster,-0.0035355339059327372,-0.003535533905932738,0.0,0.0,0.0,0.0
2025/05/06 15:12:51.635336272,1746537171,634048090,bow_starboard_thruster,-0.0035355339059327372,-0.003535533905932738,0.0,0.0,0.0,0.0
2025/05/06 15:12:51.735746406,1746537171,732459621,bow_starboard_thruster,-0.0035355339059327372,-0.003535533905932738,0.0,0.0,0.0,0.0
2025/05/06 15:12:51.837585110,1746537171,837245745,bow_starboard_thruster,-0.0035355339059327372,-0.003535533905932738,0.0,0.0,0.0,0.0
2025/05/06 15:12:51.934116923,1746537171,932275666,bow_starboard_thruster,-0.0035355339059327372,-0.003535533905932738,0.0,0.0,0.0,0.0
2025/05/06 15:12:52.33765024,1746537172,32500285,bow_starboard_thruster,-0.0035355339059327372,-0.003535533905932738,0.0,0.0,0.0,0.0
2025/05/06 15:12:52.148702069,1746537172,147583991,bow_starboard_thruster,-0.0035355339059327372,-0.003535533905932738,0.0,0.0,0.0,0.0
2025/05/06 15:12:52.235519862,1746537172,234171211,bow_starboard_thruster,-0.0035355339059327372,-0.003535533905932738,0.0,0.0,0.0,0.0
2025/05/06 15:12:52.338412464,1746537172,337330985,bow_starboard_thruster,-0.0035355339059327372,-0.003535533905932738,0.0,0.0,0.0,0.0
2025/05/06 15:12:52.433877487,1746537172,433361697,bow_starboard_thruster,-0.0035355339059327372,-0.003535533905932738,0.0,0.0,0.0,0.0
2025/05/06 15:12:52.534937916,1746537172,533793792,bow_starboard_thruster,-0.0035355339059327372,-0.003535533905932738,0.0,0.0,0.0,0.0
2025/05/06 15:12:52.635671331,1746537172,633452241,bow_starboard_thruster,-0.0035355339059327372,-0.003535533905932738,0.0,0.0,0.0,0.0
2025/05/06 15:12:52.769777931,1746537172,768860678,bow_starboard_thruster,-0.0035355339059327372,-0.003535533905932738,0.0,0.0,0.0,0.0
2025/05/06 15:12:52.839552472,1746537172,836747134,bow_starboard_thruster,-0.0035355339059327372,-0.003535533905932738,0.0,0.0,0.0,0.0
2025/05/06 15:12:52.934307410,1746537172,932035161,bow_starboard_thruster,-0.0035355339059327372,-0.003535533905932738,0.0,0.0,0.0,0.0
2025/05/06 15:12:53.37284239,1746537173,36735735,bow_starboard_thruster,-0.0035355339059327372,-0.003535533905932738,0.0,0.0,0.0,0.0
2025/05/06 15:12:53.132991131,1746537173,131883378,bow_starboard_thruster,-0.0035355339059327372,-0.003535533905932738,0.0,0.0,0.0,0.0
2025/05/06 15:12:53.239918823,1746537173,238562205,bow_starboard_thruster,-0.0035355339059327372,-0.003535533905932738,0.0,0.0,0.0,0.0
2025/05/06 15:12:53.336511291,1746537173,334982788,bow_starboard_thruster,5.001365861418033e-07,-0.030000000027772398,0.0,0.0,0.0,0.0
2025/05/06 15:12:53.439453273,1746537173,439212885,bow_starboard_thruster,9.676747602415312e-07,-0.0394690880432845,0.0,0.0,0.0,0.0
2025/05/06 15:12:53.534514857,1746537173,532706822,bow_starboard_thruster,5.801936153440618e-07,-0.047539593069222,0.0,0.0,0.0,0.0
2025/05/06 15:12:53.637954811,1746537173,635956872,bow_starboard_thruster,6.190304482539718e-07,-0.04764683383163466,0.0,0.0,0.0,0.0
2025/05/06 15:12:53.735062233,1746537173,732438570,bow_starboard_thruster,7.006695256636577e-07,-0.04775306533861861,0.0,0.0,0.0,0.0
2025/05/06 15:12:53.831751269,1746537173,831121506,bow_starboard_thruster,7.431054338801177e-07,-0.047858476717628426,0.0,0.0,0.0,0.0
2025/05/06 15:12:53.967353539,1746537173,963753647,bow_starboard_thruster,4.4405171578438415e-07,-0.04796298206726252,0.0,0.0,0.0,0.0
2025/05/06 15:12:54.34708858,1746537174,34269464,bow_starboard_thruster,3.622716946310921e-06,-0.0480652948757031,0.0,0.0,0.0,0.0
2025/05/06 15:12:54.137645233,1746537174,136068458,bow_starboard_thruster,3.63572345340981e-07,-0.048169367177688494,0.0,0.0,0.0,0.0
2025/05/06 15:12:54.234812342,1746537174,233678480,bow_starboard_thruster,5.441970035101921e-07,-0.048271315614314685,0.0,0.0,0.0,0.0
2025/05/06 15:12:54.341243839,1746537174,339154192,bow_starboard_thruster,-3.703937492733673e-06,-0.07327131093573043,0.0,0.0,0.0,0.0
2025/05/06 15:12:54.433891124,1746537174,432486359,bow_starboard_thruster,5.406869211553298e-07,-0.09827157689455461,0.0,0.0,0.0,0.0
2025/05/06 15:12:54.547095231,1746537174,545208320,bow_starboard_thruster,7.082273727232539e-07,-0.10803064418526491,0.0,0.0,0.0,0.0
2025/05/06 15:12:54.636942409,1746537174,634520051,bow_starboard_thruster,-1.2354210053412324e-06,-0.11760871028227472,0.0,0.0,0.0,0.0
2025/05/06 15:12:54.739467170,1746537174,738834576,bow_starboard_thruster,-6.344207305759684e-07,-0.12720017564901567,0.0,0.0,0.0,0.0
2025/05/06 15:12:54.837071716,1746537174,835008475,bow_starboard_thruster,3.5203678539470963e-07,-0.13680515887072994,0.0,0.0,0.0,0.0
2025/05/06 15:12:54.940115747,1746537174,939516109,bow_starboard_thruster,1.0544955432087933e-06,-0.14116944314536414,0.0,0.0,0.0,0.0
2025/05/06 15:12:55.34392456,1746537175,33836672,bow_starboard_thruster,1.8203772231292577e-06,-0.14128596824048942,0.0,0.0,0.0,0.0
2025/05/06 15:12:55.159109106,1746537175,157950939,bow_starboard_thruster,2.792227203960791e-06,-0.14140126429516697,0.0,0.0,0.0,0.0
2025/05/06 15:12:55.243161003,1746537175,242497425,bow_starboard_thruster,3.413379346057186e-06,-0.1415155375567251,0.0,0.0,0.0,0.0
2025/05/06 15:12:55.334331673,1746537175,332108413,bow_starboard_thruster,4.1994982046404476e-06,-0.132408191128044,0.0,0.0,0.0,0.0
2025/05/06 15:12:55.446721587,1746537175,446545811,bow_starboard_thruster,1.0137238473975754e-06,-0.13254175179029498,0.0,0.0,0.0,0.0
2025/05/06 15:12:55.535762319,1746537175,534366211,bow_starboard_thruster,8.764767844487512e-07,-0.13267265945367654,0.0,0.0,0.0,0.0
2025/05/06 15:12:55.639793484,1746537175,637291726,bow_starboard_thruster,6.949993189862546e-07,-0.13280245365925117,0.0,0.0,0.0,0.0
2025/05/06 15:12:55.738346085,1746537175,736688914,bow_starboard_thruster,7.809885796972236e-07,-0.13293115155519286,0.0,0.0,0.0,0.0
2025/05/06 15:12:55.838899205,1746537175,837619613,bow_starboard_thruster,7.344839521147184e-07,-0.1330587714902331,0.0,0.0,0.0,0.0
2025/05/06 15:12:55.942266518,1746537175,941354301,bow_starboard_thruster,5.269291895096025e-07,-0.133185323069074,0.0,0.0,0.0,0.0
2025/05/06 15:12:56.37516555,1746537176,36369493,bow_starboard_thruster,1.1767952271202293e-07,-0.13331080800708184,0.0,0.0,0.0,0.0
2025/05/06 15:12:56.143207060,1746537176,141551447,bow_starboard_thruster,1.6663967330540095e-07,-0.13343522402084393,0.0,0.0,0.0,0.0
2025/05/06 15:12:56.235906474,1746537176,234576674,bow_starboard_thruster,3.9324389585195065e-07,-0.13355861743292818,0.0,0.0,0.0,0.0
2025/05/06 15:12:56.364242402,1746537176,363678559,bow_starboard_thruster,3.391586352288e-07,-0.09394197953984922,0.0,0.0,0.0,0.0
2025/05/06 15:12:56.437307501,1746537176,436533927,bow_starboard_thruster,6.087907191299627e-09,-0.09409225254221858,0.0,0.0,0.0,0.0
2025/05/06 15:12:56.539008652,1746537176,538664694,bow_starboard_thruster,1.629061350685447e-07,-0.09424134103674998,0.0,0.0,0.0,0.0
2025/05/06 15:12:56.635891373,1746537176,634334596,bow_starboard_thruster,4.34743549441927e-07,-0.094389148376418,0.0,0.0,0.0,0.0
2025/05/06 15:12:56.735306582,1746537176,734739398,bow_starboard_thruster,7.233723236776033e-07,-0.09453569588972778,0.0,0.0,0.0,0.0
2025/05/06 15:12:56.838275047,1746537176,836846868,bow_starboard_thruster,1.0050295444384178e-06,-0.09468101276794665,0.0,0.0,0.0,0.0
2025/05/06 15:12:56.936004420,1746537176,935601469,bow_starboard_thruster,1.6565109718387947e-06,-0.09482500846178284,0.0,0.0,0.0,0.0
2025/05/06 15:12:57.53850682,1746537177,53423627,bow_starboard_thruster,2.339781457929727e-06,-0.09496772616892839,0.0,0.0,0.0,0.0
2025/05/06 15:12:57.134344439,1746537177,133954635,bow_starboard_thruster,2.9324447743435427e-06,-0.09510917411833109,0.0,0.0,0.0,0.0
2025/05/06 15:12:57.239085724,1746537177,238815981,bow_starboard_thruster,3.405487146444826e-06,-0.09524939923790618,0.0,0.0,0.0,0.0
2025/05/06 15:12:57.334928990,1746537177,333532928,bow_starboard_thruster,3.160649957342058e-07,-0.07548704715327303,0.0,0.0,0.0,0.0
2025/05/06 15:12:57.438424294,1746537177,437595996,bow_starboard_thruster,-5.456278259511848e-07,-0.07565392359161376,0.0,0.0,0.0,0.0
2025/05/06 15:12:57.559290637,1746537177,558130687,bow_starboard_thruster,-5.816090670971418e-07,-0.07581835113726158,0.0,0.0,0.0,0.0
2025/05/06 15:12:57.635185028,1746537177,634189102,bow_starboard_thruster,-6.444903631470653e-07,-0.07598137085903271,0.0,0.0,0.0,0.0
2025/05/06 15:12:57.737453503,1746537177,736613203,bow_starboard_thruster,-6.888637322664036e-07,-0.07614302754560211,0.0,0.0,0.0,0.0
2025/05/06 15:12:57.836999941,1746537177,835996418,bow_starboard_thruster,-5.609997384154656e-07,-0.07630347322089517,0.0,0.0,0.0,0.0
2025/05/06 15:12:57.946188955,1746537177,942341581,bow_starboard_thruster,-4.1799156643936066e-07,-0.07646256041166069,0.0,0.0,0.0,0.0
2025/05/06 15:12:58.38415273,1746537178,37725957,bow_starboard_thruster,-2.0868098323495604e-07,-0.0766202748909072,0.0,0.0,0.0,0.0
2025/05/06 15:12:58.141994373,1746537178,141743423,bow_starboard_thruster,7.052799897546047e-08,-0.07677667825856739,0.0,0.0,0.0,0.0
2025/05/06 15:12:58.232184481,1746537178,231272021,bow_starboard_thruster,5.447907537381823e-07,-0.07693174559417218,0.0,0.0,0.0,0.0
2025/05/06 15:12:58.461730449,1746537178,460806469,bow_starboard_thruster,2.4284232768014952e-05,-0.10198472951425969,0.0,0.0,0.0,0.0
2025/05/06 15:12:58.551098125,1746537178,549798906,bow_starboard_thruster,5.000216861693418e-07,-0.12698473232144397,0.0,0.0,0.0,0.0
2025/05/06 15:12:58.595228042,1746537178,594488752,bow_starboard_thruster,-1.2335138512138336e-06,-0.14725825944569,0.0,0.0,0.0,0.0
2025/05/06 15:12:58.645514269,1746537178,644891907,bow_starboard_thruster,6.180678919069881e-07,-0.15835856278266208,0.0,0.0,0.0,0.0
2025/05/06 15:12:58.762238030,1746537178,759205130,bow_starboard_thruster,1.7618399945596878e-07,-0.16847974762638568,0.0,0.0,0.0,0.0
2025/05/06 15:12:58.835928703,1746537178,831988875,bow_starboard_thruster,-1.6545558954107513e-07,-0.17860848124521084,0.0,0.0,0.0,0.0
2025/05/06 15:12:58.936335116,1746537178,933836675,bow_starboard_thruster,-3.5756479547035005e-07,-0.18763875267239144,0.0,0.0,0.0,0.0
2025/05/06 15:12:59.50898976,1746537179,46654344,bow_starboard_thruster,-4.2953022711311705e-07,-0.18780694136425166,0.0,0.0,0.0,0.0
2025/05/06 15:12:59.134318804,1746537179,133304763,bow_starboard_thruster,-5.319827353236598e-07,-0.18797372754100558,0.0,0.0,0.0,0.0
2025/05/06 15:12:59.240799089,1746537179,240189672,bow_starboard_thruster,-6.342781824861462e-07,-0.18813912299846752,0.0,0.0,0.0,0.0
2025/05/06 15:12:59.485774953,1746537179,485609473,bow_starboard_thruster,0.00013837241494366913,-0.21344824534606324,0.0,0.0,0.0,0.0
2025/05/06 15:12:59.618767578,1746537179,617639543,bow_starboard_thruster,1.089020516561204e-06,-0.2384482381911033,0.0,0.0,0.0,0.0
2025/05/06 15:12:59.696867143,1746537179,696438025,bow_starboard_thruster,3.8137942937724374e-07,-0.26344894261037044,0.0,0.0,0.0,0.0
2025/05/06 15:12:59.747630455,1746537179,746188756,bow_starboard_thruster,4.951349432690685e-07,-0.288448938471409,0.0,0.0,0.0,0.0
2025/05/06 15:12:59.832751050,1746537179,831318561,bow_starboard_thruster,9.032985543919847e-07,-0.29822433862385356,0.0,0.0,0.0,0.0
2025/05/06 15:12:59.936985349,1746537179,935749854,bow_starboard_thruster,7.963163013277935e-07,-0.3084639703261037,0.0,0.0,0.0,0.0
2025/05/06 15:13:00.60196443,1746537180,57654290,bow_starboard_thruster,-4.011311053075707e-09,-0.3187084640438836,0.0,0.0,0.0,0.0
2025/05/06 15:13:00.135953110,1746537180,134716011,bow_starboard_thruster,1.1885068630599335e-06,-0.3289627258688405,0.0,0.0,0.0,0.0
2025/05/06 15:13:00.236121125,1746537180,234987462,bow_starboard_thruster,1.5323426745440814e-06,-0.3392246481577022,0.0,0.0,0.0,0.0
2025/05/06 15:13:00.340988465,1746537180,339127082,bow_starboard_thruster,1.2244010843349244e-06,-0.3129939648490005,0.0,0.0,0.0,0.0
2025/05/06 15:13:00.435729701,1746537180,433569763,bow_starboard_thruster,1.0282792537277768e-06,-0.32327699058874415,0.0,0.0,0.0,0.0
2025/05/06 15:13:00.541663286,1746537180,539662833,bow_starboard_thruster,-1.15423289572876e-06,-0.33157228394960386,0.0,0.0,0.0,0.0
2025/05/06 15:13:00.638605393,1746537180,635594705,bow_starboard_thruster,-1.1696692086499158e-06,-0.3317456899738948,0.0,0.0,0.0,0.0
2025/05/06 15:13:00.732628321,1746537180,730959755,bow_starboard_thruster,-1.2413343962292272e-06,-0.33191768059393745,0.0,0.0,0.0,0.0
2025/05/06 15:13:00.864534548,1746537180,841699434,bow_starboard_thruster,-1.309820929411791e-06,-0.33208826122658575,0.0,0.0,0.0,0.0
2025/05/06 15:13:00.931840870,1746537180,931480900,bow_starboard_thruster,-1.3753482248214532e-06,-0.3322574038357677,0.0,0.0,0.0,0.0
2025/05/06 15:13:01.46769034,1746537181,44844683,bow_starboard_thruster,-1.3954322643976158e-06,-0.33242516051811727,0.0,0.0,0.0,0.0
2025/05/06 15:13:01.136599856,1746537181,135285924,bow_starboard_thruster,-1.4058618146770035e-06,-0.3325914985688725,0.0,0.0,0.0,0.0
2025/05/06 15:13:01.270942604,1746537181,270400043,bow_starboard_thruster,-1.4130660382237526e-06,-0.3327564641015996,0.0,0.0,0.0,0.0
2025/05/06 15:13:01.331940860,1746537181,330759520,bow_starboard_thruster,-1.772156990567274e-06,-0.186758261339679,0.0,0.0,0.0,0.0
2025/05/06 15:13:01.441313728,1746537181,440353976,bow_starboard_thruster,-9.234824728059988e-07,-0.18691311580454664,0.0,0.0,0.0,0.0
2025/05/06 15:13:01.533877039,1746537181,531671955,bow_starboard_thruster,-1.0216477271914679e-06,-0.18706748191818043,0.0,0.0,0.0,0.0
2025/05/06 15:13:01.634512136,1746537181,633023030,bow_starboard_thruster,-1.0993283631545065e-06,-0.18722055760514272,0.0,0.0,0.0,0.0
2025/05/06 15:13:01.736374025,1746537181,734929079,bow_starboard_thruster,-1.171344514301376e-06,-0.18737236538828886,0.0,0.0,0.0,0.0
2025/05/06 15:13:01.831964631,1746537181,831632030,bow_starboard_thruster,-1.2386057719660014e-06,-0.18752290472031974,0.0,0.0,0.0,0.0
2025/05/06 15:13:01.935646399,1746537181,932920501,bow_starboard_thruster,-1.3017516509381963e-06,-0.18767219540996644,0.0,0.0,0.0,0.0
2025/05/06 15:13:02.32586607,1746537182,32012730,bow_starboard_thruster,-1.3359998819415263e-06,-0.1878202310279628,0.0,0.0,0.0,0.0
2025/05/06 15:13:02.139991045,1746537182,138448234,bow_starboard_thruster,-1.3716341915928879e-06,-0.1879670796961802,0.0,0.0,0.0,0.0
2025/05/06 15:13:02.232275056,1746537182,230443735,bow_starboard_thruster,-1.4132021386510776e-06,-0.18811272666988474,0.0,0.0,0.0,0.0
2025/05/06 15:13:02.337236797,1746537182,335727498,bow_starboard_thruster,-9.515562661260838e-07,-0.19182936528017192,0.0,0.0,0.0,0.0
2025/05/06 15:13:02.469747101,1746537182,467891002,bow_starboard_thruster,-7.062535665062227e-07,-0.19196143411847943,0.0,0.0,0.0,0.0
2025/05/06 15:13:02.538638231,1746537182,537474819,bow_starboard_thruster,-6.151336177061235e-07,-0.19209246567740565,0.0,0.0,0.0,0.0
2025/05/06 15:13:02.631353947,1746537182,630855578,bow_starboard_thruster,-5.089356996017636e-07,-0.19222238931607571,0.0,0.0,0.0,0.0
2025/05/06 15:13:02.742646214,1746537182,741529052,bow_starboard_thruster,-3.840627288614382e-07,-0.1923512421826739,0.0,0.0,0.0,0.0
2025/05/06 15:13:02.839522105,1746537182,837088710,bow_starboard_thruster,1.1876287081979705e-06,-0.21735101233195672,0.0,0.0,0.0,0.0
2025/05/06 15:13:02.938508938,1746537182,938326638,bow_starboard_thruster,4.582185256167297e-07,-0.24235088141910666,0.0,0.0,0.0,0.0
2025/05/06 15:13:03.55078458,1746537183,46249383,bow_starboard_thruster,9.887032265779052e-08,-0.25288828488824067,0.0,0.0,0.0,0.0
2025/05/06 15:13:03.132371756,1746537183,131957517,bow_starboard_thruster,4.3775200425895325e-07,-0.2633182815853348,0.0,0.0,0.0,0.0
2025/05/06 15:13:03.235740766,1746537183,234301465,bow_starboard_thruster,-6.557574265382797e-07,-0.2667773217377882,0.0,0.0,0.0,0.0
2025/05/06 15:13:03.343619873,1746537183,340449994,bow_starboard_thruster,-5.888040769090008e-07,-0.26689653725904633,0.0,0.0,0.0,0.0
2025/05/06 15:13:03.444535580,1746537183,443491418,bow_starboard_thruster,-5.817524940607877e-07,-0.26701477979444577,0.0,0.0,0.0,0.0
2025/05/06 15:13:03.536412515,1746537183,535115128,bow_starboard_thruster,-6.328005277620195e-07,-0.2671320225085132,0.0,0.0,0.0,0.0
2025/05/06 15:13:03.672721587,1746537183,672016842,bow_starboard_thruster,-6.806378470284406e-07,-0.2672483132774181,0.0,0.0,0.0,0.0
2025/05/06 15:13:03.737356338,1746537183,736967642,bow_starboard_thruster,-7.256994326347454e-07,-0.26736363117051754,0.0,0.0,0.0,0.0
2025/05/06 15:13:03.840460504,1746537183,839290705,bow_starboard_thruster,1.0042801178245913e-06,-0.2903737636450839,0.0,0.0,0.0,0.0
2025/05/06 15:13:03.935918138,1746537183,933907112,bow_starboard_thruster,9.088418860325736e-07,-0.29312150752840743,0.0,0.0,0.0,0.0
2025/05/06 15:13:04.36975492,1746537184,35578345,bow_starboard_thruster,9.031312308541423e-07,-0.2932333902182965,0.0,0.0,0.0,0.0
2025/05/06 15:13:04.138270342,1746537184,135258461,bow_starboard_thruster,8.946477093851674e-07,-0.29334435530911496,0.0,0.0,0.0,0.0
2025/05/06 15:13:04.232952691,1746537184,231646481,bow_starboard_thruster,8.778620566889144e-07,-0.29345442718089676,0.0,0.0,0.0,0.0
2025/05/06 15:13:04.346358840,1746537184,345500925,bow_starboard_thruster,8.61776143426137e-07,-0.2935635567500326,0.0,0.0,0.0,0.0
2025/05/06 15:13:04.434591899,1746537184,432585893,bow_starboard_thruster,8.465713619082246e-07,-0.2936718018698412,0.0,0.0,0.0,0.0
2025/05/06 15:13:04.538645114,1746537184,537722196,bow_starboard_thruster,8.327213975074134e-07,-0.2937791537079983,0.0,0.0,0.0,0.0
2025/05/06 15:13:04.641067161,1746537184,639974352,bow_starboard_thruster,8.199559436945177e-07,-0.29388560175542944,0.0,0.0,0.0,0.0
2025/05/06 15:13:04.739498009,1746537184,738357557,bow_starboard_thruster,8.08270559756356e-07,-0.2939911840465275,0.0,0.0,0.0,0.0
2025/05/06 15:13:04.866902995,1746537184,865640277,bow_starboard_thruster,1.0138480064201699e-06,-0.28240972764099387,0.0,0.0,0.0,0.0
2025/05/06 15:13:04.939699348,1746537184,938435317,bow_starboard_thruster,1.0010344108012838e-06,-0.28091935124607864,0.0,0.0,0.0,0.0
2025/05/06 15:13:05.37254568,1746537185,36965722,bow_starboard_thruster,9.986720807820507e-07,-0.28102443040040315,0.0,0.0,0.0,0.0
2025/05/06 15:13:05.134082387,1746537185,131497098,bow_starboard_thruster,9.985022703765545e-07,-0.28112866888777,0.0,0.0,0.0,0.0
2025/05/06 15:13:05.243047050,1746537185,239121859,bow_starboard_thruster,9.9773013390233e-07,-0.2812320316259224,0.0,0.0,0.0,0.0
2025/05/06 15:13:05.334921881,1746537185,334579216,bow_starboard_thruster,9.95975547370096e-07,-0.2813345484128936,0.0,0.0,0.0,0.0
2025/05/06 15:13:05.450584852,1746537185,448750326,bow_starboard_thruster,9.94377180010354e-07,-0.28143619910354456,0.0,0.0,0.0,0.0
2025/05/06 15:13:05.539223803,1746537185,537744952,bow_starboard_thruster,9.929269099689171e-07,-0.2815370306597974,0.0,0.0,0.0,0.0
2025/05/06 15:13:05.641045645,1746537185,640678480,bow_starboard_thruster,9.916168642486507e-07,-0.2816370430692011,0.0,0.0,0.0,0.0
2025/05/06 15:13:05.732962636,1746537185,731864829,bow_starboard_thruster,9.904391549322553e-07,-0.28173619956029994,0.0,0.0,0.0,0.0
2025/05/06 15:13:05.840723633,1746537185,840364460,bow_starboard_thruster,9.893863773003586e-07,-0.2818345647915815,0.0,0.0,0.0,0.0
2025/05/06 15:13:05.942481726,1746537185,940532163,bow_starboard_thruster,9.011748168351071e-07,-0.2515680534315869,0.0,0.0,0.0,0.0
2025/05/06 15:13:06.72160513,1746537186,70732007,bow_starboard_thruster,8.803345566895508e-07,-0.2516699639615606,0.0,0.0,0.0,0.0
2025/05/06 15:13:06.140336520,1746537186,138597405,bow_starboard_thruster,8.888145793453026e-07,-0.2517710126406102,0.0,0.0,0.0,0.0
2025/05/06 15:13:06.242440533,1746537186,242059461,bow_starboard_thruster,9.01724274188071e-07,-0.2518712307482313,0.0,0.0,0.0,0.0
2025/05/06 15:13:06.333686882,1746537186,333433820,bow_starboard_thruster,9.159010054336058e-07,-0.251970628369051,0.0,0.0,0.0,0.0
2025/05/06 15:13:06.437233325,1746537186,435978702,bow_starboard_thruster,9.262659134486937e-07,-0.2520691963388215,0.0,0.0,0.0,0.0
2025/05/06 15:13:06.538885893,1746537186,538688689,bow_starboard_thruster,9.328640124462623e-07,-0.2521669435723798,0.0,0.0,0.0,0.0
2025/05/06 15:13:06.632654756,1746537186,632151205,bow_starboard_thruster,9.391000780863978e-07,-0.25226390042546265,0.0,0.0,0.0,0.0
2025/05/06 15:13:06.747311779,1746537186,746590704,bow_starboard_thruster,9.442263011499982e-07,-0.2523600574494072,0.0,0.0,0.0,0.0
2025/05/06 15:13:06.836966074,1746537186,836437491,bow_starboard_thruster,9.489640265423158e-07,-0.2524554331160248,0.0,0.0,0.0,0.0
2025/05/06 15:13:06.942786463,1746537186,942004706,bow_starboard_thruster,5.000774090510083e-07,-0.2774554331437669,0.0,0.0,0.0,0.0
2025/05/06 15:13:07.34860956,1746537187,34479880,bow_starboard_thruster,5.002369671226102e-07,-0.28420988286631305,0.0,0.0,0.0,0.0
2025/05/06 15:13:07.136593094,1746537187,136407392,bow_starboard_thruster,5.00248249480393e-07,-0.2843122013475556,0.0,0.0,0.0,0.0
2025/05/06 15:13:07.270304232,1746537187,268479400,bow_starboard_thruster,5.002595962443564e-07,-0.2844136633192532,0.0,0.0,0.0,0.0
2025/05/06 15:13:07.340515506,1746537187,339992380,bow_starboard_thruster,5.002704296520423e-07,-0.28451429532695693,0.0,0.0,0.0,0.0
2025/05/06 15:13:07.453498336,1746537187,444495719,bow_starboard_thruster,5.00280488211989e-07,-0.2846141089580438,0.0,0.0,0.0,0.0
2025/05/06 15:13:07.538648017,1746537187,538126541,bow_starboard_thruster,5.002906604411115e-07,-0.28471309262169925,0.0,0.0,0.0,0.0
2025/05/06 15:13:07.640285105,1746537187,636954599,bow_starboard_thruster,8.567458783857683e-07,-0.28481135235668487,0.0,0.0,0.0,0.0
2025/05/06 15:13:07.736303094,1746537187,735777736,bow_starboard_thruster,8.535611278225033e-07,-0.28490871484427205,0.0,0.0,0.0,0.0
