time,header_stamp_secs,header_stamp_nsecs,header_frame_id,vessel_state_pose_position_x,vessel_state_pose_position_y,vessel_state_pose_position_z,vessel_state_pose_orientation_x,vessel_state_pose_orientation_y,vessel_state_pose_orientation_z,vessel_state_pose_orientation_w,vessel_state_velocity_linear_x,vessel_state_velocity_linear_y,vessel_state_velocity_linear_z,vessel_state_velocity_angular_x,vessel_state_velocity_angular_y,vessel_state_velocity_angular_z,vessel_state_vessel_frame_id,vessel_state_w_1,vessel_state_w_2,vessel_state_w_3,vessel_state_w_4,vessel_state_a_1,vessel_state_a_2,vessel_state_a_3,vessel_state_a_4
2025/05/06 15:20:03.528290348,1746537603,523230647,world_ned,6.799160486297279,-15.817090776185424,0.4336873068577766,4.484480823041147e-05,-0.00039980407892004766,0.9945503400002705,-0.10425669930986727,2.518957776898827e-06,4.309209157164291e-06,4.32979409367269e-06,-7.34821500942e-06,-1.7944636942860739e-06,2.36042021433158e-08,,0.0,0.0,0.0,0.0,2.356194490192345,-2.356194490192345,-0.7853981633974483,0.7853981633974483
2025/05/06 15:20:03.623257910,1746537603,619109202,world_ned,6.799159943942629,-15.81709130489529,0.43368800971237487,4.466488548264386e-05,-0.000400170131260759,0.994550339724281,-0.10425670061550785,8.98589809568079e-06,3.623436055154184e-06,5.417182852266289e-06,-6.216286577311765e-06,9.005677640875842e-06,3.2257551426439766e-08,,0.0,0.0,0.0,0.0,2.356194490192345,-2.356194490192345,-0.7853981633974483,0.7853981633974483
2025/05/06 15:20:03.728352187,1746537603,725604407,world_ned,6.799158942971755,-15.817091817490855,0.43368850582528484,4.3967283561811694e-05,-0.0004004990357746579,0.9945503394609284,-0.1042567021613113,1.2639299650822407e-05,2.320114599054956e-06,4.6340008845798375e-06,-4.080915969017656e-06,1.901719412597143e-05,4.089649277440395e-08,,0.0,0.0,0.0,0.0,2.356194490192345,-2.356194490192345,-0.7853981633974483,0.7853981633974483
2025/05/06 15:20:03.823780721,1746537603,820911103,world_ned,6.799157377764009,-15.81709226187678,0.43368904426152644,4.2866763591703735e-05,-0.0004007183440450217,0.9945503392388283,-0.10425670389562887,1.780174814372873e-05,1.7961646836925606e-08,2.2782602341248825e-06,-2.8411992181861754e-07,2.4308474755803584e-05,4.582539391056538e-08,,0.0,0.0,0.0,0.0,2.356194490192345,-2.356194490192345,-0.7853981633974483,0.7853981633974483
2025/05/06 15:20:03.935945539,1746537603,926398758,world_ned,6.799155547247153,-15.817092515042468,0.43368908367382786,4.159538220163432e-05,-0.0004007535382407626,0.9945503390889828,-0.10425670570478923,1.8995158023694367e-05,-2.245053670330147e-06,-8.137079056113446e-07,3.5107779094432034e-06,2.5795542605379284e-05,4.6527737545812206e-08,,0.0,0.0,0.0,0.0,2.356194490192345,-2.356194490192345,-0.7853981633974483,0.7853981633974483
2025/05/06 15:20:04.23918061,1746537604,20344594,world_ned,6.799154246133677,-15.81709247150256,0.43368901989194647,4.0267308797146e-05,-0.00040064051862096037,0.9945503390033152,-0.10425670747778994,1.4775653329227173e-05,-3.7887290057599316e-06,-3.963960970191076e-06,6.166343109472214e-06,2.3158741137447018e-05,4.5019535911935745e-08,,0.0,0.0,0.0,0.0,2.356194490192345,-2.356194490192345,-0.7853981633974483,0.7853981633974483
2025/05/06 15:20:04.133032783,1746537604,130653194,world_ned,6.799152821368075,-15.817092341967522,0.43368848035359475,3.929037824415296e-05,-0.00040039439668976127,0.9945503389541297,-0.10425670926525177,1.2502143453152115e-05,-4.5599569613242014e-06,-6.046453009968673e-06,7.541584371474514e-06,1.5276548406479927e-05,4.1910673196196364e-08,,0.0,0.0,0.0,0.0,2.356194490192345,-2.356194490192345,-0.7853981633974483,0.7853981633974483
2025/05/06 15:20:04.230825061,1746537604,223970336,world_ned,6.799151761479308,-15.817092088771606,0.43368800334236707,3.876110730578084e-05,-0.00040006015926374134,0.9945503389274247,-0.10425671100121299,6.869117075437876e-06,-4.605969031333278e-06,-7.0201584728385875e-06,7.652505392748028e-06,4.859857865055763e-06,3.54159941327427e-08,,0.0,0.0,0.0,0.0,2.356194490192345,-2.356194490192345,-0.7853981633974483,0.7853981633974483
2025/05/06 15:20:04.325547588,1746537604,323530373,world_ned,6.799151378474229,-15.817091767668154,0.4336873050497004,3.879317771901692e-05,-0.0003997285886399084,0.9945503388952184,-0.10425671256830976,4.93147329957456e-07,-3.148928735516987e-06,-6.3434876614685265e-06,5.230160779023281e-06,-6.1212266771608304e-06,2.6860499511211675e-08,,0.0,0.0,0.0,0.0,2.356194490192345,-2.356194490192345,-0.7853981633974483,0.7853981633974483
2025/05/06 15:20:04.436322970,1746537604,422820711,world_ned,6.7991516002808465,-15.817091524589932,0.4336869871859684,3.936054702972221e-05,-0.0003995091529291809,0.9945503388215198,-0.10425671389979749,-5.633467752122894e-06,-7.761629677957522e-07,-3.951115450607099e-06,1.29135787633535e-06,-1.6262897213615856e-05,1.790596023465281e-08,,0.0,0.0,0.0,0.0,2.356194490192345,-2.356194490192345,-0.7853981633974483,0.7853981633974483
2025/05/06 15:20:04.528878021,1746537604,516329688,world_ned,6.799153362028241,-15.817091194396452,0.4336867543913197,4.0248234022420405e-05,-0.0003994516525350615,0.9945503386979025,-0.10425671496044929,-1.5699593604028944e-05,1.2170548032055857e-06,-5.117983145310891e-07,-2.03032094699345e-06,-2.145572506320783e-05,1.179865926287138e-08,,0.0,0.0,0.0,0.0,2.356194490192345,-2.356194490192345,-0.7853981633974483,0.7853981633974483
2025/05/06 15:20:04.681376178,1746537604,624005644,world_ned,6.799155899813672,-15.8170908754943,0.43368707634187986,4.131137054803183e-05,-0.0003995212427188093,0.9945503385363857,-0.10425671581873207,-2.022160716332143e-05,2.8480378396503958e-06,2.5428752106044396e-06,-4.815253808784979e-06,-2.4075372704495822e-05,6.744745424139473e-09,,0.0,0.0,0.0,0.0,2.356194490192345,-2.356194490192345,-0.7853981633974483,0.7853981633974483
2025/05/06 15:20:04.726305978,1746537604,723824792,world_ned,6.799157492006312,-15.817090904066507,0.43368743458150116,4.261330739333193e-05,-0.00039969057948276404,0.9945503383328264,-0.10425671658750418,-1.2554106941574176e-05,4.045215827656414e-06,4.639115103874288e-06,-6.908152026768148e-06,-2.5316702082557967e-05,4.6693980237164144e-09,,0.0,0.0,0.0,0.0,2.356194490192345,-2.356194490192345,-0.7853981633974483,0.7853981633974483
2025/05/06 15:20:04.842580315,1746537604,838422601,world_ned,6.7991585641762935,-15.817091107038046,0.43368814831948826,4.379692650097165e-05,-0.0003999299470910082,0.9945503381174966,-0.1042567172331827,-8.512233536814045e-06,4.184427638477347e-06,5.453644644559566e-06,-7.24308166750234e-06,-2.069342255582197e-05,3.253863376091367e-09,,0.0,0.0,0.0,0.0,2.356194490192345,-2.356194490192345,-0.7853981633974483,0.7853981633974483
2025/05/06 15:20:04.930261108,1746537604,925793997,world_ned,6.799159227033566,-15.817091340501989,0.43368863945973596,4.46386686037705e-05,-0.0004001635282775832,0.9945503379319242,-0.10425671775015594,-3.1971787256842377e-06,3.1110208980040435e-06,4.5569837477030375e-06,-5.516770711688909e-06,-1.1912939496340354e-05,5.705971810389037e-09,,0.0,0.0,0.0,0.0,2.356194490192345,-2.356194490192345,-0.7853981633974483,0.7853981633974483
2025/05/06 15:20:05.331993706,1746537605,16714862,world_ned,6.7991592271613985,-15.817091572681946,0.4336891707658857,4.495903048326483e-05,-0.0004003368941555731,0.9945503377853055,-0.10425671834558817,3.068585211377171e-06,1.6247500114258917e-06,2.206200903720146e-06,-3.04742529163243e-06,-1.2476059287840283e-06,1.3481116597786088e-08,,0.0,0.0,0.0,0.0,2.356194490192345,-2.356194490192345,-0.7853981633974483,0.7853981633974483
2025/05/06 15:20:05.337642151,1746537605,118221307,world_ned,6.799158607451852,-15.817091789700662,0.43368918866346007,4.472728423676079e-05,-0.000400448513867114,0.9945503376655397,-0.10425671915909696,9.816870898275771e-06,6.226620467871009e-08,-1.161191075060608e-06,-4.4622348801887473e-07,9.941022656310706e-06,2.2413476597276227e-08,,0.0,0.0,0.0,0.0,2.356194490192345,-2.356194490192345,-0.7853981633974483,0.7853981633974483
2025/05/06 15:20:05.346987107,1746537605,222002574,world_ned,6.799157285454411,-15.817091977016464,0.4336890880137907,4.395714488398811e-05,-0.00040047036293254366,0.9945503375830433,-0.10425672018969517,1.5373092897674938e-05,-1.6974260930971593e-06,-4.379273149689625e-06,2.4908412159403273e-06,1.9110259939629715e-05,3.012695587583135e-08,,0.0,0.0,0.0,0.0,2.356194490192345,-2.356194490192345,-0.7853981633974483,0.7853981633974483
2025/05/06 15:20:05.357502425,1746537605,325313369,world_ned,6.799155544537305,-15.817092074749223,0.4336884934725649,4.2813438168359165e-05,-0.00040038395781067537,0.9945503375387843,-0.10425672141970543,1.8891588070998655e-05,-3.3916594755057076e-06,-6.682414582937026e-06,5.372239953786922e-06,2.500003701867501e-05,3.6132820947164536e-08,,0.0,0.0,0.0,0.0,2.356194490192345,-2.356194490192345,-0.7853981633974483,0.7853981633974483
2025/05/06 15:20:05.437813224,1746537605,427353412,world_ned,6.799153532660797,-15.817092101166047,0.43368796261245657,4.1480041261448044e-05,-0.00040020716744035306,0.9945503375224732,-0.10425672279313185,1.9431930168206772e-05,-4.228448490705543e-06,-7.440887655082198e-06,6.884050875674957e-06,2.6085774652171418e-05,3.8730456392283943e-08,,0.0,0.0,0.0,0.0,2.356194490192345,-2.356194490192345,-0.7853981633974483,0.7853981633974483
2025/05/06 15:20:05.536101324,1746537605,524857889,world_ned,6.7991516613891445,-15.817092068113787,0.4336872332479094,4.022665018630779e-05,-0.00039999126225058945,0.994550337509439,-0.10425672423718313,1.7400810335211038e-05,-4.093690876929865e-06,-6.552870916338619e-06,6.792803037473759e-06,2.271218240393377e-05,3.813149748991434e-08,,0.0,0.0,0.0,0.0,2.356194490192345,-2.356194490192345,-0.7853981633974483,0.7853981633974483
2025/05/06 15:20:05.642452991,1746537605,625363424,world_ned,6.79915008128498,-15.817092040990806,0.4336868988064959,3.92533207854816e-05,-0.0003997954602040869,0.9945503374752017,-0.1042567256858249,1.2941002624539776e-05,-2.9924605934156177e-06,-4.077550203109235e-06,5.047429424972449e-06,1.5104919537746377e-05,3.471025487038109e-08,,0.0,0.0,0.0,0.0,2.356194490192345,-2.356194490192345,-0.7853981633974483,0.7853981633974483
2025/05/06 15:20:05.725502190,1746537605,721886449,world_ned,6.799149705339095,-15.817091911199578,0.43368665285863145,3.866877063894828e-05,-0.000399681389269607,0.9945503374097371,-0.1042567269661362,-4.442166610372465e-06,-1.3187500975483538e-06,-6.295045487729223e-07,2.2798733464947554e-06,8.450964167889774e-06,2.5828622797958453e-08,,0.0,0.0,0.0,0.0,2.356194490192345,-2.356194490192345,-0.7853981633974483,0.7853981633974483
2025/05/06 15:20:05.824497740,1746537605,822102882,world_ned,6.799149824392319,-15.817091866391964,0.43368699672855265,3.864561769351665e-05,-0.00039966328017125666,0.9945503373098069,-0.10425672799742054,-1.6635095213668086e-06,7.86709567860856e-07,3.0228287536338226e-06,-1.223523461485406e-06,-5.794506126756465e-06,1.6623163268120224e-08,,0.0,0.0,0.0,0.0,2.356194490192345,-2.356194490192345,-0.7853981633974483,0.7853981633974483
2025/05/06 15:20:05.926423293,1746537605,923951905,world_ned,6.799150290386975,-15.817091964137786,0.43368741261392457,3.9266241196085795e-05,-0.00039975450088650637,0.9945503371647509,-0.10425672879954333,-6.252793877897057e-06,2.8374406696657156e-06,5.319711681738246e-06,-4.640170908608985e-06,-1.6642730806108375e-05,7.163450899776338e-09,,0.0,0.0,0.0,0.0,2.356194490192345,-2.356194490192345,-0.7853981633974483,0.7853981633974483
2025/05/06 15:20:06.64159045,1746537606,26328703,world_ned,6.799151197536683,-15.81709214311718,0.43368818230845363,4.034351897085825e-05,-0.00039994234788739074,0.9945503369961955,-0.10425672927572999,-1.0593471680766224e-05,4.072286380648455e-06,5.727938634630564e-06,-6.760653320380957e-06,-2.4255645266673136e-05,-3.534540095086632e-09,,0.0,0.0,0.0,0.0,2.356194490192345,-2.356194490192345,-0.7853981633974483,0.7853981633974483
2025/05/06 15:20:06.147174718,1746537606,125429389,world_ned,6.7991536243762765,-15.817092051014239,0.4336886661212461,4.152230189506672e-05,-0.00040016687370699686,0.9945503368530779,-0.10425672931663031,-2.420286830234737e-05,3.976697427804859e-06,4.1754657059610475e-06,-6.748317054902797e-06,-2.3612142943002626e-05,-1.0564790539162792e-08,,0.0,0.0,0.0,0.0,2.356194490192345,-2.356194490192345,-0.7853981633974483,0.7853981633974483
2025/05/06 15:20:06.235687759,1746537606,226650300,world_ned,6.799155341209616,-15.817092049686703,0.43368913047482366,4.280844438720454e-05,-0.0004003384443438336,0.9945503367403495,-0.10425672921315231,-1.3461176639022787e-05,3.061571291618417e-06,1.4046295505968822e-06,-5.340649795025074e-06,-2.5408635006765417e-05,-1.2302662052815867e-08,,0.0,0.0,0.0,0.0,2.356194490192345,-2.356194490192345,-0.7853981633974483,0.7853981633974483
2025/05/06 15:20:06.333463384,1746537606,324261386,world_ned,6.799156461721209,-15.817092044704633,0.43368908652881843,4.3980420620619493e-05,-0.0004004203038420447,0.9945503366683098,-0.10425672909819622,-8.458895756337829e-06,1.5713675255715388e-06,-1.5828678532694641e-06,-2.9251939574628476e-06,-2.0254704700170243e-05,-1.0028968072859696e-08,,0.0,0.0,0.0,0.0,2.356194490192345,-2.356194490192345,-0.7853981633974483,0.7853981633974483
2025/05/06 15:20:06.462432794,1746537606,423195901,world_ned,6.799156988509363,-15.817091984597464,0.43368895766604226,4.475681212087714e-05,-0.00040039736180220124,0.994550336643638,-0.10425672909125186,-3.035694719542766e-06,-2.955146644298973e-07,-4.470625354676451e-06,1.6706144969496086e-07,-1.1392365727720095e-05,-2.8015873184183203e-09,,0.0,0.0,0.0,0.0,2.356194490192345,-2.356194490192345,-0.7853981633974483,0.7853981633974483
2025/05/06 15:20:06.523867706,1746537606,521516089,world_ned,6.799156937773974,-15.817091860521185,0.4336883660091218,4.502136923639326e-05,-0.0004002760343139741,0.9945503366575928,-0.10425672931010907,3.565179956897394e-06,-2.0594043138814017e-06,-6.572986937030679e-06,3.1010774642194966e-06,-2.953288715341444e-07,6.3766727085440806e-09,,0.0,0.0,0.0,0.0,2.356194490192345,-2.356194490192345,-0.7853981633974483,0.7853981633974483
2025/05/06 15:20:06.649463760,1746537606,624530916,world_ned,6.799156139751557,-15.817091735134968,0.43368786152046734,4.4699595050415e-05,-0.0004000854923338329,0.9945503366989341,-0.10425672978557358,1.0213255973497876e-05,-3.3241318829748823e-06,-7.13309646527306e-06,5.203751568232896e-06,1.0788578606274657e-05,1.6090262215492624e-08,,0.0,0.0,0.0,0.0,2.356194490192345,-2.356194490192345,-0.7853981633974483,0.7853981633974483
2025/05/06 15:20:06.831185467,1746537606,723213901,world_ned,6.799154773325781,-15.81709166723313,0.4336871581469016,4.387133967711629e-05,-0.0003998957761708552,0.9945503367320365,-0.10425673054947786,1.5955670356269364e-05,-3.5498312048285426e-06,-6.284186186138138e-06,5.622263383667575e-06,2.0222422153498167e-05,2.6181653899638045e-08,,0.0,0.0,0.0,0.0,2.356194490192345,-2.356194490192345,-0.7853981633974483,0.7853981633974483
2025/05/06 15:20:06.880573007,1746537606,820771605,world_ned,6.799153096691266,-15.817091683765272,0.4336868550580138,4.2639291526241464e-05,-0.0003997596733513216,0.9945503367315287,-0.10425673158744929,1.7304495880948197e-05,-2.978621013440898e-06,-3.6997223931676496e-06,4.761467902855192e-06,2.616638901517539e-05,3.2824535964210134e-08,,0.0,0.0,0.0,0.0,2.356194490192345,-2.356194490192345,-0.7853981633974483,0.7853981633974483
2025/05/06 15:20:06.957050228,1746537606,919454180,world_ned,6.799151228884555,-15.817091835400175,0.43368663753587944,4.129306988652313e-05,-0.00039970834004183456,0.9945503366896882,-0.1042567327252936,1.9334913508328394e-05,-1.9035839939578896e-06,-4.925328075994115e-07,3.057696300497373e-06,2.667270434991961e-05,3.328097068512688e-08,,0.0,0.0,0.0,0.0,2.356194490192345,-2.356194490192345,-0.7853981633974483,0.7853981633974483
2025/05/06 15:20:07.101686328,1746537607,21434411,world_ned,6.799149376807089,-15.817092104357517,0.4336869484028607,4.004351661364604e-05,-0.00039974196248656837,0.9945503366148636,-0.10425673379759066,1.711006127419149e-05,-5.758112067306531e-07,2.4482786901900318e-06,8.93880983378196e-07,2.2530546986620904e-05,2.9379645099616916e-08,,0.0,0.0,0.0,0.0,2.356194490192345,-2.356194490192345,-0.7853981633974483,0.7853981633974483
2025/05/06 15:20:07.171609171,1746537607,118748384,world_ned,6.799149051157717,-15.817092187116957,0.43368732873990745,3.8972531265108815e-05,-0.0003998682744823288,0.9945503365165145,-0.10425673465725233,5.693123710903479e-06,6.654130813823709e-07,5.13176555166741e-06,-1.1687210710857365e-06,1.663721062435051e-05,2.2912568470748198e-08,,0.0,0.0,0.0,0.0,2.356194490192345,-2.356194490192345,-0.7853981633974483,0.7853981633974483
2025/05/06 15:20:07.235973381,1746537607,227232149,world_ned,6.799148445644316,-15.817092445740057,0.43368809573879175,3.8506865505594135e-05,-0.00040002650335808416,0.9945503363952157,-0.10425673538041084,4.914829743582426e-06,1.6856798790311833e-06,5.947059655384514e-06,-2.8731969372534743e-06,3.7102967316656213e-06,1.4339188622444349e-08,,0.0,0.0,0.0,0.0,2.356194490192345,-2.356194490192345,-0.7853981633974483,0.7853981633974483
2025/05/06 15:20:07.381442345,1746537607,325503555,world_ned,6.799148352829144,-15.817092717210901,0.4336886454234017,3.8685327512464434e-05,-0.0004002168162986553,0.9945503362607256,-0.10425673586691246,-1.0515038262885542e-06,2.9819778928605523e-06,5.196605594219221e-06,-5.0261741731056424e-06,-8.395641907808246e-06,4.116110180607281e-09,,0.0,0.0,0.0,0.0,2.356194490192345,-2.356194490192345,-0.7853981633974483,0.7853981633974483
2025/05/06 15:20:07.514075628,1746537607,418153921,world_ned,6.79914883415778,-15.817092918043087,0.43368923013398036,3.9423410366903915e-05,-0.0004003903909351735,0.9945503361432767,-0.10425673604436672,-7.2945204205104874e-06,2.8484700167019565e-06,2.5861563886415344e-06,-4.819738678234182e-06,-1.8976096298666858e-05,-7.069046335720288e-09,,0.0,0.0,0.0,0.0,2.356194490192345,-2.356194490192345,-0.7853981633974483,0.7853981633974483
2025/05/06 15:20:07.602966286,1746537607,526121233,world_ned,6.799149634866651,-15.817091931096858,0.43368928215697694,4.0559560613255345e-05,-0.0004001177644953817,0.9945503364604604,-0.10425673362944789,-1.0665958661283187e-05,-3.964120550535426e-05,-9.142446709957289e-07,2.5349433849074373e-05,-2.5609325187900684e-05,-2.005572188584391e-07,,0.0,0.0,0.0,0.0,2.356194490192345,-2.356194490192345,-0.7853981633974483,0.7853981633974483
2025/05/06 15:20:07.643758949,1746537607,616102223,world_ned,6.799148700347583,-15.817082535165598,0.4336891834778033,4.157519574791212e-05,-0.00039688995195653995,0.9945503400149743,-0.10425671165909724,-1.0193650570845776e-05,-0.00013578219566079798,-4.727219120515574e-06,8.905690762168324e-05,-2.7488382303783684e-05,-6.567662457722144e-07,,-9.0,6.0,6.0,-8.0,2.356194490192345,-2.356194490192345,-0.7853981633974483,0.7853981633974483
2025/05/06 15:20:07.779457520,1746537607,726713347,world_ned,6.799145819708865,-15.817064685972735,0.4336885529558583,4.228830319816996e-05,-0.0003911339832794567,0.9945503468516037,-0.10425666790791667,-6.748293830140542e-06,-0.00021409342407299257,-7.280806834052533e-06,0.00012802274635221383,-2.4097194979262868e-05,-1.0866619435289422e-06,,-9.0,6.0,6.0,-8.0,2.356194490192345,-2.356194490192345,-0.7853981633974483,0.7853981633974483
2025/05/06 15:20:07.842395677,1746537607,823718328,world_ned,6.7991410356229425,-15.817040425438758,0.43368795096217816,4.2590982510074164e-05,-0.0003843331567059236,0.9945503562739151,-0.10425660319356922,-1.1039462593504691e-06,-0.0002709283678611416,-8.555811070805658e-06,0.00013475883855786105,-1.6721885020500053e-05,-1.4997913700057995e-06,,-9.0,6.0,6.0,-8.0,2.356194490192345,-2.356194490192345,-0.7853981633974483,0.7853981633974483
2025/05/06 15:20:07.933331295,1746537607,924437378,world_ned,6.799135848626943,-15.817011647686268,0.4336871274516385,4.234220376896504e-05,-0.0003781580124248779,0.9945503675786295,-0.10425651803541497,1.8161517298786444e-06,-0.00030681684563927666,-7.723210980416931e-06,0.00010930949619530695,-4.972948582757718e-06,-1.9003504816584784e-06,,-9.0,6.0,6.0,-8.0,2.356194490192345,-2.356194490192345,-0.7853981633974483,0.7853981633974483
2025/05/06 15:20:08.121056717,1746537608,25414558,world_ned,6.799128380635863,-15.816980684200159,0.43368671322635255,4.190115363423301e-05,-0.00037406824118621664,0.9945503801661366,-0.10425641288974591,1.3046077952250944e-05,-0.0003257207873667777,-4.906623333904536e-06,5.682546103440646e-05,4.540215824680821e-06,-2.2946106138073265e-06,,-9.0,6.0,6.0,-8.0,2.356194490192345,-2.356194490192345,-0.7853981633974483,0.7853981633974483
2025/05/06 15:20:08.230950570,1746537608,128415799,world_ned,6.79911983987223,-15.816948628508099,0.43368642368886456,4.1301712332740885e-05,-0.00037309826302493943,0.9945503936406177,-0.10425628806526405,2.05437311026674e-05,-0.0003352190824562736,-1.3068889924734618e-06,-1.0035107172533094e-05,1.4283566320532572e-05,-2.6799011140390194e-06,,-9.0,6.0,6.0,-8.0,2.356194490192345,-2.356194490192345,-0.7853981633974483,0.7853981633974483
2025/05/06 15:20:08.292543398,1746537608,215434758,world_ned,6.799110457116035,-15.816915828053599,0.43368671743879406,4.0624316908010036e-05,-0.00037550701848446577,0.9945504078619599,-0.10425614401920547,2.5502497180811072e-05,-0.00034523632534860484,2.2835257226117015e-06,-7.500373667951147e-05,2.1187670158347363e-05,-3.056389624532098e-06,,-9.0,6.0,6.0,-8.0,2.356194490192345,-2.356194490192345,-0.7853981633974483,0.7853981633974483
2025/05/06 15:20:08.370535954,1746537608,324322998,world_ned,6.799099596864566,-15.816877787401577,0.43368712520554853,3.985955107729506e-05,-0.00037940301063991473,0.9945504227901437,-0.10425598780174658,3.0427176813310597e-05,-0.0005638715622168524,5.095846402540783e-06,1.5215620080407635e-05,2.4922034364989027e-05,-2.776224752737099e-06,,-9.0,6.0,6.0,-8.0,2.356194490192345,-2.356194490192345,-0.7853981633974483,0.7853981633974483
2025/05/06 15:20:08.434211680,1746537608,421553111,world_ned,6.799077141437589,-15.816787295716626,0.4336879745975447,3.731502134446334e-05,-0.0003677336235106628,0.9945504366518093,-0.1042558983236286,3.608283557057925e-05,-0.0012267895941455043,6.211602520421285e-06,0.00041043976471044516,2.5320208828639048e-05,-1.0020487823134384e-06,,-9.0,6.0,6.0,-8.0,2.356194490192345,-2.356194490192345,-0.7853981633974483,0.7853981633974483
2025/05/06 15:20:08.638966128,1746537608,522747162,world_ned,6.799041072058422,-15.816635789477573,0.43368863490377524,3.314362737879471e-05,-0.00033899836081596345,0.9945504471284276,-0.10425589718695108,4.065773830383247e-05,-0.0018093580115778253,4.793915984214466e-06,0.0006947582741960659,2.0861098515320764e-05,7.525621295729701e-07,,-63.0,45.0,47.0,-61.99999999999999,2.356194490192345,-2.356194490192345,-0.7853981633974483,0.7853981633974483
2025/05/06 15:20:08.747358114,1746537608,624542462,world_ned,6.798995043743537,-15.816433763243534,0.4336892542706518,2.8157927936267988e-05,-0.0003009034711511294,0.9945504505600801,-0.10425598282580263,3.134154048460623e-05,-0.0022659384806796904,1.1826836267787829e-06,0.0007975797997690122,1.574774098233909e-05,2.4785646051851226e-06,,-63.0,45.0,47.0,-61.99999999999999,2.356194490192345,-2.356194490192345,-0.7853981633974483,0.7853981633974483
2025/05/06 15:20:08.801967323,1746537608,719421420,world_ned,6.798940502840083,-15.816194417166741,0.43368923839063045,2.3789981431336623e-05,-0.0002631253781577886,0.9945504435330991,-0.1042561531382598,3.9999701206049586e-05,-0.0025889905237098175,-3.473428708917403e-06,0.0007001229520007421,2.427111229844605e-06,4.159000473062672e-06,,-63.0,45.0,47.0,-61.99999999999999,2.356194490192345,-2.356194490192345,-0.7853981633974483,0.7853981633974483
2025/05/06 15:20:08.847712134,1746537608,822857879,world_ned,6.798880273737769,-15.815929915727981,0.4336889737723546,2.105887480590742e-05,-0.00023508292358315086,0.9945504241929113,-0.10425640522405996,4.0349816298738215e-05,-0.0027988918027343226,-7.810387176203351e-06,0.00042935517965020386,-9.557204159916417e-06,5.778714976092385e-06,,-63.0,45.0,47.0,-61.99999999999999,2.356194490192345,-2.356194490192345,-0.7853981633974483,0.7853981633974483
2025/05/06 15:20:08.932409099,1746537608,923312656,world_ned,6.798816634285494,-15.815649011585132,0.433688128511716,2.0630393572190287e-05,-0.000223679146939196,0.9945503922015957,-0.10425673557942651,4.0468399219027e-05,-0.00293968256362444,-1.0626385070008731e-05,5.296957324810698e-05,-1.9238982923677968e-05,7.323712911701905e-06,,-63.0,45.0,47.0,-61.99999999999999,2.356194490192345,-2.356194490192345,-0.7853981633974483,0.7853981633974483
2025/05/06 15:20:09.21092565,1746537609,18318175,world_ned,6.7987503489858145,-15.815355521850055,0.433687348984475,2.2611558071067684e-05,-0.0002317757312854849,0.9945503478760596,-0.10425714032303506,4.1067680230297096e-05,-0.003067319317765462,-1.117984847863945e-05,-0.00033866883093081914,-2.5379830909250715e-05,8.791779480029367e-06,,-63.0,45.0,47.0,-61.99999999999999,2.356194490192345,-2.356194490192345,-0.7853981633974483,0.7853981633974483
2025/05/06 15:20:09.128214754,1746537609,122192201,world_ned,6.798681388701272,-15.815047657731482,0.43368642248210015,2.657302150120466e-05,-0.0002576186642109612,0.9945502916025468,-0.1042576155481575,3.880912862692935e-05,-0.0032364745288018222,-9.777806687149874e-06,-0.0006543434170084019,-2.5103782950326446e-05,1.0184307327966572e-05,,-63.0,45.0,47.0,-61.99999999999999,2.356194490192345,-2.356194490192345,-0.7853981633974483,0.7853981633974483
2025/05/06 15:20:09.223018096,1746537609,218401923,world_ned,6.798606980592711,-15.814719293998204,0.4336859908498331,3.179662926445321e-05,-0.0002953560055568072,0.9945502241029812,-0.1042581579086944,5.177043231386568e-05,-0.0034878118065919442,-6.615012896348045e-06,-0.000822506402854762,-2.4448225347015367e-05,1.1517394144065623e-05,,-63.0,45.0,47.0,-61.99999999999999,2.356194490192345,-2.356194490192345,-0.7853981633974483,0.7853981633974483
2025/05/06 15:20:09.327489186,1746537609,322858107,world_ned,6.7985252445048765,-15.814361191067697,0.43368578469669006,3.718473092046477e-05,-0.0003365330259215739,0.9945501472040039,-0.10425876490402394,6.176049551527301e-05,-0.003839512284137191,-2.1906804295939934e-06,-0.00080788858229021,-1.7850352058717916e-05,1.2805148947903944e-05,,-63.0,45.0,47.0,-61.99999999999999,2.356194490192345,-2.356194490192345,-0.7853981633974483,0.7853981633974483
2025/05/06 15:20:09.420832959,1746537609,416086873,world_ned,6.7984343719840625,-15.813965280541947,0.43368631416894393,4.1601961785964697e-05,-0.0003726543705299182,0.9945500641429453,-0.10425943272078693,7.294186291174483e-05,-0.004221972103334807,2.569758903431885e-06,-0.0006609025027981908,-8.014703468823994e-06,1.3875230035834214e-05,,-63.0,45.0,47.0,-61.99999999999999,2.356194490192345,-2.356194490192345,-0.7853981633974483,0.7853981633974483
2025/05/06 15:20:09.527818741,1746537609,523465471,world_ned,6.7983349927591235,-15.813534903783628,0.43368709210099987,4.4542491696007594e-05,-0.0003998796960046225,0.9945499790340979,-0.10426014250647579,8.564523570391862e-05,-0.0045846376051685385,5.78447862100918e-06,-0.0004364598898013925,3.7163645540023764e-06,1.464145443794342e-05,,-51.0,36.0,38.0,-49.0,2.356194490192345,-2.356194490192345,-0.7853981633974483,0.7853981633974483
2025/05/06 15:20:09.629781803,1746537609,626824805,world_ned,6.798226310903907,-15.81306681878693,0.4336883124289963,4.5456047175191345e-05,-0.0004133288658166866,0.9945498950370214,-0.10426089091719075,9.72665447958028e-05,-0.004987128817009837,6.248920515903072e-06,-0.00012472446599140653,1.4380160484074758e-05,1.541565794275402e-05,,-51.0,36.0,38.0,-49.0,2.356194490192345,-2.356194490192345,-0.7853981633974483,0.7853981633974483
2025/05/06 15:20:09.730165519,1746537609,726863191,world_ned,6.798108262110588,-15.812559448961505,0.43368925591239804,4.421347219649868e-05,-0.00041061254118326235,0.9945498136506364,-0.10426167853048576,0.00010716583137687565,-0.005384787363895325,4.081207010847187e-06,0.00020121970881922,2.258494412103541e-05,1.619562635897891e-05,,-51.0,36.0,38.0,-49.0,2.356194490192345,-2.356194490192345,-0.7853981633974483,0.7853981633974483
2025/05/06 15:20:09.825457650,1746537609,822373454,world_ned,6.7979823911698904,-15.812015497484792,0.4336900749980484,4.09888257623793e-05,-0.00039311541159971317,0.9945497341481766,-0.10426250565750189,0.00011102257303042568,-0.005732927575503048,-3.945457847278938e-07,0.00046521743848420216,2.7316183260002656e-05,1.698426065169873e-05,,-51.0,36.0,38.0,-49.0,2.356194490192345,-2.356194490192345,-0.7853981633974483,0.7853981633974483
2025/05/06 15:20:09.927837432,1746537609,922366992,world_ned,6.7978490519425385,-15.811442039156681,0.43369016491802015,3.6777838055843245e-05,-0.00036561703767883227,0.994549653957055,-0.10426337221418985,0.00011780113917801231,-0.005997346738282985,-5.952665824891808e-06,0.0006077450044631672,2.5365040470010767e-05,1.776482128928531e-05,,-51.0,36.0,38.0,-49.0,2.356194490192345,-2.356194490192345,-0.7853981633974483,0.7853981633974483
2025/05/06 15:20:10.18119363,1746537610,15958441,world_ned,6.797710944356711,-15.810848033533947,0.4336898736336991,3.2445670802333045e-05,-0.0003350757563914614,0.9945495699750012,-0.10426427736313243,0.0001191493117822527,-0.006163882007837323,-1.1788294142470734e-05,0.0005998444670990276,1.923975567556578e-05,1.853192399525618e-05,,-51.0,36.0,38.0,-49.0,2.356194490192345,-2.356194490192345,-0.7853981633974483,0.7853981633974483
2025/05/06 15:20:10.120367976,1746537610,118586687,world_ned,6.797570989818004,-15.810242659744079,0.4336888017645211,2.8917710105741757e-05,-0.00030894449383634174,0.9945494797539479,-0.10426521969581916,0.00011628972446534414,-0.006239466130062477,-1.6355216723468688e-05,0.0004475095843388756,1.059649555611614e-05,1.9265982648709885e-05,,-51.0,36.0,38.0,-49.0,2.356194490192345,-2.356194490192345,-0.7853981633974483,0.7853981633974483
2025/05/06 15:20:10.221017366,1746537610,220026859,world_ned,6.797430002869532,-15.80963375842006,0.43368761028168334,2.7082678393499334e-05,-0.00029345475564312946,0.9945493820010867,-0.10426619736085002,0.00011540705073036022,-0.006249540618280705,-1.805459747077305e-05,0.00018899886980441232,-1.3187672209572087e-06,1.996279006045355e-05,,-51.0,36.0,38.0,-49.0,2.356194490192345,-2.356194490192345,-0.7853981633974483,0.7853981633974483
2025/05/06 15:20:10.324723010,1746537610,318441158,world_ned,6.7972894028907795,-15.809025547094205,0.4336862236853662,2.7335144625254757e-05,-0.00029221995226880675,0.9945492763945756,-0.10426720809207182,0.00011346590230331102,-0.006234371644649881,-1.6194327671561804e-05,-0.00011190807767043057,-1.2270241671181212e-05,2.060947030280116e-05,,-51.0,36.0,38.0,-49.0,2.356194490192345,-2.356194490192345,-0.7853981633974483,0.7853981633974483
2025/05/06 15:20:10.426347558,1746537610,421374308,world_ned,6.797150672282739,-15.808420382869684,0.43368540436756264,2.954036297713273e-05,-0.00030629288240368994,0.9945491634368026,-0.10426824453875476,9.006104832040804e-05,-0.006114031996071776,-1.162497238259255e-05,-0.0004701160578938679,-1.624681956810811e-05,2.0717227048845337e-05,,-51.0,36.0,38.0,-49.0,2.356194490192345,-2.356194490192345,-0.7853981633974483,0.7853981633974483
2025/05/06 15:20:10.524220366,1746537610,518557916,world_ned,6.797018860545567,-15.807842655715989,0.4336849623124832,3.442521650496173e-05,-0.0003421942134819792,0.9945490467556062,-0.10426924434146354,9.557240421807847e-05,-0.005788925987066704,-4.804002129832394e-06,-0.0009042274191702313,-2.7123697921309793e-05,1.963216756675691e-05,,-51.0,36.0,38.0,-49.0,2.356194490192345,-2.356194490192345,-0.7853981633974483,0.7853981633974483
2025/05/06 15:20:10.628347534,1746537610,623726151,world_ned,6.796891689967127,-15.807289517428966,0.43368550682802076,4.136146755251742e-05,-0.0003938679330616863,0.994548928280864,-0.10427018947266264,9.641809719175001e-05,-0.005606441213339767,2.4572133158849733e-06,-0.001115535067086296,-3.17408413367774e-05,1.854760696332751e-05,,-18.0,13.000000000000002,13.000000000000002,-17.0,2.356194490192345,-2.356194490192345,-0.7853981633974483,0.7853981633974483
2025/05/06 15:20:10.726105198,1746537610,718278087,world_ned,6.796766532483028,-15.806745401187126,0.43368650147586035,4.868177042495017e-05,-0.0004488118323707826,0.99454881123367,-0.10427108070657985,9.619624893632644e-05,-0.005587924669179961,7.2426302751497975e-06,-0.0010606408815988953,-2.9250280689873748e-05,1.7484216099724487e-05,,-18.0,13.000000000000002,13.000000000000002,-17.0,2.356194490192345,-2.356194490192345,-0.7853981633974483,0.7853981633974483
2025/05/06 15:20:10.842331043,1746537610,831591123,world_ned,6.796639863186863,-15.806194905013227,0.4336880455953281,5.469471820690602e-05,-0.0004940782788277472,0.9945487014115799,-0.10427192055238056,9.81983504785266e-05,-0.005716938848352771,8.107644239531011e-06,-0.0007581585335975177,-2.1427759846329388e-05,1.6476371492917672e-05,,-18.0,13.000000000000002,13.000000000000002,-17.0,2.356194490192345,-2.356194490192345,-0.7853981633974483,0.7853981633974483
2025/05/06 15:20:10.929601780,1746537610,924413850,world_ned,6.796509030252475,-15.805626101940533,0.4336892513573076,5.810254381498515e-05,-0.0005192660327598124,0.9945486053220591,-0.10427271281993492,0.00010250973926244811,-0.0059427117982063064,4.143732622256882e-06,-0.00028532888449385566,-9.546263991812005e-06,1.5537257195294146e-05,,-18.0,13.000000000000002,13.000000000000002,-17.0,2.356194490192345,-2.356194490192345,-0.7853981633974483,0.7853981633974483
2025/05/06 15:20:11.22943838,1746537611,20055188,world_ned,6.796372546905825,-15.805033288796468,0.43369016344611305,5.817151907822757e-05,-0.0005189311994855943,0.9945485269709828,-0.10427346175481396,0.00010763564232690074,-0.006194556358950223,-2.223285618752302e-06,0.00024421614561343473,3.868906462094096e-06,1.4680447681622e-05,,-18.0,13.000000000000002,13.000000000000002,-17.0,2.356194490192345,-2.356194490192345,-0.7853981633974483,0.7853981633974483
2025/05/06 15:20:11.123297954,1746537611,119903286,world_ned,6.796218030196949,-15.804421855072885,0.43369015287566315,5.380957797849491e-05,-0.0004942063640844625,0.9945484631100051,-0.1042741933084395,0.0007739099210598559,-0.006339043269506799,-9.70812111874755e-06,0.0006649703467384248,0.00013834888137895544,1.6180570895761272e-05,,-18.0,13.000000000000002,13.000000000000002,-17.0,2.356194490192345,-2.356194490192345,-0.7853981633974483,0.7853981633974483
2025/05/06 15:20:11.223174326,1746537611,222158892,world_ned,6.795943108957768,-15.803838386580056,0.43368990111002503,2.566008533167794e-05,-0.00045906616906556705,0.9945483785791724,-0.1042751708958156,0.002267376680739415,-0.00620491603834582,-1.279592002186987e-05,0.0008016355145614637,0.0006909980578639344,2.291213581849948e-05,,-231.0,-232.00000000000003,177.0,170.0,2.356194490192345,-2.356194490192345,-0.7853981633974483,0.7853981633974483
2025/05/06 15:20:11.325870695,1746537611,323784584,world_ned,6.795432198703982,-15.803324540072902,0.4336885483766631,-1.1542500484018553e-05,-0.0004231816941646896,0.9945482553826258,-0.10427650022608073,0.005318648154930197,-0.006065807246221111,-2.2432589610384907e-05,0.0008179976134444859,0.0006073404609822699,3.0090147016408845e-05,,-233.0,-230.0,179.0,169.0,2.356194490192345,-2.356194490192345,-0.7853981633974483,0.7853981633974483
2025/05/06 15:20:11.429345930,1746537611,420445033,world_ned,6.794804918673818,-15.802822773451025,0.4336864164362484,-6.65066383950121e-05,-0.0003822681760030992,0.9945480981037622,-0.1042781377187859,0.010970801499373387,-0.006309528360416307,-2.0586535553169855e-05,0.0009896510237495239,-0.00039738906790739385,3.606609394318558e-05,,-273.00000000000006,-190.00000000000003,209.00000000000003,139.0,2.356194490192345,-2.356194490192345,-0.7853981633974483,0.7853981633974483
2025/05/06 15:20:11.520864443,1746537611,519831371,world_ned,6.794039014626425,-15.802332989147342,0.43368347216662456,-0.000124446645838196,-0.00033949602188192976,0.9945479066525084,-0.10428005863345743,0.009074830936583324,-0.006421826969454591,-3.543032560722177e-05,0.0009327193607136913,0.000471055985598119,4.14643070391739e-05,,-274.00000000000006,-190.00000000000003,210.0,139.0,2.356194490192345,-2.356194490192345,-0.7853981633974483,0.7853981633974483
2025/05/06 15:20:11.626609543,1746537611,622818622,world_ned,6.79308380781438,-15.801878939553912,0.43368108938197775,-0.00016556798517938803,-0.00030340463171442243,0.9945476830595865,-0.10428224515074583,0.009406568490410274,-0.006404109937906288,-1.6336304916944403e-05,0.0006646109300835122,0.0004851053013394314,4.650548098052214e-05,,-275.0,-191.0,211.0,139.0,2.356194490192345,-2.356194490192345,-0.7853981633974483,0.7853981633974483
2025/05/06 15:20:11.726158179,1746537611,723578527,world_ned,6.791991959232245,-15.801460802858685,0.433680457194141,-0.000185267853983531,-0.00028294650059732744,0.994547432676922,-0.10428465741825836,0.011619136119330105,-0.006305592584162428,2.2602444917791578e-06,0.0002506865355581377,-0.0002056870306027834,5.0342326893843165e-05,,-276.0,-192.0,212.00000000000003,139.99999999999997,2.356194490192345,-2.356194490192345,-0.7853981633974483,0.7853981633974483
2025/05/06 15:20:11.825269402,1746537611,824382564,world_ned,6.790845293802706,-15.801065717717716,0.4336827099544506,-0.00018915360343265864,-0.0002831943213163774,0.9945471605722562,-0.10428724475962381,0.011191668558132563,-0.006191940150113819,2.6805045927796016e-05,-0.00020585339451595762,-0.0002208840972937263,5.296563313970919e-05,,-277.0,-193.0,213.00000000000003,141.0,2.356194490192345,-2.356194490192345,-0.7853981633974483,0.7853981633974483
2025/05/06 15:20:11.917028659,1746537611,916195625,world_ned,6.789677218228613,-15.800684754576313,0.4336859211982518,-0.00017982682039320436,-0.0003039820205826129,0.994546875808056,-0.10428991838946458,0.006296471678584697,-0.006127569870414345,3.745979287866133e-05,-0.0006005508561213239,0.0010231185053037656,5.418575428403351e-05,,-278.99999999999994,-194.99999999999997,214.0,142.0,2.356194490192345,-2.356194490192345,-0.7853981633974483,0.7853981633974483
2025/05/06 15:20:12.27358327,1746537612,19675039,world_ned,6.788345117317936,-15.800339974124151,0.43368945053436386,-0.00014097857143411202,-0.00033755526805047934,0.9945465890009935,-0.10429260993940301,0.013016515244960612,-0.006164071744261652,3.623521797461552e-05,-0.0008365055998042324,-0.0008942684267382937,5.327288614617052e-05,,-278.99999999999994,-194.99999999999997,214.0,142.0,2.356194490192345,-2.356194490192345,-0.7853981633974483,0.7853981633974483
2025/05/06 15:20:12.121895105,1746537612,119293448,world_ned,6.786823593132338,-15.800024869002666,0.43369253690230725,-7.78570749782061e-05,-0.00037502186141027304,0.9945463081609308,-0.10429522625864532,0.014125426744594166,-0.006318418283259962,2.084371666891137e-05,-0.0008785887236310068,-0.0010713607702028693,5.0947162064392795e-05,,-282.0,-198.0,216.0,145.0,2.356194490192345,-2.356194490192345,-0.7853981633974483,0.7853981633974483
2025/05/06 15:20:12.221126570,1746537612,220305929,world_ned,6.785273565374986,-15.799693753358433,0.4336941214944568,-2.3774324669666226e-05,-0.00041013456976743477,0.9945460375338622,-0.10429770107777993,0.009849230748624274,-0.00658399399823844,8.294287748680029e-06,-0.0007248803993048583,0.0004701048400186043,4.797274422788668e-05,,-283.0,-201.0,216.99999999999997,147.0,2.356194490192345,-2.356194490192345,-0.7853981633974483,0.7853981633974483
2025/05/06 15:20:12.328370127,1746537612,325034362,world_ned,6.783519781431927,-15.799373567065617,0.43369553080222556,3.350759921837606e-05,-0.00043214368713225833,0.9945457866539648,-0.10430000181170145,0.0187308978440903,-0.006884425875008616,7.288962637016136e-06,-0.00043749271395608435,-0.0014552289369309697,4.400564744637313e-05,,-285.0,-203.0,219.00000000000003,149.0,2.356194490192345,-2.356194490192345,-0.7853981633974483,0.7853981633974483
2025/05/06 15:20:12.417956607,1746537612,415175933,world_ned,6.781676505841794,-15.799055785740844,0.4336962193918186,7.006065983015104e-05,-0.0004451003987181465,0.9945455602838389,-0.10430208769168516,0.019353038285466553,-0.006981258088687054,5.250579349828525e-07,-0.00023235612493367148,-0.0009210595099093218,3.965193011593745e-05,,-269.0,-224.99999999999997,206.0,166.00000000000003,2.356194490192345,-2.356194490192345,-0.7853981633974483,0.7853981633974483
2025/05/06 15:20:12.524012526,1746537612,518429804,world_ned,6.779737746727363,-15.798746853109847,0.43369579535147,8.06349799319478e-05,-0.0004489791995679281,0.994545362859681,-0.1043039458984373,0.019164620418694017,-0.007099396074927761,-1.4368122888931235e-05,1.5731794448521934e-05,-7.754372419512538e-05,3.50454105773216e-05,,-270.0,-228.99999999999997,206.99999999999997,168.0,2.356194490192345,-2.356194490192345,-0.7853981633974483,0.7853981633974483
2025/05/06 15:20:12.621492608,1746537612,619296508,world_ned,6.777619816525837,-15.798463525812059,0.43369515221108557,7.525648086003195e-05,-0.00044184988848436536,0.9945452061057932,-0.10430547501029676,0.017674644156892613,-0.007217994725208822,-2.132183178079636e-05,0.0002611999096435606,0.0011376416327050836,2.6930147293663148e-05,,-273.00000000000006,-232.00000000000003,209.00000000000003,170.99999999999997,2.356194490192345,-2.356194490192345,-0.7853981633974483,0.7853981633974483
2025/05/06 15:20:12.725854784,1746537612,722555681,world_ned,6.775409115703338,-15.798188996513677,0.43369441250942253,4.3836273728352564e-05,-0.0004263220331835058,0.9945451053534592,-0.1043065182305592,0.018094404696183685,-0.007307080525454056,-2.111036594713069e-05,0.00045006103035414506,0.001732705618389226,1.5829688797001973e-05,,-276.0,-235.00000000000003,211.0,173.0,2.356194490192345,-2.356194490192345,-0.7853981633974483,0.7853981633974483
2025/05/06 15:20:12.823737654,1746537612,822829466,world_ned,6.773060262026486,-15.79793880015,0.4336912329807534,7.842203118093283e-07,-0.0004060531571631703,0.9945450716532966,-0.10430692963728463,0.022689917960366908,-0.007326696280980801,-4.373666991614047e-05,0.0005190066919129251,0.000986581002503581,2.890420744185962e-06,,-278.99999999999994,-237.99999999999997,213.00000000000003,176.0,2.356194490192345,-2.356194490192345,-0.7853981633974483,0.7853981633974483
2025/05/06 15:20:12.924909218,1746537612,923755853,world_ned,6.770581033453044,-15.797717082518549,0.4336870522064645,-4.630507597509205e-05,-0.00038531534879731845,0.9945451012847373,-0.10430671550026792,0.026080559141657272,-0.00729079846571736,-4.141471008119768e-05,0.0004864795653178167,0.0003943338633510835,-9.635866297061847e-06,,-278.99999999999994,-237.99999999999997,213.00000000000003,176.0,2.356194490192345,-2.356194490192345,-0.7853981633974483,0.7853981633974483
2025/05/06 15:20:13.17635845,1746537613,15676208,world_ned,6.768044948821007,-15.797514821407349,0.4336826721901937,-9.676465493270721e-05,-0.0003697405226069215,0.9945451942699997,-0.104305850665225,0.025253352908296833,-0.007190796404381619,-4.445742414864693e-05,0.00034209720821442875,0.0007774293014667029,-2.2849402724265016e-05,,-285.0,-244.99999999999997,217.99999999999997,181.0,2.356194490192345,-2.356194490192345,-0.7853981633974483,0.7853981633974483
2025/05/06 15:20:13.124187508,1746537613,118487593,world_ned,6.765415295886616,-15.797345214746304,0.4336789950585919,-0.0001349700148606881,-0.0003623735500866506,0.9945453475855145,-0.1043043722214628,0.022846963355560367,-0.00704822977302183,-2.2372686564493058e-05,0.00012166535123363547,0.0014278676631322763,-3.483445263600923e-05,,-288.0,-248.99999999999997,221.0,184.0,2.356194490192345,-2.356194490192345,-0.7853981633974483,0.7853981633974483
2025/05/06 15:20:13.224111033,1746537613,221738861,world_ned,6.762734406382256,-15.797201914166223,0.43367773595239073,-0.0001594551287362446,-0.00036567004471198386,0.994545559187888,-0.10430230850336711,0.02555092565103741,-0.006892769372447848,-4.803242327494094e-06,-0.00013127497772308575,0.000519855795166463,-4.6870610956760515e-05,,-292.0,-253.0,224.0,187.0,2.356194490192345,-2.356194490192345,-0.7853981633974483,0.7853981633974483
2025/05/06 15:20:13.326611544,1746537613,323538174,world_ned,6.759979251697102,-15.797089352881965,0.43367732222188105,-0.00016220650114542399,-0.00037897793146645346,0.9945458351206135,-0.10429962564180258,0.023634248816773975,-0.006762829168754634,2.052415687882928e-05,-0.00035103728089318117,0.000867975115356587,-5.9309386358050754e-05,,-296.0,-257.0,227.0,191.0,2.356194490192345,-2.356194490192345,-0.7853981633974483,0.7853981633974483
2025/05/06 15:20:13.417310685,1746537613,415638900,world_ned,6.7570949664421205,-15.797015823996874,0.4336811702526616,-0.00013695338232607788,-0.00039835333378553784,0.9945461672743631,-0.10429642236561741,0.026702905000758014,-0.006584182536262787,5.751577011093579e-05,-0.0005502921760126447,-0.00014042682450077885,-6.560226987533372e-05,,-300.0,-262.0,230.0,193.99999999999997,2.356194490192345,-2.356194490192345,-0.7853981633974483,0.7853981633974483
2025/05/06 15:20:13.519861052,1746537613,516842579,world_ned,6.754154132737907,-15.796995727546392,0.43368806781982977,-9.718432047394119e-05,-0.00043200071173134165,0.9945464614664071,-0.10429352767665542,0.03349372958122542,-0.006089948200307652,8.870884553254795e-05,-0.0008763415789484878,-0.002039017908353307,-5.301417499962778e-05,,-278.0,-291.0,213.00000000000003,216.99999999999997,2.356194490192345,-2.356194490192345,-0.7853981633974483,0.7853981633974483
2025/05/06 15:20:13.624248585,1746537613,617651977,world_ned,6.751152760625772,-15.797031291567489,0.4336951934704718,-5.124672447282769e-05,-0.0004759515925387376,0.994546688535355,-0.10429120369050507,0.0303007940179858,-0.0057356964916904256,7.1702338769657e-05,-0.0009999112024763233,-0.0009655120238657087,-4.20764952200469e-05,,-283.0,-296.0,216.0,221.0,2.356194490192345,-2.356194490192345,-0.7853981633974483,0.7853981633974483
2025/05/06 15:20:13.724895766,1746537613,718383092,world_ned,6.748021576986497,-15.797120921228629,0.43369830592496006,-8.273386251586367e-07,-0.0005183368231256447,0.9945468496387202,-0.10428947789662264,0.02999999568859116,-0.005544696714457283,9.956910570624848e-06,-0.0008725914357218956,-0.0004931156673129826,-3.0104620243575953e-05,,-287.0,-301.0,220.00000000000003,224.0,2.356194490192345,-2.356194490192345,-0.7853981633974483,0.7853981633974483
2025/05/06 15:20:13.820853950,1746537613,819166127,world_ned,6.744805201670271,-15.79724000553228,0.43369888330427153,3.5887562608719205e-05,-0.00054946882425712,0.9945469579000613,-0.10428827991595112,0.029647429034337376,-0.005492543410844261,-1.0489474140553668e-05,-0.0005251312522255774,0.00019253401722748204,-1.9874181896884182e-05,,-292.0,-305.00000000000006,223.0,228.0,2.356194490192345,-2.356194490192345,-0.7853981633974483,0.7853981633974483
2025/05/06 15:20:13.925220006,1746537613,922488058,world_ned,6.741359070750741,-15.797407525830943,0.43369798616422794,6.891536372731637e-05,-0.0005589573161204003,0.9945470229480509,-0.10428759256287624,0.03657157419153161,-0.005523504026396649,-1.8045167776116758e-05,-3.85438161538859e-05,-0.00100262576749486,-9.29320860916895e-06,,-297.0,-309.99999999999994,227.0,232.00000000000003,2.356194490192345,-2.356194490192345,-0.7853981633974483,0.7853981633974483
2025/05/06 15:20:14.18667384,1746537614,14958060,world_ned,6.73789476358944,-15.797575722774734,0.43369482357562184,6.270974111922954e-05,-0.0005479497281115242,0.9945470465265914,-0.10428743003745952,0.03915300007734864,-0.005555943020970082,-4.359844437445453e-05,0.0004535563517396342,-0.0009022183691769554,1.5934827292986774e-06,,-302.0,-316.0,231.0,236.0,2.356194490192345,-2.356194490192345,-0.7853981633974483,0.7853981633974483
2025/05/06 15:20:14.120543950,1746537614,116779036,world_ned,6.734252619770856,-15.797781439413514,0.43369065015367325,3.944772037462486e-05,-0.0005167584272129607,0.9945470283112423,-0.10428777436441208,0.03718353484158227,-0.005522416145777142,-5.312670971826954e-05,0.0008288992755641024,0.0004348533014469177,1.1767655792259129e-05,,-302.0,-316.0,231.0,236.0,2.356194490192345,-2.356194490192345,-0.7853981633974483,0.7853981633974483
2025/05/06 15:20:14.218796217,1746537614,217808006,world_ned,6.730466835189415,-15.798026860459398,0.43368560835981745,-1.0713608304853103e-06,-0.0004734322566674568,0.9945469616657269,-0.10428862307184743,0.037065587587548826,-0.005375678362536115,-5.895835417934931e-05,0.0010086217956133043,0.001139172095632574,2.1777271750297044e-05,,-308.0,-321.0,235.00000000000003,239.99999999999997,2.356194490192345,-2.356194490192345,-0.7853981633974483,0.7853981633974483
2025/05/06 15:20:14.319900583,1746537614,318605867,world_ned,6.72650127254328,-15.798333446855,0.43368003243695974,-4.425348092900599e-05,-0.00042802945285514847,0.9945468398042786,-0.10428997203825346,0.03777152984266145,-0.005067496723069603,-3.961265453757021e-05,0.0009304866501347298,0.0014341593423614532,3.3249430407466754e-05,,-313.0,-326.0,239.99999999999997,244.99999999999997,2.356194490192345,-2.356194490192345,-0.7853981633974483,0.7853981633974483
2025/05/06 15:20:14.421831622,1746537614,420519876,world_ned,6.722445987799759,-15.798700896518124,0.43367709434416346,-9.15696702797567e-05,-0.00039396155302412987,0.9945466355080239,-0.10429202370728069,0.040109655881170575,-0.004589503941121357,-1.3222343523198414e-05,0.0006084532689774651,0.0010718855299774667,4.84054772812722e-05,,-313.0,-335.0,239.99999999999997,251.0,2.356194490192345,-2.356194490192345,-0.7853981633974483,0.7853981633974483
2025/05/06 15:20:14.524515537,1746537614,521469809,world_ned,6.718355420089047,-15.79913027574697,0.43367553945169895,-0.00013848876345406584,-0.00038118093597776763,0.9945463422553172,-0.10429481592354417,0.04109191813344636,-0.004039795426997505,6.4752542115264535e-06,0.0001418238517513992,0.0008917288802498549,6.320324905222154e-05,,-318.00000000000006,-340.99999999999994,243.00000000000006,256.0,2.356194490192345,-2.356194490192345,-0.7853981633974483,0.7853981633974483
2025/05/06 15:20:14.623421866,1746537614,622044951,world_ned,6.714111046451932,-15.79964807834081,0.43367520554017147,-0.0001608145392875743,-0.0003900105165788377,0.9945459630548183,-0.10429836720603444,0.04135684956737678,-0.003503097190178354,1.529448042916305e-05,-0.00034139216614936715,0.0007943133793150328,7.839537727940728e-05,,-324.0,-347.0,247.99999999999997,260.0,2.356194490192345,-2.356194490192345,-0.7853981633974483,0.7853981633974483
2025/05/06 15:20:14.727706282,1746537614,724552216,world_ned,6.70976457143849,-15.800237652658051,0.43367649753440873,-0.00016309332009307136,-0.00041801186567279997,0.9945455012707975,-0.104302658492808,0.04194419059982011,-0.003056142617159623,3.110625953453068e-05,-0.0007080219026054833,0.0005840948555930755,9.244913481611661e-05,,-329.99999999999994,-353.0,253.0,265.0,2.356194490192345,-2.356194490192345,-0.7853981633974483,0.7853981633974483
2025/05/06 15:20:14.819739751,1746537614,816990376,world_ned,6.705378765586532,-15.800874564613698,0.4336786028234327,-0.0001546156948520046,-0.0004586747485375628,0.9945449649760907,-0.1043076140661292,0.04979222459180281,-0.0027408769687283768,4.803667451604059e-05,-0.0008849543983436649,-0.0016545058606668981,0.00010501839524187805,,-337.0,-359.0,258.0,270.0,2.356194490192345,-2.356194490192345,-0.7853981633974483,0.7853981633974483
2025/05/06 15:20:14.922719581,1746537614,919808561,world_ned,6.700913453945019,-15.80155290743618,0.4336811810110562,-0.00013389999665278446,-0.0005011967327769066,0.9945443645943041,-0.10431317139430571,0.03876815148329337,-0.0025623820729872653,4.266979568503312e-05,-0.0008532570880258991,0.0014883154473609944,0.00011643169139843407,,-337.0,-359.0,258.0,270.0,2.356194490192345,-2.356194490192345,-0.7853981633974483,0.7853981633974483
2025/05/06 15:20:15.23925657,1746537615,22714428,world_ned,6.696202024014113,-15.80229316970402,0.4336849328214673,-8.541136674311615e-05,-0.0005325394909348705,0.9945437137485673,-0.10431927218782173,0.050120689929030786,-0.0025310003675293328,5.839491907595164e-05,-0.0005884921575325926,-0.0014825480030000947,0.0001264647967193943,,-343.00000000000006,-365.00000000000006,263.0,275.0,2.356194490192345,-2.356194490192345,-0.7853981633974483,0.7853981633974483
2025/05/06 15:20:15.129522301,1746537615,124445793,world_ned,6.691420866714175,-15.803045461106658,0.43369089127705696,-4.5400161589748024e-05,-0.0005466420620611226,0.9945430218159077,-0.10432582076631124,0.05131035111543962,-0.002592875159044082,6.112756577045719e-05,-0.00017225405514382215,-0.0014145438743050991,0.00013496243748536044,,-349.99999999999994,-372.0,269.0,281.0,2.356194490192345,-2.356194490192345,-0.7853981633974483,0.7853981633974483
2025/05/06 15:20:15.219419815,1746537615,218380498,world_ned,6.686492948720503,-15.803821233829176,0.43369597054571696,-1.0870818711981859e-05,-0.0005393467487545332,0.9945423012131378,-0.1043327373578696,0.04943757936237114,-0.0026692694665617074,5.5436634293192544e-05,0.000266177782903746,-0.00034226585671672796,0.00014178858909573067,,-356.99999999999994,-379.0,274.00000000000006,286.0,2.356194490192345,-2.356194490192345,-0.7853981633974483,0.7853981633974483
2025/05/06 15:20:15.322395644,1746537615,320375333,world_ned,6.681457997418563,-15.804612811815078,0.43369941922860983,5.120193221017366e-06,-0.0005128779778791676,0.9945415554178084,-0.10433998024290425,0.05317540190789514,-0.0027475877652326118,1.533319437769737e-05,0.0006764079109325962,-0.0007025266376166632,0.0001473806443366961,,-364.00000000000006,-385.0,278.99999999999994,291.0,2.356194490192345,-2.356194490192345,-0.7853981633974483,0.7853981633974483
2025/05/06 15:20:15.424815916,1746537615,422427150,world_ned,6.676153823421635,-15.805452977099081,0.433699688577743,2.2607377798491786e-05,-0.00046792671137779133,0.9945408048005643,-0.10434734361805818,0.05211874973061189,-0.0028006383711978587,-1.4197355174599495e-05,0.0009639841142024609,0.00029022238383523326,0.00014793957082579885,,-373.0,-381.0,286.0,288.0,2.356194490192345,-2.356194490192345,-0.7853981633974483,0.7853981633974483
2025/05/06 15:20:15.524985395,1746537615,523183352,world_ned,6.670817705068265,-15.806300951742505,0.4336983848890074,7.342299027745561e-06,-0.000417527905960035,0.9945400570714643,-0.10435468603195173,0.05483494891742122,-0.002739892805519538,-1.1491250203379122e-05,0.001051369241233677,0.00029315638924088007,0.0001477366158935002,,-373.0,-381.0,286.0,288.0,2.356194490192345,-2.356194490192345,-0.7853981633974483,0.7853981633974483
2025/05/06 15:20:15.627417879,1746537615,624692380,world_ned,6.665308590919058,-15.807200861231193,0.4336952320897564,-1.9278943287746335e-05,-0.00037127008531534565,0.9945393026279865,-0.1043620492089176,0.05419707720766125,-0.002528311522151104,-3.218721411991586e-05,0.000883346169299695,0.001203363245828813,0.00014853656530648687,,-387.0,-394.0,297.0,298.0,2.356194490192345,-2.356194490192345,-0.7853981633974483,0.7853981633974483
2025/05/06 15:20:15.723901811,1746537615,718528469,world_ned,6.660639372770829,-15.806953343817723,0.43369266951180485,4.5818475950673554e-05,-4.101276049321793e-05,0.9945382518889784,-0.10437270595436171,0.04836232540465965,-0.011840284244091465,-5.1876388725768794e-05,0.005872729793064128,-0.0026463919533459427,0.00021315456249432668,,-395.0,-400.99999999999994,303.0,304.0,2.356194490192345,-2.356194490192345,-0.7853981633974483,0.7853981633974483
2025/05/06 15:20:15.821776288,1746537615,819473507,world_ned,6.656106341115955,-15.806665935719264,0.43370248844204506,0.00010607338268047674,0.0002449091582549766,0.9945361134829558,-0.1043927571537371,0.039673510691414095,-0.012566292723367924,0.00013562763837212698,0.005081020921223032,-0.0009528082248594583,0.00048516885921357877,,-400.99999999999994,-407.00000000000006,308.0,308.99999999999994,2.356194490192345,-2.356194490192345,-0.7853981633974483,0.7853981633974483
2025/05/06 15:20:15.922303619,1746537615,920194174,world_ned,6.651738351756532,-15.80630674324433,0.4337285547149669,0.00017573828903145504,0.00045838421324365325,0.9945326747790457,-0.10442469917028109,0.04380494137023992,-0.012890052464470227,0.00026949634976322666,0.0032638423177792676,-0.00258613335837388,0.0006872978125932532,,-402.99999999999994,-409.0,309.99999999999994,309.99999999999994,2.356194490192345,-2.356194490192345,-0.7853981633974483,0.7853981633974483
2025/05/06 15:20:16.26910164,1746537616,23816815,world_ned,6.647543762397818,-15.805900203676309,0.4337537362630239,0.000237392018642415,0.000550744104057708,0.9945289782281299,-0.10445933079659911,0.038130715248636184,-0.01233428894731342,0.000217299043221823,0.00028628149350161207,-0.000561889039533527,0.0007037890752771812,,-402.99999999999994,-409.0,309.99999999999994,309.99999999999994,2.356194490192345,-2.356194490192345,-0.7853981633974483,0.7853981633974483
2025/05/06 15:20:16.125594628,1746537616,124367574,world_ned,6.643643966818624,-15.805353767609263,0.4338581541064819,0.00033460402189420575,0.0005999345490787937,0.994520487656537,-0.10453959895699497,0.03697347712936646,-0.014420626336261922,0.0016417153366371623,0.001183757735185024,-0.003583804546045411,0.0024197078776031864,,-402.0,-408.0,308.99999999999994,308.99999999999994,2.356194490192345,-2.356194490192345,-0.7853981633974483,0.7853981633974483
2025/05/06 15:20:16.220973414,1746537616,216882917,world_ned,6.640225259818802,-15.804628211549822,0.4340128867982754,0.0004356498688269558,0.0005954437025440033,0.9945069216099364,-0.10466823073844739,0.025336641723635773,-0.014193630441241967,0.001302104337464383,-0.0015351602947402062,7.081686010857373e-05,0.002641360157444059,,-400.0,-406.0,307.0,308.0,2.356194490192345,-2.356194490192345,-0.7853981633974483,0.7853981633974483
2025/05/06 15:20:16.319513811,1746537616,317930747,world_ned,6.636936659068881,-15.803799063813887,0.43415204300277893,0.0005474215780841181,0.0005187317625704621,0.9944902108170489,-0.10482677060768357,0.0293038656873286,-0.016083371522131348,0.0016802821021504155,-0.0011477997089875912,-0.003076281144412042,0.004015061322181531,,-400.0,-406.0,307.0,308.0,2.356194490192345,-2.356194490192345,-0.7853981633974483,0.7853981633974483
2025/05/06 15:20:16.422186554,1746537616,420045038,world_ned,6.6341656564114055,-15.802762085309382,0.4342819289379155,0.0006279770157948677,0.00041567945198856313,0.9944680650795357,-0.10503666213482495,0.024263775043935256,-0.01625558417852527,0.0009392440230732086,-0.00271564325239208,-0.001181434313906072,0.0043716506960121086,,-398.0,-402.99999999999994,306.00000000000006,306.00000000000006,2.356194490192345,-2.356194490192345,-0.7853981633974483,0.7853981633974483
2025/05/06 15:20:16.524178645,1746537616,520179511,world_ned,6.631528394410724,-15.801655373986748,0.4343215258121741,0.0006725002609246824,0.0002444861273272393,0.9944453124534868,-0.10525211878731827,0.02690151185588302,-0.017042944998446427,1.34501780552659e-05,-0.0034730553349010197,-0.0014638667144657497,0.004319599903088312,,-303.0,-455.0,231.0,348.0,2.356194490192345,-2.356194490192345,-0.7853981633974483,0.7853981633974483
2025/05/06 15:20:16.627290072,1746537616,623725471,world_ned,6.629450135703676,-15.800270159746635,0.43440309385228876,0.0007387981790594677,0.0001804243437599954,0.9944125462135727,-0.10556092817584663,0.012678890555886595,-0.01859677774055009,0.0005654814533644617,-0.0009613813714313122,-0.0006580670712583869,0.0069583858507321185,,-301.0,-453.00000000000006,228.99999999999997,347.0,2.356194490192345,-2.356194490192345,-0.7853981633974483,0.7853981633974483
