time,header_stamp_secs,header_stamp_nsecs,header_frame_id,wrench_force_x,wrench_force_y,wrench_force_z,wrench_torque_x,wrench_torque_y,wrench_torque_z
2025/04/11 11:15:44.873817323,1744362944,872552760,,-1.1479437019748901e-41,0.0,0.0,0.0,0.0,0.0
2025/04/11 11:15:44.972508504,1744362944,972112753,,-1.1479437019748901e-41,0.0,0.0,0.0,0.0,0.0
2025/04/11 11:15:45.27686386,1744362945,26839950,,-1.1479437019748901e-41,0.0,0.0,0.0,0.0,0.0
2025/04/11 11:15:45.120605865,1744362945,120369040,,-1.1479437019748901e-41,0.0,0.0,0.0,0.0,0.0
2025/04/11 11:15:45.226230379,1744362945,222761003,,-1.1479437019748901e-41,0.0,0.0,0.0,0.0,0.0
2025/04/11 11:15:45.273588996,1744362945,273276674,,-1.1479437019748901e-41,0.0,0.0,0.0,0.0,0.0
2025/04/11 11:15:45.331513495,1744362945,331061046,,-1.1479437019748901e-41,0.0,0.0,0.0,0.0,0.0
2025/04/11 11:15:45.426409578,1744362945,426025356,,-1.1479437019748901e-41,0.0,0.0,0.0,0.0,0.0
2025/04/11 11:15:45.522604822,1744362945,522419847,,-1.1479437019748901e-41,0.0,0.0,0.0,0.0,0.0
2025/04/11 11:15:45.624717313,1744362945,624494416,,-1.1479437019748901e-41,0.0,0.0,0.0,0.0,0.0
2025/04/11 11:15:45.723163728,1744362945,722974417,,-1.1479437019748901e-41,0.0,0.0,0.0,0.0,0.0
2025/04/11 11:15:45.775834327,1744362945,775584074,,-1.1479437019748901e-41,0.0,0.0,0.0,0.0,0.0
2025/04/11 11:15:45.826220960,1744362945,825308089,,-1.1479437019748901e-41,0.0,0.0,0.0,0.0,0.0
2025/04/11 11:15:45.877799048,1744362945,877607124,,-1.1479437019748901e-41,0.0,0.0,0.0,0.0,0.0
2025/04/11 11:15:45.936271565,1744362945,936072060,,-1.1479437019748901e-41,0.0,0.0,0.0,0.0,0.0
2025/04/11 11:15:45.948489548,1744362945,948321324,,1.214306433183765e-17,-9.540979117872439e-18,0.0,0.0,0.0,0.0
2025/04/11 11:15:45.971756960,1744362945,971296402,,2.7755575615628914e-16,2.220446049250313e-16,0.0,0.0,0.0,0.0
2025/04/11 11:15:45.984866946,1744362945,984303519,,8.673617379884035e-18,3.903127820947816e-17,0.0,0.0,0.0,1.1102230246251565e-16
2025/04/11 11:15:45.995693008,1744362945,995472679,,-5.551115123125783e-17,1.1102230246251565e-16,0.0,0.0,0.0,-8.881784197001252e-16
2025/04/11 11:15:46.30407184,1744362946,25110432,,-2.7755575615628914e-17,-2.0816681711721685e-17,0.0,0.0,0.0,-3.3306690738754696e-16
2025/04/11 11:15:46.44405577,1744362946,43930276,,-8.68539643180679e-24,-1.0107113109632307e-23,0.0,0.0,0.0,1.6272477955902156e-20
2025/04/11 11:15:46.52348828,1744362946,52029341,,-4.2611200019567593e-32,7.583349156024741e-33,0.0,0.0,0.0,6.232896708670133e-29
2025/04/11 11:15:46.266967928,1744362946,96989705,,-1.0772303699332369e-36,1.432633740064663e-38,0.0,0.0,0.0,-3.320400525668484e-34
2025/04/11 11:15:46.267125031,1744362946,145580868,,2.7550648847397363e-40,1.1938614500538858e-39,0.0,0.0,0.0,-1.9267087093946556e-37
2025/04/11 11:15:46.269803886,1744362946,209458415,,-2.168404344971009e-17,-3.642919299551295e-17,0.0,0.0,0.0,-2.220446049250313e-16
2025/04/11 11:15:46.270628520,1744362946,219926036,,6.661338147750939e-16,0.0,0.0,0.0,0.0,1.7763568394002505e-15
2025/04/11 11:15:46.270969295,1744362946,229648476,,2.220446049250313e-16,-2.220446049250313e-16,0.0,0.0,0.0,0.0
2025/04/11 11:15:46.271097032,1744362946,245681044,,8.881784197001252e-16,1.0482770207431713e-10,0.0,0.0,0.0,-4.545989481324369
2025/04/11 11:15:46.271225311,1744362946,253646364,,2.220446049250313e-16,7.771561172376096e-16,0.0,0.0,0.0,-3.552713678800501e-15
2025/04/11 11:15:46.276582545,1744362946,276429435,,-7.216449660063518e-16,-3.424999173162746e-10,0.0,0.0,0.0,0.09272627928706179
2025/04/11 11:15:46.284922402,1744362946,284765736,,-3.0531133177191805e-16,7.216449660063518e-16,0.0,0.0,0.0,0.0
2025/04/11 11:15:46.294672351,1744362946,294189564,,-6.106226635438361e-16,1.1102230246251565e-15,0.0,0.0,0.0,1.7763568394002505e-15
2025/04/11 11:15:46.304359152,1744362946,304183119,,4.440892098500626e-16,3.885780586188048e-16,0.0,0.0,0.0,-3.552713678800501e-15
2025/04/11 11:15:46.312508344,1744362946,312358368,,-5.551115123125783e-16,-3.3306690738754696e-16,0.0,0.0,0.0,0.0
2025/04/11 11:15:46.321800053,1744362946,321619586,,-1.1102230246251565e-15,6.661338147750939e-16,0.0,0.0,0.0,3.552713678800501e-15
2025/04/11 11:15:46.331764519,1744362946,331628222,,1.5543122344752192e-15,-1.7763568394002505e-15,0.0,0.0,0.0,0.0
2025/04/11 11:15:46.341293568,1744362946,339995709,,-1.1102230246251565e-15,-2.220446049250313e-16,0.0,0.0,0.0,7.105427357601002e-15
2025/04/11 11:15:46.348123469,1744362946,347951021,,-8.881784197001252e-16,2.220446049250313e-15,0.0,0.0,0.0,7.105427357601002e-15
2025/04/11 11:15:46.356585725,1744362946,356340452,,1.7763568394002505e-15,4.440892098500626e-16,0.0,0.0,0.0,-4.263256414560601e-14
2025/04/11 11:15:46.365991183,1744362946,365769342,,8.881784197001252e-16,8.881784197001252e-16,0.0,0.0,0.0,-1.4281908988778014e-12
2025/04/11 11:15:46.378706626,1744362946,378202206,,3.552713678800501e-15,0.0,0.0,0.0,0.0,0.0
2025/04/11 11:15:46.390497111,1744362946,388992209,,-1.7763568394002505e-15,2.6645352591003757e-15,0.0,0.0,0.0,0.0
2025/04/11 11:15:46.398908141,1744362946,398589903,,-1.7763568394002505e-15,-2.6645352591003757e-15,0.0,0.0,0.0,-4.263256414560601e-14
2025/04/11 11:15:46.407410976,1744362946,407169563,,4.440892098500626e-15,-8.881784197001252e-16,0.0,0.0,0.0,0.0
2025/04/11 11:15:46.418722092,1744362946,418310114,,-3.552713678800501e-15,-4.440892098500626e-15,0.0,0.0,0.0,-8.526512829121202e-14
2025/04/11 11:15:46.429566351,1744362946,429357855,,2.6645352591003757e-15,-3.552713678800501e-15,0.0,0.0,0.0,-2.842170943040401e-14
2025/04/11 11:15:46.442447715,1744362946,442176571,,-1.7763568394002505e-15,8.881784197001252e-16,0.0,0.0,0.0,-5.684341886080802e-14
2025/04/11 11:15:46.452923029,1744362946,452615578,,8.881784197001252e-16,-2.6645352591003757e-15,0.0,0.0,0.0,-1.4210854715202004e-14
2025/04/11 11:15:46.464951709,1744362946,464720440,,-1.7763568394002505e-15,4.440892098500626e-15,0.0,0.0,0.0,-5.684341886080802e-14
2025/04/11 11:15:46.489426640,1744362946,485686167,,-1.580957587066223e-13,-3.977982387937118e-10,0.0,0.0,0.0,20.26437193632721
2025/04/11 11:15:46.507646997,1744362946,507423792,,-3.2862601528904634e-14,-1.5516476992161188e-11,0.0,0.0,0.0,39.05258022878989
2025/04/11 11:15:46.523961638,1744362946,523771325,,-4.384048679639818e-12,-2.921300978897534e-09,0.0,0.0,0.0,28.216401233183916
2025/04/11 11:15:46.548232164,1744362946,548026909,,-5.52891066263328e-13,-3.821452043695217e-10,0.0,0.0,0.0,21.43861637873129
2025/04/11 11:15:46.573558059,1744362946,573315272,,-7.771561172376096e-16,-3.7556679988171027e-11,0.0,0.0,0.0,9.382212180757818
2025/04/11 11:15:46.596504908,1744362946,596213183,,1.6254553258931992e-11,-8.171241461241152e-14,0.0,0.0,0.0,8.017314141761027
2025/04/11 11:15:46.606173505,1744362946,606021256,,4.440892098500626e-16,-1.7763568394002505e-15,0.0,0.0,0.0,-1.7763568394002505e-15
2025/04/11 11:15:46.615865036,1744362946,615715024,,-0.0,0.0,0.0,0.0,0.0,3.552713678800501e-15
2025/04/11 11:15:46.623552916,1744362946,623364316,,-0.0,4.440892098500626e-16,0.0,0.0,0.0,1.7763568394002505e-15
2025/04/11 11:15:46.633781410,1744362946,633242343,,-0.0,-4.440892098500626e-16,0.0,0.0,0.0,0.0
2025/04/11 11:15:46.643973607,1744362946,643738709,,-0.0,0.0,0.0,0.0,0.0,0.0
2025/04/11 11:15:46.653170666,1744362946,652981832,,-0.0,2.220446049250313e-16,0.0,0.0,0.0,3.552713678800501e-15
2025/04/11 11:15:46.662438171,1744362946,662265987,,-6.661338147750939e-16,0.0,0.0,0.0,0.0,0.0
2025/04/11 11:15:46.675251118,1744362946,671891491,,1.1102230246251565e-15,0.0,0.0,0.0,0.0,8.881784197001252e-16
2025/04/11 11:15:46.683883729,1744362946,683618658,,-4.440892098500626e-16,0.0,0.0,0.0,0.0,0.0
2025/04/11 11:15:46.694374445,1744362946,694185936,,-1.1102230246251565e-16,-2.220446049250313e-16,0.0,0.0,0.0,8.881784197001252e-16
2025/04/11 11:15:46.703216201,1744362946,703035999,,-1.4475660719677984e-23,-1.0339757656912846e-23,0.0,0.0,0.0,-4.4634665853361373e-20
2025/04/11 11:15:46.827710340,1744362946,765863866,,7.38594133672505e-32,3.0911175607415135e-32,0.0,0.0,0.0,-9.83944858931207e-27
2025/04/11 11:15:46.832955977,1744362946,832613913,,9.987110207181544e-39,-1.400491316409366e-38,0.0,0.0,0.0,9.637887365941551e-34
2025/04/11 11:15:46.897421441,1744362946,896873894,,-6.887662211849341e-41,-4.591774807899561e-41,0.0,0.0,0.0,-1.3775324423698682e-40
2025/04/11 11:15:46.985644367,1744362946,982763812,,-4.591774807899561e-41,0.0,0.0,0.0,0.0,4.591774807899561e-41
2025/04/11 11:15:47.35521835,1744362947,34915201,,-0.0,-2.2958874039497803e-41,0.0,0.0,0.0,0.0
2025/04/11 11:15:47.98851689,1744362947,96782311,,-2.2958874039497803e-41,-4.591774807899561e-41,0.0,0.0,0.0,-4.591774807899561e-41
2025/04/11 11:15:47.185255915,1744362947,178144218,,-4.591774807899561e-41,2.2958874039497803e-41,0.0,0.0,0.0,-4.591774807899561e-41
2025/04/11 11:15:47.260253912,1744362947,259993855,,-4.591774807899561e-41,2.2958874039497803e-41,0.0,0.0,0.0,-4.591774807899561e-41
2025/04/11 11:15:47.316039655,1744362947,315418779,,2.2958874039497803e-41,-4.591774807899561e-41,0.0,0.0,0.0,4.591774807899561e-41
2025/04/11 11:15:47.418559290,1744362947,412563232,,-2.2958874039497803e-41,4.591774807899561e-41,0.0,0.0,0.0,4.591774807899561e-41
2025/04/11 11:15:47.519508269,1744362947,501060607,,4.591774807899561e-41,-2.2958874039497803e-41,0.0,0.0,0.0,4.591774807899561e-41
2025/04/11 11:15:47.571134269,1744362947,565619319,,-0.0,4.591774807899561e-41,0.0,0.0,0.0,0.0
2025/04/11 11:15:47.666388560,1744362947,657749009,,-2.2958874039497803e-41,0.0,0.0,0.0,0.0,0.0
2025/04/11 11:15:47.738886800,1744362947,738713391,,2.2958874039497803e-41,-2.2958874039497803e-41,0.0,0.0,0.0,-4.591774807899561e-41
2025/04/11 11:15:47.872050158,1744362947,867942141,,-0.0,0.0,0.0,0.0,0.0,0.0
2025/04/11 11:15:47.927275126,1744362947,926863550,,6.887662211849341e-41,2.2958874039497803e-41,0.0,0.0,0.0,-9.183549615799121e-41
2025/04/11 11:15:47.962713632,1744362947,962361979,,-6.071532165918825e-18,2.7755575615628914e-17,0.0,0.0,0.0,0.0
2025/04/11 11:15:47.972983250,1744362947,972546926,,5.551115123125783e-17,7.771561172376096e-16,0.0,0.0,0.0,0.0
2025/04/11 11:15:48.2632494,1744362948,2323659,,-3.3306690738754696e-16,7.771561172376096e-16,0.0,0.0,0.0,0.0
2025/04/11 11:15:48.23147217,1744362948,22670964,,-4.718447854656915e-16,4.718447854656915e-16,0.0,0.0,0.0,3.552713678800501e-15
2025/04/11 11:15:48.43948980,1744362948,43391265,,-1.6653345369377348e-16,5.551115123125783e-16,0.0,0.0,0.0,-7.105427357601002e-15
2025/04/11 11:15:48.57671436,1744362948,56665903,,6.661338147750939e-16,6.661338147750939e-16,0.0,0.0,0.0,0.0
2025/04/11 11:15:48.75501842,1744362948,75183252,,-6.106226635438361e-16,-3.1086244689504383e-15,0.0,0.0,0.0,-7.105427357601002e-15
2025/04/11 11:15:48.87777764,1744362948,87405799,,-3.608224830031759e-15,-1.9984014443252818e-15,0.0,0.0,0.0,7.105427357601002e-15
2025/04/11 11:15:48.98319818,1744362948,98053307,,1.7208456881689926e-15,-1.27675647831893e-15,0.0,0.0,0.0,0.0
2025/04/11 11:15:48.113188216,1744362948,111669765,,-8.881784197001252e-16,-3.9968028886505635e-15,0.0,0.0,0.0,-7.105427357601002e-15
2025/04/11 11:15:48.120895584,1744362948,120383163,,5.551115123125783e-17,-1.5543122344752192e-15,0.0,0.0,0.0,0.0
2025/04/11 11:15:48.137361522,1744362948,134117295,,2.220446049250313e-16,6.661338147750939e-16,0.0,0.0,0.0,1.4210854715202004e-14
2025/04/11 11:15:48.146427162,1744362948,146139179,,2.4424906541753444e-15,-1.2212453270876722e-15,0.0,0.0,0.0,0.0
2025/04/11 11:15:48.156613292,1744362948,156266077,,-1.1102230246251565e-16,-1.7763568394002505e-15,0.0,0.0,0.0,0.0
2025/04/11 11:15:48.168146933,1744362948,167744124,,-1.1102230246251565e-15,-1.6653345369377348e-15,0.0,0.0,0.0,-2.842170943040401e-14
2025/04/11 11:15:48.186622545,1744362948,186434976,,2.6645352591003757e-15,-6.661338147750939e-16,0.0,0.0,0.0,-7.105427357601002e-15
2025/04/11 11:15:48.260813294,1744362948,259998835,,1.4432899320127035e-15,1.6653345369377348e-16,0.0,0.0,0.0,0.0
2025/04/11 11:15:48.269344449,1744362948,269076485,,-1.1102230246251565e-16,4.440892098500626e-16,0.0,0.0,0.0,0.0
2025/04/11 11:15:48.421871840,1744362948,352865495,,-3.885780586188048e-16,1.3877787807814457e-15,0.0,0.0,0.0,7.105427357601002e-15
2025/04/11 11:15:48.433994367,1744362948,398543083,,2.609024107869118e-15,-3.3306690738754696e-16,0.0,0.0,0.0,0.0
2025/04/11 11:15:48.455662275,1744362948,450258398,,1.0547118733938987e-15,3.219646771412954e-15,0.0,0.0,0.0,7.105427357601002e-15
2025/04/11 11:15:48.493400631,1744362948,482022496,,-2.1094237467877974e-15,-2.1094237467877974e-15,0.0,0.0,0.0,-7.105427357601002e-15
2025/04/11 11:15:48.512887881,1744362948,507298709,,-1.4432899320127035e-15,-1.4432899320127035e-15,0.0,0.0,0.0,7.105427357601002e-15
2025/04/11 11:15:48.551422370,1744362948,544638479,,-2.220446049250313e-16,4.440892098500626e-15,0.0,0.0,0.0,7.105427357601002e-15
2025/04/11 11:15:48.574476402,1744362948,568398506,,1.6653345369377348e-16,-2.55351295663786e-15,0.0,0.0,0.0,-7.105427357601002e-15
2025/04/11 11:15:48.584597793,1744362948,583346398,,3.83026943495679e-15,-1.7208456881689926e-15,0.0,0.0,0.0,0.0
2025/04/11 11:15:48.602939295,1744362948,602207951,,-1.4155343563970746e-15,-1.4155343563970746e-15,0.0,0.0,0.0,7.105427357601002e-15
2025/04/11 11:15:48.629239560,1744362948,620791462,,-1.7763568394002505e-15,-1.27675647831893e-15,0.0,0.0,0.0,0.0
2025/04/11 11:15:48.652870318,1744362948,652065766,,2.220446049250313e-16,-1.5543122344752192e-15,0.0,0.0,0.0,0.0
2025/04/11 11:15:48.686945322,1744362948,682838801,,-1.1102230246251565e-16,1.4988010832439613e-15,0.0,0.0,0.0,0.0
2025/04/11 11:15:48.698252799,1744362948,697837486,,1.1102230246251565e-16,2.886579864025407e-15,0.0,0.0,0.0,0.0
2025/04/11 11:15:48.715009901,1744362948,714552781,,2.831068712794149e-15,1.7208456881689926e-15,0.0,0.0,0.0,0.0
2025/04/11 11:15:48.731973194,1744362948,731088505,,2.220446049250313e-16,-4.440892098500626e-16,0.0,0.0,0.0,-7.105427357601002e-15
2025/04/11 11:15:48.742472471,1744362948,742252975,,2.9976021664879227e-15,-3.3306690738754696e-16,0.0,0.0,0.0,0.0
2025/04/11 11:15:48.751951521,1744362948,751620679,,2.0261570199409107e-15,-3.5110803153770576e-15,0.0,0.0,0.0,0.0
2025/04/11 11:15:48.768929599,1744362948,768739734,,-6.106226635438361e-16,4.996003610813204e-16,0.0,0.0,0.0,7.105427357601002e-15
2025/04/11 11:15:48.780571683,1744362948,780338267,,2.0539125955565396e-15,1.1102230246251565e-16,0.0,0.0,0.0,-7.105427357601002e-15
2025/04/11 11:15:48.795611725,1744362948,795339012,,-2.192690473634684e-15,-2.3314683517128287e-15,0.0,0.0,0.0,7.105427357601002e-15
2025/04/11 11:15:48.820511619,1744362948,819344453,,8.881784197001252e-16,-1.6653345369377348e-15,0.0,0.0,0.0,-3.552713678800501e-14
2025/04/11 11:15:48.836192689,1744362948,834882634,,-3.885780586188048e-16,2.0539125955565396e-15,0.0,0.0,0.0,0.0
2025/04/11 11:15:48.855836342,1744362948,852188218,,-1.4432899320127035e-15,0.0,0.0,0.0,0.0,0.0
2025/04/11 11:15:48.866836606,1744362948,864210793,,-3.3306690738754696e-16,-1.0547118733938987e-15,0.0,0.0,0.0,7.105427357601002e-15
2025/04/11 11:15:48.877119460,1744362948,875853591,,-2.220446049250313e-16,-5.551115123125783e-16,0.0,0.0,0.0,0.0
2025/04/11 11:15:48.891305211,1744362948,890787570,,3.3306690738754696e-16,4.440892098500626e-16,0.0,0.0,0.0,-7.105427357601002e-15
2025/04/11 11:15:48.910035436,1744362948,905419926,,-1.7763568394002505e-15,7.771561172376096e-16,0.0,0.0,0.0,1.4210854715202004e-14
2025/04/11 11:15:48.920084049,1744362948,918506208,,6.661338147750939e-16,-1.9984014443252818e-15,0.0,0.0,0.0,0.0
2025/04/11 11:15:48.931404314,1744362948,930707775,,-0.0,-4.440892098500626e-16,0.0,0.0,0.0,0.0
2025/04/11 11:15:48.942977833,1744362948,942586039,,-5.551115123125783e-16,-1.5543122344752192e-15,0.0,0.0,0.0,0.0
2025/04/11 11:15:48.990911102,1744362948,990074373,,1.3322676295501878e-15,2.220446049250313e-15,0.0,0.0,0.0,-1.4210854715202004e-14
2025/04/11 11:15:49.47638592,1744362949,46964171,,-6.661338147750939e-16,-1.2212453270876722e-15,0.0,0.0,0.0,0.0
2025/04/11 11:15:49.97355987,1744362949,96806464,,-1.3322676295501878e-15,-1.3322676295501878e-15,0.0,0.0,0.0,0.0
2025/04/11 11:15:49.156116371,1744362949,150739174,,-5.551115123125783e-16,-3.3306690738754696e-15,0.0,0.0,0.0,-1.4210854715202004e-14
2025/04/11 11:15:49.174473845,1744362949,173202264,,-2.886579864025407e-15,1.1102230246251565e-16,0.0,0.0,0.0,-7.105427357601002e-15
2025/04/11 11:15:49.229056179,1744362949,216601776,,-3.4416913763379853e-15,-1.6653345369377348e-15,0.0,0.0,0.0,0.0
2025/04/11 11:15:49.233967580,1744362949,228853875,,-4.829470157119431e-15,1.4988010832439613e-15,0.0,0.0,0.0,7.105427357601002e-15
2025/04/11 11:15:49.255076025,1744362949,242365224,,4.440892098500626e-16,-5.551115123125783e-15,0.0,0.0,0.0,-1.4210854715202004e-14
2025/04/11 11:15:49.256761555,1744362949,255997337,,-7.771561172376096e-16,2.220446049250313e-16,0.0,0.0,0.0,7.105427357601002e-15
2025/04/11 11:15:49.274261918,1744362949,272647941,,-1.1102230246251565e-15,-2.220446049250313e-16,0.0,0.0,0.0,-1.9895196601282805e-13
2025/04/11 11:15:49.288079949,1744362949,284881985,,2.1094237467877974e-15,-3.6637359812630166e-15,0.0,0.0,0.0,0.0
2025/04/11 11:15:49.299051072,1744362949,296352218,,2.220446049250313e-15,3.552713678800501e-15,0.0,0.0,0.0,0.0
2025/04/11 11:15:49.333232657,1744362949,332891988,,5.551115123125783e-16,-2.886579864025407e-15,0.0,0.0,0.0,0.0
2025/04/11 11:15:49.368993042,1744362949,368433061,,-2.220446049250313e-16,3.3306690738754696e-15,0.0,0.0,0.0,7.105427357601002e-15
2025/04/11 11:15:49.395360694,1744362949,381808645,,1.1102230246251565e-16,-8.881784197001252e-16,0.0,0.0,0.0,0.0
2025/04/11 11:15:49.411515914,1744362949,399636830,,-2.6645352591003757e-15,2.6645352591003757e-15,0.0,0.0,0.0,0.0
2025/04/11 11:15:49.420580456,1744362949,413429203,,-8.881784197001252e-16,2.1094237467877974e-15,0.0,0.0,0.0,0.0
2025/04/11 11:15:49.435310299,1744362949,432529030,,3.219646771412954e-15,-1.6653345369377348e-15,0.0,0.0,0.0,2.842170943040401e-14
2025/04/11 11:15:49.461409888,1744362949,452322877,,-2.3314683517128287e-15,7.771561172376096e-16,0.0,0.0,0.0,0.0
2025/04/11 11:15:49.490713911,1744362949,488554678,,-1.3322676295501878e-15,1.4432899320127035e-15,0.0,0.0,0.0,0.0
2025/04/11 11:15:49.523224308,1744362949,509731877,,2.831068712794149e-15,8.326672684688674e-16,0.0,0.0,0.0,7.105427357601002e-15
2025/04/11 11:15:49.534164014,1744362949,528769187,,-1.3322676295501878e-15,1.6653345369377348e-16,0.0,0.0,0.0,-7.105427357601002e-15
2025/04/11 11:15:49.544080544,1744362949,540988608,,4.440892098500626e-16,1.7208456881689926e-15,0.0,0.0,0.0,0.0
2025/04/11 11:15:49.564850563,1744362949,564272396,,1.3322676295501878e-15,1.4988010832439613e-15,0.0,0.0,0.0,0.0
2025/04/11 11:15:49.580964445,1744362949,580696139,,-3.1086244689504383e-15,3.2751579226442118e-15,0.0,0.0,0.0,7.105427357601002e-15
2025/04/11 11:15:49.602778081,1744362949,601872736,,-7.771561172376096e-16,1.3322676295501878e-15,0.0,0.0,0.0,-1.4210854715202004e-14
2025/04/11 11:15:49.657099685,1744362949,654878087,,-2.220446049250313e-15,3.885780586188048e-16,0.0,0.0,0.0,0.0
2025/04/11 11:15:49.677142114,1744362949,667520749,,-9.992007221626409e-16,9.71445146547012e-16,0.0,0.0,0.0,3.552713678800501e-15
2025/04/11 11:15:49.706402443,1744362949,703704303,,-4.996003610813204e-16,4.163336342344337e-17,0.0,0.0,0.0,3.552713678800501e-15
2025/04/11 11:15:49.718117216,1744362949,717721176,,-4.163336342344337e-16,8.604228440844963e-16,0.0,0.0,0.0,0.0
2025/04/11 11:15:49.739061208,1744362949,738693589,,3.3306690738754696e-16,-1.1657341758564144e-15,0.0,0.0,0.0,3.552713678800501e-15
2025/04/11 11:15:49.756283696,1744362949,756008961,,-7.077671781985373e-16,1.3877787807814457e-16,0.0,0.0,0.0,0.0
2025/04/11 11:15:49.777053564,1744362949,776355716,,-1.5265566588595902e-16,9.71445146547012e-17,0.0,0.0,0.0,8.881784197001252e-16
2025/04/11 11:15:49.789774568,1744362949,789236336,,9.421587176978985e-22,-9.173432993213077e-22,0.0,0.0,0.0,4.841153464540644e-16
2025/04/11 11:15:49.856249243,1744362949,814685249,,9.98402083170343e-31,-6.3902355554768486e-31,0.0,0.0,0.0,3.8564122247914594e-25
2025/04/11 11:15:49.856502423,1744362949,840914266,,3.8203566401724344e-38,-4.408103815583578e-38,0.0,0.0,0.0,2.592012651084352e-32
2025/04/11 11:15:49.856597538,1744362949,852552427,,-5.831554006032442e-39,2.8813386919569743e-39,0.0,0.0,0.0,-2.3292374643795548e-33
2025/04/11 11:15:49.886664226,1744362949,863643492,,-0.0,1.1479437019748901e-41,0.0,0.0,0.0,-4.591774807899561e-41
2025/04/11 11:15:49.914237392,1744362949,912783068,,3.4438311059246704e-41,-2.2958874039497803e-41,0.0,0.0,0.0,4.591774807899561e-41
2025/04/11 11:15:49.947894681,1744362949,943421910,,6.887662211849341e-41,-1.1479437019748901e-41,0.0,0.0,0.0,4.591774807899561e-41
2025/04/11 11:15:50.7539717,1744362950,4021536,,-2.2958874039497803e-41,0.0,0.0,0.0,0.0,0.0
2025/04/11 11:15:50.112609056,1744362950,109149122,,-2.2958874039497803e-41,-2.2958874039497803e-41,0.0,0.0,0.0,-9.183549615799121e-41
2025/04/11 11:15:50.189411175,1744362950,185920582,,-0.0,0.0,0.0,0.0,0.0,9.183549615799121e-41
2025/04/11 11:15:50.244855211,1744362950,225914175,,-0.0,-4.591774807899561e-41,0.0,0.0,0.0,4.591774807899561e-41
2025/04/11 11:15:50.290457927,1744362950,287305170,,1.1479437019748901e-41,-1.1479437019748901e-41,0.0,0.0,0.0,-9.183549615799121e-41
2025/04/11 11:15:50.363785303,1744362950,358343226,,-4.591774807899561e-41,0.0,0.0,0.0,0.0,-4.591774807899561e-41
2025/04/11 11:15:50.420894052,1744362950,420590714,,4.591774807899561e-41,-1.1479437019748901e-41,0.0,0.0,0.0,1.3775324423698682e-40
2025/04/11 11:15:50.459088747,1744362950,458156498,,-0.0,-1.1479437019748901e-41,0.0,0.0,0.0,-9.183549615799121e-41
2025/04/11 11:15:50.554015129,1744362950,547649876,,-8.035605913824231e-41,1.1479437019748901e-41,0.0,0.0,0.0,-4.591774807899561e-41
2025/04/11 11:15:50.609316000,1744362950,596606938,,-0.0,2.2958874039497803e-41,0.0,0.0,0.0,-4.591774807899561e-41
2025/04/11 11:15:50.684920828,1744362950,683809144,,2.2958874039497803e-41,-4.591774807899561e-41,0.0,0.0,0.0,-4.591774807899561e-41
2025/04/11 11:15:50.776994518,1744362950,738438115,,-5.739718509874451e-41,-1.1479437019748901e-41,0.0,0.0,0.0,-4.591774807899561e-41
2025/04/11 11:15:50.804229341,1744362950,799921086,,2.2958874039497803e-41,1.1479437019748901e-41,0.0,0.0,0.0,-4.591774807899561e-41
2025/04/11 11:15:50.880179233,1744362950,858570342,,3.4438311059246704e-41,0.0,0.0,0.0,0.0,0.0
2025/04/11 11:15:50.911408977,1744362950,910065890,,1.1479437019748901e-41,-2.2958874039497803e-41,0.0,0.0,0.0,-4.591774807899561e-41
2025/04/11 11:15:50.941535118,1744362950,938422402,,-9.540979117872439e-18,4.5102810375396984e-17,0.0,0.0,0.0,1.1102230246251565e-16
2025/04/11 11:15:50.975997226,1744362950,974692515,,-2.220446049250313e-16,8.326672684688674e-17,0.0,0.0,0.0,0.0
2025/04/11 11:15:51.795606,1744362950,998773963,,2.0816681711721685e-16,-1.6653345369377348e-16,0.0,0.0,0.0,-1.7763568394002505e-15
2025/04/11 11:15:51.20750857,1744362951,19030328,,8.326672684688674e-17,-3.885780586188048e-16,0.0,0.0,0.0,0.0
2025/04/11 11:15:51.70835184,1744362951,55587804,,-1.3877787807814457e-17,2.7755575615628914e-16,0.0,0.0,0.0,1.7763568394002505e-15
2025/04/11 11:15:51.112760563,1744362951,86436331,,-1.249000902703301e-16,4.579669976578771e-16,0.0,0.0,0.0,0.0
2025/04/11 11:15:51.122578758,1744362951,104983404,,-1.6479873021779667e-17,1.734723475976807e-17,0.0,0.0,0.0,0.0
2025/04/11 11:15:51.123534957,1744362951,121698444,,4.2224985331417835e-23,-3.5025929062792266e-24,0.0,0.0,0.0,1.2828315588828815e-17
2025/04/11 11:15:51.152488832,1744362951,135214664,,1.6479873021779667e-17,5.204170427930421e-18,0.0,0.0,0.0,0.0
2025/04/11 11:15:51.184906486,1744362951,160297694,,-6.938893903907228e-18,-3.2959746043559335e-17,0.0,0.0,0.0,1.1102230246251565e-16
2025/04/11 11:15:51.189490890,1744362951,180361201,,-6.938893903907228e-18,5.204170427930421e-17,0.0,0.0,0.0,-1.1102230246251565e-16
2025/04/11 11:15:51.202113008,1744362951,198007327,,4.2500725161431774e-17,-1.0408340855860843e-17,0.0,0.0,0.0,1.1102230246251565e-16
2025/04/11 11:15:51.245464089,1744362951,244522860,,-3.2959746043559335e-17,1.734723475976807e-18,0.0,0.0,0.0,1.1102230246251565e-16
2025/04/11 11:15:51.272434361,1744362951,269993097,,-4.303924124689972e-24,1.1309109937248425e-23,0.0,0.0,0.0,2.039724858933901e-18
2025/04/11 11:15:51.286358959,1744362951,285525858,,1.734723475976807e-17,7.806255641895632e-18,0.0,0.0,0.0,0.0
2025/04/11 11:15:51.310091951,1744362951,304725894,,6.687238264608383e-23,-1.0223435383272576e-23,0.0,0.0,0.0,1.0956066770268955e-17
2025/04/11 11:15:51.396762966,1744362951,382404148,,-3.174775142700834e-34,3.806720905702896e-34,0.0,0.0,0.0,3.3496519890636256e-29
2025/04/11 11:15:51.436168495,1744362951,435861885,,-6.465218929522581e-38,-2.938735877055719e-38,0.0,0.0,0.0,7.693246122883117e-33
2025/04/11 11:15:51.515239406,1744362951,514930471,,-2.204051907791789e-39,5.877471754111438e-39,0.0,0.0,0.0,2.78057311215258e-34
2025/04/11 11:15:51.591334981,1744362951,545066048,,1.3877787807814457e-17,-6.678685382510707e-17,0.0,0.0,0.0,1.1102230246251565e-16
2025/04/11 11:15:51.600372057,1744362951,583905229,,1.2656542480726785e-14,3.214073451829336e-11,0.0,0.0,0.0,-1.529531252828427
2025/04/11 11:15:51.603453357,1744362951,597558893,,-0.0,0.0,0.0,0.0,0.0,0.0
2025/04/11 11:15:51.636926776,1744362951,626924446,,-8.881784197001252e-16,0.0,0.0,0.0,0.0,7.105427357601002e-15
2025/04/11 11:15:51.689778198,1744362951,654525874,,-0.0,1.7763568394002505e-15,0.0,0.0,0.0,0.0
2025/04/11 11:15:51.733501712,1744362951,670408359,,1.9984014443252818e-15,-2.220446049250313e-15,0.0,0.0,0.0,-7.105427357601002e-15
2025/04/11 11:15:51.733795343,1744362951,684003482,,-1.7763568394002505e-15,-4.440892098500626e-16,0.0,0.0,0.0,0.0
2025/04/11 11:15:51.733905533,1744362951,695581683,,6.661338147750939e-16,3.885780586188048e-15,0.0,0.0,0.0,-1.4210854715202004e-14
2025/04/11 11:15:51.761950710,1744362951,707894888,,3.885780586188048e-15,-3.0531133177191805e-15,0.0,0.0,0.0,-1.0658141036401503e-13
2025/04/11 11:15:51.793403924,1744362951,717994988,,-1.3322676295501878e-15,2.220446049250313e-15,0.0,0.0,0.0,0.0
2025/04/11 11:15:51.793625035,1744362951,726938422,,-1.9984014443252818e-15,-2.220446049250313e-16,0.0,0.0,0.0,0.0
2025/04/11 11:15:51.793737651,1744362951,738435596,,2.55351295663786e-15,2.7755575615628914e-15,0.0,0.0,0.0,0.0
2025/04/11 11:15:51.798396230,1744362951,748244619,,-5.662137425588298e-15,0.0,0.0,0.0,0.0,-1.4210854715202004e-14
2025/04/11 11:15:51.805857304,1744362951,760283640,,1.3877787807814457e-15,-1.1102230246251565e-16,0.0,0.0,0.0,-7.105427357601002e-15
2025/04/11 11:15:51.830326224,1744362951,810597129,,2.942091015256665e-15,1.4432899320127035e-15,0.0,0.0,0.0,0.0
2025/04/11 11:15:51.853973651,1744362951,852186046,,-1.1657341758564144e-15,-1.1102230246251565e-16,0.0,0.0,0.0,0.0
2025/04/11 11:15:51.908637433,1744362951,903548328,,-3.2751579226442118e-15,3.1086244689504383e-15,0.0,0.0,0.0,7.105427357601002e-15
2025/04/11 11:15:51.978838940,1744362951,970455095,,-8.881784197001252e-16,-1.0547118733938987e-15,0.0,0.0,0.0,0.0
2025/04/11 11:15:52.42302315,1744362951,990473869,,1.1102230246251565e-16,-7.216449660063518e-16,0.0,0.0,0.0,-7.105427357601002e-15
2025/04/11 11:15:52.63648896,1744362952,32701065,,-3.0531133177191805e-15,8.326672684688674e-16,0.0,0.0,0.0,-7.105427357601002e-15
2025/04/11 11:15:52.63876003,1744362952,60492197,,-1.9984014443252818e-15,-1.6653345369377348e-16,0.0,0.0,0.0,0.0
2025/04/11 11:15:52.119864719,1744362952,74314607,,5.551115123125783e-16,-2.220446049250313e-16,0.0,0.0,0.0,0.0
2025/04/11 11:15:52.121798218,1744362952,86166219,,5.551115123125783e-17,2.7755575615628914e-16,0.0,0.0,0.0,0.0
2025/04/11 11:15:52.163713005,1744362952,162392242,,2.0539125955565396e-15,5.551115123125783e-16,0.0,0.0,0.0,-7.105427357601002e-15
2025/04/11 11:15:52.205813777,1744362952,203248662,,8.326672684688674e-16,-6.661338147750939e-16,0.0,0.0,0.0,7.105427357601002e-15
2025/04/11 11:15:52.260264293,1744362952,249426894,,1.8318679906315083e-15,-1.2212453270876722e-15,0.0,0.0,0.0,0.0
2025/04/11 11:15:52.260519106,1744362952,259535472,,-7.216449660063518e-16,-2.55351295663786e-15,0.0,0.0,0.0,0.0
2025/04/11 11:15:52.276893099,1744362952,275497094,,-1.394717674685353e-15,1.2212453270876722e-15,0.0,0.0,0.0,0.0
2025/04/11 11:15:52.306747692,1744362952,306292894,,6.106226635438361e-16,1.7763568394002505e-15,0.0,0.0,0.0,-7.105427357601002e-15
2025/04/11 11:15:52.335091138,1744362952,334847467,,-1.4432899320127035e-15,-1.2212453270876722e-15,0.0,0.0,0.0,7.105427357601002e-15
2025/04/11 11:15:52.346589909,1744362952,346274758,,1.7763568394002505e-15,-4.996003610813204e-16,0.0,0.0,0.0,0.0
2025/04/11 11:15:52.385658652,1744362952,359861621,,2.858824288409778e-15,-1.609823385706477e-15,0.0,0.0,0.0,-7.105427357601002e-15
2025/04/11 11:15:52.388138534,1744362952,370833593,,1.887379141862766e-15,0.0,0.0,0.0,0.0,-1.4210854715202004e-14
2025/04/11 11:15:52.456185530,1744362952,394993959,,-2.498001805406602e-16,-2.185751579730777e-15,0.0,0.0,0.0,0.0
2025/04/11 11:15:52.456808360,1744362952,414880960,,-1.3877787807814457e-15,-3.2751579226442118e-15,0.0,0.0,0.0,0.0
2025/04/11 11:15:52.460406453,1744362952,432597951,,2.220446049250313e-16,-1.5543122344752192e-15,0.0,0.0,0.0,0.0
2025/04/11 11:15:52.481185271,1744362952,442859433,,8.326672684688674e-16,1.27675647831893e-15,0.0,0.0,0.0,0.0
2025/04/11 11:15:52.484429023,1744362952,451516423,,2.0539125955565396e-15,-1.9984014443252818e-15,0.0,0.0,0.0,0.0
2025/04/11 11:15:52.511394785,1744362952,468316551,,5.689893001203927e-16,-7.303185833862358e-16,0.0,0.0,0.0,0.0
2025/04/11 11:15:52.522315280,1744362952,477188119,,3.3306690738754696e-16,-1.0547118733938987e-15,0.0,0.0,0.0,0.0
2025/04/11 11:15:52.534317314,1744362952,489710918,,7.775897981066038e-16,6.565928356572215e-16,0.0,0.0,0.0,3.552713678800501e-15
2025/04/11 11:15:52.540861008,1744362952,500753798,,2.220446049250313e-16,-2.3314683517128287e-15,0.0,0.0,0.0,-3.552713678800501e-15
2025/04/11 11:15:52.547376588,1744362952,515151268,,-6.661338147750939e-16,2.220446049250313e-16,0.0,0.0,0.0,0.0
2025/04/11 11:15:52.563832766,1744362952,531442143,,-1.5543122344752192e-15,5.551115123125783e-16,0.0,0.0,0.0,0.0
2025/04/11 11:15:52.570860155,1744362952,551491055,,2.220446049250313e-16,-5.551115123125783e-16,0.0,0.0,0.0,0.0
2025/04/11 11:15:52.605619969,1744362952,597273023,,-2.862293735361732e-17,5.117434254131581e-17,0.0,0.0,0.0,0.0
2025/04/11 11:15:52.621100619,1744362952,616570632,,6.397725050214823e-25,2.455692443516801e-25,0.0,0.0,0.0,1.8975521184014923e-18
2025/04/11 11:15:52.673702644,1744362952,654925475,,-1.1119236163298182e-33,8.388327687467844e-34,0.0,0.0,0.0,1.3450809083690903e-28
2025/04/11 11:15:52.856868510,1744362952,706148954,,-9.550891600431086e-39,5.923389502190433e-38,0.0,0.0,0.0,-9.235461834054333e-33
2025/04/11 11:15:52.910977918,1744362952,736514825,,2.7755575615628914e-17,2.7755575615628914e-17,0.0,0.0,0.0,1.1102230246251565e-16
2025/04/11 11:15:52.976930664,1744362952,773900518,,-2.220446049250313e-16,-3.3306690738754696e-16,0.0,0.0,0.0,8.881784197001252e-16
2025/04/11 11:15:52.989155576,1744362952,807370155,,-8.881784197001252e-16,0.0,0.0,0.0,0.0,0.0
2025/04/11 11:15:53.94195673,1744362952,850821881,,-0.0,0.0,0.0,0.0,0.0,0.0
2025/04/11 11:15:53.198575171,1744362952,887877163,,-1.7763568394002505e-15,1.7763568394002505e-15,0.0,0.0,0.0,0.0
2025/04/11 11:15:53.200415983,1744362952,945937934,,-1.5276668818842154e-13,-9.437783887733531e-11,0.0,0.0,0.0,3.1172165171324053
2025/04/11 11:15:53.256467209,1744362952,982248828,,-0.0,0.0,0.0,0.0,0.0,0.0
2025/04/11 11:15:53.312016869,1744362953,34570214,,3.552713678800501e-15,-3.552713678800501e-15,0.0,0.0,0.0,1.4210854715202004e-14
2025/04/11 11:15:53.416165657,1744362953,77249200,,-3.552713678800501e-15,-3.552713678800501e-15,0.0,0.0,0.0,-2.842170943040401e-14
2025/04/11 11:15:53.416509564,1744362953,99214633,,-3.552713678800501e-15,0.0,0.0,0.0,0.0,0.0
2025/04/11 11:15:53.431751109,1744362953,144910535,,7.105427357601002e-15,-1.4210854715202004e-14,0.0,0.0,0.0,0.0
2025/04/11 11:15:53.589394129,1744362953,210305315,,-0.0,0.0,0.0,0.0,0.0,-2.842170943040401e-14
2025/04/11 11:15:53.618327303,1744362953,232373281,,3.552713678800501e-15,7.105427357601002e-15,0.0,0.0,0.0,0.0
2025/04/11 11:15:53.670492469,1744362953,320003659,,3.552713678800501e-14,-7.780442956573097e-12,0.0,0.0,0.0,7.840457727639432
2025/04/11 11:15:53.671828997,1744362953,345932365,,1.0658141036401503e-14,1.4210854715202004e-14,0.0,0.0,0.0,0.0
2025/04/11 11:15:53.686796431,1744362953,358360091,,-0.0,7.105427357601002e-15,0.0,0.0,0.0,0.0
2025/04/11 11:15:53.725139090,1744362953,394015084,,-3.552713678800501e-15,-7.105427357601002e-15,0.0,0.0,0.0,0.0
2025/04/11 11:15:53.725382787,1744362953,422820239,,-3.552713678800501e-15,-1.4210854715202004e-14,0.0,0.0,0.0,0.0
2025/04/11 11:15:53.766743820,1744362953,436049183,,-3.552713678800501e-15,-7.105427357601002e-15,0.0,0.0,0.0,0.0
2025/04/11 11:15:53.813522618,1744362953,446222515,,-7.105427357601002e-15,0.0,0.0,0.0,0.0,2.842170943040401e-14
2025/04/11 11:15:53.813671567,1744362953,460393061,,1.0658141036401503e-14,1.4210854715202004e-14,0.0,0.0,0.0,1.5916157281026244e-12
2025/04/11 11:15:53.990986996,1744362953,470163816,,-1.0658141036401503e-14,7.105427357601002e-15,0.0,0.0,0.0,0.0
2025/04/11 11:15:53.991213556,1744362953,478691361,,7.105427357601002e-15,-7.105427357601002e-15,0.0,0.0,0.0,1.6484591469634324e-12
2025/04/11 11:15:54.3174635,1744362953,488422966,,-1.4210854715202004e-14,0.0,0.0,0.0,0.0,0.0
2025/04/11 11:15:54.29150675,1744362953,498009224,,-0.0,7.105427357601002e-15,0.0,0.0,0.0,2.842170943040401e-14
2025/04/11 11:15:54.81578848,1744362953,509137119,,-0.0,7.105427357601002e-15,0.0,0.0,0.0,4.831690603168681e-13
2025/04/11 11:15:54.101314843,1744362953,519795078,,-0.0,0.0,0.0,0.0,0.0,1.1368683772161603e-13
2025/04/11 11:15:54.103159696,1744362953,592800553,,-0.0,0.0,0.0,0.0,0.0,0.0
2025/04/11 11:15:54.106823293,1744362953,604064687,,-3.552713678800501e-15,-7.105427357601002e-15,0.0,0.0,0.0,5.684341886080802e-14
2025/04/11 11:15:54.133771724,1744362953,612348944,,-1.0658141036401503e-14,-1.4210854715202004e-14,0.0,0.0,0.0,2.842170943040401e-14
2025/04/11 11:15:54.152542426,1744362953,625820986,,-3.552713678800501e-15,7.105427357601002e-15,0.0,0.0,0.0,2.842170943040401e-14
2025/04/11 11:15:54.170300516,1744362953,635689431,,-1.0658141036401503e-14,7.105427357601002e-15,0.0,0.0,0.0,5.684341886080802e-14
2025/04/11 11:15:54.189057878,1744362953,646324196,,-0.0,0.0,0.0,0.0,0.0,-2.842170943040401e-14
2025/04/11 11:15:54.215596235,1744362953,678141015,,-1.0658141036401503e-14,0.0,0.0,0.0,0.0,1.1368683772161603e-13
2025/04/11 11:15:54.236589930,1744362953,694740565,,1.0658141036401503e-14,2.1316282072803006e-14,0.0,0.0,0.0,0.0
2025/04/11 11:15:54.292694067,1744362953,710687797,,7.105427357601002e-15,7.105427357601002e-15,0.0,0.0,0.0,2.842170943040401e-14
2025/04/11 11:15:54.337818021,1744362953,725961800,,-0.0,1.4210854715202004e-14,0.0,0.0,0.0,5.684341886080802e-14
2025/04/11 11:15:54.359343473,1744362953,740506176,,-3.552713678800501e-15,7.105427357601002e-15,0.0,0.0,0.0,0.0
2025/04/11 11:15:54.363070179,1744362953,757379964,,3.552713678800501e-15,7.105427357601002e-15,0.0,0.0,0.0,-2.842170943040401e-14
2025/04/11 11:15:54.393845825,1744362953,773827079,,-3.552713678800501e-15,1.4210854715202004e-14,0.0,0.0,0.0,0.0
2025/04/11 11:15:54.396791856,1744362953,793975499,,-3.552713678800501e-15,7.105427357601002e-15,0.0,0.0,0.0,1.3926637620897964e-12
2025/04/11 11:15:54.495258962,1744362953,822745021,,-1.4210854715202004e-14,-7.105427357601002e-15,0.0,0.0,0.0,0.0
2025/04/11 11:15:54.509268949,1744362953,989716722,,-2.813089514663755,3.574029960873304e-12,0.0,0.0,0.0,10.178313913787292
2025/04/11 11:15:54.518431036,1744362954,14179791,,1.6342482922482304e-13,-9.237055564881302e-14,0.0,0.0,0.0,3.410605131648481e-13
2025/04/11 11:15:54.519049862,1744362954,37832402,,-3.304023721284466e-13,-1.2221335055073723e-12,0.0,0.0,0.0,2.0747847884194925e-12
2025/04/11 11:15:54.587241238,1744362954,53843533,,7.105427357601002e-15,7.105427357601002e-15,0.0,0.0,0.0,5.684341886080802e-14
2025/04/11 11:15:54.613334022,1744362954,124147154,,-3.552713678800501e-15,7.105427357601002e-15,0.0,0.0,0.0,0.0
2025/04/11 11:15:54.644811789,1744362954,148084166,,3.552713678800501e-15,1.4210854715202004e-14,0.0,0.0,0.0,0.0
2025/04/11 11:15:54.678164521,1744362954,191124432,,-1.9502924285001093,1.4921397450962104e-13,0.0,0.0,0.0,-6.821210263296962e-13
2025/04/11 11:15:54.678501680,1744362954,202604608,,-1.0658141036401503e-14,-7.105427357601002e-15,0.0,0.0,0.0,0.0
2025/04/11 11:15:54.815510013,1744362954,255470740,,3.0269120543380268e-12,-0.01954020438358839,0.0,0.0,0.0,3.502573227727339
2025/04/11 11:15:54.828614989,1744362954,369010067,,2.4868995751603507e-14,2.1316282072803006e-14,0.0,0.0,0.0,0.0
2025/04/11 11:15:55.96293817,1744362954,426774501,,-1.1013412404281553e-13,0.0,0.0,0.0,0.0,0.0
2025/04/11 11:15:55.113712290,1744362954,511475619,,4.263256414560601e-14,-4.263256414560601e-14,0.0,0.0,0.0,2.2737367544323206e-13
2025/04/11 11:15:55.200746650,1744362954,527854494,,1.1368683772161603e-13,-2.1316282072803006e-13,0.0,0.0,0.0,4.547473508864641e-13
2025/04/11 11:15:55.254921353,1744362954,542167361,,-1.6342482922482304e-13,-4.263256414560601e-14,0.0,0.0,0.0,0.0
2025/04/11 11:15:55.258955955,1744362954,592440775,,0.0,2.842170943040401e-14,0.0,0.0,0.0,5.684341886080802e-14
2025/04/11 11:15:55.311246626,1744362954,629774977,,2.2524204723595176e-12,-2.0179413695586845e-12,0.0,0.0,0.0,8.185452315956354e-12
2025/04/11 11:15:55.330570055,1744362954,644954775,,5.684341886080802e-14,-7.105427357601002e-14,0.0,0.0,0.0,2.2737367544323206e-13
2025/04/11 11:15:55.341646375,1744362954,675017629,,-0.09337572407347494,1.1795009413617663e-12,0.0,0.0,0.0,1.4779288903810084e-12
2025/04/11 11:15:55.341921596,1744362954,688570125,,-2.842170943040401e-14,-1.4210854715202004e-14,0.0,0.0,0.0,0.0
2025/04/11 11:15:55.384870234,1744362954,706951391,,8.100187187665142e-13,-3.410605131648481e-13,0.0,0.0,0.0,1.7053025658242404e-12
2025/04/11 11:15:55.474916279,1744362954,803494583,,0.0,-1.4210854715202004e-14,0.0,0.0,0.0,0.0
2025/04/11 11:15:55.486006553,1744362954,824153760,,0.0,-1.4210854715202004e-14,0.0,0.0,0.0,5.684341886080802e-14
2025/04/11 11:15:55.501455246,1744362954,859695874,,1.4210854715202004e-14,1.4210854715202004e-14,0.0,0.0,0.0,3.410605131648481e-13
2025/04/11 11:15:55.507699667,1744362954,980253423,,-2.1316282072803006e-14,-1.4210854715202004e-14,0.0,0.0,0.0,5.684341886080802e-14
2025/04/11 11:15:55.510772245,1744362954,994360032,,1.4210854715202004e-14,-1.4210854715202004e-14,0.0,0.0,0.0,0.0
2025/04/11 11:15:55.511024889,1744362955,9083488,,0.0,-2.842170943040401e-14,0.0,0.0,0.0,1.1368683772161603e-13
2025/04/11 11:15:55.545615475,1744362955,131895981,,0.0,0.0,0.0,0.0,0.0,-5.684341886080802e-14
2025/04/11 11:15:55.626357699,1744362955,148035196,,0.0,1.4210854715202004e-14,0.0,0.0,0.0,0.0
2025/04/11 11:15:55.644997450,1744362955,206263767,,2.842170943040401e-14,-1.4210854715202004e-14,0.0,0.0,0.0,-5.684341886080802e-14
2025/04/11 11:15:55.825554606,1744362955,289948155,,4.263256414560601e-14,2.842170943040401e-14,0.0,0.0,0.0,0.0
2025/04/11 11:15:55.833715330,1744362955,315653466,,1.4210854715202004e-14,-1.4210854715202004e-14,0.0,0.0,0.0,0.0
2025/04/11 11:15:55.843755756,1744362955,342341633,,8.526512829121202e-14,-2.8421709430404007e-13,0.0,0.0,0.0,5.684341886080801e-13
2025/04/11 11:15:55.891203444,1744362955,363735507,,-3.552713678800501e-14,-1.4210854715202004e-14,0.0,0.0,0.0,0.0
2025/04/11 11:15:55.892689072,1744362955,371154937,,1.4210854715202004e-14,1.4210854715202004e-14,0.0,0.0,0.0,5.684341886080802e-14
2025/04/11 11:15:55.974916117,1744362955,443462608,,1.4210854715202004e-14,1.4210854715202004e-14,0.0,0.0,0.0,1.1368683772161603e-13
2025/04/11 11:15:55.982144433,1744362955,457390231,,7.105427357601002e-13,-1.6200374375330284e-12,0.0,0.0,0.0,3.637978807091713e-12
2025/04/11 11:15:55.982325674,1744362955,477268694,,1.1013412404281553e-12,-9.663381206337363e-13,0.0,0.0,0.0,2.5011104298755527e-12
2025/04/11 11:15:55.997955180,1744362955,485369279,,8.526512829121202e-14,-4.263256414560601e-14,0.0,0.0,0.0,1.7053025658242404e-13
2025/04/11 11:15:56.12311751,1744362955,501143230,,-3.197442310920451e-13,4.973799150320701e-13,0.0,0.0,0.0,5.4569682106375694e-12
2025/04/11 11:15:56.45721915,1744362955,511194109,,2.842170943040401e-14,-2.842170943040401e-14,0.0,0.0,0.0,0.0
2025/04/11 11:15:56.87227638,1744362955,524280863,,-2.1316282072803006e-14,0.0,0.0,0.0,0.0,5.684341886080802e-14
2025/04/11 11:15:56.333565895,1744362955,562858223,,-0.5539244131412886,2.2595258997171186e-12,0.0,0.0,0.0,2.1600499167107046e-12
2025/04/11 11:15:56.333828897,1744362955,578078555,,5.186961971048731e-13,-2.1316282072803006e-13,0.0,0.0,0.0,1.1368683772161603e-12
2025/04/11 11:15:56.383186535,1744362955,600553160,,-1.1510792319313623e-12,-6.252776074688882e-13,0.0,0.0,0.0,7.389644451905042e-13
2025/04/11 11:15:56.401983421,1744362955,642863003,,5.684341886080802e-14,-1.4210854715202004e-14,0.0,0.0,0.0,5.684341886080802e-14
2025/04/11 11:15:56.477846950,1744362955,673505329,,0.0,0.0,0.0,0.0,0.0,1.1368683772161603e-13
2025/04/11 11:15:56.601300316,1744362955,847653795,,-1.0516032489249483e-12,2.74303146204322,0.0,0.0,0.0,1.4779288903810084e-12
2025/04/11 11:15:56.601575901,1744362955,858802798,,-1.4210854715202004e-14,0.0,0.0,0.0,0.0,0.0
2025/04/11 11:15:56.628373647,1744362955,871645062,,-4.263256414560601e-14,-1.4210854715202004e-14,0.0,0.0,0.0,0.0
2025/04/11 11:15:56.636747594,1744362955,890987422,,4.263256414560601e-13,4.263256414560601e-14,0.0,0.0,0.0,2.2737367544323206e-13
2025/04/11 11:15:56.724148457,1744362955,905268264,,-1.4210854715202004e-14,1.4210854715202004e-14,0.0,0.0,0.0,-5.684341886080802e-14
2025/04/11 11:15:56.737692812,1744362955,924371620,,2.842170943040401e-14,0.0,0.0,0.0,0.0,1.1368683772161603e-13
2025/04/11 11:15:56.759537517,1744362955,993599544,,9.947598300641403e-14,4.263256414560601e-14,0.0,0.0,0.0,1.1368683772161603e-13
2025/04/11 11:15:56.890451831,1744362956,7154477,,-4.831690603168681e-13,4.973799150320701e-13,0.0,0.0,0.0,1.9895196601282805e-12
2025/04/11 11:15:56.908426645,1744362956,23225036,,0.0,1.4210854715202004e-14,0.0,0.0,0.0,0.0
2025/04/11 11:15:56.908587121,1744362956,51644931,,1.4210854715202004e-14,0.0,0.0,0.0,0.0,0.0
2025/04/11 11:15:56.929363942,1744362956,90907233,,0.0,-2.842170943040401e-14,0.0,0.0,0.0,0.0
2025/04/11 11:15:56.939374150,1744362956,110044293,,-1.4210854715202004e-14,0.0,0.0,0.0,0.0,0.0
2025/04/11 11:15:56.939835334,1744362956,330836107,,-1.4210854715202004e-14,-5.684341886080802e-14,0.0,0.0,0.0,-5.684341886080802e-14
2025/04/11 11:15:56.944569727,1744362956,349134836,,2.842170943040401e-14,-1.4210854715202004e-14,0.0,0.0,0.0,-1.1368683772161603e-13
2025/04/11 11:15:56.972680365,1744362956,359194934,,0.0,0.0,0.0,0.0,0.0,1.1368683772161603e-13
2025/04/11 11:15:56.976085210,1744362956,390364882,,2.842170943040401e-14,0.0,0.0,0.0,0.0,0.0
2025/04/11 11:15:57.18792715,1744362956,402118121,,-9.947598300641403e-14,-1.8474111129762605e-13,0.0,0.0,0.0,1.1368683772161603e-13
2025/04/11 11:15:57.27196304,1744362956,411548837,,1.5631940186722204e-13,-2.0747847884194925e-12,0.0,0.0,0.0,4.490630090003833e-12
2025/04/11 11:15:57.54243352,1744362956,491319035,,1.7053025658242404e-13,-9.947598300641403e-14,0.0,0.0,0.0,5.684341886080801e-13
2025/04/11 11:15:57.86619226,1744362956,603181038,,-2.2737367544323206e-13,-4.263256414560601e-14,0.0,0.0,0.0,4.547473508864641e-13
2025/04/11 11:15:57.86856547,1744362956,613229373,,-3.524291969370097e-12,4.618527782440651e-12,0.0,0.0,0.0,1.9610979506978765e-11
2025/04/11 11:15:57.86996911,1744362956,620929128,,6.536993168992922e-13,-1.2079226507921703e-12,0.0,0.0,0.0,3.581135388230905e-12
2025/04/11 11:15:57.158395691,1744362956,643129453,,4.985167834092863e-11,-0.5782987898356566,0.0,0.0,0.0,-6.821210263296962e-13
2025/04/11 11:15:57.160417997,1744362956,651336083,,-2.842170943040401e-14,-1.4210854715202004e-14,0.0,0.0,0.0,0.0
2025/04/11 11:15:57.188714602,1744362956,744409296,,0.0,4.405364961712621e-12,0.0,0.0,0.0,-4.520270423582247
2025/04/11 11:15:57.224554341,1744362956,759440571,,0.0,0.0,0.0,0.0,0.0,0.0
2025/04/11 11:15:57.423648828,1744362956,921211556,,1.4210854715202004e-14,0.0,0.0,0.0,0.0,-5.684341886080802e-14
2025/04/11 11:15:57.533482937,1744362956,939565729,,0.0,-2.842170943040401e-14,0.0,0.0,0.0,0.0
2025/04/11 11:15:57.533702978,1744362956,955594566,,-2.842170943040401e-14,-1.4210854715202004e-14,0.0,0.0,0.0,1.1368683772161603e-13
2025/04/11 11:15:57.546359508,1744362956,974476726,,0.0,0.0,0.0,0.0,0.0,0.0
2025/04/11 11:15:57.547540515,1744362956,990990930,,-1.4210854715202004e-14,0.0,0.0,0.0,0.0,0.0
2025/04/11 11:15:57.553958646,1744362957,7639646,,0.0,-1.4210854715202004e-14,0.0,0.0,0.0,5.684341886080802e-14
2025/04/11 11:15:57.569554817,1744362957,33874249,,0.0,1.4210854715202004e-14,0.0,0.0,0.0,0.0
2025/04/11 11:15:57.570243865,1744362957,60498872,,5.684341886080802e-14,2.842170943040401e-14,0.0,0.0,0.0,0.0
2025/04/11 11:15:57.595682628,1744362957,76649567,,0.0,0.0,0.0,0.0,0.0,-5.684341886080802e-14
2025/04/11 11:15:57.619224134,1744362957,94188904,,1.4210854715202004e-14,1.4210854715202004e-14,0.0,0.0,0.0,1.1368683772161603e-13
2025/04/11 11:15:57.652626083,1744362957,109298970,,0.0,0.0,0.0,0.0,0.0,1.1368683772161603e-13
2025/04/11 11:15:57.688794776,1744362957,194570505,,-1.1368683772161603e-13,1.8474111129762605e-13,0.0,0.0,0.0,7.958078640513122e-13
2025/04/11 11:15:57.698051153,1744362957,207261496,,0.0,-2.842170943040401e-14,0.0,0.0,0.0,1.1368683772161603e-13
2025/04/11 11:15:57.700378155,1744362957,227128753,,-4.263256414560601e-14,7.105427357601002e-14,0.0,0.0,0.0,-1.1368683772161603e-13
2025/04/11 11:15:57.704359448,1744362957,260391469,,1.4210854715202004e-14,2.842170943040401e-14,0.0,0.0,0.0,0.0
2025/04/11 11:15:57.736945665,1744362957,523278574,,7.105427357601002e-14,2.842170943040401e-14,0.0,0.0,0.0,0.0
2025/04/11 11:15:57.743153707,1744362957,535076881,,4.263256414560601e-13,6.679101716144942e-13,0.0,0.0,0.0,1.4779288903810084e-12
2025/04/11 11:15:57.748413576,1744362957,549894985,,-2.842170943040401e-14,-8.668621376273222e-13,0.0,0.0,0.0,1.8189894035458565e-12
2025/04/11 11:15:57.789350434,1744362957,567811831,,4.263256414560601e-14,1.4210854715202004e-14,0.0,0.0,0.0,0.0
2025/04/11 11:15:57.816500738,1744362957,582917051,,7.105427357601002e-14,9.947598300641403e-14,0.0,0.0,0.0,3.410605131648481e-13
2025/04/11 11:15:57.828159389,1744362957,604206726,,7.389644451905042e-12,-1.4637180356658064e-12,0.0,0.0,0.0,4.058620106661692e-11
2025/04/11 11:15:57.859242165,1744362957,673511981,,-4.263256414560601e-14,-1.4210854715202004e-14,0.0,0.0,0.0,0.0
2025/04/11 11:15:57.869632108,1744362957,694605779,,8.526512829121202e-14,-1.4210854715202004e-14,0.0,0.0,0.0,2.2737367544323206e-13
2025/04/11 11:15:57.878674165,1744362957,707834612,,2.842170943040401e-14,-4.263256414560601e-14,0.0,0.0,0.0,2.2737367544323206e-13
2025/04/11 11:15:57.896061596,1744362957,735994282,,-6.110667527536862e-13,3.836930773104541e-13,0.0,0.0,0.0,1.8189894035458565e-12
2025/04/11 11:15:57.900909515,1744362957,756601503,,4.263256414560601e-14,-1.4210854715202004e-14,0.0,0.0,0.0,0.0
2025/04/11 11:15:57.910097059,1744362957,778443151,,1.4210854715202004e-14,-4.263256414560601e-14,0.0,0.0,0.0,1.1368683772161603e-13
2025/04/11 11:15:57.913422671,1744362957,797890341,,2.842170943040401e-14,-7.105427357601002e-14,0.0,0.0,0.0,0.0
2025/04/11 11:15:57.922147013,1744362957,821192616,,2.842170943040401e-14,-1.4210854715202004e-14,0.0,0.0,0.0,0.0
2025/04/11 11:15:57.929726914,1744362957,833747953,,1.4210854715202004e-14,-2.842170943040401e-14,0.0,0.0,0.0,1.1368683772161603e-13
2025/04/11 11:15:57.934426760,1744362957,847307654,,1.4210854715202004e-14,-1.4210854715202004e-14,0.0,0.0,0.0,1.1368683772161603e-13
2025/04/11 11:15:57.949573982,1744362957,877921246,,1.0931977867352742,-7.673861546209082e-13,0.0,0.0,0.0,1.864464138634503e-11
2025/04/11 11:15:57.952034478,1744362957,891930301,,0.0,2.842170943040401e-14,0.0,0.0,0.0,0.0
2025/04/11 11:15:57.959273345,1744362957,904429693,,1.4210854715202004e-14,0.0,0.0,0.0,0.0,0.0
2025/04/11 11:15:57.964787113,1744362957,919489715,,0.0,-2.842170943040401e-14,0.0,0.0,0.0,0.0
2025/04/11 11:15:57.984315756,1744362957,939152539,,-1.4210854715202004e-14,0.0,0.0,0.0,0.0,0.0
2025/04/11 11:15:57.996810261,1744362957,962333337,,0.0,-1.4210854715202004e-14,0.0,0.0,0.0,0.0
2025/04/11 11:15:58.11196340,1744362957,977217270,,-1.4210854715202004e-14,-1.4210854715202004e-14,0.0,0.0,0.0,0.0
2025/04/11 11:15:58.29513502,1744362957,995834051,,2.6716406864579767e-12,-1.9895196601282805e-13,0.0,0.0,0.0,4.092726157978177e-11
2025/04/11 11:15:58.45203972,1744362958,11061457,,-1.4210854715202004e-14,-3.126388037344441e-13,0.0,0.0,0.0,3.410605131648481e-13
2025/04/11 11:15:58.56877198,1744362958,23380780,,1.9895196601282805e-13,-5.684341886080802e-14,0.0,0.0,0.0,2.2737367544323206e-13
2025/04/11 11:15:58.66990611,1744362958,35394286,,0.0,-2.842170943040401e-14,0.0,0.0,0.0,0.0
2025/04/11 11:15:58.77098974,1744362958,51406395,,9.947598300641403e-14,-1.4210854715202004e-13,0.0,0.0,0.0,3.410605131648481e-13
2025/04/11 11:15:58.89352396,1744362958,62482775,,-2.842170943040401e-14,4.263256414560601e-14,0.0,0.0,0.0,0.0
2025/04/11 11:15:58.93746232,1744362958,78334543,,-1.4210854715202004e-14,-1.4210854715202004e-14,0.0,0.0,0.0,3.410605131648481e-13
2025/04/11 11:15:58.97225390,1744362958,90503188,,2.842170943040401e-14,4.263256414560601e-14,0.0,0.0,0.0,0.0
2025/04/11 11:15:58.106594863,1744362958,103535842,,-2.842170943040401e-14,-9.947598300641403e-14,0.0,0.0,0.0,0.0
2025/04/11 11:15:58.113612912,1744362958,112959060,,2.842170943040401e-14,7.105427357601002e-14,0.0,0.0,0.0,0.0
2025/04/11 11:15:58.123752004,1744362958,123310597,,0.0,-2.842170943040401e-14,0.0,0.0,0.0,1.1368683772161603e-13
2025/04/11 11:15:58.136692211,1744362958,135372720,,5.684341886080802e-14,2.842170943040401e-14,0.0,0.0,0.0,-1.1368683772161603e-13
2025/04/11 11:15:58.146633355,1744362958,144876564,,1.9610979506978765e-12,-3.211653165635653e-12,0.0,0.0,0.0,1.0686562745831907e-11
2025/04/11 11:15:58.158400987,1744362958,155127959,,1.4210854715202004e-14,0.0,0.0,0.0,0.0,-1.1368683772161603e-13
2025/04/11 11:15:58.174795855,1744362958,168822908,,-5.684341886080802e-14,5.684341886080802e-14,0.0,0.0,0.0,1.1368683772161603e-13
2025/04/11 11:15:58.185362644,1744362958,178951419,,0.0,0.0,0.0,0.0,0.0,0.0
2025/04/11 11:15:58.202501557,1744362958,201574421,,-0.2747953037558801,4.671929749753986,0.0,0.0,0.0,0.0
2025/04/11 11:15:58.212279831,1744362958,212125960,,9.947598300641403e-14,3.410605131648481e-13,0.0,0.0,0.0,1.3642420526593924e-11
2025/04/11 11:15:58.224398358,1744362958,220986008,,-4.263256414560601e-14,-4.263256414560601e-14,0.0,0.0,0.0,0.0
2025/04/11 11:15:58.236780527,1744362958,234430745,,-7.105427357601002e-14,7.105427357601002e-14,0.0,0.0,0.0,0.0
2025/04/11 11:15:58.244755531,1744362958,244037746,,1.1368683772161603e-13,0.0,0.0,0.0,0.0,2.2737367544323206e-13
2025/04/11 11:15:58.253761499,1744362958,253012028,,-5.684341886080802e-14,1.4210854715202004e-14,0.0,0.0,0.0,5.684341886080801e-13
2025/04/11 11:15:58.266176598,1744362958,263774777,,-1.4210854715202004e-14,1.4210854715202004e-14,0.0,0.0,0.0,-2.2737367544323206e-13
2025/04/11 11:15:58.285319945,1744362958,284029273,,-0.26618481108444314,4.74788476041094,0.0,0.0,0.0,0.0
2025/04/11 11:15:58.296772629,1744362958,296068900,,1.7053025658242404e-13,-1.1937117960769683e-12,0.0,0.0,0.0,3.069544618483633e-12
2025/04/11 11:15:58.307009054,1744362958,306738320,,4.831690603168681e-13,-1.1368683772161603e-13,0.0,0.0,0.0,2.1600499167107046e-12
2025/04/11 11:15:58.317409032,1744362958,316786413,,1.2505552149377763e-12,-6.252776074688882e-13,0.0,0.0,0.0,3.296918293926865e-12
2025/04/11 11:15:58.326465011,1744362958,325801890,,2.4158453015843406e-13,-1.8474111129762605e-13,0.0,0.0,0.0,7.958078640513122e-13
2025/04/11 11:15:58.344502935,1744362958,343901286,,1.9895196601282805e-13,-5.684341886080802e-14,0.0,0.0,0.0,3.410605131648481e-13
2025/04/11 11:15:58.355202697,1744362958,354302498,,5.684341886080802e-14,1.4210854715202004e-14,0.0,0.0,0.0,2.2737367544323206e-13
2025/04/11 11:15:58.366015558,1744362958,363315881,,2.842170943040401e-14,-2.842170943040401e-14,0.0,0.0,0.0,0.0
2025/04/11 11:15:58.376123490,1744362958,375551471,,-1.2789769243681803e-13,1.5631940186722204e-13,0.0,0.0,0.0,2.2737367544323206e-13
2025/04/11 11:15:58.386460069,1744362958,384508463,,-1.4210854715202004e-14,0.0,0.0,0.0,0.0,0.0
2025/04/11 11:15:58.402440327,1744362958,396995462,,-1.4210854715202004e-14,8.526512829121202e-14,0.0,0.0,0.0,7.958078640513122e-13
2025/04/11 11:15:58.414537635,1744362958,412269249,,2.842170943040401e-14,-1.4210854715202004e-14,0.0,0.0,0.0,0.0
2025/04/11 11:15:58.428588166,1744362958,427658212,,-2.842170943040401e-14,-4.263256414560601e-14,0.0,0.0,0.0,0.0
2025/04/11 11:15:58.437854308,1744362958,437024975,,1.4210854715202004e-14,2.842170943040401e-14,0.0,0.0,0.0,0.0
2025/04/11 11:15:58.447722792,1744362958,446980180,,-2.7426949600339867e-12,3.396394276933279e-12,0.0,0.0,0.0,7.16227077646181e-12
2025/04/11 11:15:58.457005173,1744362958,455942923,,9.947598300641403e-14,1.7053025658242404e-13,0.0,0.0,0.0,1.1368683772161603e-13
2025/04/11 11:15:58.466712503,1744362958,466432049,,-1.7053025658242404e-13,1.5631940186722204e-13,0.0,0.0,0.0,2.2737367544323206e-13
2025/04/11 11:15:58.489033297,1744362958,485499723,,9.947598300641403e-14,2.842170943040401e-14,0.0,0.0,0.0,0.0
2025/04/11 11:15:58.506791416,1744362958,498308678,,-2.842170943040401e-14,1.4210854715202004e-14,0.0,0.0,0.0,1.1368683772161603e-13
2025/04/11 11:15:58.528512795,1744362958,525292525,,1.9326762412674725e-12,-5.376123495343293,0.0,0.0,0.0,-1.1368683772161603e-12
2025/04/11 11:15:58.542360868,1744362958,539985306,,1.1084466677857563e-12,-3.694822225952521e-13,0.0,0.0,0.0,2.1600499167107046e-12
2025/04/11 11:15:58.555780172,1744362958,549907072,,-2.842170943040401e-14,-5.684341886080802e-14,0.0,0.0,0.0,0.0
2025/04/11 11:15:58.576969619,1744362958,565525412,,1.9468870959826745e-12,-3.268496584496461e-12,0.0,0.0,0.0,1.057287590811029e-11
2025/04/11 11:15:58.582742157,1744362958,575727970,,0.0,1.4210854715202004e-14,0.0,0.0,0.0,0.0
2025/04/11 11:15:58.594674581,1744362958,584369313,,-2.842170943040401e-14,-4.263256414560601e-14,0.0,0.0,0.0,0.0
2025/04/11 11:15:58.617108916,1744362958,610042237,,-2.4158453015843406e-13,2.7000623958883807e-13,0.0,0.0,0.0,3.410605131648481e-13
2025/04/11 11:15:58.636614790,1744362958,624571273,,-1.4210854715202004e-14,1.4210854715202004e-14,0.0,0.0,0.0,0.0
2025/04/11 11:15:58.652956928,1744362958,644361527,,2.842170943040401e-14,-4.263256414560601e-14,0.0,0.0,0.0,0.0
2025/04/11 11:15:58.672679297,1744362958,667896031,,2.842170943040401e-14,2.842170943040401e-14,0.0,0.0,0.0,1.1368683772161603e-13
2025/04/11 11:15:58.688948710,1744362958,681746658,,-2.842170943040401e-14,-2.842170943040401e-14,0.0,0.0,0.0,0.0
2025/04/11 11:15:58.727546083,1744362958,702875248,,5.684341886080802e-14,5.684341886080802e-14,0.0,0.0,0.0,1.1368683772161603e-13
2025/04/11 11:15:58.743912463,1744362958,717876686,,1.4210854715202004e-14,1.4210854715202004e-14,0.0,0.0,0.0,-1.1368683772161603e-13
2025/04/11 11:15:58.745890189,1744362958,735993716,,3.922195901395753e-12,-1.0373923942097463e-12,0.0,0.0,0.0,7.73070496506989e-12
2025/04/11 11:15:58.756354406,1744362958,746906845,,1.4210854715202004e-14,1.4210854715202004e-14,0.0,0.0,0.0,1.1368683772161603e-13
2025/04/11 11:15:58.764829297,1744362958,760544538,,-4.263256414560601e-14,-2.842170943040401e-14,0.0,0.0,0.0,0.0
2025/04/11 11:15:58.790604494,1744362958,775323904,,7.105427357601002e-14,-4.263256414560601e-14,0.0,0.0,0.0,3.410605131648481e-13
2025/04/11 11:15:58.793953881,1744362958,783576823,,-2.842170943040401e-14,-1.4210854715202004e-14,0.0,0.0,0.0,1.1368683772161603e-13
2025/04/11 11:15:58.817470446,1744362958,816322740,,-2.043401827744731,-4.405364961712621e-13,0.0,0.0,0.0,-2.2737367544323206e-13
2025/04/11 11:15:58.838486007,1744362958,833459260,,0.0,-1.4210854715202004e-14,0.0,0.0,0.0,2.2737367544323206e-13
2025/04/11 11:15:58.854876066,1744362958,850504607,,0.0,-2.842170943040401e-14,0.0,0.0,0.0,0.0
2025/04/11 11:15:58.864313969,1744362958,864005253,,-8.526512829121202e-14,1.4210854715202004e-13,0.0,0.0,0.0,0.0
2025/04/11 11:15:58.875973075,1744362958,875497716,,1.1368683772161603e-13,-2.842170943040401e-14,0.0,0.0,0.0,6.821210263296962e-13
2025/04/11 11:15:58.886880029,1744362958,884414036,,2.842170943040401e-14,-7.105427357601002e-14,0.0,0.0,0.0,3.410605131648481e-13
2025/04/11 11:15:58.893450737,1744362958,892950186,,4.263256414560601e-13,-1.5631940186722204e-13,0.0,0.0,0.0,1.7053025658242404e-12
2025/04/11 11:15:58.902553405,1744362958,900809802,,2.8421709430404007e-13,-8.526512829121202e-14,0.0,0.0,0.0,1.3642420526593924e-12
2025/04/11 11:15:58.909804833,1744362958,908518949,,8.526512829121202e-13,-2.8421709430404007e-13,0.0,0.0,0.0,3.410605131648481e-12
2025/04/11 11:15:58.921456070,1744362958,916694165,,1.9895196601282805e-13,-7.105427357601002e-14,0.0,0.0,0.0,7.958078640513122e-13
2025/04/11 11:15:58.937257366,1744362958,926218038,,8.526512829121202e-14,-2.842170943040401e-14,0.0,0.0,0.0,4.547473508864641e-13
2025/04/11 11:15:58.943884291,1744362958,934274654,,5.684341886080802e-14,-1.4210854715202004e-14,0.0,0.0,0.0,1.1368683772161603e-13
2025/04/11 11:15:58.951467983,1744362958,944125989,,5.684341886080802e-14,-2.842170943040401e-14,0.0,0.0,0.0,0.0
2025/04/11 11:15:58.961560660,1744362958,957552146,,-9.947598300641403e-14,2.1316282072803006e-13,0.0,0.0,0.0,1.0231815394945443e-12
2025/04/11 11:15:58.970705732,1744362958,968467182,,2.0321522242738865e-12,-6.821210263296962e-13,0.0,0.0,0.0,3.865352482534945e-12
2025/04/11 11:15:58.993449543,1744362958,983025942,,3.225864020350855e-12,-8.668621376273222e-13,0.0,0.0,0.0,3.637978807091713e-12
2025/04/11 11:15:59.13588520,1744362958,996292157,,2.3291590878216084e-11,-8.000711204658728e-12,0.0,0.0,0.0,5.1727511163335294e-11
2025/04/11 11:15:59.13707566,1744362959,5766896,,1.4210854715202004e-14,2.842170943040401e-14,0.0,0.0,0.0,0.0
2025/04/11 11:15:59.16896140,1744362959,14465359,,2.1316282072803006e-13,-1.4210854715202004e-13,0.0,0.0,0.0,9.094947017729282e-13
2025/04/11 11:15:59.49094975,1744362959,39991305,,1.1758061191358138e-10,-7.388274878714398,0.0,0.0,0.0,-7.582912076031789e-11
2025/04/11 11:15:59.67181004,1744362959,63243360,,1.7053025658242404e-13,-0.11654785157990943,0.0,0.0,0.0,6.821210263296962e-13
2025/04/11 11:15:59.94932389,1744362959,77618799,,2.842170943040401e-14,0.0,0.0,0.0,0.0,1.1368683772161603e-13
2025/04/11 11:15:59.100970118,1744362959,94627204,,-2.842170943040401e-14,-2.842170943040401e-14,0.0,0.0,0.0,0.0
2025/04/11 11:15:59.108640221,1744362959,106584164,,-1.4210854715202004e-14,2.842170943040401e-14,0.0,0.0,0.0,0.0
2025/04/11 11:15:59.140786566,1744362959,124867128,,9.947598300641403e-13,-4.689582056016661e-13,0.0,0.0,0.0,1.1368683772161603e-12
2025/04/11 11:15:59.147754208,1744362959,144123135,,2.842170943040401e-14,1.4210854715202004e-14,0.0,0.0,0.0,1.1368683772161603e-13
2025/04/11 11:15:59.179480389,1744362959,167439979,,2.842170943040401e-14,0.0,0.0,0.0,0.0,0.0
2025/04/11 11:15:59.203095020,1744362959,184874733,,-5.684341886080802e-14,-7.105427357601002e-14,0.0,0.0,0.0,0.0
2025/04/11 11:15:59.221484468,1744362959,203992578,,3.836930773104541e-13,-1.4210854715202004e-13,0.0,0.0,0.0,9.094947017729282e-13
