time,header_stamp_secs,header_stamp_nsecs,header_frame_id,wrench_force_x,wrench_force_y,wrench_force_z,wrench_torque_x,wrench_torque_y,wrench_torque_z
2025/04/11 11:15:44.873552209,1744362944,872261651,,1.1479437019748901e-41,0.0,0.0,0.0,0.0,0.0
2025/04/11 11:15:44.972179933,1744362944,971618591,,1.1479437019748901e-41,0.0,0.0,0.0,0.0,0.0
2025/04/11 11:15:45.25716372,1744362945,24132085,,1.1479437019748901e-41,0.0,0.0,0.0,0.0,0.0
2025/04/11 11:15:45.120534508,1744362945,120161967,,1.1479437019748901e-41,0.0,0.0,0.0,0.0,0.0
2025/04/11 11:15:45.226208134,1744362945,222530981,,1.1479437019748901e-41,0.0,0.0,0.0,0.0,0.0
2025/04/11 11:15:45.273373942,1744362945,273057259,,1.1479437019748901e-41,0.0,0.0,0.0,0.0,0.0
2025/04/11 11:15:45.331129365,1744362945,330847256,,1.1479437019748901e-41,0.0,0.0,0.0,0.0,0.0
2025/04/11 11:15:45.425815332,1744362945,425478705,,1.1479437019748901e-41,0.0,0.0,0.0,0.0,0.0
2025/04/11 11:15:45.522541984,1744362945,522262938,,1.1479437019748901e-41,0.0,0.0,0.0,0.0,0.0
2025/04/11 11:15:45.624658837,1744362945,624118810,,1.1479437019748901e-41,0.0,0.0,0.0,0.0,0.0
2025/04/11 11:15:45.723062598,1744362945,722797128,,1.1479437019748901e-41,0.0,0.0,0.0,0.0,0.0
2025/04/11 11:15:45.775681327,1744362945,775366250,,1.1479437019748901e-41,0.0,0.0,0.0,0.0,0.0
2025/04/11 11:15:45.826194819,1744362945,824930594,,1.1479437019748901e-41,0.0,0.0,0.0,0.0,0.0
2025/04/11 11:15:45.877559213,1744362945,876953535,,1.1479437019748901e-41,0.0,0.0,0.0,0.0,0.0
2025/04/11 11:15:45.936151449,1744362945,935680746,,1.1479437019748901e-41,0.0,0.0,0.0,0.0,0.0
2025/04/11 11:15:45.948336994,1744362945,947972574,,-1.214306433183765e-17,9.540979117872439e-18,0.0,0.0,0.0,-0.7342110872268677
2025/04/11 11:15:45.970613192,1744362945,966676144,,-2.7755575615628914e-16,-2.220446049250313e-16,0.0,0.0,0.0,-6.513452529907227
2025/04/11 11:15:45.984844894,1744362945,984143389,,-8.673617379884035e-18,-3.903127820947816e-17,0.0,0.0,0.0,-0.7342110872268678
2025/04/11 11:15:45.995672500,1744362945,995234267,,5.551115123125783e-17,-1.1102230246251565e-16,0.0,0.0,0.0,-6.513452529907226
2025/04/11 11:15:46.21934872,1744362946,21444079,,2.7755575615628914e-17,2.0816681711721685e-17,0.0,0.0,0.0,-0.7342110872268673
2025/04/11 11:15:46.44047749,1744362946,43665320,,8.68539643180679e-24,1.0107113109632307e-23,0.0,0.0,0.0,-1.6272477955902156e-20
2025/04/11 11:15:46.52319736,1744362946,51732915,,4.2611200019567593e-32,-7.583349156024741e-33,0.0,0.0,0.0,-6.232896708670133e-29
2025/04/11 11:15:46.266960553,1744362946,96716930,,1.0772303699332369e-36,-1.432633740064663e-38,0.0,0.0,0.0,3.320400525668484e-34
2025/04/11 11:15:46.267115710,1744362946,145382337,,-2.7550648847397363e-40,-1.1938614500538858e-39,0.0,0.0,0.0,1.9267087093946556e-37
2025/04/11 11:15:46.267708318,1744362946,209265022,,2.168404344971009e-17,3.642919299551295e-17,0.0,0.0,0.0,-0.7342110872268675
2025/04/11 11:15:46.270623226,1744362946,219628551,,-6.661338147750939e-16,0.0,0.0,0.0,0.0,-12.292695045471193
2025/04/11 11:15:46.270964269,1744362946,229452199,,-2.220446049250313e-16,2.220446049250313e-16,0.0,0.0,0.0,-18.071935653686523
2025/04/11 11:15:46.271090183,1744362946,245458071,,-8.881784197001252e-16,-1.0482770207431713e-10,0.0,0.0,0.0,-25.084431203490084
2025/04/11 11:15:46.271219541,1744362946,253454134,,-2.220446049250313e-16,-7.771561172376096e-16,0.0,0.0,0.0,-18.07193565368652
2025/04/11 11:15:46.276514303,1744362946,276131766,,7.216449660063518e-16,3.424999173162746e-10,0.0,0.0,0.0,-12.385421324758253
2025/04/11 11:15:46.284843717,1744362946,284596888,,3.0531133177191805e-16,-7.216449660063518e-16,0.0,0.0,0.0,-18.071935653686523
2025/04/11 11:15:46.294437318,1744362946,293941762,,6.106226635438361e-16,-1.1102230246251565e-15,0.0,0.0,0.0,-12.292695045471193
2025/04/11 11:15:46.304272329,1744362946,303999974,,-4.440892098500626e-16,-3.885780586188048e-16,0.0,0.0,0.0,-18.07193565368652
2025/04/11 11:15:46.312424317,1744362946,312186350,,5.551115123125783e-16,3.3306690738754696e-16,0.0,0.0,0.0,-23.851177215576172
2025/04/11 11:15:46.321708438,1744362946,321438999,,1.1102230246251565e-15,-6.661338147750939e-16,0.0,0.0,0.0,-29.630420684814457
2025/04/11 11:15:46.331673010,1744362946,331419728,,-1.5543122344752192e-15,1.7763568394002505e-15,0.0,0.0,0.0,-35.409664154052734
2025/04/11 11:15:46.341287464,1744362946,339818177,,1.1102230246251565e-15,2.220446049250313e-16,0.0,0.0,0.0,-41.18890380859376
2025/04/11 11:15:46.348040870,1744362946,347787405,,8.881784197001252e-16,-2.220446049250313e-15,0.0,0.0,0.0,-46.96814727783204
2025/04/11 11:15:46.356493437,1744362946,356147886,,-1.7763568394002505e-15,-4.440892098500626e-16,0.0,0.0,0.0,-52.74739074707027
2025/04/11 11:15:46.365895763,1744362946,365592670,,-8.881784197001252e-16,-8.881784197001252e-16,0.0,0.0,0.0,-58.526626586912634
2025/04/11 11:15:46.378470291,1744362946,377980373,,-3.552713678800501e-15,0.0,0.0,0.0,0.0,-64.30587005615234
2025/04/11 11:15:46.390492143,1744362946,388802264,,1.7763568394002505e-15,-2.6645352591003757e-15,0.0,0.0,0.0,-70.08511352539062
2025/04/11 11:15:46.398879629,1744362946,398375694,,1.7763568394002505e-15,2.6645352591003757e-15,0.0,0.0,0.0,-75.86435699462886
2025/04/11 11:15:46.407313766,1744362946,406934856,,-4.440892098500626e-15,8.881784197001252e-16,0.0,0.0,0.0,-81.64360046386719
2025/04/11 11:15:46.418445687,1744362946,418103993,,3.552713678800501e-15,4.440892098500626e-15,0.0,0.0,0.0,-87.42283630371085
2025/04/11 11:15:46.429451862,1744362946,429163475,,-2.6645352591003757e-15,3.552713678800501e-15,0.0,0.0,0.0,-93.20207977294919
2025/04/11 11:15:46.442348626,1744362946,441941347,,1.7763568394002505e-15,-8.881784197001252e-16,0.0,0.0,0.0,-98.98132324218744
2025/04/11 11:15:46.452707753,1744362946,452429611,,-8.881784197001252e-16,2.6645352591003757e-15,0.0,0.0,0.0,-104.76056671142577
2025/04/11 11:15:46.464839875,1744362946,464573741,,1.7763568394002505e-15,-4.440892098500626e-15,0.0,0.0,0.0,-110.539810180664
2025/04/11 11:15:46.489252251,1744362946,485483235,,1.580957587066223e-13,3.977982387937118e-10,0.0,0.0,0.0,-101.9079724001944
2025/04/11 11:15:46.507527808,1744362946,507128643,,3.2862601528904634e-14,1.5516476992161188e-11,0.0,0.0,0.0,-86.02072750662192
2025/04/11 11:15:46.523871431,1744362946,523583374,,4.384048679639818e-12,2.921300978897534e-09,0.0,0.0,0.0,-69.40530504177767
2025/04/11 11:15:46.548129957,1744362946,547769212,,5.52891066263328e-13,3.821452043695217e-10,0.0,0.0,0.0,-56.848280532784024
2025/04/11 11:15:46.573451959,1744362946,573102733,,7.771561172376096e-16,3.7556679988171027e-11,0.0,0.0,0.0,-39.01263286557227
2025/04/11 11:15:46.596362881,1744362946,595994519,,-1.6254553258931992e-11,8.171241461241152e-14,0.0,0.0,0.0,-20.310009187232218
2025/04/11 11:15:46.606105395,1744362946,605795340,,-4.440892098500626e-16,1.7763568394002505e-15,0.0,0.0,0.0,-6.513452529907225
2025/04/11 11:15:46.615781047,1744362946,615541505,,0.0,0.0,0.0,0.0,0.0,-0.7342110872268712
2025/04/11 11:15:46.623464748,1744362946,623151012,,0.0,-4.440892098500626e-16,0.0,0.0,0.0,-1.7763568394002505e-15
2025/04/11 11:15:46.633257729,1744362946,632923812,,0.0,4.440892098500626e-16,0.0,0.0,0.0,-0.7342110872268677
2025/04/11 11:15:46.643808110,1744362946,642799088,,0.0,0.0,0.0,0.0,0.0,-6.513452529907227
2025/04/11 11:15:46.653061800,1744362946,652800267,,0.0,-2.220446049250313e-16,0.0,0.0,0.0,-12.292695045471195
2025/04/11 11:15:46.662306374,1744362946,661998913,,6.661338147750939e-16,0.0,0.0,0.0,0.0,-6.513452529907227
2025/04/11 11:15:46.674118704,1744362946,671605589,,-1.1102230246251565e-15,0.0,0.0,0.0,0.0,-0.7342110872268686
2025/04/11 11:15:46.683679914,1744362946,683379015,,4.440892098500626e-16,0.0,0.0,0.0,0.0,0.0
2025/04/11 11:15:46.694283870,1744362946,694021821,,1.1102230246251565e-16,2.220446049250313e-16,0.0,0.0,0.0,-8.881784197001252e-16
2025/04/11 11:15:46.703117326,1744362946,702856755,,1.4475660719677984e-23,1.0339757656912846e-23,0.0,0.0,0.0,4.4634665853361373e-20
2025/04/11 11:15:46.827704814,1744362946,765691570,,-7.38594133672505e-32,-3.0911175607415135e-32,0.0,0.0,0.0,9.83944858931207e-27
2025/04/11 11:15:46.832618828,1744362946,832155712,,-9.987110207181544e-39,1.400491316409366e-38,0.0,0.0,0.0,-9.637887365941551e-34
2025/04/11 11:15:46.897024929,1744362946,896633831,,6.887662211849341e-41,4.591774807899561e-41,0.0,0.0,0.0,1.3775324423698682e-40
2025/04/11 11:15:46.985638531,1744362946,982141292,,4.591774807899561e-41,0.0,0.0,0.0,0.0,-4.591774807899561e-41
2025/04/11 11:15:47.35050539,1744362947,34651660,,0.0,2.2958874039497803e-41,0.0,0.0,0.0,0.0
2025/04/11 11:15:47.96714082,1744362947,96140039,,2.2958874039497803e-41,4.591774807899561e-41,0.0,0.0,0.0,4.591774807899561e-41
2025/04/11 11:15:47.185248368,1744362947,177019686,,4.591774807899561e-41,-2.2958874039497803e-41,0.0,0.0,0.0,4.591774807899561e-41
2025/04/11 11:15:47.258560095,1744362947,256222292,,4.591774807899561e-41,-2.2958874039497803e-41,0.0,0.0,0.0,4.591774807899561e-41
2025/04/11 11:15:47.315547186,1744362947,314978704,,-2.2958874039497803e-41,4.591774807899561e-41,0.0,0.0,0.0,-4.591774807899561e-41
2025/04/11 11:15:47.418554067,1744362947,412357039,,2.2958874039497803e-41,-4.591774807899561e-41,0.0,0.0,0.0,-4.591774807899561e-41
2025/04/11 11:15:47.518728350,1744362947,500806390,,-4.591774807899561e-41,2.2958874039497803e-41,0.0,0.0,0.0,-4.591774807899561e-41
2025/04/11 11:15:47.559695523,1744362947,559169878,,0.0,-4.591774807899561e-41,0.0,0.0,0.0,0.0
2025/04/11 11:15:47.664561931,1744362947,654976715,,2.2958874039497803e-41,0.0,0.0,0.0,0.0,0.0
2025/04/11 11:15:47.738474799,1744362947,737896732,,-2.2958874039497803e-41,2.2958874039497803e-41,0.0,0.0,0.0,4.591774807899561e-41
2025/04/11 11:15:47.871916733,1744362947,866786501,,0.0,0.0,0.0,0.0,0.0,0.0
2025/04/11 11:15:47.927246125,1744362947,926653835,,-6.887662211849341e-41,-2.2958874039497803e-41,0.0,0.0,0.0,9.183549615799121e-41
2025/04/11 11:15:47.962575966,1744362947,960790593,,6.071532165918825e-18,-2.7755575615628914e-17,0.0,0.0,0.0,-0.7342110872268677
2025/04/11 11:15:47.972646288,1744362947,971855552,,-5.551115123125783e-17,-7.771561172376096e-16,0.0,0.0,0.0,-6.513452529907227
2025/04/11 11:15:47.996472574,1744362947,995990393,,3.3306690738754696e-16,-7.771561172376096e-16,0.0,0.0,0.0,-12.292695045471191
2025/04/11 11:15:48.22823044,1744362948,22271411,,4.718447854656915e-16,-4.718447854656915e-16,0.0,0.0,0.0,-18.071935653686527
2025/04/11 11:15:48.42633723,1744362948,41948137,,1.6653345369377348e-16,-5.551115123125783e-16,0.0,0.0,0.0,-23.851177215576165
2025/04/11 11:15:48.56846959,1744362948,56406723,,-6.661338147750939e-16,-6.661338147750939e-16,0.0,0.0,0.0,-29.630420684814453
2025/04/11 11:15:48.75352449,1744362948,74919330,,6.106226635438361e-16,3.1086244689504383e-15,0.0,0.0,0.0,-35.40966415405273
2025/04/11 11:15:48.87539207,1744362948,87147472,,3.608224830031759e-15,1.9984014443252818e-15,0.0,0.0,0.0,-41.18890380859376
2025/04/11 11:15:48.98145365,1744362948,97814381,,-1.7208456881689926e-15,1.27675647831893e-15,0.0,0.0,0.0,-41.18890380859375
2025/04/11 11:15:48.113181020,1744362948,111428012,,8.881784197001252e-16,3.9968028886505635e-15,0.0,0.0,0.0,-46.968147277832024
2025/04/11 11:15:48.120723224,1744362948,120063677,,-5.551115123125783e-17,1.5543122344752192e-15,0.0,0.0,0.0,-41.18890380859375
2025/04/11 11:15:48.137352971,1744362948,133778124,,-2.220446049250313e-16,-6.661338147750939e-16,0.0,0.0,0.0,-46.968147277832045
2025/04/11 11:15:48.146283295,1744362948,145883585,,-2.4424906541753444e-15,1.2212453270876722e-15,0.0,0.0,0.0,-41.18890380859375
2025/04/11 11:15:48.156577549,1744362948,156062770,,1.1102230246251565e-16,1.7763568394002505e-15,0.0,0.0,0.0,-46.96814727783203
2025/04/11 11:15:48.168105310,1744362948,167473255,,1.1102230246251565e-15,1.6653345369377348e-15,0.0,0.0,0.0,-41.18890380859372
2025/04/11 11:15:48.186507927,1744362948,186192274,,-2.6645352591003757e-15,6.661338147750939e-16,0.0,0.0,0.0,-41.18890380859374
2025/04/11 11:15:48.260803562,1744362948,259697989,,-1.4432899320127035e-15,-1.6653345369377348e-16,0.0,0.0,0.0,-41.18890380859375
2025/04/11 11:15:48.269227883,1744362948,268747016,,1.1102230246251565e-16,-4.440892098500626e-16,0.0,0.0,0.0,-46.96814727783203
2025/04/11 11:15:48.421691828,1744362948,348032769,,3.885780586188048e-16,-1.3877787807814457e-15,0.0,0.0,0.0,-41.18890380859376
2025/04/11 11:15:48.433644738,1744362948,398236997,,-2.609024107869118e-15,3.3306690738754696e-16,0.0,0.0,0.0,-46.96814727783203
2025/04/11 11:15:48.454796867,1744362948,449403334,,-1.0547118733938987e-15,-3.219646771412954e-15,0.0,0.0,0.0,-52.74739074707032
2025/04/11 11:15:48.488856278,1744362948,481391001,,2.1094237467877974e-15,2.1094237467877974e-15,0.0,0.0,0.0,-58.526626586914055
2025/04/11 11:15:48.511088978,1744362948,507101192,,1.4432899320127035e-15,1.4432899320127035e-15,0.0,0.0,0.0,-52.74739074707032
2025/04/11 11:15:48.545766786,1744362948,544353688,,2.220446049250313e-16,-4.440892098500626e-15,0.0,0.0,0.0,-58.52662658691407
2025/04/11 11:15:48.572411371,1744362948,568152726,,-1.6653345369377348e-16,2.55351295663786e-15,0.0,0.0,0.0,-52.747390747070305
2025/04/11 11:15:48.583560753,1744362948,583116954,,-3.83026943495679e-15,1.7208456881689926e-15,0.0,0.0,0.0,-46.96814727783203
2025/04/11 11:15:48.602830797,1744362948,601953995,,1.4155343563970746e-15,1.4155343563970746e-15,0.0,0.0,0.0,-41.18890380859376
2025/04/11 11:15:48.629088493,1744362948,620449306,,1.7763568394002505e-15,1.27675647831893e-15,0.0,0.0,0.0,-46.96814727783203
2025/04/11 11:15:48.652266555,1744362948,651641616,,-2.220446049250313e-16,1.5543122344752192e-15,0.0,0.0,0.0,-41.18890380859375
2025/04/11 11:15:48.686313008,1744362948,682291378,,1.1102230246251565e-16,-1.4988010832439613e-15,0.0,0.0,0.0,-46.96814727783203
2025/04/11 11:15:48.698227856,1744362948,697526919,,-1.1102230246251565e-16,-2.886579864025407e-15,0.0,0.0,0.0,-41.18890380859375
2025/04/11 11:15:48.714994911,1744362948,714293793,,-2.831068712794149e-15,-1.7208456881689926e-15,0.0,0.0,0.0,-46.96814727783203
2025/04/11 11:15:48.731238162,1744362948,730895932,,-2.220446049250313e-16,4.440892098500626e-16,0.0,0.0,0.0,-41.18890380859374
2025/04/11 11:15:48.742342002,1744362948,741989249,,-2.9976021664879227e-15,3.3306690738754696e-16,0.0,0.0,0.0,-46.96814727783203
2025/04/11 11:15:48.751931482,1744362948,751396918,,-2.0261570199409107e-15,3.5110803153770576e-15,0.0,0.0,0.0,-41.18890380859375
2025/04/11 11:15:48.768822420,1744362948,768292448,,6.106226635438361e-16,-4.996003610813204e-16,0.0,0.0,0.0,-35.40966415405274
2025/04/11 11:15:48.780453531,1744362948,779936688,,-2.0539125955565396e-15,-1.1102230246251565e-16,0.0,0.0,0.0,-41.18890380859374
2025/04/11 11:15:48.794685903,1744362948,794255103,,2.192690473634684e-15,2.3314683517128287e-15,0.0,0.0,0.0,-35.40966415405274
2025/04/11 11:15:48.820504253,1744362948,819114749,,-8.881784197001252e-16,1.6653345369377348e-15,0.0,0.0,0.0,-41.188903808593714
2025/04/11 11:15:48.834067624,1744362948,830885933,,3.885780586188048e-16,-2.0539125955565396e-15,0.0,0.0,0.0,-35.409664154052734
2025/04/11 11:15:48.855828786,1744362948,851948881,,1.4432899320127035e-15,0.0,0.0,0.0,0.0,-41.18890380859375
2025/04/11 11:15:48.866310048,1744362948,863955285,,3.3306690738754696e-16,1.0547118733938987e-15,0.0,0.0,0.0,-35.40966415405274
2025/04/11 11:15:48.876085949,1744362948,875632399,,2.220446049250313e-16,5.551115123125783e-16,0.0,0.0,0.0,-41.18890380859375
2025/04/11 11:15:48.891275271,1744362948,890506686,,-3.3306690738754696e-16,-4.440892098500626e-16,0.0,0.0,0.0,-46.968147277832024
2025/04/11 11:15:48.906117843,1744362948,904562483,,1.7763568394002505e-15,-7.771561172376096e-16,0.0,0.0,0.0,-52.74739074707033
2025/04/11 11:15:48.918761013,1744362948,918275633,,-6.661338147750939e-16,1.9984014443252818e-15,0.0,0.0,0.0,-58.52662658691406
2025/04/11 11:15:48.931386051,1744362948,930451708,,0.0,4.440892098500626e-16,0.0,0.0,0.0,-64.30587005615234
2025/04/11 11:15:48.942955542,1744362948,942332639,,5.551115123125783e-16,1.5543122344752192e-15,0.0,0.0,0.0,-64.30587005615234
2025/04/11 11:15:48.990240322,1744362948,989786812,,-1.3322676295501878e-15,-2.220446049250313e-15,0.0,0.0,0.0,-64.30587005615233
2025/04/11 11:15:49.41642281,1744362949,41242703,,6.661338147750939e-16,1.2212453270876722e-15,0.0,0.0,0.0,-64.30587005615234
2025/04/11 11:15:49.97038820,1744362949,96518084,,1.3322676295501878e-15,1.3322676295501878e-15,0.0,0.0,0.0,-64.30587005615234
2025/04/11 11:15:49.151007141,1744362949,150384131,,5.551115123125783e-16,3.3306690738754696e-15,0.0,0.0,0.0,-64.30587005615233
2025/04/11 11:15:49.174347388,1744362949,172920775,,2.886579864025407e-15,-1.1102230246251565e-16,0.0,0.0,0.0,-58.526626586914055
2025/04/11 11:15:49.229049086,1744362949,216356499,,3.4416913763379853e-15,1.6653345369377348e-15,0.0,0.0,0.0,-64.30587005615234
2025/04/11 11:15:49.233960193,1744362949,228668098,,4.829470157119431e-15,-1.4988010832439613e-15,0.0,0.0,0.0,-58.52662658691407
2025/04/11 11:15:49.255069495,1744362949,242085702,,-4.440892098500626e-16,5.551115123125783e-15,0.0,0.0,0.0,-64.30587005615233
2025/04/11 11:15:49.256752595,1744362949,255673486,,7.771561172376096e-16,-2.220446049250313e-16,0.0,0.0,0.0,-58.52662658691407
2025/04/11 11:15:49.274232320,1744362949,271754863,,1.1102230246251565e-15,2.220446049250313e-16,0.0,0.0,0.0,-64.30587005615214
2025/04/11 11:15:49.287016856,1744362949,284714522,,-2.1094237467877974e-15,3.6637359812630166e-15,0.0,0.0,0.0,-58.52662658691406
2025/04/11 11:15:49.299041407,1744362949,296050968,,-2.220446049250313e-15,-3.552713678800501e-15,0.0,0.0,0.0,-64.30587005615234
2025/04/11 11:15:49.332842547,1744362949,332224207,,-5.551115123125783e-16,2.886579864025407e-15,0.0,0.0,0.0,-64.30587005615234
2025/04/11 11:15:49.368968332,1744362949,368091046,,2.220446049250313e-16,-3.3306690738754696e-15,0.0,0.0,0.0,-58.52662658691407
2025/04/11 11:15:49.395342856,1744362949,381450113,,-1.1102230246251565e-16,8.881784197001252e-16,0.0,0.0,0.0,-64.30587005615234
2025/04/11 11:15:49.410340369,1744362949,399280389,,2.6645352591003757e-15,-2.6645352591003757e-15,0.0,0.0,0.0,-58.52662658691406
2025/04/11 11:15:49.420570920,1744362949,413113704,,8.881784197001252e-16,-2.1094237467877974e-15,0.0,0.0,0.0,-64.30587005615234
2025/04/11 11:15:49.435188881,1744362949,432159329,,-3.219646771412954e-15,1.6653345369377348e-15,0.0,0.0,0.0,-70.08511352539065
2025/04/11 11:15:49.461402044,1744362949,452015302,,2.3314683517128287e-15,-7.771561172376096e-16,0.0,0.0,0.0,-64.30587005615234
2025/04/11 11:15:49.489135214,1744362949,488297482,,1.3322676295501878e-15,-1.4432899320127035e-15,0.0,0.0,0.0,-58.52662658691406
2025/04/11 11:15:49.523215605,1744362949,509532297,,-2.831068712794149e-15,-8.326672684688674e-16,0.0,0.0,0.0,-52.74739074707032
2025/04/11 11:15:49.534149406,1744362949,528491617,,1.3322676295501878e-15,-1.6653345369377348e-16,0.0,0.0,0.0,-46.968147277832024
2025/04/11 11:15:49.542069680,1744362949,540466212,,-4.440892098500626e-16,-1.7208456881689926e-15,0.0,0.0,0.0,-52.74739074707031
2025/04/11 11:15:49.564576580,1744362949,563691044,,-1.3322676295501878e-15,-1.4988010832439613e-15,0.0,0.0,0.0,-46.96814727783203
2025/04/11 11:15:49.580821268,1744362949,579328025,,3.1086244689504383e-15,-3.2751579226442118e-15,0.0,0.0,0.0,-41.18890380859376
2025/04/11 11:15:49.602743388,1744362949,601508309,,7.771561172376096e-16,-1.3322676295501878e-15,0.0,0.0,0.0,-35.40966415405272
2025/04/11 11:15:49.652270646,1744362949,651632188,,2.220446049250313e-15,-3.885780586188048e-16,0.0,0.0,0.0,-29.630420684814453
2025/04/11 11:15:49.677135212,1744362949,667270740,,9.992007221626409e-16,-9.71445146547012e-16,0.0,0.0,0.0,-23.851177215576175
2025/04/11 11:15:49.706395942,1744362949,703468839,,4.996003610813204e-16,-4.163336342344337e-17,0.0,0.0,0.0,-18.071935653686527
2025/04/11 11:15:49.717097707,1744362949,716626865,,4.163336342344337e-16,-8.604228440844963e-16,0.0,0.0,0.0,-23.851177215576172
2025/04/11 11:15:49.738103799,1744362949,737593753,,-3.3306690738754696e-16,1.1657341758564144e-15,0.0,0.0,0.0,-18.071935653686527
2025/04/11 11:15:49.755325291,1744362949,754531795,,7.077671781985373e-16,-1.3877787807814457e-16,0.0,0.0,0.0,-12.292695045471191
2025/04/11 11:15:49.776686377,1744362949,776130404,,1.5265566588595902e-16,-9.71445146547012e-17,0.0,0.0,0.0,-6.5134525299072275
2025/04/11 11:15:49.789741898,1744362949,788319590,,-9.421587176978985e-22,9.173432993213077e-22,0.0,0.0,0.0,-4.841153464540644e-16
2025/04/11 11:15:49.856241680,1744362949,814376670,,-9.98402083170343e-31,6.3902355554768486e-31,0.0,0.0,0.0,-3.8564122247914594e-25
2025/04/11 11:15:49.856497231,1744362949,840634562,,-3.8203566401724344e-38,4.408103815583578e-38,0.0,0.0,0.0,-2.592012651084352e-32
2025/04/11 11:15:49.856592430,1744362949,852212706,,5.831554006032442e-39,-2.8813386919569743e-39,0.0,0.0,0.0,2.3292374643795548e-33
2025/04/11 11:15:49.866044375,1744362949,863160015,,0.0,-1.1479437019748901e-41,0.0,0.0,0.0,4.591774807899561e-41
2025/04/11 11:15:49.914231627,1744362949,912309157,,-3.4438311059246704e-41,2.2958874039497803e-41,0.0,0.0,0.0,-4.591774807899561e-41
2025/04/11 11:15:49.944913463,1744362949,943083901,,-6.887662211849341e-41,1.1479437019748901e-41,0.0,0.0,0.0,-4.591774807899561e-41
2025/04/11 11:15:50.4239922,1744362950,3705547,,2.2958874039497803e-41,0.0,0.0,0.0,0.0,0.0
2025/04/11 11:15:50.112602513,1744362950,108852242,,2.2958874039497803e-41,2.2958874039497803e-41,0.0,0.0,0.0,9.183549615799121e-41
2025/04/11 11:15:50.188604160,1744362950,185325578,,0.0,0.0,0.0,0.0,0.0,-9.183549615799121e-41
2025/04/11 11:15:50.244845136,1744362950,225677732,,0.0,4.591774807899561e-41,0.0,0.0,0.0,-4.591774807899561e-41
2025/04/11 11:15:50.290451329,1744362950,287100095,,-1.1479437019748901e-41,1.1479437019748901e-41,0.0,0.0,0.0,9.183549615799121e-41
2025/04/11 11:15:50.358224239,1744362950,357218906,,4.591774807899561e-41,0.0,0.0,0.0,0.0,4.591774807899561e-41
2025/04/11 11:15:50.420768589,1744362950,420236665,,-4.591774807899561e-41,1.1479437019748901e-41,0.0,0.0,0.0,-1.3775324423698682e-40
2025/04/11 11:15:50.458530933,1744362950,457508879,,0.0,1.1479437019748901e-41,0.0,0.0,0.0,9.183549615799121e-41
2025/04/11 11:15:50.554007926,1744362950,546906718,,8.035605913824231e-41,-1.1479437019748901e-41,0.0,0.0,0.0,4.591774807899561e-41
2025/04/11 11:15:50.609306742,1744362950,596012928,,0.0,-2.2958874039497803e-41,0.0,0.0,0.0,4.591774807899561e-41
2025/04/11 11:15:50.684911697,1744362950,683452371,,-2.2958874039497803e-41,4.591774807899561e-41,0.0,0.0,0.0,4.591774807899561e-41
2025/04/11 11:15:50.776988600,1744362950,738099081,,5.739718509874451e-41,1.1479437019748901e-41,0.0,0.0,0.0,4.591774807899561e-41
2025/04/11 11:15:50.804222705,1744362950,799510602,,-2.2958874039497803e-41,-1.1479437019748901e-41,0.0,0.0,0.0,4.591774807899561e-41
2025/04/11 11:15:50.880168942,1744362950,858284665,,-3.4438311059246704e-41,0.0,0.0,0.0,0.0,0.0
2025/04/11 11:15:50.910448931,1744362950,909738142,,-1.1479437019748901e-41,2.2958874039497803e-41,0.0,0.0,0.0,4.591774807899561e-41
2025/04/11 11:15:50.938892736,1744362950,936878643,,9.540979117872439e-18,-4.5102810375396984e-17,0.0,0.0,0.0,-0.7342110872268678
2025/04/11 11:15:50.974682917,1744362950,974301555,,2.220446049250313e-16,-8.326672684688674e-17,0.0,0.0,0.0,-6.513452529907227
2025/04/11 11:15:50.998894024,1744362950,998064415,,-2.0816681711721685e-16,1.6653345369377348e-16,0.0,0.0,0.0,-12.29269504547119
2025/04/11 11:15:51.19159859,1744362951,18049736,,-8.326672684688674e-17,3.885780586188048e-16,0.0,0.0,0.0,-18.071935653686523
2025/04/11 11:15:51.70828369,1744362951,54050876,,1.3877787807814457e-17,-2.7755575615628914e-16,0.0,0.0,0.0,-12.292695045471193
2025/04/11 11:15:51.111357803,1744362951,86187186,,1.249000902703301e-16,-4.579669976578771e-16,0.0,0.0,0.0,-6.513452529907227
2025/04/11 11:15:51.122573218,1744362951,104776178,,1.6479873021779667e-17,-1.734723475976807e-17,0.0,0.0,0.0,-0.7342110872268677
2025/04/11 11:15:51.123529026,1744362951,121412316,,-4.2224985331417835e-23,3.5025929062792266e-24,0.0,0.0,0.0,-1.2828315588828815e-17
2025/04/11 11:15:51.152482384,1744362951,134973236,,-1.6479873021779667e-17,-5.204170427930421e-18,0.0,0.0,0.0,-0.7342110872268677
2025/04/11 11:15:51.184899992,1744362951,159991430,,6.938893903907228e-18,3.2959746043559335e-17,0.0,0.0,0.0,-0.7342110872268678
2025/04/11 11:15:51.189484703,1744362951,180087844,,6.938893903907228e-18,-5.204170427930421e-17,0.0,0.0,0.0,-0.7342110872268676
2025/04/11 11:15:51.201915088,1744362951,197760975,,-4.2500725161431774e-17,1.0408340855860843e-17,0.0,0.0,0.0,-0.7342110872268678
2025/04/11 11:15:51.244185629,1744362951,243543498,,3.2959746043559335e-17,-1.734723475976807e-18,0.0,0.0,0.0,-0.7342110872268678
2025/04/11 11:15:51.272426342,1744362951,269822876,,4.303924124689972e-24,-1.1309109937248425e-23,0.0,0.0,0.0,-2.039724858933901e-18
2025/04/11 11:15:51.285861566,1744362951,285143192,,-1.734723475976807e-17,-7.806255641895632e-18,0.0,0.0,0.0,-0.7342110872268677
2025/04/11 11:15:51.310085216,1744362951,303757941,,-6.687238264608383e-23,1.0223435383272576e-23,0.0,0.0,0.0,-1.0956066770268955e-17
2025/04/11 11:15:51.396756410,1744362951,382098883,,3.174775142700834e-34,-3.806720905702896e-34,0.0,0.0,0.0,-3.3496519890636256e-29
2025/04/11 11:15:51.436016746,1744362951,435492991,,6.465218929522581e-38,2.938735877055719e-38,0.0,0.0,0.0,-7.693246122883117e-33
2025/04/11 11:15:51.515130553,1744362951,513996975,,2.204051907791789e-39,-5.877471754111438e-39,0.0,0.0,0.0,-2.78057311215258e-34
2025/04/11 11:15:51.591327147,1744362951,544774733,,-1.3877787807814457e-17,6.678685382510707e-17,0.0,0.0,0.0,-0.7342110872268678
2025/04/11 11:15:51.600355206,1744362951,583534372,,-1.2656542480726785e-14,-3.214073451829336e-11,0.0,0.0,0.0,-16.542404400858096
2025/04/11 11:15:51.603444176,1744362951,597245963,,0.0,0.0,0.0,0.0,0.0,-41.18890380859375
2025/04/11 11:15:51.636915210,1744362951,626470043,,8.881784197001252e-16,0.0,0.0,0.0,0.0,-46.96814727783204
2025/04/11 11:15:51.688900029,1744362951,653909974,,0.0,-1.7763568394002505e-15,0.0,0.0,0.0,-52.74739074707031
2025/04/11 11:15:51.733492301,1744362951,670108188,,-1.9984014443252818e-15,2.220446049250313e-15,0.0,0.0,0.0,-58.526626586914055
2025/04/11 11:15:51.733789990,1744362951,683610379,,1.7763568394002505e-15,4.440892098500626e-16,0.0,0.0,0.0,-64.30587005615234
2025/04/11 11:15:51.733900799,1744362951,695262470,,-6.661338147750939e-16,-3.885780586188048e-15,0.0,0.0,0.0,-64.30587005615233
2025/04/11 11:15:51.760954232,1744362951,707548871,,-3.885780586188048e-15,3.0531133177191805e-15,0.0,0.0,0.0,-58.526626586913956
2025/04/11 11:15:51.793394673,1744362951,717674559,,1.3322676295501878e-15,-2.220446049250313e-15,0.0,0.0,0.0,-64.30587005615234
2025/04/11 11:15:51.793617448,1744362951,726647956,,1.9984014443252818e-15,2.220446049250313e-16,0.0,0.0,0.0,-58.52662658691406
2025/04/11 11:15:51.793730594,1744362951,738087996,,-2.55351295663786e-15,-2.7755575615628914e-15,0.0,0.0,0.0,-64.30587005615234
2025/04/11 11:15:51.797801666,1744362951,747926318,,5.662137425588298e-15,0.0,0.0,0.0,0.0,-58.52662658691405
2025/04/11 11:15:51.805847204,1744362951,759868313,,-1.3877787807814457e-15,1.1102230246251565e-16,0.0,0.0,0.0,-58.526626586914055
2025/04/11 11:15:51.815732975,1744362951,805887455,,-2.942091015256665e-15,-1.4432899320127035e-15,0.0,0.0,0.0,-58.52662658691406
2025/04/11 11:15:51.852830013,1744362951,851848374,,1.1657341758564144e-15,1.1102230246251565e-16,0.0,0.0,0.0,-58.52662658691406
2025/04/11 11:15:51.908630617,1744362951,903313413,,3.2751579226442118e-15,-3.1086244689504383e-15,0.0,0.0,0.0,-58.52662658691407
2025/04/11 11:15:51.978831650,1744362951,970042975,,8.881784197001252e-16,1.0547118733938987e-15,0.0,0.0,0.0,-52.74739074707031
2025/04/11 11:15:51.995671638,1744362951,990035045,,-1.1102230246251565e-16,7.216449660063518e-16,0.0,0.0,0.0,-46.968147277832024
2025/04/11 11:15:52.63640927,1744362952,32370425,,3.0531133177191805e-15,-8.326672684688674e-16,0.0,0.0,0.0,-46.968147277832024
2025/04/11 11:15:52.63870308,1744362952,59947146,,1.9984014443252818e-15,1.6653345369377348e-16,0.0,0.0,0.0,-41.18890380859375
2025/04/11 11:15:52.81445266,1744362952,74021507,,-5.551115123125783e-16,2.220446049250313e-16,0.0,0.0,0.0,-46.96814727783203
2025/04/11 11:15:52.121791734,1744362952,85916250,,-5.551115123125783e-17,-2.7755575615628914e-16,0.0,0.0,0.0,-41.18890380859375
2025/04/11 11:15:52.162858298,1744362952,162067120,,-2.0539125955565396e-15,-5.551115123125783e-16,0.0,0.0,0.0,-41.18890380859374
2025/04/11 11:15:52.205795533,1744362952,202255395,,-8.326672684688674e-16,6.661338147750939e-16,0.0,0.0,0.0,-46.96814727783204
2025/04/11 11:15:52.244061063,1744362952,240004594,,-1.8318679906315083e-15,1.2212453270876722e-15,0.0,0.0,0.0,-41.18890380859375
2025/04/11 11:15:52.260255055,1744362952,259259377,,7.216449660063518e-16,2.55351295663786e-15,0.0,0.0,0.0,-46.96814727783203
2025/04/11 11:15:52.275800671,1744362952,275149950,,1.394717674685353e-15,-1.2212453270876722e-15,0.0,0.0,0.0,-41.18890380859375
2025/04/11 11:15:52.305891184,1744362952,305280875,,-6.106226635438361e-16,-1.7763568394002505e-15,0.0,0.0,0.0,-46.968147277832024
2025/04/11 11:15:52.333392343,1744362952,332819241,,1.4432899320127035e-15,1.2212453270876722e-15,0.0,0.0,0.0,-41.18890380859376
2025/04/11 11:15:52.346569951,1744362952,345915186,,-1.7763568394002505e-15,4.996003610813204e-16,0.0,0.0,0.0,-46.96814727783203
2025/04/11 11:15:52.382300308,1744362952,359574786,,-2.858824288409778e-15,1.609823385706477e-15,0.0,0.0,0.0,-41.18890380859374
2025/04/11 11:15:52.388131278,1744362952,370596412,,-1.887379141862766e-15,0.0,0.0,0.0,0.0,-46.96814727783202
2025/04/11 11:15:52.456178773,1744362952,394026558,,2.498001805406602e-16,2.185751579730777e-15,0.0,0.0,0.0,-41.18890380859375
2025/04/11 11:15:52.456795021,1744362952,414529068,,1.3877787807814457e-15,3.2751579226442118e-15,0.0,0.0,0.0,-46.96814727783203
2025/04/11 11:15:52.460400313,1744362952,432373377,,-2.220446049250313e-16,1.5543122344752192e-15,0.0,0.0,0.0,-41.18890380859375
2025/04/11 11:15:52.481178198,1744362952,442622520,,-8.326672684688674e-16,-1.27675647831893e-15,0.0,0.0,0.0,-41.18890380859375
2025/04/11 11:15:52.483705921,1744362952,451260661,,-2.0539125955565396e-15,1.9984014443252818e-15,0.0,0.0,0.0,-41.18890380859375
2025/04/11 11:15:52.510410213,1744362952,468034335,,-5.689893001203927e-16,7.303185833862358e-16,0.0,0.0,0.0,-35.409664154052734
2025/04/11 11:15:52.521193317,1744362952,476889355,,-3.3306690738754696e-16,1.0547118733938987e-15,0.0,0.0,0.0,-35.409664154052734
2025/04/11 11:15:52.530373147,1744362952,489326929,,-7.775897981066038e-16,-6.565928356572215e-16,0.0,0.0,0.0,-29.630420684814457
2025/04/11 11:15:52.540019712,1744362952,500466060,,-2.220446049250313e-16,2.3314683517128287e-15,0.0,0.0,0.0,-23.85117721557617
2025/04/11 11:15:52.546531244,1744362952,513696602,,6.661338147750939e-16,-2.220446049250313e-16,0.0,0.0,0.0,-18.071935653686523
2025/04/11 11:15:52.563025082,1744362952,529810492,,1.5543122344752192e-15,-5.551115123125783e-16,0.0,0.0,0.0,-12.292695045471191
2025/04/11 11:15:52.570851197,1744362952,550627472,,-2.220446049250313e-16,5.551115123125783e-16,0.0,0.0,0.0,-6.513452529907227
2025/04/11 11:15:52.604745520,1744362952,582090782,,2.862293735361732e-17,-5.117434254131581e-17,0.0,0.0,0.0,-0.7342110872268677
2025/04/11 11:15:52.620484598,1744362952,616246227,,-6.397725050214823e-25,-2.455692443516801e-25,0.0,0.0,0.0,-1.8975521184014923e-18
2025/04/11 11:15:52.673003729,1744362952,654750807,,1.1119236163298182e-33,-8.388327687467844e-34,0.0,0.0,0.0,-1.3450809083690903e-28
2025/04/11 11:15:52.816199018,1744362952,705882740,,9.550891600431086e-39,-5.923389502190433e-38,0.0,0.0,0.0,9.235461834054333e-33
2025/04/11 11:15:52.910970254,1744362952,736274923,,-2.7755575615628914e-17,-2.7755575615628914e-17,0.0,0.0,0.0,0.7117238044738768
2025/04/11 11:15:52.976921284,1744362952,768222322,,2.220446049250313e-16,3.3306690738754696e-16,0.0,0.0,0.0,6.490965843200683
2025/04/11 11:15:52.989146902,1744362952,807023540,,8.881784197001252e-16,0.0,0.0,0.0,0.0,23.828691482543945
2025/04/11 11:15:53.93587553,1744362952,850150717,,0.0,0.0,0.0,0.0,0.0,41.16641616821289
2025/04/11 11:15:53.198565101,1744362952,887531185,,1.7763568394002505e-15,-1.7763568394002505e-15,0.0,0.0,0.0,58.5041389465332
2025/04/11 11:15:53.200396066,1744362952,945473891,,1.5276668818842154e-13,9.437783887733531e-11,0.0,0.0,0.0,84.28313596089494
2025/04/11 11:15:53.256385571,1744362952,981620067,,0.0,0.0,0.0,0.0,0.0,110.51731872558594
2025/04/11 11:15:53.308516809,1744362953,31455661,,-3.552713678800501e-15,3.552713678800501e-15,0.0,0.0,0.0,116.2965621948242
2025/04/11 11:15:53.416157250,1744362953,76891845,,3.552713678800501e-15,3.552713678800501e-15,0.0,0.0,0.0,122.075798034668
2025/04/11 11:15:53.416503117,1744362953,98830360,,3.552713678800501e-15,0.0,0.0,0.0,0.0,127.85504150390625
2025/04/11 11:15:53.430752318,1744362953,144459238,,-7.105427357601002e-15,1.4210854715202004e-14,0.0,0.0,0.0,122.07579803466797
2025/04/11 11:15:53.589385642,1744362953,210030152,,0.0,0.0,0.0,0.0,0.0,139.41352844238284
2025/04/11 11:15:53.618317439,1744362953,231878373,,-3.552713678800501e-15,-7.105427357601002e-15,0.0,0.0,0.0,139.4135284423828
2025/04/11 11:15:53.635746374,1744362953,319670955,,-3.552713678800501e-14,7.780442956573097e-12,0.0,0.0,0.0,160.46928043154026
2025/04/11 11:15:53.671752494,1744362953,345686075,,-1.0658141036401503e-14,-1.4210854715202004e-14,0.0,0.0,0.0,174.0889892578125
2025/04/11 11:15:53.686033462,1744362953,358084195,,0.0,-7.105427357601002e-15,0.0,0.0,0.0,174.0889892578125
2025/04/11 11:15:53.725130245,1744362953,393526065,,3.552713678800501e-15,7.105427357601002e-15,0.0,0.0,0.0,185.6474609375
2025/04/11 11:15:53.725377522,1744362953,422571779,,3.552713678800501e-15,1.4210854715202004e-14,0.0,0.0,0.0,179.86822509765625
2025/04/11 11:15:53.764948723,1744362953,435786387,,3.552713678800501e-15,7.105427357601002e-15,0.0,0.0,0.0,179.86822509765625
2025/04/11 11:15:53.813516019,1744362953,445899657,,7.105427357601002e-15,0.0,0.0,0.0,0.0,179.86822509765622
2025/04/11 11:15:53.813664261,1744362953,460081992,,-1.0658141036401503e-14,-1.4210854715202004e-14,0.0,0.0,0.0,185.6474609374984
2025/04/11 11:15:53.990978646,1744362953,469865163,,1.0658141036401503e-14,-7.105427357601002e-15,0.0,0.0,0.0,191.42669677734375
2025/04/11 11:15:53.991206051,1744362953,478498928,,-7.105427357601002e-15,7.105427357601002e-15,0.0,0.0,0.0,191.4266967773421
2025/04/11 11:15:53.991312647,1744362953,488209492,,1.4210854715202004e-14,0.0,0.0,0.0,0.0,185.6474609375
2025/04/11 11:15:54.29141796,1744362953,497748144,,0.0,-7.105427357601002e-15,0.0,0.0,0.0,185.64746093749997
2025/04/11 11:15:54.29286816,1744362953,508916056,,0.0,-7.105427357601002e-15,0.0,0.0,0.0,191.42669677734327
2025/04/11 11:15:54.101305932,1744362953,519502233,,0.0,0.0,0.0,0.0,0.0,185.6474609374999
2025/04/11 11:15:54.102656758,1744362953,592342928,,0.0,0.0,0.0,0.0,0.0,197.20594787597656
2025/04/11 11:15:54.106343573,1744362953,603772674,,3.552713678800501e-15,7.105427357601002e-15,0.0,0.0,0.0,197.2059478759765
2025/04/11 11:15:54.133187804,1744362953,612034587,,1.0658141036401503e-14,1.4210854715202004e-14,0.0,0.0,0.0,202.98518371582028
2025/04/11 11:15:54.142591666,1744362953,625599761,,3.552713678800501e-15,-7.105427357601002e-15,0.0,0.0,0.0,197.20594787597653
2025/04/11 11:15:54.164296231,1744362953,635395837,,1.0658141036401503e-14,-7.105427357601002e-15,0.0,0.0,0.0,197.2059478759765
2025/04/11 11:15:54.181174626,1744362953,646081347,,0.0,0.0,0.0,0.0,0.0,197.2059478759766
2025/04/11 11:15:54.214367145,1744362953,677904375,,1.0658141036401503e-14,0.0,0.0,0.0,0.0,208.764434814453
2025/04/11 11:15:54.233935984,1744362953,694322097,,-1.0658141036401503e-14,-2.1316282072803006e-14,0.0,0.0,0.0,208.76443481445312
2025/04/11 11:15:54.291567512,1744362953,710479999,,-7.105427357601002e-15,-7.105427357601002e-15,0.0,0.0,0.0,202.98518371582028
2025/04/11 11:15:54.336414265,1744362953,725774379,,0.0,-1.4210854715202004e-14,0.0,0.0,0.0,202.98518371582026
2025/04/11 11:15:54.359331325,1744362953,740241675,,3.552713678800501e-15,-7.105427357601002e-15,0.0,0.0,0.0,214.54367065429688
2025/04/11 11:15:54.359565242,1744362953,755766136,,-3.552713678800501e-15,-7.105427357601002e-15,0.0,0.0,0.0,208.76443481445315
2025/04/11 11:15:54.393822512,1744362953,773496959,,3.552713678800501e-15,-1.4210854715202004e-14,0.0,0.0,0.0,214.54367065429688
2025/04/11 11:15:54.396195722,1744362953,793687416,,3.552713678800501e-15,-7.105427357601002e-15,0.0,0.0,0.0,208.76443481445173
2025/04/11 11:15:54.495252213,1744362953,822569764,,1.4210854715202004e-14,7.105427357601002e-15,0.0,0.0,0.0,214.54367065429688
2025/04/11 11:15:54.509258856,1744362953,989377283,,-2.8233579149932275,-3.574029960873304e-12,0.0,0.0,0.0,215.92384367898615
2025/04/11 11:15:54.518420606,1744362954,13938052,,-5.636447429657146,9.237055564881302e-14,0.0,0.0,0.0,237.66064453124966
2025/04/11 11:15:54.519030807,1744362954,37489311,,-5.636447429656652,1.2221335055073723e-12,0.0,0.0,0.0,243.43988037109168
2025/04/11 11:15:54.587208448,1744362954,53521311,,-5.6364474296569895,-7.105427357601002e-15,0.0,0.0,0.0,243.4398803710937
2025/04/11 11:15:54.612479690,1744362954,122716594,,-8.514824867248532,-7.105427357601002e-15,0.0,0.0,0.0,254.9983673095703
2025/04/11 11:15:54.644027301,1744362954,147849391,,-8.514824867248539,-1.4210854715202004e-14,0.0,0.0,0.0,260.777587890625
2025/04/11 11:15:54.678153617,1744362954,190895940,,-9.465396086209363,-1.4921397450962104e-13,0.0,0.0,0.0,254.998367309571
2025/04/11 11:15:54.678491780,1744362954,202395356,,-11.415688514709462,7.105427357601002e-15,0.0,0.0,0.0,254.9983673095703
2025/04/11 11:15:54.814780174,1744362954,255262952,,-11.4156885147125,0.01954020438358839,0.0,0.0,0.0,263.05428102031954
2025/04/11 11:15:54.828588158,1744362954,347075994,,-22.929197311401374,0.0,0.0,0.0,0.0,278.1153259277344
2025/04/11 11:15:54.828755060,1744362954,368671497,,-22.929197311401392,-2.1316282072803006e-14,0.0,0.0,0.0,301.2322998046875
2025/04/11 11:15:55.96287234,1744362954,426297028,,-25.807575225829968,0.0,0.0,0.0,0.0,295.45306396484375
2025/04/11 11:15:55.110054768,1744362954,454166005,,-28.685953140258903,1.4210854715202004e-14,0.0,0.0,0.0,324.3492736816405
2025/04/11 11:15:55.113705749,1744362954,494314828,,-31.56433105468794,4.263256414560601e-14,0.0,0.0,0.0,324.3492736816403
2025/04/11 11:15:55.113896006,1744362954,511272359,,-34.46519470214848,4.263256414560601e-14,0.0,0.0,0.0,318.5700073242185
2025/04/11 11:15:55.200041137,1744362954,527660879,,-34.46519470214855,2.1316282072803006e-13,0.0,0.0,0.0,324.34927368164017
2025/04/11 11:15:55.254878147,1744362954,541942784,,-37.34357070922835,4.263256414560601e-14,0.0,0.0,0.0,318.57000732421875
2025/04/11 11:15:55.258938051,1744362954,591578662,,-43.10032653808594,-2.842170943040401e-14,0.0,0.0,0.0,318.5700073242187
2025/04/11 11:15:55.309082645,1744362954,629484868,,-43.10032653808819,2.0179413695586845e-12,0.0,0.0,0.0,324.34927368163244
2025/04/11 11:15:55.330548807,1744362954,644558923,,-43.100326538085994,7.105427357601002e-14,0.0,0.0,0.0,318.5700073242185
2025/04/11 11:15:55.341635358,1744362954,674778248,,-45.885330635789806,-1.1795009413617663e-12,0.0,0.0,0.0,324.34927368163915
2025/04/11 11:15:55.341916186,1744362954,688364317,,-45.97870635986325,1.4210854715202004e-14,0.0,0.0,0.0,335.9077453613281
2025/04/11 11:15:55.366461325,1744362954,706670587,,-45.97870635986409,3.410605131648481e-13,0.0,0.0,0.0,335.9077453613264
2025/04/11 11:15:55.474520668,1744362954,801992164,,-48.85708236694336,1.4210854715202004e-14,0.0,0.0,0.0,359.0246887207031
2025/04/11 11:15:55.485999893,1744362954,822946664,,-48.85708236694336,1.4210854715202004e-14,0.0,0.0,0.0,359.02468872070307
2025/04/11 11:15:55.501434362,1744362954,859366438,,-48.857082366943374,-1.4210854715202004e-14,0.0,0.0,0.0,364.80395507812466
2025/04/11 11:15:55.507688475,1744362954,881781995,,-48.85708236694335,1.4210854715202004e-14,0.0,0.0,0.0,359.0246887207032
2025/04/11 11:15:55.510763919,1744362954,907296123,,-48.85708236694461,8.668621376273222e-13,0.0,0.0,0.0,359.02468872069744
2025/04/11 11:15:55.511019451,1744362954,979658203,,-48.85708236694334,1.4210854715202004e-14,0.0,0.0,0.0,364.80395507812494
2025/04/11 11:15:55.511155759,1744362954,993934213,,-48.857082366943374,1.4210854715202004e-14,0.0,0.0,0.0,364.803955078125
2025/04/11 11:15:55.545605109,1744362955,131451235,,-48.85708236694336,0.0,0.0,0.0,0.0,359.0246887207032
2025/04/11 11:15:55.546679227,1744362955,147730723,,-47.41789245605469,-1.4210854715202004e-14,0.0,0.0,0.0,359.0246887207031
2025/04/11 11:15:55.644988618,1744362955,205842921,,-47.417892456054716,1.4210854715202004e-14,0.0,0.0,0.0,359.0246887207032
2025/04/11 11:15:55.825527846,1744362955,271458266,,-47.41789245605473,-2.842170943040401e-14,0.0,0.0,0.0,364.803955078125
2025/04/11 11:15:55.833709256,1744362955,315238159,,-47.4178924560547,1.4210854715202004e-14,0.0,0.0,0.0,370.5832214355469
2025/04/11 11:15:55.842096681,1744362955,342091277,,-47.41789245605477,2.8421709430404007e-13,0.0,0.0,0.0,359.02468872070256
2025/04/11 11:15:55.889246214,1744362955,363522339,,-47.41789245605465,1.4210854715202004e-14,0.0,0.0,0.0,359.0246887207031
2025/04/11 11:15:55.892671764,1744362955,370851283,,-47.4178924560547,-1.4210854715202004e-14,0.0,0.0,0.0,359.02468872070307
2025/04/11 11:15:55.952868645,1744362955,443148584,,-50.29626846313478,-1.4210854715202004e-14,0.0,0.0,0.0,359.024688720703
2025/04/11 11:15:55.982118549,1744362955,457105475,,-50.296268463135476,1.6200374375330284e-12,0.0,0.0,0.0,364.80395507812136
2025/04/11 11:15:55.982320034,1744362955,476996171,,-53.174644470215945,9.663381206337363e-13,0.0,0.0,0.0,364.8039550781225
2025/04/11 11:15:55.997535088,1744362955,485134780,,-53.17464447021493,4.263256414560601e-14,0.0,0.0,0.0,364.80395507812483
2025/04/11 11:15:56.12280511,1744362955,500911603,,-53.174644470214524,-4.973799150320701e-13,0.0,0.0,0.0,370.5832214355414
2025/04/11 11:15:56.12508272,1744362955,510941991,,-53.17464447021487,2.842170943040401e-14,0.0,0.0,0.0,370.5832214355469
2025/04/11 11:15:56.87190651,1744362955,523974236,,-53.17464447021482,0.0,0.0,0.0,0.0,364.80395507812494
2025/04/11 11:15:56.333558509,1744362955,562496522,,-55.4990998788509,-2.2595258997171186e-12,0.0,0.0,0.0,370.5832214355447
2025/04/11 11:15:56.333824066,1744362955,577803209,,-58.95389175415091,2.1316282072803006e-13,0.0,0.0,0.0,387.920928955077
2025/04/11 11:15:56.383169280,1744362955,600046760,,-58.95389175414924,6.252776074688882e-13,0.0,0.0,0.0,387.9209289550774
2025/04/11 11:15:56.401953139,1744362955,642593029,,-61.832267761230526,1.4210854715202004e-14,0.0,0.0,0.0,382.1416625976562
2025/04/11 11:15:56.473505118,1744362955,673165900,,-64.71064758300781,0.0,0.0,0.0,0.0,393.7001953124999
2025/04/11 11:15:56.601293556,1744362955,847363900,,-64.71064758300676,1.454227010399407,0.0,0.0,0.0,405.2586364746079
2025/04/11 11:15:56.601568263,1744362955,858506341,,-64.7106475830078,4.197258472442627,0.0,0.0,0.0,399.4794006347656
2025/04/11 11:15:56.628353450,1744362955,871352761,,-64.71064758300777,4.197258472442641,0.0,0.0,0.0,399.4794006347656
2025/04/11 11:15:56.632773490,1744362955,890758368,,-64.71064758300824,4.197258472442584,0.0,0.0,0.0,405.25863647460915
2025/04/11 11:15:56.724136670,1744362955,904684602,,-64.7106475830078,4.197258472442613,0.0,0.0,0.0,399.4794006347657
2025/04/11 11:15:56.724295672,1744362955,924008800,,-64.71064758300784,4.197258472442627,0.0,0.0,0.0,399.4794006347655
2025/04/11 11:15:56.758833166,1744362955,993213583,,-64.71064758300791,4.197258472442584,0.0,0.0,0.0,405.25863647460926
2025/04/11 11:15:56.889739229,1744362956,6880279,,-64.71064758300733,8.514824867248038,0.0,0.0,0.0,411.03790283202926
2025/04/11 11:15:56.908405527,1744362956,22312785,,-64.71064758300781,8.514824867248521,0.0,0.0,0.0,411.03790283203125
2025/04/11 11:15:56.908580892,1744362956,51304132,,-64.71064758300783,8.514824867248535,0.0,0.0,0.0,411.03790283203125
2025/04/11 11:15:56.929334665,1744362956,90600536,,-64.71064758300781,8.514824867248564,0.0,0.0,0.0,411.03790283203125
2025/04/11 11:15:56.939361867,1744362956,109831840,,-64.7106475830078,8.514824867248535,0.0,0.0,0.0,411.03790283203125
2025/04/11 11:15:56.939828207,1744362956,204734771,,-70.4673919677734,8.51482486724855,0.0,0.0,0.0,416.8171081542969
2025/04/11 11:15:56.944551686,1744362956,330536999,,-70.46739196777342,8.514824867248592,0.0,0.0,0.0,422.5963745117188
2025/04/11 11:15:56.945190092,1744362956,348845413,,-70.46739196777347,8.51482486724855,0.0,0.0,0.0,422.59637451171886
2025/04/11 11:15:56.972672314,1744362956,358857542,,-70.46739196777344,8.514824867248535,0.0,0.0,0.0,422.59637451171864
2025/04/11 11:15:56.972799125,1744362956,390089591,,-70.46739196777347,8.514824867248535,0.0,0.0,0.0,428.3756103515625
2025/04/11 11:15:57.18381219,1744362956,401816646,,-70.46739196777334,8.51482486724872,0.0,0.0,0.0,434.15487670898426
2025/04/11 11:15:57.26763864,1744362956,411353437,,-70.4673919677736,8.51482486725061,0.0,0.0,0.0,428.375610351558
2025/04/11 11:15:57.54235918,1744362956,474623131,,-73.34577178955122,8.514824867248677,0.0,0.0,0.0,439.93408203124903
2025/04/11 11:15:57.54430928,1744362956,482674347,,-73.34577178955077,8.51482486724862,0.0,0.0,0.0,434.1548767089843
2025/04/11 11:15:57.54526314,1744362956,491100602,,-73.34577178955095,8.514824867248635,0.0,0.0,0.0,434.1548767089838
2025/04/11 11:15:57.86609800,1744362956,602927785,,-73.34577178955055,15.733255386352582,0.0,0.0,0.0,434.1548767089839
2025/04/11 11:15:57.86850695,1744362956,613027161,,-73.34577178954726,18.61163330077663,0.0,0.0,0.0,439.9340820312304
2025/04/11 11:15:57.86989180,1744362956,620785904,,-73.34577178955143,18.611633300782458,0.0,0.0,0.0,434.1548767089808
2025/04/11 11:15:57.155665925,1744362956,642916249,,-73.34577178960063,16.311554176188196,0.0,0.0,0.0,434.15487670898506
2025/04/11 11:15:57.160408853,1744362956,651072999,,-73.34577178955075,18.611633300781264,0.0,0.0,0.0,439.93408203125
2025/04/11 11:15:57.184219799,1744362956,743966231,,-73.34577178955078,18.611633300776845,0.0,0.0,0.0,432.89588077514475
2025/04/11 11:15:57.222501953,1744362956,758686047,,-73.34577178955078,18.61163330078125,0.0,0.0,0.0,439.93408203125
2025/04/11 11:15:57.423180985,1744362956,910645932,,-74.78496551513673,21.490009307861328,0.0,0.0,0.0,439.93408203125006
2025/04/11 11:15:57.533459176,1744362956,938514932,,-74.78496551513672,21.490009307861357,0.0,0.0,0.0,434.1548767089844
2025/04/11 11:15:57.533694139,1744362956,954921219,,-74.78496551513669,21.490009307861342,0.0,0.0,0.0,434.15487670898426
2025/04/11 11:15:57.546325755,1744362956,974073161,,-74.78496551513672,21.490009307861328,0.0,0.0,0.0,434.1548767089844
2025/04/11 11:15:57.547318269,1744362956,990762335,,-74.7849655151367,21.490009307861328,0.0,0.0,0.0,434.1548767089844
2025/04/11 11:15:57.548924690,1744362957,7167601,,-74.78496551513672,21.490009307861342,0.0,0.0,0.0,434.1548767089843
2025/04/11 11:15:57.569262963,1744362957,33398208,,-73.34577178955078,21.490009307861314,0.0,0.0,0.0,434.1548767089844
2025/04/11 11:15:57.570235697,1744362957,59787415,,-74.78496551513678,21.4900093078613,0.0,0.0,0.0,434.1548767089844
2025/04/11 11:15:57.594945856,1744362957,76290428,,-74.78496551513672,21.490009307861328,0.0,0.0,0.0,434.15487670898443
2025/04/11 11:15:57.618449517,1744362957,93920780,,-74.78496551513673,21.490009307861314,0.0,0.0,0.0,439.9340820312499
2025/04/11 11:15:57.652606636,1744362957,109027754,,-74.78496551513672,21.490009307861328,0.0,0.0,0.0,439.9340820312499
2025/04/11 11:15:57.683973373,1744362957,171927916,,-76.86299187186663,20.57647843509038,0.0,0.0,0.0,449.61131200831016
2025/04/11 11:15:57.687375794,1744362957,194173055,,-89.19933319091786,20.05081939697247,0.0,0.0,0.0,457.2718200683586
2025/04/11 11:15:57.697974450,1744362957,206835831,,-89.19933319091797,20.050819396972685,0.0,0.0,0.0,463.051055908203
2025/04/11 11:15:57.699979169,1744362957,225741851,,-92.0777206420898,20.050819396972585,0.0,0.0,0.0,463.05105590820324
2025/04/11 11:15:57.720537606,1744362957,329744406,,-98.64746121892378,22.92919731138778,0.0,0.0,0.0,486.16802978514636
2025/04/11 11:15:57.736781372,1744362957,522954070,,-120.88397216796882,14.294066429138155,0.0,0.0,0.0,601.7528686523438
2025/04/11 11:15:57.742991546,1744362957,534708711,,-120.88397216796918,14.294066429137516,0.0,0.0,0.0,601.7528686523423
2025/04/11 11:15:57.748316313,1744362957,549451161,,-120.88397216796872,14.29406642913905,0.0,0.0,0.0,607.5321655273419
2025/04/11 11:15:57.787298586,1744362957,567451002,,-120.88397216796879,14.29406642913817,0.0,0.0,0.0,601.7528686523438
2025/04/11 11:15:57.815825262,1744362957,582586479,,-120.88397216796882,14.294066429138084,0.0,0.0,0.0,601.7528686523434
2025/04/11 11:15:57.827841418,1744362957,602841081,,-120.88397216797614,14.294066429139647,0.0,0.0,0.0,595.9736328124594
2025/04/11 11:15:57.847686698,1744362957,649461678,,-120.88397216796872,12.854877471923842,0.0,0.0,0.0,601.7528686523436
2025/04/11 11:15:57.857923748,1744362957,673161276,,-120.88397216796871,12.854877471923842,0.0,0.0,0.0,601.7528686523438
2025/04/11 11:15:57.869619244,1744362957,694352477,,-120.88397216796884,15.733255386352553,0.0,0.0,0.0,595.9736328124998
2025/04/11 11:15:57.878529395,1744362957,707340907,,-120.88397216796878,15.733255386352582,0.0,0.0,0.0,595.9736328124998
2025/04/11 11:15:57.895615298,1744362957,735655689,,-120.88397216796814,15.733255386352155,0.0,0.0,0.0,607.5321655273419
2025/04/11 11:15:57.900889811,1744362957,756145238,,-120.88397216796879,15.733255386352553,0.0,0.0,0.0,601.7528686523438
2025/04/11 11:15:57.909534079,1744362957,778142324,,-120.88397216796876,15.733255386352582,0.0,0.0,0.0,595.9736328124999
2025/04/11 11:15:57.913400178,1744362957,797515081,,-120.88397216796878,15.73325538635261,0.0,0.0,0.0,595.9736328125
2025/04/11 11:15:57.922123048,1744362957,820021380,,-120.88397216796878,15.733255386352553,0.0,0.0,0.0,595.9736328125
2025/04/11 11:15:57.929715934,1744362957,833332534,,-120.88397216796876,15.733255386352567,0.0,0.0,0.0,595.9736328124999
2025/04/11 11:15:57.934140298,1744362957,846922683,,-120.88397216796876,15.733255386352553,0.0,0.0,0.0,595.9736328124999
2025/04/11 11:15:57.949564359,1744362957,877603204,,-119.09879776232121,15.733255386353306,0.0,0.0,0.0,601.7528686523251
2025/04/11 11:15:57.952020956,1744362957,891372144,,-118.00559997558594,15.73325538635251,0.0,0.0,0.0,601.7528686523438
2025/04/11 11:15:57.959253677,1744362957,904187246,,-118.00559997558595,15.733255386352539,0.0,0.0,0.0,601.7528686523438
2025/04/11 11:15:57.964778926,1744362957,919172260,,-118.00559997558594,15.733255386352567,0.0,0.0,0.0,595.9736328125
2025/04/11 11:15:57.984306278,1744362957,938430220,,-118.00559997558592,15.733255386352539,0.0,0.0,0.0,595.9736328125
2025/04/11 11:15:57.995822869,1744362957,958731134,,-118.00559997558594,15.733255386352553,0.0,0.0,0.0,607.5321655273438
2025/04/11 11:15:58.10746013,1744362957,976935419,,-118.00559997558592,15.733255386352553,0.0,0.0,0.0,601.7528686523438
2025/04/11 11:15:58.28687075,1744362957,995466373,,-118.00559997558861,18.61163330078145,0.0,0.0,0.0,595.9736328124591
2025/04/11 11:15:58.44412392,1744362958,10771317,,-118.00559997558592,21.49000930786164,0.0,0.0,0.0,601.7528686523434
2025/04/11 11:15:58.56305455,1744362958,22651278,,-118.00559997558614,21.490009307861385,0.0,0.0,0.0,595.9736328124998
2025/04/11 11:15:58.66463189,1744362958,35149198,,-118.00559997558594,21.490009307861357,0.0,0.0,0.0,595.9736328125
2025/04/11 11:15:58.76734216,1744362958,50901530,,-118.00559997558604,21.49000930786147,0.0,0.0,0.0,601.7528686523434
2025/04/11 11:15:58.89345468,1744362958,61577782,,-118.00559997558591,21.490009307861285,0.0,0.0,0.0,601.7528686523438
2025/04/11 11:15:58.93731911,1744362958,77919268,,-118.00559997558592,21.490009307861342,0.0,0.0,0.0,595.9736328124997
2025/04/11 11:15:58.96964452,1744362958,89924484,,-118.00559997558597,21.490009307861285,0.0,0.0,0.0,601.7528686523438
2025/04/11 11:15:58.106318158,1744362958,103309992,,-118.00559997558591,21.490009307861428,0.0,0.0,0.0,595.9736328125
2025/04/11 11:15:58.113438033,1744362958,112748030,,-118.00559997558597,21.490009307861257,0.0,0.0,0.0,595.9736328125
2025/04/11 11:15:58.123653314,1744362958,123123530,,-118.00559997558594,21.490009307861357,0.0,0.0,0.0,595.9736328124999
2025/04/11 11:15:58.136337911,1744362958,135087651,,-118.005599975586,21.4900093078613,0.0,0.0,0.0,595.9736328125001
2025/04/11 11:15:58.145180136,1744362958,144536234,,-118.0055999755879,21.49000930786454,0.0,0.0,0.0,601.7528686523331
2025/04/11 11:15:58.155705489,1744362958,154824964,,-118.00559997558595,21.490009307861328,0.0,0.0,0.0,601.7528686523439
2025/04/11 11:15:58.174181817,1744362958,168552422,,-118.00559997558588,21.49000930786127,0.0,0.0,0.0,595.9736328124999
2025/04/11 11:15:58.185312303,1744362958,178696328,,-118.00559997558594,21.490009307861328,0.0,0.0,0.0,595.9736328125
2025/04/11 11:15:58.202158530,1744362958,201376433,,-117.73080467183006,25.453211394044843,0.0,0.0,0.0,595.9736328125
2025/04/11 11:15:58.212268277,1744362958,211892130,,-118.00559997558604,21.490009307860987,0.0,0.0,0.0,601.7528686523301
2025/04/11 11:15:58.224103163,1744362958,220358647,,-118.0055999755859,21.49000930786137,0.0,0.0,0.0,601.7528686523438
2025/04/11 11:15:58.236528778,1744362958,234224697,,-118.00559997558587,21.490009307861257,0.0,0.0,0.0,595.9736328125
2025/04/11 11:15:58.244505081,1744362958,243345044,,-118.00559997558605,21.490009307861328,0.0,0.0,0.0,601.7528686523435
2025/04/11 11:15:58.253531485,1744362958,252775079,,-118.00559997558588,21.490009307861314,0.0,0.0,0.0,595.9736328124994
2025/04/11 11:15:58.266108615,1744362958,263573809,,-118.00559997558592,21.490009307861314,0.0,0.0,0.0,601.752868652344
2025/04/11 11:15:58.284991899,1744362958,283777263,,-117.7394151645015,25.377256383387888,0.0,0.0,0.0,601.7528686523438
2025/04/11 11:15:58.296509752,1744362958,295780508,,-118.00559997558611,30.125141143800022,0.0,0.0,0.0,595.9736328124969
2025/04/11 11:15:58.306843096,1744362958,306521253,,-118.00559997558642,30.125141143798942,0.0,0.0,0.0,595.9736328124978
2025/04/11 11:15:58.317031168,1744362958,316501151,,-118.00559997558719,30.125141143799453,0.0,0.0,0.0,595.9736328124967
2025/04/11 11:15:58.326107106,1744362958,325362011,,-118.00559997558618,30.125141143799013,0.0,0.0,0.0,595.9736328124992
2025/04/11 11:15:58.344092490,1744362958,343599116,,-118.00559997558614,30.125141143798885,0.0,0.0,0.0,601.7528686523434
2025/04/11 11:15:58.354678553,1744362958,354002862,,-118.005599975586,30.125141143798814,0.0,0.0,0.0,601.7528686523435
2025/04/11 11:15:58.365758729,1744362958,363047001,,-118.00559997558597,30.125141143798857,0.0,0.0,0.0,601.7528686523438
2025/04/11 11:15:58.375756663,1744362958,375309306,,-118.00559997558581,30.125141143798672,0.0,0.0,0.0,595.9736328124998
2025/04/11 11:15:58.385945603,1744362958,384153078,,-118.00559997558592,30.125141143798828,0.0,0.0,0.0,601.7528686523438
2025/04/11 11:15:58.401546751,1744362958,396291127,,-118.00559997558592,30.125141143798743,0.0,0.0,0.0,595.9736328124992
2025/04/11 11:15:58.414350702,1744362958,412013478,,-118.00559997558597,30.125141143798842,0.0,0.0,0.0,601.7528686523438
2025/04/11 11:15:58.428579462,1744362958,426447261,,-118.00559997558591,30.12514114379887,0.0,0.0,0.0,595.9736328125
2025/04/11 11:15:58.437675568,1744362958,436795127,,-118.00559997558595,30.1251411437988,0.0,0.0,0.0,595.9736328125
2025/04/11 11:15:58.447592036,1744362958,446783498,,-118.0055999755832,30.12514114379543,0.0,0.0,0.0,601.7528686523366
2025/04/11 11:15:58.456994510,1744362958,455693335,,-118.00559997558604,30.125141143798658,0.0,0.0,0.0,601.7528686523436
2025/04/11 11:15:58.466606057,1744362958,466205632,,-118.00559997558577,30.125141143798672,0.0,0.0,0.0,595.9736328124998
2025/04/11 11:15:58.488056432,1744362958,485218781,,-118.00559997558604,30.1251411437988,0.0,0.0,0.0,595.9736328125
2025/04/11 11:15:58.506341605,1744362958,498039417,,-118.00559997558591,30.125141143798814,0.0,0.0,0.0,601.7528686523436
2025/04/11 11:15:58.528501656,1744362958,525006794,,-118.00559997558787,26.86613280320462,0.0,0.0,0.0,595.9736328125011
2025/04/11 11:15:58.542343442,1744362958,539701826,,-118.00559997558705,30.125141143799198,0.0,0.0,0.0,595.9736328124978
2025/04/11 11:15:58.550967355,1744362958,549233720,,-118.00559997558591,30.125141143798885,0.0,0.0,0.0,595.9736328125
2025/04/11 11:15:58.575548371,1744362958,565335064,,-118.00559997558788,30.125141143802097,0.0,0.0,0.0,601.7528686523332
2025/04/11 11:15:58.582222395,1744362958,575063645,,-118.00559997558594,30.125141143798814,0.0,0.0,0.0,601.7528686523438
2025/04/11 11:15:58.594113985,1744362958,584141443,,-118.00559997558591,30.12514114379887,0.0,0.0,0.0,601.7528686523438
2025/04/11 11:15:58.616277815,1744362958,609839089,,-118.0055999755857,30.125141143798558,0.0,0.0,0.0,595.9736328124997
2025/04/11 11:15:58.636606844,1744362958,623928044,,-118.00559997558592,30.125141143798814,0.0,0.0,0.0,601.7528686523438
2025/04/11 11:15:58.648248103,1744362958,644030300,,-118.00559997558597,30.12514114379887,0.0,0.0,0.0,601.7528686523438
2025/04/11 11:15:58.672668849,1744362958,667512809,,-118.00559997558597,30.1251411437988,0.0,0.0,0.0,595.9736328124999
2025/04/11 11:15:58.688930561,1744362958,681481278,,-118.00559997558591,30.125141143798857,0.0,0.0,0.0,595.9736328125
2025/04/11 11:15:58.726839518,1744362958,702575001,,-118.005599975586,30.12514114379877,0.0,0.0,0.0,601.7528686523436
2025/04/11 11:15:58.743882371,1744362958,717544044,,-118.00559997558595,30.125141143798814,0.0,0.0,0.0,595.9736328125001
2025/04/11 11:15:58.745883189,1744362958,735626519,,-118.00559997558986,30.125141143799866,0.0,0.0,0.0,601.752868652336
2025/04/11 11:15:58.756344072,1744362958,746562905,,-118.00559997558595,30.125141143798814,0.0,0.0,0.0,601.7528686523436
2025/04/11 11:15:58.762447257,1744362958,760227992,,-118.0055999755859,30.125141143798857,0.0,0.0,0.0,601.7528686523438
2025/04/11 11:15:58.790322339,1744362958,775030964,,-119.44477844238288,30.12514114379887,0.0,0.0,0.0,601.7528686523434
2025/04/11 11:15:58.792947821,1744362958,783278525,,-119.44477844238278,30.125141143798842,0.0,0.0,0.0,601.7528686523436
2025/04/11 11:15:58.816909814,1744362958,816037529,,-120.27976406580996,30.12514114379927,0.0,0.0,0.0,595.9736328125002
2025/04/11 11:15:58.838464270,1744362958,833195539,,-128.10240173339844,30.125141143798842,0.0,0.0,0.0,601.7528686523435
2025/04/11 11:15:58.854866932,1744362958,850142797,,-128.10240173339844,30.125141143798857,0.0,0.0,0.0,607.5321655273438
2025/04/11 11:15:58.864073486,1744362958,863740606,,-128.10240173339835,30.125141143798686,0.0,0.0,0.0,595.9736328125
2025/04/11 11:15:58.875690550,1744362958,875217668,,-128.10240173339855,30.125141143798857,0.0,0.0,0.0,601.7528686523431
2025/04/11 11:15:58.886875221,1744362958,884078047,,-128.10240173339847,30.1251411437989,0.0,0.0,0.0,601.7528686523434
2025/04/11 11:15:58.893374669,1744362958,892702937,,-128.10240173339886,30.125141143798984,0.0,0.0,0.0,601.752868652342
2025/04/11 11:15:58.902320111,1744362958,900563590,,-128.10240173339872,30.125141143798913,0.0,0.0,0.0,601.7528686523424
2025/04/11 11:15:58.909260792,1744362958,908262685,,-128.1024017333993,30.125141143799112,0.0,0.0,0.0,601.7528686523403
2025/04/11 11:15:58.917735996,1744362958,916380957,,-128.10240173339864,30.1251411437989,0.0,0.0,0.0,601.752868652343
2025/04/11 11:15:58.935213917,1744362958,925933382,,-128.10240173339852,30.125141143798857,0.0,0.0,0.0,601.7528686523433
