time,header_stamp_secs,header_stamp_nsecs,header_frame_id,status_status,status_service,latitude,longitude,altitude,position_covariance_0,position_covariance_1,position_covariance_2,position_covariance_3,position_covariance_4,position_covariance_5,position_covariance_6,position_covariance_7,position_covariance_8,position_covariance_type
2025/04/09 08:48:15.805758724,1744181295,800774109,mA1/gps,0,1,63.43459716109752,10.393092101517661,0.0,1.4400000000000002e-10,0.0,0.0,0.0,1.4400000000000002e-10,0.0,0.0,0.0,1.0,2
2025/04/09 08:48:15.850698115,1744181295,850325532,mA1/gps,0,1,63.43459716004222,10.393092106155025,0.0,1.4400000000000002e-10,0.0,0.0,0.0,1.4400000000000002e-10,0.0,0.0,0.0,1.0,2
2025/04/09 08:48:15.903058939,1744181295,900821189,mA1/gps,0,1,63.43459715812235,10.39309210984621,0.0,1.4400000000000002e-10,0.0,0.0,0.0,1.4400000000000002e-10,0.0,0.0,0.0,1.0,2
2025/04/09 08:48:15.952434180,1744181295,952363679,mA1/gps,0,1,63.43459715715333,10.3930921125705,0.0,1.4400000000000002e-10,0.0,0.0,0.0,1.4400000000000002e-10,0.0,0.0,0.0,1.0,2
2025/04/09 08:48:16.4023929,1744181296,3693223,mA1/gps,0,1,63.43459715693558,10.393092114173049,0.0,1.4400000000000002e-10,0.0,0.0,0.0,1.4400000000000002e-10,0.0,0.0,0.0,1.0,2
2025/04/09 08:48:16.55773394,1744181296,55121634,mA1/gps,0,1,63.43459715678826,10.393092113545352,0.0,1.4400000000000002e-10,0.0,0.0,0.0,1.4400000000000002e-10,0.0,0.0,0.0,1.0,2
2025/04/09 08:48:16.100951430,1744181296,98832725,mA1/gps,0,1,63.434597155742594,10.39309211096367,0.0,1.4400000000000002e-10,0.0,0.0,0.0,1.4400000000000002e-10,0.0,0.0,0.0,1.0,2
2025/04/09 08:48:16.149839525,1744181296,149674037,mA1/gps,0,1,63.43459715514494,10.393092106799136,0.0,1.4400000000000002e-10,0.0,0.0,0.0,1.4400000000000002e-10,0.0,0.0,0.0,1.0,2
2025/04/09 08:48:16.208871628,1744181296,201561556,mA1/gps,0,1,63.43459715408322,10.393092102577839,0.0,1.4400000000000002e-10,0.0,0.0,0.0,1.4400000000000002e-10,0.0,0.0,0.0,1.0,2
2025/04/09 08:48:16.253829161,1744181296,251370722,mA1/gps,0,1,63.43459715298708,10.393092097801516,0.0,1.4400000000000002e-10,0.0,0.0,0.0,1.4400000000000002e-10,0.0,0.0,0.0,1.0,2
2025/04/09 08:48:16.309682022,1744181296,309110180,mA1/gps,0,1,63.43459715173647,10.393092091423535,0.0,1.4400000000000002e-10,0.0,0.0,0.0,1.4400000000000002e-10,0.0,0.0,0.0,1.0,2
2025/04/09 08:48:16.349945333,1744181296,349782207,mA1/gps,0,1,63.43459715201639,10.393092085719088,0.0,1.4400000000000002e-10,0.0,0.0,0.0,1.4400000000000002e-10,0.0,0.0,0.0,1.0,2
2025/04/09 08:48:16.739060411,1744181296,403144367,mA1/gps,0,1,63.43459715238159,10.39309208047311,0.0,1.4400000000000002e-10,0.0,0.0,0.0,1.4400000000000002e-10,0.0,0.0,0.0,1.0,2
2025/04/09 08:48:16.742442422,1744181296,452741308,mA1/gps,0,1,63.43459715172254,10.393092075256442,0.0,1.4400000000000002e-10,0.0,0.0,0.0,1.4400000000000002e-10,0.0,0.0,0.0,1.0,2
2025/04/09 08:48:16.751752872,1744181296,503713751,mA1/gps,0,1,63.43459715012442,10.393092071323819,0.0,1.4400000000000002e-10,0.0,0.0,0.0,1.4400000000000002e-10,0.0,0.0,0.0,1.0,2
2025/04/09 08:48:16.768691940,1744181296,553559376,mA1/gps,0,1,63.43459714943529,10.393092067835136,0.0,1.4400000000000002e-10,0.0,0.0,0.0,1.4400000000000002e-10,0.0,0.0,0.0,1.0,2
2025/04/09 08:48:16.773095678,1744181296,604554612,mA1/gps,0,1,63.434597150146864,10.393092066093685,0.0,1.4400000000000002e-10,0.0,0.0,0.0,1.4400000000000002e-10,0.0,0.0,0.0,1.0,2
2025/04/09 08:48:16.781072073,1744181296,654350479,mA1/gps,0,1,63.43459715036528,10.393092065792377,0.0,1.4400000000000002e-10,0.0,0.0,0.0,1.4400000000000002e-10,0.0,0.0,0.0,1.0,2
2025/04/09 08:48:16.781221013,1744181296,705284201,mA1/gps,0,1,63.43459715008385,10.393092066810198,0.0,1.4400000000000002e-10,0.0,0.0,0.0,1.4400000000000002e-10,0.0,0.0,0.0,1.0,2
2025/04/09 08:48:16.787816007,1744181296,749939766,mA1/gps,0,1,63.43459714988745,10.393092066530532,0.0,1.4400000000000002e-10,0.0,0.0,0.0,1.4400000000000002e-10,0.0,0.0,0.0,1.0,2
2025/04/09 08:48:16.804465641,1744181296,803449133,mA1/gps,0,1,63.43459714936145,10.39309206644802,0.0,1.4400000000000002e-10,0.0,0.0,0.0,1.4400000000000002e-10,0.0,0.0,0.0,1.0,2
2025/04/09 08:48:16.854866505,1744181296,854584885,mA1/gps,0,1,63.434597148580124,10.393092067769953,0.0,1.4400000000000002e-10,0.0,0.0,0.0,1.4400000000000002e-10,0.0,0.0,0.0,1.0,2
2025/04/09 08:48:16.897358397,1744181296,897131970,mA1/gps,0,1,63.43459714841203,10.393092070058929,0.0,1.4400000000000002e-10,0.0,0.0,0.0,1.4400000000000002e-10,0.0,0.0,0.0,1.0,2
2025/04/09 08:48:16.951709691,1744181296,949876027,mA1/gps,0,1,63.43459714866085,10.393092074470434,0.0,1.4400000000000002e-10,0.0,0.0,0.0,1.4400000000000002e-10,0.0,0.0,0.0,1.0,2
2025/04/09 08:48:17.20094259,1744181297,2969990,mA1/gps,0,1,63.43459714937599,10.393092081939875,0.0,1.4400000000000002e-10,0.0,0.0,0.0,1.4400000000000002e-10,0.0,0.0,0.0,1.0,2
2025/04/09 08:48:17.54753672,1744181297,54473879,mA1/gps,0,1,63.43459714871719,10.393092089227686,0.0,1.4400000000000002e-10,0.0,0.0,0.0,1.4400000000000002e-10,0.0,0.0,0.0,1.0,2
2025/04/09 08:48:17.98276256,1744181297,97877192,mA1/gps,0,1,63.43459714705893,10.39309209829014,0.0,1.4400000000000002e-10,0.0,0.0,0.0,1.4400000000000002e-10,0.0,0.0,0.0,1.0,2
2025/04/09 08:48:17.147749350,1744181297,147586188,mA1/gps,0,1,63.4345971464607,10.393092106539049,0.0,1.4400000000000002e-10,0.0,0.0,0.0,1.4400000000000002e-10,0.0,0.0,0.0,1.0,2
2025/04/09 08:48:17.200779860,1744181297,199441891,mA1/gps,0,1,63.434597146453356,10.393092113845853,0.0,1.4400000000000002e-10,0.0,0.0,0.0,1.4400000000000002e-10,0.0,0.0,0.0,1.0,2
2025/04/09 08:48:17.250106369,1744181297,249315996,mA1/gps,0,1,63.434597146654596,10.39309211864403,0.0,1.4400000000000002e-10,0.0,0.0,0.0,1.4400000000000002e-10,0.0,0.0,0.0,1.0,2
2025/04/09 08:48:17.300386542,1744181297,300239150,mA1/gps,0,1,63.43459714588156,10.393092122167095,0.0,1.4400000000000002e-10,0.0,0.0,0.0,1.4400000000000002e-10,0.0,0.0,0.0,1.0,2
2025/04/09 08:48:17.352523900,1744181297,350154331,mA1/gps,0,1,63.43459714514322,10.39309212282559,0.0,1.4400000000000002e-10,0.0,0.0,0.0,1.4400000000000002e-10,0.0,0.0,0.0,1.0,2
2025/04/09 08:48:17.403165382,1744181297,401314000,mA1/gps,0,1,63.434597144005814,10.393092121056169,0.0,1.4400000000000002e-10,0.0,0.0,0.0,1.4400000000000002e-10,0.0,0.0,0.0,1.0,2
2025/04/09 08:48:17.451573366,1744181297,451359856,mA1/gps,0,1,63.43459714299939,10.393092117520922,0.0,1.4400000000000002e-10,0.0,0.0,0.0,1.4400000000000002e-10,0.0,0.0,0.0,1.0,2
2025/04/09 08:48:17.502525732,1744181297,502338784,mA1/gps,0,1,63.434597141842694,10.393092110892217,0.0,1.4400000000000002e-10,0.0,0.0,0.0,1.4400000000000002e-10,0.0,0.0,0.0,1.0,2
2025/04/09 08:48:17.555705209,1744181297,555092252,mA1/gps,0,1,63.434597142140944,10.393092103234267,0.0,1.4400000000000002e-10,0.0,0.0,0.0,1.4400000000000002e-10,0.0,0.0,0.0,1.0,2
2025/04/09 08:48:17.621370853,1744181297,609640702,mA1/gps,0,1,63.43459714228158,10.39309209461602,0.0,1.4400000000000002e-10,0.0,0.0,0.0,1.4400000000000002e-10,0.0,0.0,0.0,1.0,2
2025/04/09 08:48:17.651678633,1744181297,646502075,mA1/gps,0,1,63.43459714143897,10.393092086517923,0.0,1.4400000000000002e-10,0.0,0.0,0.0,1.4400000000000002e-10,0.0,0.0,0.0,1.0,2
2025/04/09 08:48:17.712798902,1744181297,699486158,mA1/gps,0,1,63.43459713989157,10.393092077730303,0.0,1.4400000000000002e-10,0.0,0.0,0.0,1.4400000000000002e-10,0.0,0.0,0.0,1.0,2
2025/04/09 08:48:17.750230988,1744181297,748643397,mA1/gps,0,1,63.43459713907993,10.39309206937685,0.0,1.4400000000000002e-10,0.0,0.0,0.0,1.4400000000000002e-10,0.0,0.0,0.0,1.0,2
2025/04/09 08:48:17.843988252,1744181297,803645861,mA1/gps,0,1,63.43459713921535,10.393092061820592,0.0,1.4400000000000002e-10,0.0,0.0,0.0,1.4400000000000002e-10,0.0,0.0,0.0,1.0,2
2025/04/09 08:48:17.897598161,1744181297,853496080,mA1/gps,0,1,63.43459713967292,10.39309205522631,0.0,1.4400000000000002e-10,0.0,0.0,0.0,1.4400000000000002e-10,0.0,0.0,0.0,1.0,2
2025/04/09 08:48:17.936797605,1744181297,905066856,mA1/gps,0,1,63.43459713908406,10.393092050805791,0.0,1.4400000000000002e-10,0.0,0.0,0.0,1.4400000000000002e-10,0.0,0.0,0.0,1.0,2
2025/04/09 08:48:17.969758543,1744181297,955427175,mA1/gps,0,1,63.4345971387614,10.393092048857742,0.0,1.4400000000000002e-10,0.0,0.0,0.0,1.4400000000000002e-10,0.0,0.0,0.0,1.0,2
2025/04/09 08:48:18.17122131,1744181297,996753119,mA1/gps,0,1,63.434597138045774,10.393092048146583,0.0,1.4400000000000002e-10,0.0,0.0,0.0,1.4400000000000002e-10,0.0,0.0,0.0,1.0,2
2025/04/09 08:48:18.51002167,1744181298,50243744,mA1/gps,0,1,63.43459713740999,10.393092050256326,0.0,1.4400000000000002e-10,0.0,0.0,0.0,1.4400000000000002e-10,0.0,0.0,0.0,1.0,2
2025/04/09 08:48:18.105133955,1744181298,103671776,mA1/gps,0,1,63.434597137108014,10.393092053130847,0.0,1.4400000000000002e-10,0.0,0.0,0.0,1.4400000000000002e-10,0.0,0.0,0.0,1.0,2
2025/04/09 08:48:18.153928020,1744181298,152309672,mA1/gps,0,1,63.43459713735452,10.39309205814947,0.0,1.4400000000000002e-10,0.0,0.0,0.0,1.4400000000000002e-10,0.0,0.0,0.0,1.0,2
2025/04/09 08:48:18.205436732,1744181298,204781959,mA1/gps,0,1,63.434597138229435,10.393092064960594,0.0,1.4400000000000002e-10,0.0,0.0,0.0,1.4400000000000002e-10,0.0,0.0,0.0,1.0,2
2025/04/09 08:48:18.256120729,1744181298,255078323,mA1/gps,0,1,63.4345971376363,10.393092070904148,0.0,1.4400000000000002e-10,0.0,0.0,0.0,1.4400000000000002e-10,0.0,0.0,0.0,1.0,2
2025/04/09 08:48:18.308026932,1744181298,307778162,mA1/gps,0,1,63.434597136070195,10.39309207772828,0.0,1.4400000000000002e-10,0.0,0.0,0.0,1.4400000000000002e-10,0.0,0.0,0.0,1.0,2
2025/04/09 08:48:18.348206790,1744181298,346144466,mA1/gps,0,1,63.43459713544526,10.393092083997555,0.0,1.4400000000000002e-10,0.0,0.0,0.0,1.4400000000000002e-10,0.0,0.0,0.0,1.0,2
2025/04/09 08:48:18.397597600,1744181298,397214188,mA1/gps,0,1,63.43459713561265,10.393092089529173,0.0,1.4400000000000002e-10,0.0,0.0,0.0,1.4400000000000002e-10,0.0,0.0,0.0,1.0,2
2025/04/09 08:48:18.447402675,1744181298,447111813,mA1/gps,0,1,63.43459713592573,10.393092092965015,0.0,1.4400000000000002e-10,0.0,0.0,0.0,1.4400000000000002e-10,0.0,0.0,0.0,1.0,2
2025/04/09 08:48:18.498342908,1744181298,498088560,mA1/gps,0,1,63.43459713520077,10.393092095011049,0.0,1.4400000000000002e-10,0.0,0.0,0.0,1.4400000000000002e-10,0.0,0.0,0.0,1.0,2
2025/04/09 08:48:18.548241206,1744181298,548075928,mA1/gps,0,1,63.43459713465309,10.393092095295403,0.0,1.4400000000000002e-10,0.0,0.0,0.0,1.4400000000000002e-10,0.0,0.0,0.0,1.0,2
2025/04/09 08:48:18.601165782,1744181298,600849561,mA1/gps,0,1,63.43459713385767,10.393092095800341,0.0,1.4400000000000002e-10,0.0,0.0,0.0,1.4400000000000002e-10,0.0,0.0,0.0,1.0,2
2025/04/09 08:48:18.650263693,1744181298,649687952,mA1/gps,0,1,63.43459713287783,10.393092095419012,0.0,1.4400000000000002e-10,0.0,0.0,0.0,1.4400000000000002e-10,0.0,0.0,0.0,1.0,2
2025/04/09 08:48:18.703247998,1744181298,703101110,mA1/gps,0,1,63.43459713167424,10.393092095227793,0.0,1.4400000000000002e-10,0.0,0.0,0.0,1.4400000000000002e-10,0.0,0.0,0.0,1.0,2
2025/04/09 08:48:18.754486690,1744181298,752876438,mA1/gps,0,1,63.434597131906266,10.393092094679355,0.0,1.4400000000000002e-10,0.0,0.0,0.0,1.4400000000000002e-10,0.0,0.0,0.0,1.0,2
2025/04/09 08:48:18.804302812,1744181298,803890789,mA1/gps,0,1,63.434597131708294,10.393092094358371,0.0,1.4400000000000002e-10,0.0,0.0,0.0,1.4400000000000002e-10,0.0,0.0,0.0,1.0,2
2025/04/09 08:48:18.853877807,1744181298,853651676,mA1/gps,0,1,63.4345971306922,10.393092095315133,0.0,1.4400000000000002e-10,0.0,0.0,0.0,1.4400000000000002e-10,0.0,0.0,0.0,1.0,2
2025/04/09 08:48:18.905474546,1744181298,904663140,mA1/gps,0,1,63.434597128465114,10.393092095659119,0.0,1.4400000000000002e-10,0.0,0.0,0.0,1.4400000000000002e-10,0.0,0.0,0.0,1.0,2
2025/04/09 08:48:18.947065237,1744181298,946515472,mA1/gps,0,1,63.43459712725047,10.393092096296762,0.0,1.4400000000000002e-10,0.0,0.0,0.0,1.4400000000000002e-10,0.0,0.0,0.0,1.0,2
2025/04/09 08:48:18.997657726,1744181298,997530781,mA1/gps,0,1,63.43459712723599,10.393092097430213,0.0,1.4400000000000002e-10,0.0,0.0,0.0,1.4400000000000002e-10,0.0,0.0,0.0,1.0,2
2025/04/09 08:48:19.47156048,1744181299,46800242,mA1/gps,0,1,63.43459712762649,10.393092099999187,0.0,1.4400000000000002e-10,0.0,0.0,0.0,1.4400000000000002e-10,0.0,0.0,0.0,1.0,2
2025/04/09 08:48:19.99065193,1744181299,98207801,mA1/gps,0,1,63.434597126635786,10.393092102010264,0.0,1.4400000000000002e-10,0.0,0.0,0.0,1.4400000000000002e-10,0.0,0.0,0.0,1.0,2
2025/04/09 08:48:19.148330230,1744181299,148115889,mA1/gps,0,1,63.43459712598758,10.39309210355737,0.0,1.4400000000000002e-10,0.0,0.0,0.0,1.4400000000000002e-10,0.0,0.0,0.0,1.0,2
2025/04/09 08:48:19.200012366,1744181299,199649588,mA1/gps,0,1,63.434597125177966,10.393092103807337,0.0,1.4400000000000002e-10,0.0,0.0,0.0,1.4400000000000002e-10,0.0,0.0,0.0,1.0,2
2025/04/09 08:48:19.249383582,1744181299,249064260,mA1/gps,0,1,63.434597124363286,10.393092102907827,0.0,1.4400000000000002e-10,0.0,0.0,0.0,1.4400000000000002e-10,0.0,0.0,0.0,1.0,2
2025/04/09 08:48:19.300160012,1744181299,299939930,mA1/gps,0,1,63.43459712363345,10.39309210078395,0.0,1.4400000000000002e-10,0.0,0.0,0.0,1.4400000000000002e-10,0.0,0.0,0.0,1.0,2
2025/04/09 08:48:19.350575138,1744181299,350277056,mA1/gps,0,1,63.434597123972736,10.393092097158288,0.0,1.4400000000000002e-10,0.0,0.0,0.0,1.4400000000000002e-10,0.0,0.0,0.0,1.0,2
2025/04/09 08:48:19.401447260,1744181299,401205102,mA1/gps,0,1,63.434597124414736,10.393092091869992,0.0,1.4400000000000002e-10,0.0,0.0,0.0,1.4400000000000002e-10,0.0,0.0,0.0,1.0,2
2025/04/09 08:48:19.451480368,1744181299,451269116,mA1/gps,0,1,63.43459712398359,10.393092085684325,0.0,1.4400000000000002e-10,0.0,0.0,0.0,1.4400000000000002e-10,0.0,0.0,0.0,1.0,2
2025/04/09 08:48:19.504079540,1744181299,503762394,mA1/gps,0,1,63.43459712250404,10.393092079113611,0.0,1.4400000000000002e-10,0.0,0.0,0.0,1.4400000000000002e-10,0.0,0.0,0.0,1.0,2
2025/04/09 08:48:19.553720156,1744181299,553548338,mA1/gps,0,1,63.43459712213499,10.393092071996872,0.0,1.4400000000000002e-10,0.0,0.0,0.0,1.4400000000000002e-10,0.0,0.0,0.0,1.0,2
2025/04/09 08:48:19.605489628,1744181299,605137528,mA1/gps,0,1,63.434597122753,10.393092064182614,0.0,1.4400000000000002e-10,0.0,0.0,0.0,1.4400000000000002e-10,0.0,0.0,0.0,1.0,2
2025/04/09 08:48:19.656898757,1744181299,655020530,mA1/gps,0,1,63.4345971232949,10.393092057509284,0.0,1.4400000000000002e-10,0.0,0.0,0.0,1.4400000000000002e-10,0.0,0.0,0.0,1.0,2
2025/04/09 08:48:19.706070405,1744181299,705982503,mA1/gps,0,1,63.43459712300359,10.393092051197721,0.0,1.4400000000000002e-10,0.0,0.0,0.0,1.4400000000000002e-10,0.0,0.0,0.0,1.0,2
2025/04/09 08:48:19.756679090,1744181299,755768907,mA1/gps,0,1,63.43459712259063,10.393092046057198,0.0,1.4400000000000002e-10,0.0,0.0,0.0,1.4400000000000002e-10,0.0,0.0,0.0,1.0,2
2025/04/09 08:48:19.797355075,1744181299,796702940,mA1/gps,0,1,63.43459712228896,10.393092041495365,0.0,1.4400000000000002e-10,0.0,0.0,0.0,1.4400000000000002e-10,0.0,0.0,0.0,1.0,2
2025/04/09 08:48:19.848515673,1744181299,848283806,mA1/gps,0,1,63.43459712196808,10.393092039931819,0.0,1.4400000000000002e-10,0.0,0.0,0.0,1.4400000000000002e-10,0.0,0.0,0.0,1.0,2
2025/04/09 08:48:19.899423474,1744181299,899227194,mA1/gps,0,1,63.43459712111525,10.393092038988579,0.0,1.4400000000000002e-10,0.0,0.0,0.0,1.4400000000000002e-10,0.0,0.0,0.0,1.0,2
2025/04/09 08:48:19.949405363,1744181299,949092755,mA1/gps,0,1,63.43459712188814,10.393092039758908,0.0,1.4400000000000002e-10,0.0,0.0,0.0,1.4400000000000002e-10,0.0,0.0,0.0,1.0,2
2025/04/09 08:48:20.596473,1744181300,360643,mA1/gps,0,1,63.43459712257126,10.393092041275068,0.0,1.4400000000000002e-10,0.0,0.0,0.0,1.4400000000000002e-10,0.0,0.0,0.0,1.0,2
2025/04/09 08:48:20.50367371,1744181300,50165711,mA1/gps,0,1,63.43459712189788,10.393092043443744,0.0,1.4400000000000002e-10,0.0,0.0,0.0,1.4400000000000002e-10,0.0,0.0,0.0,1.0,2
2025/04/09 08:48:20.101648987,1744181300,101229262,mA1/gps,0,1,63.43459711995653,10.393092045827798,0.0,1.4400000000000002e-10,0.0,0.0,0.0,1.4400000000000002e-10,0.0,0.0,0.0,1.0,2
2025/04/09 08:48:20.152782848,1744181300,152434999,mA1/gps,0,1,63.43459711928517,10.39309204841678,0.0,1.4400000000000002e-10,0.0,0.0,0.0,1.4400000000000002e-10,0.0,0.0,0.0,1.0,2
2025/04/09 08:48:20.204001823,1744181300,203369334,mA1/gps,0,1,63.43459711944233,10.393092050472415,0.0,1.4400000000000002e-10,0.0,0.0,0.0,1.4400000000000002e-10,0.0,0.0,0.0,1.0,2
2025/04/09 08:48:20.255167558,1744181300,253240043,mA1/gps,0,1,63.43459711950009,10.393092053053937,0.0,1.4400000000000002e-10,0.0,0.0,0.0,1.4400000000000002e-10,0.0,0.0,0.0,1.0,2
2025/04/09 08:48:20.304491961,1744181300,304188504,mA1/gps,0,1,63.43459711899037,10.393092055034925,0.0,1.4400000000000002e-10,0.0,0.0,0.0,1.4400000000000002e-10,0.0,0.0,0.0,1.0,2
2025/04/09 08:48:20.354652708,1744181300,353977635,mA1/gps,0,1,63.434597118172356,10.393092056118341,0.0,1.4400000000000002e-10,0.0,0.0,0.0,1.4400000000000002e-10,0.0,0.0,0.0,1.0,2
2025/04/09 08:48:20.406206857,1744181300,405511854,mA1/gps,0,1,63.434597117365776,10.393092057434952,0.0,1.4400000000000002e-10,0.0,0.0,0.0,1.4400000000000002e-10,0.0,0.0,0.0,1.0,2
2025/04/09 08:48:20.455516701,1744181300,455324348,mA1/gps,0,1,63.43459711640527,10.393092057251682,0.0,1.4400000000000002e-10,0.0,0.0,0.0,1.4400000000000002e-10,0.0,0.0,0.0,1.0,2
2025/04/09 08:48:20.506473497,1744181300,506267860,mA1/gps,0,1,63.434597115484436,10.393092056337474,0.0,1.4400000000000002e-10,0.0,0.0,0.0,1.4400000000000002e-10,0.0,0.0,0.0,1.0,2
2025/04/09 08:48:20.546295841,1744181300,546090753,mA1/gps,0,1,63.434597115924696,10.39309205621028,0.0,1.4400000000000002e-10,0.0,0.0,0.0,1.4400000000000002e-10,0.0,0.0,0.0,1.0,2
2025/04/09 08:48:20.598465711,1744181300,598212743,mA1/gps,0,1,63.43459711622468,10.393092054502832,0.0,1.4400000000000002e-10,0.0,0.0,0.0,1.4400000000000002e-10,0.0,0.0,0.0,1.0,2
2025/04/09 08:48:20.649318638,1744181300,649161036,mA1/gps,0,1,63.43459711589038,10.393092052171944,0.0,1.4400000000000002e-10,0.0,0.0,0.0,1.4400000000000002e-10,0.0,0.0,0.0,1.0,2
2025/04/09 08:48:20.702294792,1744181300,700422448,mA1/gps,0,1,63.43459711406412,10.393092047613246,0.0,1.4400000000000002e-10,0.0,0.0,0.0,1.4400000000000002e-10,0.0,0.0,0.0,1.0,2
2025/04/09 08:48:20.750474168,1744181300,750270254,mA1/gps,0,1,63.4345971135836,10.39309204314429,0.0,1.4400000000000002e-10,0.0,0.0,0.0,1.4400000000000002e-10,0.0,0.0,0.0,1.0,2
2025/04/09 08:48:20.801262859,1744181300,801171876,mA1/gps,0,1,63.434597113883896,10.393092039803442,0.0,1.4400000000000002e-10,0.0,0.0,0.0,1.4400000000000002e-10,0.0,0.0,0.0,1.0,2
2025/04/09 08:48:20.852333021,1744181300,852101109,mA1/gps,0,1,63.434597114377695,10.393092037080358,0.0,1.4400000000000002e-10,0.0,0.0,0.0,1.4400000000000002e-10,0.0,0.0,0.0,1.0,2
2025/04/09 08:48:20.903313710,1744181300,903144296,mA1/gps,0,1,63.4345971139706,10.393092035990193,0.0,1.4400000000000002e-10,0.0,0.0,0.0,1.4400000000000002e-10,0.0,0.0,0.0,1.0,2
2025/04/09 08:48:20.953581774,1744181300,953040158,mA1/gps,0,1,63.43459711365323,10.393092035732138,0.0,1.4400000000000002e-10,0.0,0.0,0.0,1.4400000000000002e-10,0.0,0.0,0.0,1.0,2
2025/04/09 08:48:21.4182788,1744181301,3972123,mA1/gps,0,1,63.43459711299464,10.39309203674972,0.0,1.4400000000000002e-10,0.0,0.0,0.0,1.4400000000000002e-10,0.0,0.0,0.0,1.0,2
2025/04/09 08:48:21.54712304,1744181301,54454991,mA1/gps,0,1,63.43459711226481,10.393092038207548,0.0,1.4400000000000002e-10,0.0,0.0,0.0,1.4400000000000002e-10,0.0,0.0,0.0,1.0,2
2025/04/09 08:48:21.107503995,1744181301,107325484,mA1/gps,0,1,63.43459711185753,10.393092041429513,0.0,1.4400000000000002e-10,0.0,0.0,0.0,1.4400000000000002e-10,0.0,0.0,0.0,1.0,2
2025/04/09 08:48:21.158636756,1744181301,155780830,mA1/gps,0,1,63.434597112250955,10.3930920450043,0.0,1.4400000000000002e-10,0.0,0.0,0.0,1.4400000000000002e-10,0.0,0.0,0.0,1.0,2
2025/04/09 08:48:21.196772509,1744181301,196570988,mA1/gps,0,1,63.43459711253619,10.393092048807077,0.0,1.4400000000000002e-10,0.0,0.0,0.0,1.4400000000000002e-10,0.0,0.0,0.0,1.0,2
2025/04/09 08:48:21.247753370,1744181301,247507521,mA1/gps,0,1,63.434597111984665,10.393092054059494,0.0,1.4400000000000002e-10,0.0,0.0,0.0,1.4400000000000002e-10,0.0,0.0,0.0,1.0,2
2025/04/09 08:48:21.297549010,1744181301,297429272,mA1/gps,0,1,63.434597109702004,10.393092058175377,0.0,1.4400000000000002e-10,0.0,0.0,0.0,1.4400000000000002e-10,0.0,0.0,0.0,1.0,2
2025/04/09 08:48:21.348241976,1744181301,347266865,mA1/gps,0,1,63.43459710907456,10.393092062600319,0.0,1.4400000000000002e-10,0.0,0.0,0.0,1.4400000000000002e-10,0.0,0.0,0.0,1.0,2
2025/04/09 08:48:21.406051437,1744181301,398498539,mA1/gps,0,1,63.434597108766404,10.393092066016536,0.0,1.4400000000000002e-10,0.0,0.0,0.0,1.4400000000000002e-10,0.0,0.0,0.0,1.0,2
2025/04/09 08:48:21.448736281,1744181301,448514695,mA1/gps,0,1,63.43459710886028,10.393092070626084,0.0,1.4400000000000002e-10,0.0,0.0,0.0,1.4400000000000002e-10,0.0,0.0,0.0,1.0,2
2025/04/09 08:48:21.499527179,1744181301,499405201,mA1/gps,0,1,63.43459710767553,10.393092073788734,0.0,1.4400000000000002e-10,0.0,0.0,0.0,1.4400000000000002e-10,0.0,0.0,0.0,1.0,2
2025/04/09 08:48:21.551199433,1744181301,549295208,mA1/gps,0,1,63.43459710676798,10.393092077436677,0.0,1.4400000000000002e-10,0.0,0.0,0.0,1.4400000000000002e-10,0.0,0.0,0.0,1.0,2
2025/04/09 08:48:21.601302826,1744181301,601048892,mA1/gps,0,1,63.43459710561987,10.393092079991456,0.0,1.4400000000000002e-10,0.0,0.0,0.0,1.4400000000000002e-10,0.0,0.0,0.0,1.0,2
2025/04/09 08:48:21.651099106,1744181301,650816258,mA1/gps,0,1,63.43459710460024,10.393092082252924,0.0,1.4400000000000002e-10,0.0,0.0,0.0,1.4400000000000002e-10,0.0,0.0,0.0,1.0,2
2025/04/09 08:48:21.703098847,1744181301,702127588,mA1/gps,0,1,63.434597103337616,10.393092082793965,0.0,1.4400000000000002e-10,0.0,0.0,0.0,1.4400000000000002e-10,0.0,0.0,0.0,1.0,2
2025/04/09 08:48:21.753874166,1744181301,753535267,mA1/gps,0,1,63.4345971032943,10.39309208383039,0.0,1.4400000000000002e-10,0.0,0.0,0.0,1.4400000000000002e-10,0.0,0.0,0.0,1.0,2
2025/04/09 08:48:21.806781291,1744181301,806408188,mA1/gps,0,1,63.43459710349286,10.393092081982163,0.0,1.4400000000000002e-10,0.0,0.0,0.0,1.4400000000000002e-10,0.0,0.0,0.0,1.0,2
2025/04/09 08:48:21.846613588,1744181301,846273969,mA1/gps,0,1,63.43459710281405,10.393092080199482,0.0,1.4400000000000002e-10,0.0,0.0,0.0,1.4400000000000002e-10,0.0,0.0,0.0,1.0,2
2025/04/09 08:48:21.899008255,1744181301,897202389,mA1/gps,0,1,63.434597101013274,10.39309207591286,0.0,1.4400000000000002e-10,0.0,0.0,0.0,1.4400000000000002e-10,0.0,0.0,0.0,1.0,2
2025/04/09 08:48:21.947405676,1744181301,947078769,mA1/gps,0,1,63.4345971001197,10.393092071728384,0.0,1.4400000000000002e-10,0.0,0.0,0.0,1.4400000000000002e-10,0.0,0.0,0.0,1.0,2
2025/04/09 08:48:21.998196435,1744181301,998008559,mA1/gps,0,1,63.43459710080271,10.393092066816461,0.0,1.4400000000000002e-10,0.0,0.0,0.0,1.4400000000000002e-10,0.0,0.0,0.0,1.0,2
2025/04/09 08:48:22.48218330,1744181302,47811877,mA1/gps,0,1,63.43459710125035,10.393092060843596,0.0,1.4400000000000002e-10,0.0,0.0,0.0,1.4400000000000002e-10,0.0,0.0,0.0,1.0,2
2025/04/09 08:48:22.100912637,1744181302,100641766,mA1/gps,0,1,63.43459710097419,10.393092054633554,0.0,1.4400000000000002e-10,0.0,0.0,0.0,1.4400000000000002e-10,0.0,0.0,0.0,1.0,2
2025/04/09 08:48:22.150750800,1744181302,150466374,mA1/gps,0,1,63.434597100850795,10.393092049308114,0.0,1.4400000000000002e-10,0.0,0.0,0.0,1.4400000000000002e-10,0.0,0.0,0.0,1.0,2
2025/04/09 08:48:22.201859702,1744181302,201493446,mA1/gps,0,1,63.43459710058248,10.393092043792226,0.0,1.4400000000000002e-10,0.0,0.0,0.0,1.4400000000000002e-10,0.0,0.0,0.0,1.0,2
2025/04/09 08:48:22.253274253,1744181302,253015630,mA1/gps,0,1,63.434597100402044,10.393092039994864,0.0,1.4400000000000002e-10,0.0,0.0,0.0,1.4400000000000002e-10,0.0,0.0,0.0,1.0,2
2025/04/09 08:48:22.304397480,1744181302,303989574,mA1/gps,0,1,63.434597100411466,10.393092037708213,0.0,1.4400000000000002e-10,0.0,0.0,0.0,1.4400000000000002e-10,0.0,0.0,0.0,1.0,2
2025/04/09 08:48:22.346245398,1744181302,345904738,mA1/gps,0,1,63.434597101182426,10.393092036696519,0.0,1.4400000000000002e-10,0.0,0.0,0.0,1.4400000000000002e-10,0.0,0.0,0.0,1.0,2
2025/04/09 08:48:22.397486582,1744181302,396867810,mA1/gps,0,1,63.43459710219631,10.393092036841539,0.0,1.4400000000000002e-10,0.0,0.0,0.0,1.4400000000000002e-10,0.0,0.0,0.0,1.0,2
2025/04/09 08:48:22.448321257,1744181302,447016449,mA1/gps,0,1,63.43459710204762,10.393092038689606,0.0,1.4400000000000002e-10,0.0,0.0,0.0,1.4400000000000002e-10,0.0,0.0,0.0,1.0,2
2025/04/09 08:48:22.498136502,1744181302,497907812,mA1/gps,0,1,63.43459710078957,10.393092041103477,0.0,1.4400000000000002e-10,0.0,0.0,0.0,1.4400000000000002e-10,0.0,0.0,0.0,1.0,2
2025/04/09 08:48:22.548889777,1744181302,547969378,mA1/gps,0,1,63.434597100590615,10.393092043722438,0.0,1.4400000000000002e-10,0.0,0.0,0.0,1.4400000000000002e-10,0.0,0.0,0.0,1.0,2
2025/04/09 08:48:22.600525835,1744181302,599406676,mA1/gps,0,1,63.43459710124204,10.393092047621117,0.0,1.4400000000000002e-10,0.0,0.0,0.0,1.4400000000000002e-10,0.0,0.0,0.0,1.0,2
2025/04/09 08:48:22.650474866,1744181302,650337123,mA1/gps,0,1,63.434597101791795,10.393092051189832,0.0,1.4400000000000002e-10,0.0,0.0,0.0,1.4400000000000002e-10,0.0,0.0,0.0,1.0,2
2025/04/09 08:48:22.701605939,1744181302,700750859,mA1/gps,0,1,63.4345971012054,10.393092055371117,0.0,1.4400000000000002e-10,0.0,0.0,0.0,1.4400000000000002e-10,0.0,0.0,0.0,1.0,2
2025/04/09 08:48:22.751158328,1744181302,751038834,mA1/gps,0,1,63.434597100826366,10.393092059461246,0.0,1.4400000000000002e-10,0.0,0.0,0.0,1.4400000000000002e-10,0.0,0.0,0.0,1.0,2
2025/04/09 08:48:22.802707961,1744181302,801963154,mA1/gps,0,1,63.43459709975496,10.393092062935825,0.0,1.4400000000000002e-10,0.0,0.0,0.0,1.4400000000000002e-10,0.0,0.0,0.0,1.0,2
2025/04/09 08:48:22.857580351,1744181302,856324524,mA1/gps,0,1,63.43459709893307,10.393092066115775,0.0,1.4400000000000002e-10,0.0,0.0,0.0,1.4400000000000002e-10,0.0,0.0,0.0,1.0,2
2025/04/09 08:48:22.896986488,1744181302,896514698,mA1/gps,0,1,63.43459709793266,10.393092069045895,0.0,1.4400000000000002e-10,0.0,0.0,0.0,1.4400000000000002e-10,0.0,0.0,0.0,1.0,2
2025/04/09 08:48:22.946557109,1744181302,946160388,mA1/gps,0,1,63.434597097498525,10.393092071408512,0.0,1.4400000000000002e-10,0.0,0.0,0.0,1.4400000000000002e-10,0.0,0.0,0.0,1.0,2
2025/04/09 08:48:22.998234719,1744181302,998129416,mA1/gps,0,1,63.43459709799355,10.393092072642812,0.0,1.4400000000000002e-10,0.0,0.0,0.0,1.4400000000000002e-10,0.0,0.0,0.0,1.0,2
2025/04/09 08:48:23.48075789,1744181303,47833835,mA1/gps,0,1,63.43459709660919,10.393092073386988,0.0,1.4400000000000002e-10,0.0,0.0,0.0,1.4400000000000002e-10,0.0,0.0,0.0,1.0,2
2025/04/09 08:48:23.100757592,1744181303,98785560,mA1/gps,0,1,63.434597094589854,10.393092071919117,0.0,1.4400000000000002e-10,0.0,0.0,0.0,1.4400000000000002e-10,0.0,0.0,0.0,1.0,2
2025/04/09 08:48:23.149875619,1744181303,149484065,mA1/gps,0,1,63.434597093515976,10.393092070014912,0.0,1.4400000000000002e-10,0.0,0.0,0.0,1.4400000000000002e-10,0.0,0.0,0.0,1.0,2
2025/04/09 08:48:23.201336435,1744181303,201133270,mA1/gps,0,1,63.43459709316644,10.393092066823172,0.0,1.4400000000000002e-10,0.0,0.0,0.0,1.4400000000000002e-10,0.0,0.0,0.0,1.0,2
2025/04/09 08:48:23.252090179,1744181303,251173047,mA1/gps,0,1,63.43459709334866,10.393092062767083,0.0,1.4400000000000002e-10,0.0,0.0,0.0,1.4400000000000002e-10,0.0,0.0,0.0,1.0,2
2025/04/09 08:48:23.302551991,1744181303,302210470,mA1/gps,0,1,63.434597092529245,10.393092058449332,0.0,1.4400000000000002e-10,0.0,0.0,0.0,1.4400000000000002e-10,0.0,0.0,0.0,1.0,2
2025/04/09 08:48:23.352175539,1744181303,351964315,mA1/gps,0,1,63.4345970919836,10.393092054462096,0.0,1.4400000000000002e-10,0.0,0.0,0.0,1.4400000000000002e-10,0.0,0.0,0.0,1.0,2
2025/04/09 08:48:23.403202245,1744181303,402942903,mA1/gps,0,1,63.43459709140439,10.393092049380881,0.0,1.4400000000000002e-10,0.0,0.0,0.0,1.4400000000000002e-10,0.0,0.0,0.0,1.0,2
2025/04/09 08:48:23.458856012,1744181303,456025620,mA1/gps,0,1,63.4345970907641,10.393092045585897,0.0,1.4400000000000002e-10,0.0,0.0,0.0,1.4400000000000002e-10,0.0,0.0,0.0,1.0,2
2025/04/09 08:48:23.505793948,1744181303,505553726,mA1/gps,0,1,63.43459709020377,10.393092041892634,0.0,1.4400000000000002e-10,0.0,0.0,0.0,1.4400000000000002e-10,0.0,0.0,0.0,1.0,2
2025/04/09 08:48:23.556781296,1744181303,555831031,mA1/gps,0,1,63.43459709081597,10.393092039520804,0.0,1.4400000000000002e-10,0.0,0.0,0.0,1.4400000000000002e-10,0.0,0.0,0.0,1.0,2
2025/04/09 08:48:23.597430148,1744181303,597164621,mA1/gps,0,1,63.43459709146278,10.393092037463612,0.0,1.4400000000000002e-10,0.0,0.0,0.0,1.4400000000000002e-10,0.0,0.0,0.0,1.0,2
2025/04/09 08:48:23.647246873,1744181303,646968325,mA1/gps,0,1,63.43459709138247,10.393092036795556,0.0,1.4400000000000002e-10,0.0,0.0,0.0,1.4400000000000002e-10,0.0,0.0,0.0,1.0,2
2025/04/09 08:48:23.698148565,1744181303,697906355,mA1/gps,0,1,63.434597090387534,10.393092036128426,0.0,1.4400000000000002e-10,0.0,0.0,0.0,1.4400000000000002e-10,0.0,0.0,0.0,1.0,2
2025/04/09 08:48:23.748107347,1744181303,747765554,mA1/gps,0,1,63.43459709020833,10.393092037465308,0.0,1.4400000000000002e-10,0.0,0.0,0.0,1.4400000000000002e-10,0.0,0.0,0.0,1.0,2
2025/04/09 08:48:23.799965399,1744181303,799014952,mA1/gps,0,1,63.43459709118685,10.39309203997599,0.0,1.4400000000000002e-10,0.0,0.0,0.0,1.4400000000000002e-10,0.0,0.0,0.0,1.0,2
2025/04/09 08:48:23.849570230,1744181303,848944826,mA1/gps,0,1,63.43459709193392,10.393092044240865,0.0,1.4400000000000002e-10,0.0,0.0,0.0,1.4400000000000002e-10,0.0,0.0,0.0,1.0,2
2025/04/09 08:48:23.903204554,1744181303,900358960,mA1/gps,0,1,63.43459709203054,10.393092049391118,0.0,1.4400000000000002e-10,0.0,0.0,0.0,1.4400000000000002e-10,0.0,0.0,0.0,1.0,2
2025/04/09 08:48:23.950046574,1744181303,949895217,mA1/gps,0,1,63.43459709191571,10.393092053769116,0.0,1.4400000000000002e-10,0.0,0.0,0.0,1.4400000000000002e-10,0.0,0.0,0.0,1.0,2
2025/04/09 08:48:24.3689726,1744181304,3216458,mA1/gps,0,1,63.43459709152624,10.393092059599834,0.0,1.4400000000000002e-10,0.0,0.0,0.0,1.4400000000000002e-10,0.0,0.0,0.0,1.0,2
2025/04/09 08:48:24.53310029,1744181304,53048879,mA1/gps,0,1,63.43459709102222,10.393092065254386,0.0,1.4400000000000002e-10,0.0,0.0,0.0,1.4400000000000002e-10,0.0,0.0,0.0,1.0,2
2025/04/09 08:48:24.107893610,1744181304,105806505,mA1/gps,0,1,63.43459709064247,10.393092070066576,0.0,1.4400000000000002e-10,0.0,0.0,0.0,1.4400000000000002e-10,0.0,0.0,0.0,1.0,2
2025/04/09 08:48:24.155384417,1744181304,155008299,mA1/gps,0,1,63.43459709088896,10.393092074546153,0.0,1.4400000000000002e-10,0.0,0.0,0.0,1.4400000000000002e-10,0.0,0.0,0.0,1.0,2
2025/04/09 08:48:24.206092969,1744181304,205925146,mA1/gps,0,1,63.43459709164193,10.393092077824361,0.0,1.4400000000000002e-10,0.0,0.0,0.0,1.4400000000000002e-10,0.0,0.0,0.0,1.0,2
2025/04/09 08:48:24.255880151,1744181304,255705074,mA1/gps,0,1,63.43459709108019,10.393092079713169,0.0,1.4400000000000002e-10,0.0,0.0,0.0,1.4400000000000002e-10,0.0,0.0,0.0,1.0,2
2025/04/09 08:48:24.296829818,1744181304,296626819,mA1/gps,0,1,63.43459708938201,10.393092080733638,0.0,1.4400000000000002e-10,0.0,0.0,0.0,1.4400000000000002e-10,0.0,0.0,0.0,1.0,2
2025/04/09 08:48:24.346757466,1744181304,346508354,mA1/gps,0,1,63.434597088916064,10.393092081352593,0.0,1.4400000000000002e-10,0.0,0.0,0.0,1.4400000000000002e-10,0.0,0.0,0.0,1.0,2
2025/04/09 08:48:24.399079036,1744181304,397322786,mA1/gps,0,1,63.434597089612005,10.393092080344642,0.0,1.4400000000000002e-10,0.0,0.0,0.0,1.4400000000000002e-10,0.0,0.0,0.0,1.0,2
2025/04/09 08:48:24.448140508,1744181304,447697008,mA1/gps,0,1,63.43459708923021,10.393092078748294,0.0,1.4400000000000002e-10,0.0,0.0,0.0,1.4400000000000002e-10,0.0,0.0,0.0,1.0,2
2025/04/09 08:48:24.498664168,1744181304,498515254,mA1/gps,0,1,63.43459708971661,10.393092075117327,0.0,1.4400000000000002e-10,0.0,0.0,0.0,1.4400000000000002e-10,0.0,0.0,0.0,1.0,2
2025/04/09 08:48:24.550099412,1744181304,548345242,mA1/gps,0,1,63.434597090827644,10.393092071867349,0.0,1.4400000000000002e-10,0.0,0.0,0.0,1.4400000000000002e-10,0.0,0.0,0.0,1.0,2
2025/04/09 08:48:24.599617326,1744181304,599343943,mA1/gps,0,1,63.43459709258991,10.393092067417598,0.0,1.4400000000000002e-10,0.0,0.0,0.0,1.4400000000000002e-10,0.0,0.0,0.0,1.0,2
2025/04/09 08:48:24.649665535,1744181304,649157813,mA1/gps,0,1,63.4345970954692,10.393092062364822,0.0,1.4400000000000002e-10,0.0,0.0,0.0,1.4400000000000002e-10,0.0,0.0,0.0,1.0,2
2025/04/09 08:48:24.700370811,1744181304,700148083,mA1/gps,0,1,63.434597100524265,10.393092057525841,0.0,1.4400000000000002e-10,0.0,0.0,0.0,1.4400000000000002e-10,0.0,0.0,0.0,1.0,2
2025/04/09 08:48:24.755214477,1744181304,750001959,mA1/gps,0,1,63.434597106073234,10.393092051854396,0.0,1.4400000000000002e-10,0.0,0.0,0.0,1.4400000000000002e-10,0.0,0.0,0.0,1.0,2
2025/04/09 08:48:24.803114102,1744181304,801630614,mA1/gps,0,1,63.434597114339205,10.39309204811035,0.0,1.4400000000000002e-10,0.0,0.0,0.0,1.4400000000000002e-10,0.0,0.0,0.0,1.0,2
2025/04/09 08:48:24.852841644,1744181304,852347605,mA1/gps,0,1,63.43459712453218,10.39309204384855,0.0,1.4400000000000002e-10,0.0,0.0,0.0,1.4400000000000002e-10,0.0,0.0,0.0,1.0,2
2025/04/09 08:48:24.904794145,1744181304,904533839,mA1/gps,0,1,63.43459713745197,10.393092040699358,0.0,1.4400000000000002e-10,0.0,0.0,0.0,1.4400000000000002e-10,0.0,0.0,0.0,1.0,2
2025/04/09 08:48:24.955457987,1744181304,955164933,mA1/gps,0,1,63.434597152455574,10.393092038717853,0.0,1.4400000000000002e-10,0.0,0.0,0.0,1.4400000000000002e-10,0.0,0.0,0.0,1.0,2
2025/04/09 08:48:25.6997190,1744181305,6105938,mA1/gps,0,1,63.43459717108224,10.393092038054554,0.0,1.4400000000000002e-10,0.0,0.0,0.0,1.4400000000000002e-10,0.0,0.0,0.0,1.0,2
2025/04/09 08:48:25.47622316,1744181305,46671993,mA1/gps,0,1,63.434597192349564,10.39309203771706,0.0,1.4400000000000002e-10,0.0,0.0,0.0,1.4400000000000002e-10,0.0,0.0,0.0,1.0,2
2025/04/09 08:48:25.97064773,1744181305,96755922,mA1/gps,0,1,63.43459721771996,10.393092038812448,0.0,1.4400000000000002e-10,0.0,0.0,0.0,1.4400000000000002e-10,0.0,0.0,0.0,1.0,2
2025/04/09 08:48:25.147546079,1744181305,146793193,mA1/gps,0,1,63.43459724683409,10.39309204096344,0.0,1.4400000000000002e-10,0.0,0.0,0.0,1.4400000000000002e-10,0.0,0.0,0.0,1.0,2
2025/04/09 08:48:25.198106582,1744181305,197827039,mA1/gps,0,1,63.4345972793862,10.39309204390322,0.0,1.4400000000000002e-10,0.0,0.0,0.0,1.4400000000000002e-10,0.0,0.0,0.0,1.0,2
2025/04/09 08:48:25.247925676,1744181305,247698390,mA1/gps,0,1,63.43459731456825,10.39309204713335,0.0,1.4400000000000002e-10,0.0,0.0,0.0,1.4400000000000002e-10,0.0,0.0,0.0,1.0,2
2025/04/09 08:48:25.299013934,1744181305,298605471,mA1/gps,0,1,63.43459735397128,10.393092050655792,0.0,1.4400000000000002e-10,0.0,0.0,0.0,1.4400000000000002e-10,0.0,0.0,0.0,1.0,2
2025/04/09 08:48:25.348673920,1744181305,348431618,mA1/gps,0,1,63.434597396783566,10.393092055195547,0.0,1.4400000000000002e-10,0.0,0.0,0.0,1.4400000000000002e-10,0.0,0.0,0.0,1.0,2
2025/04/09 08:48:25.401157122,1744181305,399384754,mA1/gps,0,1,63.434597441873805,10.39309205945101,0.0,1.4400000000000002e-10,0.0,0.0,0.0,1.4400000000000002e-10,0.0,0.0,0.0,1.0,2
2025/04/09 08:48:25.451460927,1744181305,449631621,mA1/gps,0,1,63.434597491263446,10.393092062229304,0.0,1.4400000000000002e-10,0.0,0.0,0.0,1.4400000000000002e-10,0.0,0.0,0.0,1.0,2
2025/04/09 08:48:25.500734175,1744181305,500563339,mA1/gps,0,1,63.43459754187391,10.393092064683694,0.0,1.4400000000000002e-10,0.0,0.0,0.0,1.4400000000000002e-10,0.0,0.0,0.0,1.0,2
2025/04/09 08:48:25.552520394,1744181305,551731366,mA1/gps,0,1,63.43459759578859,10.393092066712704,0.0,1.4400000000000002e-10,0.0,0.0,0.0,1.4400000000000002e-10,0.0,0.0,0.0,1.0,2
2025/04/09 08:48:25.602493674,1744181305,602061143,mA1/gps,0,1,63.43459765144635,10.39309206846493,0.0,1.4400000000000002e-10,0.0,0.0,0.0,1.4400000000000002e-10,0.0,0.0,0.0,1.0,2
2025/04/09 08:48:25.652076222,1744181305,651843414,mA1/gps,0,1,63.434597708254465,10.393092070008842,0.0,1.4400000000000002e-10,0.0,0.0,0.0,1.4400000000000002e-10,0.0,0.0,0.0,1.0,2
2025/04/09 08:48:25.703141374,1744181305,702813797,mA1/gps,0,1,63.43459776596177,10.393092071166851,0.0,1.4400000000000002e-10,0.0,0.0,0.0,1.4400000000000002e-10,0.0,0.0,0.0,1.0,2
2025/04/09 08:48:25.755888295,1744181305,752720617,mA1/gps,0,1,63.4345978251721,10.393092071675087,0.0,1.4400000000000002e-10,0.0,0.0,0.0,1.4400000000000002e-10,0.0,0.0,0.0,1.0,2
2025/04/09 08:48:25.803802293,1744181305,803619075,mA1/gps,0,1,63.43459788444552,10.39309207091116,0.0,1.4400000000000002e-10,0.0,0.0,0.0,1.4400000000000002e-10,0.0,0.0,0.0,1.0,2
2025/04/09 08:48:25.853722818,1744181305,853454315,mA1/gps,0,1,63.43459794527393,10.393092068029137,0.0,1.4400000000000002e-10,0.0,0.0,0.0,1.4400000000000002e-10,0.0,0.0,0.0,1.0,2
2025/04/09 08:48:25.905540848,1744181305,904524834,mA1/gps,0,1,63.43459800487585,10.393092063906233,0.0,1.4400000000000002e-10,0.0,0.0,0.0,1.4400000000000002e-10,0.0,0.0,0.0,1.0,2
2025/04/09 08:48:25.955917771,1744181305,954550236,mA1/gps,0,1,63.4345980663533,10.393092057457165,0.0,1.4400000000000002e-10,0.0,0.0,0.0,1.4400000000000002e-10,0.0,0.0,0.0,1.0,2
2025/04/09 08:48:26.5749995,1744181306,5506465,mA1/gps,0,1,63.43459812715078,10.39309204910851,0.0,1.4400000000000002e-10,0.0,0.0,0.0,1.4400000000000002e-10,0.0,0.0,0.0,1.0,2
2025/04/09 08:48:26.56372630,1744181306,55598176,mA1/gps,0,1,63.43459818698369,10.393092039904102,0.0,1.4400000000000002e-10,0.0,0.0,0.0,1.4400000000000002e-10,0.0,0.0,0.0,1.0,2
2025/04/09 08:48:26.106560234,1744181306,106423085,mA1/gps,0,1,63.434598247916995,10.393092031364647,0.0,1.4400000000000002e-10,0.0,0.0,0.0,1.4400000000000002e-10,0.0,0.0,0.0,1.0,2
2025/04/09 08:48:26.146320200,1744181306,146083882,mA1/gps,0,1,63.43459830857798,10.393092021226984,0.0,1.4400000000000002e-10,0.0,0.0,0.0,1.4400000000000002e-10,0.0,0.0,0.0,1.0,2
2025/04/09 08:48:26.198043207,1744181306,197454762,mA1/gps,0,1,63.434598371918156,10.393092011706395,0.0,1.4400000000000002e-10,0.0,0.0,0.0,1.4400000000000002e-10,0.0,0.0,0.0,1.0,2
2025/04/09 08:48:26.247415838,1744181306,247203216,mA1/gps,0,1,63.43459843469319,10.393092002898381,0.0,1.4400000000000002e-10,0.0,0.0,0.0,1.4400000000000002e-10,0.0,0.0,0.0,1.0,2
2025/04/09 08:48:26.299760264,1744181306,298081249,mA1/gps,0,1,63.434598498632454,10.393091994657826,0.0,1.4400000000000002e-10,0.0,0.0,0.0,1.4400000000000002e-10,0.0,0.0,0.0,1.0,2
2025/04/09 08:48:26.348645741,1744181306,348172836,mA1/gps,0,1,63.43459856325554,10.393091987156598,0.0,1.4400000000000002e-10,0.0,0.0,0.0,1.4400000000000002e-10,0.0,0.0,0.0,1.0,2
2025/04/09 08:48:26.399200141,1744181306,398928545,mA1/gps,0,1,63.434598630028546,10.393091980655852,0.0,1.4400000000000002e-10,0.0,0.0,0.0,1.4400000000000002e-10,0.0,0.0,0.0,1.0,2
2025/04/09 08:48:26.448945926,1744181306,448746035,mA1/gps,0,1,63.43459869998203,10.393091974811847,0.0,1.4400000000000002e-10,0.0,0.0,0.0,1.4400000000000002e-10,0.0,0.0,0.0,1.0,2
2025/04/09 08:48:26.499888716,1744181306,499680027,mA1/gps,0,1,63.434598771334095,10.393091971292762,0.0,1.4400000000000002e-10,0.0,0.0,0.0,1.4400000000000002e-10,0.0,0.0,0.0,1.0,2
2025/04/09 08:48:26.550507109,1744181306,549523877,mA1/gps,0,1,63.43459884500924,10.393091968836908,0.0,1.4400000000000002e-10,0.0,0.0,0.0,1.4400000000000002e-10,0.0,0.0,0.0,1.0,2
2025/04/09 08:48:26.602691165,1744181306,601183218,mA1/gps,0,1,63.43459892144524,10.39309196888498,0.0,1.4400000000000002e-10,0.0,0.0,0.0,1.4400000000000002e-10,0.0,0.0,0.0,1.0,2
2025/04/09 08:48:26.653399469,1744181306,653142692,mA1/gps,0,1,63.43459900165528,10.393091970480286,0.0,1.4400000000000002e-10,0.0,0.0,0.0,1.4400000000000002e-10,0.0,0.0,0.0,1.0,2
2025/04/09 08:48:26.705678507,1744181306,704601258,mA1/gps,0,1,63.43459908386735,10.393091972717782,0.0,1.4400000000000002e-10,0.0,0.0,0.0,1.4400000000000002e-10,0.0,0.0,0.0,1.0,2
2025/04/09 08:48:26.755135253,1744181306,754498183,mA1/gps,0,1,63.434599168128905,10.393091975905854,0.0,1.4400000000000002e-10,0.0,0.0,0.0,1.4400000000000002e-10,0.0,0.0,0.0,1.0,2
2025/04/09 08:48:26.806094557,1744181306,805872028,mA1/gps,0,1,63.434599255989305,10.393091980157886,0.0,1.4400000000000002e-10,0.0,0.0,0.0,1.4400000000000002e-10,0.0,0.0,0.0,1.0,2
2025/04/09 08:48:26.855935444,1744181306,855627614,mA1/gps,0,1,63.434599347120916,10.393091983943036,0.0,1.4400000000000002e-10,0.0,0.0,0.0,1.4400000000000002e-10,0.0,0.0,0.0,1.0,2
2025/04/09 08:48:26.898879626,1744181306,897084701,mA1/gps,0,1,63.43459943872558,10.393091987399233,0.0,1.4400000000000002e-10,0.0,0.0,0.0,1.4400000000000002e-10,0.0,0.0,0.0,1.0,2
2025/04/09 08:48:26.950582082,1744181306,948740762,mA1/gps,0,1,63.434599533301814,10.393091990303237,0.0,1.4400000000000002e-10,0.0,0.0,0.0,1.4400000000000002e-10,0.0,0.0,0.0,1.0,2
2025/04/09 08:48:27.1700128,1744181306,999950463,mA1/gps,0,1,63.434599630051665,10.393091991881027,0.0,1.4400000000000002e-10,0.0,0.0,0.0,1.4400000000000002e-10,0.0,0.0,0.0,1.0,2
2025/04/09 08:48:27.50161664,1744181307,49795551,mA1/gps,0,1,63.43459972828068,10.393091992826415,0.0,1.4400000000000002e-10,0.0,0.0,0.0,1.4400000000000002e-10,0.0,0.0,0.0,1.0,2
2025/04/09 08:48:27.101956600,1744181307,101073874,mA1/gps,0,1,63.43459982627652,10.393091991930227,0.0,1.4400000000000002e-10,0.0,0.0,0.0,1.4400000000000002e-10,0.0,0.0,0.0,1.0,2
2025/04/09 08:48:27.151007681,1744181307,150783902,mA1/gps,0,1,63.43459992506128,10.393091989988898,0.0,1.4400000000000002e-10,0.0,0.0,0.0,1.4400000000000002e-10,0.0,0.0,0.0,1.0,2
2025/04/09 08:48:27.204907562,1744181307,201783255,mA1/gps,0,1,63.43460002551236,10.393091986845198,0.0,1.4400000000000002e-10,0.0,0.0,0.0,1.4400000000000002e-10,0.0,0.0,0.0,1.0,2
2025/04/09 08:48:27.254403560,1744181307,252634292,mA1/gps,0,1,63.43460012465868,10.393091982771672,0.0,1.4400000000000002e-10,0.0,0.0,0.0,1.4400000000000002e-10,0.0,0.0,0.0,1.0,2
2025/04/09 08:48:27.305878400,1744181307,305683007,mA1/gps,0,1,63.43460022532715,10.393091976947638,0.0,1.4400000000000002e-10,0.0,0.0,0.0,1.4400000000000002e-10,0.0,0.0,0.0,1.0,2
2025/04/09 08:48:27.359233155,1744181307,355988580,mA1/gps,0,1,63.434600325104725,10.393091971171701,0.0,1.4400000000000002e-10,0.0,0.0,0.0,1.4400000000000002e-10,0.0,0.0,0.0,1.0,2
2025/04/09 08:48:27.396898686,1744181307,396701503,mA1/gps,0,1,63.43460042338699,10.39309196401127,0.0,1.4400000000000002e-10,0.0,0.0,0.0,1.4400000000000002e-10,0.0,0.0,0.0,1.0,2
2025/04/09 08:48:27.447017694,1744181307,446836451,mA1/gps,0,1,63.434600521902404,10.393091957297631,0.0,1.4400000000000002e-10,0.0,0.0,0.0,1.4400000000000002e-10,0.0,0.0,0.0,1.0,2
2025/04/09 08:48:27.498238784,1744181307,497884009,mA1/gps,0,1,63.43460062020257,10.393091950845935,0.0,1.4400000000000002e-10,0.0,0.0,0.0,1.4400000000000002e-10,0.0,0.0,0.0,1.0,2
2025/04/09 08:48:27.548044770,1744181307,547818989,mA1/gps,0,1,63.434600718330394,10.393091945573774,0.0,1.4400000000000002e-10,0.0,0.0,0.0,1.4400000000000002e-10,0.0,0.0,0.0,1.0,2
2025/04/09 08:48:27.598823012,1744181307,598677205,mA1/gps,0,1,63.434600814023945,10.39309194140966,0.0,1.4400000000000002e-10,0.0,0.0,0.0,1.4400000000000002e-10,0.0,0.0,0.0,1.0,2
2025/04/09 08:48:27.649827902,1744181307,649415991,mA1/gps,0,1,63.434600910535934,10.393091939535752,0.0,1.4400000000000002e-10,0.0,0.0,0.0,1.4400000000000002e-10,0.0,0.0,0.0,1.0,2
2025/04/09 08:48:27.702755772,1744181307,700319250,mA1/gps,0,1,63.43460100798758,10.39309193858129,0.0,1.4400000000000002e-10,0.0,0.0,0.0,1.4400000000000002e-10,0.0,0.0,0.0,1.0,2
2025/04/09 08:48:27.750237396,1744181307,750038496,mA1/gps,0,1,63.4346011062628,10.393091938601957,0.0,1.4400000000000002e-10,0.0,0.0,0.0,1.4400000000000002e-10,0.0,0.0,0.0,1.0,2
2025/04/09 08:48:27.802542365,1744181307,801413291,mA1/gps,0,1,63.43460120396872,10.393091938840819,0.0,1.4400000000000002e-10,0.0,0.0,0.0,1.4400000000000002e-10,0.0,0.0,0.0,1.0,2
2025/04/09 08:48:27.852666743,1744181307,851104905,mA1/gps,0,1,63.43460130284137,10.39309194048613,0.0,1.4400000000000002e-10,0.0,0.0,0.0,1.4400000000000002e-10,0.0,0.0,0.0,1.0,2
2025/04/09 08:48:27.904059076,1744181307,902146246,mA1/gps,0,1,63.43460140316758,10.393091942068498,0.0,1.4400000000000002e-10,0.0,0.0,0.0,1.4400000000000002e-10,0.0,0.0,0.0,1.0,2
2025/04/09 08:48:27.952874997,1744181307,952770974,mA1/gps,0,1,63.43460150497895,10.393091944367699,0.0,1.4400000000000002e-10,0.0,0.0,0.0,1.4400000000000002e-10,0.0,0.0,0.0,1.0,2
2025/04/09 08:48:28.3772596,1744181308,3578565,mA1/gps,0,1,63.43460161028754,10.393091946797544,0.0,1.4400000000000002e-10,0.0,0.0,0.0,1.4400000000000002e-10,0.0,0.0,0.0,1.0,2
2025/04/09 08:48:28.58909115,1744181308,55820250,mA1/gps,0,1,63.4346017146233,10.393091949710023,0.0,1.4400000000000002e-10,0.0,0.0,0.0,1.4400000000000002e-10,0.0,0.0,0.0,1.0,2
2025/04/09 08:48:28.97107048,1744181308,96862517,mA1/gps,0,1,63.43460182154921,10.393091951924978,0.0,1.4400000000000002e-10,0.0,0.0,0.0,1.4400000000000002e-10,0.0,0.0,0.0,1.0,2
2025/04/09 08:48:28.148020172,1744181308,147798514,mA1/gps,0,1,63.43460193359482,10.393091953385184,0.0,1.4400000000000002e-10,0.0,0.0,0.0,1.4400000000000002e-10,0.0,0.0,0.0,1.0,2
2025/04/09 08:48:28.200505392,1744181308,198811146,mA1/gps,0,1,63.43460204401369,10.393091953561767,0.0,1.4400000000000002e-10,0.0,0.0,0.0,1.4400000000000002e-10,0.0,0.0,0.0,1.0,2
2025/04/09 08:48:28.249100781,1744181308,248881981,mA1/gps,0,1,63.43460215846792,10.393091953067918,0.0,1.4400000000000002e-10,0.0,0.0,0.0,1.4400000000000002e-10,0.0,0.0,0.0,1.0,2
2025/04/09 08:48:28.300428620,1744181308,299831309,mA1/gps,0,1,63.43460227498723,10.393091952085227,0.0,1.4400000000000002e-10,0.0,0.0,0.0,1.4400000000000002e-10,0.0,0.0,0.0,1.0,2
2025/04/09 08:48:28.351541367,1744181308,351449300,mA1/gps,0,1,63.43460239264342,10.393091949859294,0.0,1.4400000000000002e-10,0.0,0.0,0.0,1.4400000000000002e-10,0.0,0.0,0.0,1.0,2
2025/04/09 08:48:28.402822120,1744181308,402454728,mA1/gps,0,1,63.43460251237035,10.393091947175414,0.0,1.4400000000000002e-10,0.0,0.0,0.0,1.4400000000000002e-10,0.0,0.0,0.0,1.0,2
2025/04/09 08:48:28.453158005,1744181308,452466341,mA1/gps,0,1,63.43460263256804,10.393091944251141,0.0,1.4400000000000002e-10,0.0,0.0,0.0,1.4400000000000002e-10,0.0,0.0,0.0,1.0,2
2025/04/09 08:48:28.506932680,1744181308,504663684,mA1/gps,0,1,63.43460275478753,10.393091941212122,0.0,1.4400000000000002e-10,0.0,0.0,0.0,1.4400000000000002e-10,0.0,0.0,0.0,1.0,2
2025/04/09 08:48:28.554547444,1744181308,554091294,mA1/gps,0,1,63.43460287823475,10.393091937810496,0.0,1.4400000000000002e-10,0.0,0.0,0.0,1.4400000000000002e-10,0.0,0.0,0.0,1.0,2
2025/04/09 08:48:28.605473715,1744181308,605083948,mA1/gps,0,1,63.434603000534594,10.393091934275569,0.0,1.4400000000000002e-10,0.0,0.0,0.0,1.4400000000000002e-10,0.0,0.0,0.0,1.0,2
2025/04/09 08:48:28.655272968,1744181308,654942882,mA1/gps,0,1,63.43460312364087,10.393091930748433,0.0,1.4400000000000002e-10,0.0,0.0,0.0,1.4400000000000002e-10,0.0,0.0,0.0,1.0,2
2025/04/09 08:48:28.708037783,1744181308,705881648,mA1/gps,0,1,63.43460324765022,10.393091926524397,0.0,1.4400000000000002e-10,0.0,0.0,0.0,1.4400000000000002e-10,0.0,0.0,0.0,1.0,2
2025/04/09 08:48:28.756055947,1744181308,755775993,mA1/gps,0,1,63.4346033707198,10.393091923243848,0.0,1.4400000000000002e-10,0.0,0.0,0.0,1.4400000000000002e-10,0.0,0.0,0.0,1.0,2
2025/04/09 08:48:28.796855685,1744181308,796657027,mA1/gps,0,1,63.43460349234071,10.393091919274113,0.0,1.4400000000000002e-10,0.0,0.0,0.0,1.4400000000000002e-10,0.0,0.0,0.0,1.0,2
2025/04/09 08:48:28.847400598,1744181308,846916476,mA1/gps,0,1,63.43460361357317,10.393091915289629,0.0,1.4400000000000002e-10,0.0,0.0,0.0,1.4400000000000002e-10,0.0,0.0,0.0,1.0,2
2025/04/09 08:48:28.898926566,1744181308,898308569,mA1/gps,0,1,63.43460373408326,10.393091911624781,0.0,1.4400000000000002e-10,0.0,0.0,0.0,1.4400000000000002e-10,0.0,0.0,0.0,1.0,2
2025/04/09 08:48:28.949859112,1744181308,947977175,mA1/gps,0,1,63.43460385415957,10.393091907510671,0.0,1.4400000000000002e-10,0.0,0.0,0.0,1.4400000000000002e-10,0.0,0.0,0.0,1.0,2
2025/04/09 08:48:28.999059524,1744181308,998974056,mA1/gps,0,1,63.434603974434864,10.393091903463231,0.0,1.4400000000000002e-10,0.0,0.0,0.0,1.4400000000000002e-10,0.0,0.0,0.0,1.0,2
2025/04/09 08:48:29.50272997,1744181309,48792751,mA1/gps,0,1,63.43460409254597,10.39309190020059,0.0,1.4400000000000002e-10,0.0,0.0,0.0,1.4400000000000002e-10,0.0,0.0,0.0,1.0,2
2025/04/09 08:48:29.102010673,1744181309,99750088,mA1/gps,0,1,63.43460420981675,10.393091897786263,0.0,1.4400000000000002e-10,0.0,0.0,0.0,1.4400000000000002e-10,0.0,0.0,0.0,1.0,2
2025/04/09 08:48:29.151568856,1744181309,150134421,mA1/gps,0,1,63.434604328099766,10.393091895417346,0.0,1.4400000000000002e-10,0.0,0.0,0.0,1.4400000000000002e-10,0.0,0.0,0.0,1.0,2
2025/04/09 08:48:29.201312817,1744181309,201005085,mA1/gps,0,1,63.43460444657167,10.393091894240348,0.0,1.4400000000000002e-10,0.0,0.0,0.0,1.4400000000000002e-10,0.0,0.0,0.0,1.0,2
2025/04/09 08:48:29.252841841,1744181309,250927930,mA1/gps,0,1,63.434604564858134,10.393091894105252,0.0,1.4400000000000002e-10,0.0,0.0,0.0,1.4400000000000002e-10,0.0,0.0,0.0,1.0,2
2025/04/09 08:48:29.302826403,1744181309,301998839,mA1/gps,0,1,63.43460468239407,10.393091895759387,0.0,1.4400000000000002e-10,0.0,0.0,0.0,1.4400000000000002e-10,0.0,0.0,0.0,1.0,2
2025/04/09 08:48:29.351957162,1744181309,351717472,mA1/gps,0,1,63.434604801726834,10.393091897852742,0.0,1.4400000000000002e-10,0.0,0.0,0.0,1.4400000000000002e-10,0.0,0.0,0.0,1.0,2
2025/04/09 08:48:29.411390406,1744181309,405087433,mA1/gps,0,1,63.434604922711145,10.393091900251115,0.0,1.4400000000000002e-10,0.0,0.0,0.0,1.4400000000000002e-10,0.0,0.0,0.0,1.0,2
2025/04/09 08:48:29.454335762,1744181309,454126311,mA1/gps,0,1,63.434605044035884,10.393091902259222,0.0,1.4400000000000002e-10,0.0,0.0,0.0,1.4400000000000002e-10,0.0,0.0,0.0,1.0,2
2025/04/09 08:48:29.505760324,1744181309,505467459,mA1/gps,0,1,63.43460516681299,10.393091904789701,0.0,1.4400000000000002e-10,0.0,0.0,0.0,1.4400000000000002e-10,0.0,0.0,0.0,1.0,2
2025/04/09 08:48:29.557448986,1744181309,555463880,mA1/gps,0,1,63.43460529135832,10.393091907290234,0.0,1.4400000000000002e-10,0.0,0.0,0.0,1.4400000000000002e-10,0.0,0.0,0.0,1.0,2
2025/04/09 08:48:29.606762551,1744181309,606348726,mA1/gps,0,1,63.43460541794826,10.393091908577198,0.0,1.4400000000000002e-10,0.0,0.0,0.0,1.4400000000000002e-10,0.0,0.0,0.0,1.0,2
2025/04/09 08:48:29.646249029,1744181309,646039053,mA1/gps,0,1,63.43460554618162,10.39309191041946,0.0,1.4400000000000002e-10,0.0,0.0,0.0,1.4400000000000002e-10,0.0,0.0,0.0,1.0,2
2025/04/09 08:48:29.699175575,1744181309,697390678,mA1/gps,0,1,63.434605676923816,10.393091911053807,0.0,1.4400000000000002e-10,0.0,0.0,0.0,1.4400000000000002e-10,0.0,0.0,0.0,1.0,2
2025/04/09 08:48:29.748647703,1744181309,748312003,mA1/gps,0,1,63.43460580860693,10.393091911425758,0.0,1.4400000000000002e-10,0.0,0.0,0.0,1.4400000000000002e-10,0.0,0.0,0.0,1.0,2
2025/04/09 08:48:29.799420947,1744181309,799209597,mA1/gps,0,1,63.43460594239409,10.39309191171066,0.0,1.4400000000000002e-10,0.0,0.0,0.0,1.4400000000000002e-10,0.0,0.0,0.0,1.0,2
2025/04/09 08:48:29.855214427,1744181309,853537382,mA1/gps,0,1,63.43460607693937,10.393091911832938,0.0,1.4400000000000002e-10,0.0,0.0,0.0,1.4400000000000002e-10,0.0,0.0,0.0,1.0,2
2025/04/09 08:48:29.904442116,1744181309,903729386,mA1/gps,0,1,63.43460621216439,10.39309191155551,0.0,1.4400000000000002e-10,0.0,0.0,0.0,1.4400000000000002e-10,0.0,0.0,0.0,1.0,2
2025/04/09 08:48:29.953687633,1744181309,953169351,mA1/gps,0,1,63.43460634910264,10.393091910029884,0.0,1.4400000000000002e-10,0.0,0.0,0.0,1.4400000000000002e-10,0.0,0.0,0.0,1.0,2
2025/04/09 08:48:29.996687456,1744181309,996554204,mA1/gps,0,1,63.43460648705173,10.393091908165683,0.0,1.4400000000000002e-10,0.0,0.0,0.0,1.4400000000000002e-10,0.0,0.0,0.0,1.0,2
2025/04/09 08:48:30.48421159,1744181310,48137765,mA1/gps,0,1,63.434606624449806,10.393091905688493,0.0,1.4400000000000002e-10,0.0,0.0,0.0,1.4400000000000002e-10,0.0,0.0,0.0,1.0,2
2025/04/09 08:48:30.100973308,1744181310,99137153,mA1/gps,0,1,63.4346067623461,10.393091902514097,0.0,1.4400000000000002e-10,0.0,0.0,0.0,1.4400000000000002e-10,0.0,0.0,0.0,1.0,2
2025/04/09 08:48:30.149632069,1744181310,149289327,mA1/gps,0,1,63.434606900377375,10.393091898720822,0.0,1.4400000000000002e-10,0.0,0.0,0.0,1.4400000000000002e-10,0.0,0.0,0.0,1.0,2
2025/04/09 08:48:30.200588008,1744181310,200141487,mA1/gps,0,1,63.434607038554795,10.39309189418268,0.0,1.4400000000000002e-10,0.0,0.0,0.0,1.4400000000000002e-10,0.0,0.0,0.0,1.0,2
2025/04/09 08:48:30.251121044,1744181310,250759138,mA1/gps,0,1,63.434607175493625,10.393091888047385,0.0,1.4400000000000002e-10,0.0,0.0,0.0,1.4400000000000002e-10,0.0,0.0,0.0,1.0,2
2025/04/09 08:48:30.302413007,1744181310,301786537,mA1/gps,0,1,63.434607311970524,10.393091882824445,0.0,1.4400000000000002e-10,0.0,0.0,0.0,1.4400000000000002e-10,0.0,0.0,0.0,1.0,2
2025/04/09 08:48:30.351754239,1744181310,351506383,mA1/gps,0,1,63.434607446555034,10.393091877095465,0.0,1.4400000000000002e-10,0.0,0.0,0.0,1.4400000000000002e-10,0.0,0.0,0.0,1.0,2
2025/04/09 08:48:30.402788596,1744181310,402527340,mA1/gps,0,1,63.43460757963911,10.393091870950258,0.0,1.4400000000000002e-10,0.0,0.0,0.0,1.4400000000000002e-10,0.0,0.0,0.0,1.0,2
2025/04/09 08:48:30.452619755,1744181310,452405547,mA1/gps,0,1,63.4346077137304,10.393091865479466,0.0,1.4400000000000002e-10,0.0,0.0,0.0,1.4400000000000002e-10,0.0,0.0,0.0,1.0,2
2025/04/09 08:48:30.504413967,1744181310,503354995,mA1/gps,0,1,63.43460784629355,10.393091860497137,0.0,1.4400000000000002e-10,0.0,0.0,0.0,1.4400000000000002e-10,0.0,0.0,0.0,1.0,2
2025/04/09 08:48:30.554101666,1744181310,553197284,mA1/gps,0,1,63.43460797867557,10.393091855449237,0.0,1.4400000000000002e-10,0.0,0.0,0.0,1.4400000000000002e-10,0.0,0.0,0.0,1.0,2
2025/04/09 08:48:30.604360113,1744181310,604198465,mA1/gps,0,1,63.4346081107304,10.393091852224412,0.0,1.4400000000000002e-10,0.0,0.0,0.0,1.4400000000000002e-10,0.0,0.0,0.0,1.0,2
2025/04/09 08:48:30.654255190,1744181310,654004514,mA1/gps,0,1,63.43460824114548,10.393091850449794,0.0,1.4400000000000002e-10,0.0,0.0,0.0,1.4400000000000002e-10,0.0,0.0,0.0,1.0,2
2025/04/09 08:48:30.707340869,1744181310,705162204,mA1/gps,0,1,63.43460837200674,10.393091849416855,0.0,1.4400000000000002e-10,0.0,0.0,0.0,1.4400000000000002e-10,0.0,0.0,0.0,1.0,2
2025/04/09 08:48:30.755521598,1744181310,755022581,mA1/gps,0,1,63.43460850393977,10.39309185057429,0.0,1.4400000000000002e-10,0.0,0.0,0.0,1.4400000000000002e-10,0.0,0.0,0.0,1.0,2
2025/04/09 08:48:30.806383120,1744181310,806146282,mA1/gps,0,1,63.43460863564833,10.39309185317759,0.0,1.4400000000000002e-10,0.0,0.0,0.0,1.4400000000000002e-10,0.0,0.0,0.0,1.0,2
2025/04/09 08:48:30.846149003,1744181310,845928049,mA1/gps,0,1,63.434608767785186,10.393091857398254,0.0,1.4400000000000002e-10,0.0,0.0,0.0,1.4400000000000002e-10,0.0,0.0,0.0,1.0,2
2025/04/09 08:48:30.897601778,1744181310,897338862,mA1/gps,0,1,63.43460890096781,10.393091862562606,0.0,1.4400000000000002e-10,0.0,0.0,0.0,1.4400000000000002e-10,0.0,0.0,0.0,1.0,2
2025/04/09 08:48:30.947361240,1744181310,947201014,mA1/gps,0,1,63.434609036190075,10.39309186822788,0.0,1.4400000000000002e-10,0.0,0.0,0.0,1.4400000000000002e-10,0.0,0.0,0.0,1.0,2
2025/04/09 08:48:31.1293424,1744181311,737572,mA1/gps,0,1,63.43460917212221,10.393091873885952,0.0,1.4400000000000002e-10,0.0,0.0,0.0,1.4400000000000002e-10,0.0,0.0,0.0,1.0,2
2025/04/09 08:48:31.49661928,1744181311,49353108,mA1/gps,0,1,63.43460930879288,10.39309188025418,0.0,1.4400000000000002e-10,0.0,0.0,0.0,1.4400000000000002e-10,0.0,0.0,0.0,1.0,2
2025/04/09 08:48:31.102264365,1744181311,100251450,mA1/gps,0,1,63.43460944771623,10.39309188579788,0.0,1.4400000000000002e-10,0.0,0.0,0.0,1.4400000000000002e-10,0.0,0.0,0.0,1.0,2
2025/04/09 08:48:31.150317390,1744181311,149982771,mA1/gps,0,1,63.43460958790672,10.3930918911943,0.0,1.4400000000000002e-10,0.0,0.0,0.0,1.4400000000000002e-10,0.0,0.0,0.0,1.0,2
2025/04/09 08:48:31.202669003,1744181311,202073245,mA1/gps,0,1,63.43460972982746,10.39309189618831,0.0,1.4400000000000002e-10,0.0,0.0,0.0,1.4400000000000002e-10,0.0,0.0,0.0,1.0,2
2025/04/09 08:48:31.251992909,1744181311,251871133,mA1/gps,0,1,63.434609872900666,10.393091899287814,0.0,1.4400000000000002e-10,0.0,0.0,0.0,1.4400000000000002e-10,0.0,0.0,0.0,1.0,2
2025/04/09 08:48:31.305689047,1744181311,302820930,mA1/gps,0,1,63.4346100182867,10.393091902424597,0.0,1.4400000000000002e-10,0.0,0.0,0.0,1.4400000000000002e-10,0.0,0.0,0.0,1.0,2
2025/04/09 08:48:31.354362412,1744181311,353963720,mA1/gps,0,1,63.43461016375752,10.393091904080434,0.0,1.4400000000000002e-10,0.0,0.0,0.0,1.4400000000000002e-10,0.0,0.0,0.0,1.0,2
2025/04/09 08:48:31.405818561,1744181311,404960125,mA1/gps,0,1,63.43461030999264,10.393091906076796,0.0,1.4400000000000002e-10,0.0,0.0,0.0,1.4400000000000002e-10,0.0,0.0,0.0,1.0,2
2025/04/09 08:48:31.457519298,1744181311,454789577,mA1/gps,0,1,63.434610457958215,10.393091905803102,0.0,1.4400000000000002e-10,0.0,0.0,0.0,1.4400000000000002e-10,0.0,0.0,0.0,1.0,2
2025/04/09 08:48:31.506411342,1744181311,505910943,mA1/gps,0,1,63.43461060551951,10.393091905517204,0.0,1.4400000000000002e-10,0.0,0.0,0.0,1.4400000000000002e-10,0.0,0.0,0.0,1.0,2
2025/04/09 08:48:31.546880092,1744181311,546306075,mA1/gps,0,1,63.4346107529173,10.393091903390244,0.0,1.4400000000000002e-10,0.0,0.0,0.0,1.4400000000000002e-10,0.0,0.0,0.0,1.0,2
2025/04/09 08:48:31.597814875,1744181311,597181866,mA1/gps,0,1,63.43461090085252,10.393091900280861,0.0,1.4400000000000002e-10,0.0,0.0,0.0,1.4400000000000002e-10,0.0,0.0,0.0,1.0,2
2025/04/09 08:48:31.647413950,1744181311,647082966,mA1/gps,0,1,63.43461104863975,10.393091896502664,0.0,1.4400000000000002e-10,0.0,0.0,0.0,1.4400000000000002e-10,0.0,0.0,0.0,1.0,2
2025/04/09 08:48:31.698997630,1744181311,698791827,mA1/gps,0,1,63.43461119564818,10.393091892345254,0.0,1.4400000000000002e-10,0.0,0.0,0.0,1.4400000000000002e-10,0.0,0.0,0.0,1.0,2
2025/04/09 08:48:31.752707001,1744181311,749109212,mA1/gps,0,1,63.4346113412641,10.393091887582402,0.0,1.4400000000000002e-10,0.0,0.0,0.0,1.4400000000000002e-10,0.0,0.0,0.0,1.0,2
2025/04/09 08:48:31.803128977,1744181311,802793225,mA1/gps,0,1,63.43461148678964,10.393091882617258,0.0,1.4400000000000002e-10,0.0,0.0,0.0,1.4400000000000002e-10,0.0,0.0,0.0,1.0,2
2025/04/09 08:48:31.853516018,1744181311,852664407,mA1/gps,0,1,63.43461163102304,10.393091878664388,0.0,1.4400000000000002e-10,0.0,0.0,0.0,1.4400000000000002e-10,0.0,0.0,0.0,1.0,2
2025/04/09 08:48:31.903909788,1744181311,903619491,mA1/gps,0,1,63.43461177484021,10.393091875554521,0.0,1.4400000000000002e-10,0.0,0.0,0.0,1.4400000000000002e-10,0.0,0.0,0.0,1.0,2
2025/04/09 08:48:31.953649578,1744181311,953399940,mA1/gps,0,1,63.4346119176902,10.393091873710803,0.0,1.4400000000000002e-10,0.0,0.0,0.0,1.4400000000000002e-10,0.0,0.0,0.0,1.0,2
2025/04/09 08:48:32.4706025,1744181312,4382802,mA1/gps,0,1,63.43461205974087,10.393091872474356,0.0,1.4400000000000002e-10,0.0,0.0,0.0,1.4400000000000002e-10,0.0,0.0,0.0,1.0,2
2025/04/09 08:48:32.54451691,1744181312,54111785,mA1/gps,0,1,63.434612201442334,10.393091872219518,0.0,1.4400000000000002e-10,0.0,0.0,0.0,1.4400000000000002e-10,0.0,0.0,0.0,1.0,2
2025/04/09 08:48:32.105879765,1744181312,105158797,mA1/gps,0,1,63.434612342718715,10.39309187316733,0.0,1.4400000000000002e-10,0.0,0.0,0.0,1.4400000000000002e-10,0.0,0.0,0.0,1.0,2
2025/04/09 08:48:32.155044843,1744181312,154859643,mA1/gps,0,1,63.434612483783795,10.393091875236996,0.0,1.4400000000000002e-10,0.0,0.0,0.0,1.4400000000000002e-10,0.0,0.0,0.0,1.0,2
2025/04/09 08:48:32.208363843,1744181312,207475310,mA1/gps,0,1,63.43461262426918,10.393091878851049,0.0,1.4400000000000002e-10,0.0,0.0,0.0,1.4400000000000002e-10,0.0,0.0,0.0,1.0,2
2025/04/09 08:48:32.246301329,1744181312,246039875,mA1/gps,0,1,63.434612765711776,10.393091882829212,0.0,1.4400000000000002e-10,0.0,0.0,0.0,1.4400000000000002e-10,0.0,0.0,0.0,1.0,2
