time,header_stamp_secs,header_stamp_nsecs,header_frame_id,name_0,name_1,name_2,name_3,position_0,position_1,position_2,position_3
2025/04/09 08:48:15.795572721,0,0,,mA1/azimuth_1_joint,mA1/azimuth_2_joint,mA1/azimuth_3_joint,mA1/azimuth_4_joint,2.356194490192345,-2.356194490192345,-0.7853981633974483,0.7853981633974483
2025/04/09 08:48:15.896925172,0,0,,mA1/azimuth_1_joint,mA1/azimuth_2_joint,mA1/azimuth_3_joint,mA1/azimuth_4_joint,2.356194490192345,-2.356194490192345,-0.7853981633974483,0.8028514559173916
2025/04/09 08:48:15.997853325,0,0,,mA1/azimuth_1_joint,mA1/azimuth_2_joint,mA1/azimuth_3_joint,mA1/azimuth_4_joint,2.3387411976724017,-2.3736477827122884,-0.7853981633974483,0.8377580409572782
2025/04/09 08:48:16.97445462,0,0,,mA1/azimuth_1_joint,mA1/azimuth_2_joint,mA1/azimuth_3_joint,mA1/azimuth_4_joint,2.3387411976724017,-2.3736477827122884,-0.7853981633974483,0.8377580409572782
2025/04/09 08:48:16.196193224,0,0,,mA1/azimuth_1_joint,mA1/azimuth_2_joint,mA1/azimuth_3_joint,mA1/azimuth_4_joint,2.356194490192345,-2.356194490192345,-0.7853981633974483,0.7853981633974483
2025/04/09 08:48:16.295739262,0,0,,mA1/azimuth_1_joint,mA1/azimuth_2_joint,mA1/azimuth_3_joint,mA1/azimuth_4_joint,2.356194490192345,-2.356194490192345,-0.7853981633974483,0.7853981633974483
2025/04/09 08:48:16.734292482,0,0,,mA1/azimuth_1_joint,mA1/azimuth_2_joint,mA1/azimuth_3_joint,mA1/azimuth_4_joint,2.356194490192345,-2.356194490192345,-0.7853981633974483,0.7853981633974483
2025/04/09 08:48:16.751746150,0,0,,mA1/azimuth_1_joint,mA1/azimuth_2_joint,mA1/azimuth_3_joint,mA1/azimuth_4_joint,2.356194490192345,-2.356194490192345,-0.7853981633974483,0.7853981633974483
2025/04/09 08:48:16.773014220,0,0,,mA1/azimuth_1_joint,mA1/azimuth_2_joint,mA1/azimuth_3_joint,mA1/azimuth_4_joint,2.356194490192345,-2.321287905152458,-0.8726646259971648,0.7853981633974483
2025/04/09 08:48:16.781216370,0,0,,mA1/azimuth_1_joint,mA1/azimuth_2_joint,mA1/azimuth_3_joint,mA1/azimuth_4_joint,2.356194490192345,-2.3387411976724017,-0.8726646259971648,0.7853981633974483
2025/04/09 08:48:16.799150454,0,0,,mA1/azimuth_1_joint,mA1/azimuth_2_joint,mA1/azimuth_3_joint,mA1/azimuth_4_joint,2.356194490192345,-2.3387411976724017,-0.8726646259971648,0.7853981633974483
2025/04/09 08:48:16.895647103,0,0,,mA1/azimuth_1_joint,mA1/azimuth_2_joint,mA1/azimuth_3_joint,mA1/azimuth_4_joint,2.356194490192345,-2.356194490192345,-0.7853981633974483,0.8028514559173916
2025/04/09 08:48:17.11317110,0,0,,mA1/azimuth_1_joint,mA1/azimuth_2_joint,mA1/azimuth_3_joint,mA1/azimuth_4_joint,2.356194490192345,-2.356194490192345,-0.7853981633974483,0.8028514559173916
2025/04/09 08:48:17.97737435,0,0,,mA1/azimuth_1_joint,mA1/azimuth_2_joint,mA1/azimuth_3_joint,mA1/azimuth_4_joint,2.356194490192345,-2.356194490192345,-0.7853981633974483,0.8028514559173916
2025/04/09 08:48:17.194193944,0,0,,mA1/azimuth_1_joint,mA1/azimuth_2_joint,mA1/azimuth_3_joint,mA1/azimuth_4_joint,2.356194490192345,-2.356194490192345,-0.7853981633974483,0.8028514559173916
2025/04/09 08:48:17.294092845,0,0,,mA1/azimuth_1_joint,mA1/azimuth_2_joint,mA1/azimuth_3_joint,mA1/azimuth_4_joint,2.356194490192345,-2.356194490192345,-0.7853981633974483,0.8028514559173916
2025/04/09 08:48:17.394284751,0,0,,mA1/azimuth_1_joint,mA1/azimuth_2_joint,mA1/azimuth_3_joint,mA1/azimuth_4_joint,2.356194490192345,-2.3387411976724017,-0.8028514559173916,0.7853981633974483
2025/04/09 08:48:17.494104494,0,0,,mA1/azimuth_1_joint,mA1/azimuth_2_joint,mA1/azimuth_3_joint,mA1/azimuth_4_joint,2.356194490192345,-2.356194490192345,-0.7853981633974483,0.7853981633974483
2025/04/09 08:48:17.595565745,0,0,,mA1/azimuth_1_joint,mA1/azimuth_2_joint,mA1/azimuth_3_joint,mA1/azimuth_4_joint,2.356194490192345,-2.356194490192345,-0.7853981633974483,0.7853981633974483
2025/04/09 08:48:17.708662990,0,0,,mA1/azimuth_1_joint,mA1/azimuth_2_joint,mA1/azimuth_3_joint,mA1/azimuth_4_joint,2.3387411976724017,-2.3736477827122884,-0.7853981633974483,0.8377580409572782
2025/04/09 08:48:17.840681175,0,0,,mA1/azimuth_1_joint,mA1/azimuth_2_joint,mA1/azimuth_3_joint,mA1/azimuth_4_joint,2.3387411976724017,-2.3736477827122884,-0.7853981633974483,0.8377580409572782
2025/04/09 08:48:17.934137068,0,0,,mA1/azimuth_1_joint,mA1/azimuth_2_joint,mA1/azimuth_3_joint,mA1/azimuth_4_joint,2.356194490192345,-2.3387411976724017,-0.7853981633974483,0.7853981633974483
2025/04/09 08:48:18.17115781,0,0,,mA1/azimuth_1_joint,mA1/azimuth_2_joint,mA1/azimuth_3_joint,mA1/azimuth_4_joint,2.356194490192345,-2.3387411976724017,-0.7853981633974483,0.7853981633974483
2025/04/09 08:48:18.94021349,0,0,,mA1/azimuth_1_joint,mA1/azimuth_2_joint,mA1/azimuth_3_joint,mA1/azimuth_4_joint,2.356194490192345,-2.3387411976724017,-0.7853981633974483,0.7853981633974483
2025/04/09 08:48:18.195015063,0,0,,mA1/azimuth_1_joint,mA1/azimuth_2_joint,mA1/azimuth_3_joint,mA1/azimuth_4_joint,2.356194490192345,-2.3387411976724017,-0.8028514559173916,0.7853981633974483
2025/04/09 08:48:18.294509045,0,0,,mA1/azimuth_1_joint,mA1/azimuth_2_joint,mA1/azimuth_3_joint,mA1/azimuth_4_joint,2.356194490192345,-2.321287905152458,-0.8901179185171081,0.7853981633974483
2025/04/09 08:48:18.394801351,0,0,,mA1/azimuth_1_joint,mA1/azimuth_2_joint,mA1/azimuth_3_joint,mA1/azimuth_4_joint,2.356194490192345,-2.321287905152458,-0.9075712110370514,0.7853981633974483
2025/04/09 08:48:18.494034285,0,0,,mA1/azimuth_1_joint,mA1/azimuth_2_joint,mA1/azimuth_3_joint,mA1/azimuth_4_joint,2.356194490192345,-2.321287905152458,-0.9075712110370514,0.7853981633974483
2025/04/09 08:48:18.594125818,0,0,,mA1/azimuth_1_joint,mA1/azimuth_2_joint,mA1/azimuth_3_joint,mA1/azimuth_4_joint,2.3387411976724017,-2.251474735072685,-0.9424777960769379,0.7853981633974483
2025/04/09 08:48:18.694217084,0,0,,mA1/azimuth_1_joint,mA1/azimuth_2_joint,mA1/azimuth_3_joint,mA1/azimuth_4_joint,2.356194490192345,-2.3387411976724017,-0.8726646259971648,0.7853981633974483
2025/04/09 08:48:18.794187546,0,0,,mA1/azimuth_1_joint,mA1/azimuth_2_joint,mA1/azimuth_3_joint,mA1/azimuth_4_joint,2.356194490192345,-2.3387411976724017,-0.8726646259971648,0.7853981633974483
2025/04/09 08:48:18.894677745,0,0,,mA1/azimuth_1_joint,mA1/azimuth_2_joint,mA1/azimuth_3_joint,mA1/azimuth_4_joint,2.356194490192345,-2.356194490192345,-0.7853981633974483,0.8028514559173916
2025/04/09 08:48:18.994093546,0,0,,mA1/azimuth_1_joint,mA1/azimuth_2_joint,mA1/azimuth_3_joint,mA1/azimuth_4_joint,2.356194490192345,-2.3387411976724017,-0.7853981633974483,0.7853981633974483
2025/04/09 08:48:19.94255906,0,0,,mA1/azimuth_1_joint,mA1/azimuth_2_joint,mA1/azimuth_3_joint,mA1/azimuth_4_joint,2.356194490192345,-2.3387411976724017,-0.7853981633974483,0.7853981633974483
2025/04/09 08:48:19.194079904,0,0,,mA1/azimuth_1_joint,mA1/azimuth_2_joint,mA1/azimuth_3_joint,mA1/azimuth_4_joint,2.3387411976724017,-2.3387411976724017,-0.7853981633974483,0.7853981633974483
2025/04/09 08:48:19.293952198,0,0,,mA1/azimuth_1_joint,mA1/azimuth_2_joint,mA1/azimuth_3_joint,mA1/azimuth_4_joint,2.356194490192345,-2.356194490192345,-0.7853981633974483,0.7853981633974483
2025/04/09 08:48:19.394076655,0,0,,mA1/azimuth_1_joint,mA1/azimuth_2_joint,mA1/azimuth_3_joint,mA1/azimuth_4_joint,2.356194490192345,-2.356194490192345,-0.7853981633974483,0.7853981633974483
2025/04/09 08:48:19.495454850,0,0,,mA1/azimuth_1_joint,mA1/azimuth_2_joint,mA1/azimuth_3_joint,mA1/azimuth_4_joint,2.3387411976724017,-2.356194490192345,-0.7853981633974483,0.8901179185171081
2025/04/09 08:48:19.594780607,0,0,,mA1/azimuth_1_joint,mA1/azimuth_2_joint,mA1/azimuth_3_joint,mA1/azimuth_4_joint,2.356194490192345,-2.356194490192345,-0.7853981633974483,0.7853981633974483
2025/04/09 08:48:19.694065986,0,0,,mA1/azimuth_1_joint,mA1/azimuth_2_joint,mA1/azimuth_3_joint,mA1/azimuth_4_joint,2.356194490192345,-2.356194490192345,-0.7853981633974483,0.7853981633974483
2025/04/09 08:48:19.794865524,0,0,,mA1/azimuth_1_joint,mA1/azimuth_2_joint,mA1/azimuth_3_joint,mA1/azimuth_4_joint,2.356194490192345,-2.356194490192345,-0.767944870877505,0.7853981633974483
2025/04/09 08:48:19.894713630,0,0,,mA1/azimuth_1_joint,mA1/azimuth_2_joint,mA1/azimuth_3_joint,mA1/azimuth_4_joint,2.356194490192345,-2.356194490192345,-0.767944870877505,0.7853981633974483
2025/04/09 08:48:19.994175918,0,0,,mA1/azimuth_1_joint,mA1/azimuth_2_joint,mA1/azimuth_3_joint,mA1/azimuth_4_joint,2.356194490192345,-2.356194490192345,-0.7853981633974483,0.7853981633974483
2025/04/09 08:48:20.95652994,0,0,,mA1/azimuth_1_joint,mA1/azimuth_2_joint,mA1/azimuth_3_joint,mA1/azimuth_4_joint,2.3387411976724017,-2.356194490192345,-0.7853981633974483,0.8726646259971648
2025/04/09 08:48:20.194023018,0,0,,mA1/azimuth_1_joint,mA1/azimuth_2_joint,mA1/azimuth_3_joint,mA1/azimuth_4_joint,2.3387411976724017,-2.356194490192345,-0.7853981633974483,0.8726646259971648
2025/04/09 08:48:20.294176793,0,0,,mA1/azimuth_1_joint,mA1/azimuth_2_joint,mA1/azimuth_3_joint,mA1/azimuth_4_joint,2.3387411976724017,-2.356194490192345,-0.7853981633974483,0.8377580409572782
2025/04/09 08:48:20.394152510,0,0,,mA1/azimuth_1_joint,mA1/azimuth_2_joint,mA1/azimuth_3_joint,mA1/azimuth_4_joint,2.3387411976724017,-2.356194490192345,-0.7853981633974483,0.8203047484373349
2025/04/09 08:48:20.494058318,0,0,,mA1/azimuth_1_joint,mA1/azimuth_2_joint,mA1/azimuth_3_joint,mA1/azimuth_4_joint,2.3387411976724017,-2.356194490192345,-0.7853981633974483,0.8203047484373349
2025/04/09 08:48:20.594295527,0,0,,mA1/azimuth_1_joint,mA1/azimuth_2_joint,mA1/azimuth_3_joint,mA1/azimuth_4_joint,2.356194490192345,-2.3387411976724017,-0.8203047484373349,0.7853981633974483
2025/04/09 08:48:20.695319323,0,0,,mA1/azimuth_1_joint,mA1/azimuth_2_joint,mA1/azimuth_3_joint,mA1/azimuth_4_joint,2.356194490192345,-2.356194490192345,-0.7853981633974483,0.7853981633974483
2025/04/09 08:48:20.794347214,0,0,,mA1/azimuth_1_joint,mA1/azimuth_2_joint,mA1/azimuth_3_joint,mA1/azimuth_4_joint,2.356194490192345,-2.356194490192345,-0.7853981633974483,0.7853981633974483
2025/04/09 08:48:20.895136972,0,0,,mA1/azimuth_1_joint,mA1/azimuth_2_joint,mA1/azimuth_3_joint,mA1/azimuth_4_joint,2.356194490192345,-2.356194490192345,-0.7853981633974483,0.7853981633974483
2025/04/09 08:48:20.994464661,0,0,,mA1/azimuth_1_joint,mA1/azimuth_2_joint,mA1/azimuth_3_joint,mA1/azimuth_4_joint,2.356194490192345,-2.356194490192345,-0.7853981633974483,0.7853981633974483
2025/04/09 08:48:21.95692214,0,0,,mA1/azimuth_1_joint,mA1/azimuth_2_joint,mA1/azimuth_3_joint,mA1/azimuth_4_joint,2.356194490192345,-2.356194490192345,-0.7853981633974483,0.7853981633974483
2025/04/09 08:48:21.193975535,0,0,,mA1/azimuth_1_joint,mA1/azimuth_2_joint,mA1/azimuth_3_joint,mA1/azimuth_4_joint,2.3387411976724017,-2.321287905152458,-0.8377580409572782,0.7853981633974483
2025/04/09 08:48:21.294107527,0,0,,mA1/azimuth_1_joint,mA1/azimuth_2_joint,mA1/azimuth_3_joint,mA1/azimuth_4_joint,2.3387411976724017,-2.321287905152458,-0.8377580409572782,0.7853981633974483
2025/04/09 08:48:21.394955427,0,0,,mA1/azimuth_1_joint,mA1/azimuth_2_joint,mA1/azimuth_3_joint,mA1/azimuth_4_joint,2.3387411976724017,-2.3387411976724017,-0.8203047484373349,0.7853981633974483
2025/04/09 08:48:21.494115720,0,0,,mA1/azimuth_1_joint,mA1/azimuth_2_joint,mA1/azimuth_3_joint,mA1/azimuth_4_joint,2.3387411976724017,-2.3387411976724017,-0.8028514559173916,0.7853981633974483
2025/04/09 08:48:21.594153889,0,0,,mA1/azimuth_1_joint,mA1/azimuth_2_joint,mA1/azimuth_3_joint,mA1/azimuth_4_joint,2.3387411976724017,-2.3387411976724017,-0.8028514559173916,0.7853981633974483
2025/04/09 08:48:21.694587890,0,0,,mA1/azimuth_1_joint,mA1/azimuth_2_joint,mA1/azimuth_3_joint,mA1/azimuth_4_joint,2.3387411976724017,-2.356194490192345,-0.7853981633974483,0.8377580409572782
2025/04/09 08:48:21.795295353,0,0,,mA1/azimuth_1_joint,mA1/azimuth_2_joint,mA1/azimuth_3_joint,mA1/azimuth_4_joint,2.3387411976724017,-2.356194490192345,-0.7853981633974483,0.8377580409572782
2025/04/09 08:48:21.894236086,0,0,,mA1/azimuth_1_joint,mA1/azimuth_2_joint,mA1/azimuth_3_joint,mA1/azimuth_4_joint,2.321287905152458,-2.3387411976724017,-0.7853981633974483,0.9250245035569946
2025/04/09 08:48:21.994940922,0,0,,mA1/azimuth_1_joint,mA1/azimuth_2_joint,mA1/azimuth_3_joint,mA1/azimuth_4_joint,2.356194490192345,-2.356194490192345,-0.7853981633974483,0.8377580409572782
2025/04/09 08:48:22.94058893,0,0,,mA1/azimuth_1_joint,mA1/azimuth_2_joint,mA1/azimuth_3_joint,mA1/azimuth_4_joint,2.3387411976724017,-2.356194490192345,-0.7853981633974483,0.7853981633974483
2025/04/09 08:48:22.194115446,0,0,,mA1/azimuth_1_joint,mA1/azimuth_2_joint,mA1/azimuth_3_joint,mA1/azimuth_4_joint,2.356194490192345,-2.356194490192345,-0.767944870877505,0.7853981633974483
2025/04/09 08:48:22.294350931,0,0,,mA1/azimuth_1_joint,mA1/azimuth_2_joint,mA1/azimuth_3_joint,mA1/azimuth_4_joint,2.356194490192345,-2.356194490192345,-0.767944870877505,0.7853981633974483
2025/04/09 08:48:22.394308564,0,0,,mA1/azimuth_1_joint,mA1/azimuth_2_joint,mA1/azimuth_3_joint,mA1/azimuth_4_joint,2.356194490192345,-2.356194490192345,-0.767944870877505,0.7853981633974483
2025/04/09 08:48:22.494800299,0,0,,mA1/azimuth_1_joint,mA1/azimuth_2_joint,mA1/azimuth_3_joint,mA1/azimuth_4_joint,2.3387411976724017,-2.356194490192345,-0.7853981633974483,0.8377580409572782
2025/04/09 08:48:22.594054606,0,0,,mA1/azimuth_1_joint,mA1/azimuth_2_joint,mA1/azimuth_3_joint,mA1/azimuth_4_joint,2.356194490192345,-2.3387411976724017,-0.7853981633974483,0.7853981633974483
2025/04/09 08:48:22.694618348,0,0,,mA1/azimuth_1_joint,mA1/azimuth_2_joint,mA1/azimuth_3_joint,mA1/azimuth_4_joint,2.356194490192345,-2.3387411976724017,-0.7853981633974483,0.7853981633974483
2025/04/09 08:48:22.794090869,0,0,,mA1/azimuth_1_joint,mA1/azimuth_2_joint,mA1/azimuth_3_joint,mA1/azimuth_4_joint,2.356194490192345,-2.3387411976724017,-0.7853981633974483,0.7853981633974483
2025/04/09 08:48:22.894183499,0,0,,mA1/azimuth_1_joint,mA1/azimuth_2_joint,mA1/azimuth_3_joint,mA1/azimuth_4_joint,2.356194490192345,-2.3387411976724017,-0.7853981633974483,0.7853981633974483
2025/04/09 08:48:22.994934756,0,0,,mA1/azimuth_1_joint,mA1/azimuth_2_joint,mA1/azimuth_3_joint,mA1/azimuth_4_joint,2.356194490192345,-2.3387411976724017,-0.7853981633974483,0.7853981633974483
2025/04/09 08:48:23.94753579,0,0,,mA1/azimuth_1_joint,mA1/azimuth_2_joint,mA1/azimuth_3_joint,mA1/azimuth_4_joint,2.3387411976724017,-2.356194490192345,-0.7853981633974483,0.8203047484373349
2025/04/09 08:48:23.194123849,0,0,,mA1/azimuth_1_joint,mA1/azimuth_2_joint,mA1/azimuth_3_joint,mA1/azimuth_4_joint,2.3387411976724017,-2.356194490192345,-0.7853981633974483,0.8203047484373349
2025/04/09 08:48:23.294723926,0,0,,mA1/azimuth_1_joint,mA1/azimuth_2_joint,mA1/azimuth_3_joint,mA1/azimuth_4_joint,2.3387411976724017,-2.356194490192345,-0.7853981633974483,0.8203047484373349
2025/04/09 08:48:23.394194287,0,0,,mA1/azimuth_1_joint,mA1/azimuth_2_joint,mA1/azimuth_3_joint,mA1/azimuth_4_joint,2.3387411976724017,-2.356194490192345,-0.7853981633974483,0.8028514559173916
2025/04/09 08:48:23.494477552,0,0,,mA1/azimuth_1_joint,mA1/azimuth_2_joint,mA1/azimuth_3_joint,mA1/azimuth_4_joint,2.3387411976724017,-2.356194490192345,-0.7853981633974483,0.8028514559173916
2025/04/09 08:48:23.594679835,0,0,,mA1/azimuth_1_joint,mA1/azimuth_2_joint,mA1/azimuth_3_joint,mA1/azimuth_4_joint,2.3387411976724017,-2.321287905152458,-0.8203047484373349,0.7853981633974483
2025/04/09 08:48:23.694100214,0,0,,mA1/azimuth_1_joint,mA1/azimuth_2_joint,mA1/azimuth_3_joint,mA1/azimuth_4_joint,2.3387411976724017,-2.321287905152458,-0.8203047484373349,0.7853981633974483
2025/04/09 08:48:23.794169544,0,0,,mA1/azimuth_1_joint,mA1/azimuth_2_joint,mA1/azimuth_3_joint,mA1/azimuth_4_joint,2.3387411976724017,-2.356194490192345,-0.7853981633974483,0.7853981633974483
2025/04/09 08:48:23.896818084,0,0,,mA1/azimuth_1_joint,mA1/azimuth_2_joint,mA1/azimuth_3_joint,mA1/azimuth_4_joint,2.356194490192345,-2.356194490192345,-0.7853981633974483,0.7853981633974483
2025/04/09 08:48:23.994714908,0,0,,mA1/azimuth_1_joint,mA1/azimuth_2_joint,mA1/azimuth_3_joint,mA1/azimuth_4_joint,2.356194490192345,-2.356194490192345,-0.7853981633974483,0.7853981633974483
2025/04/09 08:48:24.95808881,0,0,,mA1/azimuth_1_joint,mA1/azimuth_2_joint,mA1/azimuth_3_joint,mA1/azimuth_4_joint,2.3387411976724017,-2.356194490192345,-0.7853981633974483,0.8726646259971648
2025/04/09 08:48:24.194271995,0,0,,mA1/azimuth_1_joint,mA1/azimuth_2_joint,mA1/azimuth_3_joint,mA1/azimuth_4_joint,2.426007660272118,-2.3911010752322315,-0.6806784082777885,0.8203047484373349
2025/04/09 08:48:24.294726473,0,0,,mA1/azimuth_1_joint,mA1/azimuth_2_joint,mA1/azimuth_3_joint,mA1/azimuth_4_joint,2.530727415391778,-2.4958208303518914,-0.5759586531581288,0.7155849933176751
2025/04/09 08:48:24.394023128,0,0,,mA1/azimuth_1_joint,mA1/azimuth_2_joint,mA1/azimuth_3_joint,mA1/azimuth_4_joint,2.530727415391778,-2.600540585471551,-0.6283185307179586,0.6108652381980153
2025/04/09 08:48:24.494631195,0,0,,mA1/azimuth_1_joint,mA1/azimuth_2_joint,mA1/azimuth_3_joint,mA1/azimuth_4_joint,2.6354471705114375,-2.670353755551324,-0.5410520681182421,0.5235987755982988
2025/04/09 08:48:24.594664845,0,0,,mA1/azimuth_1_joint,mA1/azimuth_2_joint,mA1/azimuth_3_joint,mA1/azimuth_4_joint,2.722713633111154,-2.7576202181510405,-0.4363323129985824,0.4188790204786391
2025/04/09 08:48:24.694535759,0,0,,mA1/azimuth_1_joint,mA1/azimuth_2_joint,mA1/azimuth_3_joint,mA1/azimuth_4_joint,2.827433388230814,-2.8448866807507573,-0.3490658503988659,0.33161255787892263
2025/04/09 08:48:24.794288512,0,0,,mA1/azimuth_1_joint,mA1/azimuth_2_joint,mA1/azimuth_3_joint,mA1/azimuth_4_joint,2.9321531433504737,-2.9321531433504737,-0.24434609527920614,0.24434609527920614
2025/04/09 08:48:24.894483007,0,0,,mA1/azimuth_1_joint,mA1/azimuth_2_joint,mA1/azimuth_3_joint,mA1/azimuth_4_joint,2.9845130209103035,-3.036872898470133,-0.13962634015954636,0.13962634015954636
2025/04/09 08:48:24.994174133,0,0,,mA1/azimuth_1_joint,mA1/azimuth_2_joint,mA1/azimuth_3_joint,mA1/azimuth_4_joint,3.0892327760299634,-3.141592653589793,-0.03490658503988659,0.03490658503988659
2025/04/09 08:48:25.94830467,0,0,,mA1/azimuth_1_joint,mA1/azimuth_2_joint,mA1/azimuth_3_joint,mA1/azimuth_4_joint,3.1066860685499065,-3.141592653589793,0.0,0.0
2025/04/09 08:48:25.194588265,0,0,,mA1/azimuth_1_joint,mA1/azimuth_2_joint,mA1/azimuth_3_joint,mA1/azimuth_4_joint,3.036872898470133,-3.141592653589793,0.0,0.0
2025/04/09 08:48:25.294000645,0,0,,mA1/azimuth_1_joint,mA1/azimuth_2_joint,mA1/azimuth_3_joint,mA1/azimuth_4_joint,2.9321531433504737,-3.141592653589793,0.0,0.0
2025/04/09 08:48:25.394671513,0,0,,mA1/azimuth_1_joint,mA1/azimuth_2_joint,mA1/azimuth_3_joint,mA1/azimuth_4_joint,2.8623399732707004,-3.036872898470133,0.0,0.0
2025/04/09 08:48:25.494576594,0,0,,mA1/azimuth_1_joint,mA1/azimuth_2_joint,mA1/azimuth_3_joint,mA1/azimuth_4_joint,2.8099800957108707,-2.9321531433504737,0.0,0.0
2025/04/09 08:48:25.594174159,0,0,,mA1/azimuth_1_joint,mA1/azimuth_2_joint,mA1/azimuth_3_joint,mA1/azimuth_4_joint,2.8099800957108707,-2.8797932657906435,0.0,0.0
2025/04/09 08:48:25.693980343,0,0,,mA1/azimuth_1_joint,mA1/azimuth_2_joint,mA1/azimuth_3_joint,mA1/azimuth_4_joint,2.91469985083053,-2.775073510670984,0.0,0.017453292519943295
2025/04/09 08:48:25.794415078,0,0,,mA1/azimuth_1_joint,mA1/azimuth_2_joint,mA1/azimuth_3_joint,mA1/azimuth_4_joint,2.897246558310587,-2.792526803190927,0.0,0.017453292519943295
2025/04/09 08:48:25.895336337,0,0,,mA1/azimuth_1_joint,mA1/azimuth_2_joint,mA1/azimuth_3_joint,mA1/azimuth_4_joint,2.8797932657906435,-2.827433388230814,0.0,0.0
2025/04/09 08:48:25.994062774,0,0,,mA1/azimuth_1_joint,mA1/azimuth_2_joint,mA1/azimuth_3_joint,mA1/azimuth_4_joint,2.949606435870417,-2.7576202181510405,0.0,0.03490658503988659
2025/04/09 08:48:26.94295739,0,0,,mA1/azimuth_1_joint,mA1/azimuth_2_joint,mA1/azimuth_3_joint,mA1/azimuth_4_joint,2.949606435870417,-2.7576202181510405,0.0,0.03490658503988659
2025/04/09 08:48:26.195239216,0,0,,mA1/azimuth_1_joint,mA1/azimuth_2_joint,mA1/azimuth_3_joint,mA1/azimuth_4_joint,3.036872898470133,-2.6878070480712677,0.0,0.05235987755982989
2025/04/09 08:48:26.294427664,0,0,,mA1/azimuth_1_joint,mA1/azimuth_2_joint,mA1/azimuth_3_joint,mA1/azimuth_4_joint,2.949606435870417,-2.7576202181510405,0.0,0.017453292519943295
2025/04/09 08:48:26.394081482,0,0,,mA1/azimuth_1_joint,mA1/azimuth_2_joint,mA1/azimuth_3_joint,mA1/azimuth_4_joint,2.949606435870417,-2.7576202181510405,0.0,0.03490658503988659
2025/04/09 08:48:26.494870954,0,0,,mA1/azimuth_1_joint,mA1/azimuth_2_joint,mA1/azimuth_3_joint,mA1/azimuth_4_joint,3.0543261909900767,-2.670353755551324,0.0,0.05235987755982989
2025/04/09 08:48:26.594158101,0,0,,mA1/azimuth_1_joint,mA1/azimuth_2_joint,mA1/azimuth_3_joint,mA1/azimuth_4_joint,3.0543261909900767,-2.670353755551324,0.0,0.05235987755982989
2025/04/09 08:48:26.695477746,0,0,,mA1/azimuth_1_joint,mA1/azimuth_2_joint,mA1/azimuth_3_joint,mA1/azimuth_4_joint,3.0543261909900767,-2.6878070480712677,0.0,0.05235987755982989
2025/04/09 08:48:26.794270776,0,0,,mA1/azimuth_1_joint,mA1/azimuth_2_joint,mA1/azimuth_3_joint,mA1/azimuth_4_joint,3.0543261909900767,-2.6878070480712677,0.0,0.05235987755982989
2025/04/09 08:48:26.894732058,0,0,,mA1/azimuth_1_joint,mA1/azimuth_2_joint,mA1/azimuth_3_joint,mA1/azimuth_4_joint,3.0543261909900767,-2.6878070480712677,0.0,0.05235987755982989
2025/04/09 08:48:26.995323522,0,0,,mA1/azimuth_1_joint,mA1/azimuth_2_joint,mA1/azimuth_3_joint,mA1/azimuth_4_joint,3.036872898470133,-2.705260340591211,0.0,0.05235987755982989
2025/04/09 08:48:27.93994111,0,0,,mA1/azimuth_1_joint,mA1/azimuth_2_joint,mA1/azimuth_3_joint,mA1/azimuth_4_joint,3.036872898470133,-2.705260340591211,0.0,0.05235987755982989
2025/04/09 08:48:27.194068030,0,0,,mA1/azimuth_1_joint,mA1/azimuth_2_joint,mA1/azimuth_3_joint,mA1/azimuth_4_joint,3.036872898470133,-2.705260340591211,0.0,0.05235987755982989
2025/04/09 08:48:27.293961207,0,0,,mA1/azimuth_1_joint,mA1/azimuth_2_joint,mA1/azimuth_3_joint,mA1/azimuth_4_joint,2.9321531433504737,-2.775073510670984,0.0,0.017453292519943295
2025/04/09 08:48:27.394524692,0,0,,mA1/azimuth_1_joint,mA1/azimuth_2_joint,mA1/azimuth_3_joint,mA1/azimuth_4_joint,2.949606435870417,-2.775073510670984,0.0,0.017453292519943295
2025/04/09 08:48:27.494890229,0,0,,mA1/azimuth_1_joint,mA1/azimuth_2_joint,mA1/azimuth_3_joint,mA1/azimuth_4_joint,3.01941960595019,-2.705260340591211,0.0,0.03490658503988659
2025/04/09 08:48:27.594001476,0,0,,mA1/azimuth_1_joint,mA1/azimuth_2_joint,mA1/azimuth_3_joint,mA1/azimuth_4_joint,3.0543261909900767,-2.6878070480712677,0.0,0.05235987755982989
2025/04/09 08:48:27.694117277,0,0,,mA1/azimuth_1_joint,mA1/azimuth_2_joint,mA1/azimuth_3_joint,mA1/azimuth_4_joint,3.0543261909900767,-2.6878070480712677,0.0,0.05235987755982989
2025/04/09 08:48:27.799362401,0,0,,mA1/azimuth_1_joint,mA1/azimuth_2_joint,mA1/azimuth_3_joint,mA1/azimuth_4_joint,2.9845130209103035,-2.7401669256310974,0.0,0.03490658503988659
2025/04/09 08:48:27.894576048,0,0,,mA1/azimuth_1_joint,mA1/azimuth_2_joint,mA1/azimuth_3_joint,mA1/azimuth_4_joint,3.0892327760299634,-2.652900463031381,0.0,0.06981317007977318
2025/04/09 08:48:27.994789752,0,0,,mA1/azimuth_1_joint,mA1/azimuth_2_joint,mA1/azimuth_3_joint,mA1/azimuth_4_joint,3.1066860685499065,-2.652900463031381,0.0,0.06981317007977318
2025/04/09 08:48:28.94721463,0,0,,mA1/azimuth_1_joint,mA1/azimuth_2_joint,mA1/azimuth_3_joint,mA1/azimuth_4_joint,3.036872898470133,-2.705260340591211,0.0,0.03490658503988659
2025/04/09 08:48:28.194117897,0,0,,mA1/azimuth_1_joint,mA1/azimuth_2_joint,mA1/azimuth_3_joint,mA1/azimuth_4_joint,3.036872898470133,-2.705260340591211,0.0,0.03490658503988659
2025/04/09 08:48:28.294120248,0,0,,mA1/azimuth_1_joint,mA1/azimuth_2_joint,mA1/azimuth_3_joint,mA1/azimuth_4_joint,3.036872898470133,-2.705260340591211,0.0,0.03490658503988659
2025/04/09 08:48:28.394238110,0,0,,mA1/azimuth_1_joint,mA1/azimuth_2_joint,mA1/azimuth_3_joint,mA1/azimuth_4_joint,3.12413936106985,-2.6354471705114375,0.0,0.05235987755982989
2025/04/09 08:48:28.494912736,0,0,,mA1/azimuth_1_joint,mA1/azimuth_2_joint,mA1/azimuth_3_joint,mA1/azimuth_4_joint,3.141592653589793,-2.6354471705114375,0.0,0.05235987755982989
2025/04/09 08:48:28.594110139,0,0,,mA1/azimuth_1_joint,mA1/azimuth_2_joint,mA1/azimuth_3_joint,mA1/azimuth_4_joint,3.141592653589793,-2.6179938779914944,0.0,0.06981317007977318
2025/04/09 08:48:28.694198926,0,0,,mA1/azimuth_1_joint,mA1/azimuth_2_joint,mA1/azimuth_3_joint,mA1/azimuth_4_joint,3.141592653589793,-2.600540585471551,0.0,0.08726646259971647
2025/04/09 08:48:28.794578261,0,0,,mA1/azimuth_1_joint,mA1/azimuth_2_joint,mA1/azimuth_3_joint,mA1/azimuth_4_joint,3.141592653589793,-2.600540585471551,0.0,0.08726646259971647
2025/04/09 08:48:28.894082916,0,0,,mA1/azimuth_1_joint,mA1/azimuth_2_joint,mA1/azimuth_3_joint,mA1/azimuth_4_joint,3.141592653589793,-2.600540585471551,0.0,0.08726646259971647
2025/04/09 08:48:28.994372865,0,0,,mA1/azimuth_1_joint,mA1/azimuth_2_joint,mA1/azimuth_3_joint,mA1/azimuth_4_joint,3.141592653589793,-2.6354471705114375,0.0,0.06981317007977318
2025/04/09 08:48:29.94683149,0,0,,mA1/azimuth_1_joint,mA1/azimuth_2_joint,mA1/azimuth_3_joint,mA1/azimuth_4_joint,3.141592653589793,-2.6354471705114375,0.0,0.06981317007977318
2025/04/09 08:48:29.194107002,0,0,,mA1/azimuth_1_joint,mA1/azimuth_2_joint,mA1/azimuth_3_joint,mA1/azimuth_4_joint,3.141592653589793,-2.5656340004316642,0.0,0.08726646259971647
2025/04/09 08:48:29.294009560,0,0,,mA1/azimuth_1_joint,mA1/azimuth_2_joint,mA1/azimuth_3_joint,mA1/azimuth_4_joint,3.141592653589793,-2.5656340004316642,0.0,0.08726646259971647
2025/04/09 08:48:29.395529518,0,0,,mA1/azimuth_1_joint,mA1/azimuth_2_joint,mA1/azimuth_3_joint,mA1/azimuth_4_joint,3.141592653589793,-2.6179938779914944,0.0,0.06981317007977318
2025/04/09 08:48:29.494266167,0,0,,mA1/azimuth_1_joint,mA1/azimuth_2_joint,mA1/azimuth_3_joint,mA1/azimuth_4_joint,3.141592653589793,-2.6179938779914944,0.0,0.06981317007977318
2025/04/09 08:48:29.594597557,0,0,,mA1/azimuth_1_joint,mA1/azimuth_2_joint,mA1/azimuth_3_joint,mA1/azimuth_4_joint,3.141592653589793,-2.652900463031381,0.0,0.05235987755982989
2025/04/09 08:48:29.694873555,0,0,,mA1/azimuth_1_joint,mA1/azimuth_2_joint,mA1/azimuth_3_joint,mA1/azimuth_4_joint,3.141592653589793,-2.548180707911721,0.0,0.08726646259971647
2025/04/09 08:48:29.794598834,0,0,,mA1/azimuth_1_joint,mA1/azimuth_2_joint,mA1/azimuth_3_joint,mA1/azimuth_4_joint,3.141592653589793,-2.5656340004316642,0.0,0.08726646259971647
2025/04/09 08:48:29.894113499,0,0,,mA1/azimuth_1_joint,mA1/azimuth_2_joint,mA1/azimuth_3_joint,mA1/azimuth_4_joint,3.141592653589793,-2.4958208303518914,0.0,0.12217304763960307
2025/04/09 08:48:29.995106980,0,0,,mA1/azimuth_1_joint,mA1/azimuth_2_joint,mA1/azimuth_3_joint,mA1/azimuth_4_joint,3.141592653589793,-2.4609142453120048,0.0,0.13962634015954636
2025/04/09 08:48:30.94458325,0,0,,mA1/azimuth_1_joint,mA1/azimuth_2_joint,mA1/azimuth_3_joint,mA1/azimuth_4_joint,3.141592653589793,-2.4609142453120048,0.0,0.13962634015954636
2025/04/09 08:48:30.194568091,0,0,,mA1/azimuth_1_joint,mA1/azimuth_2_joint,mA1/azimuth_3_joint,mA1/azimuth_4_joint,3.141592653589793,-2.426007660272118,0.0,0.15707963267948966
2025/04/09 08:48:30.294986686,0,0,,mA1/azimuth_1_joint,mA1/azimuth_2_joint,mA1/azimuth_3_joint,mA1/azimuth_4_joint,3.141592653589793,-2.426007660272118,0.0,0.15707963267948966
2025/04/09 08:48:30.393942565,0,0,,mA1/azimuth_1_joint,mA1/azimuth_2_joint,mA1/azimuth_3_joint,mA1/azimuth_4_joint,3.141592653589793,-2.426007660272118,0.0,0.15707963267948966
2025/04/09 08:48:30.494166721,0,0,,mA1/azimuth_1_joint,mA1/azimuth_2_joint,mA1/azimuth_3_joint,mA1/azimuth_4_joint,3.141592653589793,-2.443460952792061,0.0,0.13962634015954636
2025/04/09 08:48:30.594201781,0,0,,mA1/azimuth_1_joint,mA1/azimuth_2_joint,mA1/azimuth_3_joint,mA1/azimuth_4_joint,3.141592653589793,-2.443460952792061,0.0,0.13962634015954636
2025/04/09 08:48:30.694139700,0,0,,mA1/azimuth_1_joint,mA1/azimuth_2_joint,mA1/azimuth_3_joint,mA1/azimuth_4_joint,3.141592653589793,-2.4085543677521746,0.0,0.15707963267948966
2025/04/09 08:48:30.794231100,0,0,,mA1/azimuth_1_joint,mA1/azimuth_2_joint,mA1/azimuth_3_joint,mA1/azimuth_4_joint,3.141592653589793,-2.4085543677521746,0.0,0.15707963267948966
2025/04/09 08:48:30.894363252,0,0,,mA1/azimuth_1_joint,mA1/azimuth_2_joint,mA1/azimuth_3_joint,mA1/azimuth_4_joint,3.141592653589793,-2.4085543677521746,0.0,0.15707963267948966
2025/04/09 08:48:30.997674824,0,0,,mA1/azimuth_1_joint,mA1/azimuth_2_joint,mA1/azimuth_3_joint,mA1/azimuth_4_joint,3.141592653589793,-2.426007660272118,0.0,0.13962634015954636
2025/04/09 08:48:31.93962856,0,0,,mA1/azimuth_1_joint,mA1/azimuth_2_joint,mA1/azimuth_3_joint,mA1/azimuth_4_joint,3.141592653589793,-2.426007660272118,0.0,0.13962634015954636
2025/04/09 08:48:31.194542590,0,0,,mA1/azimuth_1_joint,mA1/azimuth_2_joint,mA1/azimuth_3_joint,mA1/azimuth_4_joint,3.141592653589793,-2.4085543677521746,0.0,0.13962634015954636
2025/04/09 08:48:31.295692535,0,0,,mA1/azimuth_1_joint,mA1/azimuth_2_joint,mA1/azimuth_3_joint,mA1/azimuth_4_joint,3.141592653589793,-2.3736477827122884,0.0,0.17453292519943295
2025/04/09 08:48:31.395168939,0,0,,mA1/azimuth_1_joint,mA1/azimuth_2_joint,mA1/azimuth_3_joint,mA1/azimuth_4_joint,3.141592653589793,-2.3736477827122884,0.0,0.17453292519943295
2025/04/09 08:48:31.494463445,0,0,,mA1/azimuth_1_joint,mA1/azimuth_2_joint,mA1/azimuth_3_joint,mA1/azimuth_4_joint,3.141592653589793,-2.3387411976724017,0.0,0.20943951023931956
2025/04/09 08:48:31.597808500,0,0,,mA1/azimuth_1_joint,mA1/azimuth_2_joint,mA1/azimuth_3_joint,mA1/azimuth_4_joint,3.141592653589793,-2.321287905152458,0.0,0.20943951023931956
2025/04/09 08:48:31.694716376,0,0,,mA1/azimuth_1_joint,mA1/azimuth_2_joint,mA1/azimuth_3_joint,mA1/azimuth_4_joint,3.141592653589793,-2.321287905152458,0.0,0.20943951023931956
2025/04/09 08:48:31.794913144,0,0,,mA1/azimuth_1_joint,mA1/azimuth_2_joint,mA1/azimuth_3_joint,mA1/azimuth_4_joint,3.141592653589793,-2.2689280275926285,0.0,0.2617993877991494
2025/04/09 08:48:31.895177762,0,0,,mA1/azimuth_1_joint,mA1/azimuth_2_joint,mA1/azimuth_3_joint,mA1/azimuth_4_joint,3.141592653589793,-2.2689280275926285,0.0,0.2617993877991494
2025/04/09 08:48:31.994344711,0,0,,mA1/azimuth_1_joint,mA1/azimuth_2_joint,mA1/azimuth_3_joint,mA1/azimuth_4_joint,3.141592653589793,-2.2689280275926285,0.0,0.2617993877991494
2025/04/09 08:48:32.94131660,0,0,,mA1/azimuth_1_joint,mA1/azimuth_2_joint,mA1/azimuth_3_joint,mA1/azimuth_4_joint,3.141592653589793,-2.2689280275926285,0.0,0.2617993877991494
2025/04/09 08:48:32.194744288,0,0,,mA1/azimuth_1_joint,mA1/azimuth_2_joint,mA1/azimuth_3_joint,mA1/azimuth_4_joint,3.141592653589793,-2.2689280275926285,0.0,0.2617993877991494
2025/04/09 08:48:32.295509718,0,0,,mA1/azimuth_1_joint,mA1/azimuth_2_joint,mA1/azimuth_3_joint,mA1/azimuth_4_joint,3.141592653589793,-2.2863813201125716,0.0,0.24434609527920614
2025/04/09 08:48:32.394076853,0,0,,mA1/azimuth_1_joint,mA1/azimuth_2_joint,mA1/azimuth_3_joint,mA1/azimuth_4_joint,3.141592653589793,-2.2863813201125716,0.0,0.24434609527920614
2025/04/09 08:48:32.494849580,0,0,,mA1/azimuth_1_joint,mA1/azimuth_2_joint,mA1/azimuth_3_joint,mA1/azimuth_4_joint,3.141592653589793,-2.234021442552742,0.0,0.2792526803190927
2025/04/09 08:48:32.594320469,0,0,,mA1/azimuth_1_joint,mA1/azimuth_2_joint,mA1/azimuth_3_joint,mA1/azimuth_4_joint,3.141592653589793,-2.2165681500327987,0.0,0.3141592653589793
2025/04/09 08:48:32.694702160,0,0,,mA1/azimuth_1_joint,mA1/azimuth_2_joint,mA1/azimuth_3_joint,mA1/azimuth_4_joint,3.141592653589793,-2.2165681500327987,0.0,0.3141592653589793
2025/04/09 08:48:32.796712624,0,0,,mA1/azimuth_1_joint,mA1/azimuth_2_joint,mA1/azimuth_3_joint,mA1/azimuth_4_joint,3.141592653589793,-2.2165681500327987,0.0,0.29670597283903605
2025/04/09 08:48:32.894184882,0,0,,mA1/azimuth_1_joint,mA1/azimuth_2_joint,mA1/azimuth_3_joint,mA1/azimuth_4_joint,3.141592653589793,-2.2165681500327987,0.0,0.29670597283903605
2025/04/09 08:48:32.994070932,0,0,,mA1/azimuth_1_joint,mA1/azimuth_2_joint,mA1/azimuth_3_joint,mA1/azimuth_4_joint,3.141592653589793,-2.234021442552742,0.0,0.2792526803190927
2025/04/09 08:48:33.94771687,0,0,,mA1/azimuth_1_joint,mA1/azimuth_2_joint,mA1/azimuth_3_joint,mA1/azimuth_4_joint,3.141592653589793,-2.2165681500327987,0.0,0.29670597283903605
2025/04/09 08:48:33.194550911,0,0,,mA1/azimuth_1_joint,mA1/azimuth_2_joint,mA1/azimuth_3_joint,mA1/azimuth_4_joint,3.141592653589793,-2.234021442552742,0.0,0.29670597283903605
2025/04/09 08:48:33.295035481,0,0,,mA1/azimuth_1_joint,mA1/azimuth_2_joint,mA1/azimuth_3_joint,mA1/azimuth_4_joint,3.141592653589793,-2.129301687433082,0.0,0.3665191429188092
2025/04/09 08:48:33.397233394,0,0,,mA1/azimuth_1_joint,mA1/azimuth_2_joint,mA1/azimuth_3_joint,mA1/azimuth_4_joint,3.141592653589793,-2.111848394913139,0.0,0.47123889803846897
2025/04/09 08:48:33.495034229,0,0,,mA1/azimuth_1_joint,mA1/azimuth_2_joint,mA1/azimuth_3_joint,mA1/azimuth_4_joint,3.141592653589793,-2.129301687433082,0.0,0.47123889803846897
2025/04/09 08:48:33.594053141,0,0,,mA1/azimuth_1_joint,mA1/azimuth_2_joint,mA1/azimuth_3_joint,mA1/azimuth_4_joint,3.141592653589793,-2.1467549799530254,0.0,0.4188790204786391
2025/04/09 08:48:33.694563018,0,0,,mA1/azimuth_1_joint,mA1/azimuth_2_joint,mA1/azimuth_3_joint,mA1/azimuth_4_joint,3.141592653589793,-2.1467549799530254,0.0,0.4188790204786391
2025/04/09 08:48:33.794107105,0,0,,mA1/azimuth_1_joint,mA1/azimuth_2_joint,mA1/azimuth_3_joint,mA1/azimuth_4_joint,3.141592653589793,-2.1467549799530254,0.0,0.3839724354387525
2025/04/09 08:48:33.894347324,0,0,,mA1/azimuth_1_joint,mA1/azimuth_2_joint,mA1/azimuth_3_joint,mA1/azimuth_4_joint,3.141592653589793,-2.059488517353309,0.0,0.47123889803846897
2025/04/09 08:48:33.994314743,0,0,,mA1/azimuth_1_joint,mA1/azimuth_2_joint,mA1/azimuth_3_joint,mA1/azimuth_4_joint,3.141592653589793,-2.111848394913139,0.0,0.4886921905584123
2025/04/09 08:48:34.94434029,0,0,,mA1/azimuth_1_joint,mA1/azimuth_2_joint,mA1/azimuth_3_joint,mA1/azimuth_4_joint,3.141592653589793,-2.129301687433082,0.0,0.4886921905584123
2025/04/09 08:48:34.194494026,0,0,,mA1/azimuth_1_joint,mA1/azimuth_2_joint,mA1/azimuth_3_joint,mA1/azimuth_4_joint,3.141592653589793,-2.111848394913139,0.0,0.47123889803846897
2025/04/09 08:48:34.298574306,0,0,,mA1/azimuth_1_joint,mA1/azimuth_2_joint,mA1/azimuth_3_joint,mA1/azimuth_4_joint,3.141592653589793,-2.111848394913139,0.0,0.47123889803846897
2025/04/09 08:48:34.394740322,0,0,,mA1/azimuth_1_joint,mA1/azimuth_2_joint,mA1/azimuth_3_joint,mA1/azimuth_4_joint,3.141592653589793,-2.111848394913139,0.0,0.4886921905584123
2025/04/09 08:48:34.494107824,0,0,,mA1/azimuth_1_joint,mA1/azimuth_2_joint,mA1/azimuth_3_joint,mA1/azimuth_4_joint,3.141592653589793,-2.0943951023931953,0.0,0.47123889803846897
2025/04/09 08:48:34.594772147,0,0,,mA1/azimuth_1_joint,mA1/azimuth_2_joint,mA1/azimuth_3_joint,mA1/azimuth_4_joint,3.036872898470133,-2.007128639793479,0.0,0.5759586531581288
2025/04/09 08:48:34.693960362,0,0,,mA1/azimuth_1_joint,mA1/azimuth_2_joint,mA1/azimuth_3_joint,mA1/azimuth_4_joint,2.9321531433504737,-2.0943951023931953,0.0,0.5061454830783556
2025/04/09 08:48:34.795245757,0,0,,mA1/azimuth_1_joint,mA1/azimuth_2_joint,mA1/azimuth_3_joint,mA1/azimuth_4_joint,2.827433388230814,-2.1467549799530254,0.0,0.4188790204786391
2025/04/09 08:48:34.895190229,0,0,,mA1/azimuth_1_joint,mA1/azimuth_2_joint,mA1/azimuth_3_joint,mA1/azimuth_4_joint,2.7401669256310974,-2.199114857512855,0.0,0.33161255787892263
2025/04/09 08:48:34.995153134,0,0,,mA1/azimuth_1_joint,mA1/azimuth_2_joint,mA1/azimuth_3_joint,mA1/azimuth_4_joint,2.6354471705114375,-2.251474735072685,0.0,0.24434609527920614
2025/04/09 08:48:35.94275001,0,0,,mA1/azimuth_1_joint,mA1/azimuth_2_joint,mA1/azimuth_3_joint,mA1/azimuth_4_joint,2.530727415391778,-2.2863813201125716,0.0,0.19198621771937624
2025/04/09 08:48:35.193961940,0,0,,mA1/azimuth_1_joint,mA1/azimuth_2_joint,mA1/azimuth_3_joint,mA1/azimuth_4_joint,2.426007660272118,-2.321287905152458,0.0,0.12217304763960307
2025/04/09 08:48:35.294211978,0,0,,mA1/azimuth_1_joint,mA1/azimuth_2_joint,mA1/azimuth_3_joint,mA1/azimuth_4_joint,2.3387411976724017,-2.3736477827122884,0.0,0.08726646259971647
2025/04/09 08:48:35.395092666,0,0,,mA1/azimuth_1_joint,mA1/azimuth_2_joint,mA1/azimuth_3_joint,mA1/azimuth_4_joint,2.234021442552742,-2.4085543677521746,0.0,0.017453292519943295
2025/04/09 08:48:35.494442209,0,0,,mA1/azimuth_1_joint,mA1/azimuth_2_joint,mA1/azimuth_3_joint,mA1/azimuth_4_joint,2.129301687433082,-2.426007660272118,-0.017453292519943295,0.0
2025/04/09 08:48:35.595001609,0,0,,mA1/azimuth_1_joint,mA1/azimuth_2_joint,mA1/azimuth_3_joint,mA1/azimuth_4_joint,2.0420352248333655,-2.443460952792061,-0.05235987755982989,0.0
2025/04/09 08:48:35.694137011,0,0,,mA1/azimuth_1_joint,mA1/azimuth_2_joint,mA1/azimuth_3_joint,mA1/azimuth_4_joint,1.9373154697137058,-2.4609142453120048,-0.10471975511965978,0.0
2025/04/09 08:48:35.797330093,0,0,,mA1/azimuth_1_joint,mA1/azimuth_2_joint,mA1/azimuth_3_joint,mA1/azimuth_4_joint,1.8325957145940461,-2.4609142453120048,-0.13962634015954636,0.0
2025/04/09 08:48:35.894094398,0,0,,mA1/azimuth_1_joint,mA1/azimuth_2_joint,mA1/azimuth_3_joint,mA1/azimuth_4_joint,1.7278759594743862,-2.4609142453120048,-0.15707963267948966,0.0
2025/04/09 08:48:35.993949506,0,0,,mA1/azimuth_1_joint,mA1/azimuth_2_joint,mA1/azimuth_3_joint,mA1/azimuth_4_joint,1.6231562043547265,-2.4609142453120048,-0.19198621771937624,0.0
2025/04/09 08:48:36.94072883,0,0,,mA1/azimuth_1_joint,mA1/azimuth_2_joint,mA1/azimuth_3_joint,mA1/azimuth_4_joint,1.5533430342749532,-2.4609142453120048,-0.2617993877991494,0.0
2025/04/09 08:48:36.194687428,0,0,,mA1/azimuth_1_joint,mA1/azimuth_2_joint,mA1/azimuth_3_joint,mA1/azimuth_4_joint,1.5533430342749532,-2.443460952792061,-0.2792526803190927,0.0
2025/04/09 08:48:36.294148782,0,0,,mA1/azimuth_1_joint,mA1/azimuth_2_joint,mA1/azimuth_3_joint,mA1/azimuth_4_joint,1.5533430342749532,-2.443460952792061,-0.3141592653589793,0.0
2025/04/09 08:48:36.395279135,0,0,,mA1/azimuth_1_joint,mA1/azimuth_2_joint,mA1/azimuth_3_joint,mA1/azimuth_4_joint,1.5533430342749532,-2.426007660272118,-0.3141592653589793,0.0
2025/04/09 08:48:36.495369781,0,0,,mA1/azimuth_1_joint,mA1/azimuth_2_joint,mA1/azimuth_3_joint,mA1/azimuth_4_joint,1.5533430342749532,-2.426007660272118,-0.3490658503988659,0.0
2025/04/09 08:48:36.594101984,0,0,,mA1/azimuth_1_joint,mA1/azimuth_2_joint,mA1/azimuth_3_joint,mA1/azimuth_4_joint,1.5533430342749532,-2.4085543677521746,-0.3665191429188092,0.0
2025/04/09 08:48:36.693994624,0,0,,mA1/azimuth_1_joint,mA1/azimuth_2_joint,mA1/azimuth_3_joint,mA1/azimuth_4_joint,1.5533430342749532,-2.4085543677521746,-0.4363323129985824,0.0
2025/04/09 08:48:36.796343806,0,0,,mA1/azimuth_1_joint,mA1/azimuth_2_joint,mA1/azimuth_3_joint,mA1/azimuth_4_joint,1.5533430342749532,-2.4085543677521746,-0.4537856055185257,0.0
2025/04/09 08:48:36.894179694,0,0,,mA1/azimuth_1_joint,mA1/azimuth_2_joint,mA1/azimuth_3_joint,mA1/azimuth_4_joint,1.5533430342749532,-2.4085543677521746,-0.4886921905584123,0.0
2025/04/09 08:48:36.993950273,0,0,,mA1/azimuth_1_joint,mA1/azimuth_2_joint,mA1/azimuth_3_joint,mA1/azimuth_4_joint,1.5533430342749532,-2.3911010752322315,-0.4886921905584123,0.0
2025/04/09 08:48:37.94699817,0,0,,mA1/azimuth_1_joint,mA1/azimuth_2_joint,mA1/azimuth_3_joint,mA1/azimuth_4_joint,1.5533430342749532,-2.3911010752322315,-0.5061454830783556,0.0
2025/04/09 08:48:37.194114300,0,0,,mA1/azimuth_1_joint,mA1/azimuth_2_joint,mA1/azimuth_3_joint,mA1/azimuth_4_joint,1.5533430342749532,-2.3911010752322315,-0.5410520681182421,0.0
2025/04/09 08:48:37.294425755,0,0,,mA1/azimuth_1_joint,mA1/azimuth_2_joint,mA1/azimuth_3_joint,mA1/azimuth_4_joint,1.5533430342749532,-2.3911010752322315,-0.5410520681182421,0.0
2025/04/09 08:48:37.396107815,0,0,,mA1/azimuth_1_joint,mA1/azimuth_2_joint,mA1/azimuth_3_joint,mA1/azimuth_4_joint,1.5533430342749532,-2.3911010752322315,-0.5410520681182421,0.0
2025/04/09 08:48:37.495376241,0,0,,mA1/azimuth_1_joint,mA1/azimuth_2_joint,mA1/azimuth_3_joint,mA1/azimuth_4_joint,1.5533430342749532,-2.3736477827122884,-0.5410520681182421,0.0
2025/04/09 08:48:37.594390738,0,0,,mA1/azimuth_1_joint,mA1/azimuth_2_joint,mA1/azimuth_3_joint,mA1/azimuth_4_joint,1.5533430342749532,-2.3736477827122884,-0.5410520681182421,0.0
2025/04/09 08:48:37.694192545,0,0,,mA1/azimuth_1_joint,mA1/azimuth_2_joint,mA1/azimuth_3_joint,mA1/azimuth_4_joint,1.5533430342749532,-2.3736477827122884,-0.5585053606381855,0.0
2025/04/09 08:48:37.794372256,0,0,,mA1/azimuth_1_joint,mA1/azimuth_2_joint,mA1/azimuth_3_joint,mA1/azimuth_4_joint,1.5533430342749532,-2.3736477827122884,-0.5585053606381855,0.0
2025/04/09 08:48:37.894722174,0,0,,mA1/azimuth_1_joint,mA1/azimuth_2_joint,mA1/azimuth_3_joint,mA1/azimuth_4_joint,1.5533430342749532,-2.3736477827122884,-0.5934119456780721,0.0
2025/04/09 08:48:37.994064539,0,0,,mA1/azimuth_1_joint,mA1/azimuth_2_joint,mA1/azimuth_3_joint,mA1/azimuth_4_joint,1.5533430342749532,-2.3736477827122884,-0.6108652381980153,0.0
2025/04/09 08:48:38.94140541,0,0,,mA1/azimuth_1_joint,mA1/azimuth_2_joint,mA1/azimuth_3_joint,mA1/azimuth_4_joint,1.5533430342749532,-2.3736477827122884,-0.6108652381980153,0.0
2025/04/09 08:48:38.194170756,0,0,,mA1/azimuth_1_joint,mA1/azimuth_2_joint,mA1/azimuth_3_joint,mA1/azimuth_4_joint,1.5533430342749532,-2.3736477827122884,-0.6457718232379019,0.0
2025/04/09 08:48:38.294207239,0,0,,mA1/azimuth_1_joint,mA1/azimuth_2_joint,mA1/azimuth_3_joint,mA1/azimuth_4_joint,1.5533430342749532,-2.3736477827122884,-0.6283185307179586,0.0
2025/04/09 08:48:38.395279078,0,0,,mA1/azimuth_1_joint,mA1/azimuth_2_joint,mA1/azimuth_3_joint,mA1/azimuth_4_joint,1.5533430342749532,-2.3736477827122884,-0.6283185307179586,0.0
2025/04/09 08:48:38.496277215,0,0,,mA1/azimuth_1_joint,mA1/azimuth_2_joint,mA1/azimuth_3_joint,mA1/azimuth_4_joint,1.5533430342749532,-2.3911010752322315,-0.6632251157578453,0.0
2025/04/09 08:48:38.595070323,0,0,,mA1/azimuth_1_joint,mA1/azimuth_2_joint,mA1/azimuth_3_joint,mA1/azimuth_4_joint,1.5533430342749532,-2.3911010752322315,-0.6632251157578453,0.0
2025/04/09 08:48:38.694065282,0,0,,mA1/azimuth_1_joint,mA1/azimuth_2_joint,mA1/azimuth_3_joint,mA1/azimuth_4_joint,1.5533430342749532,-2.3911010752322315,-0.6457718232379019,0.0
2025/04/09 08:48:38.795007217,0,0,,mA1/azimuth_1_joint,mA1/azimuth_2_joint,mA1/azimuth_3_joint,mA1/azimuth_4_joint,1.5533430342749532,-2.3911010752322315,-0.6283185307179586,0.0
2025/04/09 08:48:38.894520152,0,0,,mA1/azimuth_1_joint,mA1/azimuth_2_joint,mA1/azimuth_3_joint,mA1/azimuth_4_joint,1.5533430342749532,-2.3911010752322315,-0.6283185307179586,0.0
2025/04/09 08:48:38.995615768,0,0,,mA1/azimuth_1_joint,mA1/azimuth_2_joint,mA1/azimuth_3_joint,mA1/azimuth_4_joint,1.5533430342749532,-2.3911010752322315,-0.5934119456780721,0.0
2025/04/09 08:48:39.94077043,0,0,,mA1/azimuth_1_joint,mA1/azimuth_2_joint,mA1/azimuth_3_joint,mA1/azimuth_4_joint,1.5533430342749532,-2.3911010752322315,-0.5759586531581288,0.0
2025/04/09 08:48:39.194165116,0,0,,mA1/azimuth_1_joint,mA1/azimuth_2_joint,mA1/azimuth_3_joint,mA1/azimuth_4_joint,1.5533430342749532,-2.3911010752322315,-0.5585053606381855,0.0
2025/04/09 08:48:39.294292458,0,0,,mA1/azimuth_1_joint,mA1/azimuth_2_joint,mA1/azimuth_3_joint,mA1/azimuth_4_joint,1.5533430342749532,-2.3911010752322315,-0.5585053606381855,0.0
2025/04/09 08:48:39.394327374,0,0,,mA1/azimuth_1_joint,mA1/azimuth_2_joint,mA1/azimuth_3_joint,mA1/azimuth_4_joint,1.5533430342749532,-2.3911010752322315,-0.5410520681182421,0.0
2025/04/09 08:48:39.494530890,0,0,,mA1/azimuth_1_joint,mA1/azimuth_2_joint,mA1/azimuth_3_joint,mA1/azimuth_4_joint,1.5533430342749532,-2.3911010752322315,-0.5585053606381855,0.0
2025/04/09 08:48:39.594854133,0,0,,mA1/azimuth_1_joint,mA1/azimuth_2_joint,mA1/azimuth_3_joint,mA1/azimuth_4_joint,1.5533430342749532,-2.3911010752322315,-0.5410520681182421,0.0
2025/04/09 08:48:39.694212045,0,0,,mA1/azimuth_1_joint,mA1/azimuth_2_joint,mA1/azimuth_3_joint,mA1/azimuth_4_joint,1.5533430342749532,-2.3911010752322315,-0.5235987755982988,0.0
2025/04/09 08:48:39.794598929,0,0,,mA1/azimuth_1_joint,mA1/azimuth_2_joint,mA1/azimuth_3_joint,mA1/azimuth_4_joint,1.5533430342749532,-2.4085543677521746,-0.5061454830783556,0.0
2025/04/09 08:48:39.895683621,0,0,,mA1/azimuth_1_joint,mA1/azimuth_2_joint,mA1/azimuth_3_joint,mA1/azimuth_4_joint,1.5533430342749532,-2.4085543677521746,-0.5235987755982988,0.0
2025/04/09 08:48:39.994011240,0,0,,mA1/azimuth_1_joint,mA1/azimuth_2_joint,mA1/azimuth_3_joint,mA1/azimuth_4_joint,1.5533430342749532,-2.4085543677521746,-0.5410520681182421,0.0
2025/04/09 08:48:40.94546516,0,0,,mA1/azimuth_1_joint,mA1/azimuth_2_joint,mA1/azimuth_3_joint,mA1/azimuth_4_joint,1.5533430342749532,-2.4085543677521746,-0.5235987755982988,0.0
2025/04/09 08:48:40.194675832,0,0,,mA1/azimuth_1_joint,mA1/azimuth_2_joint,mA1/azimuth_3_joint,mA1/azimuth_4_joint,1.5533430342749532,-2.4085543677521746,-0.5235987755982988,0.0
2025/04/09 08:48:40.294046185,0,0,,mA1/azimuth_1_joint,mA1/azimuth_2_joint,mA1/azimuth_3_joint,mA1/azimuth_4_joint,1.5533430342749532,-2.426007660272118,-0.5061454830783556,0.0
2025/04/09 08:48:40.395578419,0,0,,mA1/azimuth_1_joint,mA1/azimuth_2_joint,mA1/azimuth_3_joint,mA1/azimuth_4_joint,1.5533430342749532,-2.4085543677521746,-0.4363323129985824,0.0
2025/04/09 08:48:40.493999555,0,0,,mA1/azimuth_1_joint,mA1/azimuth_2_joint,mA1/azimuth_3_joint,mA1/azimuth_4_joint,1.5533430342749532,-2.426007660272118,-0.4188790204786391,0.0
2025/04/09 08:48:40.594386708,0,0,,mA1/azimuth_1_joint,mA1/azimuth_2_joint,mA1/azimuth_3_joint,mA1/azimuth_4_joint,1.5533430342749532,-2.426007660272118,-0.4014257279586958,0.0
2025/04/09 08:48:40.694039043,0,0,,mA1/azimuth_1_joint,mA1/azimuth_2_joint,mA1/azimuth_3_joint,mA1/azimuth_4_joint,1.5533430342749532,-2.426007660272118,-0.3839724354387525,0.0
2025/04/09 08:48:40.795650704,0,0,,mA1/azimuth_1_joint,mA1/azimuth_2_joint,mA1/azimuth_3_joint,mA1/azimuth_4_joint,1.5533430342749532,-2.426007660272118,-0.3665191429188092,0.0
2025/04/09 08:48:40.894391760,0,0,,mA1/azimuth_1_joint,mA1/azimuth_2_joint,mA1/azimuth_3_joint,mA1/azimuth_4_joint,1.5533430342749532,-2.426007660272118,-0.3839724354387525,0.0
2025/04/09 08:48:40.994501823,0,0,,mA1/azimuth_1_joint,mA1/azimuth_2_joint,mA1/azimuth_3_joint,mA1/azimuth_4_joint,1.5533430342749532,-2.426007660272118,-0.3665191429188092,0.0
2025/04/09 08:48:41.94409703,0,0,,mA1/azimuth_1_joint,mA1/azimuth_2_joint,mA1/azimuth_3_joint,mA1/azimuth_4_joint,1.5533430342749532,-2.443460952792061,-0.3490658503988659,0.0
2025/04/09 08:48:41.194627811,0,0,,mA1/azimuth_1_joint,mA1/azimuth_2_joint,mA1/azimuth_3_joint,mA1/azimuth_4_joint,1.5533430342749532,-2.443460952792061,-0.3490658503988659,0.0
2025/04/09 08:48:41.294071942,0,0,,mA1/azimuth_1_joint,mA1/azimuth_2_joint,mA1/azimuth_3_joint,mA1/azimuth_4_joint,1.5533430342749532,-2.443460952792061,-0.3141592653589793,0.0
2025/04/09 08:48:41.394236957,0,0,,mA1/azimuth_1_joint,mA1/azimuth_2_joint,mA1/azimuth_3_joint,mA1/azimuth_4_joint,1.5533430342749532,-2.443460952792061,-0.3141592653589793,0.0
2025/04/09 08:48:41.494090525,0,0,,mA1/azimuth_1_joint,mA1/azimuth_2_joint,mA1/azimuth_3_joint,mA1/azimuth_4_joint,1.5533430342749532,-2.443460952792061,-0.29670597283903605,0.0
2025/04/09 08:48:41.594315575,0,0,,mA1/azimuth_1_joint,mA1/azimuth_2_joint,mA1/azimuth_3_joint,mA1/azimuth_4_joint,1.5533430342749532,-2.4609142453120048,-0.2792526803190927,0.0
2025/04/09 08:48:41.694953883,0,0,,mA1/azimuth_1_joint,mA1/azimuth_2_joint,mA1/azimuth_3_joint,mA1/azimuth_4_joint,1.5533430342749532,-2.4609142453120048,-0.22689280275926285,0.0
2025/04/09 08:48:41.794565040,0,0,,mA1/azimuth_1_joint,mA1/azimuth_2_joint,mA1/azimuth_3_joint,mA1/azimuth_4_joint,1.5533430342749532,-2.4609142453120048,-0.2617993877991494,0.0
2025/04/09 08:48:41.894209198,0,0,,mA1/azimuth_1_joint,mA1/azimuth_2_joint,mA1/azimuth_3_joint,mA1/azimuth_4_joint,1.5533430342749532,-2.4609142453120048,-0.24434609527920614,0.0
2025/04/09 08:48:41.993967510,0,0,,mA1/azimuth_1_joint,mA1/azimuth_2_joint,mA1/azimuth_3_joint,mA1/azimuth_4_joint,1.5533430342749532,-2.4609142453120048,-0.24434609527920614,0.0
2025/04/09 08:48:42.93997151,0,0,,mA1/azimuth_1_joint,mA1/azimuth_2_joint,mA1/azimuth_3_joint,mA1/azimuth_4_joint,1.5533430342749532,-2.478367537831948,-0.22689280275926285,0.0
2025/04/09 08:48:42.194135251,0,0,,mA1/azimuth_1_joint,mA1/azimuth_2_joint,mA1/azimuth_3_joint,mA1/azimuth_4_joint,1.5533430342749532,-2.478367537831948,-0.24434609527920614,0.0
2025/04/09 08:48:42.294044182,0,0,,mA1/azimuth_1_joint,mA1/azimuth_2_joint,mA1/azimuth_3_joint,mA1/azimuth_4_joint,1.5533430342749532,-2.478367537831948,-0.24434609527920614,0.0
2025/04/09 08:48:42.394163895,0,0,,mA1/azimuth_1_joint,mA1/azimuth_2_joint,mA1/azimuth_3_joint,mA1/azimuth_4_joint,1.5533430342749532,-2.478367537831948,-0.20943951023931956,0.0
2025/04/09 08:48:42.494322729,0,0,,mA1/azimuth_1_joint,mA1/azimuth_2_joint,mA1/azimuth_3_joint,mA1/azimuth_4_joint,1.5533430342749532,-2.478367537831948,-0.17453292519943295,0.0
2025/04/09 08:48:42.594007956,0,0,,mA1/azimuth_1_joint,mA1/azimuth_2_joint,mA1/azimuth_3_joint,mA1/azimuth_4_joint,1.5533430342749532,-2.478367537831948,-0.15707963267948966,0.0
2025/04/09 08:48:42.695853474,0,0,,mA1/azimuth_1_joint,mA1/azimuth_2_joint,mA1/azimuth_3_joint,mA1/azimuth_4_joint,1.5533430342749532,-2.478367537831948,-0.13962634015954636,0.0
2025/04/09 08:48:42.794509957,0,0,,mA1/azimuth_1_joint,mA1/azimuth_2_joint,mA1/azimuth_3_joint,mA1/azimuth_4_joint,1.5533430342749532,-2.4958208303518914,-0.13962634015954636,0.0
2025/04/09 08:48:42.894159958,0,0,,mA1/azimuth_1_joint,mA1/azimuth_2_joint,mA1/azimuth_3_joint,mA1/azimuth_4_joint,1.5533430342749532,-2.4958208303518914,-0.10471975511965978,0.0
2025/04/09 08:48:42.994244637,0,0,,mA1/azimuth_1_joint,mA1/azimuth_2_joint,mA1/azimuth_3_joint,mA1/azimuth_4_joint,1.5533430342749532,-2.4958208303518914,-0.13962634015954636,0.0
2025/04/09 08:48:43.94148446,0,0,,mA1/azimuth_1_joint,mA1/azimuth_2_joint,mA1/azimuth_3_joint,mA1/azimuth_4_joint,1.5533430342749532,-2.5132741228718345,-0.13962634015954636,0.0
2025/04/09 08:48:43.194143185,0,0,,mA1/azimuth_1_joint,mA1/azimuth_2_joint,mA1/azimuth_3_joint,mA1/azimuth_4_joint,1.5533430342749532,-2.5132741228718345,-0.10471975511965978,0.0
2025/04/09 08:48:43.294208217,0,0,,mA1/azimuth_1_joint,mA1/azimuth_2_joint,mA1/azimuth_3_joint,mA1/azimuth_4_joint,1.5533430342749532,-2.5132741228718345,-0.12217304763960307,0.0
2025/04/09 08:48:43.394720273,0,0,,mA1/azimuth_1_joint,mA1/azimuth_2_joint,mA1/azimuth_3_joint,mA1/azimuth_4_joint,1.5533430342749532,-2.5132741228718345,-0.12217304763960307,0.0
2025/04/09 08:48:43.493948684,0,0,,mA1/azimuth_1_joint,mA1/azimuth_2_joint,mA1/azimuth_3_joint,mA1/azimuth_4_joint,1.5533430342749532,-2.5132741228718345,-0.12217304763960307,0.0
2025/04/09 08:48:43.594017234,0,0,,mA1/azimuth_1_joint,mA1/azimuth_2_joint,mA1/azimuth_3_joint,mA1/azimuth_4_joint,1.5533430342749532,-2.530727415391778,-0.12217304763960307,0.0
2025/04/09 08:48:43.706034334,0,0,,mA1/azimuth_1_joint,mA1/azimuth_2_joint,mA1/azimuth_3_joint,mA1/azimuth_4_joint,1.5533430342749532,-2.530727415391778,-0.10471975511965978,0.0
2025/04/09 08:48:43.794405285,0,0,,mA1/azimuth_1_joint,mA1/azimuth_2_joint,mA1/azimuth_3_joint,mA1/azimuth_4_joint,1.5533430342749532,-2.530727415391778,-0.13962634015954636,0.0
2025/04/09 08:48:43.894390920,0,0,,mA1/azimuth_1_joint,mA1/azimuth_2_joint,mA1/azimuth_3_joint,mA1/azimuth_4_joint,1.5533430342749532,-2.548180707911721,-0.13962634015954636,0.0
2025/04/09 08:48:43.994457307,0,0,,mA1/azimuth_1_joint,mA1/azimuth_2_joint,mA1/azimuth_3_joint,mA1/azimuth_4_joint,1.5533430342749532,-2.530727415391778,-0.12217304763960307,0.0
2025/04/09 08:48:44.94771746,0,0,,mA1/azimuth_1_joint,mA1/azimuth_2_joint,mA1/azimuth_3_joint,mA1/azimuth_4_joint,1.5533430342749532,-2.548180707911721,-0.10471975511965978,0.0
2025/04/09 08:48:44.194620468,0,0,,mA1/azimuth_1_joint,mA1/azimuth_2_joint,mA1/azimuth_3_joint,mA1/azimuth_4_joint,1.5533430342749532,-2.548180707911721,-0.10471975511965978,0.0
2025/04/09 08:48:44.294174716,0,0,,mA1/azimuth_1_joint,mA1/azimuth_2_joint,mA1/azimuth_3_joint,mA1/azimuth_4_joint,1.5533430342749532,-2.548180707911721,-0.10471975511965978,0.0
2025/04/09 08:48:44.394554696,0,0,,mA1/azimuth_1_joint,mA1/azimuth_2_joint,mA1/azimuth_3_joint,mA1/azimuth_4_joint,1.5533430342749532,-2.548180707911721,-0.08726646259971647,0.0
2025/04/09 08:48:44.494251456,0,0,,mA1/azimuth_1_joint,mA1/azimuth_2_joint,mA1/azimuth_3_joint,mA1/azimuth_4_joint,1.5533430342749532,-2.548180707911721,-0.08726646259971647,0.0
2025/04/09 08:48:44.595320342,0,0,,mA1/azimuth_1_joint,mA1/azimuth_2_joint,mA1/azimuth_3_joint,mA1/azimuth_4_joint,1.5533430342749532,-2.5656340004316642,-0.06981317007977318,0.0
2025/04/09 08:48:44.694031267,0,0,,mA1/azimuth_1_joint,mA1/azimuth_2_joint,mA1/azimuth_3_joint,mA1/azimuth_4_joint,1.5533430342749532,-2.5656340004316642,-0.08726646259971647,0.0
2025/04/09 08:48:44.795236939,0,0,,mA1/azimuth_1_joint,mA1/azimuth_2_joint,mA1/azimuth_3_joint,mA1/azimuth_4_joint,1.5533430342749532,-2.5656340004316642,-0.06981317007977318,0.0
2025/04/09 08:48:44.894863514,0,0,,mA1/azimuth_1_joint,mA1/azimuth_2_joint,mA1/azimuth_3_joint,mA1/azimuth_4_joint,1.5533430342749532,-2.5656340004316642,-0.06981317007977318,0.0
2025/04/09 08:48:44.994497442,0,0,,mA1/azimuth_1_joint,mA1/azimuth_2_joint,mA1/azimuth_3_joint,mA1/azimuth_4_joint,1.5533430342749532,-2.5656340004316642,-0.06981317007977318,0.0
2025/04/09 08:48:45.94038688,0,0,,mA1/azimuth_1_joint,mA1/azimuth_2_joint,mA1/azimuth_3_joint,mA1/azimuth_4_joint,1.5533430342749532,-2.5656340004316642,-0.06981317007977318,0.0
2025/04/09 08:48:45.194443537,0,0,,mA1/azimuth_1_joint,mA1/azimuth_2_joint,mA1/azimuth_3_joint,mA1/azimuth_4_joint,1.5533430342749532,-2.5830872929516078,-0.06981317007977318,0.0
2025/04/09 08:48:45.294662039,0,0,,mA1/azimuth_1_joint,mA1/azimuth_2_joint,mA1/azimuth_3_joint,mA1/azimuth_4_joint,1.5533430342749532,-2.5830872929516078,-0.06981317007977318,0.0
2025/04/09 08:48:45.394810781,0,0,,mA1/azimuth_1_joint,mA1/azimuth_2_joint,mA1/azimuth_3_joint,mA1/azimuth_4_joint,1.5533430342749532,-2.5830872929516078,-0.06981317007977318,0.0
2025/04/09 08:48:45.494871535,0,0,,mA1/azimuth_1_joint,mA1/azimuth_2_joint,mA1/azimuth_3_joint,mA1/azimuth_4_joint,1.5533430342749532,-2.5830872929516078,-0.06981317007977318,0.0
2025/04/09 08:48:45.594756281,0,0,,mA1/azimuth_1_joint,mA1/azimuth_2_joint,mA1/azimuth_3_joint,mA1/azimuth_4_joint,1.5533430342749532,-2.600540585471551,-0.06981317007977318,0.0
2025/04/09 08:48:45.694006584,0,0,,mA1/azimuth_1_joint,mA1/azimuth_2_joint,mA1/azimuth_3_joint,mA1/azimuth_4_joint,1.5533430342749532,-2.600540585471551,-0.06981317007977318,0.0
2025/04/09 08:48:45.794102842,0,0,,mA1/azimuth_1_joint,mA1/azimuth_2_joint,mA1/azimuth_3_joint,mA1/azimuth_4_joint,1.5533430342749532,-2.600540585471551,-0.06981317007977318,0.0
2025/04/09 08:48:45.894194586,0,0,,mA1/azimuth_1_joint,mA1/azimuth_2_joint,mA1/azimuth_3_joint,mA1/azimuth_4_joint,1.5533430342749532,-2.600540585471551,-0.05235987755982989,0.0
2025/04/09 08:48:45.994541980,0,0,,mA1/azimuth_1_joint,mA1/azimuth_2_joint,mA1/azimuth_3_joint,mA1/azimuth_4_joint,1.5533430342749532,-2.600540585471551,-0.06981317007977318,0.0
2025/04/09 08:48:46.93957079,0,0,,mA1/azimuth_1_joint,mA1/azimuth_2_joint,mA1/azimuth_3_joint,mA1/azimuth_4_joint,1.5533430342749532,-2.600540585471551,-0.06981317007977318,0.0
2025/04/09 08:48:46.195012210,0,0,,mA1/azimuth_1_joint,mA1/azimuth_2_joint,mA1/azimuth_3_joint,mA1/azimuth_4_joint,1.5533430342749532,-2.600540585471551,-0.05235987755982989,0.0
2025/04/09 08:48:46.294196017,0,0,,mA1/azimuth_1_joint,mA1/azimuth_2_joint,mA1/azimuth_3_joint,mA1/azimuth_4_joint,1.5533430342749532,-2.600540585471551,-0.05235987755982989,0.0
2025/04/09 08:48:46.394236719,0,0,,mA1/azimuth_1_joint,mA1/azimuth_2_joint,mA1/azimuth_3_joint,mA1/azimuth_4_joint,1.5533430342749532,-2.600540585471551,-0.05235987755982989,0.0
2025/04/09 08:48:46.496653624,0,0,,mA1/azimuth_1_joint,mA1/azimuth_2_joint,mA1/azimuth_3_joint,mA1/azimuth_4_joint,1.5533430342749532,-2.600540585471551,-0.03490658503988659,0.0
2025/04/09 08:48:46.594781098,0,0,,mA1/azimuth_1_joint,mA1/azimuth_2_joint,mA1/azimuth_3_joint,mA1/azimuth_4_joint,1.5533430342749532,-2.6179938779914944,-0.03490658503988659,0.0
2025/04/09 08:48:46.694360457,0,0,,mA1/azimuth_1_joint,mA1/azimuth_2_joint,mA1/azimuth_3_joint,mA1/azimuth_4_joint,1.5533430342749532,-2.6179938779914944,-0.05235987755982989,0.0
2025/04/09 08:48:46.795747222,0,0,,mA1/azimuth_1_joint,mA1/azimuth_2_joint,mA1/azimuth_3_joint,mA1/azimuth_4_joint,1.5533430342749532,-2.6179938779914944,-0.05235987755982989,0.0
2025/04/09 08:48:46.894060700,0,0,,mA1/azimuth_1_joint,mA1/azimuth_2_joint,mA1/azimuth_3_joint,mA1/azimuth_4_joint,1.5533430342749532,-2.6179938779914944,-0.03490658503988659,0.0
2025/04/09 08:48:46.994688697,0,0,,mA1/azimuth_1_joint,mA1/azimuth_2_joint,mA1/azimuth_3_joint,mA1/azimuth_4_joint,1.5533430342749532,-2.6179938779914944,-0.03490658503988659,0.0
2025/04/09 08:48:47.96023805,0,0,,mA1/azimuth_1_joint,mA1/azimuth_2_joint,mA1/azimuth_3_joint,mA1/azimuth_4_joint,1.5533430342749532,-2.6179938779914944,-0.017453292519943295,0.0
2025/04/09 08:48:47.194253272,0,0,,mA1/azimuth_1_joint,mA1/azimuth_2_joint,mA1/azimuth_3_joint,mA1/azimuth_4_joint,1.5533430342749532,-2.6179938779914944,-0.03490658503988659,0.0
2025/04/09 08:48:47.293993567,0,0,,mA1/azimuth_1_joint,mA1/azimuth_2_joint,mA1/azimuth_3_joint,mA1/azimuth_4_joint,1.5533430342749532,-2.6179938779914944,-0.03490658503988659,0.0
2025/04/09 08:48:47.394627016,0,0,,mA1/azimuth_1_joint,mA1/azimuth_2_joint,mA1/azimuth_3_joint,mA1/azimuth_4_joint,1.5533430342749532,-2.6179938779914944,-0.017453292519943295,0.0
2025/04/09 08:48:47.494135065,0,0,,mA1/azimuth_1_joint,mA1/azimuth_2_joint,mA1/azimuth_3_joint,mA1/azimuth_4_joint,1.5533430342749532,-2.6179938779914944,-0.017453292519943295,0.0
2025/04/09 08:48:47.594790941,0,0,,mA1/azimuth_1_joint,mA1/azimuth_2_joint,mA1/azimuth_3_joint,mA1/azimuth_4_joint,1.5533430342749532,-2.6179938779914944,-0.017453292519943295,0.0
2025/04/09 08:48:47.694810290,0,0,,mA1/azimuth_1_joint,mA1/azimuth_2_joint,mA1/azimuth_3_joint,mA1/azimuth_4_joint,1.5533430342749532,-2.6354471705114375,-0.017453292519943295,0.0
2025/04/09 08:48:47.794080856,0,0,,mA1/azimuth_1_joint,mA1/azimuth_2_joint,mA1/azimuth_3_joint,mA1/azimuth_4_joint,1.5533430342749532,-2.6354471705114375,-0.03490658503988659,0.0
2025/04/09 08:48:47.893951734,0,0,,mA1/azimuth_1_joint,mA1/azimuth_2_joint,mA1/azimuth_3_joint,mA1/azimuth_4_joint,1.5533430342749532,-2.6354471705114375,-0.05235987755982989,0.0
2025/04/09 08:48:47.994022158,0,0,,mA1/azimuth_1_joint,mA1/azimuth_2_joint,mA1/azimuth_3_joint,mA1/azimuth_4_joint,1.5533430342749532,-2.6354471705114375,-0.03490658503988659,0.0
2025/04/09 08:48:48.95258197,0,0,,mA1/azimuth_1_joint,mA1/azimuth_2_joint,mA1/azimuth_3_joint,mA1/azimuth_4_joint,1.5533430342749532,-2.6354471705114375,-0.017453292519943295,0.0
2025/04/09 08:48:48.194976577,0,0,,mA1/azimuth_1_joint,mA1/azimuth_2_joint,mA1/azimuth_3_joint,mA1/azimuth_4_joint,1.5533430342749532,-2.6354471705114375,-0.017453292519943295,0.0
2025/04/09 08:48:48.295120932,0,0,,mA1/azimuth_1_joint,mA1/azimuth_2_joint,mA1/azimuth_3_joint,mA1/azimuth_4_joint,1.5533430342749532,-2.6354471705114375,-0.017453292519943295,0.0
2025/04/09 08:48:48.393989222,0,0,,mA1/azimuth_1_joint,mA1/azimuth_2_joint,mA1/azimuth_3_joint,mA1/azimuth_4_joint,1.5533430342749532,-2.6354471705114375,-0.017453292519943295,0.0
2025/04/09 08:48:48.494084883,0,0,,mA1/azimuth_1_joint,mA1/azimuth_2_joint,mA1/azimuth_3_joint,mA1/azimuth_4_joint,1.5533430342749532,-2.6354471705114375,0.0,0.0
