time,header_stamp_secs,header_stamp_nsecs,header_frame_id,orientation_x,orientation_y,orientation_z,orientation_w,orientation_covariance_0,orientation_covariance_1,orientation_covariance_2,orientation_covariance_3,orientation_covariance_4,orientation_covariance_5,orientation_covariance_6,orientation_covariance_7,orientation_covariance_8,angular_velocity_x,angular_velocity_y,angular_velocity_z,angular_velocity_covariance_0,angular_velocity_covariance_1,angular_velocity_covariance_2,angular_velocity_covariance_3,angular_velocity_covariance_4,angular_velocity_covariance_5,angular_velocity_covariance_6,angular_velocity_covariance_7,angular_velocity_covariance_8,linear_acceleration_x,linear_acceleration_y,linear_acceleration_z,linear_acceleration_covariance_0,linear_acceleration_covariance_1,linear_acceleration_covariance_2,linear_acceleration_covariance_3,linear_acceleration_covariance_4,linear_acceleration_covariance_5,linear_acceleration_covariance_6,linear_acceleration_covariance_7,linear_acceleration_covariance_8
2025/04/09 11:15:45.331728310,1744190145,207657067,mA1/imu,0.7085862685729527,0.7056235021169788,0.00021032778864524238,0.0009638528159573024,0.0,0.0,0.0,0.0,0.0,0.0,0.0,0.0,0.0,-0.0012398591756940414,0.0012558021944219263,0.00044749835322581026,0.0,0.0,0.0,0.0,0.0,0.0,0.0,0.0,0.0,0.010385928804662868,-0.05954470618352757,9.8095174303973,0.0,0.0,0.0,0.0,0.0,0.0,0.0,0.0,0.0
2025/04/09 11:15:45.331877027,1744190145,246219381,mA1/imu,0.7085940945511394,0.7056156534102263,0.0002431706353517228,0.0009485239862678998,0.0,0.0,0.0,0.0,0.0,0.0,0.0,0.0,0.0,-0.001267644168919409,0.0014322056442121138,0.0004429205470113078,0.0,0.0,0.0,0.0,0.0,0.0,0.0,0.0,0.0,0.009833065569572114,-0.06372308716280473,9.809820640725603,0.0,0.0,0.0,0.0,0.0,0.0,0.0,0.0,0.0
2025/04/09 11:15:45.331948695,1744190145,300447995,mA1/imu,0.7086018415304319,0.7056078933051645,0.0002723708121144381,0.0009256885376899284,0.0,0.0,0.0,0.0,0.0,0.0,0.0,0.0,0.0,-0.001065956815684415,0.001498777355882835,0.0004381775326815237,0.0,0.0,0.0,0.0,0.0,0.0,0.0,0.0,0.0,0.010712020236005452,0.5714331668487572,9.810036869012706,0.0,0.0,0.0,0.0,0.0,0.0,0.0,0.0,0.0
2025/04/09 11:15:45.352423111,1744190145,351888620,mA1/imu,0.7086095197212787,0.7056001919167953,0.0003066929896122185,0.0009075608908306481,0.0,0.0,0.0,0.0,0.0,0.0,0.0,0.0,0.0,-0.0008877345245392512,0.0014754993701744518,0.00043529835203543344,0.0,0.0,0.0,0.0,0.0,0.0,0.0,0.0,0.0,0.010666872784878349,0.5768553959952541,9.810468458369915,0.0,0.0,0.0,0.0,0.0,0.0,0.0,0.0,0.0
2025/04/09 11:15:45.403192017,1744190145,402980879,mA1/imu,0.7086167753973474,0.7055929154068242,0.00033644163290679136,0.0008889095516554282,0.0,0.0,0.0,0.0,0.0,0.0,0.0,0.0,0.0,0.0010308666776079778,0.001265916586884845,0.00038161227359168287,0.0,0.0,0.0,0.0,0.0,0.0,0.0,0.0,0.0,0.014236140168787135,-0.5579518562199339,9.81019888465277,0.0,0.0,0.0,0.0,0.0,0.0,0.0,0.0,0.0
2025/04/09 11:15:45.452984756,1744190145,452767555,mA1/imu,0.7086226572812659,0.705587016292559,0.0003597577883043646,0.0008732704823326419,0.0,0.0,0.0,0.0,0.0,0.0,0.0,0.0,0.0,0.0012262919267196032,0.0009475691512248194,0.0003008220673032302,0.0,0.0,0.0,0.0,0.0,0.0,0.0,0.0,0.0,0.016659043967766945,-0.5576690532642467,9.808455726880368,0.0,0.0,0.0,0.0,0.0,0.0,0.0,0.0,0.0
2025/04/09 11:15:45.504747613,1744190145,504539263,mA1/imu,0.7086274169952209,0.7055822424880384,0.0003759855718590022,0.0008611637953501758,0.0,0.0,0.0,0.0,0.0,0.0,0.0,0.0,0.0,-0.0002688915250986165,0.0007033644010974669,0.0002678243621892942,0.0,0.0,0.0,0.0,0.0,0.0,0.0,0.0,0.0,0.011398399163775306,-0.03849681205485357,9.809091914032411,0.0,0.0,0.0,0.0,0.0,0.0,0.0,0.0,0.0
2025/04/09 11:15:45.553975157,1744190145,553690192,mA1/imu,0.7086321624524369,0.705577483988221,0.0003853235605627796,0.0008508540348412999,0.0,0.0,0.0,0.0,0.0,0.0,0.0,0.0,0.0,-0.0017848195375124722,0.00046868279146604927,0.000269604952196984,0.0,0.0,0.0,0.0,0.0,0.0,0.0,0.0,0.0,0.010572470947203495,0.479768606917722,9.809875725831468,0.0,0.0,0.0,0.0,0.0,0.0,0.0,0.0,0.0
2025/04/09 11:15:45.599024289,1744190145,597340847,mA1/imu,0.7086369186330044,0.7055727260647269,0.0003815074402639426,0.0008368010417653215,0.0,0.0,0.0,0.0,0.0,0.0,0.0,0.0,0.0,-0.00014962150492063084,0.00018914936023585517,0.00026857628102885483,0.0,0.0,0.0,0.0,0.0,0.0,0.0,0.0,0.0,0.01097522190641399,-0.04845217559307843,9.810680323433564,0.0,0.0,0.0,0.0,0.0,0.0,0.0,0.0,0.0
2025/04/09 11:15:45.647357431,1744190145,647146930,mA1/imu,0.7086416537804642,0.7055679895975725,0.0003707811483314963,0.0008252901723084538,0.0,0.0,0.0,0.0,0.0,0.0,0.0,0.0,0.0,0.0014548092298477084,-9.020480956280796e-05,0.00026724318677301634,0.0,0.0,0.0,0.0,0.0,0.0,0.0,0.0,0.0,0.010965886570721794,0.05417418948446984,9.811277620992191,0.0,0.0,0.0,0.0,0.0,0.0,0.0,0.0,0.0
2025/04/09 11:15:45.699393093,1744190145,699210436,mA1/imu,0.7086463688379212,0.7055632628668744,0.0003595980757995209,0.0008226267090746418,0.0,0.0,0.0,0.0,0.0,0.0,0.0,0.0,0.0,0.0015997177961542112,-0.00034963937616471895,0.00026648366655547935,0.0,0.0,0.0,0.0,0.0,0.0,0.0,0.0,0.0,0.009664694587298715,0.06329005528108113,9.809628958132878,0.0,0.0,0.0,0.0,0.0,0.0,0.0,0.0,0.0
2025/04/09 11:15:45.749448723,1744190145,749304309,mA1/imu,0.7086510632864154,0.7055585460554755,0.00034876473128526704,0.0008288270499080692,0.0,0.0,0.0,0.0,0.0,0.0,0.0,0.0,0.0,0.00027363952234832155,-0.0005767826607673146,0.0002653036362254051,0.0,0.0,0.0,0.0,0.0,0.0,0.0,0.0,0.0,0.01048951371553261,-0.034847164705276344,9.808446283748994,0.0,0.0,0.0,0.0,0.0,0.0,0.0,0.0,0.0
2025/04/09 11:15:45.802899575,1744190145,802669861,mA1/imu,0.7086557521025012,0.7055538422734262,0.000328035022417235,0.0008325012116679267,0.0,0.0,0.0,0.0,0.0,0.0,0.0,0.0,0.0,0.00039355185629198677,-0.0007687789512971527,0.00026482009879457623,0.0,0.0,0.0,0.0,0.0,0.0,0.0,0.0,0.0,0.010475307895581955,-0.6606952206151998,9.809774696017906,0.0,0.0,0.0,0.0,0.0,0.0,0.0,0.0,0.0
2025/04/09 11:15:45.852727295,1744190145,852535521,mA1/imu,0.7086604417952298,0.7055491437389959,0.0002987168652658425,0.0008335298398014716,0.0,0.0,0.0,0.0,0.0,0.0,0.0,0.0,0.0,0.00020579070051298342,-0.0009094241273470292,0.00026424291377554143,0.0,0.0,0.0,0.0,0.0,0.0,0.0,0.0,0.0,0.009978290515972717,-0.043675704340516416,9.8107406027008,0.0,0.0,0.0,0.0,0.0,0.0,0.0,0.0,0.0
2025/04/09 11:15:45.903875293,1744190145,903649908,mA1/imu,0.7086651210357704,0.7055444530425475,0.00026740100248090145,0.0008363641271376115,0.0,0.0,0.0,0.0,0.0,0.0,0.0,0.0,0.0,-1.817244535419497e-05,-0.0009901568078300451,0.0002637918656548255,0.0,0.0,0.0,0.0,0.0,0.0,0.0,0.0,0.0,0.009198726828678573,0.5734283607002654,9.809905407721772,0.0,0.0,0.0,0.0,0.0,0.0,0.0,0.0,0.0
2025/04/09 11:15:45.953706490,1744190145,953494899,mA1/imu,0.7086697949245275,0.7055397570873074,0.00024072435181226795,0.0008455664361853324,0.0,0.0,0.0,0.0,0.0,0.0,0.0,0.0,0.0,-1.1854924972619429e-05,-0.0010104608167162748,0.00026455951726833264,0.0,0.0,0.0,0.0,0.0,0.0,0.0,0.0,0.0,0.008515301430362774,0.5776941477055013,9.810340087517497,0.0,0.0,0.0,0.0,0.0,0.0,0.0,0.0,0.0
2025/04/09 11:15:46.4713890,1744190146,4507356,mA1/imu,0.708674515081437,0.7055350127635582,0.00021512631781089875,0.0008550786415225753,0.0,0.0,0.0,0.0,0.0,0.0,0.0,0.0,0.0,0.0017141871093404543,-0.0009750035093112014,0.00026825456469887723,0.0,0.0,0.0,0.0,0.0,0.0,0.0,0.0,0.0,0.008442371690947428,-0.5585959957866234,9.810219492975538,0.0,0.0,0.0,0.0,0.0,0.0,0.0,0.0,0.0
2025/04/09 11:15:46.54581627,1744190146,54393435,mA1/imu,0.7086792995787392,0.7055302009197213,0.00019305668051711427,0.000865255964074456,0.0,0.0,0.0,0.0,0.0,0.0,0.0,0.0,0.0,0.0016874370164576505,-0.0008848552543004715,0.00027234515297227895,0.0,0.0,0.0,0.0,0.0,0.0,0.0,0.0,0.0,0.00900018104088572,-0.5584061732784791,9.809158229837342,0.0,0.0,0.0,0.0,0.0,0.0,0.0,0.0,0.0
2025/04/09 11:15:46.105632356,1744190146,105452835,mA1/imu,0.7086841468270504,0.7055253240017532,0.0001758936159517636,0.0008753797305958153,0.0,0.0,0.0,0.0,0.0,0.0,0.0,0.0,0.0,-5.2414007577602794e-05,-0.0007088062011770555,0.0002758006087251509,0.0,0.0,0.0,0.0,0.0,0.0,0.0,0.0,0.0,0.008497593841458161,-0.03840442732489813,9.809278985482154,0.0,0.0,0.0,0.0,0.0,0.0,0.0,0.0,0.0
2025/04/09 11:15:46.155809541,1744190146,155376522,mA1/imu,0.7086890532860854,0.7055203876604861,0.00016361148166526738,0.0008840696537315461,0.0,0.0,0.0,0.0,0.0,0.0,0.0,0.0,0.0,-0.0018098893940429674,-0.0004954119260676275,0.00027862140283637304,0.0,0.0,0.0,0.0,0.0,0.0,0.0,0.0,0.0,0.007510494979507443,0.4797288539621682,9.810014271208487,0.0,0.0,0.0,0.0,0.0,0.0,0.0,0.0,0.0
2025/04/09 11:15:46.206544718,1744190146,206333395,mA1/imu,0.7086939744160146,0.7055154464117518,0.00015104577997669124,0.0008846954461388873,0.0,0.0,0.0,0.0,0.0,0.0,0.0,0.0,0.0,-0.0004126648592843494,-0.0002703977604864297,0.0002781859402655062,0.0,0.0,0.0,0.0,0.0,0.0,0.0,0.0,0.0,0.008071825597018032,-0.048346252330668124,9.810900636867114,0.0,0.0,0.0,0.0,0.0,0.0,0.0,0.0,0.0
2025/04/09 11:15:46.246291256,1744190146,246138823,mA1/imu,0.7086988818702339,0.7055105203231091,0.00014460247969737549,0.0008829719243245845,0.0,0.0,0.0,0.0,0.0,0.0,0.0,0.0,0.0,0.0009689557290925434,-4.266657130953983e-05,0.0002778609271687215,0.0,0.0,0.0,0.0,0.0,0.0,0.0,0.0,0.0,0.008392890873922193,0.05421536336975458,9.811497698175833,0.0,0.0,0.0,0.0,0.0,0.0,0.0,0.0,0.0
2025/04/09 11:15:46.297480706,1744190146,297257363,mA1/imu,0.7087037698793651,0.7055056066777312,0.00015041779620901432,0.0008848048083101482,0.0,0.0,0.0,0.0,0.0,0.0,0.0,0.0,0.0,0.000915352981820522,0.0002059971221331054,0.000277241482350066,0.0,0.0,0.0,0.0,0.0,0.0,0.0,0.0,0.0,0.007096040202217782,0.06342027516779776,9.809860933803662,0.0,0.0,0.0,0.0,0.0,0.0,0.0,0.0,0.0
2025/04/09 11:15:46.347559145,1744190146,347068531,mA1/imu,0.708708635497556,0.7055007081091427,0.00016823013834237527,0.0008902400300905748,0.0,0.0,0.0,0.0,0.0,0.0,0.0,0.0,0.0,-0.0005765215262790751,0.0004324658691743758,0.00027659445470747275,0.0,0.0,0.0,0.0,0.0,0.0,0.0,0.0,0.0,0.00846563775030843,-0.0347080484023452,9.808647299008095,0.0,0.0,0.0,0.0,0.0,0.0,0.0,0.0,0.0
2025/04/09 11:15:46.398232766,1744190146,398036966,mA1/imu,0.7087135252186727,0.7054957938951045,0.00018588374344800056,0.0008884906706026106,0.0,0.0,0.0,0.0,0.0,0.0,0.0,0.0,0.0,-0.0005829915303719278,0.000620110411703638,0.00027870284266588724,0.0,0.0,0.0,0.0,0.0,0.0,0.0,0.0,0.0,0.00900549190456852,-0.6606537595918722,9.809885326719805,0.0,0.0,0.0,0.0,0.0,0.0,0.0,0.0,0.0
2025/04/09 11:15:46.448050035,1744190146,447897125,mA1/imu,0.7087184518024479,0.7054908508306482,0.00020262352606081207,0.000880007213611003,0.0,0.0,0.0,0.0,0.0,0.0,0.0,0.0,0.0,-0.000853820718706108,0.0007720718060808606,0.00028050273114104204,0.0,0.0,0.0,0.0,0.0,0.0,0.0,0.0,0.0,0.009030500890224986,-0.043588036785662976,9.810833316685834,0.0,0.0,0.0,0.0,0.0,0.0,0.0,0.0,0.0
2025/04/09 11:15:46.499097261,1744190146,498921061,mA1/imu,0.7087217568978909,0.7054875345503611,0.0002196733691089579,0.0008727182999109778,0.0,0.0,0.0,0.0,0.0,0.0,0.0,0.0,0.0,-0.0011002203784732125,0.0005247438074094593,5.062187005808215e-05,0.0,0.0,0.0,0.0,0.0,0.0,0.0,0.0,0.0,0.02696596838890292,0.5742578020514296,9.810279065803261,0.0,0.0,0.0,0.0,0.0,0.0,0.0,0.0,0.0
2025/04/09 11:15:46.548941683,1744190146,548750953,mA1/imu,0.7087184210960261,0.705490871630023,0.00023314975690800224,0.0008805038654322145,0.0,0.0,0.0,0.0,0.0,0.0,0.0,0.0,0.0,-0.0010971404772879252,-4.7600035436061114e-05,-0.00034902911089733325,0.0,0.0,0.0,0.0,0.0,0.0,0.0,0.0,0.0,0.02674362133817506,0.5786348744595452,9.811006525298263,0.0,0.0,0.0,0.0,0.0,0.0,0.0,0.0,0.0
2025/04/09 11:15:46.600636761,1744190146,600421318,mA1/imu,0.7087115932323106,0.7054977123158019,0.00024257820998671413,0.0008925755440755096,0.0,0.0,0.0,0.0,0.0,0.0,0.0,0.0,0.0,0.0006718530984033001,7.081064318629915e-05,-0.00031116062349399265,0.0,0.0,0.0,0.0,0.0,0.0,0.0,0.0,0.0,0.008028986733430131,-0.5582296709481522,9.810075070451402,0.0,0.0,0.0,0.0,0.0,0.0,0.0,0.0,0.0
2025/04/09 11:15:46.649909543,1744190146,649789571,mA1/imu,0.7087061488393483,0.7055031653139255,0.00025653733036074466,0.0009013977643463696,0.0,0.0,0.0,0.0,0.0,0.0,0.0,0.0,0.0,0.0007572300281774861,0.0001775859756557411,-0.0003054136070118367,0.0,0.0,0.0,0.0,0.0,0.0,0.0,0.0,0.0,0.008187023569660407,-0.5581352506350927,9.809018977351506,0.0,0.0,0.0,0.0,0.0,0.0,0.0,0.0,0.0
2025/04/09 11:15:46.701911330,1744190146,701705446,mA1/imu,0.7087008328204281,0.7055084908473437,0.00027254323961660345,0.0009080870650191895,0.0,0.0,0.0,0.0,0.0,0.0,0.0,0.0,0.0,-0.0008258817229080694,0.00030038964094608334,-0.00029734712971390997,0.0,0.0,0.0,0.0,0.0,0.0,0.0,0.0,0.0,0.008315063700697808,-0.03780738408166913,9.809202190946117,0.0,0.0,0.0,0.0,0.0,0.0,0.0,0.0,0.0
2025/04/09 11:15:46.750883366,1744190146,750721263,mA1/imu,0.7086956575581492,0.7055136782591267,0.00028874423078663786,0.000911797274106284,0.0,0.0,0.0,0.0,0.0,0.0,0.0,0.0,0.0,-0.0023946834126877697,0.0004064404167516081,-0.0002892512231437085,0.0,0.0,0.0,0.0,0.0,0.0,0.0,0.0,0.0,0.007238636267849372,0.48040533708499233,9.809967737201461,0.0,0.0,0.0,0.0,0.0,0.0,0.0,0.0,0.0
2025/04/09 11:15:46.802380115,1744190146,802147581,mA1/imu,0.7086900362494856,0.7055193282773589,0.0002989302036577001,0.0009058634005591702,0.0,0.0,0.0,0.0,0.0,0.0,0.0,0.0,0.0,-0.0007825551883861902,0.0005119587033639052,-0.00035472841538744033,0.0,0.0,0.0,0.0,0.0,0.0,0.0,0.0,0.0,0.008087314849755257,-0.04879064472144657,9.811053947836932,0.0,0.0,0.0,0.0,0.0,0.0,0.0,0.0,0.0
2025/04/09 11:15:46.851862581,1744190146,851679857,mA1/imu,0.7086837033005292,0.7055256972682858,0.00030829931073168165,0.0008967284325054508,0.0,0.0,0.0,0.0,0.0,0.0,0.0,0.0,0.0,0.0008248408891241573,0.0005292003527748675,-0.00035596314244971304,0.0,0.0,0.0,0.0,0.0,0.0,0.0,0.0,0.0,0.00862308701826031,0.05500411134893131,9.81145205316627,0.0,0.0,0.0,0.0,0.0,0.0,0.0,0.0,0.0
2025/04/09 11:15:46.903273025,1744190146,902720083,mA1/imu,0.7086828613732461,0.7055265489355589,0.0003302470375803731,0.0008841265763887033,0.0,0.0,0.0,0.0,0.0,0.0,0.0,0.0,0.0,0.0009250399822370455,0.0016159233336538023,0.000390239516851256,0.0,0.0,0.0,0.0,0.0,0.0,0.0,0.0,0.0,-0.04883347407674434,0.06352150553368748,9.811547550473174,0.0,0.0,0.0,0.0,0.0,0.0,0.0,0.0,0.0
2025/04/09 11:15:46.954062151,1744190146,953829470,mA1/imu,0.7086997332569787,0.7055096171415209,0.0003834050690739942,0.0008492366366137596,0.0,0.0,0.0,0.0,0.0,0.0,0.0,0.0,0.0,-0.0003575313303991867,0.002793084043082832,0.0012019061097931093,0.0,0.0,0.0,0.0,0.0,0.0,0.0,0.0,0.0,-0.010802384632057637,-0.03253012230743381,9.806843229842439,0.0,0.0,0.0,0.0,0.0,0.0,0.0,0.0,0.0
2025/04/09 11:15:47.5093855,1744190147,4817986,mA1/imu,0.708724607376674,0.7054846578522753,0.000437587599552836,0.0007980920561357415,0.0,0.0,0.0,0.0,0.0,0.0,0.0,0.0,0.0,-0.00012913814081733785,0.003051431453324516,0.0015527458380934325,0.0,0.0,0.0,0.0,0.0,0.0,0.0,0.0,0.0,-0.0064473492118744865,-0.660564487337266,9.808579041032086,0.0,0.0,0.0,0.0,0.0,0.0,0.0,0.0,0.0
2025/04/09 11:15:47.54957350,1744190147,54718674,mA1/imu,0.7087530264070809,0.7054561393039284,0.00048208003143704044,0.0007420754972861988,0.0,0.0,0.0,0.0,0.0,0.0,0.0,0.0,0.0,-0.00020905028332800365,0.0026107645592565935,0.0015972333144988495,0.0,0.0,0.0,0.0,0.0,0.0,0.0,0.0,0.0,0.012550191564346294,-0.04266454358881042,9.811212202966965,0.0,0.0,0.0,0.0,0.0,0.0,0.0,0.0,0.0
2025/04/09 11:15:47.106023350,1744190147,105812241,mA1/imu,0.7087807773719526,0.7054282839032766,0.0005128574824300171,0.0006948917120089003,0.0,0.0,0.0,0.0,0.0,0.0,0.0,0.0,0.0,-0.00029489422762183395,0.0019255162673837722,0.0015592277551558919,0.0,0.0,0.0,0.0,0.0,0.0,0.0,0.0,0.0,0.012626829928990047,0.574408397650432,9.810414780430301,0.0,0.0,0.0,0.0,0.0,0.0,0.0,0.0,0.0
2025/04/09 11:15:47.155932652,1744190147,155622096,mA1/imu,0.7088078353484643,0.7054011110256095,0.0005334114885454785,0.0006637655036630511,0.0,0.0,0.0,0.0,0.0,0.0,0.0,0.0,0.0,-0.00014060924721528485,0.0011532788612412062,0.0015189112565812913,0.0,0.0,0.0,0.0,0.0,0.0,0.0,0.0,0.0,0.012226049705775417,0.5783987095838338,9.810844370563787,0.0,0.0,0.0,0.0,0.0,0.0,0.0,0.0,0.0
2025/04/09 11:15:47.198517013,1744190147,196764992,mA1/imu,0.7088342105832921,0.7053746216450055,0.0005378128228496815,0.0006448281120911975,0.0,0.0,0.0,0.0,0.0,0.0,0.0,0.0,0.0,0.0017326797601429442,0.00032764244801189874,0.0014808761493843255,0.0,0.0,0.0,0.0,0.0,0.0,0.0,0.0,0.0,0.011843647321133384,-0.5579483347867525,9.810790996946247,0.0,0.0,0.0,0.0,0.0,0.0,0.0,0.0,0.0
2025/04/09 11:15:47.247939429,1744190147,247499471,mA1/imu,0.7088599438403806,0.705348773864374,0.0005273564359239256,0.000639626317311843,0.0,0.0,0.0,0.0,0.0,0.0,0.0,0.0,0.0,0.0018512289833352688,-0.0004878667148365742,0.0014443374444617536,0.0,0.0,0.0,0.0,0.0,0.0,0.0,0.0,0.0,0.012330338659223334,-0.5576619736241746,9.80967839889716,0.0,0.0,0.0,0.0,0.0,0.0,0.0,0.0,0.0
2025/04/09 11:15:47.298685034,1744190147,298501076,mA1/imu,0.7088851096361922,0.7053234903576672,0.0005042398689366357,0.0006488666396510972,0.0,0.0,0.0,0.0,0.0,0.0,0.0,0.0,0.0,0.0002106860316748743,-0.0012103786778228766,0.001414232152994191,0.0,0.0,0.0,0.0,0.0,0.0,0.0,0.0,0.0,0.010943190524047942,-0.04061396176038626,9.809579501270791,0.0,0.0,0.0,0.0,0.0,0.0,0.0,0.0,0.0
2025/04/09 11:15:47.348627280,1744190147,348428894,mA1/imu,0.7089097800005157,0.7052987007282977,0.0004677668871581755,0.0006691522507716488,0.0,0.0,0.0,0.0,0.0,0.0,0.0,0.0,0.0,-0.0014003266121795574,-0.001843331480347353,0.001386604437781228,0.0,0.0,0.0,0.0,0.0,0.0,0.0,0.0,0.0,0.0100138795620482,0.4793429488848724,9.810284958656174,0.0,0.0,0.0,0.0,0.0,0.0,0.0,0.0,0.0
2025/04/09 11:15:47.400238044,1744190147,400012661,mA1/imu,0.708933636556031,0.705274731190321,0.00041418990701799037,0.0006935060077782744,0.0,0.0,0.0,0.0,0.0,0.0,0.0,0.0,0.0,0.00011973031098101387,-0.0024275826475524307,0.001312983703093718,0.0,0.0,0.0,0.0,0.0,0.0,0.0,0.0,0.0,0.012154171716500139,-0.04759023520657427,9.811105047450743,0.0,0.0,0.0,0.0,0.0,0.0,0.0,0.0,0.0
2025/04/09 11:15:47.449985061,1744190147,449804529,mA1/imu,0.7089557396997899,0.7052525127307573,0.0003512032206839536,0.0007273857122233243,0.0,0.0,0.0,0.0,0.0,0.0,0.0,0.0,0.0,0.0015883481778814,-0.0029250796333669124,0.0012111432302924585,0.0,0.0,0.0,0.0,0.0,0.0,0.0,0.0,0.0,0.012320598126291795,0.055287764532676476,9.811701373987402,0.0,0.0,0.0,0.0,0.0,0.0,0.0,0.0,0.0
2025/04/09 11:15:47.501715153,1744190147,501492419,mA1/imu,0.7089661053700566,0.7052420581140166,0.0002735653473924705,0.00079124302251206,0.0,0.0,0.0,0.0,0.0,0.0,0.0,0.0,0.0,0.0014792799925140753,-0.005287000039488572,-0.0002004804905726066,0.0,0.0,0.0,0.0,0.0,0.0,0.0,0.0,0.0,0.08000982116578234,0.07172091070711513,9.811425343439307,0.0,0.0,0.0,0.0,0.0,0.0,0.0,0.0,0.0
2025/04/09 11:15:47.550928962,1744190147,550741376,mA1/imu,0.7089540043421113,0.7052541301625618,0.00017015161959853568,0.0008959153757403197,0.0,0.0,0.0,0.0,0.0,0.0,0.0,0.0,0.0,2.2375894515176427e-05,-0.006045558929999468,-0.0008533642324808728,0.0,0.0,0.0,0.0,0.0,0.0,0.0,0.0,0.0,0.02569297147458733,-0.03446758652926781,9.806432888529045,0.0,0.0,0.0,0.0,0.0,0.0,0.0,0.0,0.0
2025/04/09 11:15:47.602261419,1744190147,602102210,mA1/imu,0.7089349641971133,0.7052731488718871,6.053658550364896e-05,0.0009991769073523535,0.0,0.0,0.0,0.0,0.0,0.0,0.0,0.0,0.0,2.019947229186435e-05,-0.005976531113924722,-0.0012362782353328831,0.0,0.0,0.0,0.0,0.0,0.0,0.0,0.0,0.0,0.02170262071999101,-0.6625031198487009,9.8079942135077,0.0,0.0,0.0,0.0,0.0,0.0,0.0,0.0,0.0
2025/04/09 11:15:47.651903517,1744190147,651731369,mA1/imu,0.7089090867475993,0.7052990196394123,-4.764453255833023e-05,0.0010942359741732558,0.0,0.0,0.0,0.0,0.0,0.0,0.0,0.0,0.0,-0.00027370377433455414,-0.005516156088498512,-0.0016117928058553479,0.0,0.0,0.0,0.0,0.0,0.0,0.0,0.0,0.0,0.016499595847264462,-0.04361372052909755,9.811262187124527,0.0,0.0,0.0,0.0,0.0,0.0,0.0,0.0,0.0
2025/04/09 11:15:47.702866654,1744190147,702732184,mA1/imu,0.7088765290447123,0.7053315914429439,-0.00014280983265152318,0.0011799523027941823,0.0,0.0,0.0,0.0,0.0,0.0,0.0,0.0,0.0,-0.0005975541409812299,-0.0047497101091350065,-0.0019908014554249377,0.0,0.0,0.0,0.0,0.0,0.0,0.0,0.0,0.0,0.013440409643368062,0.5750279581709281,9.810362198421073,0.0,0.0,0.0,0.0,0.0,0.0,0.0,0.0,0.0
2025/04/09 11:15:47.752801002,1744190147,752554988,mA1/imu,0.708837508806344,0.7053706573846932,-0.0002138253246462854,0.0012554236864485335,0.0,0.0,0.0,0.0,0.0,0.0,0.0,0.0,0.0,-0.0006631734956873867,-0.0036725694464400283,-0.002359861810464249,0.0,0.0,0.0,0.0,0.0,0.0,0.0,0.0,0.0,0.013127400323022375,0.5794687230569898,9.811188833734892,0.0,0.0,0.0,0.0,0.0,0.0,0.0,0.0,0.0
2025/04/09 11:15:47.803900696,1744190147,803697635,mA1/imu,0.7087921817411095,0.70541608876962,-0.0002623239913878781,0.001309959454811609,0.0,0.0,0.0,0.0,0.0,0.0,0.0,0.0,0.0,0.0010605382190781044,-0.0023956025603070873,-0.002715445851497168,0.0,0.0,0.0,0.0,0.0,0.0,0.0,0.0,0.0,0.013148624445941157,-0.5557062118617312,9.811087876313232,0.0,0.0,0.0,0.0,0.0,0.0,0.0,0.0,0.0
2025/04/09 11:15:47.853726858,1744190147,853585029,mA1/imu,0.7087406227067363,0.7054678210131874,-0.0002833039584971441,0.0013427505501311904,0.0,0.0,0.0,0.0,0.0,0.0,0.0,0.0,0.0,0.0009842804558030677,-0.0009828886437159192,-0.0030631973839395843,0.0,0.0,0.0,0.0,0.0,0.0,0.0,0.0,0.0,0.01645527371943723,-0.5597204307664064,9.807634556556128,0.0,0.0,0.0,0.0,0.0,0.0,0.0,0.0,0.0
2025/04/09 11:15:47.905052033,1744190147,904779303,mA1/imu,0.7086829947294725,0.705525696945969,-0.0002755535431824219,0.0013520356564573955,0.0,0.0,0.0,0.0,0.0,0.0,0.0,0.0,0.0,-0.000734659576007826,0.0005359693435324026,-0.003402327282118588,0.0,0.0,0.0,0.0,0.0,0.0,0.0,0.0,0.0,0.01732463813897058,-0.0384674537141706,9.807504202007555,0.0,0.0,0.0,0.0,0.0,0.0,0.0,0.0,0.0
2025/04/09 11:15:47.954845840,1744190147,954459378,mA1/imu,0.7086193776175334,0.7055896334750569,-0.00024116441530165427,0.00133739941645084,0.0,0.0,0.0,0.0,0.0,0.0,0.0,0.0,0.0,-0.0024371093431324493,0.00199778279548271,-0.0037333295671922056,0.0,0.0,0.0,0.0,0.0,0.0,0.0,0.0,0.0,0.011433194737620056,0.48133113970876046,9.810481727154311,0.0,0.0,0.0,0.0,0.0,0.0,0.0,0.0,0.0
2025/04/09 11:15:48.6109816,1744190148,5835808,mA1/imu,0.7085499976260025,0.7056594014310242,-0.0001884093554660127,0.0012940394565945058,0.0,0.0,0.0,0.0,0.0,0.0,0.0,0.0,0.0,-0.0009722133300763546,0.0032454179693292445,-0.004059666008224186,0.0,0.0,0.0,0.0,0.0,0.0,0.0,0.0,0.0,0.013850758816564886,-0.04893091286476634,9.811532086878756,0.0,0.0,0.0,0.0,0.0,0.0,0.0,0.0,0.0
2025/04/09 11:15:48.56386023,1744190148,55780434,mA1/imu,0.7084749310102796,0.7057348967352698,-0.00011488621940529799,0.0012306344681501978,0.0,0.0,0.0,0.0,0.0,0.0,0.0,0.0,0.0,0.0004965846002788269,0.004280652815760675,-0.004383379148735697,0.0,0.0,0.0,0.0,0.0,0.0,0.0,0.0,0.0,0.014685205053399777,0.053219966974561585,9.812477918529368,0.0,0.0,0.0,0.0,0.0,0.0,0.0,0.0,0.0
2025/04/09 11:15:48.97015073,1744190148,96656620,mA1/imu,0.708397217572271,0.7058130490572755,-1.1129797543273524e-05,0.001149692334542029,0.0,0.0,0.0,0.0,0.0,0.0,0.0,0.0,0.0,0.0005194223767568276,0.005797186899929484,-0.004384299454162006,0.0,0.0,0.0,0.0,0.0,0.0,0.0,0.0,0.0,-0.007153671038738159,0.0640013436382437,9.810410721384352,0.0,0.0,0.0,0.0,0.0,0.0,0.0,0.0,0.0
2025/04/09 11:15:48.146815339,1744190148,146544018,mA1/imu,0.7083214194639896,0.7058892591036164,0.00012149853329628907,0.0010515934445224533,0.0,0.0,0.0,0.0,0.0,0.0,0.0,0.0,0.0,-0.0008375872203253168,0.006946941101666128,-0.004229860733009916,0.0,0.0,0.0,0.0,0.0,0.0,0.0,0.0,0.0,-0.004288172879805506,-0.03523640730517141,9.808428803468683,0.0,0.0,0.0,0.0,0.0,0.0,0.0,0.0,0.0
2025/04/09 11:15:48.198115584,1744190148,197913004,mA1/imu,0.7082482972559785,0.7059627550254182,0.00026310466725680456,0.0009320551821708515,0.0,0.0,0.0,0.0,0.0,0.0,0.0,0.0,0.0,-0.0006893935705067719,0.007617040433607371,-0.0040762388866151,0.0,0.0,0.0,0.0,0.0,0.0,0.0,0.0,0.0,-0.0012485422960126016,-0.6620299480242839,9.80967962640822,0.0,0.0,0.0,0.0,0.0,0.0,0.0,0.0,0.0
2025/04/09 11:15:48.248060141,1744190148,247765280,mA1/imu,0.7081777861381524,0.7060335830652517,0.00040490905708080884,0.0007992829054909286,0.0,0.0,0.0,0.0,0.0,0.0,0.0,0.0,0.0,-0.0007978432958368638,0.0077890767680851535,-0.003956704201793642,0.0,0.0,0.0,0.0,0.0,0.0,0.0,0.0,0.0,0.004016206245144021,-0.0422385618174852,9.811191794437558,0.0,0.0,0.0,0.0,0.0,0.0,0.0,0.0,0.0
2025/04/09 11:15:48.299244524,1744190148,299050356,mA1/imu,0.7081085097633112,0.7061031083568619,0.0005414051532620793,0.0006675702364153943,0.0,0.0,0.0,0.0,0.0,0.0,0.0,0.0,0.0,-0.0008889157131831614,0.007406467113218125,-0.0038940790022860146,0.0,0.0,0.0,0.0,0.0,0.0,0.0,0.0,0.0,0.005978502196003026,0.5748929815873287,9.810233966242418,0.0,0.0,0.0,0.0,0.0,0.0,0.0,0.0,0.0
2025/04/09 11:15:48.348955005,1744190148,348766110,mA1/imu,0.7080403613475196,0.706171433759391,0.0006704519789518472,0.0005507624021778461,0.0,0.0,0.0,0.0,0.0,0.0,0.0,0.0,0.0,-0.000841271736964312,0.006616090131415474,-0.0038274768320782347,0.0,0.0,0.0,0.0,0.0,0.0,0.0,0.0,0.0,0.006232970459867727,0.570197601368873,9.810478117891037,0.0,0.0,0.0,0.0,0.0,0.0,0.0,0.0,0.0
2025/04/09 11:15:48.400016735,1744190148,399752459,mA1/imu,0.7079738119601003,0.706238112605585,0.0007797753852969284,0.0004492575365521831,0.0,0.0,0.0,0.0,0.0,0.0,0.0,0.0,0.0,0.0011555068664960233,0.005511145647159665,-0.0037065415099609912,0.0,0.0,0.0,0.0,0.0,0.0,0.0,0.0,0.0,0.00735772772921712,-0.560830272476042,9.810210452554502,0.0,0.0,0.0,0.0,0.0,0.0,0.0,0.0,0.0
2025/04/09 11:15:48.449730461,1744190148,449577499,mA1/imu,0.7079090349150523,0.7063030037279806,0.0008570100321802638,0.00036158577953756095,0.0,0.0,0.0,0.0,0.0,0.0,0.0,0.0,0.0,0.0019056036495230853,0.004051922307371865,-0.0036383198844622167,0.0,0.0,0.0,0.0,0.0,0.0,0.0,0.0,0.0,0.008734714717901094,-0.5227225094176328,9.809856179618434,0.0,0.0,0.0,0.0,0.0,0.0,0.0,0.0,0.0
2025/04/09 11:15:48.501389903,1744190148,501184300,mA1/imu,0.7078453992911327,0.7063667305973579,0.0009145704277177991,0.00031011047903726406,0.0,0.0,0.0,0.0,0.0,0.0,0.0,0.0,0.0,0.0006222733072609358,0.002405049769189245,-0.0035744964467402554,0.0,0.0,0.0,0.0,0.0,0.0,0.0,0.0,0.0,0.00880609386591089,0.012913958010339056,9.808876405686174,0.0,0.0,0.0,0.0,0.0,0.0,0.0,0.0,0.0
2025/04/09 11:15:48.550740697,1744190148,550595631,mA1/imu,0.7077828629864963,0.7064293821445575,0.0009320804684517963,0.0002795201208869056,0.0,0.0,0.0,0.0,0.0,0.0,0.0,0.0,0.0,0.00011590852975649693,0.0006600819245175033,-0.0035163502776029048,0.0,0.0,0.0,0.0,0.0,0.0,0.0,0.0,0.0,0.008780009512487065,-0.031225757140902595,9.808712726432184,0.0,0.0,0.0,0.0,0.0,0.0,0.0,0.0,0.0
2025/04/09 11:15:48.601721053,1744190148,601576594,mA1/imu,0.7077213847567727,0.7064909916443578,0.0009178169888548787,0.00027909730046586087,0.0,0.0,0.0,0.0,0.0,0.0,0.0,0.0,0.0,0.00028152938028041955,-0.0010738977323498371,-0.0034580614148754093,0.0,0.0,0.0,0.0,0.0,0.0,0.0,0.0,0.0,0.008319533307148056,-0.029057199859627396,9.810935426443404,0.0,0.0,0.0,0.0,0.0,0.0,0.0,0.0,0.0
2025/04/09 11:15:48.651596167,1744190148,651459931,mA1/imu,0.7076609493318017,0.7065515761107124,0.0008705890016241067,0.0003052229866452014,0.0,0.0,0.0,0.0,0.0,0.0,0.0,0.0,0.0,0.0006045895980150141,-0.0027163351401962954,-0.00340274574305705,0.0,0.0,0.0,0.0,0.0,0.0,0.0,0.0,0.0,0.007561075454517991,-0.011988845806596763,9.810675027176483,0.0,0.0,0.0,0.0,0.0,0.0,0.0,0.0,0.0
2025/04/09 11:15:48.703499154,1744190148,703291160,mA1/imu,0.7076020706893711,0.7066106039977352,0.000797714652178836,0.00035710699219454445,0.0,0.0,0.0,0.0,0.0,0.0,0.0,0.0,0.0,0.0005157794061016934,-0.004012062408744324,-0.003277863000335383,0.0,0.0,0.0,0.0,0.0,0.0,0.0,0.0,0.0,0.0006871537843558678,0.019061608274846365,9.808545803273415,0.0,0.0,0.0,0.0,0.0,0.0,0.0,0.0,0.0
2025/04/09 11:15:48.753152851,1744190148,752945946,mA1/imu,0.7075459011290531,0.7066669044917046,0.0007064256796090805,0.0004299469123582385,0.0,0.0,0.0,0.0,0.0,0.0,0.0,0.0,0.0,0.000540685040583019,-0.005023103334254402,-0.0031222913880797768,0.0,0.0,0.0,0.0,0.0,0.0,0.0,0.0,0.0,8.712551084545661e-05,-0.02061476412118636,9.807898464761095,0.0,0.0,0.0,0.0,0.0,0.0,0.0,0.0,0.0
2025/04/09 11:15:48.804461392,1744190148,804146352,mA1/imu,0.7074918464012153,0.7067210641321414,0.000599267301983574,0.0005154283978825097,0.0,0.0,0.0,0.0,0.0,0.0,0.0,0.0,0.0,0.0006013251134308376,-0.005692381127976979,-0.003048304123710457,0.0,0.0,0.0,0.0,0.0,0.0,0.0,0.0,0.0,-0.0011317561427354327,-0.01578786723814642,9.811270040684967,0.0,0.0,0.0,0.0,0.0,0.0,0.0,0.0,0.0
2025/04/09 11:15:48.855557926,1744190148,853850308,mA1/imu,0.7074394277467305,0.7067735480263092,0.00048458621511247667,0.0006107830064053591,0.0,0.0,0.0,0.0,0.0,0.0,0.0,0.0,0.0,0.00045285290957295066,-0.00604273385978735,-0.002909990434156057,0.0,0.0,0.0,0.0,0.0,0.0,0.0,0.0,0.0,-0.00349345311293705,0.013313070111534023,9.81091113594217,0.0,0.0,0.0,0.0,0.0,0.0,0.0,0.0,0.0
2025/04/09 11:15:48.905498651,1744190148,905238702,mA1/imu,0.7073896985063935,0.7068232971885912,0.0003696501952376803,0.0007101811143938767,0.0,0.0,0.0,0.0,0.0,0.0,0.0,0.0,0.0,0.00042072699136513447,-0.006021625010358117,-0.0027571303391480317,0.0,0.0,0.0,0.0,0.0,0.0,0.0,0.0,0.0,-0.004887612414286648,-0.018557396830817696,9.808533537870131,0.0,0.0,0.0,0.0,0.0,0.0,0.0,0.0,0.0
2025/04/09 11:15:48.955030676,1744190148,954824079,mA1/imu,0.7073426513701865,0.7068703253358589,0.0002591158844622198,0.0008059597571822455,0.0,0.0,0.0,0.0,0.0,0.0,0.0,0.0,0.0,0.0005092446505483631,-0.005665858364521186,-0.0026034662582509493,0.0,0.0,0.0,0.0,0.0,0.0,0.0,0.0,0.0,-0.005328071131144868,-0.07205369153563303,9.808186650091706,0.0,0.0,0.0,0.0,0.0,0.0,0.0,0.0,0.0
2025/04/09 11:15:49.6745627,1744190149,6384928,mA1/imu,0.7072967998328478,0.7069161276064646,0.00016106743697191897,0.0008941663010678014,0.0,0.0,0.0,0.0,0.0,0.0,0.0,0.0,0.0,4.186918871915203e-05,-0.004957782920876653,-0.00257114066345334,0.0,0.0,0.0,0.0,0.0,0.0,0.0,0.0,0.0,-0.00684368315434288,-0.015167845675065463,9.810934610349864,0.0,0.0,0.0,0.0,0.0,0.0,0.0,0.0,0.0
2025/04/09 11:15:49.46286958,1744190149,46064703,mA1/imu,0.7072525172488946,0.7069603470058986,7.833152455081029e-05,0.0009687469090542528,0.0,0.0,0.0,0.0,0.0,0.0,0.0,0.0,0.0,-0.00016073438033916004,-0.004074605525939418,-0.0024734812838279607,0.0,0.0,0.0,0.0,0.0,0.0,0.0,0.0,0.0,-0.005135502464166839,0.0807051929790435,9.810163598830874,0.0,0.0,0.0,0.0,0.0,0.0,0.0,0.0,0.0
2025/04/09 11:15:49.97375292,1744190149,97101032,mA1/imu,0.707209736758166,0.7070030618702057,1.935243885456124e-05,0.0010287692077340272,0.0,0.0,0.0,0.0,0.0,0.0,0.0,0.0,0.0,-0.0008477948881696538,-0.0027904634959720807,-0.0023799318866976832,0.0,0.0,0.0,0.0,0.0,0.0,0.0,0.0,0.0,-0.014039539397658134,0.5415852307899152,9.810303124696407,0.0,0.0,0.0,0.0,0.0,0.0,0.0,0.0,0.0
2025/04/09 11:15:49.147687067,1744190149,147488071,mA1/imu,0.7071687619534098,0.7070440028654355,-1.796516858253573e-05,0.001058209126936765,0.0,0.0,0.0,0.0,0.0,0.0,0.0,0.0,0.0,0.0003872628385622969,-0.001281444836354982,-0.002278281310607108,0.0,0.0,0.0,0.0,0.0,0.0,0.0,0.0,0.0,-0.013501516740911866,-0.5451037011962478,9.808800348871868,0.0,0.0,0.0,0.0,0.0,0.0,0.0,0.0,0.0
2025/04/09 11:15:49.199070927,1744190149,198833136,mA1/imu,0.7071295422035345,0.7070832188852626,-2.6700249469605508e-05,0.0010636733390598733,0.0,0.0,0.0,0.0,0.0,0.0,0.0,0.0,0.0,0.0005107648228069344,0.00018513961697367654,-0.002179477226751484,0.0,0.0,0.0,0.0,0.0,0.0,0.0,0.0,0.0,-0.012355553805974978,0.025258299778137105,9.80912167676043,0.0,0.0,0.0,0.0,0.0,0.0,0.0,0.0,0.0
2025/04/09 11:15:49.248621646,1744190149,248414979,mA1/imu,0.7070919318296212,0.707120851927614,-4.906034515821242e-06,0.0010491360973649412,0.0,0.0,0.0,0.0,0.0,0.0,0.0,0.0,0.0,-0.0009909312151664483,0.0015842785255703931,-0.0020911523070806046,0.0,0.0,0.0,0.0,0.0,0.0,0.0,0.0,0.0,-0.010940154769938157,0.5553764239731687,9.809943545606867,0.0,0.0,0.0,0.0,0.0,0.0,0.0,0.0,0.0
2025/04/09 11:15:49.299559206,1744190149,299421439,mA1/imu,0.707055539598192,0.7071572974854388,3.728153858958326e-05,0.0010095279525714432,0.0,0.0,0.0,0.0,0.0,0.0,0.0,0.0,0.0,0.00019180069994291526,0.00277370554538446,-0.002051187159194214,0.0,0.0,0.0,0.0,0.0,0.0,0.0,0.0,0.0,-0.006249126741940624,-0.4003680235031048,9.811986899998551,0.0,0.0,0.0,0.0,0.0,0.0,0.0,0.0,0.0
2025/04/09 11:15:49.349522060,1744190149,349335327,mA1/imu,0.7070199333492906,0.7071929736916654,9.725686766282737e-05,0.000949920525905108,0.0,0.0,0.0,0.0,0.0,0.0,0.0,0.0,0.0,0.000938598446165552,0.003755249053132546,-0.0019805528275321743,0.0,0.0,0.0,0.0,0.0,0.0,0.0,0.0,0.0,-0.007613891994724224,-0.2747761041146065,9.811770063686485,0.0,0.0,0.0,0.0,0.0,0.0,0.0,0.0,0.0
2025/04/09 11:15:49.400758200,1744190149,400534168,mA1/imu,0.7069856657874155,0.7072273056751085,0.00017821324148424025,0.0008801810564598064,0.0,0.0,0.0,0.0,0.0,0.0,0.0,0.0,0.0,-0.000621639323874191,0.0045247442111418686,-0.0019062803617653314,0.0,0.0,0.0,0.0,0.0,0.0,0.0,0.0,0.0,-0.004163549812195801,-0.036487052774919856,9.811295313644203,0.0,0.0,0.0,0.0,0.0,0.0,0.0,0.0,0.0
2025/04/09 11:15:49.450400581,1744190149,450226294,mA1/imu,0.7069527677816694,0.7072602630811378,0.00026410099344783026,0.0007966447779368094,0.0,0.0,0.0,0.0,0.0,0.0,0.0,0.0,0.0,-8.865422673075797e-05,0.004938400196098252,-0.0018262123908130811,0.0,0.0,0.0,0.0,0.0,0.0,0.0,0.0,0.0,-0.0037817458982599217,-0.1270839187618271,9.811571170430524,0.0,0.0,0.0,0.0,0.0,0.0,0.0,0.0,0.0
2025/04/09 11:15:49.501374576,1744190149,501201513,mA1/imu,0.7069212858959086,0.7072917825446634,0.0003547323232370051,0.0007099697504622145,0.0,0.0,0.0,0.0,0.0,0.0,0.0,0.0,0.0,0.0002395422931050583,0.005028000183360946,-0.0017468802921285808,0.0,0.0,0.0,0.0,0.0,0.0,0.0,0.0,0.0,-0.0012091611085730102,-0.32616086362407504,9.81121522892151,0.0,0.0,0.0,0.0,0.0,0.0,0.0,0.0,0.0
2025/04/09 11:15:49.551105121,1744190149,550994979,mA1/imu,0.7068910415837314,0.7073220409428562,0.00044352476530715857,0.000623707369147593,0.0,0.0,0.0,0.0,0.0,0.0,0.0,0.0,0.0,0.00012407013779827065,0.00484674689466437,-0.0016806983473651538,0.0,0.0,0.0,0.0,0.0,0.0,0.0,0.0,0.0,-0.0009053373687082423,-0.2554898884388514,9.811388275193663,0.0,0.0,0.0,0.0,0.0,0.0,0.0,0.0,0.0
2025/04/09 11:15:49.602251650,1744190149,602034459,mA1/imu,0.7068619955005288,0.707351086200055,0.0005199341409416187,0.0005383652120872721,0.0,0.0,0.0,0.0,0.0,0.0,0.0,0.0,0.0,0.0009649351744308235,0.004362259974310057,-0.001611489400326021,0.0,0.0,0.0,0.0,0.0,0.0,0.0,0.0,0.0,0.0015365083284668588,-0.2474212783043343,9.809793146759752,0.0,0.0,0.0,0.0,0.0,0.0,0.0,0.0,0.0
2025/04/09 11:15:49.652087295,1744190149,651908082,mA1/imu,0.7068341788640812,0.7073788827911223,0.0005858381625255139,0.0004653647719438335,0.0,0.0,0.0,0.0,0.0,0.0,0.0,0.0,0.0,0.0004782896122011642,0.0036173503472195514,-0.001542348831979931,0.0,0.0,0.0,0.0,0.0,0.0,0.0,0.0,0.0,0.0014221825521795154,0.021087943466462707,9.8105023936194,0.0,0.0,0.0,0.0,0.0,0.0,0.0,0.0,0.0
2025/04/09 11:15:49.703173283,1744190149,702854559,mA1/imu,0.7068076203800638,0.7074054124648059,0.0006360318462902191,0.00040700326743725406,0.0,0.0,0.0,0.0,0.0,0.0,0.0,0.0,0.0,0.0002946211282815072,0.0026832784951615757,-0.0014721902054469947,0.0,0.0,0.0,0.0,0.0,0.0,0.0,0.0,0.0,0.0027166496029900223,-0.08590129287352949,9.809773981633052,0.0,0.0,0.0,0.0,0.0,0.0,0.0,0.0,0.0
2025/04/09 11:15:49.754601132,1744190149,752771062,mA1/imu,0.7067822714903245,0.7074307358179207,0.0006650848097028357,0.0003638533888849643,0.0,0.0,0.0,0.0,0.0,0.0,0.0,0.0,0.0,0.0004940126723127271,0.0016138886207333314,-0.001404672179236765,0.0,0.0,0.0,0.0,0.0,0.0,0.0,0.0,0.0,0.0015181901044144953,-0.4001553432228259,9.809493916370986,0.0,0.0,0.0,0.0,0.0,0.0,0.0,0.0,0.0
2025/04/09 11:15:49.804651359,1744190149,803645434,mA1/imu,0.7067580580114244,0.7074549372748052,0.0006688650365977631,0.0003343366327935367,0.0,0.0,0.0,0.0,0.0,0.0,0.0,0.0,0.0,0.0014091347357909542,0.0004978157941152549,-0.0013476075619108412,0.0,0.0,0.0,0.0,0.0,0.0,0.0,0.0,0.0,0.0014357477569581865,-0.08596107075694903,9.809147851299834,0.0,0.0,0.0,0.0,0.0,0.0,0.0,0.0,0.0
2025/04/09 11:15:49.853661028,1744190149,853472861,mA1/imu,0.7067346653059138,0.7074783198772183,0.0006570163206176949,0.0003287677002096127,0.0,0.0,0.0,0.0,0.0,0.0,0.0,0.0,0.0,-0.00019528994649136209,-0.0005992921201224941,-0.0013094363494542847,0.0,0.0,0.0,0.0,0.0,0.0,0.0,0.0,0.0,-2.673873034563217e-05,0.5812792345466271,9.80843600451731,0.0,0.0,0.0,0.0,0.0,0.0,0.0,0.0,0.0
2025/04/09 11:15:49.904932328,1744190149,904504512,mA1/imu,0.7067119096603941,0.7075010720188468,0.0006263859794278088,0.0003427491005687417,0.0,0.0,0.0,0.0,0.0,0.0,0.0,0.0,0.0,0.00025789780573111826,-0.0016812366892789922,-0.0012743819811113467,0.0,0.0,0.0,0.0,0.0,0.0,0.0,0.0,0.0,0.000806542732683168,-0.14935441637159175,9.810846175024972,0.0,0.0,0.0,0.0,0.0,0.0,0.0,0.0,0.0
2025/04/09 11:15:49.954802231,1744190149,954541617,mA1/imu,0.7066898469771485,0.7075231419556547,0.0005726938283619757,0.00036850833370881837,0.0,0.0,0.0,0.0,0.0,0.0,0.0,0.0,0.0,0.0010609627243448377,-0.002602794608687885,-0.0012270567654036587,0.0,0.0,0.0,0.0,0.0,0.0,0.0,0.0,0.0,-0.00020717345940785697,-0.5871054518202025,9.80888294045378,0.0,0.0,0.0,0.0,0.0,0.0,0.0,0.0,0.0
2025/04/09 11:15:50.6801469,1744190150,6677516,mA1/imu,0.7066725343300992,0.7075404653942298,0.000507632716326362,0.00040169916174122154,0.0,0.0,0.0,0.0,0.0,0.0,0.0,0.0,0.0,0.0007364936329816596,-0.0028616751140870867,-0.0008126804732328164,0.0,0.0,0.0,0.0,0.0,0.0,0.0,0.0,0.0,-0.019555305355847027,0.008877987401771441,9.812356788446863,0.0,0.0,0.0,0.0,0.0,0.0,0.0,0.0,0.0
2025/04/09 11:15:50.46008669,1744190150,45858345,mA1/imu,0.7066618487866678,0.7075511556928876,0.00044351394560194867,0.00044366929982182286,0.0,0.0,0.0,0.0,0.0,0.0,0.0,0.0,0.0,-0.00018092436943628352,-0.0031851665106657832,-0.000543309334479696,0.0,0.0,0.0,0.0,0.0,0.0,0.0,0.0,0.0,-4.696083665385406e-05,0.4171819290803714,9.810435926679888,0.0,0.0,0.0,0.0,0.0,0.0,0.0,0.0,0.0
2025/04/09 11:15:50.97771872,1744190150,97553047,mA1/imu,0.7066527149556969,0.7075602935521456,0.00036503864867460474,0.00048803783581049154,0.0,0.0,0.0,0.0,0.0,0.0,0.0,0.0,0.0,0.0013817397362906056,-0.003632068607798889,-0.0005006649025429088,0.0,0.0,0.0,0.0,0.0,0.0,0.0,0.0,0.0,-0.0026840961874133222,-0.5665038892958442,9.808650575282826,0.0,0.0,0.0,0.0,0.0,0.0,0.0,0.0,0.0
2025/04/09 11:15:50.146820982,1744190150,146684051,mA1/imu,0.7066443442110288,0.707568655577921,0.0002808572210999887,0.0005381054168266579,0.0,0.0,0.0,0.0,0.0,0.0,0.0,0.0,0.0,0.0015251841317515365,-0.0038842367338492493,-0.00045966894467154194,0.0,0.0,0.0,0.0,0.0,0.0,0.0,0.0,0.0,-0.0025809779307865745,-0.05819304763314083,9.809272691680091,0.0,0.0,0.0,0.0,0.0,0.0,0.0,0.0,0.0
2025/04/09 11:15:50.197886539,1744190150,197677828,mA1/imu,0.7066383795962102,0.7075745981692748,0.00020038022007284138,0.000590216061356868,0.0,0.0,0.0,0.0,0.0,0.0,0.0,0.0,0.0,0.0011282926316418522,-0.0035316750537171906,-0.00018540061273367885,0.0,0.0,0.0,0.0,0.0,0.0,0.0,0.0,0.0,-0.02249343973749803,-0.11323841939218746,9.812278937573096,0.0,0.0,0.0,0.0,0.0,0.0,0.0,0.0,0.0
2025/04/09 11:15:50.247921594,1744190150,247700335,mA1/imu,0.7066393488203186,0.7075736159370534,0.00012668578210350118,0.0006266412626102851,0.0,0.0,0.0,0.0,0.0,0.0,0.0,0.0,0.0,0.00047874308910008176,-0.0028401476046396837,0.0002131441738591395,0.0,0.0,0.0,0.0,0.0,0.0,0.0,0.0,0.0,-0.01820612900346571,0.08535371872737572,9.808402395532374,0.0,0.0,0.0,0.0,0.0,0.0,0.0,0.0,0.0
2025/04/09 11:15:50.299333834,1744190150,299089425,mA1/imu,0.7066459482374463,0.707567012055829,6.485470119055233e-05,0.000650448963888189,0.0,0.0,0.0,0.0,0.0,0.0,0.0,0.0,0.0,0.00025724319789914606,-0.002235006408535798,0.0004022542102279481,0.0,0.0,0.0,0.0,0.0,0.0,0.0,0.0,0.0,-0.0046480985597687745,0.6186397586202215,9.810526639706708,0.0,0.0,0.0,0.0,0.0,0.0,0.0,0.0,0.0
2025/04/09 11:15:50.348667998,1744190150,348458697,mA1/imu,0.7066533042415584,0.7075596485809628,1.6735021366380597e-05,0.0006715835102002049,0.0,0.0,0.0,0.0,0.0,0.0,0.0,0.0,0.0,0.000265541277368596,-0.001738120088730329,0.0004222213128451474,0.0,0.0,0.0,0.0,0.0,0.0,0.0,0.0,0.0,-0.00544475339287967,0.6222933519040217,9.8107552670278,0.0,0.0,0.0,0.0,0.0,0.0,0.0,0.0,0.0
2025/04/09 11:15:50.399786082,1744190150,399420836,mA1/imu,0.7066611960551457,0.7075517574381495,-2.3578107741610295e-05,0.0006811608985632966,0.0,0.0,0.0,0.0,0.0,0.0,0.0,0.0,0.0,-0.00010185677343993648,-0.0011613683606261189,0.00045392794590577956,0.0,0.0,0.0,0.0,0.0,0.0,0.0,0.0,0.0,-0.004839078655890191,0.6009517150344967,9.809436192654633,0.0,0.0,0.0,0.0,0.0,0.0,0.0,0.0,0.0
2025/04/09 11:15:50.450163044,1744190150,449908788,mA1/imu,0.706669269477767,0.7075436958104778,-5.409961708565601e-05,0.0006776192445213333,0.0,0.0,0.0,0.0,0.0,0.0,0.0,0.0,0.0,-0.0005486323411703182,-0.0004487259580730479,0.0004558569518650533,0.0,0.0,0.0,0.0,0.0,0.0,0.0,0.0,0.0,-0.007548443979972581,0.5753360091164267,9.80957626031263,0.0,0.0,0.0,0.0,0.0,0.0,0.0,0.0,0.0
2025/04/09 11:15:50.501460558,1744190150,501252243,mA1/imu,0.7066774248061456,0.7075355614763305,-6.999028364984886e-05,0.0006645427663615837,0.0,0.0,0.0,0.0,0.0,0.0,0.0,0.0,0.0,0.0009925582034791386,0.0001919103659182694,0.0004669122242149179,0.0,0.0,0.0,0.0,0.0,0.0,0.0,0.0,0.0,-0.0055095027956196755,0.05685193160963611,9.812951116698773,0.0,0.0,0.0,0.0,0.0,0.0,0.0,0.0,0.0
2025/04/09 11:15:50.552800091,1744190150,550869645,mA1/imu,0.7066859046986355,0.7075271146760449,-7.509546950516122e-05,0.0006391080756399797,0.0,0.0,0.0,0.0,0.0,0.0,0.0,0.0,0.0,0.0027101469821783552,0.0008025558243993181,0.00048064743295148815,0.0,0.0,0.0,0.0,0.0,0.0,0.0,0.0,0.0,-0.0039300831853605785,-0.44946612756410453,9.810568000223642,0.0,0.0,0.0,0.0,0.0,0.0,0.0,0.0,0.0
2025/04/09 11:15:50.602738622,1744190150,602456203,mA1/imu,0.706694315854677,0.7075187425672761,-6.375453037182031e-05,0.0006072808825677418,0.0,0.0,0.0,0.0,0.0,0.0,0.0,0.0,0.0,0.001286064629643673,0.0014401948902574315,0.0004714928624750576,0.0,0.0,0.0,0.0,0.0,0.0,0.0,0.0,0.0,-0.0035628823236790886,0.09497992547759343,9.809132275687505,0.0,0.0,0.0,0.0,0.0,0.0,0.0,0.0,0.0
2025/04/09 11:15:50.652498762,1744190150,652208440,mA1/imu,0.706702503574725,0.7075105965920817,-3.90907604896401e-05,0.0005706338974242635,0.0,0.0,0.0,0.0,0.0,0.0,0.0,0.0,0.0,2.5724340222955704e-05,0.001931891183921833,0.0004567959321808241,0.0,0.0,0.0,0.0,0.0,0.0,0.0,0.0,0.0,-0.004049059595398422,0.017528055068183397,9.809205944637908,0.0,0.0,0.0,0.0,0.0,0.0,0.0,0.0,0.0
2025/04/09 11:15:50.703876814,1744190150,703578897,mA1/imu,0.7067099569885007,0.7075031886305242,-1.2746544825297022e-05,0.000524030989432912,0.0,0.0,0.0,0.0,0.0,0.0,0.0,0.0,0.0,0.0005869526287554726,0.00212506060399874,0.00038790932019715403,0.0,0.0,0.0,0.0,0.0,0.0,0.0,0.0,0.0,0.0029876677322699463,0.06355866012170551,9.811908830394298,0.0,0.0,0.0,0.0,0.0,0.0,0.0,0.0,0.0
2025/04/09 11:15:50.753363650,1744190150,753090529,mA1/imu,0.7067163584653723,0.7074968260526427,2.0115055020949703e-05,0.00047895538915767243,0.0,0.0,0.0,0.0,0.0,0.0,0.0,0.0,0.0,0.0011034395194347416,0.0022420300307437594,0.000348739036947882,0.0,0.0,0.0,0.0,0.0,0.0,0.0,0.0,0.0,0.0005577322908617011,-0.37905239772533433,9.81126182071037,0.0,0.0,0.0,0.0,0.0,0.0,0.0,0.0,0.0
2025/04/09 11:15:50.804597671,1744190150,804450783,mA1/imu,0.7067219063371921,0.7074913102139656,5.678181811667748e-05,0.0004357185748084713,0.0,0.0,0.0,0.0,0.0,0.0,0.0,0.0,0.0,3.219316165848261e-05,0.002242814952496078,0.00028987629076570264,0.0,0.0,0.0,0.0,0.0,0.0,0.0,0.0,0.0,0.0018817679562053214,0.332599907957258,9.809577687014752,0.0,0.0,0.0,0.0,0.0,0.0,0.0,0.0,0.0
2025/04/09 11:15:50.854703633,1744190150,854433866,mA1/imu,0.7067293098606007,0.7074839371225409,9.17845771113944e-05,0.0003909899476249841,0.0,0.0,0.0,0.0,0.0,0.0,0.0,0.0,0.0,0.0020935072603413545,0.0022788407775093714,0.000546096933420429,0.0,0.0,0.0,0.0,0.0,0.0,0.0,0.0,0.0,-0.0056920479131931535,-0.08256856112389546,9.811376562055983,0.0,0.0,0.0,0.0,0.0,0.0,0.0,0.0,0.0
2025/04/09 11:15:50.905877460,1744190150,905599047,mA1/imu,0.7067427755417648,0.7074704946098059,0.00014216726980123236,0.0003581404009104381,0.0,0.0,0.0,0.0,0.0,0.0,0.0,0.0,0.0,0.0005844664970223837,0.002284224108116976,0.0009114812545397005,0.0,0.0,0.0,0.0,0.0,0.0,0.0,0.0,0.0,-0.005217322130548027,-0.5289263253031459,9.805932714286145,0.0,0.0,0.0,0.0,0.0,0.0,0.0,0.0,0.0
2025/04/09 11:15:50.955891402,1744190150,955538458,mA1/imu,0.706760099769405,0.7074531989769736,0.00017182192755845908,0.0003211049865235585,0.0,0.0,0.0,0.0,0.0,0.0,0.0,0.0,0.0,2.54458084757927e-05,0.001532883666685822,0.0009637846830782835,0.0,0.0,0.0,0.0,0.0,0.0,0.0,0.0,0.0,0.016597308650319678,0.07215044608199951,9.8113278343625,0.0,0.0,0.0,0.0,0.0,0.0,0.0,0.0,0.0
2025/04/09 11:15:50.998381975,1744190150,996426334,mA1/imu,0.7067766905565318,0.7074366185375521,0.0002008980140435325,0.0003163512260352879,0.0,0.0,0.0,0.0,0.0,0.0,0.0,0.0,0.0,0.0005738305197040343,0.0005553929530923889,0.0009215918937374752,0.0,0.0,0.0,0.0,0.0,0.0,0.0,0.0,0.0,0.016495474750905622,-0.5160491321384999,9.809616335205103,0.0,0.0,0.0,0.0,0.0,0.0,0.0,0.0,0.0
2025/04/09 11:15:51.47269576,1744190151,46279955,mA1/imu,0.7067925126775361,0.7074208099658792,0.00020200367846464988,0.0003175605581146545,0.0,0.0,0.0,0.0,0.0,0.0,0.0,0.0,0.0,-0.0008022866821858673,-0.00037839992446152536,0.000876597472621666,0.0,0.0,0.0,0.0,0.0,0.0,0.0,0.0,0.0,0.016070490048166824,-0.39347072135315536,9.809743689393434,0.0,0.0,0.0,0.0,0.0,0.0,0.0,0.0,0.0
2025/04/09 11:15:51.99056297,1744190151,98168857,mA1/imu,0.7068076114296531,0.7074057208508018,0.00018724306651182314,0.00033387527597346676,0.0,0.0,0.0,0.0,0.0,0.0,0.0,0.0,0.0,0.0008603864913869768,-0.001172702513450619,0.0008408362154032577,0.0,0.0,0.0,0.0,0.0,0.0,0.0,0.0,0.0,0.012824300596725367,-0.4920964110318646,9.809587684395138,0.0,0.0,0.0,0.0,0.0,0.0,0.0,0.0,0.0
2025/04/09 11:15:51.151140161,1744190151,150945837,mA1/imu,0.7068219917557108,0.707391342558996,0.00016124920698428906,0.0003666630120025351,0.0,0.0,0.0,0.0,0.0,0.0,0.0,0.0,0.0,-3.0057358521133643e-05,-0.001992778506996744,0.0007936003293075514,0.0,0.0,0.0,0.0,0.0,0.0,0.0,0.0,0.0,0.015699172186375836,0.23502324914374623,9.810815625203837,0.0,0.0,0.0,0.0,0.0,0.0,0.0,0.0,0.0
2025/04/09 11:15:51.202493045,1744190151,202027460,mA1/imu,0.706835549733517,0.7073777771341541,0.0001228511346053342,0.00041346977959586743,0.0,0.0,0.0,0.0,0.0,0.0,0.0,0.0,0.0,-0.000726441840501082,-0.0026618307781709877,0.0007482688540058173,0.0,0.0,0.0,0.0,0.0,0.0,0.0,0.0,0.0,0.013689927164228979,0.6553858746577533,9.810702750011245,0.0,0.0,0.0,0.0,0.0,0.0,0.0,0.0,0.0
2025/04/09 11:15:51.252905660,1744190151,252645614,mA1/imu,0.7068483174093101,0.7073649895301519,7.505261738041316e-05,0.00047130641831966374,0.0,0.0,0.0,0.0,0.0,0.0,0.0,0.0,0.0,0.0008771756335128491,-0.0031897441156210557,0.0007042784983229982,0.0,0.0,0.0,0.0,0.0,0.0,0.0,0.0,0.0,0.013088877961730753,-0.43436328928336915,9.808425500941762,0.0,0.0,0.0,0.0,0.0,0.0,0.0,0.0,0.0
2025/04/09 11:15:51.304219454,1744190151,303820734,mA1/imu,0.7068602863637804,0.7073529888675973,1.753320385330931e-05,0.000533286393753512,0.0,0.0,0.0,0.0,0.0,0.0,0.0,0.0,0.0,-0.0016482959671510595,-0.0034874302770199466,0.0006584617829150111,0.0,0.0,0.0,0.0,0.0,0.0,0.0,0.0,0.0,0.012248078806094444,0.5822137588114032,9.809620499667988,0.0,0.0,0.0,0.0,0.0,0.0,0.0,0.0,0.0
2025/04/09 11:15:51.354648777,1744190151,354223772,mA1/imu,0.7068714629984251,0.707341773544494,-5.288031297883051e-05,0.0005894073875483468,0.0,0.0,0.0,0.0,0.0,0.0,0.0,0.0,0.0,-0.0002417465156731709,-0.003589701453220668,0.0006140160316785669,0.0,0.0,0.0,0.0,0.0,0.0,0.0,0.0,0.0,0.01097374044953428,0.6740520643213896,9.810315457292328,0.0,0.0,0.0,0.0,0.0,0.0,0.0,0.0,0.0
2025/04/09 11:15:51.405678116,1744190151,405320618,mA1/imu,0.7068818362123171,0.7073313364328271,-0.00010487421023360551,0.0006626723576597258,0.0,0.0,0.0,0.0,0.0,0.0,0.0,0.0,0.0,0.0003463542604238436,-0.0034920673542247747,0.0005701303298747964,0.0,0.0,0.0,0.0,0.0,0.0,0.0,0.0,0.0,0.010239940117881754,-0.5496362982884841,9.809050232965088,0.0,0.0,0.0,0.0,0.0,0.0,0.0,0.0,0.0
2025/04/09 11:15:51.455311643,1744190151,455025504,mA1/imu,0.706891459456676,0.7073216587684529,-0.00017374621538400432,0.000710912447111023,0.0,0.0,0.0,0.0,0.0,0.0,0.0,0.0,0.0,-8.039676506022978e-05,-0.003164089686555343,0.0005271011046869518,0.0,0.0,0.0,0.0,0.0,0.0,0.0,0.0,0.0,0.00976961602246654,0.045462800339939324,9.810742767654679,0.0,0.0,0.0,0.0,0.0,0.0,0.0,0.0,0.0
2025/04/09 11:15:51.497083010,1744190151,496733415,mA1/imu,0.7068987627610728,0.707314296483535,-0.00022872533390426138,0.00075688941590347,0.0,0.0,0.0,0.0,0.0,0.0,0.0,0.0,0.0,0.0005823008908675621,-0.002614055890572964,0.0003549037154792999,0.0,0.0,0.0,0.0,0.0,0.0,0.0,0.0,0.0,0.006944338979801278,0.08560293732057239,9.810137374849345,0.0,0.0,0.0,0.0,0.0,0.0,0.0,0.0,0.0
2025/04/09 11:15:51.546919706,1744190151,546639438,mA1/imu,0.7069043217357067,0.707308686920518,-0.0002704136197310522,0.0007925872994846571,0.0,0.0,0.0,0.0,0.0,0.0,0.0,0.0,0.0,-0.0006602585246348213,-0.0018880185024741996,0.0002885758833293084,0.0,0.0,0.0,0.0,0.0,0.0,0.0,0.0,0.0,0.00678203418415641,-0.005946052798646911,9.811110323504849,0.0,0.0,0.0,0.0,0.0,0.0,0.0,0.0,0.0
2025/04/09 11:15:51.597812892,1744190151,597654375,mA1/imu,0.7069087209105502,0.7073042577028461,-0.0003031233650756944,0.0008096000625673545,0.0,0.0,0.0,0.0,0.0,0.0,0.0,0.0,0.0,-0.0007337750759164138,-0.0010673171086933437,0.00022239713406452873,0.0,0.0,0.0,0.0,0.0,0.0,0.0,0.0,0.0,0.00728301007541933,-0.01852818491384746,9.81066071108725,0.0,0.0,0.0,0.0,0.0,0.0,0.0,0.0,0.0
2025/04/09 11:15:51.647701075,1744190151,647509763,mA1/imu,0.706911976466685,0.7073009991804295,-0.00032847870060259275,0.0008038582425896992,0.0,0.0,0.0,0.0,0.0,0.0,0.0,0.0,0.0,0.000762323463642397,-0.00019752646642269198,0.00015725699209449186,0.0,0.0,0.0,0.0,0.0,0.0,0.0,0.0,0.0,0.006502385242489762,0.08140064764783081,9.808886457384133,0.0,0.0,0.0,0.0,0.0,0.0,0.0,0.0,0.0
2025/04/09 11:15:51.698733561,1744190151,698576591,mA1/imu,0.7069156324711517,0.7072973622618609,-0.00032842672784824277,0.000788695891986444,0.0,0.0,0.0,0.0,0.0,0.0,0.0,0.0,0.0,-0.0005012379042225638,0.0008878101629081497,0.0002798551103478992,0.0,0.0,0.0,0.0,0.0,0.0,0.0,0.0,0.0,0.004890321483161398,0.6227759291984825,9.81206166790186,0.0,0.0,0.0,0.0,0.0,0.0,0.0,0.0,0.0
2025/04/09 11:15:51.748694825,1744190151,748313143,mA1/imu,0.7069204611863664,0.7072925821869339,-0.0003176064293267737,0.0007509098151508974,0.0,0.0,0.0,0.0,0.0,0.0,0.0,0.0,0.0,-0.00045779873075663834,0.0016893923234903498,0.0002559181877505882,0.0,0.0,0.0,0.0,0.0,0.0,0.0,0.0,0.0,0.0082513243328616,0.4981931148941288,9.80963164056371,0.0,0.0,0.0,0.0,0.0,0.0,0.0,0.0,0.0
2025/04/09 11:15:51.799642825,1744190151,799336530,mA1/imu,0.7069245935223073,0.7072885115583338,-0.00029129522008978235,0.0007040156333118771,0.0,0.0,0.0,0.0,0.0,0.0,0.0,0.0,0.0,0.0011326031726141541,0.00231375381830342,0.00021645751466094166,0.0,0.0,0.0,0.0,0.0,0.0,0.0,0.0,0.0,0.009825996920725898,-0.45978332312141706,9.809830026311513,0.0,0.0,0.0,0.0,0.0,0.0,0.0,0.0,0.0
2025/04/09 11:15:51.849382065,1744190151,849161384,mA1/imu,0.7069280270693102,0.707285147332317,-0.00025437947988600013,0.0006482268703853194,0.0,0.0,0.0,0.0,0.0,0.0,0.0,0.0,0.0,1.4428111065547147e-05,0.0028185382399425886,0.000176732988743101,0.0,0.0,0.0,0.0,0.0,0.0,0.0,0.0,0.0,0.009974282900901814,0.4128705609092586,9.810837715605999,0.0,0.0,0.0,0.0,0.0,0.0,0.0,0.0,0.0
2025/04/09 11:15:51.900398981,1744190151,900209959,mA1/imu,0.7069307403097677,0.7072825028910029,-0.000206817601327601,0.0005888427652699281,0.0,0.0,0.0,0.0,0.0,0.0,0.0,0.0,0.0,-7.41153050610168e-05,0.0031385213724303062,0.0001359205184304891,0.0,0.0,0.0,0.0,0.0,0.0,0.0,0.0,0.0,0.011543686936745212,-0.12439114881990868,9.81114959554266,0.0,0.0,0.0,0.0,0.0,0.0,0.0,0.0,0.0
2025/04/09 11:15:51.950246307,1744190151,950022024,mA1/imu,0.7069327391869371,0.70728057142954,-0.00016239327382673924,0.0005188182552638927,0.0,0.0,0.0,0.0,0.0,0.0,0.0,0.0,0.0,0.00031453815517162956,0.0032946559633986582,9.550364628220391e-05,0.0,0.0,0.0,0.0,0.0,0.0,0.0,0.0,0.0,0.010785474018133588,0.06400910405722322,9.80890010388658,0.0,0.0,0.0,0.0,0.0,0.0,0.0,0.0,0.0
2025/04/09 11:15:52.1371105,1744190152,1158128,mA1/imu,0.7069345630375141,0.7072788025823774,-0.0001116506535933624,0.00045446092104940445,0.0,0.0,0.0,0.0,0.0,0.0,0.0,0.0,0.0,0.00029426123754228877,0.003197183130142653,0.0001252222572084777,0.0,0.0,0.0,0.0,0.0,0.0,0.0,0.0,0.0,0.014117593180760123,0.3509707025822721,9.80936429556656,0.0,0.0,0.0,0.0,0.0,0.0,0.0,0.0,0.0
2025/04/09 11:15:52.51122133,1744190152,50942341,mA1/imu,0.7069368133571574,0.7072765948439629,-6.293865111288061e-05,0.00039540496026972666,0.0,0.0,0.0,0.0,0.0,0.0,0.0,0.0,0.0,0.0017251525641459472,0.002919529518816948,0.0001221322558752413,0.0,0.0,0.0,0.0,0.0,0.0,0.0,0.0,0.0,0.013737338953682928,-0.4459508084991176,9.809971264254422,0.0,0.0,0.0,0.0,0.0,0.0,0.0,0.0,0.0
2025/04/09 11:15:52.102210426,1744190152,101955891,mA1/imu,0.7069402782899171,0.7072731598061012,-1.3414318302970357e-05,0.0003466544731754583,0.0,0.0,0.0,0.0,0.0,0.0,0.0,0.0,0.0,0.0010974972063583527,0.0026850174902393596,0.0002825855804543538,0.0,0.0,0.0,0.0,0.0,0.0,0.0,0.0,0.0,0.013107035203117835,-0.4935906362598781,9.808881759861501,0.0,0.0,0.0,0.0,0.0,0.0,0.0,0.0,0.0
2025/04/09 11:15:52.152095876,1744190152,151873881,mA1/imu,0.7069457258245468,0.7072677334103924,2.7346610371831913e-05,0.0003053966169289613,0.0,0.0,0.0,0.0,0.0,0.0,0.0,0.0,0.0,-7.203214870560719e-05,0.0020383272121309447,0.00031566423906945705,0.0,0.0,0.0,0.0,0.0,0.0,0.0,0.0,0.0,0.016876932047266466,-0.17878421584176757,9.810511360895227,0.0,0.0,0.0,0.0,0.0,0.0,0.0,0.0,0.0
2025/04/09 11:15:52.204253595,1744190152,204011932,mA1/imu,0.7069506961757713,0.707262775005726,5.7065533755472136e-05,0.0002775091296905129,0.0,0.0,0.0,0.0,0.0,0.0,0.0,0.0,0.0,-0.001051251126900039,0.0013645821902724489,0.0002347826833680848,0.0,0.0,0.0,0.0,0.0,0.0,0.0,0.0,0.0,0.01608695415534647,0.0487546197238345,9.810801816098373,0.0,0.0,0.0,0.0,0.0,0.0,0.0,0.0,0.0
2025/04/09 11:15:52.253512410,1744190152,253292596,mA1/imu,0.7069544866326597,0.7072589899171128,7.439605016322992e-05,0.0002635841528370426,0.0,0.0,0.0,0.0,0.0,0.0,0.0,0.0,0.0,-0.001312367152788505,0.0005746089222465691,0.00020779423734848746,0.0,0.0,0.0,0.0,0.0,0.0,0.0,0.0,0.0,0.015355652959595492,0.6034959337607237,9.80944319135829,0.0,0.0,0.0,0.0,0.0,0.0,0.0,0.0,0.0
2025/04/09 11:15:52.305193151,1744190152,304423628,mA1/imu,0.7069572460263766,0.707256229667936,7.900495041487621e-05,0.00026766567733454473,0.0,0.0,0.0,0.0,0.0,0.0,0.0,0.0,0.0,-0.0009656754545801027,-0.0003335908327324485,0.0001296718744682305,0.0,0.0,0.0,0.0,0.0,0.0,0.0,0.0,0.0,0.015487601318069819,-0.07280919600119297,9.810005491200105,0.0,0.0,0.0,0.0,0.0,0.0,0.0,0.0,0.0
2025/04/09 11:15:52.354818661,1744190152,354624265,mA1/imu,0.7069593616983169,0.7072541089525907,6.820097568516351e-05,0.0002857016141741546,0.0,0.0,0.0,0.0,0.0,0.0,0.0,0.0,0.0,-0.0013968315480654035,-0.0011138296415125432,0.00011305436675723544,0.0,0.0,0.0,0.0,0.0,0.0,0.0,0.0,0.0,0.01478329926985649,0.6283364691543195,9.811354059678408,0.0,0.0,0.0,0.0,0.0,0.0,0.0,0.0,0.0
2025/04/09 11:15:52.406393065,1744190152,406134543,mA1/imu,0.7069611841727624,0.7072522727330741,5.066188342137533e-05,0.0003228317215005569,0.0,0.0,0.0,0.0,0.0,0.0,0.0,0.0,0.0,-0.0024645646195494823,-0.0018103731976075847,9.6388783437593e-05,0.0,0.0,0.0,0.0,0.0,0.0,0.0,0.0,0.0,0.014626240042282319,0.5541124152708053,9.811293367461765,0.0,0.0,0.0,0.0,0.0,0.0,0.0,0.0,0.0
2025/04/09 11:15:52.446270500,1744190152,446050022,mA1/imu,0.7069627144547131,0.7072507287245946,7.367633914124222e-06,0.0003564197968890379,0.0,0.0,0.0,0.0,0.0,0.0,0.0,0.0,0.0,0.0002591761295894783,-0.0023849938406315615,7.987305437055213e-05,0.0,0.0,0.0,0.0,0.0,0.0,0.0,0.0,0.0,0.013077784060652133,0.11513492428528127,9.809216687102673,0.0,0.0,0.0,0.0,0.0,0.0,0.0,0.0,0.0
2025/04/09 11:15:52.498081256,1744190152,497078764,mA1/imu,0.7069639771481425,0.707249431925206,-2.3905180006938726e-05,0.00041890917461781584,0.0,0.0,0.0,0.0,0.0,0.0,0.0,0.0,0.0,3.364628239798145e-05,-0.0028229115519454017,6.66063265998091e-05,0.0,0.0,0.0,0.0,0.0,0.0,0.0,0.0,0.0,0.012305091018575388,-0.3228226505232439,9.809329245714789,0.0,0.0,0.0,0.0,0.0,0.0,0.0,0.0,0.0
2025/04/09 11:15:52.547189270,1744190152,546987507,mA1/imu,0.7069650142898724,0.7072483574972258,-7.544528524640673e-05,0.00047296469823233505,0.0,0.0,0.0,0.0,0.0,0.0,0.0,0.0,0.0,-0.000842280817316996,-0.003064069195122098,5.399575082230951e-05,0.0,0.0,0.0,0.0,0.0,0.0,0.0,0.0,0.0,0.011641637647097865,0.039438009932134636,9.808640460305773,0.0,0.0,0.0,0.0,0.0,0.0,0.0,0.0,0.0
2025/04/09 11:15:52.598687378,1744190152,598474128,mA1/imu,0.7069658403174249,0.7072474808300437,-0.0001238084614396353,0.0005349348549057089,0.0,0.0,0.0,0.0,0.0,0.0,0.0,0.0,0.0,0.0005837666348429377,-0.0031229631913157834,4.353187217076478e-05,0.0,0.0,0.0,0.0,0.0,0.0,0.0,0.0,0.0,0.0100839558402786,0.13527645573754474,9.808939776327719,0.0,0.0,0.0,0.0,0.0,0.0,0.0,0.0,0.0
2025/04/09 11:15:52.648300144,1744190152,648111474,mA1/imu,0.7069664994467836,0.7072467651707609,-0.0001733760582200438,0.0005930903792862944,0.0,0.0,0.0,0.0,0.0,0.0,0.0,0.0,0.0,0.0007459122844635983,-0.0029876308895938836,3.446464072493943e-05,0.0,0.0,0.0,0.0,0.0,0.0,0.0,0.0,0.0,0.010245357125139874,-0.49010625205903363,9.809966153647625,0.0,0.0,0.0,0.0,0.0,0.0,0.0,0.0,0.0
2025/04/09 11:15:52.699556125,1744190152,699318643,mA1/imu,0.7069669757288237,0.7072462291065853,-0.0002181671555802781,0.0006473379707518787,0.0,0.0,0.0,0.0,0.0,0.0,0.0,0.0,0.0,0.00021070628841555507,-0.0026667638800231858,2.3749230194941826e-05,0.0,0.0,0.0,0.0,0.0,0.0,0.0,0.0,0.0,0.009219387189515808,-0.20891354260445655,9.809081114933914,0.0,0.0,0.0,0.0,0.0,0.0,0.0,0.0,0.0
2025/04/09 11:15:52.749273607,1744190152,749030685,mA1/imu,0.7069672728872405,0.7072458782305511,-0.00026133825513107616,0.0006888356776343846,0.0,0.0,0.0,0.0,0.0,0.0,0.0,0.0,0.0,-2.097667403127882e-05,-0.002188705193305899,1.3429106772297732e-05,0.0,0.0,0.0,0.0,0.0,0.0,0.0,0.0,0.0,0.008872354053021728,0.2130463474366354,9.809987853240727,0.0,0.0,0.0,0.0,0.0,0.0,0.0,0.0,0.0
2025/04/09 11:15:52.800453543,1744190152,800230772,mA1/imu,0.7069674709901074,0.7072456332312931,-0.00029097814494472317,0.0007242712462766041,0.0,0.0,0.0,0.0,0.0,0.0,0.0,0.0,0.0,-0.0004348801114862321,-0.0015957144997418556,1.1198469368674417e-05,0.0,0.0,0.0,0.0,0.0,0.0,0.0,0.0,0.0,0.008182535490809502,0.2751950868137368,9.809454756990972,0.0,0.0,0.0,0.0,0.0,0.0,0.0,0.0,0.0
2025/04/09 11:15:52.851179537,1744190152,850985198,mA1/imu,0.7069676436901271,0.7072454330062633,-0.00031761904010590915,0.0007398548221477814,0.0,0.0,0.0,0.0,0.0,0.0,0.0,0.0,0.0,0.0010907616331435573,-0.0009193330141779143,9.177752866204944e-06,0.0,0.0,0.0,0.0,0.0,0.0,0.0,0.0,0.0,0.008272478483886472,0.14030866110225823,9.80920356677217,0.0,0.0,0.0,0.0,0.0,0.0,0.0,0.0,0.0
2025/04/09 11:15:52.903506665,1744190152,903272171,mA1/imu,0.7069677762319712,0.7072452891269752,-0.00032420587024499156,0.0007478421468731226,0.0,0.0,0.0,0.0,0.0,0.0,0.0,0.0,0.0,0.0005269932272325299,-4.5719277068443655e-05,8.219062995848757e-06,0.0,0.0,0.0,0.0,0.0,0.0,0.0,0.0,0.0,0.005238472759940048,0.23653252079994352,9.809839466761481,0.0,0.0,0.0,0.0,0.0,0.0,0.0,0.0,0.0
2025/04/09 11:15:52.953675262,1744190152,953336843,mA1/imu,0.7069678682547201,0.7072452072606232,-0.0003154484948575467,0.0007419935995003731,0.0,0.0,0.0,0.0,0.0,0.0,0.0,0.0,0.0,-0.0011511501023270033,0.0007058289408413196,2.486611400787137e-06,0.0,0.0,0.0,0.0,0.0,0.0,0.0,0.0,0.0,0.008624979349127888,0.6097937163907686,9.810894678825992,0.0,0.0,0.0,0.0,0.0,0.0,0.0,0.0,0.0
