time,header_stamp_secs,header_stamp_nsecs,header_frame_id,child_frame_id,pose_pose_position_x,pose_pose_position_y,pose_pose_position_z,pose_pose_orientation_x,pose_pose_orientation_y,pose_pose_orientation_z,pose_pose_orientation_w,pose_covariance_0,pose_covariance_1,pose_covariance_2,pose_covariance_3,pose_covariance_4,pose_covariance_5,pose_covariance_6,pose_covariance_7,pose_covariance_8,pose_covariance_9,pose_covariance_10,pose_covariance_11,pose_covariance_12,pose_covariance_13,pose_covariance_14,pose_covariance_15,pose_covariance_16,pose_covariance_17,pose_covariance_18,pose_covariance_19,pose_covariance_20,pose_covariance_21,pose_covariance_22,pose_covariance_23,pose_covariance_24,pose_covariance_25,pose_covariance_26,pose_covariance_27,pose_covariance_28,pose_covariance_29,pose_covariance_30,pose_covariance_31,pose_covariance_32,pose_covariance_33,pose_covariance_34,pose_covariance_35,twist_twist_linear_x,twist_twist_linear_y,twist_twist_linear_z,twist_twist_angular_x,twist_twist_angular_y,twist_twist_angular_z,twist_covariance_0,twist_covariance_1,twist_covariance_2,twist_covariance_3,twist_covariance_4,twist_covariance_5,twist_covariance_6,twist_covariance_7,twist_covariance_8,twist_covariance_9,twist_covariance_10,twist_covariance_11,twist_covariance_12,twist_covariance_13,twist_covariance_14,twist_covariance_15,twist_covariance_16,twist_covariance_17,twist_covariance_18,twist_covariance_19,twist_covariance_20,twist_covariance_21,twist_covariance_22,twist_covariance_23,twist_covariance_24,twist_covariance_25,twist_covariance_26,twist_covariance_27,twist_covariance_28,twist_covariance_29,twist_covariance_30,twist_covariance_31,twist_covariance_32,twist_covariance_33,twist_covariance_34,twist_covariance_35
2025/04/09 11:15:45.331800072,1744190145,256853994,world_ned,mA1/odom,1.8052172038268999,11.35242572330765,0.43369236999197774,-0.0004898764099051395,-4.9464559576766474e-05,-0.0017105055069956566,0.9999984158713807,0.0,0.0,0.0,0.0,0.0,0.0,0.0,0.0,0.0,0.0,0.0,0.0,0.0,0.0,0.0,0.0,0.0,0.0,0.0,0.0,0.0,0.0,0.0,0.0,0.0,0.0,0.0,0.0,0.0,0.0,0.0,0.0,0.0,0.0,0.0,0.0,0.0004840575768508373,0.002716226467433273,-2.7652798476955035e-05,0.001446086366031099,-0.000663705285272381,-0.0004395356641645229,0.0,0.0,0.0,0.0,0.0,0.0,0.0,0.0,0.0,0.0,0.0,0.0,0.0,0.0,0.0,0.0,0.0,0.0,0.0,0.0,0.0,0.0,0.0,0.0,0.0,0.0,0.0,0.0,0.0,0.0,0.0,0.0,0.0,0.0,0.0,0.0
2025/04/09 11:15:45.363711542,1744190145,362512513,world_ned,mA1/odom,1.805191018832659,11.352707260800493,0.43368926830116616,-0.0004159393934326683,-6.60131823906447e-05,-0.0017322516124408096,0.9999984109692535,0.0,0.0,0.0,0.0,0.0,0.0,0.0,0.0,0.0,0.0,0.0,0.0,0.0,0.0,0.0,0.0,0.0,0.0,0.0,0.0,0.0,0.0,0.0,0.0,0.0,0.0,0.0,0.0,0.0,0.0,0.0,0.0,0.0,0.0,0.0,0.0,0.0017476677264935607,0.0029242705623224526,-3.256926738902069e-05,0.001455017611985227,-0.0007771698936944293,-0.00043251312879476417,0.0,0.0,0.0,0.0,0.0,0.0,0.0,0.0,0.0,0.0,0.0,0.0,0.0,0.0,0.0,0.0,0.0,0.0,0.0,0.0,0.0,0.0,0.0,0.0,0.0,0.0,0.0,0.0,0.0,0.0,0.0,0.0,0.0,0.0,0.0,0.0
2025/04/09 11:15:45.463654482,1744190145,463478470,world_ned,mA1/odom,1.8051748000495895,11.353038008189712,0.43368694309087064,-0.0003569213312935226,-7.013040293272865e-05,-0.0017500606235612169,0.9999984024870758,0.0,0.0,0.0,0.0,0.0,0.0,0.0,0.0,0.0,0.0,0.0,0.0,0.0,0.0,0.0,0.0,0.0,0.0,0.0,0.0,0.0,0.0,0.0,0.0,0.0,0.0,0.0,0.0,0.0,0.0,0.0,0.0,0.0,0.0,0.0,0.0,-0.0036980865844037534,0.003668179520528316,-1.0203930892165759e-05,0.0008996462882449473,0.0010583867202678425,-0.00028217286233367785,0.0,0.0,0.0,0.0,0.0,0.0,0.0,0.0,0.0,0.0,0.0,0.0,0.0,0.0,0.0,0.0,0.0,0.0,0.0,0.0,0.0,0.0,0.0,0.0,0.0,0.0,0.0,0.0,0.0,0.0,0.0,0.0,0.0,0.0,0.0,0.0
2025/04/09 11:15:45.573818513,1744190145,565444274,world_ned,mA1/odom,1.8052976825493725,11.353432346339437,0.43368562465371624,-0.0003255059346409215,-7.754975305708296e-05,-0.0017634274808363138,0.9999983891764237,0.0,0.0,0.0,0.0,0.0,0.0,0.0,0.0,0.0,0.0,0.0,0.0,0.0,0.0,0.0,0.0,0.0,0.0,0.0,0.0,0.0,0.0,0.0,0.0,0.0,0.0,0.0,0.0,0.0,0.0,0.0,0.0,0.0,0.0,0.0,0.0,0.0010348988116467253,0.004158219943537919,-8.809356021375871e-06,0.0003968631784697732,2.171461811894828e-05,-0.00026898038800819024,0.0,0.0,0.0,0.0,0.0,0.0,0.0,0.0,0.0,0.0,0.0,0.0,0.0,0.0,0.0,0.0,0.0,0.0,0.0,0.0,0.0,0.0,0.0,0.0,0.0,0.0,0.0,0.0,0.0,0.0,0.0,0.0,0.0,0.0,0.0,0.0
2025/04/09 11:15:45.658041764,1744190145,657822747,world_ned,mA1/odom,1.8052637172900001,11.353873284461832,0.43368521589212866,-0.000320331259754684,-5.0130677702984364e-05,-0.00177683701282685,0.9999983688611842,0.0,0.0,0.0,0.0,0.0,0.0,0.0,0.0,0.0,0.0,0.0,0.0,0.0,0.0,0.0,0.0,0.0,0.0,0.0,0.0,0.0,0.0,0.0,0.0,0.0,0.0,0.0,0.0,0.0,0.0,0.0,0.0,0.0,0.0,0.0,0.0,0.0025809182289158,0.004606215768626708,2.393388194705011e-06,-0.00013092509619751761,-0.00016666478570832876,-0.0002671641258288717,0.0,0.0,0.0,0.0,0.0,0.0,0.0,0.0,0.0,0.0,0.0,0.0,0.0,0.0,0.0,0.0,0.0,0.0,0.0,0.0,0.0,0.0,0.0,0.0,0.0,0.0,0.0,0.0,0.0,0.0,0.0,0.0,0.0,0.0,0.0,0.0
2025/04/09 11:15:45.760869227,1744190145,760563046,world_ned,mA1/odom,1.8053278962302233,11.354356611880087,0.4336860575640033,-0.0003408050793596565,-2.7172671804342713e-05,-0.0017901810716868462,0.999998339181258,0.0,0.0,0.0,0.0,0.0,0.0,0.0,0.0,0.0,0.0,0.0,0.0,0.0,0.0,0.0,0.0,0.0,0.0,0.0,0.0,0.0,0.0,0.0,0.0,0.0,0.0,0.0,0.0,0.0,0.0,0.0,0.0,0.0,0.0,0.0,0.0,-0.003997381798935192,0.0050105443683300145,1.642392354368338e-05,-0.0006186022541538435,0.001809235340227887,-0.0002661925951686643,0.0,0.0,0.0,0.0,0.0,0.0,0.0,0.0,0.0,0.0,0.0,0.0,0.0,0.0,0.0,0.0,0.0,0.0,0.0,0.0,0.0,0.0,0.0,0.0,0.0,0.0,0.0,0.0,0.0,0.0,0.0,0.0,0.0,0.0,0.0,0.0
2025/04/09 11:15:45.863535329,1744190145,863183981,world_ned,mA1/odom,1.8054098661811804,11.354873939630242,0.433687508170372,-0.0003810734004729026,-2.823457299285897e-06,-0.0018034862422808844,0.9999983011047896,0.0,0.0,0.0,0.0,0.0,0.0,0.0,0.0,0.0,0.0,0.0,0.0,0.0,0.0,0.0,0.0,0.0,0.0,0.0,0.0,0.0,0.0,0.0,0.0,0.0,0.0,0.0,0.0,0.0,0.0,0.0,0.0,0.0,0.0,0.0,0.0,0.0015749608419122177,0.005292570380093157,2.076135571694141e-05,-0.0009312548554608644,0.00026267502999064146,-0.0002655794285896183,0.0,0.0,0.0,0.0,0.0,0.0,0.0,0.0,0.0,0.0,0.0,0.0,0.0,0.0,0.0,0.0,0.0,0.0,0.0,0.0,0.0,0.0,0.0,0.0,0.0,0.0,0.0,0.0,0.0,0.0,0.0,0.0,0.0,0.0,0.0,0.0
2025/04/09 11:15:45.964398040,1744190145,964173793,world_ned,mA1/odom,1.8054247396515066,11.355412108272871,0.4336897031366924,-0.0004309498170736871,2.870002031483673e-05,-0.0018167827720475583,0.9999982563779415,0.0,0.0,0.0,0.0,0.0,0.0,0.0,0.0,0.0,0.0,0.0,0.0,0.0,0.0,0.0,0.0,0.0,0.0,0.0,0.0,0.0,0.0,0.0,0.0,0.0,0.0,0.0,0.0,0.0,0.0,0.0,0.0,0.0,0.0,0.0,0.0,0.0019769960277579886,0.005420455191065637,2.5148515834992946e-05,-0.0010072631401241664,6.414937635463287e-05,-0.0002668947359931434,0.0,0.0,0.0,0.0,0.0,0.0,0.0,0.0,0.0,0.0,0.0,0.0,0.0,0.0,0.0,0.0,0.0,0.0,0.0,0.0,0.0,0.0,0.0,0.0,0.0,0.0,0.0,0.0,0.0,0.0,0.0,0.0,0.0,0.0,0.0,0.0
2025/04/09 11:15:46.65378747,1744190146,65064631,world_ned,mA1/odom,1.8054172998192433,11.355953871958347,0.43369164027781115,-0.0004777148372574287,5.5525292134804596e-05,-0.001830339223479823,0.9999982092802983,0.0,0.0,0.0,0.0,0.0,0.0,0.0,0.0,0.0,0.0,0.0,0.0,0.0,0.0,0.0,0.0,0.0,0.0,0.0,0.0,0.0,0.0,0.0,0.0,0.0,0.0,0.0,0.0,0.0,0.0,0.0,0.0,0.0,0.0,0.0,0.0,-0.003770889555835985,0.005388654941298309,2.4737946756107753e-05,-0.0008408109217259655,0.0014690217385980018,-0.00027433271211619014,0.0,0.0,0.0,0.0,0.0,0.0,0.0,0.0,0.0,0.0,0.0,0.0,0.0,0.0,0.0,0.0,0.0,0.0,0.0,0.0,0.0,0.0,0.0,0.0,0.0,0.0,0.0,0.0,0.0,0.0,0.0,0.0,0.0,0.0,0.0,0.0
2025/04/09 11:15:46.166379424,1744190146,166046344,world_ned,mA1/odom,1.8055182523543387,11.356484603492362,0.43369296916849476,-0.0005099709920356082,5.545244327608307e-05,-0.0018442244206157323,0.9999981678437717,0.0,0.0,0.0,0.0,0.0,0.0,0.0,0.0,0.0,0.0,0.0,0.0,0.0,0.0,0.0,0.0,0.0,0.0,0.0,0.0,0.0,0.0,0.0,0.0,0.0,0.0,0.0,0.0,0.0,0.0,0.0,0.0,0.0,0.0,0.0,0.0,0.000692693663059373,0.005234551180176403,1.2362759562789558e-05,-0.0004672254031194176,-5.109366391904262e-05,-0.0002794547461959398,0.0,0.0,0.0,0.0,0.0,0.0,0.0,0.0,0.0,0.0,0.0,0.0,0.0,0.0,0.0,0.0,0.0,0.0,0.0,0.0,0.0,0.0,0.0,0.0,0.0,0.0,0.0,0.0,0.0,0.0,0.0,0.0,0.0,0.0,0.0,0.0
2025/04/09 11:15:46.257240943,1744190146,256780084,world_ned,mA1/odom,1.8054365579989982,11.35699589362378,0.43369321188843984,-0.0005201909181380159,6.645656695154211e-05,-0.001858150715621029,0.9999981361286887,0.0,0.0,0.0,0.0,0.0,0.0,0.0,0.0,0.0,0.0,0.0,0.0,0.0,0.0,0.0,0.0,0.0,0.0,0.0,0.0,0.0,0.0,0.0,0.0,0.0,0.0,0.0,0.0,0.0,0.0,0.0,0.0,0.0,0.0,0.0,0.0,0.001995134893366112,0.005007599258316981,9.259664288817281e-07,1.9673512298331777e-05,-0.0006938934318833473,-0.00027757839844493964,0.0,0.0,0.0,0.0,0.0,0.0,0.0,0.0,0.0,0.0,0.0,0.0,0.0,0.0,0.0,0.0,0.0,0.0,0.0,0.0,0.0,0.0,0.0,0.0,0.0,0.0,0.0,0.0,0.0,0.0,0.0,0.0,0.0,0.0,0.0,0.0
2025/04/09 11:15:46.358003114,1744190146,357695838,world_ned,mA1/odom,1.80543149966321,11.357484862303227,0.4336924885757504,-0.0005063616727132088,5.272060366773466e-05,-0.001871975128221837,0.9999981182619864,0.0,0.0,0.0,0.0,0.0,0.0,0.0,0.0,0.0,0.0,0.0,0.0,0.0,0.0,0.0,0.0,0.0,0.0,0.0,0.0,0.0,0.0,0.0,0.0,0.0,0.0,0.0,0.0,0.0,0.0,0.0,0.0,0.0,0.0,0.0,0.0,-0.004765639514281552,0.004813452942032366,-6.489246580637901e-06,0.0004684362803540573,0.0009300007089421695,-0.00027641940474484693,0.0,0.0,0.0,0.0,0.0,0.0,0.0,0.0,0.0,0.0,0.0,0.0,0.0,0.0,0.0,0.0,0.0,0.0,0.0,0.0,0.0,0.0,0.0,0.0,0.0,0.0,0.0,0.0,0.0,0.0,0.0,0.0,0.0,0.0,0.0,0.0
2025/04/09 11:15:46.458808948,1744190146,458538242,world_ned,mA1/odom,1.8054302947716812,11.357959553977828,0.4336906723077222,-0.0004732036663400445,2.6936420896712558e-05,-0.0018858671331493054,0.9999981094271506,0.0,0.0,0.0,0.0,0.0,0.0,0.0,0.0,0.0,0.0,0.0,0.0,0.0,0.0,0.0,0.0,0.0,0.0,0.0,0.0,0.0,0.0,0.0,0.0,0.0,0.0,0.0,0.0,0.0,0.0,0.0,0.0,0.0,0.0,0.0,0.0,0.0007134211315681782,0.004714104339291076,-1.6811070730652874e-05,0.0007913427739190637,-0.000806894123398277,-0.00027843724379549635,0.0,0.0,0.0,0.0,0.0,0.0,0.0,0.0,0.0,0.0,0.0,0.0,0.0,0.0,0.0,0.0,0.0,0.0,0.0,0.0,0.0,0.0,0.0,0.0,0.0,0.0,0.0,0.0,0.0,0.0,0.0,0.0,0.0,0.0,0.0,0.0
2025/04/09 11:15:46.561686935,1744190146,559582663,world_ned,mA1/odom,1.8053557152194866,11.358518391779697,0.43368832807012614,-0.000456674431906406,3.975841720274069e-06,-0.0018823273928589908,0.9999981241363616,0.0,0.0,0.0,0.0,0.0,0.0,0.0,0.0,0.0,0.0,0.0,0.0,0.0,0.0,0.0,0.0,0.0,0.0,0.0,0.0,0.0,0.0,0.0,0.0,0.0,0.0,0.0,0.0,0.0,0.0,0.0,0.0,0.0,0.0,0.0,0.0,0.0010631804190528846,0.006445043902396311,-1.836711031298231e-05,-0.00014750728857057012,-0.0010121148977335706,0.00041874313402873094,0.0,0.0,0.0,0.0,0.0,0.0,0.0,0.0,0.0,0.0,0.0,0.0,0.0,0.0,0.0,0.0,0.0,0.0,0.0,0.0,0.0,0.0,0.0,0.0,0.0,0.0,0.0,0.0,0.0,0.0,0.0,0.0,0.0,0.0,0.0,0.0
2025/04/09 11:15:46.660714961,1744190146,660456385,world_ned,mA1/odom,1.8052642883384589,11.35914041063778,0.4336891520915724,-0.00045310615474870197,-1.9442548901899967e-05,-0.0018655324830337498,0.999998157050979,0.0,0.0,0.0,0.0,0.0,0.0,0.0,0.0,0.0,0.0,0.0,0.0,0.0,0.0,0.0,0.0,0.0,0.0,0.0,0.0,0.0,0.0,0.0,0.0,0.0,0.0,0.0,0.0,0.0,0.0,0.0,0.0,0.0,0.0,0.0,0.0,-0.004538003125579394,0.006099211409290106,2.3901259542621275e-05,0.00021579400666455514,0.0005674239280866377,0.00030400927886502964,0.0,0.0,0.0,0.0,0.0,0.0,0.0,0.0,0.0,0.0,0.0,0.0,0.0,0.0,0.0,0.0,0.0,0.0,0.0,0.0,0.0,0.0,0.0,0.0,0.0,0.0,0.0,0.0,0.0,0.0,0.0,0.0,0.0,0.0,0.0,0.0
2025/04/09 11:15:46.761586508,1744190146,761324966,world_ned,mA1/odom,1.8053017429218672,11.359745189953813,0.4336908087478447,-0.00043677957395785915,-5.5389499731203346e-05,-0.0018507455393939512,0.9999981904466405,0.0,0.0,0.0,0.0,0.0,0.0,0.0,0.0,0.0,0.0,0.0,0.0,0.0,0.0,0.0,0.0,0.0,0.0,0.0,0.0,0.0,0.0,0.0,0.0,0.0,0.0,0.0,0.0,0.0,0.0,0.0,0.0,0.0,0.0,0.0,0.0,0.00017133870550967295,0.00601496339461594,1.909669489028586e-05,0.0004040151746547009,-0.0005949327365134329,0.00028795880332969394,0.0,0.0,0.0,0.0,0.0,0.0,0.0,0.0,0.0,0.0,0.0,0.0,0.0,0.0,0.0,0.0,0.0,0.0,0.0,0.0,0.0,0.0,0.0,0.0,0.0,0.0,0.0,0.0,0.0,0.0,0.0,0.0,0.0,0.0,0.0,0.0
2025/04/09 11:15:46.862572734,1744190146,862321785,world_ned,mA1/odom,1.805177863438684,11.360340444372595,0.4336930839901082,-0.0004115749721722646,-5.955500616979795e-05,-0.0018334337968285638,0.9999982327883166,0.0,0.0,0.0,0.0,0.0,0.0,0.0,0.0,0.0,0.0,0.0,0.0,0.0,0.0,0.0,0.0,0.0,0.0,0.0,0.0,0.0,0.0,0.0,0.0,0.0,0.0,0.0,0.0,0.0,0.0,0.0,0.0,0.0,0.0,0.0,0.0,0.0016961417114080902,0.005927093204080085,2.3897003155105302e-05,0.0005516833589412321,-0.0007914004222086521,0.00035599741241094083,0.0,0.0,0.0,0.0,0.0,0.0,0.0,0.0,0.0,0.0,0.0,0.0,0.0,0.0,0.0,0.0,0.0,0.0,0.0,0.0,0.0,0.0,0.0,0.0,0.0,0.0,0.0,0.0,0.0,0.0,0.0,0.0,0.0,0.0,0.0,0.0
2025/04/09 11:15:46.964858666,1744190146,964492963,world_ned,mA1/odom,1.8051356248179085,11.360700741021105,0.433699798608773,-0.00031329745676631534,-6.91878350222545e-05,-0.0018641992862209289,0.9999982109077837,0.0,0.0,0.0,0.0,0.0,0.0,0.0,0.0,0.0,0.0,0.0,0.0,0.0,0.0,0.0,0.0,0.0,0.0,0.0,0.0,0.0,0.0,0.0,0.0,0.0,0.0,0.0,0.0,0.0,0.0,0.0,0.0,0.0,0.0,0.0,0.0,-0.0050522848058302695,0.0020678192225061483,7.532269807453193e-05,0.0028634286104927266,0.0011990209574275757,-0.001269322541763819,0.0,0.0,0.0,0.0,0.0,0.0,0.0,0.0,0.0,0.0,0.0,0.0,0.0,0.0,0.0,0.0,0.0,0.0,0.0,0.0,0.0,0.0,0.0,0.0,0.0,0.0,0.0,0.0,0.0,0.0,0.0,0.0,0.0,0.0,0.0,0.0
2025/04/09 11:15:47.65617495,1744190147,65323986,world_ned,mA1/odom,1.8051261281811932,11.360867128923068,0.43370608754873347,-0.00016961422228894767,-6.988092934533052e-05,-0.001941161562084522,0.9999980991179239,0.0,0.0,0.0,0.0,0.0,0.0,0.0,0.0,0.0,0.0,0.0,0.0,0.0,0.0,0.0,0.0,0.0,0.0,0.0,0.0,0.0,0.0,0.0,0.0,0.0,0.0,0.0,0.0,0.0,0.0,0.0,0.0,0.0,0.0,0.0,0.0,0.0007691127137381717,0.0018481383543508874,5.551345781666809e-05,0.0024804260160026076,-0.00012876233343476204,-0.0015856292596247205,0.0,0.0,0.0,0.0,0.0,0.0,0.0,0.0,0.0,0.0,0.0,0.0,0.0,0.0,0.0,0.0,0.0,0.0,0.0,0.0,0.0,0.0,0.0,0.0,0.0,0.0,0.0,0.0,0.0,0.0,0.0,0.0,0.0,0.0,0.0,0.0
2025/04/09 11:15:47.166640601,1744190147,166294515,world_ned,mA1/odom,1.8050728252409898,11.361107703728706,0.4337090922836487,-8.532434655864448e-05,-5.036374670206819e-05,-0.0020183753773565286,0.999997958169958,0.0,0.0,0.0,0.0,0.0,0.0,0.0,0.0,0.0,0.0,0.0,0.0,0.0,0.0,0.0,0.0,0.0,0.0,0.0,0.0,0.0,0.0,0.0,0.0,0.0,0.0,0.0,0.0,0.0,0.0,0.0,0.0,0.0,0.0,0.0,0.0,0.0014149741820974416,0.0028777764582576335,4.479602534484114e-06,0.000990305305814698,-3.6292013817328626e-05,-0.001509514138650944,0.0,0.0,0.0,0.0,0.0,0.0,0.0,0.0,0.0,0.0,0.0,0.0,0.0,0.0,0.0,0.0,0.0,0.0,0.0,0.0,0.0,0.0,0.0,0.0,0.0,0.0,0.0,0.0,0.0,0.0,0.0,0.0,0.0,0.0,0.0,0.0
2025/04/09 11:15:47.258604722,1744190147,258192898,world_ned,mA1/odom,1.8050236588562432,11.361454505662184,0.43370652080631455,-8.052146439598751e-05,-2.0896393593495938e-05,-0.0020918686128781204,0.9999978085802693,0.0,0.0,0.0,0.0,0.0,0.0,0.0,0.0,0.0,0.0,0.0,0.0,0.0,0.0,0.0,0.0,0.0,0.0,0.0,0.0,0.0,0.0,0.0,0.0,0.0,0.0,0.0,0.0,0.0,0.0,0.0,0.0,0.0,0.0,0.0,0.0,-0.003836092801722361,0.003930317151638945,-4.659164931230008e-05,-0.0006234084694551092,0.0015848065401767746,-0.0014391499867730509,0.0,0.0,0.0,0.0,0.0,0.0,0.0,0.0,0.0,0.0,0.0,0.0,0.0,0.0,0.0,0.0,0.0,0.0,0.0,0.0,0.0,0.0,0.0,0.0,0.0,0.0,0.0,0.0,0.0,0.0,0.0,0.0,0.0,0.0,0.0,0.0
2025/04/09 11:15:47.359847328,1744190147,359448566,world_ned,mA1/odom,1.8051127772509394,11.36189583560788,0.43369950698098714,-0.00015022485970322318,-5.60463622717639e-06,-0.0021622922538848577,0.9999976509438852,0.0,0.0,0.0,0.0,0.0,0.0,0.0,0.0,0.0,0.0,0.0,0.0,0.0,0.0,0.0,0.0,0.0,0.0,0.0,0.0,0.0,0.0,0.0,0.0,0.0,0.0,0.0,0.0,0.0,0.0,0.0,0.0,0.0,0.0,0.0,0.0,0.0005857180440888146,0.00477651119267805,-8.620703519223392e-05,-0.001971699889355722,0.00038366587510947744,-0.0013845969928731033,0.0,0.0,0.0,0.0,0.0,0.0,0.0,0.0,0.0,0.0,0.0,0.0,0.0,0.0,0.0,0.0,0.0,0.0,0.0,0.0,0.0,0.0,0.0,0.0,0.0,0.0,0.0,0.0,0.0,0.0,0.0,0.0,0.0,0.0,0.0,0.0
2025/04/09 11:15:47.460922156,1744190147,460492460,world_ned,mA1/odom,1.8050321732644752,11.362419725620551,0.4336899799602931,-0.00027871148804889243,3.35118658864825e-05,-0.002226580627973284,0.9999974817646134,0.0,0.0,0.0,0.0,0.0,0.0,0.0,0.0,0.0,0.0,0.0,0.0,0.0,0.0,0.0,0.0,0.0,0.0,0.0,0.0,0.0,0.0,0.0,0.0,0.0,0.0,0.0,0.0,0.0,0.0,0.0,0.0,0.0,0.0,0.0,0.0,0.002109634124609299,0.005555055969064912,-9.615079579906679e-05,-0.002961655297392695,-5.418794606681946e-05,-0.0011911067824425922,0.0,0.0,0.0,0.0,0.0,0.0,0.0,0.0,0.0,0.0,0.0,0.0,0.0,0.0,0.0,0.0,0.0,0.0,0.0,0.0,0.0,0.0,0.0,0.0,0.0,0.0,0.0,0.0,0.0,0.0,0.0,0.0,0.0,0.0,0.0,0.0
2025/04/09 11:15:47.561792422,1744190147,561439926,world_ned,mA1/odom,1.805032509325977,11.363312990038544,0.4336874922662486,-0.0005413635273546108,5.048764830449092e-05,-0.0022138597971819948,0.9999974015972877,0.0,0.0,0.0,0.0,0.0,0.0,0.0,0.0,0.0,0.0,0.0,0.0,0.0,0.0,0.0,0.0,0.0,0.0,0.0,0.0,0.0,0.0,0.0,0.0,0.0,0.0,0.0,0.0,0.0,0.0,0.0,0.0,0.0,0.0,0.0,0.0,-0.004699607216571123,0.010294687478495603,1.0242642220437135e-05,-0.006057784417888122,0.0015427864489356527,0.0009189290029963796,0.0,0.0,0.0,0.0,0.0,0.0,0.0,0.0,0.0,0.0,0.0,0.0,0.0,0.0,0.0,0.0,0.0,0.0,0.0,0.0,0.0,0.0,0.0,0.0,0.0,0.0,0.0,0.0,0.0,0.0,0.0,0.0,0.0,0.0,0.0,0.0
2025/04/09 11:15:47.662737471,1744190147,662409067,world_ned,mA1/odom,1.8050429147005416,11.36437546177083,0.4336875203597301,-0.0008324517534934878,5.5434383620318297e-05,-0.002146751409294488,0.9999973477012296,0.0,0.0,0.0,0.0,0.0,0.0,0.0,0.0,0.0,0.0,0.0,0.0,0.0,0.0,0.0,0.0,0.0,0.0,0.0,0.0,0.0,0.0,0.0,0.0,0.0,0.0,0.0,0.0,0.0,0.0,0.0,0.0,0.0,0.0,0.0,0.0,0.0007967851255794291,0.010771638674505854,3.4261923034115025e-05,-0.005414745420668354,-0.00024468007064967605,0.0016858071266277375,0.0,0.0,0.0,0.0,0.0,0.0,0.0,0.0,0.0,0.0,0.0,0.0,0.0,0.0,0.0,0.0,0.0,0.0,0.0,0.0,0.0,0.0,0.0,0.0,0.0,0.0,0.0,0.0,0.0,0.0,0.0,0.0,0.0,0.0,0.0,0.0
2025/04/09 11:15:47.763554530,1744190147,763234696,world_ned,mA1/odom,1.804978678930915,11.36544250421627,0.4336910607139041,-0.0010540337885272164,5.7295129467916015e-05,-0.002041997221234802,0.9999973579852045,0.0,0.0,0.0,0.0,0.0,0.0,0.0,0.0,0.0,0.0,0.0,0.0,0.0,0.0,0.0,0.0,0.0,0.0,0.0,0.0,0.0,0.0,0.0,0.0,0.0,0.0,0.0,0.0,0.0,0.0,0.0,0.0,0.0,0.0,0.0,0.0,0.001140983993415565,0.010432614012604776,5.383561332398532e-05,-0.003417778430186958,-0.0005936083432865931,0.002419444633422193,0.0,0.0,0.0,0.0,0.0,0.0,0.0,0.0,0.0,0.0,0.0,0.0,0.0,0.0,0.0,0.0,0.0,0.0,0.0,0.0,0.0,0.0,0.0,0.0,0.0,0.0,0.0,0.0,0.0,0.0,0.0,0.0,0.0,0.0,0.0,0.0
2025/04/09 11:15:47.864587500,1744190147,864241472,world_ned,mA1/odom,1.8048725412911568,11.36644644320185,0.4336956828491774,-0.0011512268359579793,5.153773239576684e-05,-0.0019013161641902251,0.9999975285056849,0.0,0.0,0.0,0.0,0.0,0.0,0.0,0.0,0.0,0.0,0.0,0.0,0.0,0.0,0.0,0.0,0.0,0.0,0.0,0.0,0.0,0.0,0.0,0.0,0.0,0.0,0.0,0.0,0.0,0.0,0.0,0.0,0.0,0.0,0.0,0.0,-0.004704037388247375,0.009653073788375051,7.740493426416358e-05,-0.0006605929416968786,0.0007748334972768596,0.003132214597289402,0.0,0.0,0.0,0.0,0.0,0.0,0.0,0.0,0.0,0.0,0.0,0.0,0.0,0.0,0.0,0.0,0.0,0.0,0.0,0.0,0.0,0.0,0.0,0.0,0.0,0.0,0.0,0.0,0.0,0.0,0.0,0.0,0.0,0.0,0.0,0.0
2025/04/09 11:15:47.965379083,1744190147,965106056,world_ned,mA1/odom,1.8048864351691978,11.367362797647178,0.43370013633969234,-0.0011034600122118096,1.8201939123519622e-05,-0.0017260511893721574,0.9999979013937892,0.0,0.0,0.0,0.0,0.0,0.0,0.0,0.0,0.0,0.0,0.0,0.0,0.0,0.0,0.0,0.0,0.0,0.0,0.0,0.0,0.0,0.0,0.0,0.0,0.0,0.0,0.0,0.0,0.0,0.0,0.0,0.0,0.0,0.0,0.0,0.0,-0.00016717413636052841,0.008808355521762616,6.400092760464984e-05,0.002208772433529634,-0.0006825884923372837,0.003804742098498512,0.0,0.0,0.0,0.0,0.0,0.0,0.0,0.0,0.0,0.0,0.0,0.0,0.0,0.0,0.0,0.0,0.0,0.0,0.0,0.0,0.0,0.0,0.0,0.0,0.0,0.0,0.0,0.0,0.0,0.0,0.0,0.0,0.0,0.0,0.0,0.0
2025/04/09 11:15:48.56878803,1744190148,56630987,world_ned,mA1/odom,1.8047237897237363,11.368211707198379,0.4337042958871825,-0.0009268000934736164,2.0082784630373607e-06,-0.0015180662463149229,0.9999984182549617,0.0,0.0,0.0,0.0,0.0,0.0,0.0,0.0,0.0,0.0,0.0,0.0,0.0,0.0,0.0,0.0,0.0,0.0,0.0,0.0,0.0,0.0,0.0,0.0,0.0,0.0,0.0,0.0,0.0,0.0,0.0,0.0,0.0,0.0,0.0,0.0,0.0011754127796387026,0.00811298410772033,5.091278632827084e-05,0.004617840621698798,-0.0011454002097081558,0.004403952737393661,0.0,0.0,0.0,0.0,0.0,0.0,0.0,0.0,0.0,0.0,0.0,0.0,0.0,0.0,0.0,0.0,0.0,0.0,0.0,0.0,0.0,0.0,0.0,0.0,0.0,0.0,0.0,0.0,0.0,0.0,0.0,0.0,0.0,0.0,0.0,0.0
2025/04/09 11:15:48.158188292,1744190148,157539103,world_ned,mA1/odom,1.8046275427868241,11.368900324155307,0.4337055129655693,-0.00062080202891128,-2.947427617124552e-05,-0.0013011006414319277,0.9999989604360741,0.0,0.0,0.0,0.0,0.0,0.0,0.0,0.0,0.0,0.0,0.0,0.0,0.0,0.0,0.0,0.0,0.0,0.0,0.0,0.0,0.0,0.0,0.0,0.0,0.0,0.0,0.0,0.0,0.0,0.0,0.0,0.0,0.0,0.0,0.0,0.0,-0.005636824506234495,0.006056664876287261,3.9290449402425334e-06,0.007102791454011558,0.0006946969096615079,0.0042115813567678425,0.0,0.0,0.0,0.0,0.0,0.0,0.0,0.0,0.0,0.0,0.0,0.0,0.0,0.0,0.0,0.0,0.0,0.0,0.0,0.0,0.0,0.0,0.0,0.0,0.0,0.0,0.0,0.0,0.0,0.0,0.0,0.0,0.0,0.0,0.0,0.0
2025/04/09 11:15:48.258690408,1744190148,258400062,world_ned,mA1/odom,1.8045486583525052,11.369448290270617,0.4337029453245685,-0.00023902565289868314,-5.871707227944313e-05,-0.001098454425922472,0.9999993664082577,0.0,0.0,0.0,0.0,0.0,0.0,0.0,0.0,0.0,0.0,0.0,0.0,0.0,0.0,0.0,0.0,0.0,0.0,0.0,0.0,0.0,0.0,0.0,0.0,0.0,0.0,0.0,0.0,0.0,0.0,0.0,0.0,0.0,0.0,0.0,0.0,4.479785756013477e-05,0.005259891065942865,-4.0606030154758245e-05,0.007731683152841424,-0.0007246677399388084,0.003956307559446954,0.0,0.0,0.0,0.0,0.0,0.0,0.0,0.0,0.0,0.0,0.0,0.0,0.0,0.0,0.0,0.0,0.0,0.0,0.0,0.0,0.0,0.0,0.0,0.0,0.0,0.0,0.0,0.0,0.0,0.0,0.0,0.0,0.0,0.0,0.0,0.0
2025/04/09 11:15:48.359795044,1744190148,359417847,world_ned,mA1/odom,1.804438484918438,11.369997240602189,0.4336970088636434,0.0001176030996811527,-7.083581483526172e-05,-0.0009041669577174599,0.999999581816868,0.0,0.0,0.0,0.0,0.0,0.0,0.0,0.0,0.0,0.0,0.0,0.0,0.0,0.0,0.0,0.0,0.0,0.0,0.0,0.0,0.0,0.0,0.0,0.0,0.0,0.0,0.0,0.0,0.0,0.0,0.0,0.0,0.0,0.0,0.0,0.0,0.0011119507957859382,0.005813353495439362,-7.507902954376915e-05,0.006389760630423019,-0.0007135173896815336,0.0038263244077768517,0.0,0.0,0.0,0.0,0.0,0.0,0.0,0.0,0.0,0.0,0.0,0.0,0.0,0.0,0.0,0.0,0.0,0.0,0.0,0.0,0.0,0.0,0.0,0.0,0.0,0.0,0.0,0.0,0.0,0.0,0.0,0.0,0.0,0.0,0.0,0.0
2025/04/09 11:15:48.460413518,1744190148,460236471,world_ned,mA1/odom,1.8043160199346913,11.370635969063962,0.43369020464271735,0.0003699026518618929,-6.464763390636346e-05,-0.0007190350125443424,0.999999670990627,0.0,0.0,0.0,0.0,0.0,0.0,0.0,0.0,0.0,0.0,0.0,0.0,0.0,0.0,0.0,0.0,0.0,0.0,0.0,0.0,0.0,0.0,0.0,0.0,0.0,0.0,0.0,0.0,0.0,0.0,0.0,0.0,0.0,0.0,0.0,0.0,-0.000799736372152097,0.0070142061538260685,-7.977097318245295e-05,0.003741436917185588,0.0001727216561246879,0.0036312971104544498,0.0,0.0,0.0,0.0,0.0,0.0,0.0,0.0,0.0,0.0,0.0,0.0,0.0,0.0,0.0,0.0,0.0,0.0,0.0,0.0,0.0,0.0,0.0,0.0,0.0,0.0,0.0,0.0,0.0,0.0,0.0,0.0,0.0,0.0,0.0,0.0
2025/04/09 11:15:48.561691819,1744190148,561317583,world_ned,mA1/odom,1.804326210324834,11.371431108730395,0.43368288560036783,0.00046365979510745747,-5.9716295230045105e-05,-0.0005409952240988908,0.9999997443888303,0.0,0.0,0.0,0.0,0.0,0.0,0.0,0.0,0.0,0.0,0.0,0.0,0.0,0.0,0.0,0.0,0.0,0.0,0.0,0.0,0.0,0.0,0.0,0.0,0.0,0.0,0.0,0.0,0.0,0.0,0.0,0.0,0.0,0.0,0.0,0.0,0.00031014408070345395,0.008750765572874875,-8.192912916357631e-05,0.00029852470187532196,0.00017628302546851305,0.0035057549028060728,0.0,0.0,0.0,0.0,0.0,0.0,0.0,0.0,0.0,0.0,0.0,0.0,0.0,0.0,0.0,0.0,0.0,0.0,0.0,0.0,0.0,0.0,0.0,0.0,0.0,0.0,0.0,0.0,0.0,0.0,0.0,0.0,0.0,0.0,0.0,0.0
2025/04/09 11:15:48.662495678,1744190148,662147952,world_ned,mA1/odom,1.804274156208947,11.372398175977551,0.4336761616214174,0.00038533063908606247,-3.221380708495816e-05,-0.00036904837777778314,0.9999998571429218,0.0,0.0,0.0,0.0,0.0,0.0,0.0,0.0,0.0,0.0,0.0,0.0,0.0,0.0,0.0,0.0,0.0,0.0,0.0,0.0,0.0,0.0,0.0,0.0,0.0,0.0,0.0,0.0,0.0,0.0,0.0,0.0,0.0,0.0,0.0,0.0,-0.00043462606376442676,0.010363409928616665,-6.448610887088288e-05,-0.0030109252796113677,0.0006089632494479241,0.0033828739635462773,0.0,0.0,0.0,0.0,0.0,0.0,0.0,0.0,0.0,0.0,0.0,0.0,0.0,0.0,0.0,0.0,0.0,0.0,0.0,0.0,0.0,0.0,0.0,0.0,0.0,0.0,0.0,0.0,0.0,0.0,0.0,0.0,0.0,0.0,0.0,0.0
2025/04/09 11:15:48.763877359,1744190148,763636785,world_ned,mA1/odom,1.8042545996215273,11.373475216796987,0.4336722740329174,0.00017008904960708212,-4.526780768263741e-06,-0.00020780929604983882,0.9999999639322593,0.0,0.0,0.0,0.0,0.0,0.0,0.0,0.0,0.0,0.0,0.0,0.0,0.0,0.0,0.0,0.0,0.0,0.0,0.0,0.0,0.0,0.0,0.0,0.0,0.0,0.0,0.0,0.0,0.0,0.0,0.0,0.0,0.0,0.0,0.0,0.0,-0.000262476393886312,0.010971853711172892,-2.603298924872469e-05,-0.005180694024268391,0.0005517444282801207,0.0030831209693889415,0.0,0.0,0.0,0.0,0.0,0.0,0.0,0.0,0.0,0.0,0.0,0.0,0.0,0.0,0.0,0.0,0.0,0.0,0.0,0.0,0.0,0.0,0.0,0.0,0.0,0.0,0.0,0.0,0.0,0.0,0.0,0.0,0.0,0.0,0.0,0.0
2025/04/09 11:15:48.864766088,1744190148,864513482,world_ned,mA1/odom,1.804190759586202,11.374568603539364,0.43367271482299097,-0.00011919627428248655,2.4086738969137915e-05,-5.8405230140244414e-05,0.9999999909004531,0.0,0.0,0.0,0.0,0.0,0.0,0.0,0.0,0.0,0.0,0.0,0.0,0.0,0.0,0.0,0.0,0.0,0.0,0.0,0.0,0.0,0.0,0.0,0.0,0.0,0.0,0.0,0.0,0.0,0.0,0.0,0.0,0.0,0.0,0.0,0.0,-0.00047160271229426047,0.01076855818907015,2.4212285454112673e-05,-0.006069160674623911,0.0004528511429094094,0.0028699813636050204,0.0,0.0,0.0,0.0,0.0,0.0,0.0,0.0,0.0,0.0,0.0,0.0,0.0,0.0,0.0,0.0,0.0,0.0,0.0,0.0,0.0,0.0,0.0,0.0,0.0,0.0,0.0,0.0,0.0,0.0,0.0,0.0,0.0,0.0,0.0,0.0
2025/04/09 11:15:48.965710118,1744190148,965499323,world_ned,mA1/odom,1.8041111379725636,11.375593632916178,0.4336766527929633,-0.00041414730620484616,4.570368727949507e-05,7.684275653902619e-05,0.9999999102441822,0.0,0.0,0.0,0.0,0.0,0.0,0.0,0.0,0.0,0.0,0.0,0.0,0.0,0.0,0.0,0.0,0.0,0.0,0.0,0.0,0.0,0.0,0.0,0.0,0.0,0.0,0.0,0.0,0.0,0.0,0.0,0.0,0.0,0.0,0.0,0.0,-0.0013261428913195717,0.00970113841605239,5.700484504847912e-05,-0.005550805553554417,0.0004684371232330075,0.002594371064693302,0.0,0.0,0.0,0.0,0.0,0.0,0.0,0.0,0.0,0.0,0.0,0.0,0.0,0.0,0.0,0.0,0.0,0.0,0.0,0.0,0.0,0.0,0.0,0.0,0.0,0.0,0.0,0.0,0.0,0.0,0.0,0.0,0.0,0.0,0.0,0.0
2025/04/09 11:15:49.56988259,1744190149,56701513,world_ned,mA1/odom,1.8040329008350149,11.376474602053577,0.4336837631750436,-0.0006488379556663599,5.362813610416589e-05,0.00020332882926041719,0.9999997673953317,0.0,0.0,0.0,0.0,0.0,0.0,0.0,0.0,0.0,0.0,0.0,0.0,0.0,0.0,0.0,0.0,0.0,0.0,0.0,0.0,0.0,0.0,0.0,0.0,0.0,0.0,0.0,0.0,0.0,0.0,0.0,0.0,0.0,0.0,0.0,0.0,0.001330858787801399,0.008066642581308328,9.398453568946464e-05,-0.0038814834920963912,-0.0005113571269419689,0.002451938774347936,0.0,0.0,0.0,0.0,0.0,0.0,0.0,0.0,0.0,0.0,0.0,0.0,0.0,0.0,0.0,0.0,0.0,0.0,0.0,0.0,0.0,0.0,0.0,0.0,0.0,0.0,0.0,0.0,0.0,0.0,0.0,0.0,0.0,0.0,0.0,0.0
2025/04/09 11:15:49.158551411,1744190149,158165167,world_ned,mA1/odom,1.8039015591466583,11.377135393926686,0.4336953933983116,-0.0007658094967109396,6.26855979410104e-05,0.00032062573006148387,0.9999996534026758,0.0,0.0,0.0,0.0,0.0,0.0,0.0,0.0,0.0,0.0,0.0,0.0,0.0,0.0,0.0,0.0,0.0,0.0,0.0,0.0,0.0,0.0,0.0,0.0,0.0,0.0,0.0,0.0,0.0,0.0,0.0,0.0,0.0,0.0,0.0,0.0,-0.0019725242885445552,0.00533773568289705,0.00014997775565681103,-0.0009868584694365608,0.0003225282452411516,0.002257466648818661,0.0,0.0,0.0,0.0,0.0,0.0,0.0,0.0,0.0,0.0,0.0,0.0,0.0,0.0,0.0,0.0,0.0,0.0,0.0,0.0,0.0,0.0,0.0,0.0,0.0,0.0,0.0,0.0,0.0,0.0,0.0,0.0,0.0,0.0,0.0,0.0
2025/04/09 11:15:49.259427609,1744190149,259075488,world_ned,mA1/odom,1.8038414164864771,11.377523564326756,0.4337096153305017,-0.0007361837451193062,5.750198763504797e-05,0.00042840437011084476,0.9999996355982889,0.0,0.0,0.0,0.0,0.0,0.0,0.0,0.0,0.0,0.0,0.0,0.0,0.0,0.0,0.0,0.0,0.0,0.0,0.0,0.0,0.0,0.0,0.0,0.0,0.0,0.0,0.0,0.0,0.0,0.0,0.0,0.0,0.0,0.0,0.0,0.0,-0.0006060472179974041,0.0027207114646433687,0.00012608272344884528,0.0018257192795622344,-0.00015013551308766328,0.0020769999482576776,0.0,0.0,0.0,0.0,0.0,0.0,0.0,0.0,0.0,0.0,0.0,0.0,0.0,0.0,0.0,0.0,0.0,0.0,0.0,0.0,0.0,0.0,0.0,0.0,0.0,0.0,0.0,0.0,0.0,0.0,0.0,0.0,0.0,0.0,0.0,0.0
2025/04/09 11:15:49.360371322,1744190149,360008336,world_ned,mA1/odom,1.8037797848055481,11.377677966391436,0.43371796537056023,-0.0005832573020267887,5.2581041031849234e-05,0.0005299063889282391,0.9999996881226377,0.0,0.0,0.0,0.0,0.0,0.0,0.0,0.0,0.0,0.0,0.0,0.0,0.0,0.0,0.0,0.0,0.0,0.0,0.0,0.0,0.0,0.0,0.0,0.0,0.0,0.0,0.0,0.0,0.0,0.0,0.0,0.0,0.0,0.0,0.0,0.0,0.0016759913144188871,0.0006363305917416351,4.77565439430138e-05,0.003947904654181225,-0.0007071221248882137,0.0019728460679757087,0.0,0.0,0.0,0.0,0.0,0.0,0.0,0.0,0.0,0.0,0.0,0.0,0.0,0.0,0.0,0.0,0.0,0.0,0.0,0.0,0.0,0.0,0.0,0.0,0.0,0.0,0.0,0.0,0.0,0.0,0.0,0.0,0.0,0.0,0.0,0.0
2025/04/09 11:15:49.461227992,1744190149,460902526,world_ned,mA1/odom,1.8037958657234205,11.377660274717242,0.43371692196353756,-0.00035187168021900804,4.643921372270925e-05,0.0006243871668234534,0.9999997420851597,0.0,0.0,0.0,0.0,0.0,0.0,0.0,0.0,0.0,0.0,0.0,0.0,0.0,0.0,0.0,0.0,0.0,0.0,0.0,0.0,0.0,0.0,0.0,0.0,0.0,0.0,0.0,0.0,0.0,0.0,0.0,0.0,0.0,0.0,0.0,0.0,0.0001985451244050121,-0.0006928567174597108,-7.305191189620658e-05,0.0049695608465767,8.757129539734141e-07,0.0018185838648011017,0.0,0.0,0.0,0.0,0.0,0.0,0.0,0.0,0.0,0.0,0.0,0.0,0.0,0.0,0.0,0.0,0.0,0.0,0.0,0.0,0.0,0.0,0.0,0.0,0.0,0.0,0.0,0.0,0.0,0.0,0.0,0.0,0.0,0.0,0.0,0.0
2025/04/09 11:15:49.561971873,1744190149,561679270,world_ned,mA1/odom,1.8039253162276174,11.377553797848513,0.43370737797953635,-0.0001038311000423765,4.458268377345784e-05,0.0007111997273773733,0.9999997407131838,0.0,0.0,0.0,0.0,0.0,0.0,0.0,0.0,0.0,0.0,0.0,0.0,0.0,0.0,0.0,0.0,0.0,0.0,0.0,0.0,0.0,0.0,0.0,0.0,0.0,0.0,0.0,0.0,0.0,0.0,0.0,0.0,0.0,0.0,0.0,0.0,-9.377161291412377e-05,-0.001265341460820059,-0.00012310427292827337,0.004760986874775649,0.0005668923159728391,0.0016753459932697665,0.0,0.0,0.0,0.0,0.0,0.0,0.0,0.0,0.0,0.0,0.0,0.0,0.0,0.0,0.0,0.0,0.0,0.0,0.0,0.0,0.0,0.0,0.0,0.0,0.0,0.0,0.0,0.0,0.0,0.0,0.0,0.0,0.0,0.0,0.0,0.0
2025/04/09 11:15:49.662819426,1744190149,662546749,world_ned,mA1/odom,1.8042370459900228,11.377430631218616,0.43369237412325395,0.00010209649410301057,4.831584485671922e-05,0.0007910584050709845,0.9999996807341914,0.0,0.0,0.0,0.0,0.0,0.0,0.0,0.0,0.0,0.0,0.0,0.0,0.0,0.0,0.0,0.0,0.0,0.0,0.0,0.0,0.0,0.0,0.0,0.0,0.0,0.0,0.0,0.0,0.0,0.0,0.0,0.0,0.0,0.0,0.0,0.0,0.007831860203215366,-0.0011211437549130702,-0.00016402400529596834,0.0034381039449289724,-0.0009354226526241069,0.0015329670187991572,0.0,0.0,0.0,0.0,0.0,0.0,0.0,0.0,0.0,0.0,0.0,0.0,0.0,0.0,0.0,0.0,0.0,0.0,0.0,0.0,0.0,0.0,0.0,0.0,0.0,0.0,0.0,0.0,0.0,0.0,0.0,0.0,0.0,0.0,0.0,0.0
2025/04/09 11:15:49.763652404,1744190149,763384330,world_ned,mA1/odom,1.804654596803817,11.377347807320826,0.43367579356644204,0.00021960156054473575,7.1994799144759e-05,0.0008638349873927862,0.9999996001904291,0.0,0.0,0.0,0.0,0.0,0.0,0.0,0.0,0.0,0.0,0.0,0.0,0.0,0.0,0.0,0.0,0.0,0.0,0.0,0.0,0.0,0.0,0.0,0.0,0.0,0.0,0.0,0.0,0.0,0.0,0.0,0.0,0.0,0.0,0.0,0.0,0.0045930856160125615,-0.0005658761464470829,-0.000161695053176916,0.0013877994539575683,0.0006635110653922944,0.0013936929357982008,0.0,0.0,0.0,0.0,0.0,0.0,0.0,0.0,0.0,0.0,0.0,0.0,0.0,0.0,0.0,0.0,0.0,0.0,0.0,0.0,0.0,0.0,0.0,0.0,0.0,0.0,0.0,0.0,0.0,0.0,0.0,0.0,0.0,0.0,0.0,0.0
2025/04/09 11:15:49.864456625,1744190149,864159518,world_ned,mA1/odom,1.805323077427171,11.377325837769314,0.43366188088420604,0.0002275634825643886,9.770434737082011e-05,0.000930696061906332,0.9999995362366736,0.0,0.0,0.0,0.0,0.0,0.0,0.0,0.0,0.0,0.0,0.0,0.0,0.0,0.0,0.0,0.0,0.0,0.0,0.0,0.0,0.0,0.0,0.0,0.0,0.0,0.0,0.0,0.0,0.0,0.0,0.0,0.0,0.0,0.0,0.0,0.0,0.010714602464636718,1.4500059881246864e-05,-0.00010649540323107031,-0.0008332080191712441,-0.0002940158015585005,0.0013009716969429913,0.0,0.0,0.0,0.0,0.0,0.0,0.0,0.0,0.0,0.0,0.0,0.0,0.0,0.0,0.0,0.0,0.0,0.0,0.0,0.0,0.0,0.0,0.0,0.0,0.0,0.0,0.0,0.0,0.0,0.0,0.0,0.0,0.0,0.0,0.0,0.0
2025/04/09 11:15:49.965957753,1744190149,965530973,world_ned,mA1/odom,1.8061261021160575,11.377350656240178,0.4336544186907121,0.00013062142289923975,0.00013840765181744318,0.0009932190804074988,0.9999994886484813,0.0,0.0,0.0,0.0,0.0,0.0,0.0,0.0,0.0,0.0,0.0,0.0,0.0,0.0,0.0,0.0,0.0,0.0,0.0,0.0,0.0,0.0,0.0,0.0,0.0,0.0,0.0,0.0,0.0,0.0,0.0,0.0,0.0,0.0,0.0,0.0,0.006615468979802346,0.00023433083895110543,-4.52734944311073e-05,-0.002667098806501249,0.0015365579490769431,0.0011419305592308498,0.0,0.0,0.0,0.0,0.0,0.0,0.0,0.0,0.0,0.0,0.0,0.0,0.0,0.0,0.0,0.0,0.0,0.0,0.0,0.0,0.0,0.0,0.0,0.0,0.0,0.0,0.0,0.0,0.0,0.0,0.0,0.0,0.0,0.0,0.0,0.0
2025/04/09 11:15:50.58723342,1744190150,56490836,world_ned,mA1/odom,1.8071987659029718,11.377300107324004,0.4336549985044868,-1.703028919945908e-05,0.0001746156853227376,0.001029659822139728,0.9999994545098424,0.0,0.0,0.0,0.0,0.0,0.0,0.0,0.0,0.0,0.0,0.0,0.0,0.0,0.0,0.0,0.0,0.0,0.0,0.0,0.0,0.0,0.0,0.0,0.0,0.0,0.0,0.0,0.0,0.0,0.0,0.0,0.0,0.0,0.0,0.0,0.0,0.010492311347830751,-0.0008923222095982428,4.888761769720788e-05,-0.003296326625792582,0.0011278154663990354,0.0005318263525343445,0.0,0.0,0.0,0.0,0.0,0.0,0.0,0.0,0.0,0.0,0.0,0.0,0.0,0.0,0.0,0.0,0.0,0.0,0.0,0.0,0.0,0.0,0.0,0.0,0.0,0.0,0.0,0.0,0.0,0.0,0.0,0.0,0.0,0.0,0.0,0.0
2025/04/09 11:15:50.157674967,1744190150,157342422,world_ned,mA1/odom,1.8085373067732746,11.377191758115746,0.43366061114919197,-0.0002017495998364355,0.000220751705044409,0.0010538243624985295,0.9999994000098184,0.0,0.0,0.0,0.0,0.0,0.0,0.0,0.0,0.0,0.0,0.0,0.0,0.0,0.0,0.0,0.0,0.0,0.0,0.0,0.0,0.0,0.0,0.0,0.0,0.0,0.0,0.0,0.0,0.0,0.0,0.0,0.0,0.0,0.0,0.0,0.0,0.015916076292395383,-0.001377107953624785,7.07720987311671e-05,-0.003882120264040017,0.0006933111981047985,0.00044315382684002305,0.0,0.0,0.0,0.0,0.0,0.0,0.0,0.0,0.0,0.0,0.0,0.0,0.0,0.0,0.0,0.0,0.0,0.0,0.0,0.0,0.0,0.0,0.0,0.0,0.0,0.0,0.0,0.0,0.0,0.0,0.0,0.0,0.0,0.0,0.0,0.0
2025/04/09 11:15:50.258713220,1744190150,258292883,world_ned,mA1/odom,1.8102321988008736,11.376931813211835,0.4336720952867776,-0.00036722826398340934,0.0002664690736848332,0.0010570150129077431,0.9999993384282299,0.0,0.0,0.0,0.0,0.0,0.0,0.0,0.0,0.0,0.0,0.0,0.0,0.0,0.0,0.0,0.0,0.0,0.0,0.0,0.0,0.0,0.0,0.0,0.0,0.0,0.0,0.0,0.0,0.0,0.0,0.0,0.0,0.0,0.0,0.0,0.0,0.019617374657214408,-0.003841546200810293,0.00013630804505427086,-0.002656429965846889,0.0005397669554508812,-0.0002991261145397117,0.0,0.0,0.0,0.0,0.0,0.0,0.0,0.0,0.0,0.0,0.0,0.0,0.0,0.0,0.0,0.0,0.0,0.0,0.0,0.0,0.0,0.0,0.0,0.0,0.0,0.0,0.0,0.0,0.0,0.0,0.0,0.0,0.0,0.0,0.0,0.0
2025/04/09 11:15:50.359309376,1744190150,359108441,world_ned,mA1/odom,1.8122642203687307,11.376462642060073,0.4336832430919919,-0.00047162424798290106,0.0003114930165124556,0.0010365076486532985,0.999999303097039,0.0,0.0,0.0,0.0,0.0,0.0,0.0,0.0,0.0,0.0,0.0,0.0,0.0,0.0,0.0,0.0,0.0,0.0,0.0,0.0,0.0,0.0,0.0,0.0,0.0,0.0,0.0,0.0,0.0,0.0,0.0,0.0,0.0,0.0,0.0,0.0,0.02394841955728286,-0.005363654928682647,0.0001173091527558663,-0.0016374220085362417,0.00034123191682768923,-0.00043411579217266427,0.0,0.0,0.0,0.0,0.0,0.0,0.0,0.0,0.0,0.0,0.0,0.0,0.0,0.0,0.0,0.0,0.0,0.0,0.0,0.0,0.0,0.0,0.0,0.0,0.0,0.0,0.0,0.0,0.0,0.0,0.0,0.0,0.0,0.0,0.0,0.0
2025/04/09 11:15:50.460922846,1744190150,460679789,world_ned,mA1/odom,1.8146953942039703,11.375849808815664,0.43369345714345325,-0.0005194244469962539,0.000353783576898543,0.0010137771379720101,0.9999992886454165,0.0,0.0,0.0,0.0,0.0,0.0,0.0,0.0,0.0,0.0,0.0,0.0,0.0,0.0,0.0,0.0,0.0,0.0,0.0,0.0,0.0,0.0,0.0,0.0,0.0,0.0,0.0,0.0,0.0,0.0,0.0,0.0,0.0,0.0,0.0,0.0,0.030334818387753988,-0.0068941978437973206,0.0001015271323662757,-0.0003342984853700605,-0.0003702555617573215,-0.0004576342688510984,0.0,0.0,0.0,0.0,0.0,0.0,0.0,0.0,0.0,0.0,0.0,0.0,0.0,0.0,0.0,0.0,0.0,0.0,0.0,0.0,0.0,0.0,0.0,0.0,0.0,0.0,0.0,0.0,0.0,0.0,0.0,0.0,0.0,0.0,0.0,0.0
2025/04/09 11:15:50.562401206,1744190150,561942478,world_ned,mA1/odom,1.8174551485045682,11.375084054970845,0.4336998647628482,-0.0005004782905077681,0.0004021422862101108,0.000990199862553499,0.9999993036534048,0.0,0.0,0.0,0.0,0.0,0.0,0.0,0.0,0.0,0.0,0.0,0.0,0.0,0.0,0.0,0.0,0.0,0.0,0.0,0.0,0.0,0.0,0.0,0.0,0.0,0.0,0.0,0.0,0.0,0.0,0.0,0.0,0.0,0.0,0.0,0.0,0.02955530039385537,-0.008380920567770612,5.8670942777421424e-05,0.0009720853512037031,0.0008856077906497536,-0.00047641737883248044,0.0,0.0,0.0,0.0,0.0,0.0,0.0,0.0,0.0,0.0,0.0,0.0,0.0,0.0,0.0,0.0,0.0,0.0,0.0,0.0,0.0,0.0,0.0,0.0,0.0,0.0,0.0,0.0,0.0,0.0,0.0,0.0,0.0,0.0,0.0,0.0
2025/04/09 11:15:50.663216830,1744190150,662875543,world_ned,mA1/odom,1.8207810338012596,11.37417865796916,0.43370144285408146,-0.00042150463887287524,0.00042349009770590825,0.0009669903973637982,0.9999993539595653,0.0,0.0,0.0,0.0,0.0,0.0,0.0,0.0,0.0,0.0,0.0,0.0,0.0,0.0,0.0,0.0,0.0,0.0,0.0,0.0,0.0,0.0,0.0,0.0,0.0,0.0,0.0,0.0,0.0,0.0,0.0,0.0,0.0,0.0,0.0,0.0,0.03435867422017034,-0.009638880647081098,5.480448824044382e-06,0.00198538827995612,0.0005681631726225309,-0.0004463899679330673,0.0,0.0,0.0,0.0,0.0,0.0,0.0,0.0,0.0,0.0,0.0,0.0,0.0,0.0,0.0,0.0,0.0,0.0,0.0,0.0,0.0,0.0,0.0,0.0,0.0,0.0,0.0,0.0,0.0,0.0,0.0,0.0,0.0,0.0,0.0,0.0
2025/04/09 11:15:50.763944918,1744190150,763709042,world_ned,mA1/odom,1.8245010403305655,11.373190663360074,0.43369731141020645,-0.00031339775207030423,0.00044077735773949503,0.0009481071681368532,0.9999994042948064,0.0,0.0,0.0,0.0,0.0,0.0,0.0,0.0,0.0,0.0,0.0,0.0,0.0,0.0,0.0,0.0,0.0,0.0,0.0,0.0,0.0,0.0,0.0,0.0,0.0,0.0,0.0,0.0,0.0,0.0,0.0,0.0,0.0,0.0,0.0,0.0,0.042044499699459656,-0.010202258348338223,-2.9422457845155706e-05,0.002262447820805864,-0.0005585369300225831,-0.00033346507227284317,0.0,0.0,0.0,0.0,0.0,0.0,0.0,0.0,0.0,0.0,0.0,0.0,0.0,0.0,0.0,0.0,0.0,0.0,0.0,0.0,0.0,0.0,0.0,0.0,0.0,0.0,0.0,0.0,0.0,0.0,0.0,0.0,0.0,0.0,0.0,0.0
2025/04/09 11:15:50.865265239,1744190150,865071135,world_ned,mA1/odom,1.828618557502955,11.372143169940335,0.43369079650766906,-0.00020005656017381784,0.00045636739577240926,0.0009285171714351317,0.9999994447808634,0.0,0.0,0.0,0.0,0.0,0.0,0.0,0.0,0.0,0.0,0.0,0.0,0.0,0.0,0.0,0.0,0.0,0.0,0.0,0.0,0.0,0.0,0.0,0.0,0.0,0.0,0.0,0.0,0.0,0.0,0.0,0.0,0.0,0.0,0.0,0.0,0.043427266044193835,-0.011014778113921427,-4.960034994836572e-05,0.002351982478236568,0.0002638436838934622,-0.000614768682038925,0.0,0.0,0.0,0.0,0.0,0.0,0.0,0.0,0.0,0.0,0.0,0.0,0.0,0.0,0.0,0.0,0.0,0.0,0.0,0.0,0.0,0.0,0.0,0.0,0.0,0.0,0.0,0.0,0.0,0.0,0.0,0.0,0.0,0.0,0.0,0.0
2025/04/09 11:15:50.966474861,1744190150,966166448,world_ned,mA1/odom,1.8333769688193786,11.371036447372688,0.43368206959480715,-9.902927054982135e-05,0.00044763901503278025,0.0008834041413240919,0.9999995047046968,0.0,0.0,0.0,0.0,0.0,0.0,0.0,0.0,0.0,0.0,0.0,0.0,0.0,0.0,0.0,0.0,0.0,0.0,0.0,0.0,0.0,0.0,0.0,0.0,0.0,0.0,0.0,0.0,0.0,0.0,0.0,0.0,0.0,0.0,0.0,0.0,0.049189815071095364,-0.010717320658848643,-3.935520542642811e-05,0.001348742911329615,-3.66658495804744e-05,-0.000953410667754996,0.0,0.0,0.0,0.0,0.0,0.0,0.0,0.0,0.0,0.0,0.0,0.0,0.0,0.0,0.0,0.0,0.0,0.0,0.0,0.0,0.0,0.0,0.0,0.0,0.0,0.0,0.0,0.0,0.0,0.0,0.0,0.0,0.0,0.0,0.0,0.0
2025/04/09 11:15:51.58556086,1744190151,57007579,world_ned,mA1/odom,1.8386690103695973,11.370056497803807,0.43367471452188894,-8.474552674257965e-05,0.0004326688100481534,0.0008380330068841053,0.9999995516581874,0.0,0.0,0.0,0.0,0.0,0.0,0.0,0.0,0.0,0.0,0.0,0.0,0.0,0.0,0.0,0.0,0.0,0.0,0.0,0.0,0.0,0.0,0.0,0.0,0.0,0.0,0.0,0.0,0.0,0.0,0.0,0.0,0.0,0.0,0.0,0.0,0.05158731396477142,-0.009230380009012665,-2.6808334745936975e-05,-0.0005693061196879942,0.0007399252861889846,-0.0008678502494258956,0.0,0.0,0.0,0.0,0.0,0.0,0.0,0.0,0.0,0.0,0.0,0.0,0.0,0.0,0.0,0.0,0.0,0.0,0.0,0.0,0.0,0.0,0.0,0.0,0.0,0.0,0.0,0.0,0.0,0.0,0.0,0.0,0.0,0.0,0.0,0.0
2025/04/09 11:15:51.161910127,1744190151,161629037,world_ned,mA1/odom,1.8445217759367263,11.369199465740513,0.43366943897593013,-0.000156083657742457,0.00041527367201526084,0.0007967060090816645,0.9999995842225157,0.0,0.0,0.0,0.0,0.0,0.0,0.0,0.0,0.0,0.0,0.0,0.0,0.0,0.0,0.0,0.0,0.0,0.0,0.0,0.0,0.0,0.0,0.0,0.0,0.0,0.0,0.0,0.0,0.0,0.0,0.0,0.0,0.0,0.0,0.0,0.0,0.06542366941105732,-0.008141380598154904,9.834261629157183e-06,-0.002137331203785211,-0.0015623040439725984,-0.0007877905712733435,0.0,0.0,0.0,0.0,0.0,0.0,0.0,0.0,0.0,0.0,0.0,0.0,0.0,0.0,0.0,0.0,0.0,0.0,0.0,0.0,0.0,0.0,0.0,0.0,0.0,0.0,0.0,0.0,0.0,0.0,0.0,0.0,0.0,0.0,0.0,0.0
2025/04/09 11:15:51.263037328,1744190151,262749148,world_ned,mA1/odom,1.850844300838464,11.368448890296005,0.43366942935631675,-0.00029660850722981584,0.0004179437199798278,0.0007597855678096915,0.9999995800360775,0.0,0.0,0.0,0.0,0.0,0.0,0.0,0.0,0.0,0.0,0.0,0.0,0.0,0.0,0.0,0.0,0.0,0.0,0.0,0.0,0.0,0.0,0.0,0.0,0.0,0.0,0.0,0.0,0.0,0.0,0.0,0.0,0.0,0.0,0.0,0.0,0.060722169605020575,-0.0072331557559291776,7.466014041540122e-05,-0.003255951520288333,0.0015705948801327152,-0.0007002618995764974,0.0,0.0,0.0,0.0,0.0,0.0,0.0,0.0,0.0,0.0,0.0,0.0,0.0,0.0,0.0,0.0,0.0,0.0,0.0,0.0,0.0,0.0,0.0,0.0,0.0,0.0,0.0,0.0,0.0,0.0,0.0,0.0,0.0,0.0,0.0,0.0
2025/04/09 11:15:51.365687125,1744190151,364841670,world_ned,mA1/odom,1.8578539138469778,11.367762794888405,0.4336727698136216,-0.00047217012067593154,0.0004161227868244515,0.0007273147581197894,0.999999537455116,0.0,0.0,0.0,0.0,0.0,0.0,0.0,0.0,0.0,0.0,0.0,0.0,0.0,0.0,0.0,0.0,0.0,0.0,0.0,0.0,0.0,0.0,0.0,0.0,0.0,0.0,0.0,0.0,0.0,0.0,0.0,0.0,0.0,0.0,0.0,0.0,0.07369647405985826,-0.006832021039427437,9.931047543137382e-05,-0.0035809908242518977,-0.000197673676861568,-0.0006108860157256917,0.0,0.0,0.0,0.0,0.0,0.0,0.0,0.0,0.0,0.0,0.0,0.0,0.0,0.0,0.0,0.0,0.0,0.0,0.0,0.0,0.0,0.0,0.0,0.0,0.0,0.0,0.0,0.0,0.0,0.0,0.0,0.0,0.0,0.0,0.0,0.0
2025/04/09 11:15:51.470130442,1744190151,466474178,world_ned,mA1/odom,1.8654992233595695,11.367088817241163,0.433678476228766,-0.0006409923589097365,0.00041960853459258095,0.0006994005267967311,0.9999994619480436,0.0,0.0,0.0,0.0,0.0,0.0,0.0,0.0,0.0,0.0,0.0,0.0,0.0,0.0,0.0,0.0,0.0,0.0,0.0,0.0,0.0,0.0,0.0,0.0,0.0,0.0,0.0,0.0,0.0,0.0,0.0,0.0,0.0,0.0,0.0,0.0,0.07766898565756289,-0.006944062329458741,0.00012184331177335795,-0.0030730039023413253,0.000575806663421148,-0.0004931843870152657,0.0,0.0,0.0,0.0,0.0,0.0,0.0,0.0,0.0,0.0,0.0,0.0,0.0,0.0,0.0,0.0,0.0,0.0,0.0,0.0,0.0,0.0,0.0,0.0,0.0,0.0,0.0,0.0,0.0,0.0,0.0,0.0,0.0,0.0,0.0,0.0
2025/04/09 11:15:51.557620180,1744190151,557284488,world_ned,mA1/odom,1.8737455848862312,11.366371578797906,0.433686182467345,-0.0007604099021011506,0.0004322610352565952,0.0006821029195741714,0.9999993848312034,0.0,0.0,0.0,0.0,0.0,0.0,0.0,0.0,0.0,0.0,0.0,0.0,0.0,0.0,0.0,0.0,0.0,0.0,0.0,0.0,0.0,0.0,0.0,0.0,0.0,0.0,0.0,0.0,0.0,0.0,0.0,0.0,0.0,0.0,0.0,0.0,0.08292817498532551,-0.007622506972593741,0.00013792448550704065,-0.0017386961206856532,0.000974944295594811,-0.0002782084251041766,0.0,0.0,0.0,0.0,0.0,0.0,0.0,0.0,0.0,0.0,0.0,0.0,0.0,0.0,0.0,0.0,0.0,0.0,0.0,0.0,0.0,0.0,0.0,0.0,0.0,0.0,0.0,0.0,0.0,0.0,0.0,0.0,0.0,0.0,0.0,0.0
2025/04/09 11:15:51.660450852,1744190151,658191424,world_ned,mA1/odom,1.8825363829680015,11.365572602525216,0.4336940881883228,-0.000800811179197582,0.0004640622694057803,0.0006718831362917761,0.9999993459601444,0.0,0.0,0.0,0.0,0.0,0.0,0.0,0.0,0.0,0.0,0.0,0.0,0.0,0.0,0.0,0.0,0.0,0.0,0.0,0.0,0.0,0.0,0.0,0.0,0.0,0.0,0.0,0.0,0.0,0.0,0.0,0.0,0.0,0.0,0.0,0.0,0.09062522213461117,-0.00851896240023662,0.00014244287269892883,-1.796242316971712e-05,0.000712333263454609,-0.00014402804484981867,0.0,0.0,0.0,0.0,0.0,0.0,0.0,0.0,0.0,0.0,0.0,0.0,0.0,0.0,0.0,0.0,0.0,0.0,0.0,0.0,0.0,0.0,0.0,0.0,0.0,0.0,0.0,0.0,0.0,0.0,0.0,0.0,0.0,0.0,0.0,0.0
2025/04/09 11:15:51.759549550,1744190151,758982997,world_ned,mA1/odom,1.892024602475537,11.364656167257923,0.43370024034255805,-0.000746487021361336,0.0004885995245466774,0.000659461939289277,0.9999993845686017,0.0,0.0,0.0,0.0,0.0,0.0,0.0,0.0,0.0,0.0,0.0,0.0,0.0,0.0,0.0,0.0,0.0,0.0,0.0,0.0,0.0,0.0,0.0,0.0,0.0,0.0,0.0,0.0,0.0,0.0,0.0,0.0,0.0,0.0,0.0,0.0,0.10058573486684176,-0.009659516304849102,0.00014077502309962862,0.0018163492681634895,-0.00032823654636796637,-0.00024511418844214166,0.0,0.0,0.0,0.0,0.0,0.0,0.0,0.0,0.0,0.0,0.0,0.0,0.0,0.0,0.0,0.0,0.0,0.0,0.0,0.0,0.0,0.0,0.0,0.0,0.0,0.0,0.0,0.0,0.0,0.0,0.0,0.0,0.0,0.0,0.0,0.0
2025/04/09 11:15:51.860043830,1744190151,859884287,world_ned,mA1/odom,1.9020823817567223,11.363680743221476,0.4337015189160345,-0.000623776369970658,0.0005183750471990235,0.000649350055219042,0.9999994602672826,0.0,0.0,0.0,0.0,0.0,0.0,0.0,0.0,0.0,0.0,0.0,0.0,0.0,0.0,0.0,0.0,0.0,0.0,0.0,0.0,0.0,0.0,0.0,0.0,0.0,0.0,0.0,0.0,0.0,0.0,0.0,0.0,0.0,0.0,0.0,0.0,0.10507808762419232,-0.01001768378641975,7.805232153233945e-05,0.002891593668491425,5.551754626711829e-05,-0.00016386600807584742,0.0,0.0,0.0,0.0,0.0,0.0,0.0,0.0,0.0,0.0,0.0,0.0,0.0,0.0,0.0,0.0,0.0,0.0,0.0,0.0,0.0,0.0,0.0,0.0,0.0,0.0,0.0,0.0,0.0,0.0,0.0,0.0,0.0,0.0,0.0,0.0
2025/04/09 11:15:51.960959203,1744190151,960658300,world_ned,mA1/odom,1.912761492505436,11.36269196634007,0.43369765530483595,-0.000465185037390099,0.0005413761481962418,0.000643316596840314,0.9999995383291451,0.0,0.0,0.0,0.0,0.0,0.0,0.0,0.0,0.0,0.0,0.0,0.0,0.0,0.0,0.0,0.0,0.0,0.0,0.0,0.0,0.0,0.0,0.0,0.0,0.0,0.0,0.0,0.0,0.0,0.0,0.0,0.0,0.0,0.0,0.0,0.0,0.11315599045428154,-0.0099691842403297,6.0898278953625646e-05,0.003296285159407374,-0.000624443735890797,-8.201217301823703e-05,0.0,0.0,0.0,0.0,0.0,0.0,0.0,0.0,0.0,0.0,0.0,0.0,0.0,0.0,0.0,0.0,0.0,0.0,0.0,0.0,0.0,0.0,0.0,0.0,0.0,0.0,0.0,0.0,0.0,0.0,0.0,0.0,0.0,0.0,0.0,0.0
2025/04/09 11:15:52.61762755,1744190152,61582967,world_ned,mA1/odom,1.9240282024861404,11.36174141556346,0.4336905067355345,-0.0003097988338655303,0.000561205741143882,0.0006375803933119337,0.9999995912819368,0.0,0.0,0.0,0.0,0.0,0.0,0.0,0.0,0.0,0.0,0.0,0.0,0.0,0.0,0.0,0.0,0.0,0.0,0.0,0.0,0.0,0.0,0.0,0.0,0.0,0.0,0.0,0.0,0.0,0.0,0.0,0.0,0.0,0.0,0.0,0.0,0.11669921273030459,-0.009328392504885801,3.8614662538351215e-05,0.002853399672718928,-3.395368422580393e-05,-0.0001157110281956811,0.0,0.0,0.0,0.0,0.0,0.0,0.0,0.0,0.0,0.0,0.0,0.0,0.0,0.0,0.0,0.0,0.0,0.0,0.0,0.0,0.0,0.0,0.0,0.0,0.0,0.0,0.0,0.0,0.0,0.0,0.0,0.0,0.0,0.0,0.0,0.0
2025/04/09 11:15:52.163299742,1744190152,163213409,world_ned,mA1/odom,1.9359914403397553,11.360849825351162,0.433681534184029,-0.00018713642145576934,0.0005605754579165796,0.0006241175833156125,0.9999996306061107,0.0,0.0,0.0,0.0,0.0,0.0,0.0,0.0,0.0,0.0,0.0,0.0,0.0,0.0,0.0,0.0,0.0,0.0,0.0,0.0,0.0,0.0,0.0,0.0,0.0,0.0,0.0,0.0,0.0,0.0,0.0,0.0,0.0,0.0,0.0,0.0,0.12232207460375197,-0.008576296736840393,4.320534326098572e-05,0.0018866045181927917,-0.00011003605518389085,-0.00031552585845980117,0.0,0.0,0.0,0.0,0.0,0.0,0.0,0.0,0.0,0.0,0.0,0.0,0.0,0.0,0.0,0.0,0.0,0.0,0.0,0.0,0.0,0.0,0.0,0.0,0.0,0.0,0.0,0.0,0.0,0.0,0.0,0.0,0.0,0.0,0.0,0.0
2025/04/09 11:15:52.267087826,1744190152,264156000,world_ned,mA1/odom,1.9484984101474039,11.360071448364849,0.4336757486612742,-0.00013183109295491512,0.0005588946561399437,0.000612420366993153,0.9999996475992481,0.0,0.0,0.0,0.0,0.0,0.0,0.0,0.0,0.0,0.0,0.0,0.0,0.0,0.0,0.0,0.0,0.0,0.0,0.0,0.0,0.0,0.0,0.0,0.0,0.0,0.0,0.0,0.0,0.0,0.0,0.0,0.0,0.0,0.0,0.0,0.0,0.1263900675942231,-0.007347405218189651,9.949812078242627e-05,0.00037920934115965297,0.00030033746914357584,-0.0001902820811036656,0.0,0.0,0.0,0.0,0.0,0.0,0.0,0.0,0.0,0.0,0.0,0.0,0.0,0.0,0.0,0.0,0.0,0.0,0.0,0.0,0.0,0.0,0.0,0.0,0.0,0.0,0.0,0.0,0.0,0.0,0.0,0.0,0.0,0.0,0.0,0.0
2025/04/09 11:15:52.365714659,1744190152,365271390,world_ned,mA1/odom,1.9616803091691863,11.359430939136793,0.43366946938360895,-0.00016008834481704153,0.0005427752006827572,0.0006059033628297067,0.9999996563239001,0.0,0.0,0.0,0.0,0.0,0.0,0.0,0.0,0.0,0.0,0.0,0.0,0.0,0.0,0.0,0.0,0.0,0.0,0.0,0.0,0.0,0.0,0.0,0.0,0.0,0.0,0.0,0.0,0.0,0.0,0.0,0.0,0.0,0.0,0.0,0.0,0.13571040207640558,-0.006016517298927553,6.66022935181542e-05,-0.0012690850897201134,-0.000672388447445106,-0.00011183229867615653,0.0,0.0,0.0,0.0,0.0,0.0,0.0,0.0,0.0,0.0,0.0,0.0,0.0,0.0,0.0,0.0,0.0,0.0,0.0,0.0,0.0,0.0,0.0,0.0,0.0,0.0,0.0,0.0,0.0,0.0,0.0,0.0,0.0,0.0,0.0,0.0
2025/04/09 11:15:52.457002084,1744190152,456692260,world_ned,mA1/odom,1.975386333607847,11.35890167395132,0.43366414790385266,-0.0002591312446103517,0.0005386130887172786,0.0006012245034973818,0.999999640637953,0.0,0.0,0.0,0.0,0.0,0.0,0.0,0.0,0.0,0.0,0.0,0.0,0.0,0.0,0.0,0.0,0.0,0.0,0.0,0.0,0.0,0.0,0.0,0.0,0.0,0.0,0.0,0.0,0.0,0.0,0.0,0.0,0.0,0.0,0.0,0.0,0.1400548166841256,-0.005060662837070685,0.00012651810744502333,-0.0024733573620761003,-0.00011356650210665373,-8.116580290825244e-05,0.0,0.0,0.0,0.0,0.0,0.0,0.0,0.0,0.0,0.0,0.0,0.0,0.0,0.0,0.0,0.0,0.0,0.0,0.0,0.0,0.0,0.0,0.0,0.0,0.0,0.0,0.0,0.0,0.0,0.0,0.0,0.0,0.0,0.0,0.0,0.0
2025/04/09 11:15:52.557901919,1744190152,557600924,world_ned,mA1/odom,1.989948300661047,11.358448906313539,0.4336635107647793,-0.000403195683367139,0.0005040449751893042,0.0005979384193177107,0.9999996129207004,0.0,0.0,0.0,0.0,0.0,0.0,0.0,0.0,0.0,0.0,0.0,0.0,0.0,0.0,0.0,0.0,0.0,0.0,0.0,0.0,0.0,0.0,0.0,0.0,0.0,0.0,0.0,0.0,0.0,0.0,0.0,0.0,0.0,0.0,0.0,0.0,0.15418355927312757,-0.004486415825223221,0.00016034914118675828,-0.0030927327558157454,-0.0022676226618516056,-5.6452748482978316e-05,0.0,0.0,0.0,0.0,0.0,0.0,0.0,0.0,0.0,0.0,0.0,0.0,0.0,0.0,0.0,0.0,0.0,0.0,0.0,0.0,0.0,0.0,0.0,0.0,0.0,0.0,0.0,0.0,0.0,0.0,0.0,0.0,0.0,0.0,0.0,0.0
2025/04/09 11:15:52.659044740,1744190152,658783402,world_ned,mA1/odom,2.0049766874918347,11.35802694158811,0.43366528312867797,-0.0005565691365881454,0.0004998528799321619,0.0005957320213061883,0.9999995427405222,0.0,0.0,0.0,0.0,0.0,0.0,0.0,0.0,0.0,0.0,0.0,0.0,0.0,0.0,0.0,0.0,0.0,0.0,0.0,0.0,0.0,0.0,0.0,0.0,0.0,0.0,0.0,0.0,0.0,0.0,0.0,0.0,0.0,0.0,0.0,0.0,0.1530839584007265,-0.0044004138637027635,0.00017526800914027457,-0.0029273350465894962,2.041809104149182e-05,-3.692729945585208e-05,0.0,0.0,0.0,0.0,0.0,0.0,0.0,0.0,0.0,0.0,0.0,0.0,0.0,0.0,0.0,0.0,0.0,0.0,0.0,0.0,0.0,0.0,0.0,0.0,0.0,0.0,0.0,0.0,0.0,0.0,0.0,0.0,0.0,0.0,0.0,0.0
2025/04/09 11:15:52.759977837,1744190152,759664004,world_ned,mA1/odom,2.0207480931013744,11.357591005521721,0.43367021488015445,-0.000682206015006054,0.0004911121579786764,0.0005945578318102724,0.9999994699522525,0.0,0.0,0.0,0.0,0.0,0.0,0.0,0.0,0.0,0.0,0.0,0.0,0.0,0.0,0.0,0.0,0.0,0.0,0.0,0.0,0.0,0.0,0.0,0.0,0.0,0.0,0.0,0.0,0.0,0.0,0.0,0.0,0.0,0.0,0.0,0.0,0.16257137951921444,-0.004727149513800247,0.00021753767960260538,-0.0020747082747239313,-0.0006378816472866175,-1.6259469695168906e-05,0.0,0.0,0.0,0.0,0.0,0.0,0.0,0.0,0.0,0.0,0.0,0.0,0.0,0.0,0.0,0.0,0.0,0.0,0.0,0.0,0.0,0.0,0.0,0.0,0.0,0.0,0.0,0.0,0.0,0.0,0.0,0.0,0.0,0.0,0.0,0.0
2025/04/09 11:15:52.862071460,1744190152,861657253,world_ned,mA1/odom,2.037135621535965,11.35710630642426,0.4336775851706411,-0.0007515347496765847,0.0004952046094229001,0.000593953913041244,0.999999418593163,0.0,0.0,0.0,0.0,0.0,0.0,0.0,0.0,0.0,0.0,0.0,0.0,0.0,0.0,0.0,0.0,0.0,0.0,0.0,0.0,0.0,0.0,0.0,0.0,0.0,0.0,0.0,0.0,0.0,0.0,0.0,0.0,0.0,0.0,0.0,0.0,0.16933018370725766,-0.005329193204149314,0.0002450110563612836,-0.0007663102553161205,-0.0005703156736200334,-8.905314217876792e-06,0.0,0.0,0.0,0.0,0.0,0.0,0.0,0.0,0.0,0.0,0.0,0.0,0.0,0.0,0.0,0.0,0.0,0.0,0.0,0.0,0.0,0.0,0.0,0.0,0.0,0.0,0.0,0.0,0.0,0.0,0.0,0.0,0.0,0.0,0.0,0.0
2025/04/09 11:15:52.964381151,1744190152,964043551,world_ned,mA1/odom,2.054222766601547,11.356534953408351,0.4336822218472241,-0.0007435384531766749,0.0004960982054716237,0.0005936748221631452,0.9999994242935066,0.0,0.0,0.0,0.0,0.0,0.0,0.0,0.0,0.0,0.0,0.0,0.0,0.0,0.0,0.0,0.0,0.0,0.0,0.0,0.0,0.0,0.0,0.0,0.0,0.0,0.0,0.0,0.0,0.0,0.0,0.0,0.0,0.0,0.0,0.0,0.0,0.17311828696553244,-0.006247488563596339,0.0001985175636811337,0.0008291121690743984,0.00021688162225851917,3.36945192933748e-07,0.0,0.0,0.0,0.0,0.0,0.0,0.0,0.0,0.0,0.0,0.0,0.0,0.0,0.0,0.0,0.0,0.0,0.0,0.0,0.0,0.0,0.0,0.0,0.0,0.0,0.0,0.0,0.0,0.0,0.0,0.0,0.0,0.0,0.0,0.0,0.0
2025/04/09 11:15:53.67167832,1744190153,65717546,world_ned,mA1/odom,2.071901717611566,11.35590317660332,0.4336858965114753,-0.0006672473424052252,0.0005029729099749682,0.0005941662177922996,0.9999994743827326,0.0,0.0,0.0,0.0,0.0,0.0,0.0,0.0,0.0,0.0,0.0,0.0,0.0,0.0,0.0,0.0,0.0,0.0,0.0,0.0,0.0,0.0,0.0,0.0,0.0,0.0,0.0,0.0,0.0,0.0,0.0,0.0,0.0,0.0,0.0,0.0,0.1771124717361487,-0.006719937125525596,0.0002109520042318352,0.0020378644321323294,0.0008184238797253463,1.8606982294041674e-05,0.0,0.0,0.0,0.0,0.0,0.0,0.0,0.0,0.0,0.0,0.0,0.0,0.0,0.0,0.0,0.0,0.0,0.0,0.0,0.0,0.0,0.0,0.0,0.0,0.0,0.0,0.0,0.0,0.0,0.0,0.0,0.0,0.0,0.0,0.0,0.0
2025/04/09 11:15:53.157318019,1744190153,156889046,world_ned,mA1/odom,2.090167300952326,11.355240700707586,0.43368816988893466,-0.0005430932113380135,0.000512469475520237,0.0005954392289476918,0.9999995439383585,0.0,0.0,0.0,0.0,0.0,0.0,0.0,0.0,0.0,0.0,0.0,0.0,0.0,0.0,0.0,0.0,0.0,0.0,0.0,0.0,0.0,0.0,0.0,0.0,0.0,0.0,0.0,0.0,0.0,0.0,0.0,0.0,0.0,0.0,0.0,0.0,0.18923255073772252,-0.006883806928008501,0.000198441486795578,0.0027520908611884413,-0.0009439536266243979,3.356323875944031e-05,0.0,0.0,0.0,0.0,0.0,0.0,0.0,0.0,0.0,0.0,0.0,0.0,0.0,0.0,0.0,0.0,0.0,0.0,0.0,0.0,0.0,0.0,0.0,0.0,0.0,0.0,0.0,0.0,0.0,0.0,0.0,0.0,0.0,0.0,0.0,0.0
2025/04/09 11:15:53.258071425,1744190153,257877780,world_ned,mA1/odom,2.108967879396831,11.35458362206726,0.43368799700807875,-0.00040066415839443235,0.0005228636572807865,0.0005974796441749112,0.9999996045498732,0.0,0.0,0.0,0.0,0.0,0.0,0.0,0.0,0.0,0.0,0.0,0.0,0.0,0.0,0.0,0.0,0.0,0.0,0.0,0.0,0.0,0.0,0.0,0.0,0.0,0.0,0.0,0.0,0.0,0.0,0.0,0.0,0.0,0.0,0.0,0.0,0.18623496328015018,-0.006660224673821758,0.00018246174600887233,0.0028223294740128625,0.0013464347686238838,4.944495368393442e-05,0.0,0.0,0.0,0.0,0.0,0.0,0.0,0.0,0.0,0.0,0.0,0.0,0.0,0.0,0.0,0.0,0.0,0.0,0.0,0.0,0.0,0.0,0.0,0.0,0.0,0.0,0.0,0.0,0.0,0.0,0.0,0.0,0.0,0.0,0.0,0.0
2025/04/09 11:15:53.359102662,1744190153,358783984,world_ned,mA1/odom,2.128406517816705,11.353971924906137,0.4336861716740953,-0.00027367229265075886,0.0005147210223526332,0.0006003097891322726,0.9999996498968899,0.0,0.0,0.0,0.0,0.0,0.0,0.0,0.0,0.0,0.0,0.0,0.0,0.0,0.0,0.0,0.0,0.0,0.0,0.0,0.0,0.0,0.0,0.0,0.0,0.0,0.0,0.0,0.0,0.0,0.0,0.0,0.0,0.0,0.0,0.0,0.0,0.19810086769782168,-0.006050822327140194,0.0001723806476824963,0.0022254092319554655,-0.000584414526142727,6.402312042143815e-05,0.0,0.0,0.0,0.0,0.0,0.0,0.0,0.0,0.0,0.0,0.0,0.0,0.0,0.0,0.0,0.0,0.0,0.0,0.0,0.0,0.0,0.0,0.0,0.0,0.0,0.0,0.0,0.0,0.0,0.0,0.0,0.0,0.0,0.0,0.0,0.0
2025/04/09 11:15:53.463141212,1744190153,460391720,world_ned,mA1/odom,2.1483327168474666,11.353435680958572,0.43368343040404206,-0.00018997683280899056,0.000505223262395125,0.0006035440621151301,0.9999996721963579,0.0,0.0,0.0,0.0,0.0,0.0,0.0,0.0,0.0,0.0,0.0,0.0,0.0,0.0,0.0,0.0,0.0,0.0,0.0,0.0,0.0,0.0,0.0,0.0,0.0,0.0,0.0,0.0,0.0,0.0,0.0,0.0,0.0,0.0,0.0,0.0,0.2037084643502756,-0.005213595536920139,0.00018140601379172701,0.0011787816190723917,-0.000833565157486062,6.71187898364392e-05,0.0,0.0,0.0,0.0,0.0,0.0,0.0,0.0,0.0,0.0,0.0,0.0,0.0,0.0,0.0,0.0,0.0,0.0,0.0,0.0,0.0,0.0,0.0,0.0,0.0,0.0,0.0,0.0,0.0,0.0,0.0,0.0,0.0,0.0,0.0,0.0
2025/04/09 11:15:53.562071273,1744190153,561810886,world_ned,mA1/odom,2.168780026891714,11.352992311462433,0.4336810014182799,-0.00016693959887275353,0.0004903459373918668,0.0006069865286124692,0.9999996816296424,0.0,0.0,0.0,0.0,0.0,0.0,0.0,0.0,0.0,0.0,0.0,0.0,0.0,0.0,0.0,0.0,0.0,0.0,0.0,0.0,0.0,0.0,0.0,0.0,0.0,0.0,0.0,0.0,0.0,0.0,0.0,0.0,0.0,0.0,0.0,0.0,0.20755170844847484,-0.004247017090596866,0.00018196472711799966,-0.00013364630370844082,-0.0005529499013294007,7.163640886962806e-05,0.0,0.0,0.0,0.0,0.0,0.0,0.0,0.0,0.0,0.0,0.0,0.0,0.0,0.0,0.0,0.0,0.0,0.0,0.0,0.0,0.0,0.0,0.0,0.0,0.0,0.0,0.0,0.0,0.0,0.0,0.0,0.0,0.0,0.0,0.0,0.0
2025/04/09 11:15:53.663151073,1744190153,662955255,world_ned,mA1/odom,2.189775811293235,11.35264486985138,0.4336774839034756,-0.00020964368411001535,0.0004636625928640763,0.0006108371646056247,0.9999996839721921,0.0,0.0,0.0,0.0,0.0,0.0,0.0,0.0,0.0,0.0,0.0,0.0,0.0,0.0,0.0,0.0,0.0,0.0,0.0,0.0,0.0,0.0,0.0,0.0,0.0,0.0,0.0,0.0,0.0,0.0,0.0,0.0,0.0,0.0,0.0,0.0,0.20947434140771964,-0.0033299788106999958,0.00014957478165645693,-0.0014120240432686562,0.0001770910513729504,8.107725349189884e-05,0.0,0.0,0.0,0.0,0.0,0.0,0.0,0.0,0.0,0.0,0.0,0.0,0.0,0.0,0.0,0.0,0.0,0.0,0.0,0.0,0.0,0.0,0.0,0.0,0.0,0.0,0.0,0.0,0.0,0.0,0.0,0.0,0.0,0.0,0.0,0.0
2025/04/09 11:15:53.764578346,1744190153,764333974,world_ned,mA1/odom,2.2112634771863644,11.352378333476013,0.43367348586524324,-0.00030712823598687755,0.0004347689050448346,0.0006153875823913992,0.9999996689731299,0.0,0.0,0.0,0.0,0.0,0.0,0.0,0.0,0.0,0.0,0.0,0.0,0.0,0.0,0.0,0.0,0.0,0.0,0.0,0.0,0.0,0.0,0.0,0.0,0.0,0.0,0.0,0.0,0.0,0.0,0.0,0.0,0.0,0.0,0.0,0.0,0.21246645630177816,-0.002651121976883995,0.0001609261835441706,-0.0023129741814831286,0.000724887423444199,9.69687057171979e-05,0.0,0.0,0.0,0.0,0.0,0.0,0.0,0.0,0.0,0.0,0.0,0.0,0.0,0.0,0.0,0.0,0.0,0.0,0.0,0.0,0.0,0.0,0.0,0.0,0.0,0.0,0.0,0.0,0.0,0.0,0.0,0.0,0.0,0.0,0.0,0.0
2025/04/09 11:15:53.866726891,1744190153,865568118,world_ned,mA1/odom,2.2332825051600627,11.352161131890744,0.43367198150599845,-0.0004343031458381891,0.00039988237747267226,0.0006207915170912449,0.9999996330463097,0.0,0.0,0.0,0.0,0.0,0.0,0.0,0.0,0.0,0.0,0.0,0.0,0.0,0.0,0.0,0.0,0.0,0.0,0.0,0.0,0.0,0.0,0.0,0.0,0.0,0.0,0.0,0.0,0.0,0.0,0.0,0.0,0.0,0.0,0.0,0.0,0.22144517562587748,-0.002315506578476221,0.00016769664766705828,-0.002647443261763688,-0.00040791356370421653,0.0001234051732604984,0.0,0.0,0.0,0.0,0.0,0.0,0.0,0.0,0.0,0.0,0.0,0.0,0.0,0.0,0.0,0.0,0.0,0.0,0.0,0.0,0.0,0.0,0.0,0.0,0.0,0.0,0.0,0.0,0.0,0.0,0.0,0.0,0.0,0.0,0.0,0.0
2025/04/09 11:15:53.966532443,1744190153,966235675,world_ned,mA1/odom,2.2557328924046285,11.351964688097862,0.43367286089133,-0.0005632262791082987,0.00037825377974587903,0.0006292640173182701,0.9999995718634249,0.0,0.0,0.0,0.0,0.0,0.0,0.0,0.0,0.0,0.0,0.0,0.0,0.0,0.0,0.0,0.0,0.0,0.0,0.0,0.0,0.0,0.0,0.0,0.0,0.0,0.0,0.0,0.0,0.0,0.0,0.0,0.0,0.0,0.0,0.0,0.0,0.22683707012402562,-0.0022704449079524445,0.0001843380370905804,-0.0024036561319664635,-0.0004196609604125699,0.00019946976945354536,0.0,0.0,0.0,0.0,0.0,0.0,0.0,0.0,0.0,0.0,0.0,0.0,0.0,0.0,0.0,0.0,0.0,0.0,0.0,0.0,0.0,0.0,0.0,0.0,0.0,0.0,0.0,0.0,0.0,0.0,0.0,0.0,0.0,0.0,0.0,0.0
2025/04/09 11:15:54.61644663,1744190154,61392709,world_ned,mA1/odom,2.2786446927088413,11.351757581380705,0.43367592126622667,-0.0006644368226955646,0.00035995051114400857,0.0006472752457489858,0.9999995049969247,0.0,0.0,0.0,0.0,0.0,0.0,0.0,0.0,0.0,0.0,0.0,0.0,0.0,0.0,0.0,0.0,0.0,0.0,0.0,0.0,0.0,0.0,0.0,0.0,0.0,0.0,0.0,0.0,0.0,0.0,0.0,0.0,0.0,0.0,0.0,0.0,0.22918671888737974,-0.0027402653469958318,0.00019057001419713206,-0.0014803178735602303,0.0001829087156635324,0.0004173866638935381,0.0,0.0,0.0,0.0,0.0,0.0,0.0,0.0,0.0,0.0,0.0,0.0,0.0,0.0,0.0,0.0,0.0,0.0,0.0,0.0,0.0,0.0,0.0,0.0,0.0,0.0,0.0,0.0,0.0,0.0,0.0,0.0,0.0,0.0,0.0,0.0
2025/04/09 11:15:54.162554075,1744190154,162310779,world_ned,mA1/odom,2.3020198161996808,11.351443056793373,0.4336788628396698,-0.0006935450917476033,0.0003435895065785629,0.0006685864624211719,0.9999994769666627,0.0,0.0,0.0,0.0,0.0,0.0,0.0,0.0,0.0,0.0,0.0,0.0,0.0,0.0,0.0,0.0,0.0,0.0,0.0,0.0,0.0,0.0,0.0,0.0,0.0,0.0,0.0,0.0,0.0,0.0,0.0,0.0,0.0,0.0,0.0,0.0,0.23668729406575487,-0.003970606119520098,0.00018484258972750766,0.00012815279993480156,-0.0005142951227637274,0.00046727259095473217,0.0,0.0,0.0,0.0,0.0,0.0,0.0,0.0,0.0,0.0,0.0,0.0,0.0,0.0,0.0,0.0,0.0,0.0,0.0,0.0,0.0,0.0,0.0,0.0,0.0,0.0,0.0,0.0,0.0,0.0,0.0,0.0,0.0,0.0,0.0,0.0
2025/04/09 11:15:54.263823785,1744190154,263481916,world_ned,mA1/odom,2.3257797392498682,11.351020283615625,0.43368265149525564,-0.0006454699560684648,0.0003427246473228175,0.0006948568481872611,0.999999491541027,0.0,0.0,0.0,0.0,0.0,0.0,0.0,0.0,0.0,0.0,0.0,0.0,0.0,0.0,0.0,0.0,0.0,0.0,0.0,0.0,0.0,0.0,0.0,0.0,0.0,0.0,0.0,0.0,0.0,0.0,0.0,0.0,0.0,0.0,0.0,0.0,0.23743898427270152,-0.005002195347967233,0.00019841557273441064,0.0016075536750181116,0.0006492680272256076,0.0005739390601362117,0.0,0.0,0.0,0.0,0.0,0.0,0.0,0.0,0.0,0.0,0.0,0.0,0.0,0.0,0.0,0.0,0.0,0.0,0.0,0.0,0.0,0.0,0.0,0.0,0.0,0.0,0.0,0.0,0.0,0.0,0.0,0.0,0.0,0.0,0.0,0.0
