time,header_stamp_secs,header_stamp_nsecs,header_frame_id,name_0,name_1,name_2,name_3,position_0,position_1,position_2,position_3
2025/04/09 11:15:45.344123022,0,0,,mA1/azimuth_1_joint,mA1/azimuth_2_joint,mA1/azimuth_3_joint,mA1/azimuth_4_joint,2.1467549799530254,-2.2689280275926285,-0.8028514559173916,1.064650843716541
2025/04/09 11:15:45.444481719,0,0,,mA1/azimuth_1_joint,mA1/azimuth_2_joint,mA1/azimuth_3_joint,mA1/azimuth_4_joint,2.1467549799530254,-2.2689280275926285,-0.8028514559173916,1.064650843716541
2025/04/09 11:15:45.544650418,0,0,,mA1/azimuth_1_joint,mA1/azimuth_2_joint,mA1/azimuth_3_joint,mA1/azimuth_4_joint,2.1467549799530254,-2.2689280275926285,-0.8028514559173916,1.064650843716541
2025/04/09 11:15:45.644189111,0,0,,mA1/azimuth_1_joint,mA1/azimuth_2_joint,mA1/azimuth_3_joint,mA1/azimuth_4_joint,2.1467549799530254,-2.2689280275926285,-0.8028514559173916,1.064650843716541
2025/04/09 11:15:45.744214437,0,0,,mA1/azimuth_1_joint,mA1/azimuth_2_joint,mA1/azimuth_3_joint,mA1/azimuth_4_joint,2.1467549799530254,-2.2689280275926285,-0.8028514559173916,1.064650843716541
2025/04/09 11:15:45.844715042,0,0,,mA1/azimuth_1_joint,mA1/azimuth_2_joint,mA1/azimuth_3_joint,mA1/azimuth_4_joint,2.1467549799530254,-2.2689280275926285,-0.8028514559173916,1.064650843716541
2025/04/09 11:15:45.944548148,0,0,,mA1/azimuth_1_joint,mA1/azimuth_2_joint,mA1/azimuth_3_joint,mA1/azimuth_4_joint,2.1467549799530254,-2.2689280275926285,-0.8028514559173916,1.064650843716541
2025/04/09 11:15:46.44190694,0,0,,mA1/azimuth_1_joint,mA1/azimuth_2_joint,mA1/azimuth_3_joint,mA1/azimuth_4_joint,2.1467549799530254,-2.2689280275926285,-0.8028514559173916,1.064650843716541
2025/04/09 11:15:46.144179270,0,0,,mA1/azimuth_1_joint,mA1/azimuth_2_joint,mA1/azimuth_3_joint,mA1/azimuth_4_joint,2.1467549799530254,-2.2689280275926285,-0.8028514559173916,1.064650843716541
2025/04/09 11:15:46.244545664,0,0,,mA1/azimuth_1_joint,mA1/azimuth_2_joint,mA1/azimuth_3_joint,mA1/azimuth_4_joint,2.1467549799530254,-2.2689280275926285,-0.8028514559173916,1.064650843716541
2025/04/09 11:15:46.344600941,0,0,,mA1/azimuth_1_joint,mA1/azimuth_2_joint,mA1/azimuth_3_joint,mA1/azimuth_4_joint,2.1467549799530254,-2.2689280275926285,-0.8028514559173916,1.064650843716541
2025/04/09 11:15:46.444104968,0,0,,mA1/azimuth_1_joint,mA1/azimuth_2_joint,mA1/azimuth_3_joint,mA1/azimuth_4_joint,2.1467549799530254,-2.2689280275926285,-0.8552113334772214,1.064650843716541
2025/04/09 11:15:46.544303432,0,0,,mA1/azimuth_1_joint,mA1/azimuth_2_joint,mA1/azimuth_3_joint,mA1/azimuth_4_joint,2.1467549799530254,-2.2689280275926285,-0.8377580409572782,1.064650843716541
2025/04/09 11:15:46.644240956,0,0,,mA1/azimuth_1_joint,mA1/azimuth_2_joint,mA1/azimuth_3_joint,mA1/azimuth_4_joint,2.1467549799530254,-2.2689280275926285,-0.8377580409572782,1.064650843716541
2025/04/09 11:15:46.744368373,0,0,,mA1/azimuth_1_joint,mA1/azimuth_2_joint,mA1/azimuth_3_joint,mA1/azimuth_4_joint,2.1467549799530254,-2.2689280275926285,-0.8377580409572782,1.0471975511965976
2025/04/09 11:15:46.844201714,0,0,,mA1/azimuth_1_joint,mA1/azimuth_2_joint,mA1/azimuth_3_joint,mA1/azimuth_4_joint,2.1467549799530254,-2.234021442552742,-0.767944870877505,1.0471975511965976
2025/04/09 11:15:46.944332888,0,0,,mA1/azimuth_1_joint,mA1/azimuth_2_joint,mA1/azimuth_3_joint,mA1/azimuth_4_joint,2.1467549799530254,-2.234021442552742,-0.767944870877505,1.0471975511965976
2025/04/09 11:15:47.44248771,0,0,,mA1/azimuth_1_joint,mA1/azimuth_2_joint,mA1/azimuth_3_joint,mA1/azimuth_4_joint,2.1467549799530254,-2.234021442552742,-0.767944870877505,1.0471975511965976
2025/04/09 11:15:47.144374306,0,0,,mA1/azimuth_1_joint,mA1/azimuth_2_joint,mA1/azimuth_3_joint,mA1/azimuth_4_joint,2.1642082724729685,-2.234021442552742,-0.767944870877505,1.0471975511965976
2025/04/09 11:15:47.244269283,0,0,,mA1/azimuth_1_joint,mA1/azimuth_2_joint,mA1/azimuth_3_joint,mA1/azimuth_4_joint,2.1642082724729685,-2.234021442552742,-0.767944870877505,1.0471975511965976
2025/04/09 11:15:47.344342670,0,0,,mA1/azimuth_1_joint,mA1/azimuth_2_joint,mA1/azimuth_3_joint,mA1/azimuth_4_joint,2.1642082724729685,-2.303834612632515,-0.767944870877505,1.0471975511965976
2025/04/09 11:15:47.444103319,0,0,,mA1/azimuth_1_joint,mA1/azimuth_2_joint,mA1/azimuth_3_joint,mA1/azimuth_4_joint,2.1642082724729685,-2.303834612632515,-1.064650843716541,1.0297442586766545
2025/04/09 11:15:47.544401211,0,0,,mA1/azimuth_1_joint,mA1/azimuth_2_joint,mA1/azimuth_3_joint,mA1/azimuth_4_joint,2.1642082724729685,-2.303834612632515,-1.064650843716541,1.0297442586766545
2025/04/09 11:15:47.644526312,0,0,,mA1/azimuth_1_joint,mA1/azimuth_2_joint,mA1/azimuth_3_joint,mA1/azimuth_4_joint,2.1642082724729685,-2.303834612632515,-1.064650843716541,1.0297442586766545
2025/04/09 11:15:47.744251615,0,0,,mA1/azimuth_1_joint,mA1/azimuth_2_joint,mA1/azimuth_3_joint,mA1/azimuth_4_joint,2.1642082724729685,-2.303834612632515,-1.064650843716541,1.0297442586766545
2025/04/09 11:15:47.844160543,0,0,,mA1/azimuth_1_joint,mA1/azimuth_2_joint,mA1/azimuth_3_joint,mA1/azimuth_4_joint,2.1642082724729685,-2.303834612632515,-1.064650843716541,1.0297442586766545
2025/04/09 11:15:47.944230570,0,0,,mA1/azimuth_1_joint,mA1/azimuth_2_joint,mA1/azimuth_3_joint,mA1/azimuth_4_joint,2.1642082724729685,-2.303834612632515,-1.064650843716541,1.0297442586766545
2025/04/09 11:15:48.44248687,0,0,,mA1/azimuth_1_joint,mA1/azimuth_2_joint,mA1/azimuth_3_joint,mA1/azimuth_4_joint,2.1642082724729685,-2.2165681500327987,-1.064650843716541,1.0122909661567112
2025/04/09 11:15:48.144205222,0,0,,mA1/azimuth_1_joint,mA1/azimuth_2_joint,mA1/azimuth_3_joint,mA1/azimuth_4_joint,2.1642082724729685,-2.2165681500327987,-1.064650843716541,1.0122909661567112
2025/04/09 11:15:48.244136809,0,0,,mA1/azimuth_1_joint,mA1/azimuth_2_joint,mA1/azimuth_3_joint,mA1/azimuth_4_joint,2.1642082724729685,-2.2165681500327987,-1.064650843716541,1.0122909661567112
2025/04/09 11:15:48.344311179,0,0,,mA1/azimuth_1_joint,mA1/azimuth_2_joint,mA1/azimuth_3_joint,mA1/azimuth_4_joint,2.1642082724729685,-2.234021442552742,-1.0471975511965976,1.0122909661567112
2025/04/09 11:15:48.444070794,0,0,,mA1/azimuth_1_joint,mA1/azimuth_2_joint,mA1/azimuth_3_joint,mA1/azimuth_4_joint,2.1642082724729685,-2.234021442552742,-1.0471975511965976,1.0122909661567112
2025/04/09 11:15:48.544147322,0,0,,mA1/azimuth_1_joint,mA1/azimuth_2_joint,mA1/azimuth_3_joint,mA1/azimuth_4_joint,2.181661564992912,-2.234021442552742,-1.0471975511965976,1.0122909661567112
2025/04/09 11:15:48.644239277,0,0,,mA1/azimuth_1_joint,mA1/azimuth_2_joint,mA1/azimuth_3_joint,mA1/azimuth_4_joint,2.181661564992912,-2.0420352248333655,-1.0471975511965976,1.0122909661567112
2025/04/09 11:15:48.744284622,0,0,,mA1/azimuth_1_joint,mA1/azimuth_2_joint,mA1/azimuth_3_joint,mA1/azimuth_4_joint,2.181661564992912,-2.059488517353309,-1.0471975511965976,0.9948376736367679
2025/04/09 11:15:48.844536252,0,0,,mA1/azimuth_1_joint,mA1/azimuth_2_joint,mA1/azimuth_3_joint,mA1/azimuth_4_joint,2.181661564992912,-2.059488517353309,-1.0471975511965976,0.9948376736367679
2025/04/09 11:15:48.944280958,0,0,,mA1/azimuth_1_joint,mA1/azimuth_2_joint,mA1/azimuth_3_joint,mA1/azimuth_4_joint,2.199114857512855,-2.059488517353309,-1.0471975511965976,0.9773843811168246
2025/04/09 11:15:49.44138686,0,0,,mA1/azimuth_1_joint,mA1/azimuth_2_joint,mA1/azimuth_3_joint,mA1/azimuth_4_joint,2.199114857512855,-2.059488517353309,-0.7330382858376184,0.6283185307179586
2025/04/09 11:15:49.144291434,0,0,,mA1/azimuth_1_joint,mA1/azimuth_2_joint,mA1/azimuth_3_joint,mA1/azimuth_4_joint,2.199114857512855,-2.059488517353309,-0.5410520681182421,0.4537856055185257
2025/04/09 11:15:49.244311664,0,0,,mA1/azimuth_1_joint,mA1/azimuth_2_joint,mA1/azimuth_3_joint,mA1/azimuth_4_joint,2.199114857512855,-2.076941809873252,-0.4363323129985824,0.3490658503988659
2025/04/09 11:15:49.344780692,0,0,,mA1/azimuth_1_joint,mA1/azimuth_2_joint,mA1/azimuth_3_joint,mA1/azimuth_4_joint,2.199114857512855,-2.076941809873252,-0.3490658503988659,0.2792526803190927
2025/04/09 11:15:49.444089992,0,0,,mA1/azimuth_1_joint,mA1/azimuth_2_joint,mA1/azimuth_3_joint,mA1/azimuth_4_joint,2.199114857512855,-2.076941809873252,-0.29670597283903605,0.22689280275926285
2025/04/09 11:15:49.543996326,0,0,,mA1/azimuth_1_joint,mA1/azimuth_2_joint,mA1/azimuth_3_joint,mA1/azimuth_4_joint,2.199114857512855,-2.076941809873252,-0.3141592653589793,0.19198621771937624
2025/04/09 11:15:49.645765884,0,0,,mA1/azimuth_1_joint,mA1/azimuth_2_joint,mA1/azimuth_3_joint,mA1/azimuth_4_joint,2.199114857512855,-2.076941809873252,-0.3141592653589793,0.19198621771937624
2025/04/09 11:15:49.744558462,0,0,,mA1/azimuth_1_joint,mA1/azimuth_2_joint,mA1/azimuth_3_joint,mA1/azimuth_4_joint,2.199114857512855,-2.076941809873252,-0.2792526803190927,0.17453292519943295
2025/04/09 11:15:49.845317134,0,0,,mA1/azimuth_1_joint,mA1/azimuth_2_joint,mA1/azimuth_3_joint,mA1/azimuth_4_joint,2.199114857512855,-2.076941809873252,-0.2792526803190927,0.17453292519943295
2025/04/09 11:15:49.944098057,0,0,,mA1/azimuth_1_joint,mA1/azimuth_2_joint,mA1/azimuth_3_joint,mA1/azimuth_4_joint,2.199114857512855,-2.0420352248333655,-0.22689280275926285,0.13962634015954636
2025/04/09 11:15:50.44143712,0,0,,mA1/azimuth_1_joint,mA1/azimuth_2_joint,mA1/azimuth_3_joint,mA1/azimuth_4_joint,2.199114857512855,-2.0420352248333655,-0.19198621771937624,0.10471975511965978
2025/04/09 11:15:50.144302213,0,0,,mA1/azimuth_1_joint,mA1/azimuth_2_joint,mA1/azimuth_3_joint,mA1/azimuth_4_joint,2.199114857512855,-1.9896753472735358,-0.19198621771937624,0.10471975511965978
2025/04/09 11:15:50.244250507,0,0,,mA1/azimuth_1_joint,mA1/azimuth_2_joint,mA1/azimuth_3_joint,mA1/azimuth_4_joint,2.199114857512855,-1.9896753472735358,-0.17453292519943295,0.08726646259971647
2025/04/09 11:15:50.344202209,0,0,,mA1/azimuth_1_joint,mA1/azimuth_2_joint,mA1/azimuth_3_joint,mA1/azimuth_4_joint,2.199114857512855,-1.9896753472735358,-0.17453292519943295,0.08726646259971647
2025/04/09 11:15:50.444048384,0,0,,mA1/azimuth_1_joint,mA1/azimuth_2_joint,mA1/azimuth_3_joint,mA1/azimuth_4_joint,2.199114857512855,-1.9896753472735358,-0.15707963267948966,0.08726646259971647
2025/04/09 11:15:50.544283651,0,0,,mA1/azimuth_1_joint,mA1/azimuth_2_joint,mA1/azimuth_3_joint,mA1/azimuth_4_joint,2.199114857512855,-1.9896753472735358,-0.13962634015954636,0.10471975511965978
2025/04/09 11:15:50.644667006,0,0,,mA1/azimuth_1_joint,mA1/azimuth_2_joint,mA1/azimuth_3_joint,mA1/azimuth_4_joint,1.9722220547535925,-2.007128639793479,-0.13962634015954636,0.12217304763960307
2025/04/09 11:15:50.744276056,0,0,,mA1/azimuth_1_joint,mA1/azimuth_2_joint,mA1/azimuth_3_joint,mA1/azimuth_4_joint,1.9722220547535925,-2.007128639793479,-0.12217304763960307,0.10471975511965978
2025/04/09 11:15:50.844187637,0,0,,mA1/azimuth_1_joint,mA1/azimuth_2_joint,mA1/azimuth_3_joint,mA1/azimuth_4_joint,1.9722220547535925,-2.007128639793479,-0.12217304763960307,0.10471975511965978
2025/04/09 11:15:50.944226701,0,0,,mA1/azimuth_1_joint,mA1/azimuth_2_joint,mA1/azimuth_3_joint,mA1/azimuth_4_joint,1.9896753472735358,-2.007128639793479,-0.12217304763960307,0.10471975511965978
2025/04/09 11:15:51.44383247,0,0,,mA1/azimuth_1_joint,mA1/azimuth_2_joint,mA1/azimuth_3_joint,mA1/azimuth_4_joint,1.9896753472735358,-2.007128639793479,-0.10471975511965978,0.08726646259971647
2025/04/09 11:15:51.144230916,0,0,,mA1/azimuth_1_joint,mA1/azimuth_2_joint,mA1/azimuth_3_joint,mA1/azimuth_4_joint,1.9896753472735358,-2.007128639793479,-0.10471975511965978,0.08726646259971647
2025/04/09 11:15:51.244550138,0,0,,mA1/azimuth_1_joint,mA1/azimuth_2_joint,mA1/azimuth_3_joint,mA1/azimuth_4_joint,1.9896753472735358,-2.007128639793479,-0.10471975511965978,0.08726646259971647
2025/04/09 11:15:51.344724456,0,0,,mA1/azimuth_1_joint,mA1/azimuth_2_joint,mA1/azimuth_3_joint,mA1/azimuth_4_joint,1.9896753472735358,-2.007128639793479,-0.10471975511965978,0.08726646259971647
2025/04/09 11:15:51.444186368,0,0,,mA1/azimuth_1_joint,mA1/azimuth_2_joint,mA1/azimuth_3_joint,mA1/azimuth_4_joint,1.9896753472735358,-2.007128639793479,-0.10471975511965978,0.06981317007977318
2025/04/09 11:15:51.544619721,0,0,,mA1/azimuth_1_joint,mA1/azimuth_2_joint,mA1/azimuth_3_joint,mA1/azimuth_4_joint,1.9896753472735358,-2.007128639793479,-0.10471975511965978,0.06981317007977318
2025/04/09 11:15:51.644715084,0,0,,mA1/azimuth_1_joint,mA1/azimuth_2_joint,mA1/azimuth_3_joint,mA1/azimuth_4_joint,1.9896753472735358,-2.007128639793479,-0.08726646259971647,0.06981317007977318
2025/04/09 11:15:51.744046342,0,0,,mA1/azimuth_1_joint,mA1/azimuth_2_joint,mA1/azimuth_3_joint,mA1/azimuth_4_joint,1.9896753472735358,-2.007128639793479,-0.08726646259971647,0.06981317007977318
2025/04/09 11:15:51.844201662,0,0,,mA1/azimuth_1_joint,mA1/azimuth_2_joint,mA1/azimuth_3_joint,mA1/azimuth_4_joint,1.9896753472735358,-2.007128639793479,-0.08726646259971647,0.06981317007977318
2025/04/09 11:15:51.944055370,0,0,,mA1/azimuth_1_joint,mA1/azimuth_2_joint,mA1/azimuth_3_joint,mA1/azimuth_4_joint,1.9896753472735358,-2.007128639793479,-0.08726646259971647,0.08726646259971647
2025/04/09 11:15:52.44208656,0,0,,mA1/azimuth_1_joint,mA1/azimuth_2_joint,mA1/azimuth_3_joint,mA1/azimuth_4_joint,1.9896753472735358,-2.007128639793479,-0.06981317007977318,0.08726646259971647
2025/04/09 11:15:52.144976487,0,0,,mA1/azimuth_1_joint,mA1/azimuth_2_joint,mA1/azimuth_3_joint,mA1/azimuth_4_joint,1.9896753472735358,-2.007128639793479,-0.06981317007977318,0.06981317007977318
2025/04/09 11:15:52.244424191,0,0,,mA1/azimuth_1_joint,mA1/azimuth_2_joint,mA1/azimuth_3_joint,mA1/azimuth_4_joint,1.9896753472735358,-2.0245819323134224,-0.06981317007977318,0.06981317007977318
2025/04/09 11:15:52.345415924,0,0,,mA1/azimuth_1_joint,mA1/azimuth_2_joint,mA1/azimuth_3_joint,mA1/azimuth_4_joint,1.9896753472735358,-2.0245819323134224,-0.06981317007977318,0.06981317007977318
2025/04/09 11:15:52.444353557,0,0,,mA1/azimuth_1_joint,mA1/azimuth_2_joint,mA1/azimuth_3_joint,mA1/azimuth_4_joint,1.9896753472735358,-2.0245819323134224,-0.06981317007977318,0.06981317007977318
2025/04/09 11:15:52.544482274,0,0,,mA1/azimuth_1_joint,mA1/azimuth_2_joint,mA1/azimuth_3_joint,mA1/azimuth_4_joint,2.007128639793479,-2.0245819323134224,-0.06981317007977318,0.06981317007977318
2025/04/09 11:15:52.644367681,0,0,,mA1/azimuth_1_joint,mA1/azimuth_2_joint,mA1/azimuth_3_joint,mA1/azimuth_4_joint,2.007128639793479,-2.0245819323134224,-0.06981317007977318,0.06981317007977318
2025/04/09 11:15:52.744242451,0,0,,mA1/azimuth_1_joint,mA1/azimuth_2_joint,mA1/azimuth_3_joint,mA1/azimuth_4_joint,2.007128639793479,-2.0245819323134224,-0.06981317007977318,0.06981317007977318
2025/04/09 11:15:52.844237583,0,0,,mA1/azimuth_1_joint,mA1/azimuth_2_joint,mA1/azimuth_3_joint,mA1/azimuth_4_joint,2.007128639793479,-2.0245819323134224,-0.05235987755982989,0.05235987755982989
2025/04/09 11:15:52.945137954,0,0,,mA1/azimuth_1_joint,mA1/azimuth_2_joint,mA1/azimuth_3_joint,mA1/azimuth_4_joint,2.007128639793479,-2.0245819323134224,-0.05235987755982989,0.05235987755982989
2025/04/09 11:15:53.45656424,0,0,,mA1/azimuth_1_joint,mA1/azimuth_2_joint,mA1/azimuth_3_joint,mA1/azimuth_4_joint,2.007128639793479,-2.0245819323134224,-0.05235987755982989,0.05235987755982989
2025/04/09 11:15:53.144224014,0,0,,mA1/azimuth_1_joint,mA1/azimuth_2_joint,mA1/azimuth_3_joint,mA1/azimuth_4_joint,2.007128639793479,-2.0245819323134224,-0.05235987755982989,0.05235987755982989
2025/04/09 11:15:53.244367680,0,0,,mA1/azimuth_1_joint,mA1/azimuth_2_joint,mA1/azimuth_3_joint,mA1/azimuth_4_joint,2.007128639793479,-2.0245819323134224,-0.05235987755982989,0.05235987755982989
2025/04/09 11:15:53.344247443,0,0,,mA1/azimuth_1_joint,mA1/azimuth_2_joint,mA1/azimuth_3_joint,mA1/azimuth_4_joint,2.007128639793479,-2.0245819323134224,-0.05235987755982989,0.05235987755982989
2025/04/09 11:15:53.444353359,0,0,,mA1/azimuth_1_joint,mA1/azimuth_2_joint,mA1/azimuth_3_joint,mA1/azimuth_4_joint,2.007128639793479,-2.0245819323134224,-0.05235987755982989,0.05235987755982989
2025/04/09 11:15:53.544149212,0,0,,mA1/azimuth_1_joint,mA1/azimuth_2_joint,mA1/azimuth_3_joint,mA1/azimuth_4_joint,2.007128639793479,-2.0245819323134224,-0.05235987755982989,0.05235987755982989
2025/04/09 11:15:53.644112828,0,0,,mA1/azimuth_1_joint,mA1/azimuth_2_joint,mA1/azimuth_3_joint,mA1/azimuth_4_joint,2.007128639793479,-2.0245819323134224,-0.05235987755982989,0.05235987755982989
2025/04/09 11:15:53.744822038,0,0,,mA1/azimuth_1_joint,mA1/azimuth_2_joint,mA1/azimuth_3_joint,mA1/azimuth_4_joint,2.007128639793479,-2.0245819323134224,-0.05235987755982989,0.05235987755982989
2025/04/09 11:15:53.844273279,0,0,,mA1/azimuth_1_joint,mA1/azimuth_2_joint,mA1/azimuth_3_joint,mA1/azimuth_4_joint,2.007128639793479,-2.0420352248333655,-0.05235987755982989,0.05235987755982989
2025/04/09 11:15:53.944054633,0,0,,mA1/azimuth_1_joint,mA1/azimuth_2_joint,mA1/azimuth_3_joint,mA1/azimuth_4_joint,2.007128639793479,-1.9722220547535925,-0.08726646259971647,0.05235987755982989
2025/04/09 11:15:54.44045985,0,0,,mA1/azimuth_1_joint,mA1/azimuth_2_joint,mA1/azimuth_3_joint,mA1/azimuth_4_joint,2.0245819323134224,-1.9722220547535925,-0.08726646259971647,0.05235987755982989
2025/04/09 11:15:54.144008242,0,0,,mA1/azimuth_1_joint,mA1/azimuth_2_joint,mA1/azimuth_3_joint,mA1/azimuth_4_joint,2.0245819323134224,-1.9722220547535925,-0.08726646259971647,0.05235987755982989
2025/04/09 11:15:54.244126708,0,0,,mA1/azimuth_1_joint,mA1/azimuth_2_joint,mA1/azimuth_3_joint,mA1/azimuth_4_joint,2.0245819323134224,-1.9722220547535925,-0.06981317007977318,0.06981317007977318
2025/04/09 11:15:54.344430760,0,0,,mA1/azimuth_1_joint,mA1/azimuth_2_joint,mA1/azimuth_3_joint,mA1/azimuth_4_joint,2.0245819323134224,-1.9722220547535925,-0.06981317007977318,0.06981317007977318
2025/04/09 11:15:54.444440009,0,0,,mA1/azimuth_1_joint,mA1/azimuth_2_joint,mA1/azimuth_3_joint,mA1/azimuth_4_joint,2.0245819323134224,-1.9722220547535925,-0.06981317007977318,0.06981317007977318
2025/04/09 11:15:54.544068121,0,0,,mA1/azimuth_1_joint,mA1/azimuth_2_joint,mA1/azimuth_3_joint,mA1/azimuth_4_joint,2.0245819323134224,-1.9896753472735358,-0.06981317007977318,0.06981317007977318
2025/04/09 11:15:54.644076989,0,0,,mA1/azimuth_1_joint,mA1/azimuth_2_joint,mA1/azimuth_3_joint,mA1/azimuth_4_joint,2.0245819323134224,-1.9896753472735358,-0.06981317007977318,0.06981317007977318
2025/04/09 11:15:54.744188373,0,0,,mA1/azimuth_1_joint,mA1/azimuth_2_joint,mA1/azimuth_3_joint,mA1/azimuth_4_joint,2.0245819323134224,-1.9896753472735358,-0.06981317007977318,0.06981317007977318
2025/04/09 11:15:54.844003277,0,0,,mA1/azimuth_1_joint,mA1/azimuth_2_joint,mA1/azimuth_3_joint,mA1/azimuth_4_joint,2.0245819323134224,-1.9896753472735358,-0.06981317007977318,0.06981317007977318
2025/04/09 11:15:54.944116347,0,0,,mA1/azimuth_1_joint,mA1/azimuth_2_joint,mA1/azimuth_3_joint,mA1/azimuth_4_joint,2.0245819323134224,-1.9896753472735358,-0.06981317007977318,0.06981317007977318
2025/04/09 11:15:55.44285022,0,0,,mA1/azimuth_1_joint,mA1/azimuth_2_joint,mA1/azimuth_3_joint,mA1/azimuth_4_joint,2.0245819323134224,-1.9896753472735358,-0.06981317007977318,0.06981317007977318
2025/04/09 11:15:55.144464174,0,0,,mA1/azimuth_1_joint,mA1/azimuth_2_joint,mA1/azimuth_3_joint,mA1/azimuth_4_joint,2.0245819323134224,-1.9896753472735358,-0.06981317007977318,0.06981317007977318
2025/04/09 11:15:55.244100718,0,0,,mA1/azimuth_1_joint,mA1/azimuth_2_joint,mA1/azimuth_3_joint,mA1/azimuth_4_joint,2.007128639793479,-1.9896753472735358,-0.06981317007977318,0.06981317007977318
2025/04/09 11:15:55.344249387,0,0,,mA1/azimuth_1_joint,mA1/azimuth_2_joint,mA1/azimuth_3_joint,mA1/azimuth_4_joint,2.007128639793479,-1.9896753472735358,-0.06981317007977318,0.06981317007977318
2025/04/09 11:15:55.444185988,0,0,,mA1/azimuth_1_joint,mA1/azimuth_2_joint,mA1/azimuth_3_joint,mA1/azimuth_4_joint,2.007128639793479,-1.9896753472735358,-0.06981317007977318,0.06981317007977318
2025/04/09 11:15:55.544167149,0,0,,mA1/azimuth_1_joint,mA1/azimuth_2_joint,mA1/azimuth_3_joint,mA1/azimuth_4_joint,1.9198621771937625,-1.9896753472735358,-0.06981317007977318,0.06981317007977318
2025/04/09 11:15:55.644469707,0,0,,mA1/azimuth_1_joint,mA1/azimuth_2_joint,mA1/azimuth_3_joint,mA1/azimuth_4_joint,1.9198621771937625,-1.9896753472735358,-0.06981317007977318,0.06981317007977318
2025/04/09 11:15:55.745762684,0,0,,mA1/azimuth_1_joint,mA1/azimuth_2_joint,mA1/azimuth_3_joint,mA1/azimuth_4_joint,1.9198621771937625,-1.9896753472735358,-0.06981317007977318,0.06981317007977318
2025/04/09 11:15:55.844118911,0,0,,mA1/azimuth_1_joint,mA1/azimuth_2_joint,mA1/azimuth_3_joint,mA1/azimuth_4_joint,1.9198621771937625,-1.9896753472735358,-0.06981317007977318,0.06981317007977318
2025/04/09 11:15:55.944705905,0,0,,mA1/azimuth_1_joint,mA1/azimuth_2_joint,mA1/azimuth_3_joint,mA1/azimuth_4_joint,1.9198621771937625,-2.007128639793479,-0.05235987755982989,0.06981317007977318
2025/04/09 11:15:56.44141794,0,0,,mA1/azimuth_1_joint,mA1/azimuth_2_joint,mA1/azimuth_3_joint,mA1/azimuth_4_joint,1.9198621771937625,-2.007128639793479,-0.05235987755982989,0.06981317007977318
2025/04/09 11:15:56.144409035,0,0,,mA1/azimuth_1_joint,mA1/azimuth_2_joint,mA1/azimuth_3_joint,mA1/azimuth_4_joint,1.9198621771937625,-2.007128639793479,-0.05235987755982989,0.05235987755982989
2025/04/09 11:15:56.244063585,0,0,,mA1/azimuth_1_joint,mA1/azimuth_2_joint,mA1/azimuth_3_joint,mA1/azimuth_4_joint,1.9198621771937625,-2.007128639793479,-0.05235987755982989,0.05235987755982989
2025/04/09 11:15:56.344368218,0,0,,mA1/azimuth_1_joint,mA1/azimuth_2_joint,mA1/azimuth_3_joint,mA1/azimuth_4_joint,1.9198621771937625,-2.007128639793479,-0.05235987755982989,0.05235987755982989
2025/04/09 11:15:56.444130491,0,0,,mA1/azimuth_1_joint,mA1/azimuth_2_joint,mA1/azimuth_3_joint,mA1/azimuth_4_joint,1.9198621771937625,-2.007128639793479,-0.05235987755982989,0.05235987755982989
2025/04/09 11:15:56.544062846,0,0,,mA1/azimuth_1_joint,mA1/azimuth_2_joint,mA1/azimuth_3_joint,mA1/azimuth_4_joint,1.9373154697137058,-2.007128639793479,-0.05235987755982989,0.05235987755982989
2025/04/09 11:15:56.644443317,0,0,,mA1/azimuth_1_joint,mA1/azimuth_2_joint,mA1/azimuth_3_joint,mA1/azimuth_4_joint,1.9373154697137058,-2.007128639793479,-0.05235987755982989,0.05235987755982989
2025/04/09 11:15:56.744656236,0,0,,mA1/azimuth_1_joint,mA1/azimuth_2_joint,mA1/azimuth_3_joint,mA1/azimuth_4_joint,1.9373154697137058,-2.007128639793479,-0.05235987755982989,0.05235987755982989
2025/04/09 11:15:56.844092779,0,0,,mA1/azimuth_1_joint,mA1/azimuth_2_joint,mA1/azimuth_3_joint,mA1/azimuth_4_joint,1.9373154697137058,-2.007128639793479,-0.05235987755982989,0.05235987755982989
2025/04/09 11:15:56.944668629,0,0,,mA1/azimuth_1_joint,mA1/azimuth_2_joint,mA1/azimuth_3_joint,mA1/azimuth_4_joint,1.9373154697137058,-1.9722220547535925,-0.06981317007977318,0.05235987755982989
2025/04/09 11:15:57.44351988,0,0,,mA1/azimuth_1_joint,mA1/azimuth_2_joint,mA1/azimuth_3_joint,mA1/azimuth_4_joint,1.9373154697137058,-1.9547687622336491,-0.06981317007977318,0.05235987755982989
2025/04/09 11:15:57.144140916,0,0,,mA1/azimuth_1_joint,mA1/azimuth_2_joint,mA1/azimuth_3_joint,mA1/azimuth_4_joint,1.9373154697137058,-1.9722220547535925,-0.06981317007977318,0.05235987755982989
2025/04/09 11:15:57.245334709,0,0,,mA1/azimuth_1_joint,mA1/azimuth_2_joint,mA1/azimuth_3_joint,mA1/azimuth_4_joint,1.9373154697137058,-1.9722220547535925,-0.06981317007977318,0.06981317007977318
2025/04/09 11:15:57.344754415,0,0,,mA1/azimuth_1_joint,mA1/azimuth_2_joint,mA1/azimuth_3_joint,mA1/azimuth_4_joint,1.9024088846738192,-1.9722220547535925,-0.06981317007977318,0.06981317007977318
2025/04/09 11:15:57.444215617,0,0,,mA1/azimuth_1_joint,mA1/azimuth_2_joint,mA1/azimuth_3_joint,mA1/azimuth_4_joint,1.9024088846738192,-1.9722220547535925,-0.06981317007977318,0.06981317007977318
2025/04/09 11:15:57.544033702,0,0,,mA1/azimuth_1_joint,mA1/azimuth_2_joint,mA1/azimuth_3_joint,mA1/azimuth_4_joint,1.9024088846738192,-1.9722220547535925,-0.06981317007977318,0.06981317007977318
2025/04/09 11:15:57.644262980,0,0,,mA1/azimuth_1_joint,mA1/azimuth_2_joint,mA1/azimuth_3_joint,mA1/azimuth_4_joint,1.9024088846738192,-1.9722220547535925,-0.06981317007977318,0.06981317007977318
2025/04/09 11:15:57.744202465,0,0,,mA1/azimuth_1_joint,mA1/azimuth_2_joint,mA1/azimuth_3_joint,mA1/azimuth_4_joint,1.9024088846738192,-1.9722220547535925,-0.06981317007977318,0.06981317007977318
2025/04/09 11:15:57.844493821,0,0,,mA1/azimuth_1_joint,mA1/azimuth_2_joint,mA1/azimuth_3_joint,mA1/azimuth_4_joint,1.9024088846738192,-1.9722220547535925,-0.06981317007977318,0.06981317007977318
2025/04/09 11:15:57.944095483,0,0,,mA1/azimuth_1_joint,mA1/azimuth_2_joint,mA1/azimuth_3_joint,mA1/azimuth_4_joint,1.9024088846738192,-1.9722220547535925,-0.06981317007977318,0.06981317007977318
2025/04/09 11:15:58.44316118,0,0,,mA1/azimuth_1_joint,mA1/azimuth_2_joint,mA1/azimuth_3_joint,mA1/azimuth_4_joint,1.9024088846738192,-1.9722220547535925,-0.06981317007977318,0.06981317007977318
2025/04/09 11:15:58.144778706,0,0,,mA1/azimuth_1_joint,mA1/azimuth_2_joint,mA1/azimuth_3_joint,mA1/azimuth_4_joint,1.9024088846738192,-1.9722220547535925,-0.06981317007977318,0.06981317007977318
2025/04/09 11:15:58.244426470,0,0,,mA1/azimuth_1_joint,mA1/azimuth_2_joint,mA1/azimuth_3_joint,mA1/azimuth_4_joint,1.9024088846738192,-1.9722220547535925,-0.06981317007977318,0.06981317007977318
2025/04/09 11:15:58.344826771,0,0,,mA1/azimuth_1_joint,mA1/azimuth_2_joint,mA1/azimuth_3_joint,mA1/azimuth_4_joint,1.9198621771937625,-1.9722220547535925,-0.05235987755982989,0.06981317007977318
2025/04/09 11:15:58.444292866,0,0,,mA1/azimuth_1_joint,mA1/azimuth_2_joint,mA1/azimuth_3_joint,mA1/azimuth_4_joint,1.9198621771937625,-1.9896753472735358,-0.05235987755982989,0.06981317007977318
2025/04/09 11:15:58.544033946,0,0,,mA1/azimuth_1_joint,mA1/azimuth_2_joint,mA1/azimuth_3_joint,mA1/azimuth_4_joint,1.9198621771937625,-1.9896753472735358,-0.05235987755982989,0.06981317007977318
2025/04/09 11:15:58.644234584,0,0,,mA1/azimuth_1_joint,mA1/azimuth_2_joint,mA1/azimuth_3_joint,mA1/azimuth_4_joint,1.9198621771937625,-1.9896753472735358,-0.05235987755982989,0.06981317007977318
2025/04/09 11:15:58.744132764,0,0,,mA1/azimuth_1_joint,mA1/azimuth_2_joint,mA1/azimuth_3_joint,mA1/azimuth_4_joint,1.9198621771937625,-1.8675022996339325,-0.06981317007977318,0.06981317007977318
2025/04/09 11:15:58.844831155,0,0,,mA1/azimuth_1_joint,mA1/azimuth_2_joint,mA1/azimuth_3_joint,mA1/azimuth_4_joint,1.9198621771937625,-1.8675022996339325,-0.06981317007977318,0.06981317007977318
2025/04/09 11:15:58.944745303,0,0,,mA1/azimuth_1_joint,mA1/azimuth_2_joint,mA1/azimuth_3_joint,mA1/azimuth_4_joint,1.9198621771937625,-1.8675022996339325,-0.06981317007977318,0.06981317007977318
2025/04/09 11:15:59.45361834,0,0,,mA1/azimuth_1_joint,mA1/azimuth_2_joint,mA1/azimuth_3_joint,mA1/azimuth_4_joint,1.9198621771937625,-1.8675022996339325,-0.06981317007977318,0.06981317007977318
2025/04/09 11:15:59.144224115,0,0,,mA1/azimuth_1_joint,mA1/azimuth_2_joint,mA1/azimuth_3_joint,mA1/azimuth_4_joint,1.9198621771937625,-1.8675022996339325,-0.06981317007977318,0.06981317007977318
2025/04/09 11:15:59.245372108,0,0,,mA1/azimuth_1_joint,mA1/azimuth_2_joint,mA1/azimuth_3_joint,mA1/azimuth_4_joint,1.9198621771937625,-1.8675022996339325,-0.06981317007977318,0.06981317007977318
2025/04/09 11:15:59.344777877,0,0,,mA1/azimuth_1_joint,mA1/azimuth_2_joint,mA1/azimuth_3_joint,mA1/azimuth_4_joint,1.7976891295541595,-1.8675022996339325,-0.06981317007977318,0.08726646259971647
2025/04/09 11:15:59.444595892,0,0,,mA1/azimuth_1_joint,mA1/azimuth_2_joint,mA1/azimuth_3_joint,mA1/azimuth_4_joint,1.8151424220741028,-1.8675022996339325,-0.06981317007977318,0.08726646259971647
2025/04/09 11:15:59.544121455,0,0,,mA1/azimuth_1_joint,mA1/azimuth_2_joint,mA1/azimuth_3_joint,mA1/azimuth_4_joint,1.8151424220741028,-1.8675022996339325,-0.06981317007977318,0.08726646259971647
2025/04/09 11:15:59.644186545,0,0,,mA1/azimuth_1_joint,mA1/azimuth_2_joint,mA1/azimuth_3_joint,mA1/azimuth_4_joint,1.8151424220741028,-1.8675022996339325,-0.06981317007977318,0.08726646259971647
2025/04/09 11:15:59.744090583,0,0,,mA1/azimuth_1_joint,mA1/azimuth_2_joint,mA1/azimuth_3_joint,mA1/azimuth_4_joint,1.8151424220741028,-1.8675022996339325,-0.06981317007977318,0.10471975511965978
2025/04/09 11:15:59.844561946,0,0,,mA1/azimuth_1_joint,mA1/azimuth_2_joint,mA1/azimuth_3_joint,mA1/azimuth_4_joint,1.8151424220741028,-1.8849555921538759,-0.06981317007977318,0.10471975511965978
2025/04/09 11:15:59.944053241,0,0,,mA1/azimuth_1_joint,mA1/azimuth_2_joint,mA1/azimuth_3_joint,mA1/azimuth_4_joint,1.8151424220741028,-1.8849555921538759,-0.06981317007977318,0.10471975511965978
2025/04/09 11:16:00.44242698,0,0,,mA1/azimuth_1_joint,mA1/azimuth_2_joint,mA1/azimuth_3_joint,mA1/azimuth_4_joint,1.9373154697137058,-1.8849555921538759,-0.08726646259971647,0.10471975511965978
2025/04/09 11:16:00.144909727,0,0,,mA1/azimuth_1_joint,mA1/azimuth_2_joint,mA1/azimuth_3_joint,mA1/azimuth_4_joint,1.9373154697137058,-2.1642082724729685,-0.08726646259971647,0.10471975511965978
2025/04/09 11:16:00.244241892,0,0,,mA1/azimuth_1_joint,mA1/azimuth_2_joint,mA1/azimuth_3_joint,mA1/azimuth_4_joint,1.9373154697137058,-2.1642082724729685,-0.08726646259971647,0.10471975511965978
2025/04/09 11:16:00.344122571,0,0,,mA1/azimuth_1_joint,mA1/azimuth_2_joint,mA1/azimuth_3_joint,mA1/azimuth_4_joint,1.9373154697137058,-2.1642082724729685,-0.08726646259971647,0.10471975511965978
2025/04/09 11:16:00.445696144,0,0,,mA1/azimuth_1_joint,mA1/azimuth_2_joint,mA1/azimuth_3_joint,mA1/azimuth_4_joint,1.9373154697137058,-2.1642082724729685,-0.08726646259971647,0.10471975511965978
2025/04/09 11:16:00.545623719,0,0,,mA1/azimuth_1_joint,mA1/azimuth_2_joint,mA1/azimuth_3_joint,mA1/azimuth_4_joint,2.059488517353309,-2.1642082724729685,-0.08726646259971647,0.10471975511965978
2025/04/09 11:16:00.644055398,0,0,,mA1/azimuth_1_joint,mA1/azimuth_2_joint,mA1/azimuth_3_joint,mA1/azimuth_4_joint,2.059488517353309,-2.1642082724729685,-0.08726646259971647,0.10471975511965978
2025/04/09 11:16:00.744051322,0,0,,mA1/azimuth_1_joint,mA1/azimuth_2_joint,mA1/azimuth_3_joint,mA1/azimuth_4_joint,2.059488517353309,-2.1642082724729685,-0.08726646259971647,0.10471975511965978
2025/04/09 11:16:00.844263296,0,0,,mA1/azimuth_1_joint,mA1/azimuth_2_joint,mA1/azimuth_3_joint,mA1/azimuth_4_joint,2.111848394913139,-2.2165681500327987,-0.08726646259971647,0.10471975511965978
2025/04/09 11:16:00.944046779,0,0,,mA1/azimuth_1_joint,mA1/azimuth_2_joint,mA1/azimuth_3_joint,mA1/azimuth_4_joint,2.111848394913139,-2.2165681500327987,-0.08726646259971647,0.10471975511965978
2025/04/09 11:16:01.44064781,0,0,,mA1/azimuth_1_joint,mA1/azimuth_2_joint,mA1/azimuth_3_joint,mA1/azimuth_4_joint,2.234021442552742,-2.4609142453120048,-0.08726646259971647,0.10471975511965978
2025/04/09 11:16:01.144097111,0,0,,mA1/azimuth_1_joint,mA1/azimuth_2_joint,mA1/azimuth_3_joint,mA1/azimuth_4_joint,2.234021442552742,-2.4609142453120048,-0.08726646259971647,0.10471975511965978
2025/04/09 11:16:01.244171898,0,0,,mA1/azimuth_1_joint,mA1/azimuth_2_joint,mA1/azimuth_3_joint,mA1/azimuth_4_joint,2.234021442552742,-2.4609142453120048,-0.08726646259971647,0.10471975511965978
2025/04/09 11:16:01.344309896,0,0,,mA1/azimuth_1_joint,mA1/azimuth_2_joint,mA1/azimuth_3_joint,mA1/azimuth_4_joint,2.234021442552742,-2.4609142453120048,-0.08726646259971647,0.10471975511965978
2025/04/09 11:16:01.444217518,0,0,,mA1/azimuth_1_joint,mA1/azimuth_2_joint,mA1/azimuth_3_joint,mA1/azimuth_4_joint,2.356194490192345,-2.4609142453120048,-0.08726646259971647,0.12217304763960307
2025/04/09 11:16:01.544549889,0,0,,mA1/azimuth_1_joint,mA1/azimuth_2_joint,mA1/azimuth_3_joint,mA1/azimuth_4_joint,2.356194490192345,-2.4609142453120048,-0.10471975511965978,0.12217304763960307
2025/04/09 11:16:01.644631503,0,0,,mA1/azimuth_1_joint,mA1/azimuth_2_joint,mA1/azimuth_3_joint,mA1/azimuth_4_joint,2.356194490192345,-2.4609142453120048,-0.10471975511965978,0.12217304763960307
2025/04/09 11:16:01.744081980,0,0,,mA1/azimuth_1_joint,mA1/azimuth_2_joint,mA1/azimuth_3_joint,mA1/azimuth_4_joint,2.356194490192345,-2.6179938779914944,-0.10471975511965978,0.12217304763960307
2025/04/09 11:16:01.845140487,0,0,,mA1/azimuth_1_joint,mA1/azimuth_2_joint,mA1/azimuth_3_joint,mA1/azimuth_4_joint,2.4958208303518914,-2.6179938779914944,-0.10471975511965978,0.12217304763960307
2025/04/09 11:16:01.944880893,0,0,,mA1/azimuth_1_joint,mA1/azimuth_2_joint,mA1/azimuth_3_joint,mA1/azimuth_4_joint,2.4958208303518914,-2.6179938779914944,-0.10471975511965978,0.12217304763960307
2025/04/09 11:16:02.44082199,0,0,,mA1/azimuth_1_joint,mA1/azimuth_2_joint,mA1/azimuth_3_joint,mA1/azimuth_4_joint,2.4958208303518914,-2.6179938779914944,-0.10471975511965978,0.12217304763960307
2025/04/09 11:16:02.144142982,0,0,,mA1/azimuth_1_joint,mA1/azimuth_2_joint,mA1/azimuth_3_joint,mA1/azimuth_4_joint,2.4958208303518914,-2.6179938779914944,-0.10471975511965978,0.12217304763960307
2025/04/09 11:16:02.244464543,0,0,,mA1/azimuth_1_joint,mA1/azimuth_2_joint,mA1/azimuth_3_joint,mA1/azimuth_4_joint,2.4958208303518914,-2.6179938779914944,-0.10471975511965978,0.12217304763960307
2025/04/09 11:16:02.344173945,0,0,,mA1/azimuth_1_joint,mA1/azimuth_2_joint,mA1/azimuth_3_joint,mA1/azimuth_4_joint,2.548180707911721,-2.6179938779914944,-0.10471975511965978,0.12217304763960307
2025/04/09 11:16:02.444241299,0,0,,mA1/azimuth_1_joint,mA1/azimuth_2_joint,mA1/azimuth_3_joint,mA1/azimuth_4_joint,2.548180707911721,-2.722713633111154,-0.10471975511965978,0.12217304763960307
2025/04/09 11:16:02.544065142,0,0,,mA1/azimuth_1_joint,mA1/azimuth_2_joint,mA1/azimuth_3_joint,mA1/azimuth_4_joint,2.548180707911721,-2.530727415391778,-0.12217304763960307,0.12217304763960307
2025/04/09 11:16:02.644643769,0,0,,mA1/azimuth_1_joint,mA1/azimuth_2_joint,mA1/azimuth_3_joint,mA1/azimuth_4_joint,2.600540585471551,-2.530727415391778,-0.12217304763960307,0.12217304763960307
2025/04/09 11:16:02.744008674,0,0,,mA1/azimuth_1_joint,mA1/azimuth_2_joint,mA1/azimuth_3_joint,mA1/azimuth_4_joint,2.600540585471551,-2.530727415391778,-0.12217304763960307,0.12217304763960307
2025/04/09 11:16:02.844552954,0,0,,mA1/azimuth_1_joint,mA1/azimuth_2_joint,mA1/azimuth_3_joint,mA1/azimuth_4_joint,2.5830872929516078,-2.530727415391778,-0.12217304763960307,0.13962634015954636
2025/04/09 11:16:02.944664907,0,0,,mA1/azimuth_1_joint,mA1/azimuth_2_joint,mA1/azimuth_3_joint,mA1/azimuth_4_joint,2.6878070480712677,-2.530727415391778,-0.12217304763960307,0.13962634015954636
2025/04/09 11:16:03.44122543,0,0,,mA1/azimuth_1_joint,mA1/azimuth_2_joint,mA1/azimuth_3_joint,mA1/azimuth_4_joint,2.6878070480712677,-2.530727415391778,-0.12217304763960307,0.13962634015954636
2025/04/09 11:16:03.144366360,0,0,,mA1/azimuth_1_joint,mA1/azimuth_2_joint,mA1/azimuth_3_joint,mA1/azimuth_4_joint,2.6878070480712677,-2.6179938779914944,-0.12217304763960307,0.13962634015954636
2025/04/09 11:16:03.244338587,0,0,,mA1/azimuth_1_joint,mA1/azimuth_2_joint,mA1/azimuth_3_joint,mA1/azimuth_4_joint,2.6878070480712677,-2.6179938779914944,-0.12217304763960307,0.13962634015954636
2025/04/09 11:16:03.344151661,0,0,,mA1/azimuth_1_joint,mA1/azimuth_2_joint,mA1/azimuth_3_joint,mA1/azimuth_4_joint,2.6878070480712677,-2.600540585471551,-0.12217304763960307,0.13962634015954636
2025/04/09 11:16:03.444165790,0,0,,mA1/azimuth_1_joint,mA1/azimuth_2_joint,mA1/azimuth_3_joint,mA1/azimuth_4_joint,2.6878070480712677,-2.600540585471551,-0.12217304763960307,0.13962634015954636
2025/04/09 11:16:03.544101742,0,0,,mA1/azimuth_1_joint,mA1/azimuth_2_joint,mA1/azimuth_3_joint,mA1/azimuth_4_joint,2.722713633111154,-2.6354471705114375,-0.12217304763960307,0.13962634015954636
2025/04/09 11:16:03.644513448,0,0,,mA1/azimuth_1_joint,mA1/azimuth_2_joint,mA1/azimuth_3_joint,mA1/azimuth_4_joint,2.722713633111154,-2.6354471705114375,-0.12217304763960307,0.15707963267948966
2025/04/09 11:16:03.745250773,0,0,,mA1/azimuth_1_joint,mA1/azimuth_2_joint,mA1/azimuth_3_joint,mA1/azimuth_4_joint,2.722713633111154,-2.6878070480712677,-0.12217304763960307,0.15707963267948966
2025/04/09 11:16:03.844217381,0,0,,mA1/azimuth_1_joint,mA1/azimuth_2_joint,mA1/azimuth_3_joint,mA1/azimuth_4_joint,2.6179938779914944,-2.6878070480712677,-0.12217304763960307,0.17453292519943295
2025/04/09 11:16:03.945686887,0,0,,mA1/azimuth_1_joint,mA1/azimuth_2_joint,mA1/azimuth_3_joint,mA1/azimuth_4_joint,2.6878070480712677,-2.6878070480712677,-0.12217304763960307,0.17453292519943295
2025/04/09 11:16:04.44296267,0,0,,mA1/azimuth_1_joint,mA1/azimuth_2_joint,mA1/azimuth_3_joint,mA1/azimuth_4_joint,2.6878070480712677,-2.6878070480712677,-0.12217304763960307,0.17453292519943295
2025/04/09 11:16:04.144194507,0,0,,mA1/azimuth_1_joint,mA1/azimuth_2_joint,mA1/azimuth_3_joint,mA1/azimuth_4_joint,2.6878070480712677,-2.6878070480712677,-0.12217304763960307,0.17453292519943295
2025/04/09 11:16:04.244044711,0,0,,mA1/azimuth_1_joint,mA1/azimuth_2_joint,mA1/azimuth_3_joint,mA1/azimuth_4_joint,2.6878070480712677,-2.7401669256310974,-0.12217304763960307,0.17453292519943295
2025/04/09 11:16:04.344280195,0,0,,mA1/azimuth_1_joint,mA1/azimuth_2_joint,mA1/azimuth_3_joint,mA1/azimuth_4_joint,2.6878070480712677,-2.7401669256310974,-0.12217304763960307,0.17453292519943295
2025/04/09 11:16:04.444300821,0,0,,mA1/azimuth_1_joint,mA1/azimuth_2_joint,mA1/azimuth_3_joint,mA1/azimuth_4_joint,2.6878070480712677,-2.7401669256310974,-0.13962634015954636,0.17453292519943295
2025/04/09 11:16:04.544808718,0,0,,mA1/azimuth_1_joint,mA1/azimuth_2_joint,mA1/azimuth_3_joint,mA1/azimuth_4_joint,2.7576202181510405,-2.7401669256310974,-0.13962634015954636,0.17453292519943295
2025/04/09 11:16:04.644318915,0,0,,mA1/azimuth_1_joint,mA1/azimuth_2_joint,mA1/azimuth_3_joint,mA1/azimuth_4_joint,2.7576202181510405,-2.7401669256310974,-0.13962634015954636,0.17453292519943295
2025/04/09 11:16:04.744105812,0,0,,mA1/azimuth_1_joint,mA1/azimuth_2_joint,mA1/azimuth_3_joint,mA1/azimuth_4_joint,2.7576202181510405,-2.7576202181510405,-0.15707963267948966,0.17453292519943295
2025/04/09 11:16:04.844120283,0,0,,mA1/azimuth_1_joint,mA1/azimuth_2_joint,mA1/azimuth_3_joint,mA1/azimuth_4_joint,2.7576202181510405,-2.7576202181510405,-0.15707963267948966,0.17453292519943295
2025/04/09 11:16:04.944132503,0,0,,mA1/azimuth_1_joint,mA1/azimuth_2_joint,mA1/azimuth_3_joint,mA1/azimuth_4_joint,2.7576202181510405,-2.792526803190927,-0.15707963267948966,0.17453292519943295
2025/04/09 11:16:05.44156854,0,0,,mA1/azimuth_1_joint,mA1/azimuth_2_joint,mA1/azimuth_3_joint,mA1/azimuth_4_joint,2.7576202181510405,-2.792526803190927,-0.15707963267948966,0.17453292519943295
2025/04/09 11:16:05.144326279,0,0,,mA1/azimuth_1_joint,mA1/azimuth_2_joint,mA1/azimuth_3_joint,mA1/azimuth_4_joint,2.7576202181510405,-2.792526803190927,-0.15707963267948966,0.17453292519943295
2025/04/09 11:16:05.244577779,0,0,,mA1/azimuth_1_joint,mA1/azimuth_2_joint,mA1/azimuth_3_joint,mA1/azimuth_4_joint,2.7576202181510405,-2.792526803190927,-0.15707963267948966,0.17453292519943295
2025/04/09 11:16:05.344751221,0,0,,mA1/azimuth_1_joint,mA1/azimuth_2_joint,mA1/azimuth_3_joint,mA1/azimuth_4_joint,2.8099800957108707,-2.792526803190927,-0.15707963267948966,0.17453292519943295
2025/04/09 11:16:05.444382339,0,0,,mA1/azimuth_1_joint,mA1/azimuth_2_joint,mA1/azimuth_3_joint,mA1/azimuth_4_joint,2.8099800957108707,-2.652900463031381,-0.19198621771937624,0.17453292519943295
2025/04/09 11:16:05.547329448,0,0,,mA1/azimuth_1_joint,mA1/azimuth_2_joint,mA1/azimuth_3_joint,mA1/azimuth_4_joint,2.8099800957108707,-2.652900463031381,-0.19198621771937624,0.17453292519943295
2025/04/09 11:16:05.644691811,0,0,,mA1/azimuth_1_joint,mA1/azimuth_2_joint,mA1/azimuth_3_joint,mA1/azimuth_4_joint,2.8099800957108707,-2.705260340591211,-0.19198621771937624,0.17453292519943295
2025/04/09 11:16:05.744531898,0,0,,mA1/azimuth_1_joint,mA1/azimuth_2_joint,mA1/azimuth_3_joint,mA1/azimuth_4_joint,2.8099800957108707,-2.705260340591211,-0.19198621771937624,0.17453292519943295
2025/04/09 11:16:05.844454616,0,0,,mA1/azimuth_1_joint,mA1/azimuth_2_joint,mA1/azimuth_3_joint,mA1/azimuth_4_joint,2.8099800957108707,-2.705260340591211,-0.19198621771937624,0.17453292519943295
2025/04/09 11:16:05.944203764,0,0,,mA1/azimuth_1_joint,mA1/azimuth_2_joint,mA1/azimuth_3_joint,mA1/azimuth_4_joint,2.827433388230814,-2.705260340591211,-0.19198621771937624,0.17453292519943295
2025/04/09 11:16:06.44560734,0,0,,mA1/azimuth_1_joint,mA1/azimuth_2_joint,mA1/azimuth_3_joint,mA1/azimuth_4_joint,2.827433388230814,-2.705260340591211,-0.19198621771937624,0.17453292519943295
2025/04/09 11:16:06.146582646,0,0,,mA1/azimuth_1_joint,mA1/azimuth_2_joint,mA1/azimuth_3_joint,mA1/azimuth_4_joint,2.827433388230814,-2.705260340591211,-0.19198621771937624,0.17453292519943295
2025/04/09 11:16:06.244120762,0,0,,mA1/azimuth_1_joint,mA1/azimuth_2_joint,mA1/azimuth_3_joint,mA1/azimuth_4_joint,2.827433388230814,-2.722713633111154,-0.19198621771937624,0.19198621771937624
2025/04/09 11:16:06.344112773,0,0,,mA1/azimuth_1_joint,mA1/azimuth_2_joint,mA1/azimuth_3_joint,mA1/azimuth_4_joint,2.827433388230814,-2.722713633111154,-0.19198621771937624,0.19198621771937624
2025/04/09 11:16:06.444404562,0,0,,mA1/azimuth_1_joint,mA1/azimuth_2_joint,mA1/azimuth_3_joint,mA1/azimuth_4_joint,2.8623399732707004,-2.722713633111154,-0.19198621771937624,0.19198621771937624
2025/04/09 11:16:06.544390204,0,0,,mA1/azimuth_1_joint,mA1/azimuth_2_joint,mA1/azimuth_3_joint,mA1/azimuth_4_joint,2.8623399732707004,-2.7401669256310974,-0.20943951023931956,0.19198621771937624
2025/04/09 11:16:06.644088857,0,0,,mA1/azimuth_1_joint,mA1/azimuth_2_joint,mA1/azimuth_3_joint,mA1/azimuth_4_joint,2.8623399732707004,-2.7576202181510405,-0.20943951023931956,0.19198621771937624
2025/04/09 11:16:06.744082253,0,0,,mA1/azimuth_1_joint,mA1/azimuth_2_joint,mA1/azimuth_3_joint,mA1/azimuth_4_joint,2.8623399732707004,-2.7576202181510405,-0.20943951023931956,0.20943951023931956
2025/04/09 11:16:06.844772719,0,0,,mA1/azimuth_1_joint,mA1/azimuth_2_joint,mA1/azimuth_3_joint,mA1/azimuth_4_joint,2.827433388230814,-2.7576202181510405,-0.20943951023931956,0.20943951023931956
2025/04/09 11:16:06.944323114,0,0,,mA1/azimuth_1_joint,mA1/azimuth_2_joint,mA1/azimuth_3_joint,mA1/azimuth_4_joint,2.827433388230814,-2.7576202181510405,-0.20943951023931956,0.20943951023931956
2025/04/09 11:16:07.44152359,0,0,,mA1/azimuth_1_joint,mA1/azimuth_2_joint,mA1/azimuth_3_joint,mA1/azimuth_4_joint,2.827433388230814,-2.7576202181510405,-0.24434609527920614,0.20943951023931956
2025/04/09 11:16:07.144217066,0,0,,mA1/azimuth_1_joint,mA1/azimuth_2_joint,mA1/azimuth_3_joint,mA1/azimuth_4_joint,2.827433388230814,-2.792526803190927,-0.24434609527920614,0.20943951023931956
2025/04/09 11:16:07.244215424,0,0,,mA1/azimuth_1_joint,mA1/azimuth_2_joint,mA1/azimuth_3_joint,mA1/azimuth_4_joint,2.8623399732707004,-2.792526803190927,-0.2617993877991494,0.20943951023931956
2025/04/09 11:16:07.344099851,0,0,,mA1/azimuth_1_joint,mA1/azimuth_2_joint,mA1/azimuth_3_joint,mA1/azimuth_4_joint,2.8623399732707004,-2.792526803190927,-0.2617993877991494,0.20943951023931956
2025/04/09 11:16:07.444036788,0,0,,mA1/azimuth_1_joint,mA1/azimuth_2_joint,mA1/azimuth_3_joint,mA1/azimuth_4_joint,2.8623399732707004,-2.792526803190927,-0.2617993877991494,0.20943951023931956
2025/04/09 11:16:07.544001674,0,0,,mA1/azimuth_1_joint,mA1/azimuth_2_joint,mA1/azimuth_3_joint,mA1/azimuth_4_joint,2.8623399732707004,-2.792526803190927,-0.2617993877991494,0.20943951023931956
2025/04/09 11:16:07.644371903,0,0,,mA1/azimuth_1_joint,mA1/azimuth_2_joint,mA1/azimuth_3_joint,mA1/azimuth_4_joint,2.8448866807507573,-2.792526803190927,-0.2617993877991494,0.20943951023931956
2025/04/09 11:16:07.745510601,0,0,,mA1/azimuth_1_joint,mA1/azimuth_2_joint,mA1/azimuth_3_joint,mA1/azimuth_4_joint,2.8448866807507573,-2.792526803190927,-0.2617993877991494,0.20943951023931956
2025/04/09 11:16:07.844059431,0,0,,mA1/azimuth_1_joint,mA1/azimuth_2_joint,mA1/azimuth_3_joint,mA1/azimuth_4_joint,2.8448866807507573,-2.792526803190927,-0.2617993877991494,0.20943951023931956
2025/04/09 11:16:07.945422174,0,0,,mA1/azimuth_1_joint,mA1/azimuth_2_joint,mA1/azimuth_3_joint,mA1/azimuth_4_joint,2.8797932657906435,-2.8099800957108707,-0.2617993877991494,0.22689280275926285
2025/04/09 11:16:08.44933800,0,0,,mA1/azimuth_1_joint,mA1/azimuth_2_joint,mA1/azimuth_3_joint,mA1/azimuth_4_joint,2.8797932657906435,-2.8099800957108707,-0.2617993877991494,0.22689280275926285
2025/04/09 11:16:08.145304691,0,0,,mA1/azimuth_1_joint,mA1/azimuth_2_joint,mA1/azimuth_3_joint,mA1/azimuth_4_joint,2.8623399732707004,-2.8099800957108707,-0.2617993877991494,0.22689280275926285
2025/04/09 11:16:08.244916871,0,0,,mA1/azimuth_1_joint,mA1/azimuth_2_joint,mA1/azimuth_3_joint,mA1/azimuth_4_joint,2.8623399732707004,-2.8099800957108707,-0.2617993877991494,0.22689280275926285
2025/04/09 11:16:08.344947910,0,0,,mA1/azimuth_1_joint,mA1/azimuth_2_joint,mA1/azimuth_3_joint,mA1/azimuth_4_joint,2.8623399732707004,-2.8099800957108707,-0.2792526803190927,0.22689280275926285
2025/04/09 11:16:08.444689920,0,0,,mA1/azimuth_1_joint,mA1/azimuth_2_joint,mA1/azimuth_3_joint,mA1/azimuth_4_joint,2.8623399732707004,-2.827433388230814,-0.2792526803190927,0.22689280275926285
2025/04/09 11:16:08.543924934,0,0,,mA1/azimuth_1_joint,mA1/azimuth_2_joint,mA1/azimuth_3_joint,mA1/azimuth_4_joint,2.8448866807507573,-2.827433388230814,-0.2792526803190927,0.22689280275926285
2025/04/09 11:16:08.645128510,0,0,,mA1/azimuth_1_joint,mA1/azimuth_2_joint,mA1/azimuth_3_joint,mA1/azimuth_4_joint,2.8448866807507573,-2.827433388230814,-0.2792526803190927,0.22689280275926285
2025/04/09 11:16:08.744670522,0,0,,mA1/azimuth_1_joint,mA1/azimuth_2_joint,mA1/azimuth_3_joint,mA1/azimuth_4_joint,2.7401669256310974,-2.827433388230814,-0.2792526803190927,0.2617993877991494
2025/04/09 11:16:08.844147455,0,0,,mA1/azimuth_1_joint,mA1/azimuth_2_joint,mA1/azimuth_3_joint,mA1/azimuth_4_joint,2.7401669256310974,-2.827433388230814,-0.2792526803190927,0.2617993877991494
2025/04/09 11:16:08.944291921,0,0,,mA1/azimuth_1_joint,mA1/azimuth_2_joint,mA1/azimuth_3_joint,mA1/azimuth_4_joint,2.7401669256310974,-2.827433388230814,-0.2792526803190927,0.2617993877991494
2025/04/09 11:16:09.44266261,0,0,,mA1/azimuth_1_joint,mA1/azimuth_2_joint,mA1/azimuth_3_joint,mA1/azimuth_4_joint,2.7401669256310974,-2.827433388230814,-0.2792526803190927,0.2617993877991494
2025/04/09 11:16:09.144180503,0,0,,mA1/azimuth_1_joint,mA1/azimuth_2_joint,mA1/azimuth_3_joint,mA1/azimuth_4_joint,2.7401669256310974,-2.8623399732707004,-0.2792526803190927,0.2617993877991494
2025/04/09 11:16:09.244101129,0,0,,mA1/azimuth_1_joint,mA1/azimuth_2_joint,mA1/azimuth_3_joint,mA1/azimuth_4_joint,2.7401669256310974,-2.8623399732707004,-0.2792526803190927,0.2617993877991494
2025/04/09 11:16:09.345106719,0,0,,mA1/azimuth_1_joint,mA1/azimuth_2_joint,mA1/azimuth_3_joint,mA1/azimuth_4_joint,2.7401669256310974,-2.8623399732707004,-0.2792526803190927,0.2617993877991494
2025/04/09 11:16:09.444732405,0,0,,mA1/azimuth_1_joint,mA1/azimuth_2_joint,mA1/azimuth_3_joint,mA1/azimuth_4_joint,2.7576202181510405,-2.8623399732707004,-0.2792526803190927,0.2617993877991494
2025/04/09 11:16:09.544285162,0,0,,mA1/azimuth_1_joint,mA1/azimuth_2_joint,mA1/azimuth_3_joint,mA1/azimuth_4_joint,2.7576202181510405,-2.8623399732707004,-0.2792526803190927,0.2617993877991494
2025/04/09 11:16:09.644630335,0,0,,mA1/azimuth_1_joint,mA1/azimuth_2_joint,mA1/azimuth_3_joint,mA1/azimuth_4_joint,2.7576202181510405,-2.8623399732707004,-0.2617993877991494,0.24434609527920614
2025/04/09 11:16:09.744565453,0,0,,mA1/azimuth_1_joint,mA1/azimuth_2_joint,mA1/azimuth_3_joint,mA1/azimuth_4_joint,2.7576202181510405,-2.8623399732707004,-0.2617993877991494,0.24434609527920614
2025/04/09 11:16:09.844027962,0,0,,mA1/azimuth_1_joint,mA1/azimuth_2_joint,mA1/azimuth_3_joint,mA1/azimuth_4_joint,2.7576202181510405,-2.827433388230814,-0.2617993877991494,0.24434609527920614
2025/04/09 11:16:09.944780383,0,0,,mA1/azimuth_1_joint,mA1/azimuth_2_joint,mA1/azimuth_3_joint,mA1/azimuth_4_joint,2.7576202181510405,-2.827433388230814,-0.24434609527920614,0.29670597283903605
2025/04/09 11:16:10.44540887,0,0,,mA1/azimuth_1_joint,mA1/azimuth_2_joint,mA1/azimuth_3_joint,mA1/azimuth_4_joint,2.792526803190927,-2.827433388230814,-0.24434609527920614,0.29670597283903605
2025/04/09 11:16:10.145654219,0,0,,mA1/azimuth_1_joint,mA1/azimuth_2_joint,mA1/azimuth_3_joint,mA1/azimuth_4_joint,2.792526803190927,-2.722713633111154,-0.29670597283903605,0.29670597283903605
2025/04/09 11:16:10.244255865,0,0,,mA1/azimuth_1_joint,mA1/azimuth_2_joint,mA1/azimuth_3_joint,mA1/azimuth_4_joint,2.792526803190927,-2.722713633111154,-0.2792526803190927,0.2792526803190927
2025/04/09 11:16:10.344722249,0,0,,mA1/azimuth_1_joint,mA1/azimuth_2_joint,mA1/azimuth_3_joint,mA1/azimuth_4_joint,2.792526803190927,-2.722713633111154,-0.2792526803190927,0.2792526803190927
2025/04/09 11:16:10.444276174,0,0,,mA1/azimuth_1_joint,mA1/azimuth_2_joint,mA1/azimuth_3_joint,mA1/azimuth_4_joint,2.792526803190927,-2.722713633111154,-0.2792526803190927,0.2792526803190927
2025/04/09 11:16:10.544648833,0,0,,mA1/azimuth_1_joint,mA1/azimuth_2_joint,mA1/azimuth_3_joint,mA1/azimuth_4_joint,2.792526803190927,-2.722713633111154,-0.2617993877991494,0.2617993877991494
2025/04/09 11:16:10.644128312,0,0,,mA1/azimuth_1_joint,mA1/azimuth_2_joint,mA1/azimuth_3_joint,mA1/azimuth_4_joint,2.792526803190927,-2.7576202181510405,-0.2617993877991494,0.2617993877991494
2025/04/09 11:16:10.744036508,0,0,,mA1/azimuth_1_joint,mA1/azimuth_2_joint,mA1/azimuth_3_joint,mA1/azimuth_4_joint,2.792526803190927,-2.7576202181510405,-0.2617993877991494,0.24434609527920614
2025/04/09 11:16:10.844589070,0,0,,mA1/azimuth_1_joint,mA1/azimuth_2_joint,mA1/azimuth_3_joint,mA1/azimuth_4_joint,2.792526803190927,-2.7576202181510405,-0.2617993877991494,0.24434609527920614
2025/04/09 11:16:10.949728509,0,0,,mA1/azimuth_1_joint,mA1/azimuth_2_joint,mA1/azimuth_3_joint,mA1/azimuth_4_joint,2.792526803190927,-2.7576202181510405,-0.2617993877991494,0.24434609527920614
2025/04/09 11:16:11.44542890,0,0,,mA1/azimuth_1_joint,mA1/azimuth_2_joint,mA1/azimuth_3_joint,mA1/azimuth_4_joint,2.792526803190927,-2.7576202181510405,-0.2617993877991494,0.24434609527920614
2025/04/09 11:16:11.144264613,0,0,,mA1/azimuth_1_joint,mA1/azimuth_2_joint,mA1/azimuth_3_joint,mA1/azimuth_4_joint,2.792526803190927,-2.7576202181510405,-0.24434609527920614,0.24434609527920614
2025/04/09 11:16:11.244673570,0,0,,mA1/azimuth_1_joint,mA1/azimuth_2_joint,mA1/azimuth_3_joint,mA1/azimuth_4_joint,2.8099800957108707,-2.7576202181510405,-0.24434609527920614,0.24434609527920614
2025/04/09 11:16:11.344130366,0,0,,mA1/azimuth_1_joint,mA1/azimuth_2_joint,mA1/azimuth_3_joint,mA1/azimuth_4_joint,2.8099800957108707,-2.7576202181510405,-0.24434609527920614,0.22689280275926285
2025/04/09 11:16:11.444330133,0,0,,mA1/azimuth_1_joint,mA1/azimuth_2_joint,mA1/azimuth_3_joint,mA1/azimuth_4_joint,2.8099800957108707,-2.7576202181510405,-0.22689280275926285,0.22689280275926285
2025/04/09 11:16:11.544639715,0,0,,mA1/azimuth_1_joint,mA1/azimuth_2_joint,mA1/azimuth_3_joint,mA1/azimuth_4_joint,2.8099800957108707,-2.7576202181510405,-0.22689280275926285,0.22689280275926285
2025/04/09 11:16:11.645014247,0,0,,mA1/azimuth_1_joint,mA1/azimuth_2_joint,mA1/azimuth_3_joint,mA1/azimuth_4_joint,2.8099800957108707,-2.7576202181510405,-0.22689280275926285,0.20943951023931956
2025/04/09 11:16:11.744101755,0,0,,mA1/azimuth_1_joint,mA1/azimuth_2_joint,mA1/azimuth_3_joint,mA1/azimuth_4_joint,2.8099800957108707,-2.775073510670984,-0.20943951023931956,0.20943951023931956
2025/04/09 11:16:11.844165628,0,0,,mA1/azimuth_1_joint,mA1/azimuth_2_joint,mA1/azimuth_3_joint,mA1/azimuth_4_joint,2.8099800957108707,-2.775073510670984,-0.20943951023931956,0.20943951023931956
2025/04/09 11:16:11.944073093,0,0,,mA1/azimuth_1_joint,mA1/azimuth_2_joint,mA1/azimuth_3_joint,mA1/azimuth_4_joint,2.8099800957108707,-2.775073510670984,-0.20943951023931956,0.20943951023931956
2025/04/09 11:16:12.44079972,0,0,,mA1/azimuth_1_joint,mA1/azimuth_2_joint,mA1/azimuth_3_joint,mA1/azimuth_4_joint,2.792526803190927,-2.775073510670984,-0.20943951023931956,0.24434609527920614
2025/04/09 11:16:12.144769739,0,0,,mA1/azimuth_1_joint,mA1/azimuth_2_joint,mA1/azimuth_3_joint,mA1/azimuth_4_joint,2.827433388230814,-2.775073510670984,-0.2617993877991494,0.24434609527920614
2025/04/09 11:16:12.244504703,0,0,,mA1/azimuth_1_joint,mA1/azimuth_2_joint,mA1/azimuth_3_joint,mA1/azimuth_4_joint,2.827433388230814,-2.775073510670984,-0.2617993877991494,0.22689280275926285
2025/04/09 11:16:12.344519038,0,0,,mA1/azimuth_1_joint,mA1/azimuth_2_joint,mA1/azimuth_3_joint,mA1/azimuth_4_joint,2.722713633111154,-2.792526803190927,-0.24434609527920614,0.22689280275926285
2025/04/09 11:16:12.444429949,0,0,,mA1/azimuth_1_joint,mA1/azimuth_2_joint,mA1/azimuth_3_joint,mA1/azimuth_4_joint,2.722713633111154,-2.792526803190927,-0.24434609527920614,0.22689280275926285
2025/04/09 11:16:12.544302201,0,0,,mA1/azimuth_1_joint,mA1/azimuth_2_joint,mA1/azimuth_3_joint,mA1/azimuth_4_joint,2.722713633111154,-2.792526803190927,-0.24434609527920614,0.22689280275926285
2025/04/09 11:16:12.644641910,0,0,,mA1/azimuth_1_joint,mA1/azimuth_2_joint,mA1/azimuth_3_joint,mA1/azimuth_4_joint,2.722713633111154,-2.792526803190927,-0.22689280275926285,0.22689280275926285
2025/04/09 11:16:12.744259564,0,0,,mA1/azimuth_1_joint,mA1/azimuth_2_joint,mA1/azimuth_3_joint,mA1/azimuth_4_joint,2.722713633111154,-2.7576202181510405,-0.22689280275926285,0.22689280275926285
2025/04/09 11:16:12.844597512,0,0,,mA1/azimuth_1_joint,mA1/azimuth_2_joint,mA1/azimuth_3_joint,mA1/azimuth_4_joint,2.722713633111154,-2.775073510670984,-0.22689280275926285,0.20943951023931956
2025/04/09 11:16:12.944842121,0,0,,mA1/azimuth_1_joint,mA1/azimuth_2_joint,mA1/azimuth_3_joint,mA1/azimuth_4_joint,2.722713633111154,-2.775073510670984,-0.22689280275926285,0.20943951023931956
2025/04/09 11:16:13.46520841,0,0,,mA1/azimuth_1_joint,mA1/azimuth_2_joint,mA1/azimuth_3_joint,mA1/azimuth_4_joint,2.722713633111154,-2.775073510670984,-0.22689280275926285,0.20943951023931956
2025/04/09 11:16:13.144221278,0,0,,mA1/azimuth_1_joint,mA1/azimuth_2_joint,mA1/azimuth_3_joint,mA1/azimuth_4_joint,2.722713633111154,-2.775073510670984,-0.22689280275926285,0.20943951023931956
2025/04/09 11:16:13.244845116,0,0,,mA1/azimuth_1_joint,mA1/azimuth_2_joint,mA1/azimuth_3_joint,mA1/azimuth_4_joint,2.722713633111154,-2.775073510670984,-0.20943951023931956,0.20943951023931956
2025/04/09 11:16:13.344091143,0,0,,mA1/azimuth_1_joint,mA1/azimuth_2_joint,mA1/azimuth_3_joint,mA1/azimuth_4_joint,2.722713633111154,-2.775073510670984,-0.20943951023931956,0.20943951023931956
2025/04/09 11:16:13.444570536,0,0,,mA1/azimuth_1_joint,mA1/azimuth_2_joint,mA1/azimuth_3_joint,mA1/azimuth_4_joint,2.7401669256310974,-2.775073510670984,-0.20943951023931956,0.19198621771937624
2025/04/09 11:16:13.544323584,0,0,,mA1/azimuth_1_joint,mA1/azimuth_2_joint,mA1/azimuth_3_joint,mA1/azimuth_4_joint,2.7401669256310974,-2.775073510670984,-0.20943951023931956,0.19198621771937624
2025/04/09 11:16:13.645249177,0,0,,mA1/azimuth_1_joint,mA1/azimuth_2_joint,mA1/azimuth_3_joint,mA1/azimuth_4_joint,2.7401669256310974,-2.792526803190927,-0.20943951023931956,0.19198621771937624
2025/04/09 11:16:13.744601411,0,0,,mA1/azimuth_1_joint,mA1/azimuth_2_joint,mA1/azimuth_3_joint,mA1/azimuth_4_joint,2.7401669256310974,-2.792526803190927,-0.20943951023931956,0.19198621771937624
2025/04/09 11:16:13.844557103,0,0,,mA1/azimuth_1_joint,mA1/azimuth_2_joint,mA1/azimuth_3_joint,mA1/azimuth_4_joint,2.7401669256310974,-2.792526803190927,-0.19198621771937624,0.19198621771937624
2025/04/09 11:16:13.944754306,0,0,,mA1/azimuth_1_joint,mA1/azimuth_2_joint,mA1/azimuth_3_joint,mA1/azimuth_4_joint,2.7401669256310974,-2.792526803190927,-0.19198621771937624,0.19198621771937624
2025/04/09 11:16:14.44091504,0,0,,mA1/azimuth_1_joint,mA1/azimuth_2_joint,mA1/azimuth_3_joint,mA1/azimuth_4_joint,2.7401669256310974,-2.792526803190927,-0.19198621771937624,0.22689280275926285
2025/04/09 11:16:14.144539351,0,0,,mA1/azimuth_1_joint,mA1/azimuth_2_joint,mA1/azimuth_3_joint,mA1/azimuth_4_joint,2.7401669256310974,-2.792526803190927,-0.19198621771937624,0.22689280275926285
2025/04/09 11:16:14.244835633,0,0,,mA1/azimuth_1_joint,mA1/azimuth_2_joint,mA1/azimuth_3_joint,mA1/azimuth_4_joint,2.775073510670984,-2.792526803190927,-0.19198621771937624,0.22689280275926285
2025/04/09 11:16:14.344301931,0,0,,mA1/azimuth_1_joint,mA1/azimuth_2_joint,mA1/azimuth_3_joint,mA1/azimuth_4_joint,2.775073510670984,-2.792526803190927,-0.17453292519943295,0.22689280275926285
2025/04/09 11:16:14.444085287,0,0,,mA1/azimuth_1_joint,mA1/azimuth_2_joint,mA1/azimuth_3_joint,mA1/azimuth_4_joint,2.775073510670984,-2.827433388230814,-0.22689280275926285,0.20943951023931956
2025/04/09 11:16:14.544993603,0,0,,mA1/azimuth_1_joint,mA1/azimuth_2_joint,mA1/azimuth_3_joint,mA1/azimuth_4_joint,2.775073510670984,-2.827433388230814,-0.22689280275926285,0.20943951023931956
2025/04/09 11:16:14.644629732,0,0,,mA1/azimuth_1_joint,mA1/azimuth_2_joint,mA1/azimuth_3_joint,mA1/azimuth_4_joint,2.775073510670984,-2.8099800957108707,-0.22689280275926285,0.20943951023931956
2025/04/09 11:16:14.744664543,0,0,,mA1/azimuth_1_joint,mA1/azimuth_2_joint,mA1/azimuth_3_joint,mA1/azimuth_4_joint,2.775073510670984,-2.8099800957108707,-0.22689280275926285,0.20943951023931956
2025/04/09 11:16:14.844595864,0,0,,mA1/azimuth_1_joint,mA1/azimuth_2_joint,mA1/azimuth_3_joint,mA1/azimuth_4_joint,2.775073510670984,-2.8099800957108707,-0.20943951023931956,0.20943951023931956
2025/04/09 11:16:14.944053054,0,0,,mA1/azimuth_1_joint,mA1/azimuth_2_joint,mA1/azimuth_3_joint,mA1/azimuth_4_joint,2.775073510670984,-2.8099800957108707,-0.20943951023931956,0.20943951023931956
2025/04/09 11:16:15.44193478,0,0,,mA1/azimuth_1_joint,mA1/azimuth_2_joint,mA1/azimuth_3_joint,mA1/azimuth_4_joint,2.775073510670984,-2.8099800957108707,-0.20943951023931956,0.19198621771937624
2025/04/09 11:16:15.144102938,0,0,,mA1/azimuth_1_joint,mA1/azimuth_2_joint,mA1/azimuth_3_joint,mA1/azimuth_4_joint,2.775073510670984,-2.705260340591211,-0.20943951023931956,0.19198621771937624
2025/04/09 11:16:15.244464988,0,0,,mA1/azimuth_1_joint,mA1/azimuth_2_joint,mA1/azimuth_3_joint,mA1/azimuth_4_joint,2.8099800957108707,-2.705260340591211,-0.20943951023931956,0.19198621771937624
2025/04/09 11:16:15.344668401,0,0,,mA1/azimuth_1_joint,mA1/azimuth_2_joint,mA1/azimuth_3_joint,mA1/azimuth_4_joint,2.8099800957108707,-2.705260340591211,-0.20943951023931956,0.19198621771937624
2025/04/09 11:16:15.444049494,0,0,,mA1/azimuth_1_joint,mA1/azimuth_2_joint,mA1/azimuth_3_joint,mA1/azimuth_4_joint,2.8099800957108707,-2.705260340591211,-0.19198621771937624,0.19198621771937624
2025/04/09 11:16:15.544923478,0,0,,mA1/azimuth_1_joint,mA1/azimuth_2_joint,mA1/azimuth_3_joint,mA1/azimuth_4_joint,2.8099800957108707,-2.705260340591211,-0.19198621771937624,0.19198621771937624
2025/04/09 11:16:15.644127193,0,0,,mA1/azimuth_1_joint,mA1/azimuth_2_joint,mA1/azimuth_3_joint,mA1/azimuth_4_joint,2.8099800957108707,-2.705260340591211,-0.19198621771937624,0.19198621771937624
2025/04/09 11:16:15.744629459,0,0,,mA1/azimuth_1_joint,mA1/azimuth_2_joint,mA1/azimuth_3_joint,mA1/azimuth_4_joint,2.792526803190927,-2.6878070480712677,-0.19198621771937624,0.19198621771937624
2025/04/09 11:16:15.844898213,0,0,,mA1/azimuth_1_joint,mA1/azimuth_2_joint,mA1/azimuth_3_joint,mA1/azimuth_4_joint,2.792526803190927,-2.7401669256310974,-0.19198621771937624,0.19198621771937624
2025/04/09 11:16:15.944574803,0,0,,mA1/azimuth_1_joint,mA1/azimuth_2_joint,mA1/azimuth_3_joint,mA1/azimuth_4_joint,2.792526803190927,-2.7401669256310974,-0.19198621771937624,0.19198621771937624
