time,header_stamp_secs,header_stamp_nsecs,header_frame_id,wrench_force_x,wrench_force_y,wrench_force_z,wrench_torque_x,wrench_torque_y,wrench_torque_z
2025/04/09 10:58:23.958138464,1744189103,957749402,,2.220446049250313e-16,0.0,0.0,0.0,0.0,0.0
2025/04/09 10:58:24.14813188,1744189104,14546270,,2.220446049250313e-16,0.0,0.0,0.0,0.0,0.0
2025/04/09 10:58:24.97434871,1744189104,94532197,,2.220446049250313e-16,0.0,0.0,0.0,0.0,0.0
2025/04/09 10:58:24.183769905,1744189104,183336217,,-0.11744781648915614,-0.2869544938607813,0.0,0.0,0.0,0.610476342140731
2025/04/09 10:58:24.322604755,1744189104,318631641,,2.220446049250313e-16,0.0,0.0,0.0,0.0,0.0
2025/04/09 10:58:24.422355144,1744189104,420814423,,0.4901114345110669,-0.8699064077776266,0.0,0.0,0.0,-0.30024758882559255
2025/04/09 10:58:24.505627118,1744189104,501257629,,0.49018233505188974,-0.8701770801124615,0.0,0.0,0.0,-0.3002667952935584
2025/04/09 10:58:24.615735070,1744189104,614922171,,2.220446049250313e-16,0.0,0.0,0.0,0.0,0.0
2025/04/09 10:58:24.683735391,1744189104,682994336,,2.220446049250313e-16,0.0,0.0,0.0,0.0,0.0
2025/04/09 10:58:24.766042319,1744189104,765778376,,2.220446049250313e-16,0.0,0.0,0.0,0.0,0.0
2025/04/09 10:58:24.862882408,1744189104,862602014,,2.220446049250313e-16,0.0,0.0,0.0,0.0,0.0
2025/04/09 10:58:24.962929340,1744189104,962427091,,2.220446049250313e-16,0.0,0.0,0.0,0.0,0.0
2025/04/09 10:58:25.87452949,1744189105,87175336,,2.220446049250313e-16,0.0,0.0,0.0,0.0,0.0
2025/04/09 10:58:25.163168407,1744189105,162545132,,2.220446049250313e-16,0.0,0.0,0.0,0.0,0.0
2025/04/09 10:58:25.261567561,1744189105,261223699,,2.220446049250313e-16,0.0,0.0,0.0,0.0,0.0
2025/04/09 10:58:25.358713140,1744189105,358427157,,2.220446049250313e-16,0.0,0.0,0.0,0.0,0.0
2025/04/09 10:58:25.459030456,1744189105,458828445,,2.220446049250313e-16,0.0,0.0,0.0,0.0,0.0
2025/04/09 10:58:25.571777144,1744189105,571578913,,2.220446049250313e-16,0.0,0.0,0.0,0.0,0.0
2025/04/09 10:58:25.671567650,1744189105,671305059,,2.220446049250313e-16,0.0,0.0,0.0,0.0,0.0
2025/04/09 10:58:25.760394761,1744189105,760098845,,2.220446049250313e-16,0.0,0.0,0.0,0.0,0.0
2025/04/09 10:58:25.861352779,1744189105,861072568,,2.220446049250313e-16,0.0,0.0,0.0,0.0,0.0
2025/04/09 10:58:25.964105039,1744189105,963878352,,2.220446049250313e-16,0.0,0.0,0.0,0.0,0.0
2025/04/09 10:58:26.64621057,1744189106,63242421,,2.220446049250313e-16,0.0,0.0,0.0,0.0,0.0
2025/04/09 10:58:26.164573690,1744189106,164221616,,2.220446049250313e-16,0.0,0.0,0.0,0.0,0.0
2025/04/09 10:58:26.283675196,1744189106,283302818,,2.220446049250313e-16,0.0,0.0,0.0,0.0,0.0
2025/04/09 10:58:26.361915740,1744189106,360984455,,2.220446049250313e-16,0.0,0.0,0.0,0.0,0.0
2025/04/09 10:58:26.457968288,1744189106,457740353,,2.220446049250313e-16,0.0,0.0,0.0,0.0,0.0
2025/04/09 10:58:26.558507081,1744189106,558256606,,2.220446049250313e-16,0.0,0.0,0.0,0.0,0.0
2025/04/09 10:58:26.658492013,1744189106,658213680,,2.220446049250313e-16,0.0,0.0,0.0,0.0,0.0
2025/04/09 10:58:26.761887953,1744189106,761599625,,2.220446049250313e-16,0.0,0.0,0.0,0.0,0.0
2025/04/09 10:58:26.859192261,1744189106,858920357,,2.220446049250313e-16,0.0,0.0,0.0,0.0,0.0
2025/04/09 10:58:26.960413344,1744189106,960167034,,2.220446049250313e-16,0.0,0.0,0.0,0.0,0.0
2025/04/09 10:58:27.59493571,1744189107,59229280,,-0.06393206576071042,0.13991698314662715,0.0,0.0,0.0,-0.3029962222724971
2025/04/09 10:58:27.165225663,1744189107,164975498,,2.220446049250313e-16,0.0,0.0,0.0,0.0,0.0
2025/04/09 10:58:27.261036108,1744189107,260757911,,2.220446049250313e-16,0.0,0.0,0.0,0.0,0.0
2025/04/09 10:58:27.358500499,1744189107,358266573,,2.220446049250313e-16,0.0,0.0,0.0,0.0,0.0
2025/04/09 10:58:27.484104351,1744189107,483828408,,2.220446049250313e-16,0.0,0.0,0.0,0.0,0.0
2025/04/09 10:58:27.562047750,1744189107,561846781,,11.040398191610388,0.6303403452577921,0.0,0.0,0.0,-1.1346210275095463
2025/04/09 10:58:27.662581882,1744189107,662030220,,21.668620766751893,1.439253052707247,0.0,0.0,0.0,0.18942255517264028
2025/04/09 10:58:27.760340045,1744189107,760133945,,30.470444263170506,0.3863047922587005,0.0,0.0,0.0,-0.6319370202654327
2025/04/09 10:58:27.861010342,1744189107,860738279,,41.63112155146615,2.243095044031549,0.0,0.0,0.0,-0.32171038205787394
2025/04/09 10:58:27.963924120,1744189107,963588565,,51.11614121958911,0.6441583880575146,0.0,0.0,0.0,-1.070460612707044
2025/04/09 10:58:28.71836829,1744189108,71616425,,62.36553375992774,2.5877886171294504,0.0,0.0,0.0,-0.3153826281003014
2025/04/09 10:58:28.292961110,1744189108,291064714,,72.31495480278724,1.3713208339243361,0.0,0.0,0.0,-0.36547465224355347
2025/04/09 10:58:28.461144062,1744189108,460929850,,90.1104216412737,1.85119201220109,0.0,0.0,0.0,-0.37238761507963813
2025/04/09 10:58:28.520894179,1744189108,520630734,,107.10658455690263,3.3153586478729236,0.0,0.0,0.0,-0.37933390728712624
2025/04/09 10:58:28.571166428,1744189108,570911904,,113.08987096012288,3.0469398099983565,0.0,0.0,0.0,-0.36178450997789335
2025/04/09 10:58:28.656784838,1744189108,656543410,,121.89787375418132,3.076526351466134,0.0,0.0,0.0,-0.24488903317178634
2025/04/09 10:58:28.785977160,1744189108,785603291,,122.20875780021811,1.1168209704190621,0.0,0.0,0.0,-0.24777211261265952
2025/04/09 10:58:28.860772680,1744189108,859693032,,122.44548884833212,2.781442536262193,0.0,0.0,0.0,-0.3143004938086773
2025/04/09 10:58:28.957852267,1744189108,957661342,,122.91987494977126,2.664354470769465,0.0,0.0,0.0,-0.3173950077987966
2025/04/09 10:58:29.58758502,1744189109,58563654,,122.48091135767338,0.6396797240920377,0.0,0.0,0.0,-1.151588827273597
2025/04/09 10:58:29.167286538,1744189109,165573361,,123.43874952437443,1.1377662138326605,0.0,0.0,0.0,-0.28910994314448457
2025/04/09 10:58:29.261116122,1744189109,260524633,,122.85864835412562,0.6374009477191201,0.0,0.0,0.0,-1.14739880866777
2025/04/09 10:58:29.357970567,1744189109,357728821,,122.9009683307838,0.6409644285082259,0.0,0.0,0.0,-1.1536690256347955
2025/04/09 10:58:29.459267877,1744189109,458981322,,123.4938663144996,0.5940028529182851,0.0,0.0,0.0,-1.0691531766030222
2025/04/09 10:58:29.558733170,1744189109,558463939,,124.31109422878227,2.4530084061210142,0.0,0.0,0.0,-0.2518055358339195
2025/04/09 10:58:29.662465244,1744189109,662233594,,124.43486900592461,2.7613339320806154,0.0,0.0,0.0,-0.23861663513282783
2025/04/09 10:58:29.758765412,1744189109,758559935,,123.86248105460874,0.6028464295407487,0.0,0.0,0.0,-1.0860147837531282
2025/04/09 10:58:29.860523282,1744189109,856472752,,124.00982472594427,0.6271177311917645,0.0,0.0,0.0,-1.1287368748536382
2025/04/09 10:58:29.984673884,1744189109,984414044,,124.67097116324453,1.0704534682369249,0.0,0.0,0.0,-0.18111666816649818
2025/04/09 10:58:30.64567689,1744189110,64369460,,125.40596177040929,1.0029435142924563,0.0,0.0,0.0,-0.1810558358975103
2025/04/09 10:58:30.163115909,1744189110,162861036,,124.2531732874898,-0.09778328647496692,0.0,0.0,0.0,0.17608639597767306
2025/04/09 10:58:30.259754329,1744189110,259051131,,124.41820680949108,-0.6142195017097033,0.0,0.0,0.0,1.1056756948160178
2025/04/09 10:58:30.362732599,1744189110,362513219,,125.22421182173073,-0.6426982642118415,0.0,0.0,0.0,1.1569375632716292
2025/04/09 10:58:30.461443625,1744189110,461070747,,125.17535098621302,-0.5208905870560658,0.0,0.0,0.0,0.9376869272529722
2025/04/09 10:58:30.559207352,1744189110,558932008,,125.05794669602824,-0.13477699578843383,0.0,0.0,0.0,0.24268055206869432
2025/04/09 10:58:30.657305378,1744189110,657099108,,125.20037857443663,0.14011912429143225,0.0,0.0,0.0,-0.2521182929495651
2025/04/09 10:58:30.757622580,1744189110,757459933,,125.37661690675282,-0.12222440963804337,0.0,0.0,0.0,0.2200972780499748
2025/04/09 10:58:30.861404976,1744189110,861147331,,125.23756313484512,0.11126729020970283,0.0,0.0,0.0,-0.20019324724954046
2025/04/09 10:58:30.960911423,1744189110,960743746,,126.18540518032216,0.09160725799524871,0.0,0.0,0.0,-0.16480889373624108
2025/04/09 10:58:31.57963582,1744189111,57688055,,126.07864836178416,0.33625028112702027,0.0,0.0,0.0,-0.6051668092010773
2025/04/09 10:58:31.190492693,1744189111,190247729,,126.24864489449064,0.4619365555083981,0.0,0.0,0.0,-0.8313947152499587
2025/04/09 10:58:31.260613046,1744189111,260361584,,126.44795315873385,-0.2944471132340518,0.0,0.0,0.0,0.5301022623637772
2025/04/09 10:58:31.361466800,1744189111,361240960,,126.30159729591972,-0.08628557211006438,0.0,0.0,0.0,0.155397072346122
2025/04/09 10:58:31.460582070,1744189111,460382392,,127.3679651003983,-0.10046678998543923,0.0,0.0,0.0,0.18092394292522074
2025/04/09 10:58:31.559107674,1744189111,558847308,,128.32284610901982,1.2302256409367909,0.0,0.0,0.0,-0.1199307981292459
2025/04/09 10:58:31.657925843,1744189111,657753714,,127.87661494829484,0.031336346377647595,0.0,0.0,0.0,-0.0568974262507842
2025/04/09 10:58:31.757715059,1744189111,757435953,,127.76988207627406,-0.3406056718384549,0.0,0.0,0.0,0.6131764323388735
2025/04/09 10:58:31.857005156,1744189111,856749076,,127.67750631268272,-0.16662490814555997,0.0,0.0,0.0,0.3000116635253961
2025/04/09 10:58:31.958461165,1744189111,958159563,,128.8621072766424,-0.176569526983561,0.0,0.0,0.0,0.3179127168247534
2025/04/09 10:58:32.64410567,1744189112,64261451,,129.15158868067022,-0.021890323188855865,0.0,0.0,0.0,0.03949082784218483
2025/04/09 10:58:32.159711170,1744189112,158313599,,129.46537133203782,0.21821468679556755,0.0,0.0,0.0,-0.39270209032278514
2025/04/09 10:58:32.258299925,1744189112,258017353,,130.07855592224502,1.6097892883554876,0.0,0.0,0.0,-0.07786930366519651
2025/04/09 10:58:32.383068605,1744189112,382798165,,129.98001509715039,1.5417553379871913,0.0,0.0,0.0,-0.026959422387382803
2025/04/09 10:58:32.457708451,1744189112,457433794,,131.28285206781382,1.5305293602666716,0.0,0.0,0.0,-0.02356322269208211
2025/04/09 10:58:32.557230244,1744189112,556920790,,130.45894470381148,0.29427132839896075,0.0,0.0,0.0,-0.5309965243926352
2025/04/09 10:58:32.658955263,1744189112,658647374,,131.80947074701373,0.2892114841496174,0.0,0.0,0.0,-0.5205522717777102
2025/04/09 10:58:32.758383965,1744189112,758222892,,131.40318484599135,0.1629266443360694,0.0,0.0,0.0,-0.2931799656281655
2025/04/09 10:58:32.863953356,1744189112,863157607,,131.77391137394068,0.20048269789830786,0.0,0.0,0.0,-0.36077599703283236
2025/04/09 10:58:32.959863664,1744189112,959618569,,132.3801001683138,1.0799759641621716,0.0,0.0,0.0,-0.04738729704049072
2025/04/09 10:58:33.58106169,1744189113,57850038,,133.82515299926473,1.074264435610049,0.0,0.0,0.0,-0.04449177305862362
2025/04/09 10:58:33.162274341,1744189113,162045734,,133.56572207452393,0.369791577534091,0.0,0.0,0.0,-0.6657374031266808
2025/04/09 10:58:33.259614334,1744189113,259442003,,133.55521239827345,0.2642746796790044,0.0,0.0,0.0,-0.4756673050447835
2025/04/09 10:58:33.358368911,1744189113,358093156,,134.0223222937471,-0.621982726535537,0.0,0.0,0.0,1.11959536325033
2025/04/09 10:58:33.458225337,1744189113,458006812,,134.03832488018534,-0.525271894023545,0.0,0.0,0.0,0.9455174530830034
2025/04/09 10:58:33.584154986,1744189113,583854030,,135.59072499343188,-0.36290852143661756,0.0,0.0,0.0,0.6532631455834695
2025/04/09 10:58:33.658836972,1744189113,658521419,,136.12810737241762,-0.872470496961563,0.0,0.0,0.0,1.570475848148095
2025/04/09 10:58:33.760949735,1744189113,758632226,,136.22214004344505,0.1945209275156694,0.0,0.0,0.0,-0.350009897300548
2025/04/09 10:58:33.858890671,1744189113,857514426,,136.87585908942629,0.3156153465948801,0.0,0.0,0.0,-0.5680786072578212
2025/04/09 10:58:33.957919163,1744189113,957671376,,137.94998195404935,-0.4854088409147108,0.0,0.0,0.0,0.8737629529149891
2025/04/09 10:58:34.57883517,1744189114,57615628,,138.5281597390114,0.47496578502173425,0.0,0.0,0.0,-0.8549109850105198
2025/04/09 10:58:34.167437026,1744189114,166751564,,139.3388876554038,2.244616633584649,0.0,0.0,0.0,0.003503708820134843
2025/04/09 10:58:34.257143482,1744189114,256926427,,138.7838334025109,0.40442580711253784,0.0,0.0,0.0,-0.7291421858682899
2025/04/09 10:58:34.358086902,1744189114,357857296,,140.5369632468698,0.4050300444889653,0.0,0.0,0.0,-0.7290276612638401
2025/04/09 10:58:34.457726579,1744189114,457492672,,141.353412771256,1.6012862320728711,0.0,0.0,0.0,0.014954209845716937
2025/04/09 10:58:34.559979256,1744189114,559778708,,141.30740999432857,0.3859418241952953,0.0,0.0,0.0,-0.6954022983936592
2025/04/09 10:58:34.658144369,1744189114,657847285,,142.00412740392505,0.22917260634334624,0.0,0.0,0.0,-0.41248525072922837
2025/04/09 10:58:34.792068520,1744189114,791765175,,142.17550686612628,0.11372780834701657,0.0,0.0,0.0,-0.2046818814581315
2025/04/09 10:58:34.858074944,1744189114,857805601,,144.04725364821923,0.11481611544716475,0.0,0.0,0.0,-0.2066505779357175
2025/04/09 10:58:34.960339937,1744189114,959236873,,144.820893544209,-0.6404314149867436,0.0,0.0,0.0,1.152800181955751
2025/04/09 10:58:35.59761284,1744189115,59617648,,145.6184016327558,-0.3638929752887806,0.0,0.0,0.0,0.6550289812622253
2025/04/09 10:58:35.158574665,1744189115,158321069,,145.31032276920422,0.18912143130866899,0.0,0.0,0.0,-0.340418509398299
2025/04/09 10:58:35.258009800,1744189115,257800172,,147.27687709103503,0.19077146944094736,0.0,0.0,0.0,-0.34336504854224936
2025/04/09 10:58:35.358346289,1744189115,358095736,,147.5316801853984,-0.4534027359046555,0.0,0.0,0.0,0.8161493214678799
2025/04/09 10:58:35.457714821,1744189115,457400129,,148.372190673217,-0.8965257826375144,0.0,0.0,0.0,1.613767952059556
2025/04/09 10:58:35.559050347,1744189115,557088975,,149.2246535040969,-1.2236018716074883,0.0,0.0,0.0,2.202504765830182
2025/04/09 10:58:35.661180627,1744189115,660924063,,151.2860887864535,-1.2216364553815886,0.0,0.0,0.0,2.1989657370936575
2025/04/09 10:58:35.760534632,1744189115,759698973,,152.310418704784,-1.8695211196361585,0.0,0.0,0.0,1.4808260103521382
2025/04/09 10:58:35.858175999,1744189115,857905530,,151.98651686431563,-0.82830838384948,0.0,0.0,0.0,1.4912167517310106
2025/04/09 10:58:35.986466575,1744189115,986186420,,152.27550198887948,-0.22185793135044463,0.0,0.0,0.0,0.3993612980128678
2025/04/09 10:58:36.57632657,1744189116,57416226,,154.43045802777027,-0.21955886474587738,0.0,0.0,0.0,0.39490908487934817
2025/04/09 10:58:36.160976638,1744189116,160675611,,154.8263312567962,-0.4798517659958714,0.0,0.0,0.0,0.8634664918189372
2025/04/09 10:58:36.260876452,1744189116,260604475,,155.80730306282754,-0.8207972982584646,0.0,0.0,0.0,1.477454294268978
2025/04/09 10:58:36.358178061,1744189116,357925588,,156.81023637093494,0.2596937865303294,0.0,0.0,0.0,-0.4674389547760345
2025/04/09 10:58:36.459502990,1744189116,459252279,,159.06174755446813,0.26230938237845225,0.0,0.0,0.0,-0.4723687057804913
2025/04/09 10:58:36.560334233,1744189116,560033587,,159.49526847001215,-0.03774434176444774,0.0,0.0,0.0,0.06795281675094778
2025/04/09 10:58:36.661227599,1744189116,660718704,,159.95287863832672,-0.6174150505219168,0.0,0.0,0.0,1.111358143336734
2025/04/09 10:58:36.758996170,1744189116,758271859,,160.45961418268195,0.23257828365876965,0.0,0.0,0.0,-0.418629862320805
2025/04/09 10:58:36.860925344,1744189116,860676150,,162.8058585605238,0.23548581730812312,0.0,0.0,0.0,-0.423865293420465
2025/04/09 10:58:36.958392528,1744189116,958115199,,162.70076026317972,0.5137460887705949,0.0,0.0,0.0,-0.9248373026097485
2025/04/09 10:58:37.58653391,1744189117,58389014,,160.65232833726645,2.293322402016266,0.0,0.0,0.0,0.08778680263095096
2025/04/09 10:58:37.193327346,1744189117,193014042,,155.76931286817086,1.5314485980451678,0.0,0.0,0.0,0.09184743343654045
2025/04/09 10:58:37.262122359,1744189117,261799100,,150.15877879154152,2.052513769878469,0.0,0.0,0.0,0.09453231526017558
2025/04/09 10:58:37.388731932,1744189117,387176783,,142.40094182530498,0.4041946299574507,0.0,0.0,0.0,-0.7285567105099778
2025/04/09 10:58:37.465760454,1744189117,465569276,,135.68381773614828,0.9964886509797437,0.0,0.0,0.0,0.10084983283935256
2025/04/09 10:58:37.559123432,1744189117,558878453,,127.36506357377166,0.44077470325825974,0.0,0.0,0.0,-0.7936203660217945
2025/04/09 10:58:37.660888799,1744189117,660601064,,119.08151822877956,0.41942696313405803,0.0,0.0,0.0,-0.7548382691353136
2025/04/09 10:58:37.763407218,1744189117,762044617,,110.6029130164171,0.365482021222722,0.0,0.0,0.0,-0.6578218190868856
2025/04/09 10:58:37.858559082,1744189117,858204542,,105.12127867198333,0.3577937540186106,0.0,0.0,0.0,-0.6438768553156174
2025/04/09 10:58:37.958084541,1744189117,957817253,,98.80299941219101,0.20880814192042474,0.0,0.0,0.0,-0.37570171370851724
2025/04/09 10:58:38.57409154,1744189118,57176213,,93.0601483555866,0.07230176074898254,0.0,0.0,0.0,-0.129979923933919
2025/04/09 10:58:38.162649361,1744189118,162339898,,89.73032565180495,0.06799156559263386,0.0,0.0,0.0,-0.12222507367732671
2025/04/09 10:58:38.266053857,1744189118,265797024,,85.3842026532742,0.059737315733293106,0.0,0.0,0.0,-0.1073604798979717
2025/04/09 10:58:38.387923223,1744189118,386055720,,79.9326297109798,-0.10261526686031552,0.0,0.0,0.0,0.18519546082533034
2025/04/09 10:58:38.456882709,1744189118,456554473,,77.19407932738046,-0.10612690412114145,0.0,0.0,0.0,0.1910840373680256
2025/04/09 10:58:38.560516514,1744189118,560104339,,73.52112867267392,1.8759156497832743,0.0,0.0,0.0,0.06850046517346065
2025/04/09 10:58:38.664296812,1744189118,664053006,,69.06287054467722,1.2069463474602773,0.0,0.0,0.0,0.04240552982572399
2025/04/09 10:58:38.759123824,1744189118,758364781,,66.48671549126905,1.2012346799408729,0.0,0.0,0.0,0.04204223716674993
2025/04/09 10:58:38.857874466,1744189118,857623912,,62.071472737543516,0.0002450638772356628,0.0,0.0,0.0,-0.0003250105582941476
2025/04/09 10:58:38.959275683,1744189118,959076106,,57.89713432354426,-0.9718702806963998,0.0,0.0,0.0,1.7494268714211147
2025/04/09 10:58:39.61570414,1744189119,61358897,,54.27833334905854,-0.0010762875159455731,0.0,0.0,0.0,0.0022308618043693773
2025/04/09 10:58:39.163190118,1744189119,162361794,,51.22062667975754,0.29969772809446094,0.0,0.0,0.0,-0.5392481361328755
2025/04/09 10:58:39.260750430,1744189119,257273648,,46.64181023150624,-0.06759787074046686,0.0,0.0,0.0,0.12188841211488155
2025/04/09 10:58:39.361402111,1744189119,361065027,,44.23736007162839,-0.07019454921553137,0.0,0.0,0.0,0.12650045120150133
2025/04/09 10:58:39.459766269,1744189119,459486395,,41.0657971335838,1.2459468678520218,0.0,0.0,0.0,0.0331715352116726
2025/04/09 10:58:39.585811312,1744189119,584980612,,37.92601218954175,2.0447705351592234,0.0,0.0,0.0,0.04380977863059177
2025/04/09 10:58:39.661864689,1744189119,661496799,,34.957242145660025,2.702547039954559,0.0,0.0,0.0,0.04575973335298844
2025/04/09 10:58:39.757413470,1744189119,757252202,,32.166787093051326,1.5211088690158605,0.0,0.0,0.0,0.04619388752632281
2025/04/09 10:58:39.862191878,1744189119,860819577,,28.86007486237367,0.47108306766054353,0.0,0.0,0.0,-0.8479271176549492
2025/04/09 10:58:39.958851995,1744189119,957524541,,25.997441470325,-0.6989837309473815,0.0,0.0,0.0,1.2581763659085323
2025/04/09 10:58:40.59509890,1744189120,58706085,,24.664031496828883,-0.699952977940772,0.0,0.0,0.0,1.2599287932700778
2025/04/09 10:58:40.161128440,1744189120,160911988,,22.137808300832425,0.00290994551066992,0.0,0.0,0.0,-0.005216581395864672
2025/04/09 10:58:40.261975012,1744189120,261703213,,19.636561364137293,-0.3528944935055601,0.0,0.0,0.0,0.6352294038561326
2025/04/09 10:58:40.358056093,1744189120,357768889,,18.73637397597245,-0.3528092098591442,0.0,0.0,0.0,0.6350713497583594
2025/04/09 10:58:40.457269606,1744189120,456995404,,16.880022545756482,-0.3407842015436858,0.0,0.0,0.0,0.6134221667620823
2025/04/09 10:58:40.558493270,1744189120,558274042,,15.158219211885793,-1.1832693527730447,0.0,0.0,0.0,2.1298995597200134
2025/04/09 10:58:40.664962844,1744189120,664694134,,14.635127774442509,-1.1824268817205956,0.0,0.0,0.0,2.1283808859929945
2025/04/09 10:58:40.789380133,1744189120,789101574,,13.215880796830788,-0.9970516549017142,0.0,0.0,0.0,1.7947051672777337
2025/04/09 10:58:40.858041853,1744189120,857756916,,11.839905571140926,-0.33509279317390095,0.0,0.0,0.0,0.6031825056675877
2025/04/09 10:58:40.959616622,1744189120,957723270,,11.67656214913315,0.10968945901701865,0.0,0.0,0.0,-0.1974276850793486
2025/04/09 10:58:41.59213594,1744189121,58947631,,10.527743929826404,-0.6869354649899196,0.0,0.0,0.0,1.2365085600404289
2025/04/09 10:58:41.163668316,1744189121,163415440,,10.514154384284437,-0.6852904917425904,0.0,0.0,0.0,1.2335461700951484
2025/04/09 10:58:41.257235734,1744189121,256943956,,9.797793827534953,-0.5549337648714951,0.0,0.0,0.0,0.9989078545177669
2025/04/09 10:58:41.357595182,1744189121,357306630,,9.185407705180472,-1.1153359998153451,0.0,0.0,0.0,2.0076303116636653
2025/04/09 10:58:41.461463130,1744189121,461096268,,8.467775418409738,-0.8595021235198781,0.0,0.0,0.0,1.5471335491561369
2025/04/09 10:58:41.563735563,1744189121,562731483,,8.77016526552589,-0.8576903212614898,0.0,0.0,0.0,1.5438700507447567
2025/04/09 10:58:41.659781401,1744189121,659512719,,9.049276765096014,-1.5952835546616102,0.0,0.0,0.0,0.9992082878061539
2025/04/09 10:58:41.762543276,1744189121,762255607,,7.961156604687107,-0.5484867762059328,0.0,0.0,0.0,0.9872415060731348
2025/04/09 10:58:41.863152617,1744189121,862896754,,8.456492667322829,-0.5468576744086611,0.0,0.0,0.0,0.9843119111284194
2025/04/09 10:58:41.988511675,1744189121,988232642,,8.32258015571741,-0.7833461821066035,0.0,0.0,0.0,1.409982555464402
2025/04/09 10:58:42.58265471,1744189122,58028416,,8.267022714503739,-0.7785996573407811,0.0,0.0,0.0,1.4014335133280482
2025/04/09 10:58:42.166662257,1744189122,163745401,,8.975441980738198,-0.7559608805294324,0.0,0.0,0.0,1.3606991895874214
2025/04/09 10:58:42.262621800,1744189122,262252681,,9.102062188310377,-0.3148799167679124,0.0,0.0,0.0,0.5667832632234158
2025/04/09 10:58:42.358655852,1744189122,358369014,,9.850414856316354,-0.3133331630531102,0.0,0.0,0.0,0.563998938120246
2025/04/09 10:58:42.460570585,1744189122,460008198,,10.020714381415274,0.7653941545252381,0.0,0.0,0.0,-1.3777434136149644
2025/04/09 10:58:42.558070089,1744189122,557866660,,11.13454240190461,2.4515115305688315,0.0,0.0,0.0,-0.8084428539834696
2025/04/09 10:58:42.659963126,1744189122,659711386,,11.465397678457098,3.0020255896787753,0.0,0.0,0.0,-0.8543070224744209
2025/04/09 10:58:42.760437319,1744189122,760255340,,12.365797788789585,3.0047217004487212,0.0,0.0,0.0,-0.8543818396029574
2025/04/09 10:58:42.858772443,1744189122,858453515,,12.857125821150255,3.725918347948738,0.0,0.0,0.0,-0.6728765038597961
2025/04/09 10:58:42.960395805,1744189122,960107859,,13.182504677336357,3.88802505081561,0.0,0.0,0.0,-0.526313271544397
2025/04/09 10:58:43.63458843,1744189123,63226496,,14.17309622267512,3.891523307507633,0.0,0.0,0.0,-0.5268058886689955
2025/04/09 10:58:43.188972146,1744189123,188685883,,13.893806601133399,0.8112787849335233,0.0,0.0,0.0,-1.460257831915791
2025/04/09 10:58:43.258460006,1744189123,258139837,,14.417039428305783,-0.2795377063999053,0.0,0.0,0.0,0.5031970804351873
2025/04/09 10:58:43.358712276,1744189123,358440162,,15.480634885534268,-0.2774283192554563,0.0,0.0,0.0,0.4994017976245815
2025/04/09 10:58:43.459336851,1744189123,459071095,,16.77903545386048,-1.6488104288248486,0.0,0.0,0.0,1.1346857227812484
2025/04/09 10:58:43.557210721,1744189123,557033962,,16.734026441336688,-1.1523958183764038,0.0,0.0,0.0,2.074340213033743
2025/04/09 10:58:43.662697402,1744189123,659971179,,17.855946577589187,-1.1501733790396655,0.0,0.0,0.0,2.0703425903353176
2025/04/09 10:58:43.758111332,1744189123,757895511,,18.635659384914703,-0.06386018706282426,0.0,0.0,0.0,0.11499024191512075
2025/04/09 10:58:43.861656319,1744189123,860882657,,19.294372123620917,0.20508359662178566,0.0,0.0,0.0,-0.36910262551001316
2025/04/09 10:58:43.962500605,1744189123,962223323,,20.462071536896065,0.20671963495420576,0.0,0.0,0.0,-0.3720469669176125
2025/04/09 10:58:44.57684530,1744189124,57424391,,21.28731206572128,0.20388403184933024,0.0,0.0,0.0,-0.3670304918678611
2025/04/09 10:58:44.158058177,1744189124,157855241,,22.137450639292986,0.4015328329392377,0.0,0.0,0.0,-0.7228206869467477
2025/04/09 10:58:44.263194915,1744189124,262946351,,23.21322455585323,0.7767370444308493,0.0,0.0,0.0,-1.3981921908769008
2025/04/09 10:58:44.384936044,1744189124,384665123,,23.748341200931385,-0.23797165240690155,0.0,0.0,0.0,0.42828140478782517
2025/04/09 10:58:44.456496609,1744189124,456241952,,24.969262069219624,-0.23748336652114743,0.0,0.0,0.0,0.42740064034144665
2025/04/09 10:58:44.557650429,1744189124,557371079,,25.746061230781013,0.18873379260844125,0.0,0.0,0.0,-0.3397832999250885
2025/04/09 10:58:44.661645873,1744189124,661225652,,26.41006444871546,0.636821239730337,0.0,0.0,0.0,-1.1463304155453546
2025/04/09 10:58:44.760959113,1744189124,760662946,,27.614084767431557,0.8722150475987768,0.0,0.0,0.0,-1.570055106991748
2025/04/09 10:58:44.859140764,1744189124,858894967,,28.52080626916746,0.8356162364601947,0.0,0.0,0.0,-1.5041650441357028
2025/04/09 10:58:44.960987596,1744189124,960722317,,29.57002760739994,0.6214461294608181,0.0,0.0,0.0,-1.1186744602393741
2025/04/09 10:58:45.63417399,1744189125,63229829,,30.82506930348978,0.6210318376502191,0.0,0.0,0.0,-1.117942318969362
2025/04/09 10:58:45.163545806,1744189125,162922824,,31.655244361166947,-0.25681370654136904,0.0,0.0,0.0,0.4621658652645465
2025/04/09 10:58:45.262291234,1744189125,262034434,,32.67657715641596,0.6796006968214532,0.0,0.0,0.0,-1.2233718020246422
2025/04/09 10:58:45.361130668,1744189125,359929456,,34.37543979818712,1.7714819566823494,0.0,0.0,0.0,-1.2396449789741293
2025/04/09 10:58:45.461088936,1744189125,460877826,,34.51854163893202,0.5917242862657435,0.0,0.0,0.0,-1.0651327456166633
2025/04/09 10:58:45.588602559,1744189125,588235489,,35.783401432183894,0.5898559678893922,0.0,0.0,0.0,-1.0617656623258314
2025/04/09 10:58:45.657649847,1744189125,657404584,,36.54388646111815,0.6184052504654505,0.0,0.0,0.0,-1.1131796076391098
2025/04/09 10:58:45.758654501,1744189125,758362995,,37.37053588347962,0.050027237820480575,0.0,0.0,0.0,-0.09013063493549223
2025/04/09 10:58:45.860312985,1744189125,860044139,,38.634996217878395,0.04849745859696486,0.0,0.0,0.0,-0.08737338889769952
2025/04/09 10:58:45.959019990,1744189125,957888241,,39.463275774929315,-0.3727621676425662,0.0,0.0,0.0,0.6708678706911898
2025/04/09 10:58:46.60981289,1744189126,60643914,,40.72536526899655,-0.374158251515207,0.0,0.0,0.0,0.673365512995157
2025/04/09 10:58:46.160008309,1744189126,157917096,,41.57405371216266,-0.05317948101744818,0.0,0.0,0.0,0.09562941376011058
2025/04/09 10:58:46.268164960,1744189126,267950774,,43.14455376745546,-1.0766190176923334,0.0,0.0,0.0,-0.19999082970065452
2025/04/09 10:58:46.362081780,1744189126,361455279,,43.55931863522684,-0.14292244971164192,0.0,0.0,0.0,0.2571167305943003
2025/04/09 10:58:46.458746382,1744189126,458508279,,44.36705889018853,-0.05144146711383102,0.0,0.0,0.0,0.09245684898252038
2025/04/09 10:58:46.559587780,1744189126,558434433,,45.28930214840855,-0.04861741354498528,0.0,0.0,0.0,0.0874022615456509
2025/04/09 10:58:46.659337700,1744189126,659065482,,46.239987650326086,0.24467025524673147,0.0,0.0,0.0,-0.440580029002686
2025/04/09 10:58:46.792002370,1744189126,791715982,,46.98596541749267,0.621987380466218,0.0,0.0,0.0,-1.119694169747661
2025/04/09 10:58:46.859815551,1744189126,859538455,,48.22486439553554,0.6194123801985881,0.0,0.0,0.0,-1.1150203116172943
2025/04/09 10:58:46.958622192,1744189126,958164269,,48.91621231633046,0.03926094086589027,0.0,0.0,0.0,-0.07076521088494236
2025/04/09 10:58:47.64497979,1744189127,64234506,,50.14679051798479,0.03664068929643505,0.0,0.0,0.0,-0.06622549357125829
2025/04/09 10:58:47.167506445,1744189127,167266462,,50.63938111377378,0.35718564131704567,0.0,0.0,0.0,-0.6430565358389412
2025/04/09 10:58:47.262333247,1744189127,262168108,,51.49151397366447,0.6918007176565611,0.0,0.0,0.0,-1.2454083647595027
2025/04/09 10:58:47.361018261,1744189127,360693053,,52.360938975362934,-0.08039519832299946,0.0,0.0,0.0,0.14454639860069096
2025/04/09 10:58:47.463457611,1744189127,462466272,,53.5721320926204,-0.08261384561265772,0.0,0.0,0.0,0.1485055653842231
2025/04/09 10:58:47.561653874,1744189127,561430463,,53.91343041864166,0.269475389797175,0.0,0.0,0.0,-0.4852562280680338
2025/04/09 10:58:47.657193346,1744189127,656982254,,55.11242299346965,0.3051019926320885,0.0,0.0,0.0,-0.5496420171660088
2025/04/09 10:58:47.762049343,1744189127,761229469,,55.76786781066471,0.9988654881795409,0.0,0.0,0.0,-1.798436210245472
2025/04/09 10:58:47.862828596,1744189127,862641393,,56.95729434407559,0.9967006416942243,0.0,0.0,0.0,-1.7941470008229345
2025/04/09 10:58:47.990670746,1744189127,990420488,,57.35051843135099,-0.3718200240821593,0.0,0.0,0.0,0.6691897059806436
2025/04/09 10:58:48.61624559,1744189128,58572546,,58.10357443798449,-0.0010148726686238785,0.0,0.0,0.0,0.0017376387109433455
2025/04/09 10:58:48.161194983,1744189128,158891143,,59.02807432212275,1.0129640680992391,0.0,0.0,0.0,-1.8238741173144652
2025/04/09 10:58:48.263415370,1744189128,260826497,,59.76327172760335,1.1794378729991277,0.0,0.0,0.0,-2.1230763062346663
2025/04/09 10:58:48.358176725,1744189128,357915189,,60.49697780164374,1.248873070177244,0.0,0.0,0.0,-2.248246891814305
2025/04/09 10:58:48.459002210,1744189128,458759236,,61.02945399276267,0.8311506939279908,0.0,0.0,0.0,-1.4963502901024848
2025/04/09 10:58:48.560629174,1744189128,560343182,,61.919339682613554,0.6250379688723001,0.0,0.0,0.0,-1.1253420571216726
2025/04/09 10:58:48.658898681,1744189128,658647464,,62.178651226427746,0.47001031758311285,0.0,0.0,0.0,-0.8462856395735887
2025/04/09 10:58:48.762203901,1744189128,761764103,,63.29811215358315,0.46761610674476595,0.0,0.0,0.0,-0.8419722104524332
2025/04/09 10:58:48.862244901,1744189128,861898243,,63.778889304520455,0.10389762786180479,0.0,0.0,0.0,-0.18729074768965526
2025/04/09 10:58:48.963002362,1744189128,962834856,,64.88507454950141,0.10141336477307528,0.0,0.0,0.0,-0.18281620683803768
2025/04/09 10:58:49.60630509,1744189129,59499995,,65.36523414023533,0.2773861810159324,0.0,0.0,0.0,-0.49956708930821936
2025/04/09 10:58:49.191829391,1744189129,191577964,,65.7617765513616,0.15113084487978412,0.0,0.0,0.0,-0.27231045592194003
2025/04/09 10:58:49.259876847,1744189129,259625066,,66.57223793918365,1.0526629039281044,0.0,0.0,0.0,-1.8950673065668668
2025/04/09 10:58:49.360451187,1744189129,360192743,,67.85602708735529,1.9991735217215623,0.0,0.0,0.0,-1.9304910342710095
2025/04/09 10:58:49.458802856,1744189129,458633909,,67.71199485618502,0.6123769887944629,0.0,0.0,0.0,-1.1025663811722364
2025/04/09 10:58:49.558636456,1744189129,557924565,,68.02506887059795,1.0800013309331746,0.0,0.0,0.0,-1.944655070761712
2025/04/09 10:58:49.660775415,1744189129,659032208,,69.08369914872102,1.0776119785601832,0.0,0.0,0.0,-1.9403422802022903
2025/04/09 10:58:49.760374432,1744189129,760217243,,68.83134894745092,0.9446055988506855,0.0,0.0,0.0,-1.7005720557199935
2025/04/09 10:58:49.862595938,1744189129,862330278,,69.87606870662265,0.9422894779191321,0.0,0.0,0.0,-1.696396588927705
2025/04/09 10:58:49.965182600,1744189129,964651944,,70.12787857051777,0.02420900762913425,0.0,0.0,0.0,-0.043852023515798866
2025/04/09 10:58:50.58414780,1744189130,58170768,,71.3313378164758,-1.3488335922421837,0.0,0.0,0.0,-0.5458994131000916
2025/04/09 10:58:50.164731871,1744189130,163606400,,72.35519113647987,-1.3534393617677292,0.0,0.0,0.0,-0.5453918283174082
2025/04/09 10:58:50.263212288,1744189130,262465452,,72.57804004657874,-0.794204858760179,0.0,0.0,0.0,-0.5360953404029625
2025/04/09 10:58:50.391290332,1744189130,391021721,,72.81399230905242,-1.8178350454266743,0.0,0.0,0.0,-0.5361791626229298
2025/04/09 10:58:50.460472851,1744189130,459605276,,72.83221073961403,0.3884536263507973,0.0,0.0,0.0,-0.699078919038847
2025/04/09 10:58:50.560748034,1744189130,558821062,,73.30010531091582,0.5640781779051175,0.0,0.0,0.0,-1.0156080831292869
2025/04/09 10:58:50.662126335,1744189130,659284123,,73.70337536593019,-0.16673821027074132,0.0,0.0,0.0,0.29987267707765186
2025/04/09 10:58:50.762853308,1744189130,762244207,,73.83208619362117,0.7938872222075254,0.0,0.0,0.0,-1.429239308404629
2025/04/09 10:58:50.863311554,1744189130,862705510,,74.46563828669039,0.9060819045033668,0.0,0.0,0.0,-1.631557056965241
2025/04/09 10:58:50.962916116,1744189130,962686423,,74.22626609598204,1.232948752303142,0.0,0.0,0.0,-2.219557093738045
2025/04/09 10:58:51.63882488,1744189131,63573617,,75.18774288019856,1.2309783241626278,0.0,0.0,0.0,-2.2162377536458937
2025/04/09 10:58:51.168806732,1744189131,166635591,,75.96927197545027,2.2625289884648074,0.0,0.0,0.0,-1.7642402816859368
2025/04/09 10:58:51.261818583,1744189131,261574837,,76.91713128416583,2.259338184221206,0.0,0.0,0.0,-1.763960437615518
2025/04/09 10:58:51.359562221,1744189131,358141546,,76.97999662619236,3.1043173365268,0.0,0.0,0.0,-1.7685215897059274
2025/04/09 10:58:51.456510089,1744189131,456242499,,76.37398140739776,1.4445211488355956,0.0,0.0,0.0,-2.600341346807972
2025/04/09 10:58:51.588428226,1744189131,588161053,,77.39623606697303,2.312415463518011,0.0,0.0,0.0,-1.772551936611372
2025/04/09 10:58:51.662237488,1744189131,661552922,,78.31689735079183,2.3095365258509513,0.0,0.0,0.0,-1.7722290093773498
2025/04/09 10:58:51.760666118,1744189131,760383136,,77.25962869658403,0.40418494575317965,0.0,0.0,0.0,-0.727656498687559
2025/04/09 10:58:51.860882331,1744189131,860595231,,78.23456865037565,-0.8745378133258663,0.0,0.0,0.0,-0.26793540430721596
2025/04/09 10:58:51.962846522,1744189131,962518123,,78.48928432516156,-0.8837226080042555,0.0,0.0,0.0,-0.2943637425293537
2025/04/09 10:58:52.64803035,1744189132,64545003,,79.38314648588073,-0.886734176665578,0.0,0.0,0.0,-0.29412192939541715
2025/04/09 10:58:52.161180901,1744189132,160926531,,78.59213683171176,-0.44811875906266274,0.0,0.0,0.0,0.8065637120450116
2025/04/09 10:58:52.263233425,1744189132,263012816,,78.22041383997734,0.021685372592084695,0.0,0.0,0.0,-0.03909904144354237
2025/04/09 10:58:52.361484537,1744189132,361170925,,79.08934602882914,-0.2679838646248778,0.0,0.0,0.0,0.48216781193260627
2025/04/09 10:58:52.458706177,1744189132,458443228,,78.9930118815398,0.45975116701710206,0.0,0.0,0.0,-0.8276095533740114
2025/04/09 10:58:52.558834804,1744189132,558588909,,79.85399181350331,0.45859280414772763,0.0,0.0,0.0,-0.825526125349949
2025/04/09 10:58:52.661462962,1744189132,660944089,,79.08871220921702,-0.11957443797534495,0.0,0.0,0.0,0.21517435310551036
2025/04/09 10:58:52.787460351,1744189132,787181799,,79.93675204004523,-0.1207138036953751,0.0,0.0,0.0,0.2172238035887044
2025/04/09 10:58:52.859082248,1744189132,858804371,,80.47923535060603,-1.1256383264123442,0.0,0.0,0.0,-0.07956428710107066
2025/04/09 10:58:52.960438380,1744189132,958682204,,81.31447620467476,-1.1279963990392792,0.0,0.0,0.0,-0.0796065739730909
2025/04/09 10:58:53.58335231,1744189133,57988436,,80.77156526419662,-1.6323579036159688,0.0,0.0,0.0,-0.08699345885316512
2025/04/09 10:58:53.162842735,1744189133,162589679,,80.91556646901293,-2.2359068003688782,0.0,0.0,0.0,-0.08673682808681105
2025/04/09 10:58:53.259354917,1744189133,259082098,,80.32946581435961,-0.12315980504771218,0.0,0.0,0.0,0.22200971338789333
2025/04/09 10:58:53.360620927,1744189133,359202672,,81.139447894097,-0.12440247445478203,0.0,0.0,0.0,0.2237477796402414
2025/04/09 10:58:53.459314699,1744189133,459145578,,80.21467924312724,0.1718629070411296,0.0,0.0,0.0,-0.30951354506159734
2025/04/09 10:58:53.560240886,1744189133,558929825,,81.01230292835393,0.17093623315154827,0.0,0.0,0.0,-0.3078439673216051
2025/04/09 10:58:53.659710428,1744189133,657115436,,80.7129722395176,-0.3611573070804712,0.0,0.0,0.0,0.6499366157564949
2025/04/09 10:58:53.758985037,1744189133,758728058,,81.49834057983975,-0.3619891620040112,0.0,0.0,0.0,0.6514340429785509
2025/04/09 10:58:53.862888296,1744189133,862663199,,80.83978170546644,0.7501963365264571,0.0,0.0,0.0,-1.3504053658871877
2025/04/09 10:58:53.990153817,1744189133,989856469,,80.90799821930726,0.7592754784927933,0.0,0.0,0.0,-1.366847355293814
2025/04/09 10:58:54.59014354,1744189134,58777611,,80.99985977746348,0.8801914280858265,0.0,0.0,0.0,-1.584500713010608
2025/04/09 10:58:54.162713987,1744189134,162296903,,81.761162492197,0.8794693276025494,0.0,0.0,0.0,-1.583201068912981
2025/04/09 10:58:54.263869157,1744189134,263662664,,81.43760069194991,0.9610321758892038,0.0,0.0,0.0,-1.7300082957736735
2025/04/09 10:58:54.359739280,1744189134,358938030,,81.46488770012174,0.44140507996892,0.0,0.0,0.0,-0.7946742824717906
2025/04/09 10:58:54.458048382,1744189134,457782831,,80.7442480915675,0.3472170283530579,0.0,0.0,0.0,-0.6251360705311351
2025/04/09 10:58:54.558348295,1744189134,558120594,,81.48205059979533,0.3465727318571449,0.0,0.0,0.0,-0.6239755394031794
2025/04/09 10:58:54.658815179,1744189134,658397156,,81.80366773121835,1.9644579590970346,0.0,0.0,0.0,-1.2882030514359373
2025/04/09 10:58:54.759232005,1744189134,758694093,,82.52995310692414,1.9636630580820094,0.0,0.0,0.0,-1.288086616322609
2025/04/09 10:58:54.859737649,1744189134,859421078,,80.71655112422324,0.8000681114960839,0.0,0.0,0.0,-1.4402140068517744
2025/04/09 10:58:54.958451841,1744189134,958225537,,81.43141341011504,0.799609421558464,0.0,0.0,0.0,-1.4394267947059787
2025/04/09 10:58:55.82750951,1744189135,82463575,,81.00939033195007,0.5681014556050242,0.0,0.0,0.0,-1.0227034591568058
2025/04/09 10:58:55.188926445,1744189135,188708875,,81.34227316419009,-0.47128050543368316,0.0,0.0,0.0,0.8482063817447589
2025/04/09 10:58:55.258655601,1744189135,258389277,,81.99389505039885,-1.645828967454339,0.0,0.0,0.0,0.21339216905684633
2025/04/09 10:58:55.358984305,1744189135,358739539,,80.5303179892536,-0.5539515834237859,0.0,0.0,0.0,0.9972307769798621
2025/04/09 10:58:55.458433830,1744189135,458115329,,81.92438746841121,-1.1932940115486264,0.0,0.0,0.0,0.16675082400855312
2025/04/09 10:58:55.561485574,1744189135,561109696,,80.78646690832105,0.1829453608982221,0.0,0.0,0.0,-0.32932985564755535
2025/04/09 10:58:55.657325106,1744189135,656959876,,80.73419738296926,0.30270590999491576,0.0,0.0,0.0,-0.5449844069383201
2025/04/09 10:58:55.761825489,1744189135,761643061,,81.40511962539425,0.30233240288223184,0.0,0.0,0.0,-0.5443125016617258
2025/04/09 10:58:55.866669595,1744189135,866423358,,80.15704992873437,0.19046084173278377,0.0,0.0,0.0,-0.3429294438857051
2025/04/09 10:58:55.957960563,1744189135,957717728,,80.81727354947154,0.19016560830431617,0.0,0.0,0.0,-0.3423932757364312
2025/04/09 10:58:56.60448760,1744189136,60154422,,80.31103484979513,-0.6876463441046269,0.0,0.0,0.0,1.2376643859724499
2025/04/09 10:58:56.163164398,1744189136,162862892,,80.96083586059933,-0.6880014643365303,0.0,0.0,0.0,1.2383046562981115
2025/04/09 10:58:56.263264727,1744189136,263033648,,79.70471870540257,-0.03270503506649458,0.0,0.0,0.0,0.05857667673741296
2025/04/09 10:58:56.388290682,1744189136,386448667,,80.34420545023855,-0.03299592134140328,0.0,0.0,0.0,0.05928345102108268
2025/04/09 10:58:56.461001602,1744189136,457340330,,79.84407641314814,0.3704535317511628,0.0,0.0,0.0,-0.6669149609630475
2025/04/09 10:58:56.557729606,1744189136,557491655,,79.77383705515803,1.040113423574476,0.0,0.0,0.0,-1.8722924003865322
2025/04/09 10:58:56.661046750,1744189136,660769326,,79.62911077072928,0.2555464019138445,0.0,0.0,0.0,-0.46007368657517955
2025/04/09 10:58:56.761647130,1744189136,761400105,,80.24834253664196,0.25536186521008697,0.0,0.0,0.0,-0.45974037277660806
2025/04/09 10:58:56.859151150,1744189136,858915657,,78.9265853037537,-0.5457023482555009,0.0,0.0,0.0,0.9822317821448695
2025/04/09 10:58:56.959477808,1744189136,959183503,,79.53592986784214,-0.5460118094450442,0.0,0.0,0.0,0.982787810960824
2025/04/09 10:58:57.63986688,1744189137,63726308,,78.98752110875053,-0.33978831510747265,0.0,0.0,0.0,0.6115895672484584
2025/04/09 10:58:57.163222886,1744189137,160300069,,79.58707165552451,-0.34006745460529664,0.0,0.0,0.0,0.6120304760409577
2025/04/09 10:58:57.261993956,1744189137,259196365,,79.75958030193688,-1.3447929004400727,0.0,0.0,0.0,0.2886688455043205
2025/04/09 10:58:57.357544658,1744189137,357284527,,78.06965037923922,-0.1905622667630399,0.0,0.0,0.0,0.34302312215851893
2025/04/09 10:58:57.461883059,1744189137,461705468,,78.65487165685758,-0.19084104993217965,0.0,0.0,0.0,0.3434828154965408
2025/04/09 10:58:57.585662805,1744189137,584943502,,78.78972120112533,-1.2523325449593692,0.0,0.0,0.0,0.3089528589128179
2025/04/09 10:58:57.658221574,1744189137,657956195,,79.36552846836679,-1.2529351420584875,0.0,0.0,0.0,0.30890447664816856
2025/04/09 10:58:57.758970682,1744189137,758769874,,77.35072332733107,0.3735579695084358,0.0,0.0,0.0,-0.6724245523576451
2025/04/09 10:58:57.860529743,1744189137,860272502,,77.92279432992325,0.364787988874436,0.0,0.0,0.0,-0.6566468371375471
2025/04/09 10:58:57.959767045,1744189137,958784987,,77.4124904830202,0.38538774103749773,0.0,0.0,0.0,-0.6937255904448123
2025/04/09 10:58:58.63961395,1744189138,61892386,,77.1997450373463,0.3559793721081459,0.0,0.0,0.0,-0.6407865342629535
2025/04/09 10:58:58.158854778,1744189138,158646739,,77.7526371011834,0.355871403485748,0.0,0.0,0.0,-0.6405922708640861
2025/04/09 10:58:58.259437679,1744189138,259238780,,76.3283694769267,-0.428133781286693,0.0,0.0,0.0,0.7705650429688176
2025/04/09 10:58:58.358099130,1744189138,357520245,,76.87232556905212,-0.42826520161612547,0.0,0.0,0.0,0.7708524376414051
2025/04/09 10:58:58.457613714,1744189138,457342370,,76.24979667709016,-0.2934157607617821,0.0,0.0,0.0,0.5280662742744039
2025/04/09 10:58:58.558127925,1744189138,557715678,,76.78495171076239,-0.29357913021336557,0.0,0.0,0.0,0.5284154204363357
2025/04/09 10:58:58.662629171,1744189138,662389469,,76.15037571177643,-0.044196739693020515,0.0,0.0,0.0,0.07947149389752828
2025/04/09 10:58:58.788743700,1744189138,788478069,,76.65527962341918,-1.124495890047338,0.0,0.0,0.0,0.3195997566003037
2025/04/09 10:58:58.857065735,1744189138,856797656,,74.91992324608398,0.0002956552141728519,0.0,0.0,0.0,-0.0005904807289900393
2025/04/09 10:58:58.957274863,1744189138,956957715,,75.43788015519274,0.000138373593050245,0.0,0.0,0.0,-0.0003183528921408829
2025/04/09 10:58:59.68834783,1744189139,68579466,,74.81704907711978,-0.7280400034167805,0.0,0.0,0.0,1.3102396075548755
2025/04/09 10:58:59.158724860,1744189139,158280133,,74.60386410876461,-0.28572356680407496,0.0,0.0,0.0,0.5140926720123908
2025/04/09 10:58:59.261596011,1744189139,261375362,,75.10929507839609,-0.2858469232383771,0.0,0.0,0.0,0.5144453048372803
2025/04/09 10:58:59.358436725,1744189139,357904160,,73.74478018161567,0.24468029857236395,0.0,0.0,0.0,-0.4405063340329054
2025/04/09 10:58:59.459526735,1744189139,459335994,,74.24196685440529,0.2445682338122589,0.0,0.0,0.0,-0.44030460114189407
2025/04/09 10:58:59.560455985,1744189139,558982374,,73.58287512370953,-0.302241266900683,0.0,0.0,0.0,0.543947140258755
2025/04/09 10:58:59.660099072,1744189139,659879320,,73.67416766998888,-0.18934434990054438,0.0,0.0,0.0,0.34073673650309655
2025/04/09 10:58:59.759644635,1744189139,759396356,,73.37375830259472,0.005403667702328363,0.0,0.0,0.0,-0.009807422433546265
2025/04/09 10:58:59.861391871,1744189139,861139972,,73.0975450691185,0.7819905590144131,0.0,0.0,0.0,-1.4076672519076419
2025/04/09 10:58:59.986551011,1744189139,986276927,,72.47509284040024,0.0467602336827454,0.0,0.0,0.0,-0.08425201622322143
2025/04/09 10:59:00.61884126,1744189140,60398512,,72.18567366493275,0.21120107633017682,0.0,0.0,0.0,-0.3803748792599202
2025/04/09 10:59:00.157906511,1744189140,157628232,,71.89729076673602,0.29330463524948625,0.0,0.0,0.0,-0.528173741590613
2025/04/09 10:59:00.264441721,1744189140,263556420,,72.36283037266733,0.2932222401403457,0.0,0.0,0.0,-0.5280263889122574
2025/04/09 10:59:00.357837980,1744189140,357596755,,70.97479495956603,0.44254973027743594,0.0,0.0,0.0,-0.7968217934091799
2025/04/09 10:59:00.457300557,1744189140,457049104,,71.4327512748491,0.4424884670936611,0.0,0.0,0.0,-0.796711972524139
2025/04/09 10:59:00.556828020,1744189140,556628319,,70.79155646179723,0.4671425147755388,0.0,0.0,0.0,-0.8410877897911312
2025/04/09 10:59:00.661542296,1744189140,661254989,,71.24200594710103,0.46708671715738237,0.0,0.0,0.0,-0.8409883553351305
2025/04/09 10:59:00.760641315,1744189140,759447447,,70.58317743974521,0.3130816641921921,0.0,0.0,0.0,-0.5637786691441573
2025/04/09 10:59:00.862528789,1744189140,861559432,,69.58088721411605,0.1661025770214144,0.0,0.0,0.0,-0.29921481130505123
2025/04/09 10:59:00.964200791,1744189140,963981767,,70.02028328677982,0.1660736278258872,0.0,0.0,0.0,-0.29901815559504397
2025/04/09 10:59:01.61930752,1744189141,61675120,,69.69031980314573,0.8577045405686912,0.0,0.0,0.0,-1.543952701402394
2025/04/09 10:59:01.186525353,1744189141,186278667,,68.99520469030193,0.6995412613168143,0.0,0.0,0.0,-1.259406501662613
2025/04/09 10:59:01.259106899,1744189141,258830105,,68.67593997998182,0.389758319925824,0.0,0.0,0.0,-0.7017974895688657
2025/04/09 10:59:01.362473167,1744189141,362238786,,69.10110948248253,0.3897245415540749,0.0,0.0,0.0,-0.7017366999526571
2025/04/09 10:59:01.459508406,1744189141,459135427,,68.40408328350844,0.29720168721168916,0.0,0.0,0.0,-0.5351945910572381
2025/04/09 10:59:01.557699886,1744189141,557341650,,67.39978767791204,0.77773393478898,0.0,0.0,0.0,-1.4001319611622307
2025/04/09 10:59:01.658167431,1744189141,657913082,,67.8145462415229,0.7777459460950682,0.0,0.0,0.0,-1.4001554822209301
2025/04/09 10:59:01.758856424,1744189141,758600247,,67.13793245924228,0.6109487255620326,0.0,0.0,0.0,-1.099911733973537
2025/04/09 10:59:01.859598120,1744189141,859335897,,67.54587353056905,0.6109508809063187,0.0,0.0,0.0,-1.0999220074773122
2025/04/09 10:59:01.959604292,1744189141,959333405,,66.87429865289772,0.32000662393924195,0.0,0.0,0.0,-0.5762083914521656
2025/04/09 10:59:02.62476521,1744189142,60546073,,66.56069447111474,0.23109786057318094,0.0,0.0,0.0,-0.4161718739118976
2025/04/09 10:59:02.164205731,1744189142,162006641,,65.90095304038121,0.07116337263501005,0.0,0.0,0.0,-0.1281666856150745
2025/04/09 10:59:02.259263862,1744189142,258836608,,65.5791727126992,0.0936698298186831,0.0,0.0,0.0,-0.16867945424439723
2025/04/09 10:59:02.383271098,1744189142,383084345,,65.24483207840868,-0.7844888895458658,0.0,0.0,0.0,1.4120123503843753
2025/04/09 10:59:02.457999096,1744189142,457726738,,65.63295301470524,-0.7845889186660344,0.0,0.0,0.0,1.412192648637136
2025/04/09 10:59:02.563177710,1744189142,562326058,,64.22947056914495,-0.5714039868441253,0.0,0.0,0.0,1.0284555565401843
2025/04/09 10:59:02.657490973,1744189142,657225945,,64.61121859999449,-0.5714898600312914,0.0,0.0,0.0,1.0286120214463168
2025/04/09 10:59:02.762129111,1744189142,758565875,,63.92628491593122,-0.40549718759537423,0.0,0.0,0.0,0.7296916450370612
2025/04/09 10:59:02.858587997,1744189142,858305449,,64.43016381122257,-1.3618763583745177,0.0,0.0,0.0,0.35688865346566234
2025/04/09 10:59:02.960557558,1744189142,960292686,,64.80248078218033,-1.3622576516549842,0.0,0.0,0.0,0.3567541540980639
2025/04/09 10:59:03.64997270,1744189143,64172689,,62.64763247156209,0.2585424827079371,0.0,0.0,0.0,-0.4654053073596429
2025/04/09 10:59:03.160009164,1744189143,159819428,,63.013812091778284,0.25848551830470634,0.0,0.0,0.0,-0.4653517586837854
2025/04/09 10:59:03.261435471,1744189143,260826896,,62.02223692018285,0.2747575263688281,0.0,0.0,0.0,-0.4946401748686359
2025/04/09 10:59:03.357401275,1744189143,357136716,,62.38236605573777,0.274730376995727,0.0,0.0,0.0,-0.49459099724509625
2025/04/09 10:59:03.457904212,1744189143,457055779,,61.67626523928412,0.9460814469209319,0.0,0.0,0.0,-1.7030179810813821
2025/04/09 10:59:03.588148156,1744189143,587932450,,61.32183843579509,0.787181493220871,0.0,0.0,0.0,-1.417000142336574
2025/04/09 10:59:03.659336259,1744189143,658248771,,61.67307356933217,0.7872266246755122,0.0,0.0,0.0,-1.4170809365262493
2025/04/09 10:59:03.758188825,1744189143,757959557,,60.311550243709945,1.0242503394332583,0.0,0.0,0.0,-1.8438546412507975
2025/04/09 10:59:03.858043575,1744189143,857567340,,60.65704206823992,1.024337061843566,0.0,0.0,0.0,-1.843983613508926
2025/04/09 10:59:03.957109905,1744189143,956853015,,59.98122650987652,0.03773386917090449,0.0,0.0,0.0,-0.0680987566709379
2025/04/09 10:59:04.69893833,1744189144,67753801,,59.658012542921,0.6326280794741481,0.0,0.0,0.0,-1.1387932602887119
2025/04/09 10:59:04.165962351,1744189144,165659434,,59.994873669873925,0.6326685447413085,0.0,0.0,0.0,-1.1389533651476038
2025/04/09 10:59:04.263829661,1744189144,263668586,,59.3487964073295,1.0560914102046746,0.0,0.0,0.0,-1.9011263686774185
2025/04/09 10:59:04.359637297,1744189144,359349355,,58.33706089179626,-0.1748381687474413,0.0,0.0,0.0,0.3146373106524989
2025/04/09 10:59:04.461307524,1744189144,461052425,,58.67064669208426,-0.1635819043288933,0.0,0.0,0.0,0.2942587227534794
2025/04/09 10:59:04.561654555,1744189144,560990859,,58.0041744251707,-0.38047258611184265,0.0,0.0,0.0,0.6847874961752297
2025/04/09 10:59:04.662776964,1744189144,659699231,,57.67534294702651,0.0010608239149006993,0.0,0.0,0.0,-0.0019679235312588528
2025/04/09 10:59:04.791634662,1744189144,791372770,,57.39774087693117,-0.10815318325244783,0.0,0.0,0.0,0.19461097771929992
2025/04/09 10:59:04.861434264,1744189144,861154095,,57.71547843070732,-0.10815105331124486,0.0,0.0,0.0,0.19460749468935767
2025/04/09 10:59:04.957781433,1744189144,957566952,,56.38874605338337,0.7161738500500886,0.0,0.0,0.0,-1.2892635821258203
2025/04/09 10:59:05.57777459,1744189145,57571313,,56.70121202821147,0.7162431976921739,0.0,0.0,0.0,-1.2893936324011461
2025/04/09 10:59:05.160030712,1744189145,159862836,,56.04916325639753,-0.28314609656656387,0.0,0.0,0.0,0.5095241214108344
2025/04/09 10:59:05.259373319,1744189145,259222021,,55.7670363528835,0.3791712390096903,0.0,0.0,0.0,-0.682642157868986
2025/04/09 10:59:05.360168866,1744189145,359923494,,55.41132312777459,-0.44737565559167647,0.0,0.0,0.0,0.8051388252823375
2025/04/09 10:59:05.459108234,1744189145,458836304,,55.713497375308265,-0.4473954557224127,0.0,0.0,0.0,0.8051742229759744
2025/04/09 10:59:05.572218256,1744189145,571182671,,55.04287820313789,-0.3734310678212569,0.0,0.0,0.0,0.6720343143974135
2025/04/09 10:59:05.662847624,1744189145,662591400,,54.70814124061697,-0.24236613830159526,0.0,0.0,0.0,0.4361223623059859
2025/04/09 10:59:05.757166149,1744189145,756981305,,54.373347862555335,-0.12905384059022396,0.0,0.0,0.0,0.2321555765592478
2025/04/09 10:59:05.856693212,1744189145,856408879,,53.731083208143566,-0.052083140450217,0.0,0.0,0.0,0.09361592635003202
2025/04/09 10:59:05.987125026,1744189145,986811802,,53.44741358780392,-0.030794671006877605,0.0,0.0,0.0,0.055298988432429086
2025/04/09 10:59:06.64843926,1744189146,63272930,,53.1032323424386,-0.45645680993927906,0.0,0.0,0.0,0.8214925211537294
2025/04/09 10:59:06.160953840,1744189146,160704020,,53.38817823043026,-0.4564820569075202,0.0,0.0,0.0,0.8215371423211794
2025/04/09 10:59:06.259815653,1744189146,259559232,,52.740712997979465,-0.3616193469691926,0.0,0.0,0.0,0.6507882255327929
2025/04/09 10:59:06.359139311,1744189146,358888669,,52.41983727262014,0.014411483068012654,0.0,0.0,0.0,-0.026065807564736865
2025/04/09 10:59:06.458599961,1744189146,457775514,,51.78774801843636,-0.509185496473624,0.0,0.0,0.0,0.9164118107695916
2025/04/09 10:59:06.558879082,1744189146,558578023,,51.501383197482795,-0.24465772818452214,0.0,0.0,0.0,0.4402600683850535
2025/04/09 10:59:06.659080871,1744189146,657584831,,51.1788478883978,-0.19459920467989744,0.0,0.0,0.0,0.35016916217834093
2025/04/09 10:59:06.765802111,1744189146,764357716,,51.449782346449766,-0.19459092876027506,0.0,0.0,0.0,0.35015500892851736
2025/04/09 10:59:06.863654228,1744189146,862601316,,50.74113867281824,0.6019884861760298,0.0,0.0,0.0,-1.0836985568824529
2025/04/09 10:59:06.958406497,1744189146,958138970,,50.438274665378174,-0.1331882299856899,0.0,0.0,0.0,0.23961528402131194
2025/04/09 10:59:07.61358260,1744189147,61104442,,49.828433373939134,-0.05162634125445009,0.0,0.0,0.0,0.0928078063617368
2025/04/09 10:59:07.196204258,1744189147,195989702,,49.50862692621349,-0.6756123669448917,0.0,0.0,0.0,1.21598233331892
2025/04/09 10:59:07.259352197,1744189147,259196644,,49.20131747208577,-0.5401320215806844,0.0,0.0,0.0,0.9721398623920151
2025/04/09 10:59:07.358818284,1744189147,358628486,,49.45892049066026,-0.5401475865819656,0.0,0.0,0.0,0.972167741342579
2025/04/09 10:59:07.467307424,1744189147,467016880,,48.88593595839943,-0.2926274050944335,0.0,0.0,0.0,0.526622057645702
2025/04/09 10:59:07.561995314,1744189147,561710411,,49.2708799372531,-1.2256052409324742,0.0,0.0,0.0,0.46399854378525385
2025/04/09 10:59:07.659640843,1744189147,659364727,,47.67841997569339,-0.3590928564173027,0.0,0.0,0.0,0.6462478240528633
2025/04/09 10:59:07.765458967,1744189147,762482820,,47.92749403645114,-0.3591287035213463,0.0,0.0,0.0,0.6462996215634725
2025/04/09 10:59:07.863827544,1744189147,863607244,,47.332148418248046,-0.20552027849936427,0.0,0.0,0.0,0.3698035960849211
2025/04/09 10:59:07.958633090,1744189147,958364352,,47.08288551442119,-0.730113842517632,0.0,0.0,0.0,1.3140700618852834
2025/04/09 10:59:08.61951870,1744189148,60570575,,46.75328864555813,-0.43275311525617177,0.0,0.0,0.0,0.7788221498176308
2025/04/09 10:59:08.159474830,1744189148,157440976,,46.43257529687949,-0.10302236550274091,0.0,0.0,0.0,0.18531006348149237
2025/04/09 10:59:08.259245655,1744189148,258953947,,46.09792996693792,-0.058142751229890655,0.0,0.0,0.0,0.10452780740473067
2025/04/09 10:59:08.386318966,1744189148,385977928,,46.33472370225833,-0.058143738925610644,0.0,0.0,0.0,0.10452910333084042
2025/04/09 10:59:08.460149205,1744189148,457890993,,45.7548908402882,-0.45968240511853387,0.0,0.0,0.0,0.8272924403988525
2025/04/09 10:59:08.559453269,1744189148,559137155,,44.90070512037873,0.02503491761017551,0.0,0.0,0.0,-0.04519422590292588
2025/04/09 10:59:08.660281868,1744189148,659982912,,45.13158822198193,0.02503193987513641,0.0,0.0,0.0,-0.04518718993111581
2025/04/09 10:59:08.759735856,1744189148,759531374,,44.527390542794635,0.8656232334654996,0.0,0.0,0.0,-1.5582609738871216
2025/04/09 10:59:08.860477218,1744189148,860227489,,44.296480838693824,0.7147135071949137,0.0,0.0,0.0,-1.2866210181431843
2025/04/09 10:59:08.965423225,1744189148,965152049,,44.52153587507006,0.7147841959451396,0.0,0.0,0.0,-1.2867599327932053
2025/04/09 10:59:09.67571193,1744189149,66925903,,43.935963720720984,-0.2078892794449516,0.0,0.0,0.0,0.3740662417597671
2025/04/09 10:59:09.159399745,1744189149,159129660,,43.65599264935766,0.6741970876567202,0.0,0.0,0.0,-1.2136835275766464
2025/04/09 10:59:09.258650645,1744189149,258411982,,44.04339435954125,1.6052822810240612,0.0,0.0,0.0,-0.9569562573267318
2025/04/09 10:59:09.357898557,1744189149,357681944,,42.5148759500442,0.2870026894038241,0.0,0.0,0.0,-0.5167448372321413
2025/04/09 10:59:09.460264745,1744189149,460005229,,42.73068091685449,0.28706796034530124,0.0,0.0,0.0,-0.5168488105959971
2025/04/09 10:59:09.587527974,1744189149,587226294,,42.16596956082128,0.3819592466227465,0.0,0.0,0.0,-0.6876486114992779
2025/04/09 10:59:09.663047176,1744189149,661419226,,41.868647831198246,0.21132000152803143,0.0,0.0,0.0,-0.3804918144642151
2025/04/09 10:59:09.769224650,1744189149,768698733,,41.57803912667156,0.029825597536779158,0.0,0.0,0.0,-0.053804145951294347
2025/04/09 10:59:09.860101139,1744189149,859485593,,41.78664078556004,0.02987040677740349,0.0,0.0,0.0,-0.053884667182126256
2025/04/09 10:59:09.962560878,1744189149,962264612,,41.24411396367384,0.7279968777972492,0.0,0.0,0.0,-1.3105136142201446
2025/04/09 10:59:10.63841449,1744189150,60882787,,40.93324153769443,0.3698371132509306,0.0,0.0,0.0,-0.6658247854413853
2025/04/09 10:59:10.171612860,1744189150,171354952,,40.63916936913979,0.17977535473602513,0.0,0.0,0.0,-0.3237145785178962
2025/04/09 10:59:10.260386880,1744189150,260093499,,40.349844634878814,0.25498887848441887,0.0,0.0,0.0,-0.45912167582765506
2025/04/09 10:59:10.359638910,1744189150,359360101,,40.06077764905404,-0.27859747956453207,0.0,0.0,0.0,0.501360448891196
2025/04/09 10:59:10.459479993,1744189150,459211989,,39.31875126507999,0.7990745005400322,0.0,0.0,0.0,-1.4384467155789882
2025/04/09 10:59:10.561318181,1744189150,560836622,,39.52149852423794,0.9022131816230257,0.0,0.0,0.0,-1.6240982352900961
2025/04/09 10:59:10.658582571,1744189150,658366125,,38.993724725460496,0.4312126922458579,0.0,0.0,0.0,-0.7762960960070827
2025/04/09 10:59:10.784775945,1744189150,784029750,,38.70922427086052,-0.5086021643279381,0.0,0.0,0.0,0.9153749874068535
2025/04/09 10:59:10.860818433,1744189150,860630933,,38.45937917871528,0.03219381147096401,0.0,0.0,0.0,-0.05805827830956756
2025/04/09 10:59:10.958324986,1744189150,958066013,,38.17468720049381,-0.7441073906866604,0.0,0.0,0.0,1.339315465744454
2025/04/09 10:59:11.61975585,1744189151,61744980,,38.363156978077384,-0.7441187671565287,0.0,0.0,0.0,1.339335861455269
2025/04/09 10:59:11.158578639,1744189151,158293704,,37.633679994286055,-0.10641969872403678,0.0,0.0,0.0,0.19145023981821252
2025/04/09 10:59:11.264409402,1744189151,262422721,,37.42169520752658,0.4480238186839671,0.0,0.0,0.0,-0.8065649731453519
2025/04/09 10:59:11.358683149,1744189151,358451803,,37.12771270372082,-0.4258645883521457,0.0,0.0,0.0,0.7664377503801006
2025/04/09 10:59:11.458433865,1744189151,457719983,,36.67256279058096,-0.7660151134025536,0.0,0.0,0.0,1.3786951667437077
2025/04/09 10:59:11.560797129,1744189151,560356595,,36.46244962006213,0.17097945957847827,0.0,0.0,0.0,-0.3078908466008128
2025/04/09 10:59:11.663331950,1744189151,662888581,,36.008057518383154,0.19690837634286795,0.0,0.0,0.0,-0.3545589099547748
2025/04/09 10:59:11.757180855,1744189151,756686249,,35.742286612498205,0.20033196643511375,0.0,0.0,0.0,-0.3607112942355851
2025/04/09 10:59:11.858092319,1744189151,857816646,,35.9184018204154,0.20030683532641247,0.0,0.0,0.0,-0.36066726086026923
2025/04/09 10:59:11.985782748,1744189151,985296815,,35.57719800495498,0.27700659821284834,0.0,0.0,0.0,-0.49873102387721147
2025/04/09 10:59:12.59462819,1744189152,59285779,,35.35400471615168,0.8821514022768522,0.0,0.0,0.0,-1.5879961640831781
2025/04/09 10:59:12.159254910,1744189152,158105406,,35.1412960183317,1.2042366110391765,0.0,0.0,0.0,-2.167749391441305
2025/04/09 10:59:12.256761543,1744189152,256521133,,34.717623534572375,0.5149131678225827,0.0,0.0,0.0,-0.9269616660006283
2025/04/09 10:59:12.360238113,1744189152,359957914,,34.463281701514845,1.0141747213848138,0.0,0.0,0.0,-1.825632433203347
2025/04/09 10:59:12.461171752,1744189152,460459808,,34.206646824540414,0.6737538816370551,0.0,0.0,0.0,-1.2128742817986462
2025/04/09 10:59:12.559871906,1744189152,559586456,,33.94345699440525,0.44002639497761753,0.0,0.0,0.0,-0.7921616707897202
2025/04/09 10:59:12.660481860,1744189152,658757168,,33.689345905387626,0.21353071215935793,0.0,0.0,0.0,-0.38446784809818113
2025/04/09 10:59:12.763564073,1744189152,762250790,,33.43667038995345,0.7174107689946361,0.0,0.0,0.0,-1.2914532975620971
2025/04/09 10:59:12.860265473,1744189152,859975394,,33.1954258955258,0.45301830657905096,0.0,0.0,0.0,-0.8155339429744157
2025/04/09 10:59:12.958838762,1744189152,958626103,,33.35583720372117,0.4530288096174334,0.0,0.0,0.0,-0.8155541553097954
2025/04/09 10:59:13.66333554,1744189153,66117914,,32.872563312561724,0.1362752949878132,0.0,0.0,0.0,-0.24539955537344205
2025/04/09 10:59:13.192465764,1744189153,192213963,,32.598243946757464,0.04375774908591856,0.0,0.0,0.0,-0.07886822677875704
2025/04/09 10:59:13.259345006,1744189153,258525012,,32.372195654821155,-0.030393230599113696,0.0,0.0,0.0,0.05460982688013272
2025/04/09 10:59:13.357935210,1744189153,357710254,,32.106887752510175,-0.5334904859365954,0.0,0.0,0.0,0.9601851285916683
2025/04/09 10:59:13.460805355,1744189153,460561691,,32.37571375209628,-1.7350353657687747,0.0,0.0,0.0,0.18390570935689188
