time,header_stamp_secs,header_stamp_nsecs,header_frame_id,wrench_force_x,wrench_force_y,wrench_force_z,wrench_torque_x,wrench_torque_y,wrench_torque_z
2025/04/09 10:58:24.14825552,1744189104,14685430,,1.242719531059265,-1.463931918144226,0.0,0.0,0.0,0.30609631538391113
2025/04/09 10:58:24.97455292,1744189104,96452061,,1.2428704500198362,-1.4641079902648926,0.0,0.0,0.0,0.30614176392555237
2025/04/09 10:58:24.184207797,1744189104,183477536,,1.3607091537694296,-1.5602661653952001,0.0,0.0,0.0,-0.30429425567298807
2025/04/09 10:58:24.322616078,1744189104,318763445,,1.2469819784164426,-1.4411531686782837,0.0,0.0,0.0,0.30578383803367615
2025/04/09 10:58:24.422361426,1744189104,420953924,,0.7578595041714893,-1.4158303914624857,0.0,0.0,0.0,0.60596142120398
2025/04/09 10:58:24.506227228,1744189104,502025556,,0.7579398802191064,-1.4158305626335101,0.0,0.0,0.0,0.6060259272019751
2025/04/09 10:58:24.615741210,1744189104,615060455,,1.1667762994766233,-1.321168303489685,0.0,0.0,0.0,0.2708805501461029
2025/04/09 10:58:24.683755457,1744189104,683272883,,1.1669185161590574,-1.32135808467865,0.0,0.0,0.0,0.27091795206069946
2025/04/09 10:58:24.767216094,1744189104,766434181,,1.1089885234832761,1.3796802759170532,0.0,0.0,0.0,0.15983521938323975
2025/04/09 10:58:24.863195949,1744189104,863005445,,1.1293909549713133,1.2699259519577026,0.0,0.0,0.0,0.17700015008449554
2025/04/09 10:58:24.962947027,1744189104,962575736,,1.1958247423171995,1.3632194995880127,0.0,0.0,0.0,-0.02157561108469963
2025/04/09 10:58:25.87469796,1744189105,87310762,,1.234293222427368,1.0994621515274048,0.0,0.0,0.0,0.03721524029970169
2025/04/09 10:58:25.163175319,1744189105,162705477,,1.3001015186309812,1.130939245223999,0.0,0.0,0.0,0.19605816900730133
2025/04/09 10:58:25.261881280,1744189105,261417034,,1.3002566099166868,1.1310534477233887,0.0,0.0,0.0,0.19606851041316986
2025/04/09 10:58:25.358728660,1744189105,358567445,,1.2731803655624387,-0.5996373295783997,0.0,0.0,0.0,0.2323642075061798
2025/04/09 10:58:25.459081714,1744189105,458962237,,1.2433825731277464,-0.5570799112319946,0.0,0.0,0.0,0.2436479926109314
2025/04/09 10:58:25.571947018,1744189105,571851040,,1.2435326576232908,-0.5571216940879822,0.0,0.0,0.0,0.24367178976535797
2025/04/09 10:58:25.671587380,1744189105,671445633,,1.240694999694824,1.2222959995269775,0.0,0.0,0.0,0.24504801630973816
2025/04/09 10:58:25.760413585,1744189105,760244110,,1.2427687644958494,-0.5070719122886658,0.0,0.0,0.0,0.2496473789215088
2025/04/09 10:58:25.861415250,1744189105,861218066,,1.2493835687637327,1.2462513446807861,0.0,0.0,0.0,0.25505009293556213
2025/04/09 10:58:25.964279664,1744189105,964019042,,1.251754283905029,1.2123167514801025,0.0,0.0,0.0,0.29613080620765686
2025/04/09 10:58:26.64626485,1744189106,63371610,,1.251905560493469,1.212448000907898,0.0,0.0,0.0,0.2961661219596863
2025/04/09 10:58:26.164589451,1744189106,164388330,,1.2527968883514402,0.5137590765953064,0.0,0.0,0.0,0.27017641067504883
2025/04/09 10:58:26.283695586,1744189106,283444995,,1.2516905069351194,1.1953045129776,0.0,0.0,0.0,0.2651621401309967
2025/04/09 10:58:26.361920946,1744189106,361110325,,1.2435892820358274,-0.5667614340782166,0.0,0.0,0.0,0.26202288269996643
2025/04/09 10:58:26.458020143,1744189106,457882729,,1.224951386451721,-0.6006568670272827,0.0,0.0,0.0,0.2615377604961395
2025/04/09 10:58:26.558622370,1744189106,558397377,,1.2159631252288816,-0.186472088098526,0.0,0.0,0.0,0.267261803150177
2025/04/09 10:58:26.658510732,1744189106,658353484,,1.215221047401428,-0.11027708649635315,0.0,0.0,0.0,0.26333722472190857
2025/04/09 10:58:26.762004020,1744189106,761757474,,1.2124153375625608,0.218014195561409,0.0,0.0,0.0,0.2708563208580017
2025/04/09 10:58:26.859416860,1744189106,859066854,,1.2178460359573362,0.21598108112812042,0.0,0.0,0.0,0.2767094373703003
2025/04/09 10:58:26.960579149,1744189106,960309857,,1.2179930210113523,0.21600179374217987,0.0,0.0,0.0,0.2767448425292969
2025/04/09 10:58:27.59511681,1744189107,59371697,,1.2945873782988575,1.68238655040745,0.0,0.0,0.0,0.5771007876545009
2025/04/09 10:58:27.165407489,1744189107,165182401,,1.2422100305557249,-0.05014045536518097,0.0,0.0,0.0,0.2771977484226227
2025/04/09 10:58:27.261674356,1744189107,260955104,,1.2535284757614134,1.5839027166366577,0.0,0.0,0.0,0.28039786219596863
2025/04/09 10:58:27.358615370,1744189107,358404486,,1.2553387880325315,1.3978593349456787,0.0,0.0,0.0,0.3023160696029663
2025/04/09 10:58:27.484121016,1744189107,483964663,,1.2587372064590452,0.9506806135177612,0.0,0.0,0.0,0.30414167046546936
2025/04/09 10:58:27.562107836,1744189107,561978806,,108.65417425712008,0.7433048411664632,0.0,0.0,0.0,1.3368325863283634
2025/04/09 10:58:27.662597491,1744189107,662223173,,98.19162398422466,0.7080934438747843,0.0,0.0,0.0,0.04666507998685221
2025/04/09 10:58:27.760430802,1744189107,760274596,,89.569716869642,0.4906374250913056,0.0,0.0,0.0,0.882476978742453
2025/04/09 10:58:27.861027596,1744189107,860871885,,78.61307247929557,0.7086857520194765,0.0,0.0,0.0,0.5862002115981266
2025/04/09 10:58:27.964484004,1744189107,963732410,,69.39063368275464,0.7552906027643238,0.0,0.0,0.0,1.3469249557780278
2025/04/09 10:58:28.71899890,1744189108,71750376,,58.41476256575585,0.7088584547089285,0.0,0.0,0.0,0.6041062458924309
2025/04/09 10:58:28.292967229,1744189108,291207147,,48.75999636908776,0.7082473137349656,0.0,0.0,0.0,0.6586290707120288
2025/04/09 10:58:28.461247051,1744189108,461148955,,31.268400685386453,0.7084867807524011,0.0,0.0,0.0,0.6904375227639643
2025/04/09 10:58:28.521395866,1744189108,520768019,,14.933385841046587,0.7092180160980237,0.0,0.0,0.0,0.7072340785670335
2025/04/09 10:58:28.571227509,1744189108,571051520,,9.266238659017745,0.709113160887874,0.0,0.0,0.0,0.7072030526014133
2025/04/09 10:58:28.656799404,1744189108,656687315,,0.7689200690608686,0.7088203949785683,0.0,0.0,0.0,0.7066685977908507
2025/04/09 10:58:28.785983564,1744189108,785756277,,0.7689567383561098,0.7079902497500052,0.0,0.0,0.0,0.7070326657342263
2025/04/09 10:58:28.861554808,1744189108,859856283,,0.7690192083085066,0.7088338004077288,0.0,0.0,0.0,0.7070872350653912
2025/04/09 10:58:28.957909471,1744189108,957798054,,0.7693416639982757,0.7087875332435964,0.0,0.0,0.0,0.7070407928921041
2025/04/09 10:58:29.58867588,1744189109,58705823,,1.4767149851000596,0.862232631330936,0.0,0.0,0.0,1.5507023929569619
2025/04/09 10:58:29.167292549,1744189109,165793594,,0.769494799356039,0.7080956979410211,0.0,0.0,0.0,0.7072586693693839
2025/04/09 10:58:29.261121767,1744189109,260665635,,1.476709311890005,0.8950026405758628,0.0,0.0,0.0,1.6096814364887386
2025/04/09 10:58:29.358039754,1744189109,357873389,,1.4767477336693275,0.8908649286389909,0.0,0.0,0.0,1.6022593042602837
2025/04/09 10:58:29.459955778,1744189109,459122889,,1.477096209914464,0.8429644007667124,0.0,0.0,0.0,1.5161211062046915
2025/04/09 10:58:29.558749364,1744189109,558593654,,0.7697926120380458,0.7085022998268617,0.0,0.0,0.0,0.7069423416067009
2025/04/09 10:58:29.662530313,1744189109,662362340,,0.7701404545246078,0.7087490661951414,0.0,0.0,0.0,0.7068634229193116
2025/04/09 10:58:29.758868337,1744189109,758715766,,1.4773398072076702,0.8692088864306258,0.0,0.0,0.0,1.5631733600032045
2025/04/09 10:58:29.860529363,1744189109,856619225,,1.47735789124323,0.8979025105456012,0.0,0.0,0.0,1.6149401281228337
2025/04/09 10:58:29.984686489,1744189109,984558026,,0.7701375403687507,0.7080656853580458,0.0,0.0,0.0,0.7072605170625248
2025/04/09 10:58:30.64673646,1744189110,64505816,,0.7705290132821148,0.7079961314747556,0.0,0.0,0.0,0.7071768562145879
2025/04/09 10:58:30.163134580,1744189110,163000510,,1.4774404210062926,0.18220141937615864,0.0,0.0,0.0,0.32797673344737577
2025/04/09 10:58:30.259759867,1744189110,259172353,,1.4776214375792307,-0.3254482000114881,0.0,0.0,0.0,-0.5848680709527976
2025/04/09 10:58:30.362789993,1744189110,362646648,,1.4780205391091101,-0.3536509512956658,0.0,0.0,0.0,-0.6355819343043441
2025/04/09 10:58:30.461449178,1744189110,461198675,,1.4779693262869813,-0.22578496388158675,0.0,0.0,0.0,-0.40564555638428934
2025/04/09 10:58:30.559222817,1744189110,559082376,,1.4779648640303549,0.1646955863489893,0.0,0.0,0.0,0.29652172082330397
2025/04/09 10:58:30.657353196,1744189110,657231519,,1.4780042990985294,0.48429502165507043,0.0,0.0,0.0,0.8712808524588425
2025/04/09 10:58:30.757707751,1744189110,757601707,,1.4781041625831222,0.21460144644796464,0.0,0.0,0.0,0.3863083377566048
2025/04/09 10:58:30.861424083,1744189110,861277870,,1.4779977782408196,0.4206433080683428,0.0,0.0,0.0,0.7567799896506635
2025/04/09 10:58:30.961005404,1744189110,960884715,,1.4785962845215863,0.40178503068959626,0.0,0.0,0.0,0.7228694205840804
2025/04/09 10:58:31.57982628,1744189111,57832484,,1.4785034326494326,0.6491499783677612,0.0,0.0,0.0,1.1676842137573518
2025/04/09 10:58:31.190814338,1744189111,190398389,,1.4785966216226427,0.8046284097397098,0.0,0.0,0.0,1.4473019074801834
2025/04/09 10:58:31.260658969,1744189111,260499347,,1.4785376249575535,0.044909019428738706,0.0,0.0,0.0,0.08117090715373987
2025/04/09 10:58:31.362126696,1744189111,361431176,,1.4787829531037175,0.2356964159592465,0.0,0.0,0.0,0.4242223353076866
2025/04/09 10:58:31.460804033,1744189111,460509754,,1.4792486447188935,0.2226088888294906,0.0,0.0,0.0,0.4006895977241933
2025/04/09 10:58:31.559122962,1744189111,558980678,,0.7720788177379916,0.7081348117151867,0.0,0.0,0.0,0.707158500270054
2025/04/09 10:58:31.658089818,1744189111,657887376,,1.479418376900469,0.3631679921252363,0.0,0.0,0.0,0.6533429271014617
2025/04/09 10:58:31.757777533,1744189111,757588445,,1.4794617957962544,-0.005229835077591227,0.0,0.0,0.0,-0.008995381084601073
2025/04/09 10:58:31.857063378,1744189111,856880754,,1.4794150740360266,0.1711452545561325,0.0,0.0,0.0,0.3081654619285529
2025/04/09 10:58:31.958582467,1744189111,958327573,,1.480055809295095,0.1625100951326508,0.0,0.0,0.0,0.2926395345142053
2025/04/09 10:58:32.64540511,1744189112,64397234,,1.4801251865172844,0.31940476181800626,0.0,0.0,0.0,0.574770203308633
2025/04/09 10:58:32.159716971,1744189112,158459965,,1.4804447080012437,0.5639817753588209,0.0,0.0,0.0,1.0145738597510383
2025/04/09 10:58:32.258318689,1744189112,258161037,,0.7730065777549839,0.7083090183003962,0.0,0.0,0.0,0.7070973591423388
2025/04/09 10:58:32.384710717,1744189112,382943909,,0.7728688139824271,0.7082127139232091,0.0,0.0,0.0,0.7070636184590076
2025/04/09 10:58:32.457843114,1744189112,457573341,,0.7736970044518046,0.7079009013452668,0.0,0.0,0.0,0.7063713238692977
2025/04/09 10:58:32.557282495,1744189112,557057584,,1.4807678206025798,0.6666424489524186,0.0,0.0,0.0,1.1989404788604086
2025/04/09 10:58:32.658972363,1744189112,658796106,,1.4813617725175163,0.6622306383097942,0.0,0.0,0.0,1.1912676038089602
2025/04/09 10:58:32.758470366,1744189112,758362385,,1.4814129323289649,0.5267083940397851,0.0,0.0,0.0,0.947570658339042
2025/04/09 10:58:32.863960476,1744189112,863284843,,1.4814597198093225,0.5637687130628433,0.0,0.0,0.0,1.0142124789854996
2025/04/09 10:58:32.959925309,1744189112,959759365,,0.7740593775846492,0.708094952967345,0.0,0.0,0.0,0.707271988278894
2025/04/09 10:58:33.58161929,1744189113,57983691,,0.7748378454618319,0.7080969525964329,0.0,0.0,0.0,0.707236354757995
2025/04/09 10:58:33.162329901,1744189113,162177830,,1.4822515582885671,0.7411826150852328,0.0,0.0,0.0,1.3332126862725855
2025/04/09 10:58:33.259700317,1744189113,259593816,,1.4822479288749832,0.6365718016442378,0.0,0.0,0.0,1.1451268268152608
2025/04/09 10:58:33.358386101,1744189113,358230523,,1.4824842248075925,-0.24706652454402234,0.0,0.0,0.0,-0.44382955085332676
2025/04/09 10:58:33.458331784,1744189113,458153988,,1.4824881080959074,-0.1476106628917382,0.0,0.0,0.0,-0.2649844611968645
2025/04/09 10:58:33.584174480,1744189113,584004688,,1.4832648747321855,0.015797206901476568,0.0,0.0,0.0,0.028856998783748478
2025/04/09 10:58:33.658843271,1744189113,658664501,,1.4835259283636333,-0.4914066802769014,0.0,0.0,0.0,-0.8831944779851311
2025/04/09 10:58:33.760955495,1744189113,759202482,,1.4836094682736984,0.5787576665013594,0.0,0.0,0.0,1.041194298812694
2025/04/09 10:58:33.858897184,1744189113,857658556,,1.4838973803002773,0.7028845046319265,0.0,0.0,0.0,1.2643883525695583
2025/04/09 10:58:33.957977813,1744189113,957807767,,1.4844205117709635,-0.09849703476812,0.0,0.0,0.0,-0.17665754520014532
2025/04/09 10:58:34.57941877,1744189114,57756039,,1.4847034201683016,0.8654868860292911,0.0,0.0,0.0,1.556783631819144
2025/04/09 10:58:34.167752655,1744189114,166950985,,0.7775216463540175,0.7086697757934028,0.0,0.0,0.0,0.7072801304056342
2025/04/09 10:58:34.257205272,1744189114,257063746,,1.4847975789344048,0.8020706700145374,0.0,0.0,0.0,1.4425477949991494
2025/04/09 10:58:34.358146239,1744189114,357997191,,1.4856655373098988,0.8036168490123164,0.0,0.0,0.0,1.4455382551549838
2025/04/09 10:58:34.457790189,1744189114,457637661,,0.7786978244471356,0.7081510428599902,0.0,0.0,0.0,0.7067933077400375
2025/04/09 10:58:34.560853409,1744189114,560068174,,1.4860928132886215,0.811082759621233,0.0,0.0,0.0,1.458866451206617
2025/04/09 10:58:34.660642492,1744189114,658013424,,1.4863511116999462,0.6494167853650278,0.0,0.0,0.0,1.1682809679686081
2025/04/09 10:58:34.792087854,1744189114,791916928,,1.486510956139341,0.5214305516574085,0.0,0.0,0.0,0.9381216845816056
2025/04/09 10:58:34.858092951,1744189114,857942537,,1.487338026585462,0.5242813963211763,0.0,0.0,0.0,0.9432485927672605
2025/04/09 10:58:34.960346554,1744189114,959388445,,1.4877459821581738,-0.2294687520016292,0.0,0.0,0.0,-0.41214315041964866
2025/04/09 10:58:35.59836067,1744189115,59749804,,1.4881199736895212,0.049608501631172586,0.0,0.0,0.0,0.0896965441169556
2025/04/09 10:58:35.158592818,1744189115,158453656,,1.4880018157567179,0.6064099011841594,0.0,0.0,0.0,1.0909382022960956
2025/04/09 10:58:35.258076758,1744189115,257942916,,1.4889462732227798,0.6098219067187206,0.0,0.0,0.0,1.0970797292139411
2025/04/09 10:58:35.358489747,1744189115,358232062,,1.4890717677266139,-0.031741223617591796,0.0,0.0,0.0,-0.056576636703017824
2025/04/09 10:58:35.457734187,1744189115,457548757,,1.489518921509557,-0.4685054597330911,0.0,0.0,0.0,-0.8419593277919779
2025/04/09 10:58:35.559056406,1744189115,557234691,,1.4899461052781078,-0.7941278876088202,0.0,0.0,0.0,-1.427492093882703
2025/04/09 10:58:35.661195805,1744189115,661055087,,1.4910108229215098,-0.790351230775638,0.0,0.0,0.0,-1.4206989495646658
2025/04/09 10:58:35.760540825,1744189115,759852443,,0.7839874231456747,-0.7084639286579089,0.0,0.0,0.0,-0.7070336242971456
2025/04/09 10:58:35.858391454,1744189115,858068819,,1.4913884091218677,-0.3979801732031323,0.0,0.0,0.0,-0.7150948969489062
2025/04/09 10:58:35.986600917,1744189115,986334582,,1.491542078503329,0.21373924508420117,0.0,0.0,0.0,0.38486184127317347
2025/04/09 10:58:36.57690943,1744189116,57554697,,1.4939651900031663,0.2180091134809029,0.0,0.0,0.0,0.39256811038356076
2025/04/09 10:58:36.161210015,1744189116,160842965,,1.4928673516022286,-0.0470004841033107,0.0,0.0,0.0,-0.08398555767587079
2025/04/09 10:58:36.261522931,1744189116,260751567,,1.4933255992818317,-0.38755431383259986,0.0,0.0,0.0,-0.696387101714504
2025/04/09 10:58:36.358194818,1744189116,358061435,,1.4939170714478678,0.6944491415931447,0.0,0.0,0.0,1.2492729610855438
2025/04/09 10:58:36.459519506,1744189116,459383461,,1.4948472941646855,0.6990028520232506,0.0,0.0,0.0,1.2574342375111431
2025/04/09 10:58:36.560469011,1744189116,560197881,,1.4952710807691005,0.40125882473945385,0.0,0.0,0.0,0.7220632383561689
2025/04/09 10:58:36.661233435,1744189116,660847988,,1.4954703606967144,-0.17829473827736908,0.0,0.0,0.0,-0.32009056950326853
2025/04/09 10:58:36.759435251,1744189116,758423767,,1.4957233417321163,0.6736332713453502,0.0,0.0,0.0,1.2118495478753095
2025/04/09 10:58:36.860931356,1744189116,860810200,,1.4968452968980728,0.6783455954840827,0.0,0.0,0.0,1.2203251470696044
2025/04/09 10:58:36.958538519,1744189116,958254687,,1.4967037260780955,0.9581771433079573,0.0,0.0,0.0,1.7235061043942639
2025/04/09 10:58:37.58669766,1744189117,58521791,,0.7882081617569838,0.7086686315378112,0.0,0.0,0.0,0.7072235852665405
2025/04/09 10:58:37.193366784,1744189117,193162549,,0.7859697246025803,0.7077963398515608,0.0,0.0,0.0,0.7061766249054395
2025/04/09 10:58:37.262141433,1744189117,261964456,,0.782841081505353,0.7085843765601298,0.0,0.0,0.0,0.7073854165017568
2025/04/09 10:58:37.389176310,1744189117,387359109,,1.4866161580934545,0.8549936644532549,0.0,0.0,0.0,1.5378061712071518
2025/04/09 10:58:37.465832965,1744189117,465713393,,0.7756854376798401,0.7080533898451464,0.0,0.0,0.0,0.7073158962065154
2025/04/09 10:58:37.559141494,1744189117,559010587,,1.479235742634586,0.8928565738260908,0.0,0.0,0.0,1.6060208858696643
2025/04/09 10:58:37.660907050,1744189117,660746674,,1.474817220439192,0.8646280314490719,0.0,0.0,0.0,1.5553203634231858
2025/04/09 10:58:37.763518518,1744189117,762170079,,1.4707411583875825,0.8096222392219191,0.0,0.0,0.0,1.4563938229282858
2025/04/09 10:58:37.858871206,1744189117,858658071,,1.4681073143447918,0.8017609659063162,0.0,0.0,0.0,1.4422746347803392
2025/04/09 10:58:37.958102136,1744189117,957952288,,1.4647847064613302,0.6517615735794532,0.0,0.0,0.0,1.1725445868049833
2025/04/09 10:58:38.57471223,1744189118,57306314,,1.4619311121868321,0.5128949131211041,0.0,0.0,0.0,0.9228333985509234
2025/04/09 10:58:38.162669272,1744189118,162506156,,1.460332917530991,0.5084888230487236,0.0,0.0,0.0,0.9149096883356824
2025/04/09 10:58:38.266098426,1744189118,265948989,,1.4581893144992364,0.4996461958099808,0.0,0.0,0.0,0.8990092850394207
2025/04/09 10:58:38.387929254,1744189118,386220368,,1.4554928476139537,0.3368319271214697,0.0,0.0,0.0,0.6062859148689446
2025/04/09 10:58:38.456937296,1744189118,456714632,,1.453976702892973,0.3335044827372837,0.0,0.0,0.0,0.6002346176460125
2025/04/09 10:58:38.562648166,1744189118,560275157,,0.7445573624823254,0.7085267273071798,0.0,0.0,0.0,0.7074084222128614
2025/04/09 10:58:38.664448265,1744189118,664190065,,0.7423815305180881,0.7081243055014537,0.0,0.0,0.0,0.7072398225378624
2025/04/09 10:58:38.759143010,1744189118,758525130,,0.7410600824614164,0.708218116041488,0.0,0.0,0.0,0.7074397388655072
2025/04/09 10:58:38.858098054,1744189118,857778702,,1.446429636724062,0.42394411625849127,0.0,0.0,0.0,0.7628540260993708
2025/04/09 10:58:38.959512260,1744189118,959208033,,1.4443306727936331,-0.5391252265438956,0.0,0.0,0.0,-0.9689361153862637
2025/04/09 10:58:39.61631758,1744189119,61484655,,1.4425452520156767,0.4367718463023378,0.0,0.0,0.0,0.7859692185903755
2025/04/09 10:58:39.163196636,1744189119,162598384,,1.4410134874787914,0.7373582411438203,0.0,0.0,0.0,1.326478866189638
2025/04/09 10:58:39.260756880,1744189119,257409123,,1.4387256571656337,0.36348563900905206,0.0,0.0,0.0,0.6541693676740894
2025/04/09 10:58:39.361793134,1744189119,361212480,,1.43755142739505,0.36065850342581274,0.0,0.0,0.0,0.6490773323830934
2025/04/09 10:58:39.460035269,1744189119,459649488,,0.7283579872658095,0.7082449360801681,0.0,0.0,0.0,0.7074402563990452
2025/04/09 10:58:39.585817125,1744189119,585111049,,0.7267931388273894,0.7086429036377737,0.0,0.0,0.0,0.7074352431894766
2025/04/09 10:58:39.661880626,1744189119,661640908,,0.7253140066837247,0.7089672422720037,0.0,0.0,0.0,0.7074231546780174
2025/04/09 10:58:39.757524457,1744189119,757385926,,0.7239218302885178,0.7083592382076502,0.0,0.0,0.0,0.7073896629268632
2025/04/09 10:58:39.862197496,1744189119,860954900,,1.4298497592083628,0.9225473177383212,0.0,0.0,0.0,1.6594714763852654
2025/04/09 10:58:39.958858781,1744189119,957687345,,1.4284103515744135,-0.242265281999701,0.0,0.0,0.0,-0.43509135585680503
2025/04/09 10:58:40.61063883,1744189120,58964604,,1.4277443973361557,-0.2438582002666254,0.0,0.0,0.0,-0.43795803244778164
2025/04/09 10:58:40.161330009,1744189120,161057043,,1.42647888483652,0.45199309084530237,0.0,0.0,0.0,0.8133128114259245
2025/04/09 10:58:40.262091303,1744189120,261851298,,1.425225287474035,0.05144543306549665,0.0,0.0,0.0,0.09299386036124413
2025/04/09 10:58:40.358636300,1744189120,357929298,,1.4247740953166108,0.050858308112394335,0.0,0.0,0.0,0.09193663535669183
2025/04/09 10:58:40.457329365,1744189120,457134422,,1.42383907228551,0.0037386809996337034,0.0,0.0,0.0,0.007136631551058592
2025/04/09 10:58:40.558635158,1744189120,558406538,,1.4229823414589333,-0.8381463576761741,0.0,0.0,0.0,-1.5067420584993103
2025/04/09 10:58:40.665106561,1744189120,664835935,,1.4227202022420613,-0.837969589302964,0.0,0.0,0.0,-1.506425312434187
2025/04/09 10:58:40.789396304,1744189120,789241344,,1.422010018904075,-0.6657487763498117,0.0,0.0,0.0,-1.1967535166582268
2025/04/09 10:58:40.858485639,1744189120,857906580,,1.4213220365861243,-0.04409094624985088,0.0,0.0,0.0,-0.07893557459153788
2025/04/09 10:58:40.959623433,1744189120,957886110,,1.4212400130372593,0.40149064380814614,0.0,0.0,0.0,0.722310538110507
2025/04/09 10:58:41.59234515,1744189121,59081948,,1.420666104353284,-0.46412297045014383,0.0,0.0,0.0,-0.8343172489194419
2025/04/09 10:58:41.163921837,1744189121,163580548,,1.4206591151662469,-0.46306046231319575,0.0,0.0,0.0,-0.8324075366055397
2025/04/09 10:58:41.257546623,1744189121,257111368,,1.420300998209676,-0.3502004957829543,0.0,0.0,0.0,-0.629482974966833
2025/04/09 10:58:41.357615813,1744189121,357446829,,1.4199942876173797,-0.9033486258102652,0.0,0.0,0.0,-1.6241458885031124
2025/04/09 10:58:41.461481879,1744189121,461239165,,1.4196356991439725,-0.6648801100998118,0.0,0.0,0.0,-1.1953517338656858
2025/04/09 10:58:41.563785616,1744189121,562880439,,1.4197866311415908,-0.6635906826905366,0.0,0.0,0.0,-1.1930340121552792
2025/04/09 10:58:41.659797832,1744189121,659655213,,0.7123675983073063,-0.7083487047072863,0.0,0.0,0.0,-0.7071389718958145
2025/04/09 10:58:41.762562379,1744189121,762400159,,1.41938233574258,-0.7202750970393065,0.0,0.0,0.0,-1.2954091126653131
2025/04/09 10:58:41.863441362,1744189121,863046451,,1.4196298073475813,-0.7187664911263121,0.0,0.0,0.0,-1.292696091197389
2025/04/09 10:58:41.988528960,1744189121,988371284,,1.419562521589718,-0.9207560956491339,0.0,0.0,0.0,-1.6558741116081628
2025/04/09 10:58:42.58317090,1744189122,58161786,,1.419533147923019,-0.8671755415956813,0.0,0.0,0.0,-1.559468121096107
2025/04/09 10:58:42.166668891,1744189122,163892997,,1.4198846336416846,-0.7961071145419787,0.0,0.0,0.0,-1.4316128098805618
2025/04/09 10:58:42.262639132,1744189122,262416542,,1.4199467075636463,-0.3158498777343459,0.0,0.0,0.0,-0.5679628646384762
2025/04/09 10:58:42.358675707,1744189122,358520884,,1.4203208843452675,-0.31451260110704604,0.0,0.0,0.0,-0.565558447317496
2025/04/09 10:58:42.460590744,1744189122,460147692,,1.4204076736384366,0.7201635208363952,0.0,0.0,0.0,1.2949397470233202
2025/04/09 10:58:42.558287295,1744189122,558008273,,0.7134075797848425,0.7087777569983071,0.0,0.0,0.0,0.7071722230277735
2025/04/09 10:58:42.660080206,1744189122,659849127,,0.7135745658055974,0.7090516236085782,0.0,0.0,0.0,0.7071613935452827
2025/04/09 10:58:42.760543799,1744189122,760412217,,0.7140247514936178,0.7090532190611665,0.0,0.0,0.0,0.7071618389783008
2025/04/09 10:58:42.858791868,1744189122,858617910,,0.714262423478651,0.7094268249333422,0.0,0.0,0.0,0.7072196682739635
2025/04/09 10:58:42.960412331,1744189122,960269362,,0.7144231562207715,0.7095186656150543,0.0,0.0,0.0,0.7072632724265457
2025/04/09 10:58:43.65091620,1744189123,63358756,,0.7149185707208758,0.709520393664242,0.0,0.0,0.0,0.7072630634469801
2025/04/09 10:58:43.188988425,1744189123,188832432,,1.4223497861957028,0.9585743301482638,0.0,0.0,0.0,1.7238911725129438
2025/04/09 10:58:43.258477660,1744189123,258292209,,1.4226126331566196,-0.05670854566003125,0.0,0.0,0.0,-0.10170362049523063
2025/04/09 10:58:43.358729418,1744189123,358579198,,1.4231450979862394,-0.05505074044074121,0.0,0.0,0.0,-0.09872283515548053
2025/04/09 10:58:43.459353671,1744189123,459206432,,0.7162343215301448,-0.708375888618999,0.0,0.0,0.0,-0.7071173467169478
2025/04/09 10:58:43.557278995,1744189123,557189865,,1.4237723257531556,-0.8886846564771118,0.0,0.0,0.0,-1.5977150387497616
2025/04/09 10:58:43.662703583,1744189123,660129857,,1.4243344893053447,-0.8869791497231518,0.0,0.0,0.0,-1.5946483809980831
2025/04/09 10:58:43.758180658,1744189123,758025987,,1.4247253654515077,0.154912667104805,0.0,0.0,0.0,0.2788309677539924
2025/04/09 10:58:43.861863925,1744189123,861507341,,1.4250473557492,0.28267250665542076,0.0,0.0,0.0,0.5084015413730503
2025/04/09 10:58:43.962518180,1744189123,962375864,,1.425631404998466,0.2840348203737819,0.0,0.0,0.0,0.5108510003162408
2025/04/09 10:58:44.57701230,1744189124,57560520,,1.4260420449964926,0.14855918638187093,0.0,0.0,0.0,0.2670677209289878
2025/04/09 10:58:44.158184499,1744189124,158036071,,1.4264779648329906,0.22940533940115537,0.0,0.0,0.0,0.4123027500017862
2025/04/09 10:58:44.263380836,1744189124,263081917,,1.4270132523743086,0.6431150931347634,0.0,0.0,0.0,1.1562812415274974
2025/04/09 10:58:44.384951962,1744189124,384810639,,1.4272817391320913,-0.3790619484002884,0.0,0.0,0.0,-0.6818077049797044
2025/04/09 10:58:44.456514166,1744189124,456376129,,1.4278975071963913,-0.3785271801631177,0.0,0.0,0.0,-0.6808476663557746
2025/04/09 10:58:44.557798716,1744189124,557509370,,1.4282895077443776,0.011627950960932831,0.0,0.0,0.0,0.020687062504052722
2025/04/09 10:58:44.661662500,1744189124,661358624,,1.428623448013056,0.4059435431752416,0.0,0.0,0.0,0.7296825044735773
2025/04/09 10:58:44.761114823,1744189124,760806513,,1.4292273053223497,0.6499804108133936,0.0,0.0,0.0,1.1685188509168427
2025/04/09 10:58:44.859254351,1744189124,859026937,,1.4296846823706275,0.5347479526877545,0.0,0.0,0.0,0.9612151292034519
2025/04/09 10:58:44.961006050,1744189124,960862763,,1.4302127185277946,0.3498373063607151,0.0,0.0,0.0,0.6287415953349704
2025/04/09 10:58:45.63556197,1744189125,63362480,,1.4308434772719387,0.3496967385331,0.0,0.0,0.0,0.6284871256881883
2025/04/09 10:58:45.163551630,1744189125,163064043,,1.4312577140283658,-0.5032882674690985,0.0,0.0,0.0,-0.9053234785419818
2025/04/09 10:58:45.262297427,1744189125,262166151,,1.4317755047168532,0.351022977571247,0.0,0.0,0.0,0.6308029276655114
2025/04/09 10:58:45.361136551,1744189125,360107574,,0.7250545865785085,0.7084262712381828,0.0,0.0,0.0,0.7070637688377157
2025/04/09 10:58:45.461211777,1744189125,461014602,,1.4326874565269634,-0.07499552745379279,0.0,0.0,0.0,-0.13565861333109064
2025/04/09 10:58:45.589136460,1744189125,588371958,,1.4333153341735283,-0.07630413664396984,0.0,0.0,0.0,-0.1380131329164782
2025/04/09 10:58:45.658768146,1744189125,657545440,,1.4336907483545076,0.0527291618232153,0.0,0.0,0.0,0.09413127447108005
2025/04/09 10:58:45.758675765,1744189125,758499940,,1.4341058401531939,-0.41166661827549766,0.0,0.0,0.0,-0.7408260029238523
2025/04/09 10:58:45.860445669,1744189125,860190558,,1.4347555216235577,-0.4127525292833052,0.0,0.0,0.0,-0.7427787054664667
2025/04/09 10:58:45.959026039,1744189125,958053594,,1.4351464662816227,-0.8066125271816525,0.0,0.0,0.0,-1.4509883030680513
2025/04/09 10:58:46.61118029,1744189126,60816481,,1.4357789875952491,-0.8076089737502959,0.0,0.0,0.0,-1.4527818953079317
2025/04/09 10:58:46.160014053,1744189126,158044179,,1.4362497851517944,-0.5142250871778948,0.0,0.0,0.0,-0.925250192320749
2025/04/09 10:58:46.268234783,1744189126,268089253,,0.7293971907964902,-0.7081663722078742,0.0,0.0,0.0,-0.7074771316106858
2025/04/09 10:58:46.362096422,1744189126,361622774,,1.43718710207785,-0.6282826179229406,0.0,0.0,0.0,-1.1303867057796946
2025/04/09 10:58:46.458811001,1744189126,458646639,,1.4376247951142034,-0.5235212680622554,0.0,0.0,0.0,-0.9419858769213632
2025/04/09 10:58:46.559858683,1744189126,559433648,,1.4380728821090258,-0.5661146731134925,0.0,0.0,0.0,-1.018627263357632
2025/04/09 10:58:46.659354646,1744189126,659199177,,1.4385287376133675,-0.2509517540663211,0.0,0.0,0.0,-0.45188317824218704
2025/04/09 10:58:46.792023843,1744189126,791863583,,1.4389003051635783,-0.11774734445547586,0.0,0.0,0.0,-0.21264046789424573
2025/04/09 10:58:46.859833564,1744189126,859685858,,1.4395376125211001,-0.11977778647338366,0.0,0.0,0.0,-0.21628686115797424
2025/04/09 10:58:46.958635677,1744189126,958335092,,1.439882044021104,-0.6303568652433317,0.0,0.0,0.0,-1.1343298418341738
2025/04/09 10:58:47.64513835,1744189127,64370091,,1.4403982027183346,-0.6323350524136531,0.0,0.0,0.0,-1.1378971689729922
2025/04/09 10:58:47.167571532,1744189127,167416992,,1.44075804638247,-0.22690662184206245,0.0,0.0,0.0,-0.40874049651732103
2025/04/09 10:58:47.262579586,1744189127,262307055,,1.4411642489917824,0.10755824630980848,0.0,0.0,0.0,0.19268030785184886
2025/04/09 10:58:47.361037411,1744189127,360856278,,1.4416161088655812,-0.6491853828652024,0.0,0.0,0.0,-1.168076524218672
2025/04/09 10:58:47.463463997,1744189127,462620547,,1.4422073544010843,-0.6509383718708628,0.0,0.0,0.0,-1.1712357966693183
2025/04/09 10:58:47.561827950,1744189127,561560544,,1.4423778394149807,-0.3321963218636156,0.0,0.0,0.0,-0.5981154111836752
2025/04/09 10:58:47.657237010,1744189127,657115337,,1.4430350753780061,-0.3002792127195869,0.0,0.0,0.0,-0.5407562944489814
2025/04/09 10:58:47.762073000,1744189127,761359829,,1.4433672357220075,0.37498485743203136,0.0,0.0,0.0,0.6734788871711312
2025/04/09 10:58:47.862892229,1744189127,862774930,,1.443859220377533,0.37300622743114187,0.0,0.0,0.0,0.6699918370579809
2025/04/09 10:58:47.990737502,1744189127,990562656,,1.4440563061978366,-0.9955728735237367,0.0,0.0,0.0,-1.7909884597190469
2025/04/09 10:58:48.61631454,1744189128,58734304,,1.4444335271033992,-0.642365232826829,0.0,0.0,0.0,-1.1558714354028379
2025/04/09 10:58:48.161277171,1744189128,159022596,,1.445047320943658,0.3842347281730387,0.0,0.0,0.0,0.6900969757434203
2025/04/09 10:58:48.264137524,1744189128,260963768,,1.4452663278165687,0.5400283364124934,0.0,0.0,0.0,0.9703122242797102
2025/04/09 10:58:48.358359765,1744189128,358048199,,1.4456872984539189,0.5941881385477317,0.0,0.0,0.0,1.0676379040060775
2025/04/09 10:58:48.459062237,1744189128,458894311,,1.4459030629013938,0.15513594623924554,0.0,0.0,0.0,0.27812445334863956
2025/04/09 10:58:48.560648524,1744189128,560483520,,1.446352456058321,-0.04372906756233308,0.0,0.0,0.0,-0.07946546279104716
2025/04/09 10:58:48.659011937,1744189128,658781538,,1.4464822879765507,-0.17991579296114935,0.0,0.0,0.0,-0.3243332521424147
2025/04/09 10:58:48.762211836,1744189128,761928055,,1.4470431808895086,-0.18192141818618746,0.0,0.0,0.0,-0.3279386972929281
2025/04/09 10:58:48.862254843,1744189128,862033083,,1.4472840963584517,-0.5745393898800085,0.0,0.0,0.0,-1.0339805287843438
2025/04/09 10:58:48.963110124,1744189128,962968716,,1.4478340808696828,-0.5766409591486856,0.0,0.0,0.0,-1.0377586489664057
2025/04/09 10:58:49.61084150,1744189129,59649706,,1.4480745755849824,-0.4009825437855361,0.0,0.0,0.0,-0.7218899152388998
2025/04/09 10:58:49.191895397,1744189129,191722526,,1.4482683094782374,-0.5355274873263021,0.0,0.0,0.0,-0.9638389743530233
2025/04/09 10:58:49.259935540,1744189129,259764445,,1.448674231226505,0.3707271269327965,0.0,0.0,0.0,0.6657944641596403
2025/04/09 10:58:49.360470195,1744189129,360330435,,0.7417817505353383,0.7084892990944778,0.0,0.0,0.0,0.7068761031644422
2025/04/09 10:58:49.458899530,1744189129,458777206,,1.4492371384438911,-0.07483798351492188,0.0,0.0,0.0,-0.1354296009978686
2025/04/09 10:58:49.558642675,1744189129,558046897,,1.4495023574293953,0.38250281755010174,0.0,0.0,0.0,0.6868857245245295
2025/04/09 10:58:49.660781149,1744189129,659156014,,1.4499235929781946,0.3804455442135595,0.0,0.0,0.0,0.6831886499456374
2025/04/09 10:58:49.760454078,1744189129,760356156,,1.4497942410256428,0.2616718908114849,0.0,0.0,0.0,0.4696888150202254
2025/04/09 10:58:49.862601688,1744189129,862501576,,1.4502939032406346,0.2596690591826135,0.0,0.0,0.0,0.4660887714685986
2025/04/09 10:58:49.965288995,1744189129,964934991,,1.4504219055564533,-0.6733594983899375,0.0,0.0,0.0,-1.2117014604472138
2025/04/09 10:58:50.58518664,1744189130,58312846,,0.7434531381140488,-0.7082907840548134,0.0,0.0,0.0,-0.7075392980662902
2025/04/09 10:58:50.164801895,1744189130,163745935,,0.7439909924263759,-0.7082881620359818,0.0,0.0,0.0,-0.7075093681623892
2025/04/09 10:58:50.263217746,1744189130,262595106,,0.744111137503296,-0.7079968176085344,0.0,0.0,0.0,-0.7074796365181191
2025/04/09 10:58:50.391408049,1744189130,391163034,,0.7441207890921078,-0.7086194032732769,0.0,0.0,0.0,-0.7077658399329174
2025/04/09 10:58:50.460478346,1744189130,459751827,,1.451808730600817,-0.3007934627098213,0.0,0.0,0.0,-0.541667340650484
2025/04/09 10:58:50.560753744,1744189130,558956272,,1.4520004019748,-0.11380791256431244,0.0,0.0,0.0,-0.2054909359213113
2025/04/09 10:58:50.662132726,1744189130,659453720,,1.4522032473510649,-0.8163486141463729,0.0,0.0,0.0,-1.4687651798623809
2025/04/09 10:58:50.763010696,1744189130,762364266,,1.452268969953053,0.17773899992611109,0.0,0.0,0.0,0.3188457842347072
2025/04/09 10:58:50.863317233,1744189130,862843348,,1.45252882756742,0.28149307813976066,0.0,0.0,0.0,0.5053450561183781
2025/04/09 10:58:50.962922896,1744189130,962831270,,1.452467729701553,0.5980249920892531,0.0,0.0,0.0,1.074581073878731
2025/04/09 10:58:51.63936582,1744189131,63729744,,1.4530499664811316,0.5964163997295842,0.0,0.0,0.0,1.0716463029546706
2025/04/09 10:58:51.168932605,1744189131,166759122,,0.7458235445692623,0.70862593974259,0.0,0.0,0.0,0.7069224287119988
2025/04/09 10:58:51.261915778,1744189131,261728537,,0.7462979760880728,0.7086598435803078,0.0,0.0,0.0,0.7069861458140654
2025/04/09 10:58:51.359849812,1744189131,358434357,,0.7463293625771712,0.70908221677215,0.0,0.0,0.0,0.706985277602656
2025/04/09 10:58:51.456527206,1744189131,456377562,,1.4535713880123922,0.8617346685777345,0.0,0.0,0.0,1.5488522320466194
2025/04/09 10:58:51.588554241,1744189131,588322369,,0.7465327928902497,0.7086969784985904,0.0,0.0,0.0,0.7070076889841137
2025/04/09 10:58:51.662243593,1744189131,661688958,,0.746998828407385,0.7086834219639901,0.0,0.0,0.0,0.7069813544624939
2025/04/09 10:58:51.760685605,1744189131,760519754,,1.4540096090800319,-0.17448107235725985,0.0,0.0,0.0,-0.31445358679980673
2025/04/09 10:58:51.860903053,1744189131,860735372,,0.7469376972806003,-0.7080119970836796,0.0,0.0,0.0,-0.7073951272899215
2025/04/09 10:58:51.962865044,1744189131,962661823,,0.7470666880220307,-0.7080132318394945,0.0,0.0,0.0,-0.7073918526778606
2025/04/09 10:58:52.65020610,1744189132,64710813,,0.7475145248614581,-0.7080142011344098,0.0,0.0,0.0,-0.707390121233245
2025/04/09 10:58:52.161198391,1744189132,161067221,,1.4546771331319945,-0.9895239344569295,0.0,0.0,0.0,-1.7800082930768109
2025/04/09 10:58:52.263294477,1744189132,263160595,,1.4544900296515664,-0.49740121841537266,0.0,0.0,0.0,-0.895048972148224
2025/04/09 10:58:52.363721891,1744189132,361323491,,1.4549807533974217,-0.7995297204657594,0.0,0.0,0.0,-1.4383737760210462
2025/04/09 10:58:52.458820680,1744189132,458579664,,1.4548793538117621,0.013538054508090203,0.0,0.0,0.0,0.023809566534716997
2025/04/09 10:58:52.559041765,1744189132,558737089,,1.455311470188093,0.012476442382805208,0.0,0.0,0.0,0.021900422491977767
2025/04/09 10:58:52.661468693,1744189132,661116743,,1.4549279275017284,-0.5816212788825652,0.0,0.0,0.0,-1.0464256763286244
2025/04/09 10:58:52.787479144,1744189132,787326080,,1.4553530624938276,-0.5826740527880844,0.0,0.0,0.0,-1.0483189030378621
2025/04/09 10:58:52.859103145,1744189132,858941042,,0.7480900888470927,-0.7082285082281587,0.0,0.0,0.0,-0.7075058680426671
2025/04/09 10:58:52.960444467,1744189132,958823292,,0.7485044471807072,-0.7081255177316559,0.0,0.0,0.0,-0.7073206492324755
2025/04/09 10:58:53.58451740,1744189133,58150504,,0.7482253852174381,-0.7083770550327129,0.0,0.0,0.0,-0.7073267072578273
2025/04/09 10:58:53.163043404,1744189133,162730877,,0.7483052961237888,-0.7086341771091491,0.0,0.0,0.0,-0.7072399556656304
2025/04/09 10:58:53.259372375,1744189133,259237167,,1.455568365327892,-0.5756035058615591,0.0,0.0,0.0,-1.0355256745580899
2025/04/09 10:58:53.360626328,1744189133,359326035,,1.456018719672528,-0.5764565953694367,0.0,0.0,0.0,-1.0371456640091379
2025/04/09 10:58:53.459448675,1744189133,459287836,,1.4555401782594828,-0.23365430467229797,0.0,0.0,0.0,-0.42066069838856746
2025/04/09 10:58:53.560291060,1744189133,559074393,,1.4559511610015363,-0.2345270056015185,0.0,0.0,0.0,-0.4222296634881788
2025/04/09 10:58:53.659716675,1744189133,657262773,,1.4557975969081838,-0.734507551737583,0.0,0.0,0.0,-1.3212554448160958
2025/04/09 10:58:53.759003811,1744189133,758863708,,1.456203487543064,-0.7352938437104053,0.0,0.0,0.0,-1.3226693063261767
2025/04/09 10:58:53.862998378,1744189133,862796380,,1.455803926857783,0.3572019350342118,0.0,0.0,0.0,0.6418497270970571
2025/04/09 10:58:53.990174174,1744189133,990002522,,1.4559162704388342,0.3694070156707199,0.0,0.0,0.0,0.6637845229383148
2025/04/09 10:58:54.59086971,1744189134,58929787,,1.4559507694115155,0.482832806685902,0.0,0.0,0.0,0.8677372762163269
2025/04/09 10:58:54.162719786,1744189134,162431936,,1.456336287099873,0.48214823755247993,0.0,0.0,0.0,0.8665062966694812
2025/04/09 10:58:54.263960110,1744189134,263808318,,1.4561752479914958,0.5781366587970755,0.0,0.0,0.0,1.0391306793681865
2025/04/09 10:58:54.359746065,1744189134,359125089,,1.456186213452483,0.07246104656840302,0.0,0.0,0.0,0.12984175006593734
2025/04/09 10:58:54.458063603,1744189134,457918458,,1.4558098918309383,-0.023301844808898964,0.0,0.0,0.0,-0.042361147124046816
2025/04/09 10:58:54.558539701,1744189134,558258398,,1.4561970808687335,-0.023919766073072002,0.0,0.0,0.0,-0.04347214679219413
2025/04/09 10:58:54.658821379,1744189134,658533909,,0.7487767267894583,0.7084980307406119,0.0,0.0,0.0,0.707005133974542
2025/04/09 10:58:54.759247762,1744189134,758848486,,0.7491530332125791,0.7084610893331518,0.0,0.0,0.0,0.7069288127871476
2025/04/09 10:58:54.859807670,1744189134,859569254,,1.4557434924759747,0.46927133075702887,0.0,0.0,0.0,0.8434396075712263
2025/04/09 10:58:54.958556310,1744189134,958362134,,1.4561674614669897,0.4688552629279251,0.0,0.0,0.0,0.8426855356079257
2025/04/09 10:58:55.82950762,1744189135,82651790,,1.4559493286944587,0.26037813242674457,0.0,0.0,0.0,0.46783040989762004
2025/04/09 10:58:55.188974170,1744189135,188844127,,1.4561277147161604,-0.7234045960754111,0.0,0.0,0.0,-1.3011396038001941
2025/04/09 10:58:55.258798805,1744189135,258525898,,0.7488493954019333,-0.7083935686326972,0.0,0.0,0.0,-0.7072877295598523
2025/04/09 10:58:55.359002517,1744189135,358869218,,1.4556668129924901,-0.8518386263464167,0.0,0.0,0.0,-1.5321058718704565
2025/04/09 10:58:55.458564569,1744189135,458253172,,0.7488150462372261,-0.7081722388709903,0.0,0.0,0.0,-0.7073034997325827
2025/04/09 10:58:55.561731306,1744189135,561260862,,1.4558274032023917,-0.10231729364320197,0.0,0.0,0.0,-0.1843264029355135
2025/04/09 10:58:55.657767690,1744189135,657093801,,1.455812687831525,0.012181464644595352,0.0,0.0,0.0,0.0215444035432395
2025/04/09 10:58:55.761877730,1744189135,761771651,,1.456155093844032,0.01181381780181967,0.0,0.0,0.0,0.02088322710270485
2025/04/09 10:58:55.867870493,1744189135,866557629,,1.4554760112070397,-0.05619853325442836,0.0,0.0,0.0,-0.10136280340967452
2025/04/09 10:58:55.958082170,1744189135,957871339,,1.455881662930807,-0.05649295367556251,0.0,0.0,0.0,-0.10189146137370675
2025/04/09 10:58:56.60565387,1744189136,60306845,,1.4555896008884588,-0.9388879986611812,0.0,0.0,0.0,-1.688621028600166
2025/04/09 10:58:56.163255923,1744189136,163008186,,1.4559274450647308,-0.9392420544928154,0.0,0.0,0.0,-1.6892575140308843
2025/04/09 10:58:56.263427697,1744189136,263168103,,1.4553002154958676,-0.310560647392383,0.0,0.0,0.0,-0.5588276718965621
2025/04/09 10:58:56.388297205,1744189136,386590875,,1.4556221254450463,-0.3109728277049224,0.0,0.0,0.0,-0.5595367111567333
2025/04/09 10:58:56.461012269,1744189136,457552145,,1.4553544340198243,0.12129953979539176,0.0,0.0,0.0,0.21781175456694457
2025/04/09 10:58:56.557792903,1744189136,557633855,,1.4553118095880677,0.8195116775150015,0.0,0.0,0.0,1.4733725497986874
2025/04/09 10:58:56.661473078,1744189136,660916792,,1.455232185813685,0.029865432802952396,0.0,0.0,0.0,0.05342388842034862
2025/04/09 10:58:56.761773921,1744189136,761541458,,1.4555606616002308,0.029677202058284613,0.0,0.0,0.0,0.053085597633938386
2025/04/09 10:58:56.859209875,1744189136,859048300,,1.4548462758361467,-0.7998021740681075,0.0,0.0,0.0,-1.4385094208186517
2025/04/09 10:58:56.959492883,1744189136,959320388,,1.4551513699508263,-0.8001176079743894,0.0,0.0,0.0,-1.439076804319436
2025/04/09 10:58:57.64049402,1744189137,63864080,,1.4548769625385347,-0.5687980081537883,0.0,0.0,0.0,-1.0230875476046748
2025/04/09 10:58:57.163228637,1744189137,160494564,,1.4552180783622077,-0.5690448200414624,0.0,0.0,0.0,-1.0235412713958008
2025/04/09 10:58:57.261999935,1744189137,259352715,,0.747705769840465,-0.7082378288537505,0.0,0.0,0.0,-0.7072880311904319
2025/04/09 10:58:57.357561127,1744189137,357417852,,1.454420360506873,-0.4357453995386874,0.0,0.0,0.0,-0.783843547907344
2025/04/09 10:58:57.461977223,1744189137,461848443,,1.4547093367947639,-0.43600699207908133,0.0,0.0,0.0,-0.7843219571038254
2025/04/09 10:58:57.586443991,1744189137,585079467,,0.7472203271949809,-0.7081911795966,0.0,0.0,0.0,-0.7072845606683416
2025/04/09 10:58:57.658237814,1744189137,658093176,,0.7475162704027412,-0.7081789068993372,0.0,0.0,0.0,-0.7072552816923428
2025/04/09 10:58:57.759016725,1744189137,758900289,,1.4540557254033075,0.15130020719978565,0.0,0.0,0.0,0.2718040620450688
2025/04/09 10:58:57.860535550,1744189137,860397517,,1.4543419005455007,0.14038032987403815,0.0,0.0,0.0,0.252163310192433
2025/04/09 10:58:57.960083832,1744189137,959073533,,1.454086665417293,0.16719756274591902,0.0,0.0,0.0,0.3003935262930484
2025/04/09 10:58:58.64036862,1744189138,62017850,,1.4539796330638524,0.1687262763140953,0.0,0.0,0.0,0.3031795379651172
2025/04/09 10:58:58.159359895,1744189138,158780511,,1.4542568197150416,0.16860607835629304,0.0,0.0,0.0,0.30296336985929484
2025/04/09 10:58:58.259495230,1744189138,259373045,,1.4535366510029917,-0.6252446815047499,0.0,0.0,0.0,-1.124559919115134
2025/04/09 10:58:58.358105775,1744189138,357674788,,1.4538157883697522,-0.6254210595609375,0.0,0.0,0.0,-1.1248689204714526
2025/04/09 10:58:58.457630634,1744189138,457491876,,1.4534961695895277,-0.5065974237856422,0.0,0.0,0.0,-0.9112282959113668
2025/04/09 10:58:58.558134297,1744189138,557852182,,1.4537720441204272,-0.506812663037672,0.0,0.0,0.0,-0.9116064993376266
2025/04/09 10:58:58.662729005,1744189138,662526063,,1.4534450890048163,-0.2582036108776582,0.0,0.0,0.0,-0.4645674478388735
2025/04/09 10:58:58.788955851,1744189138,788645626,,0.7461409698425427,-0.7081325984933113,0.0,0.0,0.0,-0.7073020428437424
2025/04/09 10:58:58.857083439,1744189138,856930293,,1.4528184531347677,-0.21681159862218524,0.0,0.0,0.0,-0.3901347444811998
2025/04/09 10:58:58.957291402,1744189138,957097399,,1.4530805381666312,-0.2169818594252646,0.0,0.0,0.0,-0.3904409065702157
2025/04/09 10:58:59.68977310,1744189139,68725871,,1.4528712720013175,-0.9373202089092693,0.0,0.0,0.0,-1.6857746486487017
2025/04/09 10:58:59.158730845,1744189139,158427375,,1.452692592895545,-0.4905625583790305,0.0,0.0,0.0,-0.8824060739498756
2025/04/09 10:58:59.261701748,1744189139,261509150,,1.4529150046117252,-0.4907906905349688,0.0,0.0,0.0,-0.8827944397593079
2025/04/09 10:58:59.358442540,1744189139,358036272,,1.4522260439702706,0.037027375692543885,0.0,0.0,0.0,0.06632506343354017
2025/04/09 10:58:59.459573018,1744189139,459476946,,1.4524758946181464,0.0368944355602997,0.0,0.0,0.0,0.06608598823257705
2025/04/09 10:58:59.560462121,1744189139,559123783,,1.45214379718891,-0.5229616749938483,0.0,0.0,0.0,-0.9406642117919581
2025/04/09 10:58:59.660169223,1744189139,660018638,,1.4521903622376868,-0.4005577530466907,0.0,0.0,0.0,-0.7205455498366079
2025/04/09 10:58:59.759660050,1744189139,759528796,,1.4520397320732457,-0.20711262525523821,0.0,0.0,0.0,-0.37269328566963367
2025/04/09 10:58:59.861448146,1744189139,861277679,,1.4519010368385352,0.5693206478032139,0.0,0.0,0.0,1.023488851867969
2025/04/09 10:58:59.986617687,1744189139,986414766,,1.451588678154451,-0.1647169614258942,0.0,0.0,0.0,-0.296456648432464
2025/04/09 10:59:00.61890185,1744189140,60537678,,1.451388407821156,-0.00045285087966107085,0.0,0.0,0.0,-0.0010955029536723337
2025/04/09 10:59:00.158099073,1744189140,157766930,,1.4512123460569484,0.08606989864219161,0.0,0.0,0.0,0.1544899313565432
2025/04/09 10:59:00.264447897,1744189140,263680343,,1.4514625350475114,0.08596188671359717,0.0,0.0,0.0,0.1542955506134598
2025/04/09 10:59:00.357991595,1744189140,357740117,,1.4508871083050678,0.235364054703338,0.0,0.0,0.0,0.42294990071852134
2025/04/09 10:59:00.457360456,1744189140,457188197,,1.4511217109907477,0.23527636587981915,0.0,0.0,0.0,0.42279215769908096
2025/04/09 10:59:00.556877402,1744189140,556768464,,1.4507378497262096,0.25847334425613844,0.0,0.0,0.0,0.46450334932138937
2025/04/09 10:59:00.661606430,1744189140,661403577,,1.4509872169614653,0.25838990542409956,0.0,0.0,0.0,0.46435316151036243
2025/04/09 10:59:00.760647164,1744189140,759578504,,1.4506360368172864,0.1042036589508133,0.0,0.0,0.0,0.18709519555712117
2025/04/09 10:59:00.862534638,1744189140,861713126,,1.4500957570753599,-0.0444037951734606,0.0,0.0,0.0,-0.08013278128718815
2025/04/09 10:59:00.964368121,1744189140,964112075,,1.4503740618529974,-0.044556498583467,0.0,0.0,0.0,-0.08038337920071714
2025/04/09 10:59:01.61996057,1744189141,61819951,,1.4502060147253673,0.6500324999510232,0.0,0.0,0.0,1.168630776715962
2025/04/09 10:59:01.186689937,1744189141,186425501,,1.4498941866511927,0.4935975764975168,0.0,0.0,0.0,0.887306744468094
2025/04/09 10:59:01.259157920,1744189141,259034513,,1.449723777342399,0.18312379591508787,0.0,0.0,0.0,0.32901174251762666
2025/04/09 10:59:01.362537771,1744189141,362369844,,1.449938796326066,0.18305869018115462,0.0,0.0,0.0,0.3288946265121053
2025/04/09 10:59:01.459514555,1744189141,459369512,,1.4496078175657772,0.09313506472617705,0.0,0.0,0.0,0.1671971533417077
2025/04/09 10:59:01.557719662,1744189141,557501876,,1.4491350515801429,0.5770240894267182,0.0,0.0,0.0,1.0373339558197472
2025/04/09 10:59:01.658226990,1744189141,658051825,,1.4493239977349077,0.5770056408189943,0.0,0.0,0.0,1.037300554442686
2025/04/09 10:59:01.759055983,1744189141,758742998,,1.4489968620467835,0.4125098744822179,0.0,0.0,0.0,0.7415082598810534
2025/04/09 10:59:01.859620389,1744189141,859477961,,1.4491902511692274,0.41248363886144257,0.0,0.0,0.0,0.7414600314259816
2025/04/09 10:59:01.959733278,1744189141,959472873,,1.4489664227858725,0.12482006840351623,0.0,0.0,0.0,0.22418863441977122
2025/04/09 10:59:02.62482476,1744189142,60694580,,1.4487354605258815,0.03922085619126914,0.0,0.0,0.0,0.07026806007293884
2025/04/09 10:59:02.164211242,1744189142,162132196,,1.448343529443008,-0.11072173485076742,0.0,0.0,0.0,-0.19932578989456906
2025/04/09 10:59:02.259279156,1744189142,258997282,,1.448178666695327,-0.09051363651946409,0.0,0.0,0.0,-0.16299047239897435
2025/04/09 10:59:02.383334650,1744189142,383217814,,1.4480161271577288,-0.9539875060611288,0.0,0.0,0.0,-1.7156716702619998
2025/04/09 10:59:02.458017875,1744189142,457869251,,1.4482084843182008,-0.9541183853348201,0.0,0.0,0.0,-1.7159070134042105
2025/04/09 10:59:02.563183731,1744189142,562490422,,1.4475161251909867,-0.7468854123029084,0.0,0.0,0.0,-1.3432682465597918
2025/04/09 10:59:02.657625920,1744189142,657355732,,1.4476879551812942,-0.7470026717451368,0.0,0.0,0.0,-1.3434788324833804
2025/04/09 10:59:02.762135131,1744189142,758696493,,1.447364681236749,-0.6009631214332513,0.0,0.0,0.0,-1.0809160674918952
2025/04/09 10:59:02.858611526,1744189142,858452970,,0.7400327219805547,-0.7082856995020692,0.0,0.0,0.0,-0.7073552922691444
2025/04/09 10:59:02.960693780,1744189142,960434012,,0.7402285684056125,-0.7082510668356163,0.0,0.0,0.0,-0.7072851063132586
2025/04/09 10:59:03.65003548,1744189143,64315856,,1.4467202506058783,0.06828867926792348,0.0,0.0,0.0,0.12256862933153623
2025/04/09 10:59:03.160130087,1744189143,159960751,,1.4469041557803095,0.0682278350907557,0.0,0.0,0.0,0.12245085665093325
2025/04/09 10:59:03.262347158,1744189143,260948605,,1.446406268293714,0.08843333318737001,0.0,0.0,0.0,0.15878922081284974
2025/04/09 10:59:03.359145373,1744189143,357281293,,1.4465867335688714,0.08837003251202447,0.0,0.0,0.0,0.1586754019520512
2025/04/09 10:59:03.457911041,1744189143,457214817,,1.4462323193096296,0.772960496629178,0.0,0.0,0.0,1.3897227955154337
2025/04/09 10:59:03.588336282,1744189143,588070580,,1.4460524943806945,0.60975373131221,0.0,0.0,0.0,1.09623887896606
2025/04/09 10:59:03.659342379,1744189143,658387583,,1.4462310876502542,0.6097630785028936,0.0,0.0,0.0,1.0962557173718914
2025/04/09 10:59:03.759044244,1744189143,758098308,,1.4456252018466955,0.8436004410538023,0.0,0.0,0.0,1.516716545156666
2025/04/09 10:59:03.858061807,1744189143,857719562,,1.4457335054905514,0.8436341200259407,0.0,0.0,0.0,1.516780369538055
2025/04/09 10:59:03.957165907,1744189143,956989980,,1.445390158824651,-0.1338586076257232,0.0,0.0,0.0,-0.24093600809575522
2025/04/09 10:59:04.69900404,1744189144,67914352,,1.4452055356922813,0.4834868945477635,0.0,0.0,0.0,0.8692208234791721
2025/04/09 10:59:04.166027565,1744189144,165805185,,1.445399615038184,0.4835513334554078,0.0,0.0,0.0,0.8693215323095453
2025/04/09 10:59:04.264196124,1744189144,263801935,,1.4450726112251857,0.9020852026493293,0.0,0.0,0.0,1.6219222981093337
2025/04/09 10:59:04.359655577,1744189144,359494290,,1.4445362456549091,-0.3451759980845289,0.0,0.0,0.0,-0.6209080292270228
2025/04/09 10:59:04.461545549,1744189144,461185634,,1.4447784177790197,-0.3359855745662941,0.0,0.0,0.0,-0.6044042200755619
2025/04/09 10:59:04.561672373,1744189144,561137335,,1.4443691234132814,-0.5314393783046613,0.0,0.0,0.0,-0.9558228097814919
2025/04/09 10:59:04.662783044,1744189144,659842261,,1.4442020358836487,-0.14835322928179828,0.0,0.0,0.0,-0.2669541073944919
2025/04/09 10:59:04.791700808,1744189144,791510900,,1.444059812766099,-0.2618156482867062,0.0,0.0,0.0,-0.47098868543910277
2025/04/09 10:59:04.861580609,1744189144,861295893,,1.4442238703180692,-0.2618460904341775,0.0,0.0,0.0,-0.4710434063447837
2025/04/09 10:59:04.957835551,1744189144,957703332,,1.4435980017924095,0.5554883852099212,0.0,0.0,0.0,0.9986649810229913
2025/04/09 10:59:05.57827719,1744189145,57714516,,1.443754097276809,0.5555263259284315,0.0,0.0,0.0,0.998732058991112
2025/04/09 10:59:05.160072430,1744189145,159995996,,1.443428601512629,-0.43049071898137925,0.0,0.0,0.0,-0.7743057156872626
2025/04/09 10:59:05.259449129,1744189145,259363251,,1.4432869808567332,0.2371552122918844,0.0,0.0,0.0,0.4262629707618998
2025/04/09 10:59:05.360214394,1744189145,360086996,,1.4431080245691632,-0.5943655963538191,0.0,0.0,0.0,-1.068985163077595
2025/04/09 10:59:05.459172565,1744189145,458975086,,1.4432599794280634,-0.5944175602153925,0.0,0.0,0.0,-1.0690785858929208
2025/04/09 10:59:05.572241302,1744189145,571346882,,1.4429196789421894,-0.5210852214129045,0.0,0.0,0.0,-0.9372141273055861
2025/04/09 10:59:05.663195049,1744189145,662743072,,1.442752924422095,-0.385495540298716,0.0,0.0,0.0,-0.6933904334806075
2025/04/09 10:59:05.757240855,1744189145,757113844,,1.4425815502864623,-0.2697468901150373,0.0,0.0,0.0,-0.4852491768323801
2025/04/09 10:59:05.856716917,1744189145,856550001,,1.4422604503036993,-0.18700290636470152,0.0,0.0,0.0,-0.33645071789113157
2025/04/09 10:59:05.987145800,1744189145,986962165,,1.4421204087781092,-0.1672767193835185,0.0,0.0,0.0,-0.3009804382033565
2025/04/09 10:59:06.64850056,1744189146,63400654,,1.4419489319754604,-0.5923759642230134,0.0,0.0,0.0,-1.0653931629527025
2025/04/09 10:59:06.161298721,1744189146,160839152,,1.442090629433018,-0.5924324948274041,0.0,0.0,0.0,-1.0654950343814593
2025/04/09 10:59:06.260123870,1744189146,259700136,,1.4417706751162385,-0.49541557467692554,0.0,0.0,0.0,-0.8910357731592883
2025/04/09 10:59:06.359195642,1744189146,359023373,,1.4416129226923573,-0.1190396883673901,0.0,0.0,0.0,-0.2142354885501847
2025/04/09 10:59:06.458605741,1744189146,457972772,,1.4412940347862957,-0.6379322374817593,0.0,0.0,0.0,-1.1473025467534401
2025/04/09 10:59:06.558884926,1744189146,558720156,,1.4411483882105642,-0.37484553147429134,0.0,0.0,0.0,-0.6742219783944376
2025/04/09 10:59:06.659087575,1744189146,657742975,,1.4409870115045464,-0.3073787754569739,0.0,0.0,0.0,-0.5528801483157311
2025/04/09 10:59:06.765807903,1744189146,764513346,,1.4411287558451562,-0.3074002836077364,0.0,0.0,0.0,-0.5529184471533098
2025/04/09 10:59:06.863660023,1744189146,862803534,,1.4407651662930903,0.4789987288660844,0.0,0.0,0.0,0.861170844298911
2025/04/09 10:59:06.958523943,1744189146,958274559,,1.4406201405300294,-0.2639818070454838,0.0,0.0,0.0,-0.47486723225873106
2025/04/09 10:59:07.61420703,1744189147,61239044,,1.440312048424147,-0.17583077976014494,0.0,0.0,0.0,-0.31634559415680363
2025/04/09 10:59:07.196358981,1744189147,196127177,,1.4401531336009654,-0.8016608588394101,0.0,0.0,0.0,-1.4417158519193838
2025/04/09 10:59:07.259468978,1744189147,259336504,,1.439997988119309,-0.6385194304838298,0.0,0.0,0.0,-1.1483183922506042
2025/04/09 10:59:07.358920713,1744189147,358764685,,1.4401273609022383,-0.6385626356622971,0.0,0.0,0.0,-1.1483960857830393
2025/04/09 10:59:07.467434925,1744189147,467169355,,1.439839188084946,-0.40225015981264045,0.0,0.0,0.0,-0.7234737581900593
2025/04/09 10:59:07.562058953,1744189147,561953185,,0.7324579228543229,-0.7082094038810633,0.0,0.0,0.0,-0.7073199625474609
2025/04/09 10:59:07.659826939,1744189147,659508225,,1.4392367320702846,-0.4965482702153877,0.0,0.0,0.0,-0.893075813869529
2025/04/09 10:59:07.765465092,1744189147,762642049,,1.439361584886754,-0.4966113668216713,0.0,0.0,0.0,-0.89319116483263
2025/04/09 10:59:07.864046863,1744189147,863752595,,1.4390651132460945,-0.3455974397203928,0.0,0.0,0.0,-0.6216410880740568
2025/04/09 10:59:07.958651029,1744189147,958508894,,1.4389383686354478,-0.8702628826792064,0.0,0.0,0.0,-1.5650951425661306
2025/04/09 10:59:08.61958229,1744189148,60732458,,1.4387737323715584,-0.5716060108348316,0.0,0.0,0.0,-1.0280484219238013
2025/04/09 10:59:08.159480796,1744189148,157668358,,1.438613820552149,-0.23900205022868914,0.0,0.0,0.0,-0.4299558676482862
2025/04/09 10:59:08.259260997,1744189148,259095707,,1.4384469861870812,-0.1936920287479078,0.0,0.0,0.0,-0.3484786959192494
2025/04/09 10:59:08.386470436,1744189148,386126053,,1.4385650245483106,-0.1937288601992978,0.0,0.0,0.0,-0.3485450354139703
2025/04/09 10:59:08.460154901,1744189148,458023686,,1.4382816145457866,-0.6060528157905848,0.0,0.0,0.0,-1.090000091060321
2025/04/09 10:59:08.562188200,1744189148,559282602,,1.43786452073455,-0.11798119367886295,0.0,0.0,0.0,-0.21234453976594314
2025/04/09 10:59:08.660440947,1744189148,660144946,,1.4379727826567432,-0.11802415622378448,0.0,0.0,0.0,-0.2124216111953643
2025/04/09 10:59:08.759883880,1744189148,759683507,,1.4377164213166935,0.7210683845001986,0.0,0.0,0.0,1.296432104305899
2025/04/09 10:59:08.860494900,1744189148,860367732,,1.4375622826440662,0.564070767860018,0.0,0.0,0.0,1.014111860485561
2025/04/09 10:59:08.965442329,1744189148,965291068,,1.4377231581330676,0.5641076058889668,0.0,0.0,0.0,1.0141765673528367
2025/04/09 10:59:09.67595836,1744189149,67075192,,1.4373692565739375,-0.3562375101249031,0.0,0.0,0.0,-0.6407842717356582
2025/04/09 10:59:09.159417722,1744189149,159278478,,1.4372271077224212,0.5362483163960142,0.0,0.0,0.0,0.9640979735729309
2025/04/09 10:59:09.258713614,1744189149,258553035,,0.729871479081794,0.7083387631348743,0.0,0.0,0.0,0.7071131367517807
2025/04/09 10:59:09.357957178,1744189149,357813567,,1.4366697652878315,0.14744135065621922,0.0,0.0,0.0,0.26494188613465286
2025/04/09 10:59:09.460799409,1744189149,460152518,,1.4367652196201206,0.14745872155472317,0.0,0.0,0.0,0.26497466175032447
2025/04/09 10:59:09.587658284,1744189149,587398392,,1.4364893930361404,0.24758238889055917,0.0,0.0,0.0,0.4450240157379788
2025/04/09 10:59:09.663053545,1744189149,661580890,,1.4363410298857389,0.08566136296057025,0.0,0.0,0.0,0.15386889025557404
2025/04/09 10:59:09.770048099,1744189149,768847214,,1.4361935088264843,-0.10007198853514265,0.0,0.0,0.0,-0.18012246320722158
2025/04/09 10:59:09.860124125,1744189149,859635328,,1.4363130108266802,-0.10006460645868553,0.0,0.0,0.0,-0.18010925052150228
2025/04/09 10:59:09.962617589,1744189149,962410139,,1.4360236706035039,0.5976098259609905,0.0,0.0,0.0,1.0744487629361175
2025/04/09 10:59:10.63847524,1744189150,61050536,,1.4358876432137748,0.23808818257884234,0.0,0.0,0.0,0.4279552098216878
2025/04/09 10:59:10.172075664,1744189150,171540906,,1.4357207675789567,0.047410833365743366,0.0,0.0,0.0,0.0850782636489692
2025/04/09 10:59:10.260566080,1744189150,260264372,,1.4355671998379833,0.12337565470154,0.0,0.0,0.0,0.22167587433114933
2025/04/09 10:59:10.359844379,1744189150,359563032,,1.43543054186393,-0.4059257452660954,0.0,0.0,0.0,-0.7301055815759037
2025/04/09 10:59:10.459497316,1744189150,459346391,,1.4350634321856361,0.6754939856736519,0.0,0.0,0.0,1.2145092190360576
2025/04/09 10:59:10.561467335,1744189150,561066408,,1.435162700127293,0.7763443335213225,0.0,0.0,0.0,1.3958553611445883
2025/04/09 10:59:10.658648069,1744189150,658520491,,1.4349022886996607,0.3047582221180032,0.0,0.0,0.0,0.5478483904998043
2025/04/09 10:59:10.784782325,1744189150,784208287,,1.4347652921277643,-0.6295999068619422,0.0,0.0,0.0,-1.1323081484271325
2025/04/09 10:59:10.860868769,1744189150,860771575,,1.4346409018511252,-0.09063647114703899,0.0,0.0,0.0,-0.1631458237297696
2025/04/09 10:59:10.958657340,1744189150,958226497,,1.4344894352483806,-0.822430108741135,0.0,0.0,0.0,-1.4789997405371251
2025/04/09 10:59:11.62154249,1744189151,61884620,,1.4345839582019124,-0.8224720188236959,0.0,0.0,0.0,-1.479075151335068
2025/04/09 10:59:11.158595916,1744189151,158428784,,1.4342216170420699,-0.22219373153757516,0.0,0.0,0.0,-0.39970329562914086
2025/04/09 10:59:11.264415505,1744189151,262560818,,1.434116865227324,0.2986533415790944,0.0,0.0,0.0,0.5368417365845304
2025/04/09 10:59:11.358850425,1744189151,358592648,,1.4339709510643388,-0.570127595333157,0.0,0.0,0.0,-1.0253943317342418
2025/04/09 10:59:11.458439472,1744189151,457940796,,1.4337490075147414,-0.9841391434181251,0.0,0.0,0.0,-1.769960678256464
2025/04/09 10:59:11.560803033,1744189151,560492406,,1.4336456558167754,-0.028611396247827936,0.0,0.0,0.0,-0.05170689595671285
2025/04/09 10:59:11.664507554,1744189151,663183649,,1.4334212108648927,0.003960736863995451,0.0,0.0,0.0,0.006873185457933362
2025/04/09 10:59:11.757762587,1744189151,756843974,,1.4333039026385137,-0.10870028570810875,0.0,0.0,0.0,-0.1958520235401412
2025/04/09 10:59:11.858112300,1744189151,857952753,,1.4333895614205403,-0.10879877463267162,0.0,0.0,0.0,-0.1960294521104644
2025/04/09 10:59:11.985802344,1744189151,985458715,,1.4332161185801766,-0.010230334499011673,0.0,0.0,0.0,-0.018758230597428427
2025/04/09 10:59:12.59538317,1744189152,59440131,,1.4331008441510562,0.6600926744519686,0.0,0.0,0.0,1.186695078134234
2025/04/09 10:59:12.159261096,1744189152,158240827,,1.4329913962190801,0.9931539452962728,0.0,0.0,0.0,1.785619275217016
2025/04/09 10:59:12.256821324,1744189152,256661530,,1.4327861639139527,0.2509172297833133,0.0,0.0,0.0,0.450866049183154
2025/04/09 10:59:12.361343402,1744189152,360105161,,1.432657171776171,0.750058986996839,0.0,0.0,0.0,1.3484229545866324
2025/04/09 10:59:12.461187510,1744189152,460596890,,1.4325285904986487,0.41807684880117735,0.0,0.0,0.0,0.7514626864541027
2025/04/09 10:59:12.560397496,1744189152,559745022,,1.432401312479513,0.1699131206130502,0.0,0.0,0.0,0.30519765363693396
2025/04/09 10:59:12.660487873,1744189152,658897618,,1.4322742728350306,-0.05648133936711397,0.0,0.0,0.0,-0.1019047717691437
