time,header_stamp_secs,header_stamp_nsecs,header_frame_id,child_frame_id,pose_position_x,pose_position_y,pose_position_z,pose_orientation_x,pose_orientation_y,pose_orientation_z,pose_orientation_w,twist_linear_x,twist_linear_y,twist_linear_z,twist_angular_x,twist_angular_y,twist_angular_z,gps_status
2025/04/09 10:24:45.424729892,1744187085,420162234,piren,vessel_center,-480.19779388881403,-299.9876451523337,2.3316578888433135,-0.008627848369218831,0.00037451003383179223,0.004514756876662273,0.9999525173452474,0.017507866565620398,-2.449126987209935e-06,-2.6771409583740342e-05,0.001621799425735353,0.00011624453389079544,-0.0009162208906939593,0
2025/04/09 10:24:45.481259075,1744187085,478817144,piren,vessel_center,-480.1972638723733,-299.97453607624146,2.3369893740122305,5.6863219437119355e-05,0.0004104421641433796,0.004511334507036731,0.9999897380297309,0.01671290235585756,0.029134386564146242,0.011826137505162766,0.0017301324114879489,8.009620698719651e-05,0.0,0
2025/04/09 10:24:45.535724752,1744187085,532493219,piren,vessel_center,-480.19657773217136,-299.97981849262834,2.3348175537530573,0.017164974762635517,0.0005088432746181163,0.004393467996949171,0.9998428887374656,0.016344694835607052,0.014094124374468865,0.005659704678744522,0.0006296238650511603,4.2448587100980235e-05,-0.005044420356440735,0
2025/04/09 10:24:45.564849249,1744187085,561943565,piren,vessel_center,-480.1958842140841,-300.01226920771614,2.320685704156691,-0.029241506976791478,0.00029522789041517606,0.004412100109616151,0.9995625945796701,0.016437443585755582,-0.05927972277022522,-0.026251243524176696,0.0027741267330712825,-2.165585690339331e-05,0.0,0
2025/04/09 10:24:45.619873550,1744187085,617744736,piren,vessel_center,-480.19575210409585,-299.9571331321756,2.3422608361726804,-9.160144310254671e-06,0.00040981869065033797,0.0043726992534899945,0.9999903556864792,0.014867258492131705,0.06999266011612201,0.024680310488933106,0.00196860723289754,-6.138202036858338e-05,-0.005009609430858641,0
2025/04/09 10:24:45.693491919,1744187085,691517859,piren,vessel_center,-480.19522555418763,-299.96730032327787,2.338639243438283,5.265555430795979e-05,0.0003556709358907528,0.004287569747256443,0.9999907436927806,0.014390588862170525,0.039641463292582224,0.01389694066396638,0.001916698837766196,-8.604406434164478e-05,-0.0009233408207640264,0
2025/04/09 10:24:45.721556471,1744187085,719386312,piren,vessel_center,-480.1948157947899,-299.97484942290396,2.335944685041963,-0.0013991046352800174,0.000360907016689674,0.004288104048714351,0.9999897621555994,0.01367012003947847,0.018368765098329857,0.006332544697808037,0.0013644029206266162,-9.097498573793435e-05,0.0,0
2025/04/09 10:24:45.776641505,1744187085,773318983,piren,vessel_center,-480.1943783501655,-299.97796219435315,2.3349842336903195,-0.00875017378608621,0.0002769552562526508,0.0042902183654587875,0.9999524747611139,0.013127877737406642,0.009415277005745919,0.003496273576563899,0.001369138217615456,-8.154092882476732e-05,0.0,0
2025/04/09 10:24:45.830302642,1744187085,827509657,piren,vessel_center,-480.1939787461215,-299.96785758694176,2.3393161101825695,0.012780479775008546,0.00037309286677237745,0.004318005083880358,0.9999089333386961,0.012529545025154484,0.030807278132396858,0.012728244812916518,0.0004810529175047667,-3.769420482920731e-05,-0.004682193388273285,0
2025/04/09 10:24:45.883514882,1744187085,881515276,piren,vessel_center,-480.1932850128009,-299.99677730417267,2.3271229510747666,-0.01563299629742317,0.00031477506090917006,0.004250362432217679,0.9998687137632724,0.012684087800789974,-0.03687740253813022,-0.01578016544005221,0.0010368883577873552,-3.4091966275805636e-05,-0.0009363277131919896,0
2025/04/09 10:24:45.939136111,1744187085,937349369,piren,vessel_center,-480.19294544929033,-299.96977385793855,2.3382044566315145,0.001552759005814499,0.00037002422505210146,0.004244350628793389,0.9999897187017888,0.012002343633230602,0.027315961643853047,0.010636337843492445,0.0009407808728090826,-2.6556782901071488e-05,0.0,0
2025/04/09 10:24:45.995327968,1744187085,993272997,piren,vessel_center,-480.19218569293,-299.97932343881456,2.334531524284106,-0.005697564573233159,0.0003750124889081095,0.00436249644433074,0.9999741825408995,0.012218674571750207,0.002740824050306078,0.0011683540791352885,-2.9949205145462647e-05,-3.31984400049196e-05,-0.0008614807158274061,0
2025/04/09 10:24:46.25935768,1744187086,22491744,piren,vessel_center,-480.1914217409549,-299.9741362481561,2.336881868237655,-0.030989914652276424,0.0002473942703397764,0.004370121335480067,0.9995101130180889,0.012525492028817361,0.013957520696657998,0.006259070754750714,0.00017400450512968952,-4.189389273120341e-05,0.0,0
2025/04/09 10:24:46.81594783,1744187086,79041691,piren,vessel_center,-480.19113626612005,-299.92751303087186,2.3546894094134507,0.002234821200420218,0.0004688387154704233,0.004332472204988999,0.9999880076526189,0.012035215439755383,0.1163617683165736,0.04528858806457913,0.000183034015257846,-7.938901094447716e-05,-0.0010933597959776513,0
2025/04/09 10:24:46.138862038,1744187086,134798219,piren,vessel_center,-480.18994823715224,-299.95055836188783,2.3457211233778663,0.0029080597441433946,0.0004247848127341575,0.004332271945624832,0.999986296989202,0.013293132375793257,0.05177227502485915,0.020152416355929164,1.4911327172308118e-06,-0.00013626350854948157,0.0,0
2025/04/09 10:24:46.193239093,1744187086,191318134,piren,vessel_center,-480.1888515628126,-299.9686086502268,2.338659638994675,0.02724565342166437,0.0004991058218046068,0.0042928410657783285,0.9996194259709988,0.014231588353095768,0.00581420970529474,0.0021845292386480433,-0.002420784051452972,-0.00013877899464631243,-0.0008827070073390266,0
2025/04/09 10:24:46.221737187,1744187086,219719553,piren,vessel_center,-480.18753706082305,-300.0219503155318,2.3152500232769397,-0.02903011855314516,0.00023465808759089418,0.004313673406478344,0.999569201893553,0.015542517248695995,-0.1133965785151307,-0.050090979053851445,-0.00042288112312112094,-0.00013334068668934695,0.0,0
2025/04/09 10:24:46.276618022,1744187086,274809554,piren,vessel_center,-480.18708849579446,-299.9655994509637,2.3378639648764143,-0.028661895880869103,0.00015711604889027608,0.004311463280621391,0.9995798528999278,0.014762623294473351,0.024812265818490817,0.005897149386692058,-0.00041038103017278086,-9.854939511128064e-05,0.0,0
2025/04/09 10:24:46.330186762,1744187086,328378650,piren,vessel_center,-480.18662892716355,-299.92563425510656,2.353956967716675,0.0032840064103585895,0.00024402673096681174,0.004194760688243448,0.9999857797667023,0.014112327368457309,0.11082366216937738,0.0409954327441117,-0.0012526034481425822,4.031439042082207e-05,-0.0040836150852749985,0
2025/04/09 10:24:46.388089280,1744187086,384474691,piren,vessel_center,-480.18568452708246,-299.9514672009846,2.344317750472899,-0.0018360524716802315,0.0004737712999869363,0.004125031702497172,0.9999896942296606,0.014646841354351901,0.041121265185756456,0.01502648801644215,-0.002006070750572297,9.100492246047123e-05,-0.0009054990364121461,0
2025/04/09 10:24:46.439902823,1744187086,438017816,piren,vessel_center,-480.18441353634597,-299.96162431823444,2.340934646169561,-0.01875076903097429,0.0004261263314724667,0.004132901031253752,0.999815556093304,0.015814799764575848,0.013893906855764401,0.005807222845438907,-0.0010714699309350587,-3.081984400796128e-05,0.0,0
2025/04/09 10:24:46.494698659,1744187086,492696606,piren,vessel_center,-480.1834259372904,-299.94041380348034,2.3497509517605732,0.001985164114131088,0.00037130501343608536,0.004224045596514316,0.9999890392873442,0.016258334789791017,0.0594978790031288,0.024759290202186097,-0.0005688512397263143,-5.630362596573026e-05,-0.0008421165952753513,0
2025/04/09 10:24:46.523321547,1744187086,521135532,piren,vessel_center,-480.1822783442839,-299.96033585871555,2.342059189830678,0.024575602828802796,0.0004717224236441625,0.004214532351743804,0.999688979103307,0.016969523365696924,0.008358947704618591,0.004811998626852464,-0.0024684647345956197,6.234055242453381e-05,0.0,0
2025/04/09 10:24:46.578152801,1744187086,576271528,piren,vessel_center,-480.18090216782605,-300.01225126126855,2.319612291088083,-0.030937707076924992,0.00017277912097267203,0.004232048208143386,0.9995123401920367,0.0181500991305259,-0.10794810533157065,-0.04560876885103046,-0.0007983154087031078,0.00011414991830208839,0.0,0
2025/04/09 10:24:46.634770125,1744187086,632185004,piren,vessel_center,-480.18056839318734,-299.9559478208236,2.3419618205117274,-0.027044808802655924,0.00019359120959594863,0.004104236658966047,0.9996257780193138,0.016834147191457573,0.02942703395942739,0.00923480019840428,0.0010886311698543136,0.00015863415360201818,-0.004716534185442553,0
2025/04/09 10:24:46.689002614,1744187086,687215998,piren,vessel_center,-480.18013628758877,-299.92213898775367,2.355698747245894,0.030656323796735222,0.0005033276426623298,0.004009282910206415,0.999521816731931,0.015931536269954718,0.1013104062791623,0.03874306472481878,-0.00032694194174668945,0.00019453663027918592,-0.00090199531413024,0
2025/04/09 10:24:46.743692680,1744187086,741186769,piren,vessel_center,-480.1787392279425,-299.994722834109,2.324625738922402,0.025578772589248993,0.0004913992710690343,0.004011836548718659,0.9996646388099812,0.01723151265096048,-0.07148599667189079,-0.03470644149140936,-0.0014486232916072934,0.00020303184372871979,0.0,0
2025/04/09 10:24:46.771795854,1744187086,770152330,piren,vessel_center,-480.17762944474373,-300.0384543824548,2.306406555254408,-0.03226747756681278,0.00034439387561547566,0.0040360496373311955,0.9994710609055465,0.01778923865872484,-0.16076100529039683,-0.07135419404353802,0.0006235706958923476,0.00016041872131489256,0.0,0
2025/04/09 10:24:46.826191343,1744187086,823467857,piren,vessel_center,-480.17720834169444,-299.97214087858833,2.3334640705827345,-0.027403406287630196,0.0003585134899763642,0.004053777929585421,0.999616172176306,0.016712008376680656,0.004816701630533882,-0.0031426606816886,0.002361262649742995,1.7408851523109233e-05,-0.004721238256779829,0
2025/04/09 10:24:46.881590463,1744187086,878938911,piren,vessel_center,-480.17678905624746,-299.93267788380524,2.3500823704573324,0.030475039181744084,0.00026564231407817245,0.003980738864388339,0.9995275659726077,0.015787180242751032,0.09199262145334579,0.034142586851411874,0.0009362585815694487,4.9319169440289266e-05,-0.0010213442151341962,0
2025/04/09 10:24:46.934829111,1744187086,933016569,piren,vessel_center,-480.1762297851154,-300.0020967771156,2.3208067198695326,0.025509027409360688,0.00039063538388236515,0.00397845888177735,0.9996665988166011,0.015596563493591288,-0.07064656604134177,-0.03402382010998825,-0.0002859086106507516,0.00013820405954942738,0.0,0
2025/04/09 10:24:46.963931401,1744187086,961752031,piren,vessel_center,-480.1754173750993,-300.04305854364725,2.3040401180079746,-0.03236969231298265,0.0002487217253770439,0.003997014491765604,0.9994679409727052,0.015674535227072097,-0.15386214391542158,-0.06752021860800139,0.0016081835762339746,0.00016120444284608456,0.0,0
2025/04/09 10:24:47.20107664,1744187087,17105656,piren,vessel_center,-480.17527692678505,-299.9747451442373,2.3321264975638427,-0.027294184339926215,0.0002691216665224525,0.0039891515768583664,0.9996194484624855,0.01421103518887348,0.015450812155404142,0.0025738938582094417,0.0031898753586788345,0.00010389593749006178,-0.004973328726353007,0
2025/04/09 10:24:47.73132026,1744187087,71330215,piren,vessel_center,-480.1750720175346,-299.934227287456,2.3493435125168207,0.030550451005631956,0.00043988270386244934,0.003968845379033378,0.9995252496625169,0.013092091054386669,0.10378981395911033,0.04055346426256677,0.0014964353525370952,7.31929627450187e-05,0.0,0
2025/04/09 10:24:47.130956688,1744187087,127009695,piren,vessel_center,-480.1740209625126,-300.002256430584,2.3207032822101628,0.025512115018260926,0.0004260693940348766,0.0039434857473150215,0.9996666441230934,0.01394474150465639,-0.05917008152832784,-0.027696555355358032,-4.64269558381392e-06,7.771981228059667e-05,-0.004929602381217633,0
2025/04/09 10:24:47.184919558,1744187087,182382610,piren,vessel_center,-480.17331661073536,-300.04285994888676,2.3041644614093792,-0.03229674468458019,0.00026056766101006576,0.003884825080424607,0.9994707402027173,0.013951422577247553,-0.14279880163148878,-0.06135874084255056,0.0016215339246411773,4.5022992923889055e-05,-0.0009211570123339536,0
2025/04/09 10:24:47.239771110,1744187087,238027692,piren,vessel_center,-480.1733932915536,-299.9744184698468,2.3323714497175407,-0.02726631340118646,0.00027686924120963366,0.0038834190736493053,0.9996206233132798,0.012201218856580721,0.025482126405722394,0.00827921256016318,0.0029054641273779697,-3.1010791794733094e-05,0.0,0
2025/04/09 10:24:47.269208794,1744187087,267138362,piren,vessel_center,-480.1732423099952,-299.9337777628746,2.349673756660961,0.030544745835648295,0.0004275376187797852,0.003863060598602664,0.9995258438260772,0.011139900071703136,0.11288988175297128,0.045786219531584044,0.0009352319871615418,-6.934012148619771e-05,0.0,0
2025/04/09 10:24:47.323527842,1744187087,321401231,piren,vessel_center,-480.1722144901054,-300.00173817457556,2.321087831517628,0.025505813502668187,0.0004131310293499551,0.0038874058592100504,0.9996670300034936,0.012163481783727816,-0.050931120582072595,-0.02292897565426591,-0.0008131019679152215,-5.828925442642232e-05,-0.004905590003209501,0
2025/04/09 10:24:47.380753625,1744187087,378822201,piren,vessel_center,-480.17145492463476,-300.0423631866308,2.3045517172056,-0.03229923427911542,0.00044560660941371445,0.003913330629311739,0.9994704831775264,0.012452159441227463,-0.1353809863283917,-0.057050731304614626,0.0006038894710554294,-0.00013091223587875705,0.0,0
2025/04/09 10:24:47.437359824,1744187087,435117066,piren,vessel_center,-480.1709938337763,-299.97394317862125,2.3327584447257896,-0.027261593710260427,0.0004500791667194391,0.003881412333357935,0.9996206968522705,0.012068143197575678,0.03202657954907373,0.01210462238479481,0.0017343395381865735,-0.0003525580551179368,-0.00495409085658795,0
2025/04/09 10:24:47.494080636,1744187087,491709050,piren,vessel_center,-480.17049333469663,-299.9334200687918,2.350025753226142,0.03054617741540104,0.0006187608934409614,0.003774512513897386,0.9995260382979255,0.011841980952522403,0.11856480824803803,0.049150539685290096,-0.00034025142721869355,-0.0004798397864585011,-0.0008901594357793624,0
2025/04/09 10:24:47.523399961,1744187087,521368690,piren,vessel_center,-480.1693068855274,-300.0014281495581,2.3214355183400697,0.02551960994888629,0.000592929989989885,0.003777095770438439,0.9996670103037434,0.013126193946073086,-0.04612840194281523,-0.0200063936043154,-0.002136296405780793,-0.0004995176386216166,0.0,0
2025/04/09 10:24:47.600510981,1744187087,598694216,piren,vessel_center,-480.16772649292983,-300.0475617164501,2.302623416867978,-0.027016434319065835,0.0004093915792591091,0.0039002543114176557,0.999627296891959,0.013905894951949717,-0.13147197554835688,-0.05458519173211333,0.0005660472361446175,-0.0006644239930820383,-0.0011036623251069512,0
2025/04/09 10:24:47.685953450,1744187087,683291080,piren,vessel_center,-480.16742788816134,-299.93978427369757,2.3480770893250553,0.03065369239617814,0.0005688839401339513,0.0038375798515868846,0.9995225362614021,0.013082723031402833,0.10652929868979268,0.04569970513414569,-0.0014183951979217808,-0.0006437370708816784,-0.0008902736175003229,0
2025/04/09 10:24:47.742245330,1744187087,740312010,piren,vessel_center,-480.1661298122066,-300.00625787200437,2.319976732252463,0.025577981917400777,0.0005447304000855232,0.0038398806037288832,0.9996653067035854,0.014486023408608429,-0.05328124945172051,-0.02193244689070395,-0.0030536138040130434,-0.0005045270020451095,0.0,0
2025/04/09 10:24:47.771560588,1744187087,769591769,piren,vessel_center,-480.1650020673321,-300.04571409069683,2.303837427859024,-0.03227366597380158,0.0003917010550743085,0.003867881569105873,0.9994715086219629,0.015385337882844664,-0.13506123345323462,-0.055368685105451454,-0.001420250369985737,-0.0004147675682376638,0.0,0
2025/04/09 10:24:47.827273793,1744187087,825134543,piren,vessel_center,-480.1645166308228,-299.9764299172366,2.332342725212864,-0.027360548492003745,0.00040068691462762313,0.0037700795537583456,0.9996184403743118,0.014721536590741647,0.03422034046943703,0.01425558432019118,-8.54015120925437e-06,-0.00038573174130278966,-0.004867503825603059,0
2025/04/09 10:24:47.883844310,1744187087,881906426,piren,vessel_center,-480.1639432560371,-299.9350444783187,2.3498938629557644,0.030533167615359756,0.00035704371497000527,0.0036705773005228006,0.9995269506408714,0.014366312327365717,0.1224119579513623,0.05168517733361428,-0.0016654719447409098,-0.0002080257219070399,-0.0008666097348572728,0
2025/04/09 10:24:47.939401611,1744187087,937656933,piren,vessel_center,-480.16301520090417,-300.00259888067797,2.3214319986819336,0.025535366895119035,0.0003498453181044591,0.0036722132671964773,0.9996671133409888,0.014801188269121026,-0.04159736216811359,-0.017427409450666058,-0.0029968458637800403,0.00013961717740760608,0.0,0
2025/04/09 10:24:47.968739760,1744187087,966899756,piren,vessel_center,-480.1621362125351,-300.0429772883822,2.3049472043079002,-0.03228746412722566,0.00038678768136671097,0.003693800866617108,0.9994717234072611,0.0151130791271501,-0.12672415180049973,-0.052131720815295046,-0.0010740838129868547,0.00034883209576816844,0.0,0
2025/04/09 10:24:48.24530124,1744187088,22333919,piren,vessel_center,-480.16147316141087,-299.9743996337152,2.3331618723382963,-0.02723900031855334,0.000405444966466895,0.0037128976709197496,0.9996219719808636,0.014873819768172593,0.04008059831967295,0.01649550684543756,0.0006351114641220315,0.00038007909082071967,-0.004873676164558649,0
2025/04/09 10:24:48.80425464,1744187088,78633767,piren,vessel_center,-480.16079194451345,-299.9337389606465,2.350415782235121,0.03059053042381207,0.0003488363073718099,0.00361699146415766,0.9995253949422039,0.014740268346259014,0.12600967833177457,0.053015310003972624,-0.0008155964980652796,0.0005202187239507585,-0.0008800975854483588,0
2025/04/09 10:24:48.136033728,1744187088,134312067,piren,vessel_center,-480.159857448477,-300.00161545693095,2.321791230106483,0.025554012434311536,0.0003548526059472428,0.00361912879488297,0.9996668287158983,0.015120991806043363,-0.03935220983971738,-0.016705944390487906,-0.0019686301273556654,0.0007901281532080009,0.0,0
2025/04/09 10:24:48.192371306,1744187088,190304019,piren,vessel_center,-480.15903940999385,-300.04220381077937,2.305186048207478,-0.032282777723862746,0.0002218804609144661,0.003755394883510491,0.9994716954675413,0.015263962408608037,-0.12519953490746083,-0.051759927473838716,9.128885848203898e-05,0.0009323817556437336,-0.0009264078247736352,0
2025/04/09 10:24:48.222840200,1744187088,219903669,piren,vessel_center,-480.15877803318455,-299.97372848745556,2.333328922737626,-0.02724827073500279,0.0002583901838421194,0.0037533646482148385,0.9996216170283047,0.014115350406246122,0.04117301338655999,0.01665243858551549,0.0018780001841189806,0.0009680029796564742,0.0,0
2025/04/09 10:24:48.277937941,1744187088,275970490,piren,vessel_center,-480.15834830621316,-299.9330946197251,2.3505380078142624,0.03057617131027926,0.00039374694774687745,0.0037361517513492684,0.9995253793083179,0.013495521853929219,0.1268872365285457,0.05304134928185498,0.0004544175071610507,0.0009865368766655536,0.0,0
2025/04/09 10:24:48.336492735,1744187088,333141320,piren,vessel_center,-480.1572859909542,-300.00104495868857,2.321852531869051,0.02553337308344897,0.0003971126274228944,0.003612396542742126,0.9996673645527099,0.014328807052834507,-0.038498310763998594,-0.016717364048036025,-0.0007262354371303305,0.0009934464699958526,-0.00478820072032118,0
2025/04/09 10:24:48.366816390,1744187088,364531464,piren,vessel_center,-480.1565926797716,-300.0413991702428,2.3053344417213517,-0.03228213220390605,0.0002787830765051455,0.0036310420715856863,0.9994721615702161,0.014549368550342749,-0.12465455060742023,-0.051895104326397136,0.0012504609949676726,0.0009033131111581776,0.0,0
2025/04/09 10:24:48.428579117,1744187088,424119687,piren,vessel_center,-480.15638944217886,-299.97307399592626,2.333408577743601,-0.027251837684537004,0.00030719078892336104,0.0036076608388182652,0.9996220424540002,0.01334535388355134,0.04140614234152018,0.016414493475129542,0.0029016368943538735,0.0007079271176817177,-0.004478863651102006,0
2025/04/09 10:24:48.485156920,1744187088,482919241,piren,vessel_center,-480.15613242604354,-299.93254636847115,2.350579314352123,0.03046124421738705,0.00042692352698892267,0.003514834680086611,0.999529677535491,0.012438548059526782,0.12689312771653893,0.05275857968821356,0.001266891657476104,0.0005141422267922971,-0.0008859591876661676,0
2025/04/09 10:24:48.543502681,1744187088,541450924,piren,vessel_center,-480.1553276346976,-300.00041549731947,2.321962768892841,0.025481814784102056,0.0004209525157172148,0.003517066200439927,0.9996690103027251,0.01281825756300377,-0.038319369345299864,-0.016817728680218726,-0.0001109885058407012,0.0003408854697314629,0.0,0
2025/04/09 10:24:48.576482971,1744187088,572317675,piren,vessel_center,-480.15469592614414,-300.040961182343,2.3053929076069153,-0.0323068808515196,0.0003821935168706446,0.0035407003359498976,0.9994716518335537,0.012789910125593723,-0.12437627352642303,-0.05185702753195541,0.0016316468135766577,8.9712155313815e-05,0.0,0
2025/04/09 10:24:48.634781393,1744187088,631270673,piren,vessel_center,-480.154458420888,-299.97278739524364,2.333444110196131,-0.026083005709066017,0.0003931046712920536,0.0035565456906295487,0.9996533765584192,0.011844847216980542,0.04146437533490788,0.016459135710548273,0.0029624130616584653,-0.00024529140634555727,-0.004432906163326259,0
2025/04/09 10:24:48.692703633,1744187088,690378678,piren,vessel_center,-480.1541776164854,-299.93439478686224,2.3498986954262886,0.03047147928848303,0.00042007524813719634,0.003460931884102719,0.9995295565601106,0.011126320006315199,0.12210028689992175,0.05116738403379593,0.001139764045697606,-0.0005013068426381133,-0.00084896156834492,0
2025/04/09 10:24:48.724914587,1744187088,720922806,piren,vessel_center,-480.1535112915413,-300.00179655159934,2.321505617660967,0.02548759569330481,0.00039511351878781424,0.003462329256158991,0.9996690645544674,0.011317980572312352,-0.04184966221582764,-0.017865739086226982,-0.0004923646402572013,-0.0006399369217654354,0.0,0
2025/04/09 10:24:48.780795872,1744187088,778572072,piren,vessel_center,-480.152984639612,-300.0422526461665,2.30501610757232,-0.03230651877189588,0.00046160814262349674,0.0034893506461074596,0.9994718106053979,0.01122900947029875,-0.12710675113698963,-0.05252575918609635,0.0010167312294550805,-0.0008303566232834715,0.0,0
2025/04/09 10:24:48.837417516,1744187088,835307614,piren,vessel_center,-480.15259475758296,-299.97384561989054,2.3332073652452454,-0.027260551592450312,0.0004469929782512478,0.0035086737090763566,0.9996221044639599,0.010822347312387407,0.039339231894973264,0.016084683448526607,0.002214371204539346,-0.001129601693912569,-0.004446194222096995,0
2025/04/09 10:24:48.896645691,1744187088,893628519,piren,vessel_center,-480.15222127441245,-299.9333623552626,2.3504601464636834,0.030558195033687237,0.0005911157710566549,0.0034042406976369562,0.9995270173655643,0.010416286260988542,0.12482351719172546,0.052593314998952326,0.0001822628418442131,-0.001290108925249384,-0.0007901590774916131,0
2025/04/09 10:24:48.924909737,1744187088,923330076,piren,vessel_center,-480.15132348132187,-300.0023582125753,2.3214703284141893,0.024254427205316127,0.0005464758759216853,0.0034071743701153275,0.9996998626027067,0.011460397927885693,-0.039920295821821494,-0.01664006524609042,-0.0015270632777438383,-0.0012926165797723062,0.0,0
2025/04/09 10:24:48.982726980,1744187088,980725498,piren,vessel_center,-480.1505281226662,-300.04080145489775,2.3060114677091352,-0.03217737909513701,0.0003885030761336435,0.0035486802993380663,0.9994757987105345,0.011962795856789213,-0.12098784297177226,-0.04917420733505827,-0.00014455500183841618,-0.0012879169490852918,-0.0008515095703023688,0
2025/04/09 10:24:49.39459641,1744187089,37335725,piren,vessel_center,-480.1502650515389,-299.9732770833926,2.3338718907893026,-0.027201822222778862,0.0003758528357575897,0.0035476480473575238,0.9996235960579054,0.011192448984502603,0.04284159451130981,0.018337082953905806,0.001007979193652588,-0.0012772298999825962,0.0,0
2025/04/09 10:24:49.70130615,1744187089,67181343,piren,vessel_center,-480.14985272616985,-299.93334081877003,2.35090681397893,0.030591651392811822,0.0005277527220777262,0.0035199003068458763,0.9995256288079636,0.010869341734451423,0.12685363095606553,0.05416568361903985,-0.0010023442918746356,-0.0011247429766311008,0.0,0
2025/04/09 10:24:49.129167625,1744187089,124690469,piren,vessel_center,-480.14871168175983,-300.0018261705416,2.322115070851993,0.025557043106339827,0.0004966925543739981,0.0034074898632332627,0.9996674346286364,0.012172763183162074,-0.039740075262216484,-0.01596627182508817,-0.002698822993151666,-0.0008304658477807131,-0.004312994996737582,0
2025/04/09 10:24:49.184464997,1744187089,182415967,piren,vessel_center,-480.1478207905933,-300.04287591542663,2.305414551903969,-0.030182677440122502,0.0002728111344454557,0.0033601104541716776,0.9995387142148954,0.012805155218348132,-0.12657371168979842,-0.05131563096635714,-0.0009955253114870889,-0.0005398320239391576,-0.0008474771631859257,0
2025/04/09 10:24:49.244570212,1744187089,240718926,piren,vessel_center,-480.1476586787528,-299.9783958837773,2.3322373266226615,-0.02526468748809297,2.5602275444243074e-05,0.00335214206175864,0.9996751762718981,0.011714367295917596,0.031078146577283056,0.014113761012961863,0.0007510598869645636,-6.150707451679015e-05,0.0,0
2025/04/09 10:24:49.274053112,1744187089,271963148,piren,vessel_center,-480.1476685220774,-299.9403960854985,2.3485569507561075,0.034949334388961126,0.00013751679832835578,0.003348538656469986,0.9993834661448853,0.01034329261788143,0.1119531544254638,0.04875852270491807,-0.0004281399597910361,0.0004827787057387223,0.0,0
2025/04/09 10:24:49.334218137,1744187089,329411390,piren,vessel_center,-480.14675227370526,-300.01398264358306,2.3169002372496466,0.03056105172853464,0.001167124777579907,0.003336953978392134,0.9995266503076071,0.011209174323039675,-0.06426461544401751,-0.0271173426922999,-0.0009078170732602686,0.0008139452945130174,-0.0043236911354970495,0
2025/04/09 10:24:49.390760893,1744187089,388292866,piren,vessel_center,-480.144223263908,-300.0595835633646,2.2977386538667,-0.026375836488127684,0.00020954371065179161,0.0033198074865698024,0.9996465626506386,0.01558841595638141,-0.15849556145426535,-0.06670080228415745,0.0013955685892885533,0.0010152749007031534,-0.0005827348383532667,0
2025/04/09 10:24:49.420084559,1744187089,418349029,piren,vessel_center,-480.14402525057335,-299.9965491532112,2.3245164628738966,-0.020826840665448147,-0.0005664771039170306,0.003300435117896813,0.9997774897143962,0.014263098302308477,-0.00044981894247972387,0.0003676539067062057,0.004121939522973792,0.0015149814473742064,0.0,0
2025/04/09 10:24:49.497517715,1744187089,495269454,piren,vessel_center,-480.1448473214251,-299.96048909993897,2.3403839885065496,0.008841364181852364,-0.0004377807522675515,0.003420515366822296,0.9999549683370957,0.010855677420659317,0.07977656571533738,0.035607077407991065,0.0042609652395272325,0.00213812501498023,-0.0007872739944137866,0
2025/04/09 10:24:49.527012901,1744187089,524995796,piren,vessel_center,-480.144570963929,-299.9847371211039,2.331470793897871,0.03721293539066266,0.0010046131606243692,0.003382586024204124,0.9993011289415202,0.010240386025043603,0.016851491129909524,0.011765269633814097,0.004317536875767082,0.0005907839016211405,0.0,0
2025/04/09 10:24:49.585722692,1744187089,583832222,piren,vessel_center,-480.14145308155895,-300.0489207895653,2.3028880053101015,0.040515048998397044,0.0009930017551119349,0.0034516506497365815,0.9991724730295386,0.016036532013231675,-0.12766582878907715,-0.05306398883056107,0.006228296267076918,0.00023313144167711003,0.0009009651805404782,0
2025/04/09 10:24:49.645453163,1744187089,643369675,piren,vessel_center,-480.13864050397984,-300.100004705748,2.279748373690972,-0.01770632285368451,-0.0002616891717659762,0.003484327922766325,0.999837125290267,0.02046981267171786,-0.22674030345838248,-0.0984824734467217,0.008327014740298639,0.000704839669347096,0.0,0
2025/04/09 10:24:49.675996053,1744187089,673193475,piren,vessel_center,-480.1383781922542,-300.03910254074424,2.306588612492255,-0.023571815630095895,-0.00032059094025862204,0.003480741206430594,0.999716035267017,0.018778527506219958,-0.06619436253549824,-0.027888631214708998,0.007067515585640291,0.0009202731444271031,0.0,0
2025/04/09 10:24:49.733875181,1744187089,731113730,piren,vessel_center,-480.1377274218485,-299.98499931989386,2.3297079587912677,-0.01677116777099226,-0.00014022912329533644,0.003697748000779263,0.999852506586403,0.018080006076752666,0.06161174794883631,0.02667997530626213,0.007673020621121505,0.0010891990224382157,0.007494352030593503,0
2025/04/09 10:24:49.793805186,1744187089,790425363,piren,vessel_center,-480.1360334879046,-299.9577642504599,2.3419630644756504,0.02799049407186034,-0.005075406622019779,0.003955914285215861,0.9995874765278937,0.019839953955124924,0.11531026439406528,0.05095871877509242,0.005866654296975341,0.0025118200739797794,0.0012818251050466312,0
2025/04/09 10:24:49.825773875,1744187089,821505089,piren,vessel_center,-480.1417368599014,-300.01388809869974,2.3180165225293106,-0.0020940600443850156,-0.0018354419800068829,0.0038082812877783916,0.9999888714675287,0.005348891480116705,-0.01997533713674815,-0.006924966660201162,0.0046871442202373005,0.0036562015811264256,0.0,0
2025/04/09 10:24:49.882863459,1744187089,880917323,piren,vessel_center,-480.13965967444216,-300.00342884031966,2.323569383892144,0.005318852293063209,0.0006685653383845849,0.003466052349616258,0.9999796244483098,0.009369447526705967,0.005498092070729085,0.0061887805387481915,0.003960673543023388,0.003889623768185681,-0.001404711314580551,0
2025/04/09 10:24:49.941945048,1744187089,939432538,piren,vessel_center,-480.13298575265605,-300.00821008708135,2.3223027233190843,0.004828184348546048,-0.00015986729058157744,0.0034712559775441822,0.9999823065736134,0.023141382874291863,-0.005751089449677551,0.0026726814369990434,0.002638406905396088,0.0035865330270144326,0.0,0
2025/04/09 10:24:49.974710453,1744187089,971334986,piren,vessel_center,-480.12833162047997,-300.0107362517555,2.32173100424219,0.024201446926369406,-0.001628518233472591,0.003514987690491355,0.9996995962570803,0.030920210382737692,-0.010728082557989495,0.0011057641007905814,0.0016034958340896868,0.003412578366399976,0.0,0
2025/04/09 10:24:50.34261131,1744187090,32571914,piren,vessel_center,-480.12587218860466,-300.04456404080804,2.306783929491334,0.006475957271176147,0.0004862513750073093,0.0031033971404560265,0.99997409689612,0.032779057326434026,-0.08468057055006314,-0.03225304910287822,0.00010062338402280435,0.0026011270478700143,-0.012030599350678333,0
2025/04/09 10:24:50.93787791,1744187090,91966068,piren,vessel_center,-480.11947935963497,-300.03922504474156,2.3094938256971402,0.012901992130210043,0.0005405238208254649,0.0028332646721606746,0.9999126057033028,0.043351373132145724,-0.06342161487964434,-0.022652677685562818,-0.0008324048117391079,0.0013352750698992413,-0.003793013294023758,0
2025/04/09 10:24:50.127422435,1744187090,123382595,piren,vessel_center,-480.11326328004765,-300.04593406285977,2.3068011614494983,0.03362010829014132,0.0005692639633980033,0.0028225290409083477,0.9994305366492022,0.05225483765516428,-0.07114558895009426,-0.026070296579070243,-0.004104032535901377,4.048085791818162e-05,0.0,0
2025/04/09 10:24:50.184688414,1744187090,182768812,piren,vessel_center,-480.10698129824766,-300.08463291885744,2.288838942618135,0.00539375043957546,0.0009498204013506494,0.00307980163799955,0.9999802598647992,0.06043460279534001,-0.1492816910176319,-0.0631067154091976,-0.004243363727776568,-0.0013759047474952324,-0.003929863981030394,0
2025/04/09 10:24:50.244227699,1744187090,242178864,piren,vessel_center,-480.0998631827521,-300.0656884639787,2.2977594512927157,-0.02053555945112859,0.0003080778964275032,0.0030945867118435796,0.9997842864433916,0.06940926130041616,-0.09026605796034376,-0.03613168803239472,-0.003605943248427344,-0.002603519952871214,0.0,0
2025/04/09 10:24:50.274434514,1744187090,272301077,piren,vessel_center,-480.0940302949734,-300.00808928034644,2.321915340404194,0.03501498399028891,0.0005569301843631604,0.0030636262341925263,0.9993819364583426,0.07468213109377785,0.047749154032089486,0.021557973753767737,-0.006768749461281683,-0.0036446556348969025,0.0,0
2025/04/09 10:24:50.332359768,1744187090,330737040,piren,vessel_center,-480.08713704245883,-300.05969136531587,2.298907661956339,0.034778042683324635,0.00027459395041115457,0.002523881277875635,0.9993918362527155,0.08154403142712026,-0.0723446608969428,-0.03201829716635342,-0.007383593147180434,-0.004431803754118782,-0.020538174924036857,0
2025/04/09 10:24:50.391645157,1744187090,389895180,piren,vessel_center,-480.08097715858725,-300.0965967132042,2.2826440370539642,-0.023452818064845768,0.0005791270446487434,0.002221344456439117,0.9997223092266618,0.0861219063931915,-0.14628242818398604,-0.06458622389364198,-0.005973511240814146,-0.0051041339954052845,-0.003848082602074541,0
2025/04/09 10:24:50.451374292,1744187090,449156380,piren,vessel_center,-480.07425036761373,-300.0259310506346,2.3130935164591153,-0.023910576007519932,-0.0003638685159684099,0.0022054470359695933,0.9997116023924416,0.09120390886014347,0.027531875144313434,0.010487533594935206,-0.006003119909539239,-0.005164236083574393,0.0,0
2025/04/09 10:24:50.482414253,1744187090,480153078,piren,vessel_center,-480.0689657729137,-299.9746092246644,2.335332431143201,0.004910567340359387,-0.0001785807382614543,0.002213249576998227,0.9999854778763668,0.09284636817365054,0.13854795168822387,0.05875313118676256,-0.005872961449425925,-0.00478537556658536,0.0,0
2025/04/09 10:24:50.540616845,1744187090,538661837,piren,vessel_center,-480.06202745348844,-299.98723803505885,2.331839934458405,-0.022462412682386093,0.00037530907301330736,0.00225891961144344,0.9997450657251453,0.09775799258281977,0.09479906866745264,0.04434115516866977,-0.005219756551108128,-0.005327151052188956,-0.022354261950694794,0
2025/04/09 10:24:50.600855212,1744187090,598990004,piren,vessel_center,-480.05444477357497,-299.9509636323688,2.3475004724341373,-0.027361690933143737,0.00026513793015218914,0.0019393754145377764,0.9996236823896074,0.10377988117284102,0.16493705344582815,0.07424298124088582,-0.005042116550869238,-0.0048278791312863075,-0.003742238597119593,0
2025/04/09 10:24:50.631866180,1744187090,630239059,piren,vessel_center,-480.0471383597722,-299.91729403074635,2.361567827497045,0.0031768369278117425,-0.0018692928914774583,0.0019369259201442626,0.9999913308470229,0.1082440161006164,0.22105368417987814,0.09708398752439502,-0.004258593923930645,-0.0025131084668076095,0.0,0
2025/04/09 10:24:50.691476996,1744187090,689053057,piren,vessel_center,-480.04392065635545,-299.9473757484247,2.3504720285655445,-0.026653911215316767,0.00335396791851866,0.0025072552983034647,0.9996359505274891,0.10564141652962489,0.1342705481591562,0.06367251541823936,-0.0019872559178507683,-0.002304042579889604,-0.006107320954489781,0
2025/04/09 10:24:50.721682093,1744187090,719774912,piren,vessel_center,-480.0295277927897,-299.9177112172319,2.3626637008644225,0.0014543344532847162,0.0031408043240199646,0.002412181954537634,0.9999911007792592,0.12566819152202724,0.18499651896750005,0.0835589561889947,-0.0018611490539480059,-0.003045996340960624,0.0,0
2025/04/09 10:24:50.780513430,1744187090,778571328,piren,vessel_center,-480.01752466479076,-299.9450834571157,2.352523606908493,0.011343321118452125,0.00043522416774978016,0.0023862855622721856,0.9999327203802978,0.13842741922712803,0.10366611952640564,0.0517655355207005,-0.0004486488418150236,-0.002958948371085553,-0.0026147827184175806,0
2025/04/09 10:24:50.840787796,1744187090,837068322,piren,vessel_center,-480.01129487385816,-299.9818123459041,2.337927262205092,0.005438579395691536,3.4008499910315595e-06,0.0023906927382342734,0.999982353059704,0.13657772083306582,0.01027933553123117,0.013454654829485366,0.001830983573003771,-0.0014188341598972757,0.0,0
2025/04/09 10:24:50.870411673,1744187090,868175872,piren,vessel_center,-480.00561592384975,-299.9986432469018,2.3316411938004187,0.010729230283479399,5.124915706309394e-06,0.00239086239189631,0.9999395818589653,0.13391063180938573,-0.02828519212776004,-0.0020250978685115613,0.0026907729525458292,0.0001922538837538934,0.0,0
2025/04/09 10:24:50.929855159,1744187090,927168226,piren,vessel_center,-479.99938576367333,-300.01954367598114,2.3232604207072467,-0.011682211379272642,-0.00016530138499338173,0.0022482046490896316,0.9999292195893658,0.1324688960775805,-0.07150790430469017,-0.02042048835595406,0.004397732357240006,0.0011055276456135253,-0.006588938489703013,0
2025/04/09 10:24:50.988373646,1744187090,986169070,piren,vessel_center,-479.99346555026193,-299.9966506725422,2.33299764174843,0.03349431611826584,1.3851424262957767e-05,0.0022235094700690135,0.9994364344977344,0.13076836961422517,-0.012606596461410241,0.003511337968480563,0.00445768950423669,0.002723952629551431,5.1122639849955086e-05,0
2025/04/09 10:24:51.47125588,1744187091,45182307,piren,vessel_center,-479.9866720829316,-300.05502499847506,2.3066550137007154,0.012529939519577019,0.00022438497249382914,0.002223103509954185,0.9999190007584634,0.13105515672195936,-0.1409184907852253,-0.05543418546132873,0.0052408243575794095,0.0047214125254597785,0.0,0
2025/04/09 10:24:51.77691647,1744187091,75728082,piren,vessel_center,-479.97958187389673,-300.06181794964374,2.3042326089995626,0.03228644376056999,0.00030459030658381116,0.0022262762472111644,0.999476131014699,0.13228296561815142,-0.14039181100988601,-0.05467175843227633,0.005480350443090182,0.00572063263574609,0.0,0
2025/04/09 10:24:51.137337924,1744187091,135375155,piren,vessel_center,-479.97195066083844,-300.0984766095706,2.287329874062344,0.03228335259148356,0.0006099349507095558,0.002380904301043228,0.9994757347827506,0.13426444672295504,-0.20597815501018915,-0.086052001934744,0.00571602845082048,0.0068881029725739755,-0.00113641039836537,0
2025/04/09 10:24:51.195909862,1744187091,193897630,piren,vessel_center,-479.9639730374742,-300.12367869866097,2.275543949627338,0.0053081516256459375,0.000555109876590573,0.002351088965609428,0.9999829937354034,0.1370988401779417,-0.23913829362418285,-0.10269954752217383,0.0070474370925754405,0.006985818044841748,-0.0007424876156808291,0
2025/04/09 10:24:51.228965666,1744187091,225776258,piren,vessel_center,-479.95618299429896,-300.09626153505303,2.288021999273664,0.006723170728245962,0.0006745706200406767,0.002351799134323325,0.9999744061578123,0.1388785458462283,-0.1510934203324726,-0.0633241517823247,0.007059572998316915,0.006648546758625659,0.0,0
2025/04/09 10:24:51.287317472,1744187091,285456035,piren,vessel_center,-479.9482161976245,-300.07783971425755,2.296319819601061,0.006493719125177669,0.0007244778807875894,0.00235641245751684,0.999975876741061,0.14122447841014066,-0.09343885779389924,-0.03787810278791991,0.0063433392333372834,0.005939897473588957,-0.0006383531703072847,0
2025/04/09 10:24:51.347731332,1744187091,345717598,piren,vessel_center,-479.93994672100064,-300.06369390830525,2.3025772065327015,0.03233509832554465,0.001037775400163195,0.0023380780313981575,0.9994738104771007,0.14360169770598105,-0.051412105645568175,-0.019679023403847362,0.003720364947751959,0.005672099619514845,0.0,0
2025/04/09 10:24:51.378464221,1744187091,376334058,piren,vessel_center,-479.93110931827135,-300.09568797061405,2.287380451475124,0.018988395244208138,0.0010382381999304254,0.0023550720581963875,0.9998163914154892,0.14733087896802347,-0.11682814693226676,-0.05127617258068962,0.003542700518740552,0.004172678810861218,0.0,0
2025/04/09 10:24:51.438165172,1744187091,436434064,piren,vessel_center,-479.9221995872268,-300.0963636126155,2.2871170674061476,0.011382820513038624,0.0011893709640526458,0.002115664199195665,0.999932268085631,0.1504477220339598,-0.10509702216259059,-0.046053649720730366,0.002919803767539305,0.002985618877115617,-0.007853671591862031,0
2025/04/09 10:24:51.487682565,1744187091,485934935,piren,vessel_center,-479.9130846967148,-300.08378562083954,2.2928579901491566,0.005709128880051891,0.0011653278906406936,0.0019422813436172565,0.9999811375228638,0.1538580082313277,-0.06537047316883249,-0.028135924855439816,0.0013580725525172497,0.0009622641385072376,-0.0024212668842646685,0
2025/04/09 10:24:51.549137428,1744187091,545814182,piren,vessel_center,-479.9038851891197,-300.06516110521716,2.3012439234761715,0.006038301709462985,0.0009760626436039704,0.0019425242600747505,0.9999794061947878,0.15687018690046017,-0.016568519365773998,-0.006309284989796247,-0.002310133174469237,-0.001692732955920165,0.0,0
2025/04/09 10:24:51.580814117,1744187091,578920042,piren,vessel_center,-479.8958976842554,-300.0523035105001,2.3071317036711223,0.03063086278874036,0.0009393631553477194,0.002119758900166694,0.999528075875753,0.16073772786853652,0.01347433258329115,0.0073349072663529205,-0.002456315224987667,-0.0034529802931689223,-0.002170122567538379,0
2025/04/09 10:24:51.641792390,1744187091,639563671,piren,vessel_center,-479.88572691332075,-300.08407830650305,2.2925358380683667,-0.02840067722618423,0.0009858055472912262,0.002181908860717252,0.9995937519783928,0.16514464904771586,-0.058672201828403873,-0.025935540611408174,-0.0033510342373115408,-0.003799616784028379,0.0,0
2025/04/09 10:24:51.673284398,1744187091,670781199,piren,vessel_center,-479.8755785866922,-300.0081881191288,2.3237638594361205,0.0016056527634710335,0.0009542165592585181,0.0021510820528995753,0.9999959420897482,0.16939215177553735,0.11650096072366944,0.046345107447310636,-0.005083384104949597,-0.00524115960726426,0.0,0
2025/04/09 10:24:51.734311067,1744187091,730606823,piren,vessel_center,-479.8650868270286,-300.00525374485875,2.326382774631628,0.03253337321202071,0.0006734612678263716,0.0016174740315639815,0.9994691140075942,0.17355440134674638,0.10984828465361682,0.04692472693319804,-0.006488825526150397,-0.007117851020358869,-0.017492447873741532,0
2025/04/09 10:24:51.792314671,1744187091,790216272,piren,vessel_center,-479.85527154419265,-300.0551274151436,2.3046309028650183,0.0038159776832237327,0.0006140320759627215,0.0013905752344558723,0.999991563754139,0.176125114584693,-0.013541429090173876,-0.006780869336874988,-0.006234993732037002,-0.007663584281551712,-0.0026689006494257,0
2025/04/09 10:24:51.823287234,1744187091,821552450,piren,vessel_center,-479.8450624663327,-300.0441768759317,2.310837657384633,-0.0227509143660089,0.00040051452708584967,0.0014113581219015422,0.9997400879988139,0.17888426358349563,0.012328606585151319,0.007781028970804056,-0.0050754796420565745,-0.007747530295257196,0.0,0
2025/04/09 10:24:51.884502819,1744187091,882057221,piren,vessel_center,-479.83493941598755,-299.99189915091455,2.3330788371423217,-0.0010346582898827857,0.000432250075246608,0.0018761134457227575,0.9999976114173645,0.18154529405283057,0.12715286177422025,0.05635094450945143,-0.0058915930108432496,-0.007376302305712457,-0.0026489453509677347,0
2025/04/09 10:24:51.943425722,1744187091,941407069,piren,vessel_center,-479.8237028710747,-299.9918784650408,2.3345417321658926,-0.026229371926985597,6.920812305683954e-05,0.0018877639566430092,0.9996541660023208,0.18583595187037674,0.11271274960349695,0.05318239456416375,-0.005914879374412246,-0.007167537271252159,0.0,0
2025/04/09 10:24:51.974509985,1744187091,972521099,piren,vessel_center,-479.8131293130958,-299.95011140365904,2.351853800797951,-0.026070347789253247,4.1552208831333815e-05,0.0018945490445214216,0.999658314587279,0.18873910674065003,0.193046989325239,0.08576380216547758,-0.006244058839910891,-0.005788288534943473,0.0,0
2025/04/09 10:24:52.35544756,1744187092,33295998,piren,vessel_center,-479.80210131455254,-299.9212415045663,2.3639349659540816,0.018692629699552963,0.0002670491789999444,0.0016362691063165813,0.9998239029464454,0.19187229770177539,0.23534736766205208,0.10290120068738208,-0.006639928048424339,-0.003411524880038321,-0.00921856588061009,0
2025/04/09 10:24:52.94977720,1744187092,92640371,piren,vessel_center,-479.79069634885775,-299.9770452460508,2.341294722235569,0.005633721809050906,0.00019759356564857513,0.0014558245198318107,0.9999830512115335,0.1959717650900987,0.08526068751771129,0.04118777115995376,-0.004567741169572132,-0.001666599310067472,-0.0024193423518126577,0
2025/04/09 10:24:52.126456997,1744187092,124374836,piren,vessel_center,-479.77935200981966,-299.9959400230458,2.3345628621540713,0.032785580229896284,-4.569482350772616e-05,0.0014581914086407555,0.9994613435840267,0.19900573930694945,0.0336181815189317,0.021564995300322257,-0.0036361598500926876,-0.0006024848517936891,0.0,0
2025/04/09 10:24:52.187201490,1744187092,184306738,piren,vessel_center,-479.7683800784298,-300.0545322391053,2.308811546975178,0.00384851611488454,-1.437333270788102e-05,0.001732917167285619,0.9999910928179372,0.2011064214986166,-0.1003634939123916,-0.03808032101890392,-0.001405646632953262,0.0014432148201689796,-0.001237229182560246,0
2025/04/09 10:24:52.247178902,1744187092,245470877,piren,vessel_center,-479.75702697118766,-300.04854628653766,2.312470111202554,0.0063593371644905024,-5.238396572046531e-06,0.0017339360349118646,0.9999782758986389,0.20354448223838545,-0.07568300838102038,-0.025632435562727044,-0.001151842707386841,0.0031409532093179485,0.0,0
2025/04/09 10:24:52.278437363,1744187092,276639509,piren,vessel_center,-479.74587550704365,-300.04787829633204,2.313431245637356,0.0014828886313683805,1.397646014290231e-05,0.001734212070420655,0.9999973966738415,0.20577603961228333,-0.06581299038762187,-0.02065636297632944,0.0008502355870383474,0.00491328380699607,0.0,0
2025/04/09 10:24:52.342907450,1744187092,338745491,piren,vessel_center,-479.73459249038154,-300.0387672095381,2.3176782178092172,-0.003050570064871937,0.00031400119715986055,0.0016716639013400097,0.9999939004640621,0.20757571236836184,-0.03811915994356274,-0.008880937859698028,0.002524675298458548,0.0069233733037744995,-0.002976204275222957,0
2025/04/09 10:24:52.372778825,1744187092,371136660,piren,vessel_center,-479.7231277494435,-300.0240554882741,2.323954807253435,0.01544734087228511,0.00039450297780230665,0.0016708402291475068,0.9998792088649031,0.21001946090573284,-0.001191102064013072,0.006054711319831846,0.002895409230407505,0.007826755126037546,0.0,0
2025/04/09 10:24:52.434571690,1744187092,432335670,piren,vessel_center,-479.7115130653997,-300.04394865908193,2.3150858731051605,-0.0010663410501438727,0.0007135548205474227,0.0015765705793492515,0.9999979340886116,0.21205749911105187,-0.045269629771610524,-0.014342297953040931,0.0039893765019195886,0.00879184859424736,-0.00551265492046961,0
2025/04/09 10:24:52.466260823,1744187092,464427967,piren,vessel_center,-479.70109566769537,-300.0299194710939,2.3208187382425716,-0.026915197525279867,0.0006906345123563497,0.0015854331261587749,0.9996362246177097,0.21566378078614462,-0.00991659244632534,-0.00027882977684109793,0.006542654859451567,0.008548484500449047,0.0,0
2025/04/09 10:24:52.527956103,1744187092,524784371,piren,vessel_center,-479.6892277588923,-299.9758618524743,2.3417829255683227,0.010009263118059893,0.000857033807408507,0.0014108045795213227,0.99994854356378,0.21748469809549562,0.11135576895730959,0.04634590074324803,0.006781880203330368,0.007794534033312817,-0.009443082180599019,0
2025/04/09 10:24:52.590536436,1744187092,588225652,piren,vessel_center,-479.6775919955162,-299.9993523260199,2.33185479471591,0.004087811613746874,0.0009159929728861513,0.0012614886403330696,0.9999904296539515,0.21874911519089466,0.04655351908954766,0.01903876359934498,0.007108516722814377,0.0065824448212072,-0.0018522245797546015,0
2025/04/09 10:24:52.623515854,1744187092,620321867,piren,vessel_center,-479.6662630202469,-300.0063812167372,2.3289087605367635,0.0010468376257075503,0.0008815508399379185,0.0012645708718621938,0.999998263928299,0.21913551584043517,0.025653329912801965,0.01033247164949676,0.007095441677626545,0.005059933527803382,0.0,0
2025/04/09 10:24:52.682926251,1744187092,681183104,piren,vessel_center,-479.65530331264284,-300.0063479196695,2.3288918914684094,0.02934736466033732,0.000932114700633076,0.0014865020962579638,0.9995677334033928,0.21924818239012922,0.02288911378768684,0.009151823846607648,0.004823612958463344,0.0032788417269672596,-0.00168580741522491,0
2025/04/09 10:24:52.745422817,1744187092,742763334,piren,vessel_center,-479.6439246483359,-300.0531903144532,2.307557507681895,-0.026392661687212108,0.0006653474122011542,0.0015306233658326555,0.9996502597978942,0.21968958234656413,-0.08384221114674834,-0.039314676935683524,0.006515908537844153,0.0005112309580567596,0.0,0
2025/04/09 10:24:52.776335950,1744187092,774538687,piren,vessel_center,-479.6332788068471,-299.99332339367714,2.3317320631202376,0.0032413083347550857,0.0006890247605628106,0.0015100927917963416,0.9999933693704767,0.21902127512921682,0.058494557005178305,0.0187661090607755,0.004891989340530092,-0.0013105393282144733,0.0,0
2025/04/09 10:24:52.838259401,1744187092,836378756,piren,vessel_center,-479.6221114432303,-300.0007775945055,2.3294256247292235,-0.028819426033343976,0.000668463595327748,0.0014774836888033905,0.9995833186290574,0.2190521908566555,0.035307463667822614,0.01151619028108582,0.004104826345097251,-0.0030597969501214013,-0.003110854257221146,0
2025/04/09 10:24:52.870496095,1744187092,868477166,piren,vessel_center,-479.61110452495734,-299.9522364450789,2.3488256327724955,-0.0013834840962047433,0.0006696892718126761,0.001458851222709366,0.9999977546180515,0.21922015675431822,0.13927425013753203,0.053355458566989755,0.001625377371434856,-0.004608928330899652,0.0,0
2025/04/09 10:24:52.931595790,1744187092,929771327,piren,vessel_center,-479.5995198829496,-299.96462026900747,2.344773068529014,0.004730926076535005,0.0005405037942329034,0.0014520872578513812,0.9999876087415797,0.2198789220260099,0.09581214376216815,0.03824244530033103,0.0015833618255296656,-0.005869222697663583,-0.0024181847592666234,0
2025/04/09 10:24:52.994227129,1744187092,991683608,piren,vessel_center,-479.58812305262916,-299.9846910508137,2.3373188898167836,-0.025964925814015275,0.0004961489436258572,0.0014472027365386787,0.999661683805045,0.2207815768189451,0.040561008041276755,0.017427155852846047,0.0011972090472198444,-0.006828412892756566,-0.00031278216552022426,0
2025/04/09 10:24:53.29777206,1744187093,23634280,piren,vessel_center,-479.5760933193487,-299.9477063992671,2.352359294428056,-0.0005619057042827887,0.0003977592122616542,0.001434271893956383,0.9999987344560606,0.22164918638236517,0.11800679579218888,0.04881249036855562,-0.0019957767783597637,-0.007284232014613942,0.0,0
2025/04/09 10:24:53.87927508,1744187093,85628100,piren,vessel_center,-479.5643326496698,-299.96514573945893,2.346262534457324,-0.002417016777524801,0.002979446350863131,0.0015215000298536938,0.9999914829472292,0.2231997256451453,0.06615831196663716,0.02984801750409436,-0.003635171373322654,-0.00800135071591939,7.973981959072004e-05,0
2025/04/09 10:24:53.148235782,1744187093,146557749,piren,vessel_center,-479.5475773213525,-299.9752506977543,2.3430501409959006,0.02981032223684905,4.04701370672439e-05,0.0015013631071406483,0.9995544452200309,0.23516440327125596,0.036208385415238485,0.019328552578585748,-0.005037395436822519,-0.008175816165472553,0.0,0
2025/04/09 10:24:53.180502636,1744187093,178431868,piren,vessel_center,-479.5367567684956,-300.0365483437015,2.316567597478173,0.020194868350914393,-2.098686108685632e-05,0.0014954562404492413,0.9997949442072979,0.23315053643054884,-0.10406149421774019,-0.04168102199689544,-0.006154814136258649,-0.00712629953058425,0.0,0
2025/04/09 10:24:53.244041735,1744187093,242014760,piren,vessel_center,-479.5259130878396,-300.0645126494103,2.3053503591376057,-0.030656123960138556,-5.4316782493217255e-05,0.0017576609673939112,0.9995284436879981,0.23400302464228875,-0.1558358818236687,-0.06245519506845833,-0.0057454862968492285,-0.0054562212297237685,0.008471118514699503,0
2025/04/09 10:24:53.275703996,1744187093,273798919,piren,vessel_center,-479.51369351793625,-299.9988329788133,2.3322373431908154,-0.00016240948276653063,-2.7201432752138604e-05,0.0017585251477483263,0.9999984402350569,0.23620149344251362,0.006759157843225366,0.003962805206668252,-0.00669800055563385,-0.003790323738297826,0.0,0
2025/04/09 10:24:53.340341703,1744187093,337375675,piren,vessel_center,-479.5005299077362,-300.0037434660142,2.3316754740361327,-0.01529794803031787,-6.842777988132457e-05,0.0018398912674064607,0.9998812844052162,0.23872326462128543,-0.004953985429165513,0.002260407490012684,-0.006839468949664257,-0.0019055806057917438,0.008833232904117824,0
2025/04/09 10:24:53.371826817,1744187093,369645951,piren,vessel_center,-479.4870727191011,-299.9817927414078,2.3414893310873177,0.03082632181995274,-2.68345277674302e-05,0.0018425607715230493,0.9995230573292265,0.2419314424721509,0.04438498772392417,0.023818624302160217,-0.007125786360860794,8.715327067423518e-05,0.0,0
2025/04/09 10:24:53.435417042,1744187093,432537631,piren,vessel_center,-479.47325641754963,-300.04293335738123,2.3149086694602232,0.03365957547454128,0.00019338393221862647,0.0019181328293075704,0.9994314965759172,0.2452565654812591,-0.09652409609516356,-0.03795293554435583,-0.005914748901882334,0.0026060620045678337,0.009763845464175613,0
2025/04/09 10:24:53.496360895,1744187093,494224132,piren,vessel_center,-479.45877657228414,-300.0911283585388,2.293596239201104,0.031010780960449628,0.00029966359216334346,0.002041146004770183,0.9995169210118166,0.24977404338083062,-0.1927530548763119,-0.08104026441291547,-0.006017096277451253,0.004243637936820783,0.001119962356637955,0
2025/04/09 10:24:53.549067918,1744187093,546852809,piren,vessel_center,-479.4441378428614,-300.12058633296414,2.2806880129417175,0.03074540415101328,0.0003997807666552115,0.0020468713513362912,0.9995250725302495,0.25401218820620697,-0.2363874801444584,-0.10054821626632128,-0.005236599551965136,0.005578178668360582,0.0,0
2025/04/09 10:24:53.582223647,1744187093,580262297,piren,vessel_center,-479.42975250506925,-300.13996635729814,2.2720785909778374,0.030416681074736752,0.00039141369691453293,0.0020572476320413887,0.999535111959503,0.25786354953156687,-0.25329118722575034,-0.10855187298802521,-0.004252711871429627,0.006607292198282479,0.0,0
2025/04/09 10:24:53.646704385,1744187093,644144172,piren,vessel_center,-479.41558259328775,-300.15226371189476,2.266493000567101,0.019504233408358666,0.00034146146877710095,0.0018930612387533295,0.9998079238545592,0.26011207010869863,-0.251896281618065,-0.10865501205876876,-0.003126348182164994,0.006471629746567903,0.005879912526180674,0
2025/04/09 10:24:53.678751637,1744187093,676837968,piren,vessel_center,-479.4018049719211,-300.1416852949525,2.271561769786009,-0.02843224644779491,0.00020149723831338384,0.0018960962476072842,0.9995939033326557,0.26191595474770135,-0.2004798265032608,-0.08535251815149353,-0.00039942394376993605,0.006889686897968148,0.0,0
2025/04/09 10:24:53.741971732,1744187093,739875098,piren,vessel_center,-479.38839066699666,-300.0523535860472,2.3084104631212647,0.03046316533153035,-0.0017988481108212621,0.002137532672887386,0.9995319858101241,0.26210508847525515,0.020739520315191523,0.006199302287203473,-0.0005003038613782156,0.00835742193971444,0.010531924336869211,0
2025/04/09 10:24:53.774660821,1744187093,772290891,piren,vessel_center,-479.3781527980671,-300.08627879524266,2.2934476399086576,-0.016049401743160847,0.0008718650065618517,0.002089674884031,0.9998686362787744,0.2557854829875853,-0.05695879327945508,-0.027742802405211667,0.0022831633411435383,0.007913585252594516,0.0,0
2025/04/09 10:24:53.838403683,1744187093,835973394,piren,vessel_center,-479.36276994421354,-300.03267228717226,2.316521291013022,0.028678387268164934,0.001272912256991122,0.0018257649045724706,0.9995862125802838,0.2607276545598327,0.0686928707908461,0.02670985865701004,0.0018156407425842156,0.0072676574494133835,0.0015437972512883252,0
2025/04/09 10:24:53.901132004,1744187093,897625555,piren,vessel_center,-479.34764521501023,-300.0686301747897,2.3007184293538363,0.0018549284262572515,0.0012145041446458796,0.0018033654067298988,0.9999959160383736,0.2654868616856677,-0.01882565379592084,-0.011367919724040776,0.004372320080486871,0.005440840627215576,-0.0012155581373947037,0
2025/04/09 10:24:53.932881829,1744187093,930509753,piren,vessel_center,-479.3331876074447,-300.04988096316544,2.309576407295105,-0.020984573506873244,0.0011922131147277665,0.0018275193139560555,0.9997774184666209,0.26756761850533645,0.024975148967723397,0.009605584461649795,0.006704614794933196,0.00329111359460602,0.0,0
2025/04/09 10:24:53.994582176,1744187093,992508286,piren,vessel_center,-479.319511580697,-299.99781240050953,2.3312173715491835,-0.010960722589520088,0.001233872112932501,0.0016905760975868304,0.9999377390979814,0.2683383415806932,0.13793326264185418,0.05663950347979854,0.006679227595883413,0.0009792002640561942,-0.001683149039880403,0
2025/04/09 10:24:54.28655172,1744187094,25138523,piren,vessel_center,-479.3076842394164,-299.97879300221814,2.3397482953693913,0.012613910607173661,0.0010079594023460795,0.0016633804810923206,0.9999185499041472,0.2702263658381528,0.1676629995160962,0.07044985200887095,0.0060300363395016324,-0.0019171892785615785,0.0,0
2025/04/09 10:24:54.90759403,1744187094,88042987,piren,vessel_center,-479.2940199337347,-300.0044210125681,2.329429603065869,0.019294046831220203,0.0009467745249636156,0.0016364169944230835,0.9998120650973832,0.26976669897717354,0.09157710661761452,0.03947936725707569,0.005156200910203327,-0.003935481708033635,-0.0011181856255920884,0
2025/04/09 10:24:54.122315201,1744187094,120533573,piren,vessel_center,-479.2808693401502,-300.0346877371579,2.31675465410944,-0.0048135701260598384,0.0007242982288191693,0.0016592753683196376,0.9999867757825447,0.2684388872818547,0.013937071129748485,0.006837764366152806,0.00709607126412824,-0.005665322471308872,0.0,0
2025/04/09 10:24:54.185449619,1744187094,183536038,piren,vessel_center,-479.2684237139166,-300.01677973881306,2.325078109577209,0.027671416964161644,0.0007825237903783797,0.0015989426732471756,0.9996154879362568,0.26638479314456187,0.05219560544123819,0.024580096403484623,0.004602483690591876,-0.0070206511434327675,-0.0010885732555465921,0
2025/04/09 10:24:54.221446695,1744187094,217733612,piren,vessel_center,-479.2555268014583,-300.0584630691482,2.306950754005239,-0.013883205762484477,0.0013316543176867736,0.0016450702081146434,0.9999013836566809,0.264879458656151,-0.04636672136216506,-0.01849600911379698,0.0047603222564896585,-0.009109932024121485,0.0,0
2025/04/09 10:24:54.284678024,1744187094,281343785,piren,vessel_center,-479.24186468336615,-300.0195496446247,2.3240725571927596,-0.012316594011375623,0.00022602689448224277,0.0016860414896561022,0.9999227008563698,0.2658453130263299,0.04526506118950206,0.021610274468195502,0.003969725285159749,-0.009433715615902488,0.00025808990668921907,0
2025/04/09 10:24:54.346780665,1744187094,345135336,piren,vessel_center,-479.22990493791616,-299.9948067773291,2.3353007167591375,-0.0021174371215984624,0.00026450708800414394,0.0016845969474924356,0.9999963043077514,0.262286609555804,0.09512528874765816,0.04411530949127784,0.002104484272953156,-0.008365769051467657,0.0,0
