time,header_stamp_secs,header_stamp_nsecs,header_frame_id,pose_position_x,pose_position_y,pose_position_z,pose_orientation_x,pose_orientation_y,pose_orientation_z,pose_orientation_w
2025/04/09 10:24:45.420481603,1744187085,420162234,piren,-480.19779388881403,-299.9876451523337,2.3316578888433135,-0.008627848369218831,0.00037451003383179223,0.004514756876662273,0.9999525173452474
2025/04/09 10:24:45.479337038,1744187085,478817144,piren,-480.1972638723733,-299.97453607624146,2.3369893740122305,5.6863219437119355e-05,0.0004104421641433796,0.004511334507036731,0.9999897380297309
2025/04/09 10:24:45.532877755,1744187085,532493219,piren,-480.19657773217136,-299.97981849262834,2.3348175537530573,0.017164974762635517,0.0005088432746181163,0.004393467996949171,0.9998428887374656
2025/04/09 10:24:45.562426761,1744187085,561943565,piren,-480.1958842140841,-300.01226920771614,2.320685704156691,-0.029241506976791478,0.00029522789041517606,0.004412100109616151,0.9995625945796701
2025/04/09 10:24:45.618133030,1744187085,617744736,piren,-480.19575210409585,-299.9571331321756,2.3422608361726804,-9.160144310254671e-06,0.00040981869065033797,0.0043726992534899945,0.9999903556864792
2025/04/09 10:24:45.691877487,1744187085,691517859,piren,-480.19522555418763,-299.96730032327787,2.338639243438283,5.265555430795979e-05,0.0003556709358907528,0.004287569747256443,0.9999907436927806
2025/04/09 10:24:45.720568365,1744187085,719386312,piren,-480.1948157947899,-299.97484942290396,2.335944685041963,-0.0013991046352800174,0.000360907016689674,0.004288104048714351,0.9999897621555994
2025/04/09 10:24:45.773667579,1744187085,773318983,piren,-480.1943783501655,-299.97796219435315,2.3349842336903195,-0.00875017378608621,0.0002769552562526508,0.0042902183654587875,0.9999524747611139
2025/04/09 10:24:45.829348102,1744187085,827509657,piren,-480.1939787461215,-299.96785758694176,2.3393161101825695,0.012780479775008546,0.00037309286677237745,0.004318005083880358,0.9999089333386961
2025/04/09 10:24:45.881978862,1744187085,881515276,piren,-480.1932850128009,-299.99677730417267,2.3271229510747666,-0.01563299629742317,0.00031477506090917006,0.004250362432217679,0.9998687137632724
2025/04/09 10:24:45.938107351,1744187085,937349369,piren,-480.19294544929033,-299.96977385793855,2.3382044566315145,0.001552759005814499,0.00037002422505210146,0.004244350628793389,0.9999897187017888
2025/04/09 10:24:45.993685951,1744187085,993272997,piren,-480.19218569293,-299.97932343881456,2.334531524284106,-0.005697564573233159,0.0003750124889081095,0.00436249644433074,0.9999741825408995
2025/04/09 10:24:46.22766511,1744187086,22491744,piren,-480.1914217409549,-299.9741362481561,2.336881868237655,-0.030989914652276424,0.0002473942703397764,0.004370121335480067,0.9995101130180889
2025/04/09 10:24:46.79363069,1744187086,79041691,piren,-480.19113626612005,-299.92751303087186,2.3546894094134507,0.002234821200420218,0.0004688387154704233,0.004332472204988999,0.9999880076526189
2025/04/09 10:24:46.135293994,1744187086,134798219,piren,-480.18994823715224,-299.95055836188783,2.3457211233778663,0.0029080597441433946,0.0004247848127341575,0.004332271945624832,0.999986296989202
2025/04/09 10:24:46.191642225,1744187086,191318134,piren,-480.1888515628126,-299.9686086502268,2.338659638994675,0.02724565342166437,0.0004991058218046068,0.0042928410657783285,0.9996194259709988
2025/04/09 10:24:46.220039372,1744187086,219719553,piren,-480.18753706082305,-300.0219503155318,2.3152500232769397,-0.02903011855314516,0.00023465808759089418,0.004313673406478344,0.999569201893553
2025/04/09 10:24:46.276221538,1744187086,274809554,piren,-480.18708849579446,-299.9655994509637,2.3378639648764143,-0.028661895880869103,0.00015711604889027608,0.004311463280621391,0.9995798528999278
2025/04/09 10:24:46.328750192,1744187086,328378650,piren,-480.18662892716355,-299.92563425510656,2.353956967716675,0.0032840064103585895,0.00024402673096681174,0.004194760688243448,0.9999857797667023
2025/04/09 10:24:46.385615136,1744187086,384474691,piren,-480.18568452708246,-299.9514672009846,2.344317750472899,-0.0018360524716802315,0.0004737712999869363,0.004125031702497172,0.9999896942296606
2025/04/09 10:24:46.438368601,1744187086,438017816,piren,-480.18441353634597,-299.96162431823444,2.340934646169561,-0.01875076903097429,0.0004261263314724667,0.004132901031253752,0.999815556093304
2025/04/09 10:24:46.493089078,1744187086,492696606,piren,-480.1834259372904,-299.94041380348034,2.3497509517605732,0.001985164114131088,0.00037130501343608536,0.004224045596514316,0.9999890392873442
2025/04/09 10:24:46.522330918,1744187086,521135532,piren,-480.1822783442839,-299.96033585871555,2.342059189830678,0.024575602828802796,0.0004717224236441625,0.004214532351743804,0.999688979103307
2025/04/09 10:24:46.577799321,1744187086,576271528,piren,-480.18090216782605,-300.01225126126855,2.319612291088083,-0.030937707076924992,0.00017277912097267203,0.004232048208143386,0.9995123401920367
2025/04/09 10:24:46.634764352,1744187086,632185004,piren,-480.18056839318734,-299.9559478208236,2.3419618205117274,-0.027044808802655924,0.00019359120959594863,0.004104236658966047,0.9996257780193138
2025/04/09 10:24:46.687559212,1744187086,687215998,piren,-480.18013628758877,-299.92213898775367,2.355698747245894,0.030656323796735222,0.0005033276426623298,0.004009282910206415,0.999521816731931
2025/04/09 10:24:46.741551938,1744187086,741186769,piren,-480.1787392279425,-299.994722834109,2.324625738922402,0.025578772589248993,0.0004913992710690343,0.004011836548718659,0.9996646388099812
2025/04/09 10:24:46.771731815,1744187086,770152330,piren,-480.17762944474373,-300.0384543824548,2.306406555254408,-0.03226747756681278,0.00034439387561547566,0.0040360496373311955,0.9994710609055465
2025/04/09 10:24:46.825043175,1744187086,823467857,piren,-480.17720834169444,-299.97214087858833,2.3334640705827345,-0.027403406287630196,0.0003585134899763642,0.004053777929585421,0.999616172176306
2025/04/09 10:24:46.879350384,1744187086,878938911,piren,-480.17678905624746,-299.93267788380524,2.3500823704573324,0.030475039181744084,0.00026564231407817245,0.003980738864388339,0.9995275659726077
2025/04/09 10:24:46.933367934,1744187086,933016569,piren,-480.1762297851154,-300.0020967771156,2.3208067198695326,0.025509027409360688,0.00039063538388236515,0.00397845888177735,0.9996665988166011
2025/04/09 10:24:46.963925650,1744187086,961752031,piren,-480.1754173750993,-300.04305854364725,2.3040401180079746,-0.03236969231298265,0.0002487217253770439,0.003997014491765604,0.9994679409727052
2025/04/09 10:24:47.17549706,1744187087,17105656,piren,-480.17527692678505,-299.9747451442373,2.3321264975638427,-0.027294184339926215,0.0002691216665224525,0.0039891515768583664,0.9996194484624855
2025/04/09 10:24:47.72398619,1744187087,71330215,piren,-480.1750720175346,-299.934227287456,2.3493435125168207,0.030550451005631956,0.00043988270386244934,0.003968845379033378,0.9995252496625169
2025/04/09 10:24:47.127490387,1744187087,127009695,piren,-480.1740209625126,-300.002256430584,2.3207032822101628,0.025512115018260926,0.0004260693940348766,0.0039434857473150215,0.9996666441230934
2025/04/09 10:24:47.183494481,1744187087,182382610,piren,-480.17331661073536,-300.04285994888676,2.3041644614093792,-0.03229674468458019,0.00026056766101006576,0.003884825080424607,0.9994707402027173
2025/04/09 10:24:47.238433511,1744187087,238027692,piren,-480.1733932915536,-299.9744184698468,2.3323714497175407,-0.02726631340118646,0.00027686924120963366,0.0038834190736493053,0.9996206233132798
2025/04/09 10:24:47.267500661,1744187087,267138362,piren,-480.1732423099952,-299.9337777628746,2.349673756660961,0.030544745835648295,0.0004275376187797852,0.003863060598602664,0.9995258438260772
2025/04/09 10:24:47.322448025,1744187087,321401231,piren,-480.1722144901054,-300.00173817457556,2.321087831517628,0.025505813502668187,0.0004131310293499551,0.0038874058592100504,0.9996670300034936
2025/04/09 10:24:47.380035068,1744187087,378822201,piren,-480.17145492463476,-300.0423631866308,2.3045517172056,-0.03229923427911542,0.00044560660941371445,0.003913330629311739,0.9994704831775264
2025/04/09 10:24:47.435442014,1744187087,435117066,piren,-480.1709938337763,-299.97394317862125,2.3327584447257896,-0.027261593710260427,0.0004500791667194391,0.003881412333357935,0.9996206968522705
2025/04/09 10:24:47.492002690,1744187087,491709050,piren,-480.17049333469663,-299.9334200687918,2.350025753226142,0.03054617741540104,0.0006187608934409614,0.003774512513897386,0.9995260382979255
2025/04/09 10:24:47.521690394,1744187087,521368690,piren,-480.1693068855274,-300.0014281495581,2.3214355183400697,0.02551960994888629,0.000592929989989885,0.003777095770438439,0.9996670103037434
2025/04/09 10:24:47.599050321,1744187087,598694216,piren,-480.16772649292983,-300.0475617164501,2.302623416867978,-0.027016434319065835,0.0004093915792591091,0.0039002543114176557,0.999627296891959
2025/04/09 10:24:47.683765176,1744187087,683291080,piren,-480.16742788816134,-299.93978427369757,2.3480770893250553,0.03065369239617814,0.0005688839401339513,0.0038375798515868846,0.9995225362614021
2025/04/09 10:24:47.741429360,1744187087,740312010,piren,-480.1661298122066,-300.00625787200437,2.319976732252463,0.025577981917400777,0.0005447304000855232,0.0038398806037288832,0.9996653067035854
2025/04/09 10:24:47.770585916,1744187087,769591769,piren,-480.1650020673321,-300.04571409069683,2.303837427859024,-0.03227366597380158,0.0003917010550743085,0.003867881569105873,0.9994715086219629
2025/04/09 10:24:47.825586998,1744187087,825134543,piren,-480.1645166308228,-299.9764299172366,2.332342725212864,-0.027360548492003745,0.00040068691462762313,0.0037700795537583456,0.9996184403743118
2025/04/09 10:24:47.882222274,1744187087,881906426,piren,-480.1639432560371,-299.9350444783187,2.3498938629557644,0.030533167615359756,0.00035704371497000527,0.0036705773005228006,0.9995269506408714
2025/04/09 10:24:47.938037371,1744187087,937656933,piren,-480.16301520090417,-300.00259888067797,2.3214319986819336,0.025535366895119035,0.0003498453181044591,0.0036722132671964773,0.9996671133409888
2025/04/09 10:24:47.968055671,1744187087,966899756,piren,-480.1621362125351,-300.0429772883822,2.3049472043079002,-0.03228746412722566,0.00038678768136671097,0.003693800866617108,0.9994717234072611
2025/04/09 10:24:48.22637684,1744187088,22333919,piren,-480.16147316141087,-299.9743996337152,2.3331618723382963,-0.02723900031855334,0.000405444966466895,0.0037128976709197496,0.9996219719808636
2025/04/09 10:24:48.78977192,1744187088,78633767,piren,-480.16079194451345,-299.9337389606465,2.350415782235121,0.03059053042381207,0.0003488363073718099,0.00361699146415766,0.9995253949422039
2025/04/09 10:24:48.134725261,1744187088,134312067,piren,-480.159857448477,-300.00161545693095,2.321791230106483,0.025554012434311536,0.0003548526059472428,0.00361912879488297,0.9996668287158983
2025/04/09 10:24:48.191747028,1744187088,190304019,piren,-480.15903940999385,-300.04220381077937,2.305186048207478,-0.032282777723862746,0.0002218804609144661,0.003755394883510491,0.9994716954675413
2025/04/09 10:24:48.220319415,1744187088,219903669,piren,-480.15877803318455,-299.97372848745556,2.333328922737626,-0.02724827073500279,0.0002583901838421194,0.0037533646482148385,0.9996216170283047
2025/04/09 10:24:48.276376084,1744187088,275970490,piren,-480.15834830621316,-299.9330946197251,2.3505380078142624,0.03057617131027926,0.00039374694774687745,0.0037361517513492684,0.9995253793083179
2025/04/09 10:24:48.333493978,1744187088,333141320,piren,-480.1572859909542,-300.00104495868857,2.321852531869051,0.02553337308344897,0.0003971126274228944,0.003612396542742126,0.9996673645527099
2025/04/09 10:24:48.366270245,1744187088,364531464,piren,-480.1565926797716,-300.0413991702428,2.3053344417213517,-0.03228213220390605,0.0002787830765051455,0.0036310420715856863,0.9994721615702161
2025/04/09 10:24:48.424579928,1744187088,424119687,piren,-480.15638944217886,-299.97307399592626,2.333408577743601,-0.027251837684537004,0.00030719078892336104,0.0036076608388182652,0.9996220424540002
2025/04/09 10:24:48.484134430,1744187088,482919241,piren,-480.15613242604354,-299.93254636847115,2.350579314352123,0.03046124421738705,0.00042692352698892267,0.003514834680086611,0.999529677535491
2025/04/09 10:24:48.541945463,1744187088,541450924,piren,-480.1553276346976,-300.00041549731947,2.321962768892841,0.025481814784102056,0.0004209525157172148,0.003517066200439927,0.9996690103027251
2025/04/09 10:24:48.573811271,1744187088,572317675,piren,-480.15469592614414,-300.040961182343,2.3053929076069153,-0.0323068808515196,0.0003821935168706446,0.0035407003359498976,0.9994716518335537
2025/04/09 10:24:48.631917784,1744187088,631270673,piren,-480.154458420888,-299.97278739524364,2.333444110196131,-0.026083005709066017,0.0003931046712920536,0.0035565456906295487,0.9996533765584192
2025/04/09 10:24:48.691006670,1744187088,690378678,piren,-480.1541776164854,-299.93439478686224,2.3498986954262886,0.03047147928848303,0.00042007524813719634,0.003460931884102719,0.9995295565601106
2025/04/09 10:24:48.721336993,1744187088,720922806,piren,-480.1535112915413,-300.00179655159934,2.321505617660967,0.02548759569330481,0.00039511351878781424,0.003462329256158991,0.9996690645544674
2025/04/09 10:24:48.778999019,1744187088,778572072,piren,-480.152984639612,-300.0422526461665,2.30501610757232,-0.03230651877189588,0.00046160814262349674,0.0034893506461074596,0.9994718106053979
2025/04/09 10:24:48.836410006,1744187088,835307614,piren,-480.15259475758296,-299.97384561989054,2.3332073652452454,-0.027260551592450312,0.0004469929782512478,0.0035086737090763566,0.9996221044639599
2025/04/09 10:24:48.893995281,1744187088,893628519,piren,-480.15222127441245,-299.9333623552626,2.3504601464636834,0.030558195033687237,0.0005911157710566549,0.0034042406976369562,0.9995270173655643
2025/04/09 10:24:48.924647800,1744187088,923330076,piren,-480.15132348132187,-300.0023582125753,2.3214703284141893,0.024254427205316127,0.0005464758759216853,0.0034071743701153275,0.9996998626027067
2025/04/09 10:24:48.981114236,1744187088,980725498,piren,-480.1505281226662,-300.04080145489775,2.3060114677091352,-0.03217737909513701,0.0003885030761336435,0.0035486802993380663,0.9994757987105345
2025/04/09 10:24:49.38069194,1744187089,37335725,piren,-480.1502650515389,-299.9732770833926,2.3338718907893026,-0.027201822222778862,0.0003758528357575897,0.0035476480473575238,0.9996235960579054
2025/04/09 10:24:49.70124817,1744187089,67181343,piren,-480.14985272616985,-299.93334081877003,2.35090681397893,0.030591651392811822,0.0005277527220777262,0.0035199003068458763,0.9995256288079636
2025/04/09 10:24:49.124972341,1744187089,124690469,piren,-480.14871168175983,-300.0018261705416,2.322115070851993,0.025557043106339827,0.0004966925543739981,0.0034074898632332627,0.9996674346286364
2025/04/09 10:24:49.182843959,1744187089,182415967,piren,-480.1478207905933,-300.04287591542663,2.305414551903969,-0.030182677440122502,0.0002728111344454557,0.0033601104541716776,0.9995387142148954
2025/04/09 10:24:49.241077676,1744187089,240718926,piren,-480.1476586787528,-299.9783958837773,2.3322373266226615,-0.02526468748809297,2.5602275444243074e-05,0.00335214206175864,0.9996751762718981
2025/04/09 10:24:49.272310951,1744187089,271963148,piren,-480.1476685220774,-299.9403960854985,2.3485569507561075,0.034949334388961126,0.00013751679832835578,0.003348538656469986,0.9993834661448853
2025/04/09 10:24:49.329894485,1744187089,329411390,piren,-480.14675227370526,-300.01398264358306,2.3169002372496466,0.03056105172853464,0.001167124777579907,0.003336953978392134,0.9995266503076071
2025/04/09 10:24:49.389349339,1744187089,388292866,piren,-480.144223263908,-300.0595835633646,2.2977386538667,-0.026375836488127684,0.00020954371065179161,0.0033198074865698024,0.9996465626506386
2025/04/09 10:24:49.418724888,1744187089,418349029,piren,-480.14402525057335,-299.9965491532112,2.3245164628738966,-0.020826840665448147,-0.0005664771039170306,0.003300435117896813,0.9997774897143962
2025/04/09 10:24:49.495702218,1744187089,495269454,piren,-480.1448473214251,-299.96048909993897,2.3403839885065496,0.008841364181852364,-0.0004377807522675515,0.003420515366822296,0.9999549683370957
2025/04/09 10:24:49.526208130,1744187089,524995796,piren,-480.144570963929,-299.9847371211039,2.331470793897871,0.03721293539066266,0.0010046131606243692,0.003382586024204124,0.9993011289415202
2025/04/09 10:24:49.584378705,1744187089,583832222,piren,-480.14145308155895,-300.0489207895653,2.3028880053101015,0.040515048998397044,0.0009930017551119349,0.0034516506497365815,0.9991724730295386
2025/04/09 10:24:49.643801553,1744187089,643369675,piren,-480.13864050397984,-300.100004705748,2.279748373690972,-0.01770632285368451,-0.0002616891717659762,0.003484327922766325,0.999837125290267
2025/04/09 10:24:49.674599421,1744187089,673193475,piren,-480.1383781922542,-300.03910254074424,2.306588612492255,-0.023571815630095895,-0.00032059094025862204,0.003480741206430594,0.999716035267017
2025/04/09 10:24:49.731544819,1744187089,731113730,piren,-480.1377274218485,-299.98499931989386,2.3297079587912677,-0.01677116777099226,-0.00014022912329533644,0.003697748000779263,0.999852506586403
2025/04/09 10:24:49.790923348,1744187089,790425363,piren,-480.1360334879046,-299.9577642504599,2.3419630644756504,0.02799049407186034,-0.005075406622019779,0.003955914285215861,0.9995874765278937
2025/04/09 10:24:49.821905902,1744187089,821505089,piren,-480.1417368599014,-300.01388809869974,2.3180165225293106,-0.0020940600443850156,-0.0018354419800068829,0.0038082812877783916,0.9999888714675287
2025/04/09 10:24:49.881234759,1744187089,880917323,piren,-480.13965967444216,-300.00342884031966,2.323569383892144,0.005318852293063209,0.0006685653383845849,0.003466052349616258,0.9999796244483098
2025/04/09 10:24:49.939818853,1744187089,939432538,piren,-480.13298575265605,-300.00821008708135,2.3223027233190843,0.004828184348546048,-0.00015986729058157744,0.0034712559775441822,0.9999823065736134
2025/04/09 10:24:49.972515933,1744187089,971334986,piren,-480.12833162047997,-300.0107362517555,2.32173100424219,0.024201446926369406,-0.001628518233472591,0.003514987690491355,0.9996995962570803
2025/04/09 10:24:50.32925144,1744187090,32571914,piren,-480.12587218860466,-300.04456404080804,2.306783929491334,0.006475957271176147,0.0004862513750073093,0.0031033971404560265,0.99997409689612
2025/04/09 10:24:50.92488115,1744187090,91966068,piren,-480.11947935963497,-300.03922504474156,2.3094938256971402,0.012901992130210043,0.0005405238208254649,0.0028332646721606746,0.9999126057033028
2025/04/09 10:24:50.123884900,1744187090,123382595,piren,-480.11326328004765,-300.04593406285977,2.3068011614494983,0.03362010829014132,0.0005692639633980033,0.0028225290409083477,0.9994305366492022
2025/04/09 10:24:50.183105656,1744187090,182768812,piren,-480.10698129824766,-300.08463291885744,2.288838942618135,0.00539375043957546,0.0009498204013506494,0.00307980163799955,0.9999802598647992
2025/04/09 10:24:50.242519299,1744187090,242178864,piren,-480.0998631827521,-300.0656884639787,2.2977594512927157,-0.02053555945112859,0.0003080778964275032,0.0030945867118435796,0.9997842864433916
2025/04/09 10:24:50.272648881,1744187090,272301077,piren,-480.0940302949734,-300.00808928034644,2.321915340404194,0.03501498399028891,0.0005569301843631604,0.0030636262341925263,0.9993819364583426
2025/04/09 10:24:50.331258868,1744187090,330737040,piren,-480.08713704245883,-300.05969136531587,2.298907661956339,0.034778042683324635,0.00027459395041115457,0.002523881277875635,0.9993918362527155
2025/04/09 10:24:50.391076874,1744187090,389895180,piren,-480.08097715858725,-300.0965967132042,2.2826440370539642,-0.023452818064845768,0.0005791270446487434,0.002221344456439117,0.9997223092266618
2025/04/09 10:24:50.449548069,1744187090,449156380,piren,-480.07425036761373,-300.0259310506346,2.3130935164591153,-0.023910576007519932,-0.0003638685159684099,0.0022054470359695933,0.9997116023924416
2025/04/09 10:24:50.481324868,1744187090,480153078,piren,-480.0689657729137,-299.9746092246644,2.335332431143201,0.004910567340359387,-0.0001785807382614543,0.002213249576998227,0.9999854778763668
2025/04/09 10:24:50.539952479,1744187090,538661837,piren,-480.06202745348844,-299.98723803505885,2.331839934458405,-0.022462412682386093,0.00037530907301330736,0.00225891961144344,0.9997450657251453
2025/04/09 10:24:50.599960169,1744187090,598990004,piren,-480.05444477357497,-299.9509636323688,2.3475004724341373,-0.027361690933143737,0.00026513793015218914,0.0019393754145377764,0.9996236823896074
2025/04/09 10:24:50.630628461,1744187090,630239059,piren,-480.0471383597722,-299.91729403074635,2.361567827497045,0.0031768369278117425,-0.0018692928914774583,0.0019369259201442626,0.9999913308470229
2025/04/09 10:24:50.691470558,1744187090,689053057,piren,-480.04392065635545,-299.9473757484247,2.3504720285655445,-0.026653911215316767,0.00335396791851866,0.0025072552983034647,0.9996359505274891
2025/04/09 10:24:50.720104424,1744187090,719774912,piren,-480.0295277927897,-299.9177112172319,2.3626637008644225,0.0014543344532847162,0.0031408043240199646,0.002412181954537634,0.9999911007792592
2025/04/09 10:24:50.778888644,1744187090,778571328,piren,-480.01752466479076,-299.9450834571157,2.352523606908493,0.011343321118452125,0.00043522416774978016,0.0023862855622721856,0.9999327203802978
2025/04/09 10:24:50.837486120,1744187090,837068322,piren,-480.01129487385816,-299.9818123459041,2.337927262205092,0.005438579395691536,3.4008499910315595e-06,0.0023906927382342734,0.999982353059704
2025/04/09 10:24:50.869282202,1744187090,868175872,piren,-480.00561592384975,-299.9986432469018,2.3316411938004187,0.010729230283479399,5.124915706309394e-06,0.00239086239189631,0.9999395818589653
2025/04/09 10:24:50.929848731,1744187090,927168226,piren,-479.99938576367333,-300.01954367598114,2.3232604207072467,-0.011682211379272642,-0.00016530138499338173,0.0022482046490896316,0.9999292195893658
2025/04/09 10:24:50.986501666,1744187090,986169070,piren,-479.99346555026193,-299.9966506725422,2.33299764174843,0.03349431611826584,1.3851424262957767e-05,0.0022235094700690135,0.9994364344977344
2025/04/09 10:24:51.45585186,1744187091,45182307,piren,-479.9866720829316,-300.05502499847506,2.3066550137007154,0.012529939519577019,0.00022438497249382914,0.002223103509954185,0.9999190007584634
2025/04/09 10:24:51.76138378,1744187091,75728082,piren,-479.97958187389673,-300.06181794964374,2.3042326089995626,0.03228644376056999,0.00030459030658381116,0.0022262762472111644,0.999476131014699
2025/04/09 10:24:51.135697590,1744187091,135375155,piren,-479.97195066083844,-300.0984766095706,2.287329874062344,0.03228335259148356,0.0006099349507095558,0.002380904301043228,0.9994757347827506
2025/04/09 10:24:51.194970433,1744187091,193897630,piren,-479.9639730374742,-300.12367869866097,2.275543949627338,0.0053081516256459375,0.000555109876590573,0.002351088965609428,0.9999829937354034
2025/04/09 10:24:51.226092692,1744187091,225776258,piren,-479.95618299429896,-300.09626153505303,2.288021999273664,0.006723170728245962,0.0006745706200406767,0.002351799134323325,0.9999744061578123
2025/04/09 10:24:51.285819539,1744187091,285456035,piren,-479.9482161976245,-300.07783971425755,2.296319819601061,0.006493719125177669,0.0007244778807875894,0.00235641245751684,0.999975876741061
2025/04/09 10:24:51.346155630,1744187091,345717598,piren,-479.93994672100064,-300.06369390830525,2.3025772065327015,0.03233509832554465,0.001037775400163195,0.0023380780313981575,0.9994738104771007
2025/04/09 10:24:51.376747457,1744187091,376334058,piren,-479.93110931827135,-300.09568797061405,2.287380451475124,0.018988395244208138,0.0010382381999304254,0.0023550720581963875,0.9998163914154892
2025/04/09 10:24:51.437368785,1744187091,436434064,piren,-479.9221995872268,-300.0963636126155,2.2871170674061476,0.011382820513038624,0.0011893709640526458,0.002115664199195665,0.999932268085631
2025/04/09 10:24:51.486383603,1744187091,485934935,piren,-479.9130846967148,-300.08378562083954,2.2928579901491566,0.005709128880051891,0.0011653278906406936,0.0019422813436172565,0.9999811375228638
2025/04/09 10:24:51.547464180,1744187091,545814182,piren,-479.9038851891197,-300.06516110521716,2.3012439234761715,0.006038301709462985,0.0009760626436039704,0.0019425242600747505,0.9999794061947878
2025/04/09 10:24:51.579288459,1744187091,578920042,piren,-479.8958976842554,-300.0523035105001,2.3071317036711223,0.03063086278874036,0.0009393631553477194,0.002119758900166694,0.999528075875753
2025/04/09 10:24:51.641413026,1744187091,639563671,piren,-479.88572691332075,-300.08407830650305,2.2925358380683667,-0.02840067722618423,0.0009858055472912262,0.002181908860717252,0.9995937519783928
2025/04/09 10:24:51.673278330,1744187091,670781199,piren,-479.8755785866922,-300.0081881191288,2.3237638594361205,0.0016056527634710335,0.0009542165592585181,0.0021510820528995753,0.9999959420897482
2025/04/09 10:24:51.731031801,1744187091,730606823,piren,-479.8650868270286,-300.00525374485875,2.326382774631628,0.03253337321202071,0.0006734612678263716,0.0016174740315639815,0.9994691140075942
2025/04/09 10:24:51.790612194,1744187091,790216272,piren,-479.85527154419265,-300.0551274151436,2.3046309028650183,0.0038159776832237327,0.0006140320759627215,0.0013905752344558723,0.999991563754139
2025/04/09 10:24:51.822782748,1744187091,821552450,piren,-479.8450624663327,-300.0441768759317,2.310837657384633,-0.0227509143660089,0.00040051452708584967,0.0014113581219015422,0.9997400879988139
2025/04/09 10:24:51.882993424,1744187091,882057221,piren,-479.83493941598755,-299.99189915091455,2.3330788371423217,-0.0010346582898827857,0.000432250075246608,0.0018761134457227575,0.9999976114173645
2025/04/09 10:24:51.942546476,1744187091,941407069,piren,-479.8237028710747,-299.9918784650408,2.3345417321658926,-0.026229371926985597,6.920812305683954e-05,0.0018877639566430092,0.9996541660023208
2025/04/09 10:24:51.972920042,1744187091,972521099,piren,-479.8131293130958,-299.95011140365904,2.351853800797951,-0.026070347789253247,4.1552208831333815e-05,0.0018945490445214216,0.999658314587279
2025/04/09 10:24:52.33726954,1744187092,33295998,piren,-479.80210131455254,-299.9212415045663,2.3639349659540816,0.018692629699552963,0.0002670491789999444,0.0016362691063165813,0.9998239029464454
2025/04/09 10:24:52.93731239,1744187092,92640371,piren,-479.79069634885775,-299.9770452460508,2.341294722235569,0.005633721809050906,0.00019759356564857513,0.0014558245198318107,0.9999830512115335
2025/04/09 10:24:52.125518316,1744187092,124374836,piren,-479.77935200981966,-299.9959400230458,2.3345628621540713,0.032785580229896284,-4.569482350772616e-05,0.0014581914086407555,0.9994613435840267
2025/04/09 10:24:52.184691197,1744187092,184306738,piren,-479.7683800784298,-300.0545322391053,2.308811546975178,0.00384851611488454,-1.437333270788102e-05,0.001732917167285619,0.9999910928179372
2025/04/09 10:24:52.245833474,1744187092,245470877,piren,-479.75702697118766,-300.04854628653766,2.312470111202554,0.0063593371644905024,-5.238396572046531e-06,0.0017339360349118646,0.9999782758986389
2025/04/09 10:24:52.276999475,1744187092,276639509,piren,-479.74587550704365,-300.04787829633204,2.313431245637356,0.0014828886313683805,1.397646014290231e-05,0.001734212070420655,0.9999973966738415
2025/04/09 10:24:52.339243666,1744187092,338745491,piren,-479.73459249038154,-300.0387672095381,2.3176782178092172,-0.003050570064871937,0.00031400119715986055,0.0016716639013400097,0.9999939004640621
2025/04/09 10:24:52.372716962,1744187092,371136660,piren,-479.7231277494435,-300.0240554882741,2.323954807253435,0.01544734087228511,0.00039450297780230665,0.0016708402291475068,0.9998792088649031
2025/04/09 10:24:52.432818754,1744187092,432335670,piren,-479.7115130653997,-300.04394865908193,2.3150858731051605,-0.0010663410501438727,0.0007135548205474227,0.0015765705793492515,0.9999979340886116
2025/04/09 10:24:52.464803213,1744187092,464427967,piren,-479.70109566769537,-300.0299194710939,2.3208187382425716,-0.026915197525279867,0.0006906345123563497,0.0015854331261587749,0.9996362246177097
2025/04/09 10:24:52.526060251,1744187092,524784371,piren,-479.6892277588923,-299.9758618524743,2.3417829255683227,0.010009263118059893,0.000857033807408507,0.0014108045795213227,0.99994854356378
2025/04/09 10:24:52.588522843,1744187092,588225652,piren,-479.6775919955162,-299.9993523260199,2.33185479471591,0.004087811613746874,0.0009159929728861513,0.0012614886403330696,0.9999904296539515
2025/04/09 10:24:52.620693954,1744187092,620321867,piren,-479.6662630202469,-300.0063812167372,2.3289087605367635,0.0010468376257075503,0.0008815508399379185,0.0012645708718621938,0.999998263928299
2025/04/09 10:24:52.681558296,1744187092,681183104,piren,-479.65530331264284,-300.0063479196695,2.3288918914684094,0.02934736466033732,0.000932114700633076,0.0014865020962579638,0.9995677334033928
2025/04/09 10:24:52.743152307,1744187092,742763334,piren,-479.6439246483359,-300.0531903144532,2.307557507681895,-0.026392661687212108,0.0006653474122011542,0.0015306233658326555,0.9996502597978942
2025/04/09 10:24:52.776330289,1744187092,774538687,piren,-479.6332788068471,-299.99332339367714,2.3317320631202376,0.0032413083347550857,0.0006890247605628106,0.0015100927917963416,0.9999933693704767
2025/04/09 10:24:52.836705404,1744187092,836378756,piren,-479.6221114432303,-300.0007775945055,2.3294256247292235,-0.028819426033343976,0.000668463595327748,0.0014774836888033905,0.9995833186290574
2025/04/09 10:24:52.869746139,1744187092,868477166,piren,-479.61110452495734,-299.9522364450789,2.3488256327724955,-0.0013834840962047433,0.0006696892718126761,0.001458851222709366,0.9999977546180515
2025/04/09 10:24:52.930260356,1744187092,929771327,piren,-479.5995198829496,-299.96462026900747,2.344773068529014,0.004730926076535005,0.0005405037942329034,0.0014520872578513812,0.9999876087415797
2025/04/09 10:24:52.992045467,1744187092,991683608,piren,-479.58812305262916,-299.9846910508137,2.3373188898167836,-0.025964925814015275,0.0004961489436258572,0.0014472027365386787,0.999661683805045
2025/04/09 10:24:53.24022556,1744187093,23634280,piren,-479.5760933193487,-299.9477063992671,2.352359294428056,-0.0005619057042827887,0.0003977592122616542,0.001434271893956383,0.9999987344560606
2025/04/09 10:24:53.86513725,1744187093,85628100,piren,-479.5643326496698,-299.96514573945893,2.346262534457324,-0.002417016777524801,0.002979446350863131,0.0015215000298536938,0.9999914829472292
2025/04/09 10:24:53.147789167,1744187093,146557749,piren,-479.5475773213525,-299.9752506977543,2.3430501409959006,0.02981032223684905,4.04701370672439e-05,0.0015013631071406483,0.9995544452200309
2025/04/09 10:24:53.178803786,1744187093,178431868,piren,-479.5367567684956,-300.0365483437015,2.316567597478173,0.020194868350914393,-2.098686108685632e-05,0.0014954562404492413,0.9997949442072979
2025/04/09 10:24:53.242359687,1744187093,242014760,piren,-479.5259130878396,-300.0645126494103,2.3053503591376057,-0.030656123960138556,-5.4316782493217255e-05,0.0017576609673939112,0.9995284436879981
2025/04/09 10:24:53.275170345,1744187093,273798919,piren,-479.51369351793625,-299.9988329788133,2.3322373431908154,-0.00016240948276653063,-2.7201432752138604e-05,0.0017585251477483263,0.9999984402350569
2025/04/09 10:24:53.338000455,1744187093,337375675,piren,-479.5005299077362,-300.0037434660142,2.3316754740361327,-0.01529794803031787,-6.842777988132457e-05,0.0018398912674064607,0.9998812844052162
2025/04/09 10:24:53.370769846,1744187093,369645951,piren,-479.4870727191011,-299.9817927414078,2.3414893310873177,0.03082632181995274,-2.68345277674302e-05,0.0018425607715230493,0.9995230573292265
2025/04/09 10:24:53.433504590,1744187093,432537631,piren,-479.47325641754963,-300.04293335738123,2.3149086694602232,0.03365957547454128,0.00019338393221862647,0.0019181328293075704,0.9994314965759172
2025/04/09 10:24:53.494616541,1744187093,494224132,piren,-479.45877657228414,-300.0911283585388,2.293596239201104,0.031010780960449628,0.00029966359216334346,0.002041146004770183,0.9995169210118166
2025/04/09 10:24:53.547927087,1744187093,546852809,piren,-479.4441378428614,-300.12058633296414,2.2806880129417175,0.03074540415101328,0.0003997807666552115,0.0020468713513362912,0.9995250725302495
2025/04/09 10:24:53.580647461,1744187093,580262297,piren,-479.42975250506925,-300.13996635729814,2.2720785909778374,0.030416681074736752,0.00039141369691453293,0.0020572476320413887,0.999535111959503
2025/04/09 10:24:53.644515351,1744187093,644144172,piren,-479.41558259328775,-300.15226371189476,2.266493000567101,0.019504233408358666,0.00034146146877710095,0.0018930612387533295,0.9998079238545592
2025/04/09 10:24:53.677231854,1744187093,676837968,piren,-479.4018049719211,-300.1416852949525,2.271561769786009,-0.02843224644779491,0.00020149723831338384,0.0018960962476072842,0.9995939033326557
2025/04/09 10:24:53.741126172,1744187093,739875098,piren,-479.38839066699666,-300.0523535860472,2.3084104631212647,0.03046316533153035,-0.0017988481108212621,0.002137532672887386,0.9995319858101241
2025/04/09 10:24:53.772606207,1744187093,772290891,piren,-479.3781527980671,-300.08627879524266,2.2934476399086576,-0.016049401743160847,0.0008718650065618517,0.002089674884031,0.9998686362787744
2025/04/09 10:24:53.837353137,1744187093,835973394,piren,-479.36276994421354,-300.03267228717226,2.316521291013022,0.028678387268164934,0.001272912256991122,0.0018257649045724706,0.9995862125802838
2025/04/09 10:24:53.898062289,1744187093,897625555,piren,-479.34764521501023,-300.0686301747897,2.3007184293538363,0.0018549284262572515,0.0012145041446458796,0.0018033654067298988,0.9999959160383736
2025/04/09 10:24:53.931729102,1744187093,930509753,piren,-479.3331876074447,-300.04988096316544,2.309576407295105,-0.020984573506873244,0.0011922131147277665,0.0018275193139560555,0.9997774184666209
2025/04/09 10:24:53.993552094,1744187093,992508286,piren,-479.319511580697,-299.99781240050953,2.3312173715491835,-0.010960722589520088,0.001233872112932501,0.0016905760975868304,0.9999377390979814
2025/04/09 10:24:54.26687922,1744187094,25138523,piren,-479.3076842394164,-299.97879300221814,2.3397482953693913,0.012613910607173661,0.0010079594023460795,0.0016633804810923206,0.9999185499041472
2025/04/09 10:24:54.89811596,1744187094,88042987,piren,-479.2940199337347,-300.0044210125681,2.329429603065869,0.019294046831220203,0.0009467745249636156,0.0016364169944230835,0.9998120650973832
2025/04/09 10:24:54.120846274,1744187094,120533573,piren,-479.2808693401502,-300.0346877371579,2.31675465410944,-0.0048135701260598384,0.0007242982288191693,0.0016592753683196376,0.9999867757825447
2025/04/09 10:24:54.183975214,1744187094,183536038,piren,-479.2684237139166,-300.01677973881306,2.325078109577209,0.027671416964161644,0.0007825237903783797,0.0015989426732471756,0.9996154879362568
2025/04/09 10:24:54.218957169,1744187094,217733612,piren,-479.2555268014583,-300.0584630691482,2.306950754005239,-0.013883205762484477,0.0013316543176867736,0.0016450702081146434,0.9999013836566809
2025/04/09 10:24:54.282303365,1744187094,281343785,piren,-479.24186468336615,-300.0195496446247,2.3240725571927596,-0.012316594011375623,0.00022602689448224277,0.0016860414896561022,0.9999227008563698
2025/04/09 10:24:54.345523089,1744187094,345135336,piren,-479.22990493791616,-299.9948067773291,2.3353007167591375,-0.0021174371215984624,0.00026450708800414394,0.0016845969474924356,0.9999963043077514
2025/04/09 10:24:54.378428686,1744187094,378056734,piren,-479.2175559966043,-299.99506216500544,2.3362785714787493,-0.01888046567796805,0.00017891375904431953,0.0016948814313271954,0.9998202955444462
2025/04/09 10:24:54.443138729,1744187094,442749540,piren,-479.20477869571516,-299.9675327732271,2.3480201087712387,-0.028103485312624146,0.000138748657710365,0.001636289221622322,0.9996036701711716
2025/04/09 10:24:54.476713078,1744187094,475453781,piren,-479.1918703147902,-299.93287450730344,2.361930148348212,-0.0013044701033726788,0.00015286784359863433,0.001632248204897286,0.9999978053750765
2025/04/09 10:24:54.541337225,1744187094,540054241,piren,-479.17820744195393,-299.9542901158548,2.3541773402905615,-0.028850045635121502,-0.00011800680223162614,0.0015564160197875428,0.9995825321154924
2025/04/09 10:24:54.575081173,1744187094,574798478,piren,-479.1647231902979,-299.9236187997487,2.366279223344767,0.0012337916349877023,-4.693546277378678e-05,0.001559130204107806,0.9999980223321797
2025/04/09 10:24:54.641069429,1744187094,639898412,piren,-479.15061866746316,-299.9533263267703,2.3549516332281746,0.032909955417872255,-1.1897704253111175e-06,0.001678019436010264,0.9994569120696252
2025/04/09 10:24:54.673794552,1744187094,672756629,piren,-479.1361725982449,-300.02750258575634,2.3225180321538446,0.033041400147294654,2.9831742237534716e-05,0.0016813287751805983,0.999452569219732
2025/04/09 10:24:54.737336419,1744187094,736924755,piren,-479.1211339288707,-300.0806716067502,2.299169221675402,0.0057476475489549395,-0.00011303149957275867,0.0017187472594378417,0.9999819986776719
2025/04/09 10:24:54.799631689,1744187094,799306967,piren,-479.1064637911775,-300.07283480958205,2.3036375436234615,0.033314616255355124,-3.786914850532462e-05,0.0018282907879719815,0.9994432411410269
2025/04/09 10:24:54.833712937,1744187094,833377292,piren,-479.0909794787622,-300.11183660931675,2.285900396883582,0.0023885051565948594,-3.943111511398727e-05,0.0018269812179324974,0.9999954778037415
2025/04/09 10:24:54.897994243,1744187094,897023797,piren,-479.0757638158581,-300.0874221511215,2.297107443418126,-0.02731523067154858,-0.0025918118272029327,0.001740439555322054,0.9996219943333414
2025/04/09 10:24:54.930746901,1744187094,930278344,piren,-479.0664960445957,-300.01766227376,2.3253304090300553,-0.006860761952008271,-0.001705619354452612,0.001795922165742279,0.9999733973819656
2025/04/09 10:24:54.994909224,1744187094,994494486,piren,-479.0519623826615,-300.00274469067676,2.3320527712029087,-0.00031758487082720764,0.0007365161301163593,0.0017512783437151525,0.9999981448522807
2025/04/09 10:24:55.31126311,1744187095,30695165,piren,-479.03279188465655,-300.0026793323457,2.33230824478568,0.03130013011685248,0.001119130811916844,0.001733190782429742,0.9995079016449073
2025/04/09 10:24:55.95499880,1744187095,95087838,piren,-479.0143425395184,-300.05478932405725,2.308553416566579,-0.0010933697892345732,0.0011076147245369502,0.0017016834067709616,0.9999973409993195
2025/04/09 10:24:55.128595451,1744187095,128259025,piren,-478.99668374842213,-300.03810867521486,2.3159350891373647,-0.0009943985979558967,0.0012024796492378555,0.0017013558143720029,0.999997335297707
2025/04/09 10:24:55.193752923,1744187095,192505447,piren,-478.9799338441599,-300.02590672945627,2.3212609876847425,-0.013341067610818515,0.0011886913798599033,0.0016400393686681336,0.9999089524545104
2025/04/09 10:24:55.227143376,1744187095,226780636,piren,-478.9636573231763,-299.99628718491874,2.3334623411437576,0.028257943594330565,0.003521686649750828,0.001523916513761115,0.9995932993099843
2025/04/09 10:24:55.291676161,1744187095,290701595,piren,-478.94434940829035,-300.0447028862373,2.311884681289201,0.012547243371455742,0.0007508715652839906,0.0016715978656834216,0.9999196010861301
2025/04/09 10:24:55.325693802,1744187095,325277827,piren,-478.93077347337993,-300.0537584703554,2.308551052833337,-0.009803841707008334,0.0007755878991573569,0.0016910918596020489,0.9999502104402584
2025/04/09 10:24:55.390283101,1744187095,389787033,piren,-478.9173553554135,-300.02288580075134,2.322076868186882,-0.028641914203662657,0.0007414312938921953,0.0017123346692709488,0.999587994595957
2025/04/09 10:24:55.424830155,1744187095,424277684,piren,-478.9036205922124,-299.96906755293253,2.343794840147127,-0.02985049087646155,0.0005625752111776831,0.001720905655340683,0.9995527350706873
2025/04/09 10:24:55.489427932,1744187095,489051618,piren,-478.89038337520384,-299.92928880628716,2.359942760446703,-0.0046160131187903625,0.0005353427114002926,0.0016971779452689664,0.9999877626341688
2025/04/09 10:24:55.523646417,1744187095,522656547,piren,-478.87647278099956,-299.94459060632244,2.355131276296507,0.026257620480072578,0.0004179036585976752,0.0016706764375992343,0.9996537258288479
2025/04/09 10:24:55.590184466,1744187095,588676753,piren,-478.8632009468082,-300.0083827106429,2.3284962529937543,0.03143427991030201,0.0003176348528275428,0.0016372041210510131,0.9995044295636148
2025/04/09 10:24:55.623728433,1744187095,623361783,piren,-478.84966251891103,-300.06329659793573,2.3051966239229245,0.005410971268568217,-0.00010025047869901457,0.0016442541167674095,0.9999840037561459
2025/04/09 10:24:55.708903785,1744187095,706697388,piren,-478.8224022387419,-300.06536746605417,2.306379405712346,-0.03059593223519954,-0.0003079090432366758,0.0017700595014182822,0.9995302201594716
2025/04/09 10:24:55.802410520,1744187095,801273072,piren,-478.8104300138837,-299.95101091954655,2.353631021639088,-0.019161679130223108,-0.0003398801648571447,0.0018368729623195654,0.9998146530393043
2025/04/09 10:24:55.838014251,1744187095,836257752,piren,-478.7963852311691,-299.9385015823384,2.3599424964370934,-0.028857712109222694,-0.0024916863597896862,0.0017716173406595564,0.9995788539794668
2025/04/09 10:24:55.870063445,1744187095,869690417,piren,-478.787696255581,-299.91457696938744,2.3697435902999584,0.0006173668082296743,0.00017791157753136385,0.0018427559078199548,0.9999980957263663
2025/04/09 10:24:55.934980205,1744187095,934606413,piren,-478.7702577213951,-299.9467583102241,2.357731830515854,0.00051193889847461,0.0002522769834269443,0.0017426513305241762,0.9999983187192008
2025/04/09 10:24:55.970372620,1744187095,968842166,piren,-478.7533489968708,-299.9700323110386,2.3489058798240556,0.02937553218596744,0.000465657217645599,0.001739087495261152,0.9995668246029531
2025/04/09 10:24:56.34727093,1744187096,33378956,piren,-478.7360695370962,-300.0344128674569,2.320779102301451,-0.0018529999955494657,0.003243760307596626,0.0016712757857853023,0.9999916255886002
2025/04/09 10:24:56.98810664,1744187096,98412561,piren,-478.7147381418321,-300.02826921361276,2.324014745439686,-0.027604455963539335,-2.885938500283065e-05,0.0017390903668402372,0.9996174111842935
2025/04/09 10:24:56.133855226,1744187096,132513432,piren,-478.7003082530507,-299.979596490333,2.343227512160208,0.02975083737130926,0.00012317743248458184,0.001746980241942962,0.9995558116298762
2025/04/09 10:24:56.200150289,1744187096,199136803,piren,-478.6849976613954,-300.0402192743978,2.3166112416126445,0.02915442042530937,0.0001858281052132828,0.0019944621681241316,0.9995729124772438
2025/04/09 10:24:56.233661160,1744187096,233286036,piren,-478.6687987077961,-300.08212749509414,2.2980724388484917,0.03266885359754142,0.0005028326822966369,0.001997390971612328,0.9994641082066043
2025/04/09 10:24:56.300344335,1744187096,298674303,piren,-478.6521967682039,-300.1167678194089,2.2822758338079816,0.030055584254014268,0.0006091827035564003,0.0020544463479378015,0.9995459319119792
2025/04/09 10:24:56.334284059,1744187096,333786626,piren,-478.6348788487391,-300.1364314099401,2.2732892874614725,0.02801611909815698,0.0009088919325248435,0.0020576321359095048,0.9996049405320715
2025/04/09 10:24:56.400083657,1744187096,398932668,piren,-478.6177096271571,-300.1455398503026,2.2690700740267884,-0.029935887033530728,0.0007431076116000162,0.002113959896152552,0.9995493092550015
2025/04/09 10:24:56.434057768,1744187096,433698721,piren,-478.60085720232433,-300.0538496587581,2.3068573416873974,0.019167002663037107,0.0009139131266945868,0.0020773295332432713,0.999813720386814
2025/04/09 10:24:56.500360876,1744187096,499939395,piren,-478.58392791012005,-300.07017479038785,2.3006407028342166,0.02705942556101271,0.0009418502508583297,0.002123271047051958,0.9996311280299718
2025/04/09 10:24:56.535933051,1744187096,535530765,piren,-478.5667761103575,-300.094708050512,2.2901085311595146,0.02611708571455342,0.0011633854019733076,0.002118495814828414,0.999655968993167
2025/04/09 10:24:56.604291284,1744187096,603038858,piren,-478.54980273489974,-300.11047100536183,2.283477710451519,-0.0007222949605230364,0.001059654967237445,0.002137245973920237,0.9999968937956695
2025/04/09 10:24:56.637665253,1744187096,637317875,piren,-478.53310454291505,-300.07707669761885,2.298864916503928,0.002026413367922588,0.0011766222521483953,0.0021337168018946257,0.9999949782181645
2025/04/09 10:24:56.704718155,1744187096,703538132,piren,-478.5167053296096,-300.05769243242906,2.308120763458689,-0.008180000778206614,0.0011355403892917017,0.002102475518624125,0.99996368820672
2025/04/09 10:24:56.738237079,1744187096,737871619,piren,-478.5002310250513,-300.0270087475663,2.3218235350640755,-0.002517887248047737,0.0006826987039378343,0.0020958966125588546,0.9999944006761614
2025/04/09 10:24:56.804057450,1744187096,803576504,piren,-478.48540350419756,-300.0152948305619,2.3276462184626885,0.022139868092635056,0.0006545030513438624,0.002094469031300276,0.9997524748986989
2025/04/09 10:24:56.839295850,1744187096,838930510,piren,-478.4698077415167,-300.04860061020105,2.313620616837861,0.024122057136857847,0.0005755225722628952,0.002083342620553774,0.9997066843913671
2025/04/09 10:24:56.905396861,1744187096,904520390,piren,-478.4550588110411,-300.07651461852186,2.301881302179658,0.002894831332073204,0.0004328879398060498,0.00209511796218573,0.999993521499172
2025/04/09 10:24:56.939808600,1744187096,939474178,piren,-478.43988764064693,-300.0617679381121,2.3093446874506474,-0.025287399085397934,8.44053096473003e-06,0.0021094830979060766,0.9996779968856536
2025/04/09 10:24:56.973801674,1744187096,973435887,piren,-478.42791590760515,-300.0036797896928,2.3334569705837036,-0.03063326466923319,3.343313039844893e-05,0.0021203460661642355,0.9995284418717111
2025/04/09 10:24:57.40077305,1744187097,39743307,piren,-478.41245211322394,-299.95355788415117,2.353882328880537,-0.008562830928007656,-8.495671202494579e-05,0.0022428969119559763,0.999960819293585
2025/04/09 10:24:57.76024285,1744187097,74821069,piren,-478.3973199747294,-299.95626126772174,2.3541498444649873,0.026804941099220016,-6.420647156344265e-05,0.0022409132489082818,0.9996381691982391
2025/04/09 10:24:57.141734306,1744187097,140476158,piren,-478.38179801632793,-300.01782301314074,2.3281554454102875,0.0024365670927797753,8.526906848218391e-05,0.002285766379840025,0.9999944155554296
2025/04/09 10:24:57.176405514,1744187097,176004824,piren,-478.36620461401833,-300.0220000189529,2.3276148595203394,0.003335539055051948,5.982916827780887e-05,0.002286006108012381,0.9999918223544416
2025/04/09 10:24:57.244024921,1744187097,243083223,piren,-478.3504444750285,-300.02646619648846,2.3265422088576897,-0.026592307356916235,-0.00011976254610578467,0.002163698980585593,0.9996440132632664
2025/04/09 10:24:57.278528994,1744187097,278067061,piren,-478.33524531814976,-299.97881766720263,2.345553826262483,0.0312966437449988,5.38959827688752e-05,0.0021732995602113596,0.9995077758349573
2025/04/09 10:24:57.346749888,1744187097,346385699,piren,-478.31870857358905,-300.0413564374478,2.3180445788405892,0.019696376540261646,-6.627978243513271e-05,0.0023325297174295874,0.9998032844831488
2025/04/09 10:24:57.382117510,1744187097,380943149,piren,-478.30281060504376,-300.0669877480257,2.3073492167623786,-0.0005725139587819506,-7.035874546547827e-05,0.0023305111785407464,0.9999971179933774
2025/04/09 10:24:57.450345163,1744187097,449935464,piren,-478.28638233941683,-300.05099418303735,2.314626805769966,-0.009816141561419281,-0.0007651504937971077,0.0025269456106308185,0.999948334893083
2025/04/09 10:24:57.486123497,1744187097,484931615,piren,-478.2711644970483,-300.0230477133822,2.3263214484117114,-0.0025918554002591606,0.00052446221292804,0.0026460870232427342,0.9999930026997373
2025/04/09 10:24:57.553831892,1744187097,553235638,piren,-478.25288050003843,-300.01468718553804,2.3297825575031452,0.030329020502594773,0.0005507886113370427,0.002643376855247293,0.9995363223545506
2025/04/09 10:24:57.588905104,1744187097,588546766,piren,-478.2345332305872,-300.06288608355084,2.3075848368057392,-0.012531596119762201,0.0004922540160468358,0.0024187469189970424,0.9999184298971676
2025/04/09 10:24:57.656666104,1744187097,656338353,piren,-478.2024014691374,-300.02718711966804,2.3221768637417073,0.02780778463187959,0.000818254580028166,0.002405856796652285,0.9996100586860776
2025/04/09 10:24:57.724067274,1744187097,723676154,piren,-478.1828615160781,-300.06627419587915,2.304342118520977,-0.027213975721824907,0.0007808937544444805,0.002565695905766373,0.9996260335419819
2025/04/09 10:24:57.792286755,1744187097,791013246,piren,-478.16415412857225,-300.0017869674821,2.330298954631593,0.030914014015555765,0.0010102984377850675,0.0026423026903303,0.9995180444949482
2025/04/09 10:24:57.827924207,1744187097,826472548,piren,-478.1447731483335,-300.0529115897545,2.307754639683419,0.027501430443629567,0.0011399045289518625,0.00264177653050411,0.9996176233730486
2025/04/09 10:24:57.894108204,1744187097,893657283,piren,-478.12574640156623,-300.0841593546205,2.294320873939548,-0.02850687175804266,0.0009180542863593046,0.0025213930578869533,0.9995899949559046
2025/04/09 10:24:57.948311244,1744187097,947959979,piren,-478.10773091443303,-300.01254487616734,2.3240450442276646,0.029898625779387792,0.0010002707932808262,0.0024580558201311668,0.9995494132840204
2025/04/09 10:24:57.983452150,1744187097,983033299,piren,-478.0897876249913,-300.0593342387759,2.304304242650409,-0.028471489326034695,0.000696998479752591,0.0025321411335932336,0.9995911547977785
2025/04/09 10:24:58.52590021,1744187098,50954111,piren,-478.0725074119427,-299.99550211410667,2.3312727508174875,0.02969117293295863,0.000522174256019638,0.0024835502794028777,0.9995558981677419
2025/04/09 10:24:58.86972735,1744187098,86571792,piren,-478.0556304916861,-300.0478609822598,2.3096423582785492,-0.028538769253315666,0.0003402739294102362,0.0025878257463937196,0.9995892786645248
2025/04/09 10:24:58.123225182,1744187098,121712829,piren,-478.03890597529755,-299.9883816254601,2.335092045633313,0.029754147981614937,0.0005460166222277317,0.0025480324679740016,0.9995538505124567
2025/04/09 10:24:58.192088983,1744187098,190785741,piren,-478.0218695864665,-300.04416288374705,2.312233984859578,-0.028170007853501513,0.00028424131834828585,0.002587516815876875,0.999599757213423
2025/04/09 10:24:58.225939413,1744187098,225666956,piren,-478.0052222662992,-299.9876239184033,2.3366238608972596,0.005476471723584356,0.0001792688811849387,0.002575230642761807,0.9999816719856748
2025/04/09 10:24:58.295303111,1744187098,294958833,piren,-477.9888063645902,-300.00465284968703,2.3317028997096423,0.010471718720730043,0.0001334960393775846,0.0026027741594469114,0.999941773731109
2025/04/09 10:24:58.332937307,1744187098,330847181,piren,-477.9721811504951,-300.02578535305554,2.324424991987725,-0.0020744251509847056,-0.00020092672222330306,0.0026042726761664908,0.9999944370608136
2025/04/09 10:24:58.399962495,1744187098,398506589,piren,-477.95643475721164,-300.02033068234357,2.328117716902313,4.4802887384184555e-05,-0.00012855964315472987,0.002691612987959355,0.9999963683357268
2025/04/09 10:24:58.436101986,1744187098,434272201,piren,-477.9399767180481,-300.0201330289213,2.329247258099088,-0.031042581816611757,-1.585632672276205e-05,0.0026943688796571175,0.9995144312310233
2025/04/09 10:24:58.502628354,1744187098,502195908,piren,-477.923666003704,-299.96725415175206,2.350178947502258,0.02378741392605222,6.375311106831539e-05,0.002716030208315172,0.9997133479423784
2025/04/09 10:24:58.539602950,1744187098,539222329,piren,-477.9065992516292,-300.0217519294273,2.3272465821889434,0.01210824692226823,-9.10141207955789e-05,0.0027195076368173145,0.9999229902103024
2025/04/09 10:24:58.575906631,1744187098,574667128,piren,-477.8901936891806,-300.0415762411586,2.3195772128629337,0.0018807692080105513,-0.0009799334925063663,0.002720485357607208,0.9999940506807806
2025/04/09 10:24:58.644693148,1744187098,644322986,piren,-477.8769647622278,-300.0379984463542,2.3216159870533906,-0.024552558141769848,4.043950235102582e-05,0.0029909346919187846,0.9996940654835411
2025/04/09 10:24:58.680790738,1744187098,680138657,piren,-477.85871612395425,-299.99046167966816,2.3405693079048224,0.001784323572895976,0.0002481827013150179,0.0032189165183937932,0.9999931965624475
2025/04/09 10:24:58.749720851,1744187098,749329293,piren,-477.8228117849292,-299.9979281213303,2.337716316145633,-0.001276987128768468,0.00037392639140568,0.003218683383079863,0.9999939347617096
2025/04/09 10:24:58.819035401,1744187098,817778756,piren,-477.80406832688413,-300.00041579307873,2.3364916879277113,-0.0033150256301208102,0.000758734226773238,0.0032278827481788063,0.99998900778979
2025/04/09 10:24:58.887053319,1744187098,886682160,piren,-477.7849319992869,-299.9984756113248,2.336946004648519,-0.003757187199873866,0.0007276156540911793,0.0033947773435784494,0.999986914717684
2025/04/09 10:24:58.922215659,1744187098,921875128,piren,-477.7657152944728,-299.9960376669212,2.3375327462026543,0.000978216723004014,0.0007754387372931306,0.0033916057352661394,0.9999934693773476
2025/04/09 10:24:58.992279280,1744187098,991834040,piren,-477.74698332775296,-300.00208957343733,2.3345822848070417,0.032634903149811226,0.0008541068152687217,0.0030455842490173376,0.9994623344651528
2025/04/09 10:24:59.28716583,1744187099,27223849,piren,-477.72797835765397,-300.05863130540695,2.3084466052322457,-0.02351126226564116,0.0005850035381284984,0.003082903246284539,0.9997186474329218
2025/04/09 10:24:59.97478394,1744187099,96427237,piren,-477.70983099288395,-300.0050493996145,2.3300759876974637,-0.02911682311627139,0.0007096616833580378,0.0031777490207398193,0.9995707123075747
2025/04/09 10:24:59.132667461,1744187099,132339475,piren,-477.69114096283016,-299.9569277826802,2.3490942483235204,-0.030284908598762664,0.0005978583856600885,0.003177238921745326,0.9995360784030507
2025/04/09 10:24:59.204772327,1744187099,201561094,piren,-477.6728787677566,-299.92092695755605,2.363310082148839,-0.02839812184764224,0.000622951111469316,0.0032862948567050822,0.9995910958354692
2025/04/09 10:24:59.238070376,1744187099,237714637,piren,-477.6540118354443,-299.8990988955897,2.37217893039286,0.010004039043053992,0.0005889371525269134,0.0032589505885038577,0.9999444742569046
2025/04/09 10:24:59.274568844,1744187099,273304519,piren,-477.6353202085527,-299.94960132727124,2.3524155236078537,-0.028728574760077504,0.0004461533123070738,0.003288189066876771,0.9995817414059428
2025/04/09 10:24:59.343784486,1744187099,343447052,piren,-477.61633131262124,-299.92103553372186,2.3640915621003997,0.0309086587575089,0.0004659634431954308,0.0037176959937625913,0.9995151906941583
2025/04/09 10:24:59.379747516,1744187099,379220661,piren,-477.5972547832593,-300.0014189732248,2.330205578491582,-0.0005061721693465263,0.0003635254605368872,0.0037307174399116164,0.999992846667594
2025/04/09 10:24:59.450312171,1744187099,449270971,piren,-477.5630685253672,-300.00957288569435,2.3287670611203843,-0.03032122400518421,0.00035978042631546934,0.004271724490863943,0.9995310131770533
2025/04/09 10:24:59.520154223,1744187099,519683567,piren,-477.54378068825514,-299.96327795726415,2.3480643368654595,-0.0007801368309209684,-0.00016327188532074468,0.004254056888156841,0.9999906338205418
2025/04/09 10:24:59.593013573,1744187099,591968785,piren,-477.5254891755712,-299.98059794203976,2.342717744206401,-0.003387739101313965,-0.00020607438267677836,0.004552265963606489,0.9999838786859151
2025/04/09 10:24:59.629495335,1744187099,627602172,piren,-477.5070183990684,-299.98894288290995,2.340665234753026,-0.02664980380390387,-0.00016308357597946671,0.004556043049370644,0.9996344350974975
2025/04/09 10:24:59.698473530,1744187099,697382981,piren,-477.4893091421973,-299.95556133453755,2.3543302938896074,-0.0003282058577079242,-8.128573336389794e-06,0.003983110713189508,0.9999920134900517
2025/04/09 10:24:59.734674746,1744187099,733474419,piren,-477.4714120636899,-299.9764211149373,2.346793363641993,0.026336039400081446,0.0008783039854892705,0.0039603191048695405,0.9996449156992767
2025/04/09 10:24:59.769688821,1744187099,769321406,piren,-477.45255468303856,-300.035685226782,2.3214298061580894,-0.032485538189099945,-0.00030452656848268693,0.0039721486722076,0.9994642660480962
2025/04/09 10:24:59.841421951,1744187099,840191391,piren,-477.43641196421606,-299.9789273585972,2.343989623047621,-0.004739292744299062,-6.31369239790285e-05,0.004808298659310875,0.9999772074312573
2025/04/09 10:24:59.877325316,1744187099,876161164,piren,-477.419295551477,-299.98502185569237,2.3425025899260588,-0.004937567200158115,4.021469462453531e-05,0.004807528269131101,0.9999762529604709
2025/04/09 10:24:59.946683133,1744187099,946233769,piren,-477.40243438327616,-299.98875805917766,2.341555307350979,-0.021252065034502058,0.0009827356785302823,0.005028135202295911,0.9997610223542139
2025/04/09 10:24:59.982993505,1744187099,982602419,piren,-477.3840330724993,-299.9633665561965,2.3515912002725914,-0.00642626980145462,-2.6448440507467354e-05,0.005550218036868335,0.9999639480684602
2025/04/09 10:25:00.56346666,1744187100,53606294,piren,-477.36734963410885,-299.9699559115243,2.3490281904080703,-0.0061891349940202045,-0.002287174047689191,0.005533236713108257,0.9999629226798252
2025/04/09 10:25:00.92836138,1744187100,92468745,piren,-477.35377204618163,-299.97469046683597,2.3469962010295076,0.02457244154262263,0.0007689171051872359,0.004718767721249713,0.9996866194534729
2025/04/09 10:25:00.129186602,1744187100,128510406,piren,-477.3379547117975,-300.0290423833371,2.3228536787989285,-0.0027216219947935657,0.0018221812737970408,0.00474025845268084,0.9999834010516998
2025/04/09 10:25:00.200662370,1744187100,200374179,piren,-477.31854044339127,-300.021903634472,2.32585637712399,-0.02898079385579639,0.0016646397780686827,0.004929536360466399,0.9995664271238646
2025/04/09 10:25:00.237108969,1744187100,236665747,piren,-477.300125540469,-299.97161515666164,2.34514860632721,-0.0017805235665164692,0.0015782602742086499,0.004881670060864083,0.9999852539551536
2025/04/09 10:25:00.294549238,1744187100,294066906,piren,-477.28277077892926,-299.9814828786683,2.341340294381955,-0.002252290025235485,0.0004896455790453305,0.005179686614978498,0.9999839290125716
2025/04/09 10:25:00.332536367,1744187100,331310899,piren,-477.2672431525614,-299.9877268925836,2.338923613509571,-0.003303600331968061,0.0006084087420034315,0.005180444273855289,0.9999809393487332
2025/04/09 10:25:00.402881273,1744187100,402502000,piren,-477.2517351354479,-299.9904254577376,2.337920639618154,-0.01120733285804757,0.0005925466359911995,0.00543031706214038,0.9999222750970687
2025/04/09 10:25:00.439970328,1744187100,439605212,piren,-477.2357434535524,-299.97902850902244,2.3425683490998517,0.006725290730840102,0.0007897565374726694,0.005417616274608112,0.9999623973845708
2025/04/09 10:25:00.476602348,1744187100,476209657,piren,-477.21952425446017,-300.0011379128214,2.3334402256351585,0.007170739335228459,0.0008509672697712615,0.00541570065272465,0.9999592624394916
2025/04/09 10:25:00.549217814,1744187100,548815293,piren,-477.20299610200675,-300.0178820305721,2.3265960083144743,-0.0037670618938389702,0.001457721228265163,0.006378690621172755,0.999971497893549
2025/04/09 10:25:00.587865477,1744187100,586721339,piren,-477.1849988673654,-300.0116619749692,2.3295017794339454,-0.0029106415895825987,0.0013605305851261957,0.007013831386763756,0.999970241202878
2025/04/09 10:25:00.657536766,1744187100,657206693,piren,-477.1508727204138,-300.0105087545693,2.3304956736338878,-0.03489710541575848,1.6011107260137587e-05,0.0070415007120648646,0.9993661036101675
