time,header_stamp_secs,header_stamp_nsecs,header_frame_id,twist_linear_x,twist_linear_y,twist_linear_z,twist_angular_x,twist_angular_y,twist_angular_z
2025/04/09 10:24:45.424719321,1744187085,420162234,piren,0.01750714796712157,-0.00016017997458246777,-1.5060518471028373e-05,0.001621799425735353,0.00011624453389079544,-0.0009162208906939593
2025/04/09 10:24:45.481249840,1744187085,478817144,piren,0.016965383303675106,0.028983796549171333,0.011836655814552424,0.0017301324114879489,8.009620698719651e-05,0.0
2025/04/09 10:24:45.535718471,1744187085,532493219,piren,0.016463221037159186,0.014136255436546135,0.005191751488378384,0.0006296238650511603,4.2448587100980235e-05,-0.005044420356440735
2025/04/09 10:24:45.564840887,1744187085,561943565,piren,0.015937224035915833,-0.057786794428086985,-0.029666380798309865,0.0027741267330712825,-2.165585690339331e-05,0.0
2025/04/09 10:24:45.619751491,1744187085,617744736,piren,0.015458561548659239,0.06985960086621262,0.0246940197759045,0.00196860723289754,-6.138202036858338e-05,-0.005009609430858641
2025/04/09 10:24:45.693486022,1744187085,691517859,piren,0.014720106435984665,0.03951811184226019,0.013903126358156685,0.001916698837766196,-8.604406434164478e-05,-0.0009233408207640264
2025/04/09 10:24:45.721550526,1744187085,719386312,piren,0.013822481081999861,0.01823306725858564,0.006393677389637119,0.0013644029206266162,-9.097498573793435e-05,0.0
2025/04/09 10:24:45.776582444,1744187085,773318983,piren,0.01320593114390584,0.009239612653794345,0.003666808494544687,0.001369138217615456,-8.154092882476732e-05,0.0
2025/04/09 10:24:45.830296592,1744187085,827509657,piren,0.012787303918365536,0.03101334675467899,0.011947522004799298,0.0004810529175047667,-3.769420482920731e-05,-0.004682193388273285
2025/04/09 10:24:45.883419575,1744187085,881515276,piren,0.01238257659369878,-0.036472704217444786,-0.01691910655385883,0.0010368883577873552,-3.4091966275805636e-05,-0.0009363277131919896
2025/04/09 10:24:45.939130462,1744187085,937349369,piren,0.012226082829195756,0.027246040693782576,0.010560580528829858,0.0009407808728090826,-2.6556782901071488e-05,0.0
2025/04/09 10:24:45.995322248,1744187085,993272997,piren,0.012241173046795197,0.0026205750906927038,0.0012080747707650813,-2.9949205145462647e-05,-3.31984400049196e-05,-0.0008614807158274061
2025/04/09 10:24:46.25929727,1744187086,22491744,piren,0.012641939684173067,0.013432831847321266,0.007114540804430108,0.00017400450512968952,-4.189389273120341e-05,0.0
2025/04/09 10:24:46.81580400,1744187086,79041691,piren,0.013001669760390053,0.11645458504920589,0.04478001730441216,0.000183034015257846,-7.938901094447716e-05,-0.0010933597959776513
2025/04/09 10:24:46.138063652,1744187086,134798219,piren,0.013724720637428323,0.05177159290300663,0.01986277740656229,1.4911327172308118e-06,-0.00013626350854948157,0.0
2025/04/09 10:24:46.193232537,1744187086,191318134,piren,0.014279446034635124,0.005802610911984449,0.001882136310601629,-0.002420784051452972,-0.00013877899464631243,-0.0008827070073390266
2025/04/09 10:24:46.221730096,1744187086,219719553,piren,0.01460163571789294,-0.11042853381950755,-0.05658437237235587,-0.00042288112312112094,-0.00013334068668934695,0.0
2025/04/09 10:24:46.276602169,1744187086,274809554,piren,0.014972404939394397,0.02430530316032347,0.00731021758133817,-0.00041038103017278086,-9.854939511128064e-05,0.0
2025/04/09 10:24:46.330180606,1744187086,328378650,piren,0.015022872729266803,0.11096833891762099,0.04027416590182888,-0.0012526034481425822,4.031439042082207e-05,-0.0040836150852749985
2025/04/09 10:24:46.386538033,1744187086,384474691,piren,0.014971048624464028,0.040943607364042796,0.015191197232218819,-0.002006070750572297,9.100492246047123e-05,-0.0009054990364121461
2025/04/09 10:24:46.439896986,1744187086,438017816,piren,0.015923006460983664,0.01353499247494292,0.006335157490827203,-0.0010714699309350587,-3.081984400796128e-05,0.0
2025/04/09 10:24:46.494639331,1744187086,492696606,piren,0.016742504774998584,0.059456339541784684,0.024535397479460437,-0.0005688512397263143,-5.630362596573026e-05,-0.0008421165952753513
2025/04/09 10:24:46.523307331,1744187086,521135532,piren,0.01703600134299081,0.008442415646333176,0.00441501269176844,-0.0024684647345956197,6.234055242453381e-05,0.0
2025/04/09 10:24:46.578142759,1744187086,576271528,piren,0.017265060246761717,-0.10507072006486032,-0.052196176286754645,-0.0007983154087031078,0.00011414991830208839,0.0
2025/04/09 10:24:46.634757475,1744187086,632185004,piren,0.01706910697779364,0.028745383013349467,0.010815216891670535,0.0010886311698543136,0.00015863415360201818,-0.004716534185442553
2025/04/09 10:24:46.688997157,1744187086,687215998,piren,0.016716659745569577,0.10336398918915168,0.03248193895839801,-0.00032694194174668945,0.00019453663027918592,-0.00090199531413024
2025/04/09 10:24:46.743686442,1744187086,741186769,piren,0.01668273966986616,-0.0733029709955354,-0.030985003949420168,-0.0014486232916072934,0.00020303184372871979,0.0
2025/04/09 10:24:46.771725282,1744187086,770152330,piren,0.016562942719976582,-0.15596271250956117,-0.08156764111308908,0.0006235706958923476,0.00016041872131489256,0.0
2025/04/09 10:24:46.826175020,1744187086,823467857,piren,0.016753347592142625,0.004845703212452891,-0.0028657738176165377,0.002361262649742995,1.7408851523109233e-05,-0.004721238256779829
2025/04/09 10:24:46.881539639,1744187086,878938911,piren,0.0165103713503812,0.09377354184759158,0.028487263575366288,0.0009362585815694487,4.9319169440289266e-05,-0.0010213442151341962
2025/04/09 10:24:46.934778844,1744187086,933016569,piren,0.01505238258393735,-0.07241149322633243,-0.030361354521821364,-0.0002859086106507516,0.00013820405954942738,0.0
2025/04/09 10:24:46.963918306,1744187086,961752031,piren,0.014498227375908068,-0.14929152610033872,-0.07733092488322692,0.0016081835762339746,0.00016120444284608456,0.0
2025/04/09 10:24:47.20096228,1744187087,17105656,piren,0.014331632857900603,0.0151733083032283,0.0034177568309989533,0.0031898753586788345,0.00010389593749006178,-0.004973328726353007
2025/04/09 10:24:47.73086918,1744187087,71330215,piren,0.013892097066867226,0.10596610264278923,0.034154158214205206,0.0014964353525370952,7.31929627450187e-05,0.0
2025/04/09 10:24:47.130950989,1744187087,127009695,piren,0.013494519727974637,-0.06061367672926175,-0.02462790435511959,-4.64269558381392e-06,7.771981228059667e-05,-0.004929602381217633
2025/04/09 10:24:47.184913112,1744187087,182382610,piren,0.012891849802430293,-0.13864401218447936,-0.07044624270437008,0.0016215339246411773,4.5022992923889055e-05,-0.0009211570123339536
2025/04/09 10:24:47.239764594,1744187087,238027692,piren,0.01239196860818712,0.024897257067968342,0.009660205632643906,0.0029054641273779697,-3.1010791794733094e-05,0.0
2025/04/09 10:24:47.269196945,1744187087,267138362,piren,0.011985972426816816,0.11538600946655692,0.03882017464114506,0.0009352319871615418,-6.934012148619771e-05,0.0
2025/04/09 10:24:47.323517268,1744187087,321401231,piren,0.011780580785616876,-0.052126924619302614,-0.02028962551378694,-0.0008131019679152215,-5.828925442642232e-05,-0.004905590003209501
2025/04/09 10:24:47.380747132,1744187087,378822201,piren,0.011461889654634646,-0.13150889621574943,-0.06566497527639442,0.0006038894710554294,-0.00013091223587875705,0.0
2025/04/09 10:24:47.437239197,1744187087,435117066,piren,0.01230205757432183,0.031224377146041763,0.013840571238523044,0.0017343395381865735,-0.0003525580551179368,-0.00495409085658795
2025/04/09 10:24:47.494074480,1744187087,491709050,piren,0.012691278658975532,0.12125279481633458,0.04183674239657419,-0.00034025142721869355,-0.0004798397864585011,-0.0008901594357793624
2025/04/09 10:24:47.523393989,1744187087,521368690,piren,0.01279592751811097,-0.04718659132143738,-0.017608863017626618,-0.002136296405780793,-0.0004995176386216166,0.0
2025/04/09 10:24:47.600504488,1744187087,598694216,piren,0.0129393895703382,-0.12843667538924272,-0.06159862042237064,0.0005660472361446175,-0.0006644239930820383,-0.0011036623251069512
2025/04/09 10:24:47.684983974,1744187087,683291080,piren,0.013862064645957885,0.10902664416279129,0.0391042989574637,-0.0014183951979217808,-0.0006437370708816784,-0.0008902736175003229
2025/04/09 10:24:47.742238195,1744187087,740312010,piren,0.014094630853239053,-0.05444246149134482,-0.019160595288746324,-0.0030536138040130434,-0.0005045270020451095,0.0
2025/04/09 10:24:47.771553737,1744187087,769591769,piren,0.014401214508678959,-0.13132333462787338,-0.06395876403492864,-0.001420250369985737,-0.0004147675682376638,0.0
2025/04/09 10:24:47.827263339,1744187087,825134543,piren,0.014963930756186558,0.03327710936658522,0.016114955608849697,-8.54015120925437e-06,-0.00038573174130278966,-0.004867503825603059
2025/04/09 10:24:47.883834669,1744187087,881906426,piren,0.015241505430913597,0.12523018094668462,0.044130876125913626,-0.0016654719447409098,-0.0002080257219070399,-0.0008666097348572728
2025/04/09 10:24:47.939333906,1744187087,937656933,piren,0.014503556522656096,-0.04254017743180613,-0.015267955526163635,-0.0029968458637800403,0.00013961717740760608,0.0
2025/04/09 10:24:47.968733922,1744187087,966899756,piren,0.01423287568880895,-0.123203971963291,-0.06019417469754853,-0.0010740838129868547,0.00034883209576816844,0.0
2025/04/09 10:24:48.24520211,1744187088,22333919,piren,0.015153329752396548,0.039011027020297746,0.01866287733667192,0.0006351114641220315,0.00038007909082071967,-0.004873676164558649
2025/04/09 10:24:48.80296465,1744187088,78633767,piren,0.015628449686636937,0.1289064080841752,0.045224187712359115,-0.0008155964980652796,0.0005202187239507585,-0.0008800975854483588
2025/04/09 10:24:48.136023123,1744187088,134312067,piren,0.014843893975805038,-0.04026248958478779,-0.014660154655240433,-0.0019686301273556654,0.0007901281532080009,0.0
2025/04/09 10:24:48.192364668,1744187088,190304019,piren,0.01436098044716498,-0.1217097890460386,-0.059728482924965326,9.128885848203898e-05,0.0009323817556437336,-0.0009264078247736352
2025/04/09 10:24:48.222829063,1744187088,219903669,piren,0.014411320182506807,0.04009747059403506,0.018875130776317604,0.0018780001841189806,0.0009680029796564742,0.0
2025/04/09 10:24:48.277832172,1744187088,275970490,piren,0.01441625477967511,0.12978818932827238,0.045200466221232076,0.0004544175071610507,0.0009865368766655536,0.0
2025/04/09 10:24:48.336282905,1744187088,333141320,piren,0.014059787070647596,-0.039403770845851116,-0.014716322047612366,-0.0007262354371303305,0.0009934464699958526,-0.00478820072032118
2025/04/09 10:24:48.366606325,1744187088,364531464,piren,0.013687538077536244,-0.1211486188297466,-0.059826469245811274,0.0012504609949676726,0.0009033131111581776,0.0
2025/04/09 10:24:48.428572595,1744187088,424119687,piren,0.01362964788832201,0.040352809159911775,0.018651707194587294,0.0029016368943538735,0.0007079271176817177,-0.004478863651102006
2025/04/09 10:24:48.485145475,1744187088,482919241,piren,0.013299404537206589,0.1297802637115772,0.04494730314648276,0.001266891657476104,0.0005141422267922971,-0.0008859591876661676
2025/04/09 10:24:48.543439187,1744187088,541450924,piren,0.01255879931860538,-0.0392153771433054,-0.014830662396460243,-0.0001109885058407012,0.0003408854697314629,0.0
2025/04/09 10:24:48.576476698,1744187088,572317675,piren,0.011963845935175667,-0.12085559492341685,-0.059774426705211506,0.0016316468135766577,8.9712155313815e-05,0.0
2025/04/09 10:24:48.634774702,1744187088,631270673,piren,0.012122541747438686,0.04046417701552011,0.01860624454005252,0.0029624130616584653,-0.00024529140634555727,-0.004432906163326259
2025/04/09 10:24:48.692696821,1744187088,690378678,piren,0.011941763447541356,0.12491089868811046,0.04364674010140577,0.001139764045697606,-0.0005013068426381133,-0.00084896156834492
2025/04/09 10:24:48.724906479,1744187088,720922806,piren,0.011038124216842624,-0.04278286252571028,-0.01569910929928757,-0.0004923646402572013,-0.0006399369217654354,0.0
2025/04/09 10:24:48.780744650,1744187088,778572072,piren,0.010406260147946312,-0.1235251008548617,-0.06061708855504341,0.0010167312294550805,-0.0008303566232834715,0.0
2025/04/09 10:24:48.837410714,1744187088,835307614,piren,0.011079619547286961,0.03832704231593573,0.018212503042568738,0.002214371204539346,-0.001129601693912569,-0.004446194222096995
2025/04/09 10:24:48.896635474,1744187088,893628519,piren,0.011218797894166759,0.12772999851506625,0.044884878292292145,0.0001822628418442131,-0.001290108925249384,-0.0007901590774916131
2025/04/09 10:24:48.924844053,1744187088,923330076,piren,0.011202548675462734,-0.04075717866863516,-0.014670303361151424,-0.0015270632777438383,-0.0012926165797723062,0.0
2025/04/09 10:24:48.982350322,1744187088,980725498,piren,0.01115669043294398,-0.11765661716843752,-0.05684820132394625,-0.00014455500183841618,-0.0012879169490852918,-0.0008515095703023688
2025/04/09 10:24:49.39074268,1744187089,37335725,piren,0.011477829407516281,0.04170032332827962,0.020646167010113535,0.001007979193652588,-0.0012772298999825962,0.0
2025/04/09 10:24:49.70118772,1744187089,67181343,piren,0.011720283069179244,0.12984958972356375,0.046320908581291516,-0.0010023442918746356,-0.0011247429766311008,0.0
2025/04/09 10:24:49.129102244,1744187089,124690469,piren,0.011913802366414001,-0.040585743505402234,-0.013900730867127429,-0.002698822993151666,-0.0008304658477807131,-0.004312994996737582
2025/04/09 10:24:49.184458700,1744187089,182415967,piren,0.011995132293127292,-0.12333029916078907,-0.05885511517917712,-0.0009955253114870889,-0.0005398320239391576,-0.0008474771631859257
2025/04/09 10:24:49.244564816,1744187089,240718926,piren,0.011919239789860921,0.030246321958903186,0.015664213243694183,0.0007510598869645636,-6.150707451679015e-05,0.0
2025/04/09 10:24:49.273943518,1744187089,271963148,piren,0.01109144345107719,0.11501412391905338,0.040824223270762565,-0.0004281399597910361,0.0004827787057387223,0.0
2025/04/09 10:24:49.334211939,1744187089,329411390,piren,0.010833354372714236,-0.06587401042282866,-0.023112547365265322,-0.0009078170732602686,0.0008139452945130174,-0.0043236911354970495
2025/04/09 10:24:49.389916934,1744187089,388292866,piren,0.014577469987709448,-0.154857936264042,-0.0749623617749706,0.0013955685892885533,0.0010152749007031534,-0.0005827348383532667
2025/04/09 10:24:49.419961731,1744187089,418349029,piren,0.014260165165530676,-0.0005585223861494157,0.0003304872968819695,0.004121939522973792,0.0015149814473742064,0.0
2025/04/09 10:24:49.497411767,1744187089,495269454,piren,0.011433859479461569,0.08031737730345817,0.03418180644189965,0.0042609652395272325,0.00213812501498023,-0.0007872739944137866
2025/04/09 10:24:49.526824059,1744187089,524995796,piren,0.010334653912396118,0.017611078075630577,0.010502603787857348,0.004317536875767082,0.0005907839016211405,0.0
2025/04/09 10:24:49.585716405,1744187089,583832222,piren,0.015235716243605632,-0.13164957658175008,-0.04251803201482314,0.006228296267076918,0.00023313144167711003,0.0009009651805404782
2025/04/09 10:24:49.645446465,1744187089,643369675,piren,0.018848010307536574,-0.22324792314334058,-0.10646169892985431,0.008327014740298639,0.000704839669347096,0.0
2025/04/09 10:24:49.675990002,1744187089,673193475,piren,0.01830308790666292,-0.06493514457240712,-0.030992361159718502,0.007067515585640291,0.0009202731444271031,0.0
2025/04/09 10:24:49.733868201,1744187089,731113730,piren,0.018539555334293353,0.06054699353492715,0.028723886388810127,0.007673020621121505,0.0010891990224382157,0.007494352030593503
2025/04/09 10:24:49.793798478,1744187089,790425363,piren,0.021245831030081385,0.11781292532476884,0.044222179469485104,0.005866654296975341,0.0025118200739797794,0.0012818251050466312
2025/04/09 10:24:49.825766982,1744187089,821505089,piren,0.005171095011211978,-0.019986182062159418,-0.007027958451851308,0.0046871442202373005,0.0036562015811264256,0.0
2025/04/09 10:24:49.882856930,1744187089,880917323,piren,0.009399318852310788,0.005498628611418771,0.006142837816268706,0.003960673543023388,0.003889623768185681,-0.001404711314580551
2025/04/09 10:24:49.941928607,1744187089,939432538,piren,0.02310185070024005,-0.00588556995583391,0.0027214734566488115,0.002638406905396088,0.0035865330270144326,0.0
2025/04/09 10:24:49.974699226,1744187089,971334986,piren,0.030848521033139318,-0.010881497233001887,0.0015282826199787946,0.0016034958340896868,0.003412578366399976,0.0
2025/04/09 10:24:50.34248284,1744187090,32571914,piren,0.032282364813018646,-0.08529290316245618,-0.03112064261106433,0.00010062338402280435,0.0026011270478700143,-0.012030599350678333
2025/04/09 10:24:50.93736489,1744187090,91966068,piren,0.04301324854358614,-0.06422905550352191,-0.020958899579024477,-0.0008324048117391079,0.0013352750698992413,-0.003793013294023758
2025/04/09 10:24:50.127366078,1744187090,123382595,piren,0.05187457269214324,-0.07302849332646091,-0.021161075578019044,-0.004104032535901377,4.048085791818162e-05,0.0
2025/04/09 10:24:50.184682128,1744187090,182768812,piren,0.0596301009839364,-0.15032291924369776,-0.06137664885402234,-0.004243363727776568,-0.0013759047474952324,-0.003929863981030394
2025/04/09 10:24:50.243995310,1744187090,242178864,piren,0.06887735932270347,-0.08913498872734187,-0.039773971530986406,-0.003605943248427344,-0.002603519952871214,0.0
2025/04/09 10:24:50.274423434,1744187090,272301077,piren,0.07495556289692777,0.0486856160618695,0.018262612828878214,-0.006768749461281683,-0.0036446556348969025,0.0
2025/04/09 10:24:50.332298189,1744187090,330737040,piren,0.0811885944346494,-0.07480430020547196,-0.026852917525091828,-0.007383593147180434,-0.004431803754118782,-0.020538174924036857
2025/04/09 10:24:50.391637494,1744187090,389895180,piren,0.08555678147286999,-0.143476459286765,-0.07128432259324036,-0.005973511240814146,-0.0051041339954052845,-0.003848082602074541
2025/04/09 10:24:50.451368072,1744187090,449156380,piren,0.09133140558813298,0.026598140617705806,0.011715748811451107,-0.006003119909539239,-0.005164236083574393,0.0
2025/04/09 10:24:50.481847495,1744187090,480153078,piren,0.09348074427599028,0.13870573889086124,0.057358363580523805,-0.005872961449425925,-0.00478537556658536,0.0
2025/04/09 10:24:50.540604211,1744187090,538661837,piren,0.09814577216706045,0.09226781136633705,0.04861774333644668,-0.005219756551108128,-0.005327151052188956,-0.022354261950694794
2025/04/09 10:24:50.600847103,1744187090,598990004,piren,0.10436896799227115,0.1602237361447018,0.0831984885393765,-0.005042116550869238,-0.0048278791312863075,-0.003742238597119593
2025/04/09 10:24:50.631787206,1744187090,630239059,piren,0.10946029225424024,0.2212430920352461,0.09527191396746812,-0.004258593923930645,-0.0025131084668076095,0.0
2025/04/09 10:24:50.691463465,1744187090,689053057,piren,0.10585129507607173,0.1301377084419498,0.07143219429100844,-0.0019872559178507683,-0.002304042579889604,-0.006107320954489781
2025/04/09 10:24:50.721439695,1744187090,719774912,piren,0.12603412865731234,0.18463277719889706,0.0838119415555943,-0.0018611490539480059,-0.003045996340960624,0.0
2025/04/09 10:24:50.780500339,1744187090,778571328,piren,0.13887928072034306,0.10415343251182067,0.049528711692277586,-0.0004486488418150236,-0.002958948371085553,-0.0026147827184175806
2025/04/09 10:24:50.840630845,1744187090,837068322,piren,0.13662556697379596,0.00977194184125484,0.013346531580864442,0.001830983573003771,-0.0014188341598972757,0.0
2025/04/09 10:24:50.870405449,1744187090,868175872,piren,0.13377377079273006,-0.02896207986095815,-0.001409469649131811,0.0026907729525458292,0.0001922538837538934,0.0
2025/04/09 10:24:50.929842647,1744187090,927168226,piren,0.1321400895619678,-0.07160564976248834,-0.022136232818711334,0.004397732357240006,0.0011055276456135253,-0.006588938489703013
2025/04/09 10:24:50.988025087,1744187090,986169070,piren,0.13071146044566814,-0.012924178868381231,0.004370579935313993,0.00445768950423669,0.002723952629551431,5.1122639849955086e-05
2025/04/09 10:24:51.47119012,1744187091,45182307,piren,0.13044834060424265,-0.14284388065441778,-0.051819689882803284,0.0052408243575794095,0.0047214125254597785,0.0
2025/04/09 10:24:51.77387674,1744187091,75728082,piren,0.13167952217686676,-0.14421235100102173,-0.045397643325132145,0.005480350443090182,0.00572063263574609,0.0
2025/04/09 10:24:51.137332446,1744187091,135375155,piren,0.13336608723589424,-0.21173362294560685,-0.07239646898789595,0.00571602845082048,0.0068881029725739755,-0.00113641039836537
2025/04/09 10:24:51.195900559,1744187091,193897630,piren,0.1360828328068462,-0.24085655703754233,-0.09999997032083055,0.0070474370925754405,0.006985818044841748,-0.0007424876156808291
2025/04/09 10:24:51.228947403,1744187091,225776258,piren,0.1382482766683681,-0.15258169956140838,-0.06109549345293445,0.007059572998316915,0.006648546758625659,0.0
2025/04/09 10:24:51.287310783,1744187091,285456035,piren,0.14083525544121234,-0.09458621816015021,-0.036452740333560406,0.0063433392333372834,0.005939897473588957,-0.0006383531703072847
2025/04/09 10:24:51.347724883,1744187091,345717598,piren,0.14339393118439545,-0.053237620018007026,-0.015995388941297203,0.003720364947751959,0.005672099619514845,0.0
2025/04/09 10:24:51.378450533,1744187091,376334058,piren,0.14687601242473386,-0.11937781490347656,-0.046484663822846745,0.003542700518740552,0.004172678810861218,0.0
2025/04/09 10:24:51.438158804,1744187091,436434064,piren,0.15010575816213415,-0.10674992535236474,-0.04328457680383263,0.002919803767539305,0.002985618877115617,-0.007853671591862031
2025/04/09 10:24:51.487676519,1744187091,485934935,piren,0.15366657871485528,-0.0662827156793095,-0.027025911917016147,0.0013580725525172497,0.0009622641385072376,-0.0024212668842646685
2025/04/09 10:24:51.549065304,1744187091,545814182,piren,0.15681630890566522,-0.017250989828573187,-0.005798884408165271,-0.002310133174469237,-0.001692732955920165,0.0
2025/04/09 10:24:51.580808343,1744187091,578920042,piren,0.16078105154044106,0.01322621425227187,0.006818825823694752,-0.002456315224987667,-0.0034529802931689223,-0.002170122567538379
2025/04/09 10:24:51.641785888,1744187091,639563671,piren,0.16494443858350272,-0.057834145246462174,-0.028920208631274317,-0.0033510342373115408,-0.003799616784028379,0.0
2025/04/09 10:24:51.673271543,1744187091,670781199,piren,0.1698037108675729,0.11592006901949632,0.04629558608662754,-0.005083384104949597,-0.00524115960726426,0.0
2025/04/09 10:24:51.734304761,1744187091,730606823,piren,0.17385508230698035,0.11211336289921524,0.03993382127203335,-0.006488825526150397,-0.007117851020358869,-0.017492447873741532
2025/04/09 10:24:51.792025715,1744187091,790216272,piren,0.17609483204316015,-0.01408174572698557,-0.0064591828593833275,-0.006234993732037002,-0.007663584281551712,-0.0026689006494257
2025/04/09 10:24:51.823280190,1744187091,821552450,piren,0.17891132907437046,0.011453776276994811,0.008465580182382464,-0.0050754796420565745,-0.007747530295257196,0.0
2025/04/09 10:24:51.884496490,1744187091,882057221,piren,0.18197200566693525,0.12635381826742836,0.05677036867948379,-0.0058915930108432496,-0.007376302305712457,-0.0026489453509677347
2025/04/09 10:24:51.943377565,1744187091,941407069,piren,0.1862469939319183,0.10906589429245023,0.059027281623331145,-0.005914879374412246,-0.007167537271252159,0.0
2025/04/09 10:24:51.974451509,1744187091,972521099,piren,0.18945296006634946,0.1875976313064258,0.09570645178353007,-0.006244058839910891,-0.005788288534943473,0.0
2025/04/09 10:24:52.35448218,1744187092,33295998,piren,0.1925949851948344,0.23840215722211217,0.09414670627996263,-0.006639928048424339,-0.003411524880038321,-0.00921856588061009
2025/04/09 10:24:52.94966959,1744187092,92640371,piren,0.19620375292513254,0.08514885565882072,0.040305207600671356,-0.004567741169572132,-0.001666599310067472,-0.0024193423518126577
2025/04/09 10:24:52.126394754,1744187092,124374836,piren,0.1991068138208062,0.03437838321362226,0.019316285507116615,-0.0036361598500926876,-0.0006024848517936891,0.0
2025/04/09 10:24:52.187194933,1744187092,184306738,piren,0.2007557819281887,-0.10135003667761944,-0.037309792481752625,-0.001405646632953262,0.0014432148201689796,-0.001237229182560246
2025/04/09 10:24:52.247124608,1744187092,245470877,piren,0.2032799762320889,-0.07670829937933667,-0.024665437956435957,-0.001151842707386841,0.0031409532093179485,0.0
2025/04/09 10:24:52.278422467,1744187092,276639509,piren,0.20554700345666918,-0.06658727629273181,-0.020454278759870565,0.0008502355870383474,0.00491328380699607,0.0
2025/04/09 10:24:52.342900754,1744187092,338745491,piren,0.2074528080625123,-0.03875845031755541,-0.008985139579530841,0.002524675298458548,0.0069233733037744995,-0.002976204275222957
2025/04/09 10:24:52.372772370,1744187092,371136660,piren,0.210009764507861,-0.001702656633574,0.006265140394992118,0.002895409230407505,0.007826755126037546,0.0
2025/04/09 10:24:52.434519160,1744187092,432335670,piren,0.21193407286444613,-0.04590771510234042,-0.014136982444504906,0.0039893765019195886,0.00879184859424736,-0.00551265492046961
2025/04/09 10:24:52.466254873,1744187092,464427967,piren,0.21563183558519952,-0.010578781435627087,-0.0005326915241884452,0.006542654859451567,0.008548484500449047,0.0
2025/04/09 10:24:52.527949287,1744187092,524784371,piren,0.21772148262038038,0.11165096025869914,0.04448665845351141,0.006781880203330368,0.007794534033312817,-0.009443082180599019
2025/04/09 10:24:52.590483697,1744187092,588225652,piren,0.21883117081608888,0.04615725575851786,0.0190606000932403,0.007108516722814377,0.0065824448212072,-0.0018522245797546015
2025/04/09 10:24:52.622606407,1744187092,620321867,piren,0.21918121272207045,0.02512102811630386,0.010665718199853768,0.007095441677626545,0.005059933527803382,0.0
2025/04/09 10:24:52.682918363,1744187092,681183104,piren,0.21929984952275158,0.022746993418351128,0.008220899026529834,0.004823612958463344,0.0032788417269672596,-0.00168580741522491
2025/04/09 10:24:52.745410673,1744187092,742763334,piren,0.21949020506291855,-0.08233058628886579,-0.043409644399723855,0.006515908537844153,0.0005112309580567596,0.0
2025/04/09 10:24:52.776324025,1744187092,774538687,piren,0.21917131603768142,0.057954250652392986,0.01869058761439716,0.004891989340530092,-0.0013105393282144733,0.0
2025/04/09 10:24:52.838202113,1744187092,836378756,piren,0.21913759666431099,0.03392971664797562,0.013805433883919284,0.004104826345097251,-0.0030597969501214013,-0.003110854257221146
2025/04/09 10:24:52.870038440,1744187092,868477166,piren,0.21955345047278788,0.1384855719285522,0.05403357836353533,0.001625377371434856,-0.004608928330899652,0.0
2025/04/09 10:24:52.931398682,1744187092,929771327,piren,0.22011579360443884,0.09553191639921987,0.037575021239540124,0.0015833618255296656,-0.005869222697663583,-0.0024181847592666234
2025/04/09 10:24:52.994212687,1744187092,991683608,piren,0.22087826176455444,0.0389569854593631,0.0197117366279996,0.0011972090472198444,-0.006828412892756566,-0.00031278216552022426
2025/04/09 10:24:53.29689817,1744187093,23634280,piren,0.22194774894014718,0.11731552682147746,0.04912116448217353,-0.0019957767783597637,-0.007284232014613942,0.0
2025/04/09 10:24:53.87920904,1744187093,85628100,piren,0.22321701553536485,0.0653308125131844,0.03149591768975146,-0.003635171373322654,-0.00800135071591939,7.973981959072004e-05
2025/04/09 10:24:53.148186622,1744187093,146557749,piren,0.2352722715088218,0.03659048601562243,0.01717647453080159,-0.005037395436822519,-0.008175816165472553,0.0
2025/04/09 10:24:53.180490993,1744187093,178431868,piren,0.23283413987421991,-0.1063566745790772,-0.03744056480476249,-0.006154814136258649,-0.00712629953058425,0.0
2025/04/09 10:24:53.244028606,1744187093,242014760,piren,0.2334534524946673,-0.15253596462831778,-0.07193854328361071,-0.0057454862968492285,-0.0054562212297237685,0.008471118514699503
2025/04/09 10:24:53.275698696,1744187093,273798919,piren,0.23622401787371536,0.005927098961480715,0.003952014907467354,-0.00669800055563385,-0.003790323738297826,0.0
2025/04/09 10:24:53.340335781,1744187093,337375675,piren,0.23870359040435696,-0.005898630326297094,0.0020616918878065714,-0.006839468949664257,-0.0019055806057917438,0.008833232904117824
2025/04/09 10:24:53.371219624,1744187093,369645951,piren,0.2420971955061454,0.04487658821175656,0.021052710373908646,-0.007125786360860794,8.715327067423518e-05,0.0
2025/04/09 10:24:53.435363238,1744187093,432537631,piren,0.2448931741481618,-0.09979534523433056,-0.031246306666299243,-0.005914748901882334,0.0026060620045678337,0.009763845464175613
2025/04/09 10:24:53.496238241,1744187093,494224132,piren,0.24902012757440833,-0.1984191503055404,-0.06875430329752193,-0.006017096277451253,0.004243637936820783,0.001119962356637955
2025/04/09 10:24:53.549061784,1744187093,546852809,piren,0.2531046184708939,-0.2431517363248256,-0.08559475189295693,-0.005236599551965136,0.005578178668360582,0.0
2025/04/09 10:24:53.582071888,1744187093,580262297,piren,0.2568849284902192,-0.26047539156784655,-0.09271595728141582,-0.004252711871429627,0.006607292198282479,0.0
2025/04/09 10:24:53.646641240,1744187093,644144172,piren,0.2592194279889416,-0.25692178000444077,-0.09855163350836428,-0.003126348182164994,0.006471629746567903,0.005879912526180674
2025/04/09 10:24:53.678743216,1744187093,676837968,piren,0.26119998333993566,-0.1962985941189944,-0.09653295391265201,-0.00039942394376993605,0.006889686897968148,0.0
2025/04/09 10:24:53.741963028,1744187093,739875098,piren,0.26221044549835404,0.019929596408675244,0.004016206533003524,-0.0005003038613782156,0.00835742193971444,0.010531924336869211
2025/04/09 10:24:53.774653413,1744187093,772290891,piren,0.2555966652904775,-0.05711469480798776,-0.02912793940045675,0.0022831633411435383,0.007913585252594516,0.0
2025/04/09 10:24:53.838397185,1744187093,835973394,piren,0.2609156435442754,0.06917827641803408,0.023418580762794176,0.0018156407425842156,0.0072676574494133835,0.0015437972512883252
2025/04/09 10:24:53.899551747,1744187093,897625555,piren,0.26544390468938456,-0.01982396432532563,-0.01065140690623032,0.004372320080486871,0.005440840627215576,-0.0012155581373947037
2025/04/09 10:24:53.932875007,1744187093,930509753,piren,0.267631450322702,0.023558839453046175,0.011262489654592554,0.006704614794933196,0.00329111359460602,0.0
2025/04/09 10:24:53.994574153,1744187093,992508286,piren,0.2686567419791122,0.13574353176389345,0.06030201019182691,0.006679227595883413,0.0009792002640561942,-0.001683149039880403
2025/04/09 10:24:54.28648486,1744187094,25138523,piren,0.2706472608400255,0.16849407168228522,0.06675447443143864,0.0060300363395016324,-0.0019171892785615785,0.0
2025/04/09 10:24:54.90555194,1744187094,88042987,piren,0.269995527495802,0.09215882469510013,0.03644482042204865,0.005156200910203327,-0.003935481708033635,-0.0011181856255920884
2025/04/09 10:24:54.122241982,1744187094,120533573,piren,0.268473266329169,0.012977849629849644,0.007356212602630643,0.00709607126412824,-0.005665322471308872,0.0
2025/04/09 10:24:54.185441426,1744187094,183536038,piren,0.26651593750324665,0.052635271953327276,0.022095329561196177,0.004602483690591876,-0.0070206511434327675,-0.0010885732555465921
2025/04/09 10:24:54.220237206,1744187094,217733612,piren,0.2647763625896567,-0.046716359181610725,-0.01908304010359185,0.0047603222564896585,-0.009109932024121485,0.0
2025/04/09 10:24:54.284670552,1744187094,281343785,piren,0.26598548234400665,0.04382093489511326,0.02282781269179831,0.003969725285159749,-0.009433715615902488,0.00025808990668921907
2025/04/09 10:24:54.346772396,1744187094,345135336,piren,0.2625818197293094,0.09405312808356298,0.0446547163069786,0.002104484272953156,-0.008365769051467657,0.0
2025/04/09 10:24:54.380304301,1744187094,378056734,piren,0.2609212392284249,0.08150416258395597,0.04461710722199145,0.001199830181166821,-0.007613124915437119,0.0
2025/04/09 10:24:54.444409991,1744187094,442749540,piren,0.2599367901285212,0.13108373407999874,0.07037538364391058,0.0013888245971818325,-0.006169778985630855,-0.00133493584124468
2025/04/09 10:24:54.476973548,1744187094,475453781,piren,0.2600716573925633,0.19659742578218614,0.08735338952331878,-0.0013596862240345287,-0.004672542498033913,0.0
2025/04/09 10:24:54.542365779,1744187094,540054241,piren,0.26084070869323805,0.12322344742896282,0.0668832330333139,-0.0014166761029461882,-0.003672351536464369,-0.0032522815757714697
2025/04/09 10:24:54.576552027,1744187094,574798478,piren,0.2612791575211258,0.18067933112785514,0.07932095339165984,-0.003113391994244712,-0.0016045972491413295,0.0
2025/04/09 10:24:54.642058064,1744187094,639898412,piren,0.26286242751007055,0.09665733715245511,0.03927932313225,-0.0041604216997824925,0.0005483568782939214,0.0012725783800362005
2025/04/09 10:24:54.675984043,1744187094,672756629,piren,0.2653170399027389,-0.08339685894453655,-0.026108741848941176,-0.004865453364854087,0.002630114907274355,0.0
2025/04/09 10:24:54.738950320,1744187094,736924755,piren,0.26816935301837996,-0.19143919405101614,-0.0777260200866535,-0.005544614101310016,0.003846894710043025,0.0022986139482364435
2025/04/09 10:24:54.801030313,1744187094,799306967,piren,0.2711703352225681,-0.15596486174211752,-0.05088019897076719,-0.005791543740852699,0.005642671863739344,0.0015890575828193109
2025/04/09 10:24:54.835310345,1744187094,833377292,piren,0.27452364524990663,-0.22222171339142077,-0.09255636350153859,-0.0056063665719155,0.007119405191130825,0.0
2025/04/09 10:24:54.899846691,1744187094,897023797,piren,0.2778734928884617,-0.13959563726804095,-0.0674600271916932,-0.004782793690827935,0.0087658750459837,0.0022640361756899184
2025/04/09 10:24:54.934324786,1744187094,930278344,piren,0.2741266021033304,0.024755366803416883,0.0091095655616822,-0.004296674135704815,0.010758821478229761,0.0
2025/04/09 10:24:54.996319108,1744187094,994494486,piren,0.27610698252046545,0.05518106586221308,0.024007900821999887,-0.004858787003570274,0.01063707583000359,-0.00017205728773871587
2025/04/09 10:24:55.32767250,1744187095,30695165,piren,0.28719952972867024,0.05016887387908931,0.018954034272587992,-0.00407963277807312,0.010165973046728364,0.0
2025/04/09 10:24:55.96740409,1744187095,95087838,piren,0.2963176263765235,-0.07235739492716826,-0.03321802594102452,-0.003116732707498943,0.008397009296030216,-0.001420150066465887
2025/04/09 10:24:55.130229901,1744187095,128259025,piren,0.30206344413954567,-0.027253082677524697,-0.012815495162619116,-0.0019072987158830343,0.006155204288723435,0.0
2025/04/09 10:24:55.194410440,1744187095,192505447,piren,0.30595117133279953,0.0027602903554219405,0.0006541866678448783,-0.000775854838093926,0.0035814296586473768,-0.0016188394811045977
2025/04/09 10:24:55.228584636,1744187095,226780636,piren,0.3074398227087465,0.06971127217827662,0.02521574628896799,-0.00014155211558278139,-0.0008216389580392226,0.0
2025/04/09 10:24:55.293307324,1744187095,290701595,piren,0.3161876003361061,-0.04772331811307459,-0.022313625930002277,0.0018273328818479255,-0.0035089834809606756,0.0003135136410112901
2025/04/09 10:24:55.328912441,1744187095,325277827,piren,0.3104025189009167,-0.06146240513716465,-0.029373160241462762,0.0036946266089835215,-0.0050308617797024625,0.0
2025/04/09 10:24:55.393148957,1744187095,389787033,piren,0.3060556263237647,0.01303656730458203,0.005818010744969836,0.005104302604141228,-0.007007582776250708,1.2032502378671354e-05
2025/04/09 10:24:55.427244876,1744187095,424277684,piren,0.3022504872122625,0.12796292557212316,0.060445039267461316,0.005565658851147208,-0.008512311602223441,0.0
2025/04/09 10:24:55.490884752,1744187095,489051618,piren,0.29848955503539126,0.20434931373563126,0.08464307325617229,0.004171515323803058,-0.009496326872580748,-3.2352505914656074e-06
2025/04/09 10:24:55.525172218,1744187095,522656547,piren,0.2945497891503028,0.15019371254520733,0.054544177285325554,0.004180152521665541,-0.009896769991140999,0.0
2025/04/09 10:24:55.591879829,1744187095,588676753,piren,0.29079287624897204,-0.0113451954735857,-0.003124591854430556,0.005641684583343032,-0.009735850345143106,2.710199537273563e-05
2025/04/09 10:24:55.625464269,1744187095,623361783,piren,0.28734121129138324,-0.132598262767535,-0.05394839493586367,0.006974884297956358,-0.00970783891582179,0.0
2025/04/09 10:24:55.708896917,1744187095,706697388,piren,0.2838370916063167,-0.1070428934288355,-0.048600368551277695,0.004581283334103257,-0.0061960278083268054,0.001044735139711152
2025/04/09 10:24:55.803335957,1744187095,801273072,piren,0.28030653002277245,0.1369649715585884,0.06597134000731415,0.0033031797862961305,-0.003852336192128614,0.0015464684959139825
2025/04/09 10:24:55.839178715,1744187095,836257752,piren,0.28012492220672136,0.1471736778911195,0.07522293980580397,0.0029799922078696723,0.00016842619434053648,0.0
2025/04/09 10:24:55.871826151,1744187095,869690417,piren,0.2744424180072924,0.19104745375659468,0.08358284318558076,0.0012891516598584583,0.002627855520290509,0.0
2025/04/09 10:24:55.936300578,1744187095,934606413,piren,0.28184219751992745,0.09776365343749417,0.047587459165783046,3.464849018457199e-05,0.004630608805400522,-0.00047425866060663
2025/04/09 10:24:55.971168768,1744187095,968842166,piren,0.28801203628836897,0.036307081448306716,0.020803256264439556,-0.0020653862322044065,0.006308333620866749,0.0
2025/04/09 10:24:56.35752273,1744187096,33378956,piren,0.29364275926201183,-0.11195283255919827,-0.04092027329354749,-0.0029432266308616712,0.00584077763022181,-0.0029079298136572545
2025/04/09 10:24:56.100432831,1744187096,98412561,piren,0.30820410032176954,-0.0843765182129737,-0.03520476933944523,-0.0026451756267327066,0.00605040005199369,0.001808498238468723
2025/04/09 10:24:56.134637422,1744187096,132513432,piren,0.30576698254390444,0.03278837963518077,0.01387615664443709,-0.005482663310376064,0.007032258852789367,0.0
2025/04/09 10:24:56.201249897,1744187096,199136803,piren,0.3053823921053237,-0.10908379051091072,-0.03877433038532668,-0.006332373426076941,0.007579250042686969,0.003255625268055266
2025/04/09 10:24:56.235357213,1744187096,233286036,piren,0.30633639925371436,-0.19269066119982933,-0.06850828656006498,-0.005819102567313274,0.008211382165453394,0.0
2025/04/09 10:24:56.300411222,1744187096,298674303,piren,0.309136684347249,-0.25023870410569093,-0.09215020479410511,-0.006689888804784075,0.007679083170660043,0.002702053352915426
2025/04/09 10:24:56.335599385,1744187096,333786626,piren,0.3118941360483299,-0.2659627583052672,-0.09968303515281807,-0.0071856631616029785,0.007201866069640313,0.0
2025/04/09 10:24:56.401070265,1744187096,398932668,piren,0.31548353259308254,-0.24452367714579415,-0.12597084554463514,-0.00510123610540348,0.005655599098503929,0.0019814747172713473
2025/04/09 10:24:56.435548291,1744187096,433698721,piren,0.3178925808966896,-0.020011136313494896,-0.013669942812257148,-0.0046532492893630135,0.0037834058309232817,0.0
2025/04/09 10:24:56.501894644,1744187096,499939395,piren,0.320223451047157,-0.055151836564172455,-0.023626425312690727,-0.0056108742973392705,0.0017337209780919009,0.0018658829991065008
2025/04/09 10:24:56.538224196,1744187096,535530765,piren,0.3218948187111056,-0.10469764085588287,-0.04135409564119128,-0.0047917837213882035,0.0001347798715911878,0.0
2025/04/09 10:24:56.604832339,1744187096,603038858,piren,0.3237041553065482,-0.12612178921120912,-0.05643298748031303,-0.0021406187646944245,-0.0021246657053223656,0.0007406966213279237
2025/04/09 10:24:56.639160997,1744187096,637317875,piren,0.3242982694845275,-0.03787041199755098,-0.015358706044347359,-3.1379084476306435e-05,-0.0036889463825675725,0.0
2025/04/09 10:24:56.705872788,1744187096,703538132,piren,0.32502494323200026,0.009214123510247925,0.006999442738919963,0.0006814905892446319,-0.00574104715993932,-0.0004755093463082154
2025/04/09 10:24:56.739537402,1744187096,737871619,piren,0.32449806464389197,0.07611083749668057,0.036681469974587544,0.0012387359379987016,-0.008075859419873708,0.0
2025/04/09 10:24:56.805319379,1744187096,803576504,piren,0.3221792903754647,0.09577698687288778,0.04107615068483663,0.001769215790759079,-0.00900999151298991,0.0002544913367239032
2025/04/09 10:24:56.840810827,1744187096,838930510,piren,0.3194733986024142,0.009314323126149287,0.008440275272234964,0.003473839886571901,-0.00946703188022326,0.0
2025/04/09 10:24:56.906793382,1744187096,904520390,piren,0.31709869199851703,-0.05435678115288763,-0.017895383053027264,0.005603713733853758,-0.009350360176469747,1.453504306482793e-05
2025/04/09 10:24:56.941223498,1744187096,939474178,piren,0.31450020976771387,-0.015386960545905395,-0.0005093971108423126,0.007158725882722652,-0.009358541421685396,0.0
2025/04/09 10:24:56.975316897,1744187096,973435887,piren,0.3138872095499886,0.11143151452270429,0.06079863968768017,0.005970889943951168,-0.008004020524429783,0.0
2025/04/09 10:24:57.41656030,1744187097,39743307,piren,0.31328327173194886,0.21148438099962674,0.09670129808993126,0.004487130186064088,-0.006081003959613405,0.004070813943949578
2025/04/09 10:24:57.76991149,1744187097,74821069,piren,0.31209415171126564,0.1874804987458872,0.07333928549489534,0.003885776253050176,-0.003849220720607156,0.0
2025/04/09 10:24:57.141963167,1744187097,140476158,piren,0.3106860435611812,0.025641528547340732,0.016089555886212345,0.004903201808604496,-0.0009050588445274433,0.0048817189917201
2025/04/09 10:24:57.178514237,1744187097,176004824,piren,0.3108456914420817,0.013372658390992569,0.013113940991990288,0.004887445037903436,0.0013553144797481375,0.0
2025/04/09 10:24:57.244875420,1744187097,243083223,piren,0.3106623367996622,0.0012751286501011497,0.009338623660094603,0.00490555667747828,0.002856155528088978,0.00021595738293476066
2025/04/09 10:24:57.279728642,1744187097,278067061,piren,0.3104878282272105,0.11028231917858845,0.04370159175924366,0.002170723799065862,0.005004540883560268,0.0
2025/04/09 10:24:57.348003288,1744187097,346385699,piren,0.3105669396288931,-0.045001298203822544,-0.01479250656101089,0.0014188957324398164,0.006123159912789306,0.004964845324184665
2025/04/09 10:24:57.383598322,1744187097,380943149,piren,0.3112250478976219,-0.096551381829894,-0.038581254881296594,-0.0002939723018253023,0.007730968142554141,0.0
2025/04/09 10:24:57.451547635,1744187097,449935464,piren,0.3119300437673873,-0.04982328689583521,-0.019258955336940328,5.574401219514046e-05,0.009816597989206723,0.010882376690907511
2025/04/09 10:24:57.486976166,1744187097,484931615,piren,0.31156561470142535,0.017178536448777572,0.010568181544586532,-0.0031261345447919668,0.010258800475826425,0.001104631655309478
2025/04/09 10:24:57.555483655,1744187097,553235638,piren,0.3170140612929353,0.03460794307730847,0.014918828665140547,-0.004047402465704738,0.009158709678953644,0.0
2025/04/09 10:24:57.590392430,1744187097,588546766,piren,0.3212153593297825,-0.07648777700446854,-0.03613562796207834,-0.004772545141959852,0.008461764185807602,0.0019255671160804467
2025/04/09 10:24:57.658972343,1744187097,656338353,piren,0.3281545234611561,0.017502828309679835,0.0043860144663211385,-0.006646859838185083,0.006058967321594964,0.0
2025/04/09 10:24:57.726528208,1744187097,723676154,piren,0.33403078083010596,-0.06988821884224818,-0.03862344449095115,-0.004944116986698661,0.0039588888213829615,0.006045055629622454
2025/04/09 10:24:57.792917915,1744187097,791013246,piren,0.33918965909238086,0.08062791848254726,0.021967370303677798,-0.005967154206778793,0.0016843728355208744,0.0015555093100462502
2025/04/09 10:24:57.828268580,1744187097,826472548,piren,0.3432526199354929,-0.04508457768245028,-0.02363291535825429,-0.005948597173785619,-0.00010307010427764059,0.0
2025/04/09 10:24:57.895681998,1744187097,893657283,piren,0.3464675005280596,-0.10513280655035766,-0.05903679676339768,-0.0037203507963355586,-0.0025508006552741372,0.0008424171563255069
2025/04/09 10:24:57.949915389,1744187097,947959979,piren,0.34783758551020466,0.0639799295914546,0.015366828992411041,-0.0044544557436684545,-0.004803947341858984,0.0
2025/04/09 10:24:57.985047654,1744187097,983033299,piren,0.3484180610561478,-0.04667856396347779,-0.029592117222644432,-0.0018935515426244294,-0.006746214498673635,0.0007358551782457164
2025/04/09 10:24:58.53684676,1744187098,50954111,piren,0.34799024202147283,0.10083089230688841,0.03000403487283136,-0.002481639301618665,-0.008798969137729847,0.0
2025/04/09 10:24:58.88210197,1744187098,86571792,piren,0.34633813610119685,-0.02775195593407488,-0.017732097500619014,0.0002526954501677745,-0.009607798409735323,0.0015675871053963564
2025/04/09 10:24:58.124936153,1744187098,121712829,piren,0.3449308619747929,0.10887211029899689,0.03592443395613091,-0.00011948448487554137,-0.00918254336687214,0.0
2025/04/09 10:24:58.193586605,1744187098,190785741,piren,0.3440592072216462,-0.02862473157118764,-0.01482416288402575,0.0027091314041544083,-0.009042741883388349,0.0007584931717318635
2025/04/09 10:24:58.229773855,1744187098,225666956,piren,0.3426581222615279,0.09984628521454039,0.04131738783928518,0.0026175678828142335,-0.008262592867794885,0.0
2025/04/09 10:24:58.297131704,1744187098,294958833,piren,0.3407314388460039,0.050786495621578394,0.025651810596739304,0.003079356126340695,-0.007065110960037509,0.0008338998236138558
2025/04/09 10:24:58.333005463,1744187098,330847181,piren,0.3388204395319212,-0.002646756670309085,0.007299147761132085,0.00419859617794103,-0.006185536857779497,0.0
2025/04/09 10:24:58.400682497,1744187098,398506589,piren,0.3363350150028068,0.009558315957487606,0.014738341599633938,0.0046415027232644505,-0.004093567296054301,0.0018140769109224314
2025/04/09 10:24:58.436095849,1744187098,434272201,piren,0.334812712139755,0.007724321829814073,0.01621284226618772,0.0052225846494855874,-0.0012365041805489378,0.0
2025/04/09 10:24:58.504942828,1744187098,502195908,piren,0.33463441710394837,0.12779655478078725,0.054427624301441824,0.00359669705955334,0.0009719086751040782,0.0012214922556763276
2025/04/09 10:24:58.541031770,1744187098,539222329,piren,0.3339890651512945,-0.010378959002625596,0.0027939816666551574,0.003680269507452241,0.0023136182263124453,0.0
2025/04/09 10:24:58.576737462,1744187098,574667128,piren,0.333234808873198,-0.05360305704808545,-0.01516617095355292,0.004808738720455068,0.004655228965953319,0.0
2025/04/09 10:24:58.646798667,1744187098,644322986,piren,0.3322106529904019,-0.040556363311037416,-0.010762093315273023,0.005800474385978678,0.0066075932808337245,0.011897032789122236
2025/04/09 10:24:58.682664670,1744187098,680138657,piren,0.3365942611375495,0.06888557682481154,0.0341863751957008,0.003473840400486297,0.007924387924318627,0.002023562214762196
2025/04/09 10:24:58.751591233,1744187098,749329293,piren,0.34088584920366233,0.03619953933654848,0.02060150292974609,0.000642567111286059,0.008948440871150912,0.0
2025/04/09 10:24:58.820414371,1744187098,817778756,piren,0.34387103611503916,0.026237076375107256,0.015938067630385546,-0.0009727934001141465,0.0093918650186344,0.013248255262188676
2025/04/09 10:24:58.888467280,1744187098,886682160,piren,0.3483695871004338,0.027233504892377157,0.015278678121158283,-0.0021880258360832995,0.00853933520371422,0.0017935286886040542
2025/04/09 10:24:58.923689350,1744187098,921875128,piren,0.35152536089769215,0.029396999671101265,0.0146928815118071,-0.001946167160991995,0.006846281536160483,0.0
2025/04/09 10:24:58.994136564,1744187098,991834040,piren,0.35420313145067506,0.013020470155218173,0.005776700593584151,-0.0029292849291643656,0.005184031058431674,0.0020748378508522905
2025/04/09 10:24:59.31289135,1744187099,27223849,piren,0.3556229837426722,-0.11214798725809456,-0.0575625047014723,-0.0016566661668187082,0.0029548030593293095,0.0
2025/04/09 10:24:59.98234808,1744187099,96427237,piren,0.35683338427540706,0.016753985571658504,0.0028286011295896142,-0.0037967443867612145,0.0009015817774765049,0.002672682515624669
2025/04/09 10:24:59.134285550,1744187099,132339475,piren,0.3586123708986114,0.11878377248755663,0.05118278690609985,-0.004729742908910358,-0.0012563648897563507,0.0
2025/04/09 10:24:59.206132007,1744187099,201561094,piren,0.3600156272601634,0.18356057168496548,0.08126019388028599,-0.004383273428249201,-0.003226903439396798,0.002983525767926937
2025/04/09 10:24:59.239395868,1744187099,237714637,piren,0.3614691123491692,0.2164349108970503,0.07803763045106635,-0.00580730848432678,-0.005098079569602633,0.0
2025/04/09 10:24:59.275557286,1744187099,273304519,piren,0.36231930757793573,0.07672032703954029,0.033809877268404974,-0.004402767331138529,-0.006527688696709149,0.0
2025/04/09 10:24:59.346212767,1744187099,343447052,piren,0.36255442565743323,0.13516252474029877,0.04350136026193357,-0.005363694775200649,-0.007656077721100559,0.017244207978863745
2025/04/09 10:24:59.381400517,1744187099,379220661,piren,0.3627436669578101,-0.06164635995544818,-0.029409861839844585,-0.0045755165672282634,-0.008225293441052235,0.0
2025/04/09 10:24:59.451992747,1744187099,449270971,piren,0.36538637309431066,-0.06658587031843953,-0.03057343157343318,-0.002424642640469406,-0.008779473015130572,0.018557096247855676
2025/04/09 10:24:59.522682208,1744187099,519683567,piren,0.3677221187414428,0.041923857640746236,0.019040094319132873,-0.002227893769971138,-0.007660329367791457,0.02380893847526795
2025/04/09 10:24:59.594445616,1744187099,591968785,piren,0.36730724457850894,-0.0017859605814188376,0.004942149098152301,-0.0019069668628006985,-0.006135271646662715,0.005103004344091871
2025/04/09 10:24:59.629488541,1744187099,627602172,piren,0.3665706647352585,-0.020444747698566045,-0.001166168393401992,-5.6592446911445605e-05,-0.004294911133664308,0.0
2025/04/09 10:24:59.700919857,1744187099,697382981,piren,0.3659452148515278,0.0560348090071649,0.03036860377247911,0.0012234474455922362,-0.002332594681498203,0.00511405623682191
2025/04/09 10:24:59.736245991,1744187099,733474419,piren,0.3638153372853603,0.003578246261658369,0.010532903507286511,0.0006554727506942561,-0.0007684699090750067,0.0
2025/04/09 10:24:59.771150764,1744187099,769321406,piren,0.3644416359811668,-0.12602620830998656,-0.055789032887515105,0.0030286754384981924,0.0013215954646308057,0.0
2025/04/09 10:24:59.842980322,1744187099,840191391,piren,0.360068394739774,0.010465044465191696,0.008219381919686828,0.004064893636720119,0.00336788278978981,0.03072910835781459
2025/04/09 10:24:59.878729159,1744187099,876161164,piren,0.3581221518048081,-0.004572713220517441,0.003942871283620406,0.00323555089305739,0.005176299815698585,0.0
2025/04/09 10:24:59.948351605,1744187099,946233769,piren,0.35495805580441864,-0.012905488811977124,0.0016168675512463016,0.003977455224144481,0.0060395631559141535,0.03149078359031594
2025/04/09 10:24:59.984560557,1744187099,982602419,piren,0.35703213542584794,0.04392533232334485,0.024113774109173345,0.003334811097813302,0.007141027744606481,0.006789227236549628
2025/04/09 10:25:00.56339991,1744187100,53606294,piren,0.3535653480853991,0.023995961086197996,0.013882897302436914,0.0033880882853806167,0.009315203578735966,0.0
2025/04/09 10:25:00.94161518,1744187100,92468745,piren,0.34004198538212743,0.011329131694307859,0.008691692925921809,0.002830546949893642,0.009584965778913334,0.005245534289111588
2025/04/09 10:25:00.130976320,1744187100,128510406,piren,0.3427909313207649,-0.1109999052433536,-0.045021043011172476,0.0038303882266675425,0.008283991601802546,0.0
2025/04/09 10:25:00.202709699,1744187100,200374179,piren,0.34807056050772345,-0.0815311918397254,-0.03747084759870162,0.004957858853185914,0.006592000108604575,0.005494391362340147
2025/04/09 10:25:00.239096461,1744187100,236665747,piren,0.3502773575343289,0.0372698766142978,0.014045720002711565,0.0026831314640126344,0.004134985454708708,0.0
2025/04/09 10:25:00.298433933,1744187100,294066906,piren,0.3497967144560436,0.010638425717782014,0.003312423016952383,0.0008575188645224311,0.00256429617720065,0.007640223221681652
2025/04/09 10:25:00.333457558,1744187100,331310899,piren,0.3445012734591657,-0.004773235757554636,-0.002388330751745437,0.0004535322154283055,0.0009710345261382887,0.0
2025/04/09 10:25:00.404866631,1744187100,402502000,piren,0.3408014937830636,-0.010683081411224855,-0.004504020667927331,0.0006534802178466982,-0.0006996498014714646,0.00782345072475897
2025/04/09 10:25:00.442325807,1744187100,439605212,piren,0.3380089644218409,0.015471993930563487,0.006455955867356146,-0.0019477377954675603,-0.0015420971099534928,0.0
2025/04/09 10:25:00.478123928,1744187100,476209657,piren,0.3361159176787238,-0.03604693121640315,-0.013752886029554028,-0.002378068177215468,-0.003190624554060695,0.0
2025/04/09 10:25:00.551795232,1744187100,548815293,piren,0.33432512392145525,-0.06982861563536451,-0.027884644053560198,-0.002961443710611575,-0.005146329767517846,0.0366415932148035
2025/04/09 10:25:00.588532740,1744187100,586721339,piren,0.33631399589942695,-0.049056094415299296,-0.018012388747700312,-0.0033435974772486137,-0.0067373627546528,0.007296741896490267
2025/04/09 10:25:00.658906366,1744187100,657206693,piren,0.3367196673976898,-0.03569103776807113,-0.01459631759592378,-0.004241728852707404,-0.00761233901600638,0.0
2025/04/09 10:25:00.730349405,1744187100,728478551,piren,0.3307577532150266,0.092170277603251,0.039889317558236125,-0.004004272678034231,-0.007256593318924303,0.04285200846166422
2025/04/09 10:25:00.802553291,1744187100,800222676,piren,0.3275845443907838,0.08248887015944413,0.03128637643214353,-0.005454500015646875,-0.006512377433018271,0.007947436560701543
2025/04/09 10:25:00.838675070,1744187100,836946251,piren,0.32579304994020997,-0.06580830019186469,-0.023352159014793233,-0.0046498101883799955,-0.005568766091345057,0.0
2025/04/09 10:25:00.910859997,1744187100,907759363,piren,0.32400409033474625,-0.13566261561930845,-0.06005952128236548,-0.003446300639758194,-0.004149788934039413,0.007896404544783372
2025/04/09 10:25:00.946878462,1744187100,945042926,piren,0.31998951128794234,-0.04473972430494891,-0.016667398426305838,-0.0018964934763740424,-0.0028714641278416446,0.0
2025/04/09 10:25:00.983784546,1744187100,981851045,piren,0.3223104549622277,0.01759127517220872,0.012561177772928863,-0.0027602345009715337,-0.0015542799775735596,0.009742079714076111
2025/04/09 10:25:01.22169579,1744187101,18503361,piren,0.3246215697534139,0.01685337182393378,0.014654692029978905,-0.0023231739684635975,-0.000982163114331859,0.0
2025/04/09 10:25:01.92499150,1744187101,90555924,piren,0.33010395034633494,0.01720147361602852,0.013674678012542598,-0.0012270716545337969,0.0007012967715790626,0.010129672249019924
2025/04/09 10:25:01.130334088,1744187101,127408291,piren,0.3216656877523097,0.01028853345065034,0.009461095181453152,-0.00037981962434998875,0.0033727760055898013,0.0
2025/04/09 10:25:01.203789197,1744187101,200277210,piren,0.30604725708602604,0.006640814217086689,0.010278183884035924,0.002322205491011851,0.006863129196535174,0.009164705021554845
2025/04/09 10:25:01.277222068,1744187101,274832311,piren,0.30994621991816956,0.08512967936263356,0.044346795378674884,0.0023084870607911127,0.007536357427936282,0.0
2025/04/09 10:25:01.351345773,1744187101,349687248,piren,0.30360140620288056,0.1482763158995968,0.06283921814450438,0.002942522414795841,0.007416871593003913,0.04477776197590796
2025/04/09 10:25:01.391209597,1744187101,388851337,piren,0.30141961239255183,0.08946612188895933,0.037567577248549144,0.005300329710002174,0.0067466488715286245,0.009116426046318644
2025/04/09 10:25:01.465702096,1744187101,462861141,piren,0.3007735341093617,0.02591258297268332,0.009826509215144922,0.002033984035391196,0.004979761217260205,0.0
2025/04/09 10:25:01.540154053,1744187101,537972291,piren,0.2866715597416126,-0.14858414655118798,-0.07613124893325883,0.005713495566494448,0.0037929766053579157,0.04775754683662011
2025/04/09 10:25:01.578709357,1744187101,576975835,piren,0.28390445818026816,-0.00019914226385420349,-0.006055456521550804,0.0027941612311002152,0.0026477535022200256,0.0
2025/04/09 10:25:01.653061430,1744187101,650950816,piren,0.2770555374042094,-0.06497281308465483,-0.03600376012151303,0.004463405273507592,5.52686294378724e-05,0.0533842955794239
2025/04/09 10:25:01.727297198,1744187101,724282532,piren,0.27296403393755714,0.06013081137982444,0.01531670620556245,0.0021079283514736677,-0.0016877095893299897,0.047868663577500734
2025/04/09 10:25:01.800420223,1744187101,797094469,piren,0.2701074636358699,-0.08054395998295544,-0.040465456374688846,0.0016958683283858785,-0.002987700496124761,0.00944008953467272
2025/04/09 10:25:01.836192671,1744187101,834167957,piren,0.26732749011108903,-0.0538311022534474,-0.025687490659144423,0.00020975520800055024,-0.004112051464949125,0.0
2025/04/09 10:25:01.873284038,1744187101,871387487,piren,0.26445837183141213,-0.02652371542374951,-0.01322575193703039,6.226508253254052e-05,-0.004979198446078487,0.0
2025/04/09 10:25:01.945935858,1744187101,943462432,piren,0.258991462207171,0.09924047811445537,0.04444838842771896,-0.00042767225981903996,-0.005563711706750353,0.04768449916524327
2025/04/09 10:25:01.983772751,1744187101,981789544,piren,0.2559532860714331,0.1429832045843368,0.06255653424092274,-0.0006693423857835148,-0.005797439526459695,0.008902947422041856
2025/04/09 10:25:02.56181782,1744187102,54505583,piren,0.2537166117012566,0.116314164750846,0.05038453751695274,-0.0029532510788450443,-0.005465985670386353,0.0
2025/04/09 10:25:02.129007190,1744187102,126046134,piren,0.24814643075170043,0.04902905402497164,0.023830102157799286,-0.00288172417319882,-0.004983392460855837,0.044784710359542824
2025/04/09 10:25:02.201395958,1744187102,199503942,piren,0.2453160349067496,-0.032487968634118874,-0.007813137850053586,-0.004341029333398544,-0.0038759786489953344,0.0084287929219033
2025/04/09 10:25:02.238979412,1744187102,236932265,piren,0.24311467757735664,-0.039097782303824505,-0.012129953431885136,-0.0042425382768596824,-0.0024150334720956642,0.0
2025/04/09 10:25:02.278218424,1744187102,275373272,piren,0.24074143393385283,0.07482183024597558,0.034227273455162514,-0.0044125426105077505,-0.0008989199071976003,0.0
2025/04/09 10:25:02.350426605,1744187102,348466795,piren,0.236237495506526,0.019021217324859587,0.012848829019847326,-0.003475065938726073,0.000601736130360118,0.032947854544834405
2025/04/09 10:25:02.389301793,1744187102,386803765,piren,0.23396619960961137,-0.01746580611220109,-0.0012167265304195282,-0.002882193882995354,0.0020132091362986865,0.0
2025/04/09 10:25:02.462240437,1744187102,460446667,piren,0.23012603863866296,-0.04006333073756439,-0.010183089644817532,-0.0006626971536447407,0.0036192917784011575,0.03882757862924763
2025/04/09 10:25:02.538556846,1744187102,536178910,piren,0.2288398182512712,-0.06343099055165005,-0.020772609936322455,-0.0008202760306765524,0.004781753065515798,0.04095805493578386
2025/04/09 10:25:02.577890797,1744187102,575155608,piren,0.22833725440094182,-0.06335761574984945,-0.020453110430302124,-0.00046541505830940646,0.0054021928377089865,0.0
2025/04/09 10:25:02.651965790,1744187102,649963127,piren,0.22388167103564108,-0.0800358287202021,-0.029918711080554935,0.0011934205870677561,0.005446631586660378,0.03951382951045396
2025/04/09 10:25:02.745541598,1744187102,743620089,piren,0.22082846200095266,-0.0538544372824729,-0.024032054069608285,0.002258085441406193,0.004973387476515268,0.03639191184629224
2025/04/09 10:25:02.784349371,1744187102,782377939,piren,0.21895106034959577,0.08194862430668942,0.026325480958552062,0.0016753331432292895,0.00421692480412057,0.006793552288638761
2025/04/09 10:25:02.822854406,1744187102,820280312,piren,0.2160636203927026,-0.058139907890708276,-0.029643428032173933,0.0032002145176979455,0.0031819667579643094,0.0
2025/04/09 10:25:02.895992697,1744187102,894046483,piren,0.21252989496029767,-0.037482807182799845,-0.021889281138168112,0.004413906522528203,0.0019961077786456714,0.006496144506008426
2025/04/09 10:25:02.933824145,1744187102,932126315,piren,0.20658606764589885,0.08401998629038646,0.031873455028187156,0.005239156040200343,0.00042577089603707495,0.0
