time,header_stamp_secs,header_stamp_nsecs,header_frame_id,twist_linear_x,twist_linear_y,twist_linear_z,twist_angular_x,twist_angular_y,twist_angular_z
2025/04/09 10:24:45.424595061,1744187085,420162234,piren,0.017507866565620398,-2.449126987209935e-06,-2.6771409583740342e-05,0.001621799425735353,0.00011624453389079544,-0.0009162208906939593
2025/04/09 10:24:45.481069458,1744187085,478817144,piren,0.01671290235585756,0.029134386564146242,0.011826137505162766,0.0017301324114879489,8.009620698719651e-05,0.0
2025/04/09 10:24:45.535707430,1744187085,532493219,piren,0.016344694835607052,0.014094124374468865,0.005659704678744522,0.0006296238650511603,4.2448587100980235e-05,-0.005044420356440735
2025/04/09 10:24:45.564103578,1744187085,561943565,piren,0.016437443585755582,-0.05927972277022522,-0.026251243524176696,0.0027741267330712825,-2.165585690339331e-05,0.0
2025/04/09 10:24:45.619743869,1744187085,617744736,piren,0.014867258492131705,0.06999266011612201,0.024680310488933106,0.00196860723289754,-6.138202036858338e-05,-0.005009609430858641
2025/04/09 10:24:45.693475439,1744187085,691517859,piren,0.014390588862170525,0.039641463292582224,0.01389694066396638,0.001916698837766196,-8.604406434164478e-05,-0.0009233408207640264
2025/04/09 10:24:45.721544170,1744187085,719386312,piren,0.01367012003947847,0.018368765098329857,0.006332544697808037,0.0013644029206266162,-9.097498573793435e-05,0.0
2025/04/09 10:24:45.776564617,1744187085,773318983,piren,0.013127877737406642,0.009415277005745919,0.003496273576563899,0.001369138217615456,-8.154092882476732e-05,0.0
2025/04/09 10:24:45.830286469,1744187085,827509657,piren,0.012529545025154484,0.030807278132396858,0.012728244812916518,0.0004810529175047667,-3.769420482920731e-05,-0.004682193388273285
2025/04/09 10:24:45.883361363,1744187085,881515276,piren,0.012684087800789974,-0.03687740253813022,-0.01578016544005221,0.0010368883577873552,-3.4091966275805636e-05,-0.0009363277131919896
2025/04/09 10:24:45.939118665,1744187085,937349369,piren,0.012002343633230602,0.027315961643853047,0.010636337843492445,0.0009407808728090826,-2.6556782901071488e-05,0.0
2025/04/09 10:24:45.995315792,1744187085,993272997,piren,0.012218674571750207,0.002740824050306078,0.0011683540791352885,-2.9949205145462647e-05,-3.31984400049196e-05,-0.0008614807158274061
2025/04/09 10:24:46.25923240,1744187086,22491744,piren,0.012525492028817361,0.013957520696657998,0.006259070754750714,0.00017400450512968952,-4.189389273120341e-05,0.0
2025/04/09 10:24:46.80630533,1744187086,79041691,piren,0.012035215439755383,0.1163617683165736,0.04528858806457913,0.000183034015257846,-7.938901094447716e-05,-0.0010933597959776513
2025/04/09 10:24:46.137050120,1744187086,134798219,piren,0.013293132375793257,0.05177227502485915,0.020152416355929164,1.4911327172308118e-06,-0.00013626350854948157,0.0
2025/04/09 10:24:46.193226436,1744187086,191318134,piren,0.014231588353095768,0.00581420970529474,0.0021845292386480433,-0.002420784051452972,-0.00013877899464631243,-0.0008827070073390266
2025/04/09 10:24:46.221205227,1744187086,219719553,piren,0.015542517248695995,-0.1133965785151307,-0.050090979053851445,-0.00042288112312112094,-0.00013334068668934695,0.0
2025/04/09 10:24:46.276434145,1744187086,274809554,piren,0.014762623294473351,0.024812265818490817,0.005897149386692058,-0.00041038103017278086,-9.854939511128064e-05,0.0
2025/04/09 10:24:46.330168789,1744187086,328378650,piren,0.014112327368457309,0.11082366216937738,0.0409954327441117,-0.0012526034481425822,4.031439042082207e-05,-0.0040836150852749985
2025/04/09 10:24:46.386525450,1744187086,384474691,piren,0.014646841354351901,0.041121265185756456,0.01502648801644215,-0.002006070750572297,9.100492246047123e-05,-0.0009054990364121461
2025/04/09 10:24:46.439891205,1744187086,438017816,piren,0.015814799764575848,0.013893906855764401,0.005807222845438907,-0.0010714699309350587,-3.081984400796128e-05,0.0
2025/04/09 10:24:46.494265174,1744187086,492696606,piren,0.016258334789791017,0.0594978790031288,0.024759290202186097,-0.0005688512397263143,-5.630362596573026e-05,-0.0008421165952753513
2025/04/09 10:24:46.522672104,1744187086,521135532,piren,0.016969523365696924,0.008358947704618591,0.004811998626852464,-0.0024684647345956197,6.234055242453381e-05,0.0
2025/04/09 10:24:46.577777925,1744187086,576271528,piren,0.0181500991305259,-0.10794810533157065,-0.04560876885103046,-0.0007983154087031078,0.00011414991830208839,0.0
2025/04/09 10:24:46.634751988,1744187086,632185004,piren,0.016834147191457573,0.02942703395942739,0.00923480019840428,0.0010886311698543136,0.00015863415360201818,-0.004716534185442553
2025/04/09 10:24:46.688990566,1744187086,687215998,piren,0.015931536269954718,0.1013104062791623,0.03874306472481878,-0.00032694194174668945,0.00019453663027918592,-0.00090199531413024
2025/04/09 10:24:46.743631117,1744187086,741186769,piren,0.01723151265096048,-0.07148599667189079,-0.03470644149140936,-0.0014486232916072934,0.00020303184372871979,0.0
2025/04/09 10:24:46.771718193,1744187086,770152330,piren,0.01778923865872484,-0.16076100529039683,-0.07135419404353802,0.0006235706958923476,0.00016041872131489256,0.0
2025/04/09 10:24:46.825279685,1744187086,823467857,piren,0.016712008376680656,0.004816701630533882,-0.0031426606816886,0.002361262649742995,1.7408851523109233e-05,-0.004721238256779829
2025/04/09 10:24:46.881533241,1744187086,878938911,piren,0.015787180242751032,0.09199262145334579,0.034142586851411874,0.0009362585815694487,4.9319169440289266e-05,-0.0010213442151341962
2025/04/09 10:24:46.934772377,1744187086,933016569,piren,0.015596563493591288,-0.07064656604134177,-0.03402382010998825,-0.0002859086106507516,0.00013820405954942738,0.0
2025/04/09 10:24:46.963898823,1744187086,961752031,piren,0.015674535227072097,-0.15386214391542158,-0.06752021860800139,0.0016081835762339746,0.00016120444284608456,0.0
2025/04/09 10:24:47.18924402,1744187087,17105656,piren,0.01421103518887348,0.015450812155404142,0.0025738938582094417,0.0031898753586788345,0.00010389593749006178,-0.004973328726353007
2025/04/09 10:24:47.73081105,1744187087,71330215,piren,0.013092091054386669,0.10378981395911033,0.04055346426256677,0.0014964353525370952,7.31929627450187e-05,0.0
2025/04/09 10:24:47.130944972,1744187087,127009695,piren,0.01394474150465639,-0.05917008152832784,-0.027696555355358032,-4.64269558381392e-06,7.771981228059667e-05,-0.004929602381217633
2025/04/09 10:24:47.184897554,1744187087,182382610,piren,0.013951422577247553,-0.14279880163148878,-0.06135874084255056,0.0016215339246411773,4.5022992923889055e-05,-0.0009211570123339536
2025/04/09 10:24:47.239698064,1744187087,238027692,piren,0.012201218856580721,0.025482126405722394,0.00827921256016318,0.0029054641273779697,-3.1010791794733094e-05,0.0
2025/04/09 10:24:47.268675928,1744187087,267138362,piren,0.011139900071703136,0.11288988175297128,0.045786219531584044,0.0009352319871615418,-6.934012148619771e-05,0.0
2025/04/09 10:24:47.323375664,1744187087,321401231,piren,0.012163481783727816,-0.050931120582072595,-0.02292897565426591,-0.0008131019679152215,-5.828925442642232e-05,-0.004905590003209501
2025/04/09 10:24:47.380740374,1744187087,378822201,piren,0.012452159441227463,-0.1353809863283917,-0.057050731304614626,0.0006038894710554294,-0.00013091223587875705,0.0
2025/04/09 10:24:47.437232871,1744187087,435117066,piren,0.012068143197575678,0.03202657954907373,0.01210462238479481,0.0017343395381865735,-0.0003525580551179368,-0.00495409085658795
2025/04/09 10:24:47.494067593,1744187087,491709050,piren,0.011841980952522403,0.11856480824803803,0.049150539685290096,-0.00034025142721869355,-0.0004798397864585011,-0.0008901594357793624
2025/04/09 10:24:47.523387906,1744187087,521368690,piren,0.013126193946073086,-0.04612840194281523,-0.0200063936043154,-0.002136296405780793,-0.0004995176386216166,0.0
2025/04/09 10:24:47.600498653,1744187087,598694216,piren,0.013905894951949717,-0.13147197554835688,-0.05458519173211333,0.0005660472361446175,-0.0006644239930820383,-0.0011036623251069512
2025/04/09 10:24:47.684915631,1744187087,683291080,piren,0.013082723031402833,0.10652929868979268,0.04569970513414569,-0.0014183951979217808,-0.0006437370708816784,-0.0008902736175003229
2025/04/09 10:24:47.742188240,1744187087,740312010,piren,0.014486023408608429,-0.05328124945172051,-0.02193244689070395,-0.0030536138040130434,-0.0005045270020451095,0.0
2025/04/09 10:24:47.771486592,1744187087,769591769,piren,0.015385337882844664,-0.13506123345323462,-0.055368685105451454,-0.001420250369985737,-0.0004147675682376638,0.0
2025/04/09 10:24:47.827161246,1744187087,825134543,piren,0.014721536590741647,0.03422034046943703,0.01425558432019118,-8.54015120925437e-06,-0.00038573174130278966,-0.004867503825603059
2025/04/09 10:24:47.883543530,1744187087,881906426,piren,0.014366312327365717,0.1224119579513623,0.05168517733361428,-0.0016654719447409098,-0.0002080257219070399,-0.0008666097348572728
2025/04/09 10:24:47.939314927,1744187087,937656933,piren,0.014801188269121026,-0.04159736216811359,-0.017427409450666058,-0.0029968458637800403,0.00013961717740760608,0.0
2025/04/09 10:24:47.968727705,1744187087,966899756,piren,0.0151130791271501,-0.12672415180049973,-0.052131720815295046,-0.0010740838129868547,0.00034883209576816844,0.0
2025/04/09 10:24:48.24184418,1744187088,22333919,piren,0.014873819768172593,0.04008059831967295,0.01649550684543756,0.0006351114641220315,0.00038007909082071967,-0.004873676164558649
2025/04/09 10:24:48.80169789,1744187088,78633767,piren,0.014740268346259014,0.12600967833177457,0.053015310003972624,-0.0008155964980652796,0.0005202187239507585,-0.0008800975854483588
2025/04/09 10:24:48.135994842,1744187088,134312067,piren,0.015120991806043363,-0.03935220983971738,-0.016705944390487906,-0.0019686301273556654,0.0007901281532080009,0.0
2025/04/09 10:24:48.192358456,1744187088,190304019,piren,0.015263962408608037,-0.12519953490746083,-0.051759927473838716,9.128885848203898e-05,0.0009323817556437336,-0.0009264078247736352
2025/04/09 10:24:48.221580659,1744187088,219903669,piren,0.014115350406246122,0.04117301338655999,0.01665243858551549,0.0018780001841189806,0.0009680029796564742,0.0
2025/04/09 10:24:48.277826171,1744187088,275970490,piren,0.013495521853929219,0.1268872365285457,0.05304134928185498,0.0004544175071610507,0.0009865368766655536,0.0
2025/04/09 10:24:48.336116463,1744187088,333141320,piren,0.014328807052834507,-0.038498310763998594,-0.016717364048036025,-0.0007262354371303305,0.0009934464699958526,-0.00478820072032118
2025/04/09 10:24:48.366248744,1744187088,364531464,piren,0.014549368550342749,-0.12465455060742023,-0.051895104326397136,0.0012504609949676726,0.0009033131111581776,0.0
2025/04/09 10:24:48.428566087,1744187088,424119687,piren,0.01334535388355134,0.04140614234152018,0.016414493475129542,0.0029016368943538735,0.0007079271176817177,-0.004478863651102006
2025/04/09 10:24:48.485002504,1744187088,482919241,piren,0.012438548059526782,0.12689312771653893,0.05275857968821356,0.001266891657476104,0.0005141422267922971,-0.0008859591876661676
2025/04/09 10:24:48.543416738,1744187088,541450924,piren,0.01281825756300377,-0.038319369345299864,-0.016817728680218726,-0.0001109885058407012,0.0003408854697314629,0.0
2025/04/09 10:24:48.576413155,1744187088,572317675,piren,0.012789910125593723,-0.12437627352642303,-0.05185702753195541,0.0016316468135766577,8.9712155313815e-05,0.0
2025/04/09 10:24:48.634764603,1744187088,631270673,piren,0.011844847216980542,0.04146437533490788,0.016459135710548273,0.0029624130616584653,-0.00024529140634555727,-0.004432906163326259
2025/04/09 10:24:48.692689714,1744187088,690378678,piren,0.011126320006315199,0.12210028689992175,0.05116738403379593,0.001139764045697606,-0.0005013068426381133,-0.00084896156834492
2025/04/09 10:24:48.724884826,1744187088,720922806,piren,0.011317980572312352,-0.04184966221582764,-0.017865739086226982,-0.0004923646402572013,-0.0006399369217654354,0.0
2025/04/09 10:24:48.780738965,1744187088,778572072,piren,0.01122900947029875,-0.12710675113698963,-0.05252575918609635,0.0010167312294550805,-0.0008303566232834715,0.0
2025/04/09 10:24:48.837361221,1744187088,835307614,piren,0.010822347312387407,0.039339231894973264,0.016084683448526607,0.002214371204539346,-0.001129601693912569,-0.004446194222096995
2025/04/09 10:24:48.896128552,1744187088,893628519,piren,0.010416286260988542,0.12482351719172546,0.052593314998952326,0.0001822628418442131,-0.001290108925249384,-0.0007901590774916131
2025/04/09 10:24:48.924720170,1744187088,923330076,piren,0.011460397927885693,-0.039920295821821494,-0.01664006524609042,-0.0015270632777438383,-0.0012926165797723062,0.0
2025/04/09 10:24:48.982285776,1744187088,980725498,piren,0.011962795856789213,-0.12098784297177226,-0.04917420733505827,-0.00014455500183841618,-0.0012879169490852918,-0.0008515095703023688
2025/04/09 10:24:49.39025361,1744187089,37335725,piren,0.011192448984502603,0.04284159451130981,0.018337082953905806,0.001007979193652588,-0.0012772298999825962,0.0
2025/04/09 10:24:49.70112702,1744187089,67181343,piren,0.010869341734451423,0.12685363095606553,0.05416568361903985,-0.0010023442918746356,-0.0011247429766311008,0.0
2025/04/09 10:24:49.128164824,1744187089,124690469,piren,0.012172763183162074,-0.039740075262216484,-0.01596627182508817,-0.002698822993151666,-0.0008304658477807131,-0.004312994996737582
2025/04/09 10:24:49.184452700,1744187089,182415967,piren,0.012805155218348132,-0.12657371168979842,-0.05131563096635714,-0.0009955253114870889,-0.0005398320239391576,-0.0008474771631859257
2025/04/09 10:24:49.244558455,1744187089,240718926,piren,0.011714367295917596,0.031078146577283056,0.014113761012961863,0.0007510598869645636,-6.150707451679015e-05,0.0
2025/04/09 10:24:49.273934516,1744187089,271963148,piren,0.01034329261788143,0.1119531544254638,0.04875852270491807,-0.0004281399597910361,0.0004827787057387223,0.0
2025/04/09 10:24:49.334206148,1744187089,329411390,piren,0.011209174323039675,-0.06426461544401751,-0.0271173426922999,-0.0009078170732602686,0.0008139452945130174,-0.0043236911354970495
2025/04/09 10:24:49.389904427,1744187089,388292866,piren,0.01558841595638141,-0.15849556145426535,-0.06670080228415745,0.0013955685892885533,0.0010152749007031534,-0.0005827348383532667
2025/04/09 10:24:49.419942852,1744187089,418349029,piren,0.014263098302308477,-0.00044981894247972387,0.0003676539067062057,0.004121939522973792,0.0015149814473742064,0.0
2025/04/09 10:24:49.497393782,1744187089,495269454,piren,0.010855677420659317,0.07977656571533738,0.035607077407991065,0.0042609652395272325,0.00213812501498023,-0.0007872739944137866
2025/04/09 10:24:49.526810102,1744187089,524995796,piren,0.010240386025043603,0.016851491129909524,0.011765269633814097,0.004317536875767082,0.0005907839016211405,0.0
2025/04/09 10:24:49.585709738,1744187089,583832222,piren,0.016036532013231675,-0.12766582878907715,-0.05306398883056107,0.006228296267076918,0.00023313144167711003,0.0009009651805404782
2025/04/09 10:24:49.645440272,1744187089,643369675,piren,0.02046981267171786,-0.22674030345838248,-0.0984824734467217,0.008327014740298639,0.000704839669347096,0.0
2025/04/09 10:24:49.675983924,1744187089,673193475,piren,0.018778527506219958,-0.06619436253549824,-0.027888631214708998,0.007067515585640291,0.0009202731444271031,0.0
2025/04/09 10:24:49.733850482,1744187089,731113730,piren,0.018080006076752666,0.06161174794883631,0.02667997530626213,0.007673020621121505,0.0010891990224382157,0.007494352030593503
2025/04/09 10:24:49.793791781,1744187089,790425363,piren,0.019839953955124924,0.11531026439406528,0.05095871877509242,0.005866654296975341,0.0025118200739797794,0.0012818251050466312
2025/04/09 10:24:49.825759672,1744187089,821505089,piren,0.005348891480116705,-0.01997533713674815,-0.006924966660201162,0.0046871442202373005,0.0036562015811264256,0.0
2025/04/09 10:24:49.882838208,1744187089,880917323,piren,0.009369447526705967,0.005498092070729085,0.0061887805387481915,0.003960673543023388,0.003889623768185681,-0.001404711314580551
2025/04/09 10:24:49.941114413,1744187089,939432538,piren,0.023141382874291863,-0.005751089449677551,0.0026726814369990434,0.002638406905396088,0.0035865330270144326,0.0
2025/04/09 10:24:49.974443511,1744187089,971334986,piren,0.030920210382737692,-0.010728082557989495,0.0011057641007905814,0.0016034958340896868,0.003412578366399976,0.0
2025/04/09 10:24:50.34072967,1744187090,32571914,piren,0.032779057326434026,-0.08468057055006314,-0.03225304910287822,0.00010062338402280435,0.0026011270478700143,-0.012030599350678333
2025/04/09 10:24:50.93716510,1744187090,91966068,piren,0.043351373132145724,-0.06342161487964434,-0.022652677685562818,-0.0008324048117391079,0.0013352750698992413,-0.003793013294023758
2025/04/09 10:24:50.125806501,1744187090,123382595,piren,0.05225483765516428,-0.07114558895009426,-0.026070296579070243,-0.004104032535901377,4.048085791818162e-05,0.0
2025/04/09 10:24:50.184631546,1744187090,182768812,piren,0.06043460279534001,-0.1492816910176319,-0.0631067154091976,-0.004243363727776568,-0.0013759047474952324,-0.003929863981030394
2025/04/09 10:24:50.243976880,1744187090,242178864,piren,0.06940926130041616,-0.09026605796034376,-0.03613168803239472,-0.003605943248427344,-0.002603519952871214,0.0
2025/04/09 10:24:50.274217415,1744187090,272301077,piren,0.07468213109377785,0.047749154032089486,0.021557973753767737,-0.006768749461281683,-0.0036446556348969025,0.0
2025/04/09 10:24:50.332240344,1744187090,330737040,piren,0.08154403142712026,-0.0723446608969428,-0.03201829716635342,-0.007383593147180434,-0.004431803754118782,-0.020538174924036857
2025/04/09 10:24:50.391581850,1744187090,389895180,piren,0.0861219063931915,-0.14628242818398604,-0.06458622389364198,-0.005973511240814146,-0.0051041339954052845,-0.003848082602074541
2025/04/09 10:24:50.451361372,1744187090,449156380,piren,0.09120390886014347,0.027531875144313434,0.010487533594935206,-0.006003119909539239,-0.005164236083574393,0.0
2025/04/09 10:24:50.481841205,1744187090,480153078,piren,0.09284636817365054,0.13854795168822387,0.05875313118676256,-0.005872961449425925,-0.00478537556658536,0.0
2025/04/09 10:24:50.540592354,1744187090,538661837,piren,0.09775799258281977,0.09479906866745264,0.04434115516866977,-0.005219756551108128,-0.005327151052188956,-0.022354261950694794
2025/04/09 10:24:50.600799783,1744187090,598990004,piren,0.10377988117284102,0.16493705344582815,0.07424298124088582,-0.005042116550869238,-0.0048278791312863075,-0.003742238597119593
2025/04/09 10:24:50.631658662,1744187090,630239059,piren,0.1082440161006164,0.22105368417987814,0.09708398752439502,-0.004258593923930645,-0.0025131084668076095,0.0
2025/04/09 10:24:50.691446236,1744187090,689053057,piren,0.10564141652962489,0.1342705481591562,0.06367251541823936,-0.0019872559178507683,-0.002304042579889604,-0.006107320954489781
2025/04/09 10:24:50.721418833,1744187090,719774912,piren,0.12566819152202724,0.18499651896750005,0.0835589561889947,-0.0018611490539480059,-0.003045996340960624,0.0
2025/04/09 10:24:50.780106521,1744187090,778571328,piren,0.13842741922712803,0.10366611952640564,0.0517655355207005,-0.0004486488418150236,-0.002958948371085553,-0.0026147827184175806
2025/04/09 10:24:50.840606776,1744187090,837068322,piren,0.13657772083306582,0.01027933553123117,0.013454654829485366,0.001830983573003771,-0.0014188341598972757,0.0
2025/04/09 10:24:50.870399235,1744187090,868175872,piren,0.13391063180938573,-0.02828519212776004,-0.0020250978685115613,0.0026907729525458292,0.0001922538837538934,0.0
2025/04/09 10:24:50.929835918,1744187090,927168226,piren,0.1324688960775805,-0.07150790430469017,-0.02042048835595406,0.004397732357240006,0.0011055276456135253,-0.006588938489703013
2025/04/09 10:24:50.988018459,1744187090,986169070,piren,0.13076836961422517,-0.012606596461410241,0.003511337968480563,0.00445768950423669,0.002723952629551431,5.1122639849955086e-05
2025/04/09 10:24:51.47097643,1744187091,45182307,piren,0.13105515672195936,-0.1409184907852253,-0.05543418546132873,0.0052408243575794095,0.0047214125254597785,0.0
2025/04/09 10:24:51.77364201,1744187091,75728082,piren,0.13228296561815142,-0.14039181100988601,-0.05467175843227633,0.005480350443090182,0.00572063263574609,0.0
2025/04/09 10:24:51.137326839,1744187091,135375155,piren,0.13426444672295504,-0.20597815501018915,-0.086052001934744,0.00571602845082048,0.0068881029725739755,-0.00113641039836537
2025/04/09 10:24:51.195593106,1744187091,193897630,piren,0.1370988401779417,-0.23913829362418285,-0.10269954752217383,0.0070474370925754405,0.006985818044841748,-0.0007424876156808291
2025/04/09 10:24:51.227475777,1744187091,225776258,piren,0.1388785458462283,-0.1510934203324726,-0.0633241517823247,0.007059572998316915,0.006648546758625659,0.0
2025/04/09 10:24:51.287256250,1744187091,285456035,piren,0.14122447841014066,-0.09343885779389924,-0.03787810278791991,0.0063433392333372834,0.005939897473588957,-0.0006383531703072847
2025/04/09 10:24:51.347671863,1744187091,345717598,piren,0.14360169770598105,-0.051412105645568175,-0.019679023403847362,0.003720364947751959,0.005672099619514845,0.0
2025/04/09 10:24:51.377925418,1744187091,376334058,piren,0.14733087896802347,-0.11682814693226676,-0.05127617258068962,0.003542700518740552,0.004172678810861218,0.0
2025/04/09 10:24:51.438108986,1744187091,436434064,piren,0.1504477220339598,-0.10509702216259059,-0.046053649720730366,0.002919803767539305,0.002985618877115617,-0.007853671591862031
2025/04/09 10:24:51.487607166,1744187091,485934935,piren,0.1538580082313277,-0.06537047316883249,-0.028135924855439816,0.0013580725525172497,0.0009622641385072376,-0.0024212668842646685
2025/04/09 10:24:51.549047494,1744187091,545814182,piren,0.15687018690046017,-0.016568519365773998,-0.006309284989796247,-0.002310133174469237,-0.001692732955920165,0.0
2025/04/09 10:24:51.580801785,1744187091,578920042,piren,0.16073772786853652,0.01347433258329115,0.0073349072663529205,-0.002456315224987667,-0.0034529802931689223,-0.002170122567538379
2025/04/09 10:24:51.641780374,1744187091,639563671,piren,0.16514464904771586,-0.058672201828403873,-0.025935540611408174,-0.0033510342373115408,-0.003799616784028379,0.0
2025/04/09 10:24:51.673264995,1744187091,670781199,piren,0.16939215177553735,0.11650096072366944,0.046345107447310636,-0.005083384104949597,-0.00524115960726426,0.0
2025/04/09 10:24:51.734286012,1744187091,730606823,piren,0.17355440134674638,0.10984828465361682,0.04692472693319804,-0.006488825526150397,-0.007117851020358869,-0.017492447873741532
2025/04/09 10:24:51.792019098,1744187091,790216272,piren,0.176125114584693,-0.013541429090173876,-0.006780869336874988,-0.006234993732037002,-0.007663584281551712,-0.0026689006494257
2025/04/09 10:24:51.823268192,1744187091,821552450,piren,0.17888426358349563,0.012328606585151319,0.007781028970804056,-0.0050754796420565745,-0.007747530295257196,0.0
2025/04/09 10:24:51.884482410,1744187091,882057221,piren,0.18154529405283057,0.12715286177422025,0.05635094450945143,-0.0058915930108432496,-0.007376302305712457,-0.0026489453509677347
2025/04/09 10:24:51.943362389,1744187091,941407069,piren,0.18583595187037674,0.11271274960349695,0.05318239456416375,-0.005914879374412246,-0.007167537271252159,0.0
2025/04/09 10:24:51.974041954,1744187091,972521099,piren,0.18873910674065003,0.193046989325239,0.08576380216547758,-0.006244058839910891,-0.005788288534943473,0.0
2025/04/09 10:24:52.35113321,1744187092,33295998,piren,0.19187229770177539,0.23534736766205208,0.10290120068738208,-0.006639928048424339,-0.003411524880038321,-0.00921856588061009
2025/04/09 10:24:52.94785294,1744187092,92640371,piren,0.1959717650900987,0.08526068751771129,0.04118777115995376,-0.004567741169572132,-0.001666599310067472,-0.0024193423518126577
2025/04/09 10:24:52.126321758,1744187092,124374836,piren,0.19900573930694945,0.0336181815189317,0.021564995300322257,-0.0036361598500926876,-0.0006024848517936891,0.0
2025/04/09 10:24:52.187181862,1744187092,184306738,piren,0.2011064214986166,-0.1003634939123916,-0.03808032101890392,-0.001405646632953262,0.0014432148201689796,-0.001237229182560246
2025/04/09 10:24:52.247098399,1744187092,245470877,piren,0.20354448223838545,-0.07568300838102038,-0.025632435562727044,-0.001151842707386841,0.0031409532093179485,0.0
2025/04/09 10:24:52.278088501,1744187092,276639509,piren,0.20577603961228333,-0.06581299038762187,-0.02065636297632944,0.0008502355870383474,0.00491328380699607,0.0
2025/04/09 10:24:52.342849503,1744187092,338745491,piren,0.20757571236836184,-0.03811915994356274,-0.008880937859698028,0.002524675298458548,0.0069233733037744995,-0.002976204275222957
2025/04/09 10:24:52.372709214,1744187092,371136660,piren,0.21001946090573284,-0.001191102064013072,0.006054711319831846,0.002895409230407505,0.007826755126037546,0.0
2025/04/09 10:24:52.434512537,1744187092,432335670,piren,0.21205749911105187,-0.045269629771610524,-0.014342297953040931,0.0039893765019195886,0.00879184859424736,-0.00551265492046961
2025/04/09 10:24:52.466235886,1744187092,464427967,piren,0.21566378078614462,-0.00991659244632534,-0.00027882977684109793,0.006542654859451567,0.008548484500449047,0.0
2025/04/09 10:24:52.527930960,1744187092,524784371,piren,0.21748469809549562,0.11135576895730959,0.04634590074324803,0.006781880203330368,0.007794534033312817,-0.009443082180599019
2025/04/09 10:24:52.590294836,1744187092,588225652,piren,0.21874911519089466,0.04655351908954766,0.01903876359934498,0.007108516722814377,0.0065824448212072,-0.0018522245797546015
2025/04/09 10:24:52.622546350,1744187092,620321867,piren,0.21913551584043517,0.025653329912801965,0.01033247164949676,0.007095441677626545,0.005059933527803382,0.0
2025/04/09 10:24:52.682675244,1744187092,681183104,piren,0.21924818239012922,0.02288911378768684,0.009151823846607648,0.004823612958463344,0.0032788417269672596,-0.00168580741522491
2025/04/09 10:24:52.745144115,1744187092,742763334,piren,0.21968958234656413,-0.08384221114674834,-0.039314676935683524,0.006515908537844153,0.0005112309580567596,0.0
2025/04/09 10:24:52.776317967,1744187092,774538687,piren,0.21902127512921682,0.058494557005178305,0.0187661090607755,0.004891989340530092,-0.0013105393282144733,0.0
2025/04/09 10:24:52.837902771,1744187092,836378756,piren,0.2190521908566555,0.035307463667822614,0.01151619028108582,0.004104826345097251,-0.0030597969501214013,-0.003110854257221146
2025/04/09 10:24:52.870030837,1744187092,868477166,piren,0.21922015675431822,0.13927425013753203,0.053355458566989755,0.001625377371434856,-0.004608928330899652,0.0
2025/04/09 10:24:52.931308116,1744187092,929771327,piren,0.2198789220260099,0.09581214376216815,0.03824244530033103,0.0015833618255296656,-0.005869222697663583,-0.0024181847592666234
2025/04/09 10:24:52.993859624,1744187092,991683608,piren,0.2207815768189451,0.040561008041276755,0.017427155852846047,0.0011972090472198444,-0.006828412892756566,-0.00031278216552022426
2025/04/09 10:24:53.29671591,1744187093,23634280,piren,0.22164918638236517,0.11800679579218888,0.04881249036855562,-0.0019957767783597637,-0.007284232014613942,0.0
2025/04/09 10:24:53.87904492,1744187093,85628100,piren,0.2231997256451453,0.06615831196663716,0.02984801750409436,-0.003635171373322654,-0.00800135071591939,7.973981959072004e-05
2025/04/09 10:24:53.148180053,1744187093,146557749,piren,0.23516440327125596,0.036208385415238485,0.019328552578585748,-0.005037395436822519,-0.008175816165472553,0.0
2025/04/09 10:24:53.179934447,1744187093,178431868,piren,0.23315053643054884,-0.10406149421774019,-0.04168102199689544,-0.006154814136258649,-0.00712629953058425,0.0
2025/04/09 10:24:53.243544990,1744187093,242014760,piren,0.23400302464228875,-0.1558358818236687,-0.06245519506845833,-0.0057454862968492285,-0.0054562212297237685,0.008471118514699503
2025/04/09 10:24:53.275693280,1744187093,273798919,piren,0.23620149344251362,0.006759157843225366,0.003962805206668252,-0.00669800055563385,-0.003790323738297826,0.0
2025/04/09 10:24:53.340329996,1744187093,337375675,piren,0.23872326462128543,-0.004953985429165513,0.002260407490012684,-0.006839468949664257,-0.0019055806057917438,0.008833232904117824
2025/04/09 10:24:53.371178186,1744187093,369645951,piren,0.2419314424721509,0.04438498772392417,0.023818624302160217,-0.007125786360860794,8.715327067423518e-05,0.0
2025/04/09 10:24:53.435357046,1744187093,432537631,piren,0.2452565654812591,-0.09652409609516356,-0.03795293554435583,-0.005914748901882334,0.0026060620045678337,0.009763845464175613
2025/04/09 10:24:53.496221686,1744187093,494224132,piren,0.24977404338083062,-0.1927530548763119,-0.08104026441291547,-0.006017096277451253,0.004243637936820783,0.001119962356637955
2025/04/09 10:24:53.549043940,1744187093,546852809,piren,0.25401218820620697,-0.2363874801444584,-0.10054821626632128,-0.005236599551965136,0.005578178668360582,0.0
2025/04/09 10:24:53.581971438,1744187093,580262297,piren,0.25786354953156687,-0.25329118722575034,-0.10855187298802521,-0.004252711871429627,0.006607292198282479,0.0
2025/04/09 10:24:53.645555238,1744187093,644144172,piren,0.26011207010869863,-0.251896281618065,-0.10865501205876876,-0.003126348182164994,0.006471629746567903,0.005879912526180674
2025/04/09 10:24:53.678419306,1744187093,676837968,piren,0.26191595474770135,-0.2004798265032608,-0.08535251815149353,-0.00039942394376993605,0.006889686897968148,0.0
2025/04/09 10:24:53.741799632,1744187093,739875098,piren,0.26210508847525515,0.020739520315191523,0.006199302287203473,-0.0005003038613782156,0.00835742193971444,0.010531924336869211
2025/04/09 10:24:53.774589332,1744187093,772290891,piren,0.2557854829875853,-0.05695879327945508,-0.027742802405211667,0.0022831633411435383,0.007913585252594516,0.0
2025/04/09 10:24:53.838348878,1744187093,835973394,piren,0.2607276545598327,0.0686928707908461,0.02670985865701004,0.0018156407425842156,0.0072676574494133835,0.0015437972512883252
2025/04/09 10:24:53.899533961,1744187093,897625555,piren,0.2654868616856677,-0.01882565379592084,-0.011367919724040776,0.004372320080486871,0.005440840627215576,-0.0012155581373947037
2025/04/09 10:24:53.932798643,1744187093,930509753,piren,0.26756761850533645,0.024975148967723397,0.009605584461649795,0.006704614794933196,0.00329111359460602,0.0
2025/04/09 10:24:53.994279875,1744187093,992508286,piren,0.2683383415806932,0.13793326264185418,0.05663950347979854,0.006679227595883413,0.0009792002640561942,-0.001683149039880403
2025/04/09 10:24:54.28642198,1744187094,25138523,piren,0.2702263658381528,0.1676629995160962,0.07044985200887095,0.0060300363395016324,-0.0019171892785615785,0.0
2025/04/09 10:24:54.90509774,1744187094,88042987,piren,0.26976669897717354,0.09157710661761452,0.03947936725707569,0.005156200910203327,-0.003935481708033635,-0.0011181856255920884
2025/04/09 10:24:54.122234520,1744187094,120533573,piren,0.2684388872818547,0.013937071129748485,0.006837764366152806,0.00709607126412824,-0.005665322471308872,0.0
2025/04/09 10:24:54.185179645,1744187094,183536038,piren,0.26638479314456187,0.05219560544123819,0.024580096403484623,0.004602483690591876,-0.0070206511434327675,-0.0010885732555465921
2025/04/09 10:24:54.220230882,1744187094,217733612,piren,0.264879458656151,-0.04636672136216506,-0.01849600911379698,0.0047603222564896585,-0.009109932024121485,0.0
2025/04/09 10:24:54.284654398,1744187094,281343785,piren,0.2658453130263299,0.04526506118950206,0.021610274468195502,0.003969725285159749,-0.009433715615902488,0.00025808990668921907
2025/04/09 10:24:54.346565349,1744187094,345135336,piren,0.262286609555804,0.09512528874765816,0.04411530949127784,0.002104484272953156,-0.008365769051467657,0.0
2025/04/09 10:24:54.380247613,1744187094,378056734,piren,0.2606560495460146,0.08401263365485614,0.04139817722204744,0.001199830181166821,-0.007613124915437119,0.0
2025/04/09 10:24:54.444202925,1744187094,442749540,piren,0.25951860288510054,0.13567832132989646,0.06280336538251068,0.0013888245971818325,-0.006169778985630855,-0.00133493584124468
2025/04/09 10:24:54.476929929,1744187094,475453781,piren,0.25945472586518026,0.19767254941057183,0.08675965594709861,-0.0013596862240345287,-0.004672542498033913,0.0
2025/04/09 10:24:54.542351315,1744187094,540054241,piren,0.26043507771987623,0.12768864990280201,0.059702924115149644,-0.0014166761029461882,-0.003672351536464369,-0.0032522815757714697
2025/04/09 10:24:54.576295882,1744187094,574798478,piren,0.2607073203269921,0.18129686493139127,0.0797920572030087,-0.003113391994244712,-0.0016045972491413295,0.0
2025/04/09 10:24:54.642008575,1744187094,639898412,piren,0.2625409748908625,0.09474513965301379,0.0455824183551574,-0.0041604216997824925,0.0005483568782939214,0.0012725783800362005
2025/04/09 10:24:54.675978165,1744187094,672756629,piren,0.2655911988043046,-0.08059769641390663,-0.031546166105649545,-0.004865453364854087,0.002630114907274355,0.0
2025/04/09 10:24:54.738943835,1744187094,736924755,piren,0.268842104837495,-0.18961045113201214,-0.07985549826887382,-0.005544614101310016,0.003846894710043025,0.0022986139482364435
2025/04/09 10:24:54.800944650,1744187094,799306967,piren,0.2717365491717375,-0.15123907124884714,-0.0610997104926415,-0.005791543740852699,0.005642671863739344,0.0015890575828193109
2025/04/09 10:24:54.835303959,1744187094,833377292,piren,0.27534033111437584,-0.22077249749045255,-0.09359278039570317,-0.0056063665719155,0.007119405191130825,0.0
2025/04/09 10:24:54.899486984,1744187094,897023797,piren,0.27869001186218173,-0.14206362852178278,-0.05832047669978625,-0.004782793690827935,0.0087658750459837,0.0022640361756899184
2025/04/09 10:24:54.934309797,1744187094,930278344,piren,0.27400360460592327,0.025868824094231607,0.009697162159851683,-0.004296674135704815,0.010758821478229761,0.0
2025/04/09 10:24:54.996312513,1744187094,994494486,piren,0.2759470267160852,0.05616297664751037,0.02356594213624528,-0.004858787003570274,0.01063707583000359,-0.00017205728773871587
2025/04/09 10:24:55.32759616,1744187095,30695165,piren,0.2870712403868767,0.04989957554375869,0.021444731314812795,-0.00407963277807312,0.010165973046728364,0.0
2025/04/09 10:24:55.96588245,1744187095,95087838,piren,0.29648815482723895,-0.07142180987675636,-0.033717423842123014,-0.003116732707498943,0.008397009296030216,-0.001420150066465887
2025/04/09 10:24:55.130223932,1744187095,128259025,piren,0.3021228438958589,-0.026251301122102076,-0.013488813988289626,-0.0019072987158830343,0.006155204288723435,0.0
2025/04/09 10:24:55.194174491,1744187095,192505447,piren,0.3059410466615192,0.0037704977516565194,-0.00016036618581478576,-0.000775854838093926,0.0035814296586473768,-0.0016188394811045977
2025/04/09 10:24:55.228430985,1744187095,226780636,piren,0.30741196506860446,0.06917321216023956,0.02697573667024502,-0.00014155211558278139,-0.0008216389580392226,0.0
2025/04/09 10:24:55.293218240,1744187095,290701595,piren,0.3163096704682177,-0.04608522708763339,-0.023965721619423494,0.0018273328818479255,-0.0035089834809606756,0.0003135136410112901
2025/04/09 10:24:55.328905673,1744187095,325277827,piren,0.31056458487528305,-0.06098116100938605,-0.028654321681728566,0.0036946266089835215,-0.0050308617797024625,0.0
2025/04/09 10:24:55.393142886,1744187095,389787033,piren,0.30601636691371836,0.014382965587082797,0.004578342756570583,0.005104302604141228,-0.007007582776250708,1.2032502378671354e-05
2025/04/09 10:24:55.427181202,1744187095,424277684,piren,0.3018657498296763,0.13237092805115896,0.052330455756795416,0.005565658851147208,-0.008512311602223441,0.0
2025/04/09 10:24:55.490878776,1744187095,489051618,piren,0.29788232741079823,0.20613269161285602,0.08242899249938845,0.004171515323803058,-0.009496326872580748,-3.2352505914656074e-06
2025/04/09 10:24:55.525166363,1744187095,522656547,piren,0.2941000199023621,0.148112753894156,0.06213362438851108,0.004180152521665541,-0.009896769991140999,0.0
2025/04/09 10:24:55.591864633,1744187095,588676753,piren,0.2908258569193096,-0.01016886633497091,-0.0039860401843647,0.005641684583343032,-0.009735850345143106,2.710199537273563e-05
2025/04/09 10:24:55.625457038,1744187095,623361783,piren,0.28778569575365526,-0.13106134924169094,-0.05531741467255703,0.006974884297956358,-0.00970783891582179,0.0
2025/04/09 10:24:55.708890216,1744187095,706697388,piren,0.2842471878985181,-0.10880461872507151,-0.04181820828713289,0.004581283334103257,-0.0061960278083268054,0.001044735139711152
2025/04/09 10:24:55.803321304,1744187095,801273072,piren,0.2797537960183946,0.14042439596714718,0.060845497289226474,0.0033031797862961305,-0.003852336192128614,0.0015464684959139825
2025/04/09 10:24:55.839172720,1744187095,836257752,piren,0.279237201482738,0.15229907721181876,0.06797154233107784,0.0029799922078696723,0.00016842619434053648,0.0
2025/04/09 10:24:55.871565027,1744187095,869690417,piren,0.273766403250511,0.19195438221677208,0.08372176337493721,0.0012891516598584583,0.002627855520290509,0.0
2025/04/09 10:24:55.936293253,1744187095,934606413,piren,0.2815238350424808,0.09869670309994903,0.04754591051118774,3.464849018457199e-05,0.004630608805400522,-0.00047425866060663
2025/04/09 10:24:55.971155601,1744187095,968842166,piren,0.2879064263636339,0.03603175287757908,0.02266087210504503,-0.0020653862322044065,0.006308333620866749,0.0
2025/04/09 10:24:56.35745939,1744187096,33378956,piren,0.2937452748371017,-0.11112555343074786,-0.0424122675300424,-0.0029432266308616712,0.00584077763022181,-0.0029079298136572545
2025/04/09 10:24:56.100123125,1744187096,98412561,piren,0.308500876908238,-0.08511821638317127,-0.030506364118573957,-0.0026451756267327066,0.00605040005199369,0.001808498238468723
2025/04/09 10:24:56.134572671,1744187096,132513432,piren,0.3056556961415028,0.03297495911770015,0.015758193543847915,-0.005482663310376064,0.007032258852789367,0.0
2025/04/09 10:24:56.201237138,1744187096,199136803,piren,0.30579478682807365,-0.10541665666710326,-0.04514426101877652,-0.006332373426076941,0.007579250042686969,0.003255625268055266
2025/04/09 10:24:56.235350088,1744187096,233286036,piren,0.3070190139044827,-0.18657103025193503,-0.081213555029964,-0.005819102567313274,0.008211382165453394,0.0
2025/04/09 10:24:56.300323434,1744187096,298674303,piren,0.31002881727581566,-0.24296702787019095,-0.10735788146096395,-0.006689888804784075,0.007679083170660043,0.002702053352915426
2025/04/09 10:24:56.335592740,1744187096,333786626,piren,0.31277888615372845,-0.2586612085485289,-0.1149547561982775,-0.0071856631616029785,0.007201866069640313,0.0
2025/04/09 10:24:56.401056661,1744187096,398932668,piren,0.31635341247074406,-0.2503031212395403,-0.11162082182729519,-0.00510123610540348,0.005655599098503929,0.0019814747172713473
2025/04/09 10:24:56.435487137,1744187096,433698721,piren,0.31794565895966126,-0.01814076002219775,-0.014982545735947275,-0.0046532492893630135,0.0037834058309232817,0.0
2025/04/09 10:24:56.501838073,1744187096,499939395,piren,0.32040409903588635,-0.052416841570266506,-0.02714184390950186,-0.0056108742973392705,0.0017337209780919009,0.0018658829991065008
2025/04/09 10:24:56.538217809,1744187096,535530765,piren,0.32222738156388014,-0.10101176467674161,-0.04747809502833852,-0.0047917837213882035,0.0001347798715911878,0.0
2025/04/09 10:24:56.604826027,1744187096,603038858,piren,0.3241203446822966,-0.12481911230224835,-0.05693820615038446,-0.0021406187646944245,-0.0021246657053223656,0.0007406966213279237
2025/04/09 10:24:56.639114575,1744187096,637317875,piren,0.32441957128717164,-0.03642212656009218,-0.016272553873579544,-3.1379084476306435e-05,-0.0036889463825675725,0.0
2025/04/09 10:24:56.705854495,1744187096,703538132,piren,0.3249979718013493,0.010687975341215461,0.006098483565398289,0.0006814905892446319,-0.00574104715993932,-0.0004755093463082154
2025/04/09 10:24:56.739441789,1744187096,737871619,piren,0.3242253078435625,0.07765313289610236,0.03585142238100972,0.0012387359379987016,-0.008075859419873708,0.0
2025/04/09 10:24:56.805301137,1744187096,803576504,piren,0.3218354239817928,0.09522256572772636,0.044884288599232394,0.001769215790759079,-0.00900999151298991,0.0002544913367239032
2025/04/09 10:24:56.840804472,1744187096,838930510,piren,0.3194424344956134,0.010235973837597681,0.008544188648328094,0.003473839886571901,-0.00946703188022326,0.0
2025/04/09 10:24:56.906739620,1744187096,904520390,piren,0.31730770899976063,-0.052922313369026974,-0.018480568608178764,0.005603713733853758,-0.009350360176469747,1.453504306482793e-05
2025/04/09 10:24:56.940990925,1744187096,939474178,piren,0.31456235920277337,-0.014066595275199156,0.00023033528373269177,0.007158725882722652,-0.009358541421685396,0.0
2025/04/09 10:24:56.975309349,1744187096,973435887,piren,0.3134079996330003,0.11627438071286594,0.0537989915486822,0.005970889943951168,-0.008004020524429783,0.0
2025/04/09 10:24:57.41501031,1744187097,39743307,piren,0.31231164014152474,0.2145129371775052,0.09310656272109696,0.004487130186064088,-0.006081003959613405,0.004070813943949578
2025/04/09 10:24:57.76984692,1744187097,74821069,piren,0.31124981460889123,0.18467606702693007,0.08335856832190984,0.003885776253050176,-0.003849220720607156,0.0
2025/04/09 10:24:57.141955591,1744187097,140476158,piren,0.3105685058514611,0.02698298888503775,0.016164805677171046,0.004903201808604496,-0.0009050588445274433,0.0048817189917201
2025/04/09 10:24:57.178031201,1744187097,176004824,piren,0.31078307541561134,0.014706043981868401,0.013170407530034822,0.004887445037903436,0.0013553144797481375,0.0
2025/04/09 10:24:57.244863015,1744187097,243083223,piren,0.31065060051055315,0.003115662507661524,0.009296257329536317,0.00490555667747828,0.002856155528088978,0.00021595738293476066
2025/04/09 10:24:57.279665995,1744187097,278067061,piren,0.31001680163244616,0.10868111842369178,0.05052432806790641,0.002170723799065862,0.005004540883560268,0.0
2025/04/09 10:24:57.347989056,1744187097,346385699,piren,0.3107741687261752,-0.04293556740963177,-0.016483694507335042,0.0014188957324398164,0.006123159912789306,0.004964845324184665
2025/04/09 10:24:57.383592469,1744187097,380943149,piren,0.31167721518377234,-0.09514378577591778,-0.03842767965762839,-0.0002939723018253023,0.007730968142554141,0.0
2025/04/09 10:24:57.451444085,1744187097,449935464,piren,0.3122071608370335,-0.04860998748777129,-0.01781508689331908,5.574401219514046e-05,0.009816597989206723,0.010882376690907511
2025/04/09 10:24:57.486961563,1744187097,484931615,piren,0.31148106259292957,0.01888087731440427,0.010147953378700333,-0.0031261345447919668,0.010258800475826425,0.001104631655309478
2025/04/09 10:24:57.555477807,1744187097,553235638,piren,0.31684653485990577,0.0353250968784774,0.016691528031300248,-0.004047402465704738,0.009158709678953644,0.0
2025/04/09 10:24:57.590365218,1744187097,588546766,piren,0.3215489855393572,-0.07581875739956595,-0.034543257426831536,-0.004772545141959852,0.008461764185807602,0.0019255671160804467
2025/04/09 10:24:57.658902948,1744187097,656338353,piren,0.32807465779546885,0.018825041887884794,0.004859434129684093,-0.006646859838185083,0.006058967321594964,0.0
2025/04/09 10:24:57.725241901,1744187097,723676154,piren,0.33433253041589533,-0.07018613911095635,-0.035332154217648445,-0.004944116986698661,0.0039588888213829615,0.006045055629622454
2025/04/09 10:24:57.792688469,1744187097,791013246,piren,0.338811339991753,0.0809280639468394,0.026278808780113738,-0.005967154206778793,0.0016843728355208744,0.0015555093100462502
2025/04/09 10:24:57.827903037,1744187097,826472548,piren,0.34342493383487643,-0.04188209108638183,-0.026808584305367242,-0.005948597173785619,-0.00010307010427764059,0.0
2025/04/09 10:24:57.895666510,1744187097,893657283,piren,0.3468980921983076,-0.10659709079855054,-0.053635372375500985,-0.0037203507963355586,-0.0025508006552741372,0.0008424171563255069
2025/04/09 10:24:57.949850678,1744187097,947959979,piren,0.3475551090912178,0.06467640830273885,0.01851931615982528,-0.0044544557436684545,-0.004803947341858984,0.0
2025/04/09 10:24:57.984899437,1744187097,983033299,piren,0.3486144363681434,-0.04653682893531404,-0.027423079949264573,-0.0018935515426244294,-0.006746214498673635,0.0007358551782457164
2025/04/09 10:24:58.53678641,1744187098,50954111,piren,0.3475240169467271,0.10060955478816104,0.03562435437668475,-0.002481639301618665,-0.008798969137729847,0.0
2025/04/09 10:24:58.88147472,1744187098,86571792,piren,0.34646808817742575,-0.026933035771844874,-0.016406654649301453,0.0002526954501677745,-0.009607798409735323,0.0015675871053963564
2025/04/09 10:24:58.124929777,1744187098,121712829,piren,0.3444198034768761,0.10830939101142538,0.042012803886234434,-0.00011948448487554137,-0.00918254336687214,0.0
2025/04/09 10:24:58.193568591,1744187098,190785741,piren,0.34419681473746105,-0.02763950358362345,-0.013434273443663623,0.0027091314041544083,-0.009042741883388349,0.0007584931717318635
2025/04/09 10:24:58.229767380,1744187098,225666956,piren,0.34215548538254564,0.10115195905705111,0.04229540119630889,0.0026175678828142335,-0.008262592867794885,0.0
2025/04/09 10:24:58.297124323,1744187098,294958833,piren,0.34047084274366185,0.05201202469279413,0.02663740736739405,0.003079356126340695,-0.007065110960037509,0.0008338998236138558
2025/04/09 10:24:58.332999403,1744187098,330847181,piren,0.3388265876863899,-0.0008513884709831568,0.007442562595206318,0.00419859617794103,-0.006185536857779497,0.0
2025/04/09 10:24:58.400637497,1744187098,398506589,piren,0.3362748900970475,0.011367403527219348,0.014825749939107161,0.0046415027232644505,-0.004093567296054301,0.0018140769109224314
2025/04/09 10:24:58.436089422,1744187098,434272201,piren,0.33476302822150517,0.010519080972016663,0.01565686698957264,0.0052225846494855874,-0.0012365041805489378,0.0
2025/04/09 10:24:58.504936124,1744187098,502195908,piren,0.3339498360262043,0.1268796687536902,0.06044481356131434,0.00359669705955334,0.0009719086751040782,0.0012214922556763276
2025/04/09 10:24:58.541015876,1744187098,539222329,piren,0.33404026474122495,-0.008627723177733415,0.002624631126118611,0.003680269507452241,0.0023136182263124453,0.0
2025/04/09 10:24:58.576729449,1744187098,574667128,piren,0.33355065312871396,-0.05173287400689368,-0.014710875413947735,0.004808738720455068,0.004655228965953319,0.0
2025/04/09 10:24:58.646777652,1744187098,644322986,piren,0.3324480278499325,-0.03904908236945665,-0.00883386453634856,0.005800474385978678,0.0066075932808337245,0.011897032789122236
2025/04/09 10:24:58.682647724,1744187098,680138657,piren,0.33616119618996004,0.07092898804894468,0.03426888391425819,0.003473840400486297,0.007924387924318627,0.002023562214762196
2025/04/09 10:24:58.751432061,1744187098,749329293,piren,0.34066086535153794,0.0384454045874005,0.020251331869708615,0.000642567111286059,0.008948440871150912,0.0
2025/04/09 10:24:58.820394847,1744187098,817778756,piren,0.34371780807973684,0.02855989663066759,0.015234709338918144,-0.0009727934001141465,0.0093918650186344,0.013248255262188676
2025/04/09 10:24:58.888241052,1744187098,886682160,piren,0.34819798276366803,0.029710330665738745,0.014557886571361317,-0.0021880258360832995,0.00853933520371422,0.0017935286886040542
2025/04/09 10:24:58.923678388,1744187098,921875128,piren,0.3513403750035197,0.03175258751612056,0.014207666573108917,-0.001946167160991995,0.006846281536160483,0.0
2025/04/09 10:24:58.994130652,1744187098,991834040,piren,0.35412851326250366,0.014791779531787702,0.006079522600234094,-0.0029292849291643656,0.005184031058431674,0.0020748378508522905
2025/04/09 10:24:59.28977929,1744187099,27223849,piren,0.356251368697531,-0.11254574666868428,-0.05269475085351303,-0.0016566661668187082,0.0029548030593293095,0.0
2025/04/09 10:24:59.98183235,1744187099,96427237,piren,0.3567221811361835,0.019142035055710604,0.0012763736505323892,-0.0037967443867612145,0.0009015817774765049,0.002672682515624669
2025/04/09 10:24:59.134279332,1744187099,132339475,piren,0.35789743603108964,0.12392712242863091,0.043400327790297406,-0.004729742908910358,-0.0012563648897563507,0.0
2025/04/09 10:24:59.205957596,1744187099,201561094,piren,0.3588811357965371,0.19022678971955392,0.07019297187526624,-0.004383273428249201,-0.003226903439396798,0.002983525767926937
2025/04/09 10:24:59.239215284,1744187099,237714637,piren,0.36015011266422353,0.21718614328988187,0.08195082131828534,-0.00580730848432678,-0.005098079569602633,0.0
2025/04/09 10:24:59.275540790,1744187099,273304519,piren,0.3618287993135711,0.0809063987584974,0.028956374996602807,-0.004402767331138529,-0.006527688696709149,0.0
2025/04/09 10:24:59.346125229,1744187099,343447052,piren,0.36159415830534286,0.13491772240013197,0.05151563708635648,-0.005363694775200649,-0.007656077721100559,0.017244207978863745
2025/04/09 10:24:59.381394595,1744187099,379220661,piren,0.3631721920249676,-0.058968029419884604,-0.029612700540640455,-0.0045755165672282634,-0.008225293441052235,0.0
2025/04/09 10:24:59.451280326,1744187099,449270971,piren,0.36592893344522975,-0.06520205361816842,-0.026838821860586757,-0.002424642640469406,-0.008779473015130572,0.018557096247855676
2025/04/09 10:24:59.522676127,1744187099,519683567,piren,0.36734576712751743,0.04508065624581796,0.019092235301319944,-0.002227893769971138,-0.007660329367791457,0.02380893847526795
2025/04/09 10:24:59.594438506,1744187099,591968785,piren,0.36730605815068895,0.0015922495219907531,0.005094192774692615,-0.0019069668628006985,-0.006135271646662715,0.005103004344091871
2025/04/09 10:24:59.629481685,1744187099,627602172,piren,0.3667421389351604,-0.017134801855673128,-4.4679519437465856e-05,-5.6592446911445605e-05,-0.004294911133664308,0.0
2025/04/09 10:24:59.700914364,1744187099,697382981,piren,0.3654866483008392,0.058968130394805134,0.03033680437768778,0.0012234474455922362,-0.002332594681498203,0.00511405623682191
2025/04/09 10:24:59.736196658,1744187099,733474419,piren,0.363795890090296,0.005916108010114496,0.010143745170559607,0.0006554727506942561,-0.0007684699090750067,0.0
2025/04/09 10:24:59.771144678,1744187099,769321406,piren,0.3654765859358578,-0.12647794236336302,-0.04735950418179018,0.0030286754384981924,0.0013215954646308057,0.0
2025/04/09 10:24:59.842961284,1744187099,840191391,piren,0.3599497004599017,0.014004761126033938,0.008148870468196963,0.004064893636720119,0.00336788278978981,0.03072910835781459
2025/04/09 10:24:59.878722644,1744187099,876161164,piren,0.35814969416860565,-0.0010902011550118704,0.003942027630310082,0.00323555089305739,0.005176299815698585,0.0
2025/04/09 10:24:59.948345484,1744187099,946233769,piren,0.3550725427210638,-0.00927058118149978,0.0013903282931195548,0.003977455224144481,0.0060395631559141535,0.03149078359031594
2025/04/09 10:24:59.984511420,1744187099,982602419,piren,0.35651958476105405,0.04819209399042813,0.02354065434241119,0.003334811097813302,0.007141027744606481,0.006789227236549628
2025/04/09 10:25:00.56319813,1744187100,53606294,piren,0.3532106837733865,0.028086728207744834,0.015177118291387235,0.0033880882853806167,0.009315203578735966,0.0
2025/04/09 10:25:00.94028149,1744187100,92468745,piren,0.3399353603808324,0.014108992923092608,0.008793955590869706,0.002830546949893642,0.009584965778913334,0.005245534289111588
2025/04/09 10:25:00.130962497,1744187100,128510406,piren,0.3436637612361212,-0.10799272541889911,-0.04567588360661683,0.0038303882266675425,0.008283991601802546,0.0
2025/04/09 10:25:00.202634326,1744187100,200374179,piren,0.34874906448221754,-0.08016523715873553,-0.03394318088797414,0.004957858853185914,0.006592000108604575,0.005494391362340147
2025/04/09 10:25:00.238568728,1744187100,236665747,piren,0.34993892600664384,0.04073595503341458,0.012801686892902328,0.0026831314640126344,0.004134985454708708,0.0
2025/04/09 10:25:00.296034488,1744187100,294066906,piren,0.34967071459900595,0.01427552953659834,0.0029138120236485085,0.0008575188645224311,0.00256429617720065,0.007640223221681652
2025/04/09 10:25:00.333041529,1744187100,331310899,piren,0.3445291765038293,-0.0012207838941780125,-0.0027877486688638216,0.0004535322154283055,0.0009710345261382887,0.0
2025/04/09 10:25:00.404859981,1744187100,402502000,piren,0.3408925239858037,-0.007084238719335545,-0.004708847814402995,0.0006534802178466982,-0.0006996498014714646,0.00782345072475897
2025/04/09 10:25:00.442320630,1744187100,439605212,piren,0.3378318966051667,0.019048766854484353,0.006154356940689686,-0.0019477377954675603,-0.0015420971099534928,0.0
2025/04/09 10:25:00.478116663,1744187100,476209657,piren,0.3364612236684481,-0.03219944768015957,-0.014814647410445778,-0.002378068177215468,-0.003190624554060695,0.0
2025/04/09 10:25:00.551741450,1744187100,548815293,piren,0.3351081153376073,-0.06577023067425251,-0.028349695105487543,-0.002961443710611575,-0.005146329767517846,0.0366415932148035
2025/04/09 10:25:00.588467715,1744187100,586721339,piren,0.3369198961690474,-0.04444073726431305,-0.018656227441887212,-0.0033435974772486137,-0.0067373627546528,0.007296741896490267
2025/04/09 10:25:00.658842862,1744187100,657206693,piren,0.3371953408004176,-0.031880023448229974,-0.012247584421604445,-0.004241728852707404,-0.00761233901600638,0.0
2025/04/09 10:25:00.730342881,1744187100,728478551,piren,0.3294321838391626,0.09766686363036532,0.03772040615028443,-0.004004272678034231,-0.007256593318924303,0.04285200846166422
2025/04/09 10:25:00.802535401,1744187100,800222676,piren,0.32631943182414047,0.08583410652354323,0.03525647948147961,-0.005454500015646875,-0.006512377433018271,0.007947436560701543
2025/04/09 10:25:00.838599659,1744187100,836946251,piren,0.3267441434133617,-0.05981669940983955,-0.026026799859381465,-0.0046498101883799955,-0.005568766091345057,0.0
2025/04/09 10:25:00.909828624,1744187100,907759363,piren,0.32578229379896595,-0.1332202939973289,-0.055752957242957285,-0.003446300639758194,-0.004149788934039413,0.007896404544783372
2025/04/09 10:25:00.946872154,1744187100,945042926,piren,0.3205309891700382,-0.04104626544099155,-0.015742347680849644,-0.0018964934763740424,-0.0028714641278416446,0.0
2025/04/09 10:25:00.983771920,1744187100,981851045,piren,0.32206850080187915,0.022156312322521993,0.011499745331203202,-0.0027602345009715337,-0.0015542799775735596,0.009742079714076111
2025/04/09 10:25:01.22163483,1744187101,18503361,piren,0.3244306904915448,0.021488932543160994,0.012685130461873216,-0.0023231739684635975,-0.000982163114331859,0.0
2025/04/09 10:25:01.92330323,1744187101,90555924,piren,0.3298163772693898,0.022089758713400083,0.013590636204554217,-0.0012270716545337969,0.0007012967715790626,0.010129672249019924
2025/04/09 10:25:01.130328334,1744187101,127408291,piren,0.3214343499897951,0.01502202804458612,0.010884771004923254,-0.00037981962434998875,0.0033727760055898013,0.0
2025/04/09 10:25:01.203783315,1744187101,200277210,piren,0.3059289811065356,0.011728960773143268,0.009195381753849562,0.002322205491011851,0.006863129196535174,0.009164705021554845
2025/04/09 10:25:01.277146245,1744187101,274832311,piren,0.3085894567643664,0.09243588888129997,0.038839585874496395,0.0023084870607911127,0.007536357427936282,0.0
2025/04/09 10:25:01.351329916,1744187101,349687248,piren,0.3010682337631352,0.15427695354569512,0.06053913829533533,0.002942522414795841,0.007416871593003913,0.04477776197590796
2025/04/09 10:25:01.391158042,1744187101,388851337,piren,0.2997880361509488,0.09509868437435179,0.036778610252113694,0.005300329710002174,0.0067466488715286245,0.009116426046318644
2025/04/09 10:25:01.465685071,1744187101,462861141,piren,0.30024944202082227,0.03117403895494099,0.01054480543811066,0.002033984035391196,0.004979761217260205,0.0
2025/04/09 10:25:01.539969014,1744187101,537972291,piren,0.2894045238007493,-0.14774057225922696,-0.06686960256610881,0.005713495566494448,0.0037929766053579157,0.04775754683662011
2025/04/09 10:25:01.578690060,1744187101,576975835,piren,0.2838498620409155,0.0052326414023351475,-0.006350186553565257,0.0027941612311002152,0.0026477535022200256,0.0
2025/04/09 10:25:01.653041214,1744187101,650950816,piren,0.27843247317109676,-0.06099765382518889,-0.032127124069937105,0.004463405273507592,5.52686294378724e-05,0.0533842955794239
2025/04/09 10:25:01.727230868,1744187101,724282532,piren,0.2717158935030057,0.064806160022135,0.01817455998631238,0.0021079283514736677,-0.0016877095893299897,0.047868663577500734
2025/04/09 10:25:01.798670620,1744187101,797094469,piren,0.27172860900609525,-0.07511579989677593,-0.04005002140612036,0.0016958683283858785,-0.002987700496124761,0.00944008953467272
2025/04/09 10:25:01.836186341,1744187101,834167957,piren,0.26839641859396585,-0.04844789273556707,-0.02525442319069598,0.00020975520800055024,-0.004112051464949125,0.0
2025/04/09 10:25:01.873269899,1744187101,871387487,piren,0.26497433837603246,-0.021751406724206755,-0.01149498732506161,6.226508253254052e-05,-0.004979198446078487,0.0
2025/04/09 10:25:01.945656885,1744187101,943462432,piren,0.25683161980014124,0.10689841604594183,0.03887360215004491,-0.00042767225981903996,-0.005563711706750353,0.04768449916524327
2025/04/09 10:25:01.983550413,1744187101,981789544,piren,0.25269062261854747,0.15058012080225996,0.057815896430259514,-0.0006693423857835148,-0.005797439526459695,0.008902947422041856
2025/04/09 10:25:02.56121994,1744187102,54505583,piren,0.2510554082607542,0.12235742963757691,0.04939177048012978,-0.0029532510788450443,-0.005465985670386353,0.0
2025/04/09 10:25:02.129000667,1744187102,126046134,piren,0.24702709205694195,0.05416865084330273,0.02432583108448013,-0.00288172417319882,-0.004983392460855837,0.044784710359542824
2025/04/09 10:25:02.201390070,1744187102,199503942,piren,0.24600851465002055,-0.026866394040007804,-0.007380907964652662,-0.004341029333398544,-0.0038759786489953344,0.0084287929219033
2025/04/09 10:25:02.238932847,1744187102,236932265,piren,0.24397840666920279,-0.03422561843385702,-0.009146744057650136,-0.0042425382768596824,-0.0024150334720956642,0.0
2025/04/09 10:25:02.278212071,1744187102,275373272,piren,0.23892641573856968,0.08066648564026727,0.0336650634757813,-0.0044125426105077505,-0.0008989199071976003,0.0
2025/04/09 10:25:02.350420383,1744187102,348466795,piren,0.23575181176524898,0.024377564270389118,0.0127228537892396,-0.003475065938726073,0.000601736130360118,0.032947854544834405
2025/04/09 10:25:02.389286080,1744187102,386803765,piren,0.234296969263869,-0.012259327674428638,-0.0011646652308467571,-0.002882193882995354,0.0020132091362986865,0.0
2025/04/09 10:25:02.462224360,1744187102,460446667,piren,0.23105343068214101,-0.03431940488312684,-0.010161203792184997,-0.0006626971536447407,0.0036192917784011575,0.03882757862924763
2025/04/09 10:25:02.538551427,1744187102,536178910,piren,0.2302745829848846,-0.05815903440020556,-0.020342011994346272,-0.0008202760306765524,0.004781753065515798,0.04095805493578386
2025/04/09 10:25:02.577884549,1744187102,575155608,piren,0.2297574496835296,-0.057843386587365236,-0.020882430178624397,-0.00046541505830940646,0.0054021928377089865,0.0
2025/04/09 10:25:02.651960275,1744187102,649963127,piren,0.22586317307445827,-0.07456349679941959,-0.029154378249972985,0.0011934205870677561,0.005446631586660378,0.03951382951045396
2025/04/09 10:25:02.745524971,1744187102,743620089,piren,0.22210722506642927,-0.05001615673077177,-0.020243870842701035,0.002258085441406193,0.004973387476515268,0.03639191184629224
2025/04/09 10:25:02.784343507,1744187102,782377939,piren,0.2168710841620396,0.08623158290256432,0.029651673918516853,0.0016753331432292895,0.00421692480412057,0.006793552288638761
2025/04/09 10:25:02.822798251,1744187102,820280312,piren,0.21743767858838514,-0.053002793651194605,-0.029223784277598603,0.0032002145176979455,0.0031819667579643094,0.0
2025/04/09 10:25:02.895975942,1744187102,894046483,piren,0.21336013739351078,-0.033917034239039294,-0.019497288907278695,0.004413906522528203,0.0019961077786456714,0.006496144506008426
2025/04/09 10:25:02.933715224,1744187102,932126315,piren,0.204562761597299,0.09002792129162987,0.028321873749121793,0.005239156040200343,0.00042577089603707495,0.0
