time,header_stamp_secs,header_stamp_nsecs,header_frame_id,wrench_force_x,wrench_force_y,wrench_force_z,wrench_torque_x,wrench_torque_y,wrench_torque_z
2025/04/09 09:49:46.912967837,1744184986,912783557,,0.16696885228157043,0.02185434475541112,0.0,0.0,0.0,0.1258651316165924
2025/04/09 09:49:47.1034320,1744184987,808264,,0.16476505994796753,0.02188050933182241,0.0,0.0,0.0,0.12626206874847412
2025/04/09 09:49:47.100337403,1744184987,99703270,,0.16338245570659637,0.02188575640320778,0.0,0.0,0.0,0.12493324279785159
2025/04/09 09:49:47.202129400,1744184987,201088913,,0.1627918481826782,0.022009650245308904,0.0,0.0,0.0,0.12492120265960693
2025/04/09 09:49:47.302567446,1744184987,299906848,,0.16226188838481903,0.022151738405227675,0.0,0.0,0.0,0.1248097419738769
2025/04/09 09:49:47.402320308,1744184987,402048878,,0.16264328360557556,0.02219801023602487,0.0,0.0,0.0,0.12481368333101273
2025/04/09 09:49:47.500140076,1744184987,499759697,,0.16092890501022342,0.02488619834184648,0.0,0.0,0.0,0.12539160251617434
2025/04/09 09:49:47.603870243,1744184987,601491569,,0.16141082346439362,0.023524945601820932,0.0,0.0,0.0,0.12564833462238312
2025/04/09 09:49:47.699794230,1744184987,699598842,,0.16218708455562592,0.022560853511095047,0.0,0.0,0.0,0.12607163190841683
2025/04/09 09:49:47.805584089,1744184987,804710341,,0.1622837632894516,0.02246470749378203,0.0,0.0,0.0,0.12494876235723501
2025/04/09 09:49:47.900834752,1744184987,900590997,,0.1624251753091812,0.02240451984107493,0.0,0.0,0.0,0.12492755800485617
2025/04/09 09:49:48.332128,1744184987,999606224,,0.162774071097374,0.02242253907024859,0.0,0.0,0.0,0.12492512166500089
2025/04/09 09:49:48.101290286,1744184988,101101596,,0.16235944628715512,0.022119442000985146,0.0,0.0,0.0,0.12518733739852902
2025/04/09 09:49:48.200438746,1744184988,200244455,,0.16223712265491486,0.022112028673291206,0.0,0.0,0.0,0.12527292966842654
2025/04/09 09:49:48.306326272,1744184988,306051960,,0.16079773008823395,0.022154249250888824,0.0,0.0,0.0,0.12559430301189414
2025/04/09 09:49:48.400925298,1744184988,399990690,,0.15993978083133698,0.021584773436188684,0.0,0.0,0.0,0.12575350701808927
2025/04/09 09:49:48.505761446,1744184988,505281770,,0.15862055122852325,0.02197947911918162,0.0,0.0,0.0,0.1256995052099228
2025/04/09 09:49:48.601415701,1744184988,601212223,,0.1573098301887512,0.02202713862061502,0.0,0.0,0.0,0.12569791078567508
2025/04/09 09:49:48.703048854,1744184988,702866364,,0.15617211163043976,0.022159898653626442,0.0,0.0,0.0,0.1257757842540741
2025/04/09 09:49:48.800077683,1744184988,799706510,,0.1557515412569046,0.022191744297742858,0.0,0.0,0.0,0.12540325522422785
2025/04/09 09:49:48.900357718,1744184988,899977307,,0.15518519282341003,0.022321045398712172,0.0,0.0,0.0,0.12563523650169378
2025/04/09 09:49:49.2992592,1744184989,2770346,,0.15505334734916687,0.022194780409336118,0.0,0.0,0.0,0.12571917474269864
2025/04/09 09:49:49.102311413,1744184989,102092400,,0.1554194539785385,0.021838989108800888,0.0,0.0,0.0,0.12566174566745753
2025/04/09 09:49:49.201440041,1744184989,201254148,,0.15562677383422852,0.02175357192754744,0.0,0.0,0.0,0.1257727444171906
2025/04/09 09:49:49.303752681,1744184989,302445407,,0.15629844367504123,0.022046586498618126,0.0,0.0,0.0,0.12580095231533056
2025/04/09 09:49:49.400133118,1744184989,399932585,,0.15673547983169556,0.02204882167279719,0.0,0.0,0.0,0.1257013231515884
2025/04/09 09:49:49.500668897,1744184989,500437433,,0.15688525140285492,0.021905550733208684,0.0,0.0,0.0,0.1256566047668457
2025/04/09 09:49:49.600058144,1744184989,599659000,,0.15682663023471832,0.022061314433813095,0.0,0.0,0.0,0.12565471231937403
2025/04/09 09:49:49.700808944,1744184989,700493547,,0.15649931132793427,0.02217298373579976,0.0,0.0,0.0,0.12565457820892328
2025/04/09 09:49:49.803529231,1744184989,803276387,,0.1556738018989563,0.02247967198491098,0.0,0.0,0.0,0.12565641105175007
2025/04/09 09:49:49.904227870,1744184989,903974420,,0.15295420587062836,0.022376354783773422,0.0,0.0,0.0,0.12571151554584503
2025/04/09 09:49:50.4903554,1744184990,3343234,,0.15235352516174314,0.022363737225532532,0.0,0.0,0.0,0.1253868341445924
2025/04/09 09:49:50.102072571,1744184990,100169856,,0.1511964052915573,0.02237571589648725,0.0,0.0,0.0,0.1255845129489898
2025/04/09 09:49:50.201764687,1744184990,201493699,,0.15052317082881927,0.022502588108181953,0.0,0.0,0.0,0.1256997138261795
2025/04/09 09:49:50.302723167,1744184990,302320679,,0.14964473247528076,0.02256023325026034,0.0,0.0,0.0,0.12567098438739777
2025/04/09 09:49:50.400977732,1744184990,400025330,,0.1488540321588516,0.022703409194946303,0.0,0.0,0.0,0.125667244195938
2025/04/09 09:49:50.500962990,1744184990,500250683,,0.1488502323627472,0.02267804741859436,0.0,0.0,0.0,0.1256740242242813
2025/04/09 09:49:50.600201236,1744184990,599770642,,0.1486759930849075,0.022325836122035966,0.0,0.0,0.0,0.12568642199039454
2025/04/09 09:49:50.700222232,1744184990,700035912,,0.14921361207962036,0.021878104656934766,0.0,0.0,0.0,0.1257337778806685
2025/04/09 09:49:50.800732677,1744184990,800508381,,0.14946348965168002,0.022088967263698564,0.0,0.0,0.0,0.12547063827514654
2025/04/09 09:49:50.900411306,1744184990,900203715,,0.15008431673049927,0.022121857851743698,0.0,0.0,0.0,0.1256484836339951
2025/04/09 09:49:51.3469781,1744184991,3260529,,0.14997664093971252,0.02214734628796576,0.0,0.0,0.0,0.1253962069749833
2025/04/09 09:49:51.100678930,1744184991,100485979,,0.14944584667682645,0.022344389930367484,0.0,0.0,0.0,0.12543131411075592
2025/04/09 09:49:51.203908958,1744184991,203689640,,0.1481676995754242,0.022246019914746312,0.0,0.0,0.0,0.12541142106056208
2025/04/09 09:49:51.304871824,1744184991,302819351,,0.14691317081451416,0.02260411716997625,0.0,0.0,0.0,0.12551318109035486
2025/04/09 09:49:51.401492594,1744184991,401288909,,0.14630423486232758,0.022551391273736954,0.0,0.0,0.0,0.1255681961774826
2025/04/09 09:49:51.500981641,1744184991,500670858,,0.14516352117061618,0.022664461284875884,0.0,0.0,0.0,0.1256568431854248
2025/04/09 09:49:51.602007776,1744184991,601829398,,0.1434696316719055,0.022443620488047586,0.0,0.0,0.0,0.1257618367671966
2025/04/09 09:49:51.704434288,1744184991,704267885,,0.14287038147449493,0.022542560473084464,0.0,0.0,0.0,0.12582175433635706
2025/04/09 09:49:51.800917614,1744184991,800702490,,0.1423582285642624,0.022723237052559866,0.0,0.0,0.0,0.12580239772796636
2025/04/09 09:49:51.901348567,1744184991,900020017,,0.14207784831523898,0.022915542125701877,0.0,0.0,0.0,0.12579379975795746
2025/04/09 09:49:52.1443250,1744184992,1202044,,0.14142890274524686,0.022605910897254944,0.0,0.0,0.0,0.12580415606498718
2025/04/09 09:49:52.100423386,1744184992,100230330,,0.14149893820285797,0.02257483080029489,0.0,0.0,0.0,0.12581518292427057
2025/04/09 09:49:52.205951277,1744184992,205378967,,0.14211781322956085,0.02233720757067202,0.0,0.0,0.0,0.12582950294017792
2025/04/09 09:49:52.301507827,1744184992,301339708,,0.14270919561386108,0.022335017099976553,0.0,0.0,0.0,0.12588268518447876
2025/04/09 09:49:52.412648440,1744184992,412355087,,29.914942077085094,0.06218856931858863,0.0,0.0,0.0,0.11431552469732154
2025/04/09 09:49:52.511386209,1744184992,511177147,,62.889134508681394,0.10677806288002145,0.0,0.0,0.0,0.11975172906934262
2025/04/09 09:49:52.611418786,1744184992,611130531,,98.59233263842631,0.13482911885026638,0.0,0.0,0.0,0.1231636255979609
2025/04/09 09:49:52.704024501,1744184992,703776261,,120.35414123535156,0.2499582022428548,0.0,0.0,0.0,0.124527186155305
2025/04/09 09:49:52.803410684,1744184992,803162413,,120.60033416748018,0.599331319332002,0.0,0.0,0.0,0.1213778182867884
2025/04/09 09:49:52.903741749,1744184992,903519709,,120.85002899169908,1.395770311355509,0.0,0.0,0.0,0.12360647320770113
2025/04/09 09:49:53.5224953,1744184993,4920271,,121.09951019286916,0.39236715425751,0.0,0.0,0.0,0.11805590224216189
2025/04/09 09:49:53.104049042,1744184993,103847754,,121.3506774902344,1.815251588821468,0.0,0.0,0.0,0.11726728826768351
2025/04/09 09:49:53.207802388,1744184993,207088346,,121.60279846192617,1.5764497519016594,0.0,0.0,0.0,0.11416361488564064
2025/04/09 09:49:53.302341486,1744184993,302151579,,121.7655715942383,1.8105770349503008,0.0,0.0,0.0,0.12223938107496224
2025/04/09 09:49:53.403003103,1744184993,402800729,,121.9589309692383,1.4843351840972092,0.0,0.0,0.0,0.3357988297937595
2025/04/09 09:49:53.501959150,1744184993,501763335,,122.09648132324219,1.181466102600094,0.0,0.0,0.0,0.5187799334525991
2025/04/09 09:49:53.603312550,1744184993,603077598,,122.11117553710929,1.5262862443923693,0.0,0.0,0.0,0.6507489085197733
2025/04/09 09:49:53.703017209,1744184993,702802490,,121.94755554199213,3.7127940654754545,0.0,0.0,0.0,0.5177848935127187
2025/04/09 09:49:53.803215774,1744184993,802973939,,121.98198699951166,1.3184715509414522,0.0,0.0,0.0,0.4933615624904135
2025/04/09 09:49:53.902951766,1744184993,902680297,,121.97838592529295,0.5901983380317686,0.0,0.0,0.0,0.7183617353439331
2025/04/09 09:49:54.5405187,1744184994,5123315,,121.90065002441406,-0.33579799532890386,0.0,0.0,0.0,0.776068925857551
2025/04/09 09:49:54.101425453,1744184994,100505492,,122.09486389160153,-0.9712743163108832,0.0,0.0,0.0,0.5242666602134776
2025/04/09 09:49:54.206137140,1744184994,203478889,,122.17175292968673,-2.1545009613037474,0.0,0.0,0.0,0.4787584841251942
2025/04/09 09:49:54.302821714,1744184994,302562972,,122.21276855468746,-1.3046312332153325,0.0,0.0,0.0,0.5553293824196004
2025/04/09 09:49:54.402070911,1744184994,401641484,,122.31658172607419,-0.7324243783950805,0.0,0.0,0.0,0.5761132240295552
2025/04/09 09:49:54.505021741,1744184994,504809090,,122.45567321777338,-1.5022445917129537,0.0,0.0,0.0,0.5770993232727122
2025/04/09 09:49:54.604210728,1744184994,603942673,,122.63837432861325,-0.7341512441635129,0.0,0.0,0.0,0.6971153020858836
2025/04/09 09:49:54.700374561,1744184994,700212030,,122.83537292480466,-1.313856005668641,0.0,0.0,0.0,0.6595138907432485
2025/04/09 09:49:54.803584040,1744184994,801278454,,122.9690933227539,-0.45720177888870195,0.0,0.0,0.0,0.6005185246467519
2025/04/09 09:49:54.903191173,1744184994,902922449,,122.73065948486052,3.1439380645753072,0.0,0.0,0.0,0.5811118483541406
2025/04/09 09:49:55.1197819,1744184995,949961,,123.11862182617186,4.421302318572996,0.0,0.0,0.0,0.726603627204895
2025/04/09 09:49:55.103672382,1744184995,103426718,,122.82665252685491,2.157048702240025,0.0,0.0,0.0,0.650872647762192
2025/04/09 09:49:55.202433361,1744184995,202191251,,122.89143371582026,3.5671379566192583,0.0,0.0,0.0,1.054222822189331
2025/04/09 09:49:55.301301011,1744184995,301070623,,122.75942230224449,3.4109075069428645,0.0,0.0,0.0,0.8673418164251814
2025/04/09 09:49:55.401066539,1744184995,400807824,,123.11610412597601,1.6721928119659748,0.0,0.0,0.0,1.4253765344619183
2025/04/09 09:49:55.500302887,1744184995,500097283,,122.84982299804685,0.8144182562828055,0.0,0.0,0.0,1.1170125007629252
2025/04/09 09:49:55.601819161,1744184995,601337039,,122.95406341552679,2.169154882431047,0.0,0.0,0.0,1.7691180706023957
2025/04/09 09:49:55.701564003,1744184995,701393029,,123.09468078613281,2.8066089153289795,0.0,0.0,0.0,1.98489964008332
2025/04/09 09:49:55.804778431,1744184995,802549875,,123.74006652832017,3.2741868495941264,0.0,0.0,0.0,1.7339533567428518
2025/04/09 09:49:55.901040111,1744184995,900851428,,123.67100524902341,0.774921059608433,0.0,0.0,0.0,1.3752031326293306
2025/04/09 09:49:56.1764559,1744184996,1599576,,123.91954040527342,1.0233590602874756,0.0,0.0,0.0,2.0450818538665914
2025/04/09 09:49:56.104069443,1744184996,103835396,,124.18149566649906,2.796012401581066,0.0,0.0,0.0,2.2627351284024613
2025/04/09 09:49:56.202779065,1744184996,202561663,,124.8760833740234,0.9941912889480525,0.0,0.0,0.0,2.188842535018914
2025/04/09 09:49:56.302505971,1744184996,302280961,,125.19055938719299,2.909223318100779,0.0,0.0,0.0,2.1680393218986254
2025/04/09 09:49:56.407687614,1744184996,407468534,,125.12033081054685,1.2492676973342864,0.0,0.0,0.0,1.7015446424483969
2025/04/09 09:49:56.502337129,1744184996,501660939,,125.28529357910094,2.1386623382568644,0.0,0.0,0.0,1.5952833890914633
2025/04/09 09:49:56.603613875,1744184996,603450792,,125.47269439697263,0.8241437077522272,0.0,0.0,0.0,2.6787009239196635
2025/04/09 09:49:56.702890705,1744184996,702585550,,125.63631439208802,3.0060665607453023,0.0,0.0,0.0,2.9003963470458487
2025/04/09 09:49:56.804265710,1744184996,804104151,,126.33759307861325,1.2945603132247911,0.0,0.0,0.0,2.7470252513885285
2025/04/09 09:49:56.901092456,1744184996,900893652,,126.63568115234374,0.23877602815627585,0.0,0.0,0.0,2.4317197799682333
2025/04/09 09:49:57.463725,1744184997,293251,,126.90046691894528,-0.6507979035377524,0.0,0.0,0.0,2.2328872680664062
2025/04/09 09:49:57.104236911,1744184997,102823949,,126.66070556640622,0.7303807139396616,0.0,0.0,0.0,2.1939587593078542
2025/04/09 09:49:57.201087674,1744184997,200863485,,127.41838073730395,2.3234875202179164,0.0,0.0,0.0,3.0475647449493124
2025/04/09 09:49:57.300765192,1744184997,300545249,,127.41542816162107,3.780287027359007,0.0,0.0,0.0,2.617621898651123
2025/04/09 09:49:57.402392687,1744184997,402156924,,127.861099243164,3.7124991416931175,0.0,0.0,0.0,3.3969833850860454
2025/04/09 09:49:57.501173477,1744184997,500963707,,128.31884765624997,3.684265613555912,0.0,0.0,0.0,3.787313222885132
2025/04/09 09:49:57.601876631,1744184997,601385885,,129.2451019287108,1.8612008094787873,0.0,0.0,0.0,3.724100351333611
2025/04/09 09:49:57.708997175,1744184997,708114961,,129.27304077148438,2.6643462181091313,0.0,0.0,0.0,3.1566290855407786
2025/04/09 09:49:57.801632378,1744184997,801453195,,129.71447753906182,2.2985386848450076,0.0,0.0,0.0,4.2195968627929545
2025/04/09 09:49:57.901542795,1744184997,901361227,,130.1182403564453,4.226158618927082,0.0,0.0,0.0,4.582865238189868
2025/04/09 09:49:58.3205826,1744184998,2942463,,131.17622375487838,2.2151424884800934,0.0,0.0,0.0,4.208559036254535
2025/04/09 09:49:58.102713362,1744184998,102495425,,131.67112731930587,2.845142126085199,0.0,0.0,0.0,3.880585670469621
2025/04/09 09:49:58.202059598,1744184998,201831952,,131.8203430175776,2.9900197982788415,0.0,0.0,0.0,3.4273605346679403
2025/04/09 09:49:58.303006108,1744184998,300954845,,132.6752929687633,5.187389373807915,0.0,0.0,0.0,4.712373256725549
2025/04/09 09:49:58.400787162,1744184998,400591136,,132.59403991699222,5.648263454437263,0.0,0.0,0.0,4.136404514312751
2025/04/09 09:49:58.501996749,1744184998,501499949,,133.03271484375003,5.4543581008911435,0.0,0.0,0.0,5.512659549713192
2025/04/09 09:49:58.601144662,1744184998,600911979,,133.55316162109375,5.255936622619636,0.0,0.0,0.0,5.877032279968262
2025/04/09 09:49:58.701451626,1744184998,701197239,,134.73020935058622,4.568684101105437,0.0,0.0,0.0,5.589836597443615
2025/04/09 09:49:58.800905607,1744184998,800711936,,134.86192321777338,3.2904875278477377,0.0,0.0,0.0,4.826657772064721
2025/04/09 09:49:58.902960189,1744184998,902709265,,135.48965454101562,2.5792706012725835,0.0,0.0,0.0,6.457310199737556
2025/04/09 09:49:59.3377025,1744184999,3156252,,137.19476318358468,2.6079261302953873,0.0,0.0,0.0,6.472697257995208
2025/04/09 09:49:59.110271179,1744184999,110070692,,137.36470031738318,5.1250944137580925,0.0,0.0,0.0,6.214458465577373
2025/04/09 09:49:59.201369413,1744184999,201156470,,137.82301330566474,3.330634355547881,0.0,0.0,0.0,5.003954887394414
2025/04/09 09:49:59.303336239,1744184999,303128021,,139.0478973388672,5.5162410736084,0.0,0.0,0.0,6.708062648773179
2025/04/09 09:49:59.400960866,1744184999,400781264,,139.80735778808594,5.891358375549318,0.0,0.0,0.0,6.3554768562316895
2025/04/09 09:49:59.507636979,1744184999,505847303,,140.6216583251954,5.7262587547304165,0.0,0.0,0.0,5.863913536072026
2025/04/09 09:49:59.603942393,1744184999,603187533,,140.75547790527344,5.169963836669978,0.0,0.0,0.0,6.065697193145823
2025/04/09 09:49:59.702546694,1744184999,702313119,,141.36940002441003,7.65297126769414,0.0,0.0,0.0,8.493772506701077
2025/04/09 09:49:59.801663316,1744184999,801443967,,142.0543212890626,7.755202293396117,0.0,0.0,0.0,9.077908515930353
2025/04/09 09:49:59.904077686,1744184999,903841889,,142.86642456054688,7.281398296356202,0.0,0.0,0.0,9.044717788696289
2025/04/09 09:50:00.4279611,1744185000,4067678,,144.387939453125,8.352196693420407,0.0,0.0,0.0,8.902783393859877
2025/04/09 09:50:00.102930786,1744185000,102712951,,145.17550659179688,8.436774253845211,0.0,0.0,0.0,8.282843589782715
2025/04/09 09:50:00.203037139,1744185000,202786350,,145.50909423828128,7.037176132202141,0.0,0.0,0.0,7.320311546325691
2025/04/09 09:50:00.307585187,1744185000,306458738,,146.894287109375,8.833415031433102,0.0,0.0,0.0,9.725222587585442
2025/04/09 09:50:00.402514157,1744185000,402304590,,147.82171630859375,9.054071426391596,0.0,0.0,0.0,9.238081932067885
2025/04/09 09:50:00.504269370,1744185000,503245426,,148.94738769531247,6.045308113098135,0.0,0.0,0.0,8.513042449951172
2025/04/09 09:50:00.605765483,1744185000,602661160,,149.4432373046875,7.20707845687866,0.0,0.0,0.0,8.804985046386719
2025/04/09 09:50:00.702817566,1744185000,702599608,,150.9945831298828,7.752258777618408,0.0,0.0,0.0,10.98773670196531
2025/04/09 09:50:00.802657556,1744185000,802455546,,152.08242797851562,9.849889755249023,0.0,0.0,0.0,10.37787532806395
2025/04/09 09:50:00.903135541,1744185000,902948847,,152.63070678710935,8.828131675720211,0.0,0.0,0.0,9.315826416015604
2025/04/09 09:50:01.4059730,1744185001,3889740,,153.4955291748047,11.089361190795904,0.0,0.0,0.0,12.694438934326172
2025/04/09 09:50:01.101357433,1744185001,101137370,,154.4095306396484,11.53780460357666,0.0,0.0,0.0,13.0842704772949
2025/04/09 09:50:01.201602472,1744185001,201376473,,155.37100219726557,11.074053764343283,0.0,0.0,0.0,13.320259094238217
2025/04/09 09:50:01.301730849,1744185001,301542774,,157.18612670898364,9.858559608459732,0.0,0.0,0.0,12.435172080993148
2025/04/09 09:50:01.401805312,1744185001,401594991,,158.21405029296872,11.438791275024423,0.0,0.0,0.0,11.748404502868631
2025/04/09 09:50:01.512419868,1744185001,512141186,,159.38726806640602,8.719326019287202,0.0,0.0,0.0,10.98727798461897
2025/04/09 09:50:01.602017023,1744185001,601812649,,159.86923217773403,7.236498355865579,0.0,0.0,0.0,11.31745052337628
2025/04/09 09:50:01.702693535,1744185001,702458851,,160.98571777343594,8.255209922791092,0.0,0.0,0.0,13.057967185973055
2025/04/09 09:50:01.801111328,1744185001,800906349,,161.285949707031,8.505714416503984,0.0,0.0,0.0,12.795769691467129
2025/04/09 09:50:01.903520520,1744185001,903350998,,158.02606201171866,7.246301174163831,0.0,0.0,0.0,12.32072257995602
2025/04/09 09:50:02.1134078,1744185002,895721,,152.94004821777344,6.120004177093502,0.0,0.0,0.0,11.764905929565423
2025/04/09 09:50:02.103516280,1744185002,102881780,,146.5732421875,6.700765609741202,0.0,0.0,0.0,11.893861770629869
2025/04/09 09:50:02.201024851,1744185002,200822781,,138.9178009033202,8.112333297729501,0.0,0.0,0.0,11.757613182067786
2025/04/09 09:50:02.301597196,1744185002,301366686,,131.41804504394204,9.899705886842098,0.0,0.0,0.0,13.365814208981888
2025/04/09 09:50:02.408153719,1744185002,405728748,,125.09002685546865,9.412284851074247,0.0,0.0,0.0,13.399998664855879
2025/04/09 09:50:02.503693765,1744185002,501547668,,116.98588562011716,8.5896816253662,0.0,0.0,0.0,13.133567810058551
2025/04/09 09:50:02.602987415,1744185002,602692609,,109.42209625244139,7.730853080749501,0.0,0.0,0.0,12.81425285339352
2025/04/09 09:50:02.703197234,1744185002,702194647,,102.45732116699219,7.649657726287833,0.0,0.0,0.0,12.449181556701646
2025/04/09 09:50:02.801906568,1744185002,801326551,,95.83960723876953,3.5659480094909535,0.0,0.0,0.0,12.344614982604977
2025/04/09 09:50:02.905691707,1744185002,905439943,,90.67797088623047,5.130149841308579,0.0,0.0,0.0,13.150521278381333
2025/04/09 09:50:03.633659,1744185003,445330,,86.68826293945312,4.640584945678705,0.0,0.0,0.0,13.060011863708496
2025/04/09 09:50:03.100670275,1744185003,100412244,,82.40324401855469,4.049318790435786,0.0,0.0,0.0,12.841776847839348
2025/04/09 09:50:03.200690768,1744185003,200510394,,78.37229919433594,2.1467661857604874,0.0,0.0,0.0,12.578401565551758
2025/04/09 09:50:03.301671246,1744185003,301508952,,74.5920639038086,5.400846958160398,0.0,0.0,0.0,12.57528114318847
2025/04/09 09:50:03.401799977,1744185003,401174803,,70.80691528320312,4.9655203819274885,0.0,0.0,0.0,12.566029548645016
2025/04/09 09:50:03.501275017,1744185003,501034065,,66.67667388916016,3.5739197731018058,0.0,0.0,0.0,12.527137756347638
2025/04/09 09:50:03.603575708,1744185003,603293350,,63.06831741333008,2.417365074157712,0.0,0.0,0.0,12.593297004699682
2025/04/09 09:50:03.703078517,1744185003,700967716,,59.4335289001465,1.8041398525237984,0.0,0.0,0.0,12.646040916442832
2025/04/09 09:50:03.800641769,1744185003,800467717,,55.83672332763793,0.3483825623984984,0.0,0.0,0.0,12.499176979062646
2025/04/09 09:50:03.904064311,1744185003,903023037,,52.8023948669434,1.7794744968414147,0.0,0.0,0.0,12.3411874771117
2025/04/09 09:50:04.1444491,1744185004,622974,,49.24841308593782,1.5299632549284907,0.0,0.0,0.0,12.339744567870312
2025/04/09 09:50:04.101153172,1744185004,100908748,,45.284893035888715,0.2506210207938544,0.0,0.0,0.0,12.37089729309075
2025/04/09 09:50:04.201854197,1744185004,201650448,,42.462379455566435,0.19604143500323623,0.0,0.0,0.0,11.9914388656616
2025/04/09 09:50:04.301959328,1744185004,301558710,,39.23500061045141,1.7391263246055804,0.0,0.0,0.0,12.041669845379612
2025/04/09 09:50:04.402603103,1744185004,402383411,,36.16662597657805,1.2348183393405314,0.0,0.0,0.0,12.109881401031801
2025/04/09 09:50:04.503803781,1744185004,503552519,,33.32910919190578,2.697448015207167,0.0,0.0,0.0,12.008536338772123
2025/04/09 09:50:04.601977700,1744185004,601424362,,30.77832412719708,1.0113347768783942,0.0,0.0,0.0,11.933018684387012
2025/04/09 09:50:04.704801376,1744185004,704625195,,28.346750259427573,2.031969070412204,0.0,0.0,0.0,11.860993385281336
2025/04/09 09:50:04.802906816,1744185004,802349525,,25.770345687873693,1.2969760894727678,0.0,0.0,0.0,11.864809036240192
2025/04/09 09:50:04.901485315,1744185004,900966165,,24.128414154055957,1.7352385520913947,0.0,0.0,0.0,11.286628723141153
2025/04/09 09:50:05.3024772,1744185005,2805966,,22.208843231201445,0.6546131968491844,0.0,0.0,0.0,11.351423263549055
2025/04/09 09:50:05.100956475,1744185005,100759182,,20.54537773130884,-1.2768993377468223,0.0,0.0,0.0,11.52086925502133
2025/04/09 09:50:05.201535389,1744185005,201302949,,18.773204803449694,-0.17028933776943145,0.0,0.0,0.0,11.581274986568882
2025/04/09 09:50:05.303234951,1744185005,302996926,,17.378488540649954,-0.20174837112653776,0.0,0.0,0.0,10.742002487187856
2025/04/09 09:50:05.401541573,1744185005,401356661,,16.0761661529541,-0.6007507443428031,0.0,0.0,0.0,10.412615776062017
2025/04/09 09:50:05.502354176,1744185005,500772700,,14.945252418518356,-0.9934630990034146,0.0,0.0,0.0,10.453965187074127
2025/04/09 09:50:05.602380245,1744185005,601787508,,14.265990257264846,-0.16340106725829795,0.0,0.0,0.0,10.470945358269795
2025/04/09 09:50:05.704190717,1744185005,703949132,,13.334158897399881,-0.6272649765016265,0.0,0.0,0.0,10.668399810791215
2025/04/09 09:50:05.805749450,1744185005,804700961,,12.494090080261731,-1.6192539930344596,0.0,0.0,0.0,10.915819168090058
2025/04/09 09:50:05.901628508,1744185005,901417276,,11.499413490262341,-3.113503694521069,0.0,0.0,0.0,10.985127448965265
2025/04/09 09:50:06.10108747,1744185006,8798620,,11.542663574232666,-3.1403994560169206,0.0,0.0,0.0,10.969168663039444
2025/04/09 09:50:06.101490123,1744185006,101283312,,10.432925224301034,-3.159839391706229,0.0,0.0,0.0,9.956130027767315
2025/04/09 09:50:06.206078459,1744185006,205637207,,10.104320526120544,-4.218648910515032,0.0,0.0,0.0,9.837273597729498
2025/04/09 09:50:06.304424751,1744185006,304232071,,10.191606521604891,-1.5813491344488968,0.0,0.0,0.0,9.967419624336527
2025/04/09 09:50:06.400840017,1744185006,400605412,,10.083691596984485,0.3245399892327985,0.0,0.0,0.0,10.151892662047429
2025/04/09 09:50:06.502941102,1744185006,502720156,,9.99229621887207,-0.00034846438211388886,0.0,0.0,0.0,10.312759399414066
2025/04/09 09:50:06.601365570,1744185006,601139074,,9.971453666681825,-1.7891664504996663,0.0,0.0,0.0,9.170880317676644
2025/04/09 09:50:06.708468718,1744185006,707891387,,10.177998542784652,-0.12366072088459212,0.0,0.0,0.0,9.395219802854571
2025/04/09 09:50:06.801324070,1744185006,800557586,,10.583777427673295,-0.1751460582020825,0.0,0.0,0.0,9.598253250122735
2025/04/09 09:50:06.902828759,1744185006,902437858,,10.740724563598679,0.27488374710068975,0.0,0.0,0.0,9.832630157470323
2025/04/09 09:50:07.5889030,1744185007,3683175,,10.923513412480276,1.2324029207139326,0.0,0.0,0.0,9.977648735014196
2025/04/09 09:50:07.106960819,1744185007,106794172,,11.253648757934869,0.31663841009049865,0.0,0.0,0.0,9.95298862457012
2025/04/09 09:50:07.200780992,1744185007,200150547,,11.29934597015477,-0.15872056782336408,0.0,0.0,0.0,9.429069519039281
2025/04/09 09:50:07.302027934,1744185007,301829757,,11.670557022095416,1.0813274383518308,0.0,0.0,0.0,9.427085876457856
2025/04/09 09:50:07.400631936,1744185007,400413896,,12.27243995666498,0.33285024762129733,0.0,0.0,0.0,9.504554748534993
2025/04/09 09:50:07.502081508,1744185007,501823659,,12.750282287597704,-1.1804116964346583,0.0,0.0,0.0,9.593026161192602
2025/04/09 09:50:07.611789816,1744185007,610654925,,13.340588569641053,-3.237931728363235,0.0,0.0,0.0,9.710107803344915
2025/04/09 09:50:07.706491333,1744185007,706230738,,13.725234031675239,-1.1259440183684406,0.0,0.0,0.0,9.586930274958599
2025/04/09 09:50:07.802937989,1744185007,802746911,,14.472384452819755,-2.7169976234436226,0.0,0.0,0.0,9.649440765380898
2025/04/09 09:50:07.904301416,1744185007,903184320,,15.076315879810032,-1.2413913010927056,0.0,0.0,0.0,8.964085578805395
2025/04/09 09:50:08.3257851,1744185008,2674185,,16.16491889953599,-1.0834251642227213,0.0,0.0,0.0,8.386482238769569
2025/04/09 09:50:08.100217293,1744185008,100009891,,17.050695419311626,-0.8667213320734168,0.0,0.0,0.0,8.571661949158386
2025/04/09 09:50:08.201156558,1744185008,200940441,,17.86437416072198,0.7785845399381772,0.0,0.0,0.0,8.815699577219817
2025/04/09 09:50:08.301545657,1744185008,301338399,,18.72309875493182,-1.2543910741665232,0.0,0.0,0.0,9.075787544244381
2025/04/09 09:50:08.401198724,1744185008,400975440,,19.355550765991374,-0.7339700460434795,0.0,0.0,0.0,9.032167434692564
2025/04/09 09:50:08.504509202,1744185008,504225643,,20.213947296142884,-2.2060704231258645,0.0,0.0,0.0,9.09681415557871
2025/04/09 09:50:08.600567615,1744185008,600389566,,20.78950691228472,-1.8133987188059608,0.0,0.0,0.0,8.520371437153457
2025/04/09 09:50:08.705353480,1744185008,705152276,,21.645494461058057,-2.4472153186802483,0.0,0.0,0.0,8.157899856568498
2025/04/09 09:50:08.803645842,1744185008,803461919,,22.607139587401484,-3.1133174896242615,0.0,0.0,0.0,8.22256851196347
2025/04/09 09:50:08.905296680,1744185008,903411212,,23.522478103637347,-4.034518718719662,0.0,0.0,0.0,8.397558212280652
2025/04/09 09:50:09.11180624,1744185009,10952118,,24.468103408812844,-2.6416416168224135,0.0,0.0,0.0,8.595542907713703
2025/04/09 09:50:09.102223220,1744185009,102008614,,25.356752395638292,-1.6021748781801266,0.0,0.0,0.0,8.618282318284955
2025/04/09 09:50:09.204094057,1744185009,203879555,,26.226436614993528,-1.1770427226996905,0.0,0.0,0.0,7.808290958407969
2025/04/09 09:50:09.304598014,1744185009,304374715,,27.474773406982123,1.244180560112183,0.0,0.0,0.0,6.642689704894268
2025/04/09 09:50:09.404838749,1744185009,404572292,,28.663599014221006,-0.3432796003061793,0.0,0.0,0.0,6.852512360026738
2025/04/09 09:50:09.505228666,1744185009,505009076,,29.610994338989258,-0.2574513256549831,0.0,0.0,0.0,7.341624259948734
2025/04/09 09:50:09.601967443,1744185009,601030827,,30.727125167847035,0.6723462343215352,0.0,0.0,0.0,7.644173622131664
2025/04/09 09:50:09.706243874,1744185009,704592953,,31.708770751953118,1.9861609935760303,0.0,0.0,0.0,8.092627525329586
2025/04/09 09:50:09.802919674,1744185009,802724327,,32.58942413330082,2.2974596023559255,0.0,0.0,0.0,8.162133216857946
2025/04/09 09:50:09.912765247,1744185009,912160968,,33.49548721313495,2.1484107971190682,0.0,0.0,0.0,8.201722145080534
2025/04/09 09:50:10.1164557,1744185010,862294,,34.506961822511286,0.6540260314944275,0.0,0.0,0.0,8.209372520445413
2025/04/09 09:50:10.102008278,1744185010,101797070,,35.24972152710424,0.23020319640752618,0.0,0.0,0.0,8.223580360412347
2025/04/09 09:50:10.201784372,1744185010,201536012,,36.2267913818774,0.04272481055341171,0.0,0.0,0.0,8.343714714060527
2025/04/09 09:50:10.301587799,1744185010,301395841,,37.18610382080121,-0.7193232774731735,0.0,0.0,0.0,8.287911415100368
2025/04/09 09:50:10.401841060,1744185010,401672582,,38.22191619873046,1.3599591255187833,0.0,0.0,0.0,8.15822315216063
2025/04/09 09:50:10.501769152,1744185010,501560690,,39.39364624023453,1.2413244247436208,0.0,0.0,0.0,8.17332553863535
2025/04/09 09:50:10.600798224,1744185010,600619904,,40.41160202026373,0.5871865153312523,0.0,0.0,0.0,8.180013656616286
2025/04/09 09:50:10.701997357,1744185010,701800867,,41.61680221558748,0.31802302599333254,0.0,0.0,0.0,8.231871604921452
2025/04/09 09:50:10.804719766,1744185010,804440783,,42.47014236450201,-0.8464208841323364,0.0,0.0,0.0,8.286853790283224
2025/04/09 09:50:10.906237826,1744185010,905997530,,43.394237518310916,-0.5319315791127659,0.0,0.0,0.0,8.292866706848557
2025/04/09 09:50:11.1961334,1744185011,1802943,,44.33462905883799,-1.6617947816846717,0.0,0.0,0.0,8.282466888427923
2025/04/09 09:50:11.102913478,1744185011,102431025,,45.27975082397461,-2.5578269958495867,0.0,0.0,0.0,8.2780742645264
2025/04/09 09:50:11.202391514,1744185011,202169828,,46.10657882690415,0.4363841712472576,0.0,0.0,0.0,8.301198959350575
2025/04/09 09:50:11.303731434,1744185011,303020009,,47.35713195800841,0.4775927066805794,0.0,0.0,0.0,8.293148040771982
2025/04/09 09:50:11.401269234,1744185011,401087881,,47.91425704956059,-0.6129971742629521,0.0,0.0,0.0,8.291249275207555
2025/04/09 09:50:11.504633174,1744185011,504450978,,49.19523620605469,-1.405947804450986,0.0,0.0,0.0,8.319083213806149
2025/04/09 09:50:11.601150752,1744185011,600913232,,50.126827239990234,-0.5785714983940071,0.0,0.0,0.0,8.908200263977061
2025/04/09 09:50:11.700571951,1744185011,700244283,,50.9572868347168,-1.3128330707550013,0.0,0.0,0.0,8.833806037902825
2025/04/09 09:50:11.801991165,1744185011,800390802,,51.784637451171875,-0.22982801496981908,0.0,0.0,0.0,8.834901809692386
2025/04/09 09:50:11.901224115,1744185011,901008205,,52.63257980346687,0.8676151633263007,0.0,0.0,0.0,8.83594989776618
2025/04/09 09:50:12.1109278,1744185012,880294,,53.62183380126993,0.5841009616853468,0.0,0.0,0.0,8.812931060791382
2025/04/09 09:50:12.100721179,1744185012,100550887,,54.44243621826189,0.9386844038963851,0.0,0.0,0.0,8.697340011596761
2025/04/09 09:50:12.203706388,1744185012,200711032,,55.26289367675782,2.816997766494751,0.0,0.0,0.0,8.627002716064457
2025/04/09 09:50:12.302363902,1744185012,301911791,,56.06652069091797,3.9920942783355704,0.0,0.0,0.0,8.720046043396
2025/04/09 09:50:12.402302589,1744185012,402083230,,56.69206237792969,0.41532713174820035,0.0,0.0,0.0,9.49363899230957
2025/04/09 09:50:12.502190423,1744185012,501958776,,57.88836669921875,0.4592413306236276,0.0,0.0,0.0,9.48668193817138
2025/04/09 09:50:12.600496557,1744185012,600280101,,58.40664291382096,0.8816997408868876,0.0,0.0,0.0,9.258423805235317
2025/04/09 09:50:12.704208893,1744185012,704018788,,58.9263801574709,1.0854378938674838,0.0,0.0,0.0,9.804948806762528
2025/04/09 09:50:12.810296117,1744185012,810114358,,59.901042938232834,1.2828410863875916,0.0,0.0,0.0,9.364676475524504
2025/04/09 09:50:12.902478220,1744185012,901722094,,60.774536132812514,2.5287823677062935,0.0,0.0,0.0,9.429697036743132
2025/04/09 09:50:13.1068444,1744185013,876667,,61.61022186279298,3.9155535697936985,0.0,0.0,0.0,9.544702529907227
2025/04/09 09:50:13.105817242,1744185013,103516014,,62.35950469970704,2.850398063659661,0.0,0.0,0.0,9.53119850158689
2025/04/09 09:50:13.200661363,1744185013,200459942,,63.0831756591797,3.4405190944671595,0.0,0.0,0.0,9.5935010910034
2025/04/09 09:50:13.301901916,1744185013,301724508,,63.746604919433835,1.317396879196087,0.0,0.0,0.0,9.593031883239373
2025/04/09 09:50:13.401270634,1744185013,401073446,,64.58232116699308,0.6286349892614562,0.0,0.0,0.0,9.409024238585076
2025/04/09 09:50:13.503336993,1744185013,503077867,,65.22620391845705,-0.8316444754600476,0.0,0.0,0.0,9.237732887268045
2025/04/09 09:50:13.605560093,1744185013,605333172,,65.51222229003982,1.2477768659589414,0.0,0.0,0.0,9.070214271544366
2025/04/09 09:50:13.701313002,1744185013,701116952,,66.20264434814473,1.4011622667311827,0.0,0.0,0.0,9.04084491729704
2025/04/09 09:50:13.803492156,1744185013,800884097,,67.1291122436525,1.4679077863692638,0.0,0.0,0.0,8.972119331359657
2025/04/09 09:50:13.901617323,1744185013,901390788,,67.81440734863288,0.01789592392742767,0.0,0.0,0.0,8.97170543670644
2025/04/09 09:50:14.1014524,1744185014,836299,,68.48287963867189,2.279063463211048,0.0,0.0,0.0,8.968996047973611
2025/04/09 09:50:14.102694431,1744185014,102448169,,69.1351242065507,0.7550838589652789,0.0,0.0,0.0,8.948252677906844
2025/04/09 09:50:14.201129943,1744185014,200913877,,69.77095794677749,1.2587152719497015,0.0,0.0,0.0,8.922076225280541
2025/04/09 09:50:14.302984385,1744185014,302756149,,70.11037445068362,1.8889721632003593,0.0,0.0,0.0,8.889387130737262
2025/04/09 09:50:14.401324974,1744185014,401101506,,70.64557647705081,2.234980344772327,0.0,0.0,0.0,8.680630683898897
2025/04/09 09:50:14.501759677,1744185014,501532195,,71.16695404052737,2.3881826400756743,0.0,0.0,0.0,8.622241973876925
2025/04/09 09:50:14.603075510,1744185014,602876598,,71.60585021972656,3.146141290664667,0.0,0.0,0.0,8.52080059051513
2025/04/09 09:50:14.701870072,1744185014,700530782,,72.04283142089847,2.5981307029724063,0.0,0.0,0.0,8.45493507385251
2025/04/09 09:50:14.800649792,1744185014,800425073,,72.44283294677737,2.3228785991668595,0.0,0.0,0.0,8.417099952697725
2025/04/09 09:50:14.903893325,1744185014,903277760,,72.85960388183716,0.7575719356535044,0.0,0.0,0.0,8.340752601621894
2025/04/09 09:50:15.3478341,1744185015,2223334,,73.28845214843751,2.5629186630248935,0.0,0.0,0.0,8.269421577453606
2025/04/09 09:50:15.102259536,1744185015,100740952,,73.75554656982425,2.4937219619750897,0.0,0.0,0.0,8.163030624389634
2025/04/09 09:50:15.200682717,1744185015,200498526,,74.21355438232425,3.1469912528991655,0.0,0.0,0.0,8.055009841918931
2025/04/09 09:50:15.302656259,1744185015,302424528,,74.70964813232445,1.3368804454802694,0.0,0.0,0.0,7.970244407653496
2025/04/09 09:50:15.401706608,1744185015,401476733,,75.42202758789199,0.9677381515498991,0.0,0.0,0.0,8.099065780637865
2025/04/09 09:50:15.503849803,1744185015,503580307,,75.87451171875009,1.4030518531798908,0.0,0.0,0.0,8.225019454955945
2025/04/09 09:50:15.600567638,1744185015,600341945,,76.05249023437517,1.1923824548720692,0.0,0.0,0.0,8.30404949188214
2025/04/09 09:50:15.703648768,1744185015,703379696,,76.43836975097659,0.18419823050499629,0.0,0.0,0.0,7.709089756011878
2025/04/09 09:50:15.800991508,1744185015,800782157,,77.03878784179713,0.7890791893005411,0.0,0.0,0.0,7.765540122985513
2025/04/09 09:50:15.904176810,1744185015,903969931,,77.35182952880862,-0.38303193449973305,0.0,0.0,0.0,7.933950901031473
2025/04/09 09:50:16.2247975,1744185016,2044937,,77.64127349853524,0.5919972658157557,0.0,0.0,0.0,8.078997611999423
2025/04/09 09:50:16.100809197,1744185016,100523357,,77.92850494384766,2.9022526741027797,0.0,0.0,0.0,8.021480560302734
2025/04/09 09:50:16.200653093,1744185016,200438423,,78.20810699462893,2.828064680099481,0.0,0.0,0.0,7.969740390777574
2025/04/09 09:50:16.301724886,1744185016,301406735,,78.48223876953125,3.877264738082882,0.0,0.0,0.0,7.916067600250244
2025/04/09 09:50:16.404470984,1744185016,403580131,,78.59678649902344,2.695274829864494,0.0,0.0,0.0,7.784208774566633
2025/04/09 09:50:16.502919352,1744185016,501186142,,79.51270294189453,2.7248575687408367,0.0,0.0,0.0,7.78223180770874
2025/04/09 09:50:16.601238931,1744185016,601030502,,79.4430160522461,2.7084994316101008,0.0,0.0,0.0,7.861006736755353
2025/04/09 09:50:16.700436148,1744185016,700282037,,79.66114044189455,2.9044182300567565,0.0,0.0,0.0,7.800045013427731
2025/04/09 09:50:16.804289382,1744185016,803330604,,79.5870590209961,3.6398816108703578,0.0,0.0,0.0,7.824748992919929
2025/04/09 09:50:16.901418463,1744185016,901182229,,80.47623443603517,3.6686649322509712,0.0,0.0,0.0,7.8230557441711355
2025/04/09 09:50:17.974821,1744185017,769690,,80.39832305908203,3.414046764373775,0.0,0.0,0.0,7.6920118331909215
2025/04/09 09:50:17.100730421,1744185017,100517442,,80.61151885986328,4.682703018188473,0.0,0.0,0.0,7.557641983032227
2025/04/09 09:50:17.201094386,1744185017,200853280,,80.78860473632811,5.256771087646482,0.0,0.0,0.0,7.484041213989254
2025/04/09 09:50:17.303224064,1744185017,302978483,,80.94116210937501,2.6622829437255775,0.0,0.0,0.0,7.4204077720642125
2025/04/09 09:50:17.404600432,1744185017,403829847,,81.07270812988284,2.60669779777526,0.0,0.0,0.0,7.359084129333489
2025/04/09 09:50:17.501048904,1744185017,500812358,,81.25656127929696,0.5087066292762827,0.0,0.0,0.0,7.309806823730323
2025/04/09 09:50:17.603803409,1744185017,603634650,,81.21469116210939,2.3394706249236936,0.0,0.0,0.0,7.20887231826779
2025/04/09 09:50:17.704729830,1744185017,704557927,,81.34358215332145,1.030565261840716,0.0,0.0,0.0,7.111219882963635
2025/04/09 09:50:17.803502543,1744185017,803211469,,81.47808837890625,-0.42077669501304005,0.0,0.0,0.0,7.03574514389037
2025/04/09 09:50:17.901524789,1744185017,901310284,,81.62822723388678,0.6201398372650244,0.0,0.0,0.0,6.951882839202838
2025/04/09 09:50:18.1341024,1744185018,1096107,,81.76470947265625,-0.11462089419364263,0.0,0.0,0.0,6.884507656097398
2025/04/09 09:50:18.101070496,1744185018,100750053,,81.92828369140634,2.317401170730574,0.0,0.0,0.0,6.7955188751220135
2025/04/09 09:50:18.202371766,1744185018,202124537,,82.07120513916021,1.1139081716537669,0.0,0.0,0.0,6.728460311889581
2025/04/09 09:50:18.302092958,1744185018,300681276,,82.18782806396639,1.8442922830584183,0.0,0.0,0.0,6.687563419341156
2025/04/09 09:50:18.401508708,1744185018,401281429,,82.2718200683601,2.1006963253021,0.0,0.0,0.0,6.640487194060835
2025/04/09 09:50:18.501267563,1744185018,501030370,,82.07495117187554,1.8070486783982416,0.0,0.0,0.0,6.5486598014828274
2025/04/09 09:50:18.603250905,1744185018,602902432,,82.09526062011732,2.02057218551641,0.0,0.0,0.0,5.842372894287031
2025/04/09 09:50:18.702155260,1744185018,701888190,,82.0915756225586,3.749977350234974,0.0,0.0,0.0,5.951887130737312
2025/04/09 09:50:18.801277699,1744185018,801072946,,82.41432189941409,3.4134912490844584,0.0,0.0,0.0,6.037554740905769
2025/04/09 09:50:18.900752967,1744185018,900548043,,82.37583160400393,3.3745799064636137,0.0,0.0,0.0,6.4825215339660645
2025/04/09 09:50:19.881556,1744185019,724863,,82.40838623046878,3.1991028785705478,0.0,0.0,0.0,6.410678386688222
2025/04/09 09:50:19.101316560,1744185019,101079553,,82.42276000976574,1.3070949316024953,0.0,0.0,0.0,6.391330242156872
2025/04/09 09:50:19.203455835,1744185019,202946420,,82.43559265136733,1.5121072530746755,0.0,0.0,0.0,6.371132850646855
2025/04/09 09:50:19.300717699,1744185019,300481525,,82.4451293945324,1.994200468063556,0.0,0.0,0.0,6.345797538756649
2025/04/09 09:50:19.400791963,1744185019,400580066,,82.45278930664062,0.4989484846592034,0.0,0.0,0.0,6.30825138092041
2025/04/09 09:50:19.501807917,1744185019,501559219,,82.47205352783213,2.742939233779894,0.0,0.0,0.0,6.265487670898413
2025/04/09 09:50:19.602822250,1744185019,602297081,,82.64405822753909,1.39418947696688,0.0,0.0,0.0,6.263618946075404
2025/04/09 09:50:19.702603282,1744185019,702415763,,82.06021118164082,2.0332920551300955,0.0,0.0,0.0,6.290415763854902
2025/04/09 09:50:19.800659144,1744185019,800457101,,82.04835510253905,3.9105467796325564,0.0,0.0,0.0,5.905368804931651
2025/04/09 09:50:19.903138807,1744185019,902953272,,82.75395965576172,3.927951812744127,0.0,0.0,0.0,5.905311107635512
2025/04/09 09:50:20.945285,1744185020,760485,,81.95501708984375,3.6298370361328005,0.0,0.0,0.0,6.101956367492676
2025/04/09 09:50:20.103420585,1744185020,102728962,,82.64952850341797,3.6469762325286768,0.0,0.0,0.0,6.101960182189938
2025/04/09 09:50:20.200643602,1744185020,200468562,,81.80984497070315,2.927161931991564,0.0,0.0,0.0,6.264082908630346
2025/04/09 09:50:20.300742780,1744185020,300536028,,82.49337768554689,2.944434881210315,0.0,0.0,0.0,6.264148235321031
2025/04/09 09:50:20.403700670,1744185020,403497063,,81.7057113647461,3.9650835990905704,0.0,0.0,0.0,6.265811443328847
2025/04/09 09:50:20.505529125,1744185020,505218487,,82.37844848632812,3.982174158096309,0.0,0.0,0.0,6.265935897827148
2025/04/09 09:50:20.603954233,1744185020,603742443,,81.96436309814459,2.150345325469944,0.0,0.0,0.0,6.239616394042901
2025/04/09 09:50:20.701827898,1744185020,700502285,,81.84590911865236,3.5074968338012615,0.0,0.0,0.0,6.2197546958923375
2025/04/09 09:50:20.804885534,1744185020,802559286,,81.71634674072266,3.401773214340202,0.0,0.0,0.0,6.20007419586182
2025/04/09 09:50:20.901718334,1744185020,901474667,,81.21348571777372,1.3520047664642174,0.0,0.0,0.0,6.129814624785979
2025/04/09 09:50:21.1360848,1744185021,1184406,,81.8598785400392,1.367822647094736,0.0,0.0,0.0,6.130072593688787
2025/04/09 09:50:21.101039893,1744185021,100848697,,81.3370590209961,3.0865345001220605,0.0,0.0,0.0,6.128930091857896
2025/04/09 09:50:21.201296413,1744185021,201071162,,81.2055740356446,1.1718411445617751,0.0,0.0,0.0,6.095082759857078
2025/04/09 09:50:21.301057716,1744185021,300831941,,81.08551788330081,2.8047859668731556,0.0,0.0,0.0,6.059944152831999
2025/04/09 09:50:21.401223218,1744185021,401002593,,80.95672607421878,2.925810575485217,0.0,0.0,0.0,6.035084724426245
2025/04/09 09:50:21.508336717,1744185021,508059841,,80.83892059326179,1.0928268432617227,0.0,0.0,0.0,6.013638019561647
2025/04/09 09:50:21.613111045,1744185021,611508389,,80.3642501831055,2.753272771835312,0.0,0.0,0.0,5.967068195342996
2025/04/09 09:50:21.704771500,1744185021,704523991,,80.19196319580087,1.3089786767959608,0.0,0.0,0.0,5.642328739166146
2025/04/09 09:50:21.801440654,1744185021,801264452,,80.06841278076178,1.4213798046112134,0.0,0.0,0.0,5.697164058685228
2025/04/09 09:50:21.907736040,1744185021,907489240,,80.6696929931641,1.4349446296692008,0.0,0.0,0.0,5.697604656219422
2025/04/09 09:50:22.2683507,1744185022,2027970,,79.65216064453134,2.7968015670776154,0.0,0.0,0.0,5.860142707824647
2025/04/09 09:50:22.101327561,1744185022,101098485,,79.84806823730474,2.805111169815045,0.0,0.0,0.0,5.905426979064902
2025/04/09 09:50:22.200853015,1744185022,200633315,,79.65154266357425,2.9016494750976403,0.0,0.0,0.0,5.844880580902078
2025/04/09 09:50:22.300216162,1744185022,300006003,,79.43931579589848,2.710589885711651,0.0,0.0,0.0,5.797033786773628
2025/04/09 09:50:22.402671022,1744185022,401797809,,79.2153244018555,2.6826879978179736,0.0,0.0,0.0,5.777423858642532
2025/04/09 09:50:22.502688253,1744185022,502477020,,78.61917114257818,1.087292790412905,0.0,0.0,0.0,5.7215008735656205
2025/04/09 09:50:22.606017499,1744185022,605735995,,79.18730926513675,1.1001014709472727,0.0,0.0,0.0,5.722078323364219
2025/04/09 09:50:22.702699350,1744185022,702485221,,78.2660293579103,2.705063104629475,0.0,0.0,0.0,5.39076805114729
2025/04/09 09:50:22.803088572,1744185022,802838071,,78.82505035400399,2.7170276641845414,0.0,0.0,0.0,5.39134454727165
2025/04/09 09:50:22.901985664,1744185022,901747131,,78.22023773193368,2.5575859546661017,0.0,0.0,0.0,5.5810341835020765
2025/04/09 09:50:23.2371520,1744185023,1343051,,78.02764892578132,2.6674599647521675,0.0,0.0,0.0,5.57451009750357
2025/04/09 09:50:23.100943289,1744185023,100733930,,77.85112762451178,2.791664361953714,0.0,0.0,0.0,5.529652118682797
2025/04/09 09:50:23.201135819,1744185023,200890887,,77.64931488037111,4.059609889984124,0.0,0.0,0.0,5.488368034362789
2025/04/09 09:50:23.304161236,1744185023,303932766,,77.4264907836931,2.1753156185145848,0.0,0.0,0.0,5.447629451749478
2025/04/09 09:50:23.401455323,1744185023,401238751,,77.18151855468751,3.596151590347281,0.0,0.0,0.0,5.407075405120821
2025/04/09 09:50:23.502811136,1744185023,502633081,,76.91320800781254,3.264249563217148,0.0,0.0,0.0,5.366653442382791
2025/04/09 09:50:23.605690922,1744185023,604846941,,76.63264465332045,2.6815388202666766,0.0,0.0,0.0,5.320497512817205
2025/04/09 09:50:23.702562872,1744185023,700754668,,76.00617980957068,2.5367248058317973,0.0,0.0,0.0,5.243977069854232
2025/04/09 09:50:23.806006919,1744185023,805663778,,76.52143096923857,2.5474317073821098,0.0,0.0,0.0,5.24468183517417
2025/04/09 09:50:23.902177117,1744185023,901738810,,75.40985870361334,1.7752809524536115,0.0,0.0,0.0,4.827003955840986
2025/04/09 09:50:24.2163233,1744185024,1281918,,75.91677856445318,1.7848376035690339,0.0,0.0,0.0,4.827671051025344
2025/04/09 09:50:24.100827611,1744185024,100596858,,75.22872161865239,1.5616930723190356,0.0,0.0,0.0,5.106295108795141
2025/04/09 09:50:24.201460206,1744185024,201171338,,75.0108489990235,3.3491709232330122,0.0,0.0,0.0,5.075871467590261
2025/04/09 09:50:24.306117289,1744185024,305450414,,74.79271697998072,2.9427828788756636,0.0,0.0,0.0,5.020344257354449
2025/04/09 09:50:24.401902816,1744185024,401695983,,74.20076751709105,2.626842737197541,0.0,0.0,0.0,4.954850196836702
2025/04/09 09:50:24.504635232,1744185024,504400779,,74.68731689453213,2.6363322734830312,0.0,0.0,0.0,4.955593109129669
2025/04/09 09:50:24.603454954,1744185024,603185491,,73.73435974121102,2.1336967945098797,0.0,0.0,0.0,4.570284366607559
2025/04/09 09:50:24.706807756,1744185024,706486113,,74.21301269531256,2.1421945095062256,0.0,0.0,0.0,4.570982933044345
2025/04/09 09:50:24.800823010,1744185024,800602154,,73.47460174560553,2.043352842330937,0.0,0.0,0.0,4.841938972473081
2025/04/09 09:50:24.903077323,1744185024,902831646,,73.17652893066409,1.9701235294342132,0.0,0.0,0.0,4.830548286437956
2025/04/09 09:50:25.3329870,1744185025,3046376,,72.52692413330084,1.909593462944041,0.0,0.0,0.0,4.8353376388549485
2025/04/09 09:50:25.100753381,1744185025,100569389,,72.20772552490236,1.8401386737823597,0.0,0.0,0.0,4.3009986877441335
2025/04/09 09:50:25.209001684,1744185025,208851581,,72.66708374023438,1.8481415510177766,0.0,0.0,0.0,4.301733493804917
2025/04/09 09:50:25.300918036,1744185025,300734060,,71.57602691650393,1.8593820333480995,0.0,0.0,0.0,4.432934761047356
2025/04/09 09:50:25.402059910,1744185025,401882019,,72.02788543701172,1.8670364618301407,0.0,0.0,0.0,4.433665752410892
2025/04/09 09:50:25.503366633,1744185025,503191192,,71.33038330078125,1.9880571365356485,0.0,0.0,0.0,4.687033176422126
2025/04/09 09:50:25.604881564,1744185025,604722794,,71.07322692871094,2.0099115371704173,0.0,0.0,0.0,4.719596385955807
2025/04/09 09:50:25.701389413,1744185025,701198843,,70.82711029052736,2.0200443267822425,0.0,0.0,0.0,4.726943016052253
2025/04/09 09:50:25.803334648,1744185025,801493828,,70.57370758056659,2.0376265048983146,0.0,0.0,0.0,4.753284931183124
2025/04/09 09:50:25.900531364,1744185025,900345765,,69.953437805176,2.045552730560611,0.0,0.0,0.0,4.78953599929844
2025/04/09 09:50:26.2348858,1744185026,2134895,,70.3834457397461,2.0534043312072763,0.0,0.0,0.0,4.790374755859375
2025/04/09 09:50:26.104451303,1744185026,103913325,,69.43765258789062,2.072073221206666,0.0,0.0,0.0,4.981747150421139
2025/04/09 09:50:26.200024457,1744185026,199806330,,69.48930358886717,2.0657711029052743,0.0,0.0,0.0,4.948419570922848
2025/04/09 09:50:26.300996946,1744185026,300829245,,69.16732025146484,2.0405616760253906,0.0,0.0,0.0,4.936801910400391
2025/04/09 09:50:26.399931001,1744185026,399772106,,68.46442413330078,2.0372929573059078,0.0,0.0,0.0,5.040051937103275
2025/04/09 09:50:26.502920747,1744185026,501038072,,68.87699127197266,2.0451891422271733,0.0,0.0,0.0,5.0409722328186035
2025/04/09 09:50:26.601906861,1744185026,600716133,,67.81249237060547,1.6630363464355464,0.0,0.0,0.0,5.491917610168443
2025/04/09 09:50:26.700148305,1744185026,699948392,,68.21824645996094,1.6715127229690554,0.0,0.0,0.0,5.492945194244388
2025/04/09 09:50:26.804344586,1744185026,804176232,,67.57492828369145,3.164436578750635,0.0,0.0,0.0,5.270595073699987
2025/04/09 09:50:26.910015827,1744185026,909843336,,67.27583312988341,3.1993069648745194,0.0,0.0,0.0,5.3235645294199365
2025/04/09 09:50:27.3129092,1744185027,2875055,,66.98704528808628,1.3752075433735627,0.0,0.0,0.0,5.414690494537819
2025/04/09 09:50:27.101101150,1744185027,100881885,,66.83369445800783,1.4718606472015687,0.0,0.0,0.0,5.631749629974401
2025/04/09 09:50:27.201110341,1744185027,200906115,,67.22295379638672,1.4801219701766972,0.0,0.0,0.0,5.632836341857914
2025/04/09 09:50:27.301925258,1744185027,301683616,,66.4790725708008,1.3560129404068202,0.0,0.0,0.0,7.189560413360617
2025/04/09 09:50:27.400791263,1744185027,400472524,,66.1046676635742,1.6231707334518441,0.0,0.0,0.0,6.593228816986077
2025/04/09 09:50:27.500530660,1744185027,500378561,,65.78208923339844,1.7944717407226567,0.0,0.0,0.0,6.096347332000725
2025/04/09 09:50:27.601321375,1744185027,601091673,,65.06536102294922,1.989594340324402,0.0,0.0,0.0,6.182658672332767
2025/04/09 09:50:27.701917392,1744185027,701649496,,65.4387435913086,1.9983950853347783,0.0,0.0,0.0,6.183903694152825
2025/04/09 09:50:27.803437192,1744185027,803139919,,64.36437225341805,2.413132190704386,0.0,0.0,0.0,7.159930706024294
2025/04/09 09:50:27.910962518,1744185027,910436988,,64.44367218017584,2.4634792804718195,0.0,0.0,0.0,6.996312618255718
2025/04/09 09:50:28.1178973,1744185028,961921,,63.8659553527834,2.3802728652954794,0.0,0.0,0.0,6.521548748016496
2025/04/09 09:50:28.103431309,1744185028,103195933,,63.438293457031264,2.551304340362547,0.0,0.0,0.0,8.023479461669933
2025/04/09 09:50:28.201241673,1744185028,201042953,,63.131412506103544,2.5196557044982923,0.0,0.0,0.0,7.865707874298099
2025/04/09 09:50:28.304423058,1744185028,304249841,,63.48646926879886,2.5305855274200404,0.0,0.0,0.0,7.8673915863037145
2025/04/09 09:50:28.402239825,1744185028,402068185,,62.91361999511723,2.8332586288452153,0.0,0.0,0.0,7.042141914367647
2025/04/09 09:50:28.501564326,1744185028,501224171,,62.579471588134794,3.346940279006954,0.0,0.0,0.0,7.1034636497497345
2025/04/09 09:50:28.602273117,1744185028,601449919,,62.2445182800293,4.812513351440428,0.0,0.0,0.0,7.256511688232422
2025/04/09 09:50:28.701116149,1744185028,700897254,,61.59761428833009,4.067440509796136,0.0,0.0,0.0,7.460833072662346
2025/04/09 09:50:28.806019022,1744185028,805099343,,61.938201904296896,4.077529907226557,0.0,0.0,0.0,7.462460994720441
2025/04/09 09:50:28.901331436,1744185028,901100376,,61.282142639160185,3.605282545089715,0.0,0.0,0.0,7.572999477386428
2025/04/09 09:50:29.1140097,1744185029,982820,,61.00696182250981,3.2446475028991553,0.0,0.0,0.0,7.622007846832201
2025/04/09 09:50:29.103052910,1744185029,102832646,,60.7163162231448,2.471279621124172,0.0,0.0,0.0,7.7377390861506505
2025/04/09 09:50:29.205185932,1744185029,204959433,,60.12628173828128,0.5122010707855162,0.0,0.0,0.0,8.007684707641566
2025/04/09 09:50:29.302781444,1744185029,301352693,,60.452888488769574,0.5223937630653359,0.0,0.0,0.0,8.009502410888636
2025/04/09 09:50:29.401312676,1744185029,400952816,,59.8257102966309,0.639873445034024,0.0,0.0,0.0,7.8778686523437145
2025/04/09 09:50:29.500849160,1744185029,500692665,,59.52925109863296,1.1150029897689726,0.0,0.0,0.0,7.911290645599237
2025/04/09 09:50:29.601058232,1744185029,600805390,,59.221221923829106,1.3146630525588954,0.0,0.0,0.0,7.983973503112054
2025/04/09 09:50:29.706474465,1744185029,705870321,,58.59486770629884,3.619134426116941,0.0,0.0,0.0,8.038339614868143
2025/04/09 09:50:29.801264348,1744185029,801024129,,58.90809249877931,3.6291880607604923,0.0,0.0,0.0,8.040203094482393
2025/04/09 09:50:29.901746740,1744185029,901515200,,58.32160568238655,2.018357038494882,0.0,0.0,0.0,8.148199081401703
2025/04/09 09:50:30.725210,1744185030,519780,,57.661041259765625,-0.1581093966960916,0.0,0.0,0.0,8.23334503173826
2025/04/09 09:50:30.105258991,1744185030,104672413,,57.96647644042971,-0.14840872585773335,0.0,0.0,0.0,8.235280990600568
2025/04/09 09:50:30.204799046,1744185030,203229389,,57.311691284179695,-1.0745962858200069,0.0,0.0,0.0,8.321533203125004
2025/04/09 09:50:30.301073213,1744185030,300879030,,56.72024154663177,0.9632443785667699,0.0,0.0,0.0,8.392127037047942
2025/04/09 09:50:30.400941861,1744185030,400733967,,56.780982971191605,1.9476456642150737,0.0,0.0,0.0,8.343631744384567
2025/04/09 09:50:30.501361050,1744185030,501126199,,56.506874084473715,1.036092996597354,0.0,0.0,0.0,8.335311889647794
2025/04/09 09:50:30.602361119,1744185030,600550115,,55.896041870117195,3.2484412193298318,0.0,0.0,0.0,8.453324317932111
2025/04/09 09:50:30.701911134,1744185030,701661849,,56.186477661132834,3.2582340240478467,0.0,0.0,0.0,8.45536327362058
2025/04/09 09:50:30.802617079,1744185030,802291034,,55.52078628540056,1.9756773710250548,0.0,0.0,0.0,9.291960716247331
2025/04/09 09:50:30.902767952,1744185030,902594834,,54.915584564209,3.779132127761837,0.0,0.0,0.0,8.992331504821742
2025/04/09 09:50:31.5370196,1744185031,5114650,,55.198757171630874,3.789314031600945,0.0,0.0,0.0,8.994511604309047
2025/04/09 09:50:31.101397862,1744185031,101098327,,54.18914794921906,1.3175983428954088,0.0,0.0,0.0,9.048182487487303
2025/04/09 09:50:31.203375862,1744185031,203145859,,54.208507537841825,0.20252242684364052,0.0,0.0,0.0,8.989157676696745
2025/04/09 09:50:31.303769897,1744185031,302246692,,53.898517608642685,0.7794059514999288,0.0,0.0,0.0,8.679910659789954
2025/04/09 09:50:31.401233801,1744185031,401020096,,53.27454757690433,2.990905523300161,0.0,0.0,0.0,8.770771980285573
2025/04/09 09:50:31.501209474,1744185031,500986880,,53.54608154296881,3.0004487037658483,0.0,0.0,0.0,8.7729492187499
2025/04/09 09:50:31.600650184,1744185031,600418884,,52.973594665527585,2.0080971717833696,0.0,0.0,0.0,8.683185577392202
2025/04/09 09:50:31.701514309,1744185031,701336455,,52.68549346923834,0.854096889495839,0.0,0.0,0.0,8.698294639587331
2025/04/09 09:50:31.801384719,1744185031,801167055,,52.41991806030276,0.08838841319084079,0.0,0.0,0.0,8.727166175842264
2025/04/09 09:50:31.903551299,1744185031,903378319,,52.09809112549223,1.1186493635175174,0.0,0.0,0.0,8.740393638607404
2025/04/09 09:50:32.4704894,1744185032,1815344,,51.48987197875976,1.7357800006866446,0.0,0.0,0.0,8.744718551635742
2025/04/09 09:50:32.103427795,1744185032,103204259,,51.74804687502581,1.7447036504697606,0.0,0.0,0.0,8.746921539273078
2025/04/09 09:50:32.201059214,1744185032,200824864,,50.90017700195314,1.484071135520935,0.0,0.0,0.0,8.795058250427235
2025/04/09 09:50:32.300227236,1744185032,299866152,,51.15404129028674,1.4928600788112103,0.0,0.0,0.0,8.79728126525492
2025/04/09 09:50:32.401888084,1744185032,401654885,,50.513431549072436,0.6807066798210095,0.0,0.0,0.0,8.80099487304675
2025/04/09 09:50:32.501268155,1744185032,500807150,,49.890632629401644,1.4671730995171175,0.0,0.0,0.0,8.81443405150586
2025/04/09 09:50:32.601258904,1744185032,600210396,,50.13816070556835,1.4757494926450638,0.0,0.0,0.0,8.816676139829447
2025/04/09 09:50:32.705042089,1744185032,704719524,,49.273818969726975,2.1864953041075856,0.0,0.0,0.0,8.923459053038915
2025/04/09 09:50:32.802251513,1744185032,802032248,,49.01329803466798,3.9189841747283856,0.0,0.0,0.0,8.908346176147429
2025/04/09 09:50:32.903559994,1744185032,903336251,,48.707134246830655,2.228915214537218,0.0,0.0,0.0,8.934947013847626
2025/04/09 09:50:33.4735987,1744185033,4513051,,48.946449279833665,2.237379789337492,0.0,0.0,0.0,8.937227249064328
2025/04/09 09:50:33.100686563,1744185033,100396982,,48.10096359252928,5.250520229339582,0.0,0.0,0.0,8.934591293334968
2025/04/09 09:50:33.201775118,1744185033,201541491,,48.04552841186528,4.400923252105697,0.0,0.0,0.0,8.922269821166903
2025/04/09 09:50:33.307966573,1744185033,307816120,,47.74783325195334,2.0998361110686274,0.0,0.0,0.0,8.846661567687548
2025/04/09 09:50:33.401071314,1744185033,400841450,,47.20217514038093,3.887737751007032,0.0,0.0,0.0,8.862763404845964
2025/04/09 09:50:33.501144587,1744185033,500923575,,47.12439346313489,2.0065007209777277,0.0,0.0,0.0,8.859154701232647
2025/04/09 09:50:33.602664713,1744185033,601217460,,46.80892181396512,1.9558864831923555,0.0,0.0,0.0,8.840766906737834
2025/04/09 09:50:33.703432422,1744185033,703167901,,46.32495498657233,3.9149293899535786,0.0,0.0,0.0,8.801579475402672
2025/04/09 09:50:33.802642216,1744185033,802430749,,46.2784118652345,3.994899272918641,0.0,0.0,0.0,8.820219993591026
2025/04/09 09:50:33.905805169,1744185033,903929294,,45.98451232910159,3.270370960235577,0.0,0.0,0.0,8.75802898406975
2025/04/09 09:50:34.1758162,1744185034,1580567,,45.801357269288204,2.6080064773554823,0.0,0.0,0.0,8.739757537839605
2025/04/09 09:50:34.101253139,1744185034,100958803,,45.41275405905158,3.307398795975349,0.0,0.0,0.0,8.744085311417905
2025/04/09 09:50:34.206230465,1744185034,205982475,,45.05176544197611,2.950988054239027,0.0,0.0,0.0,8.709583282304248
2025/04/09 09:50:34.303414709,1744185034,301055398,,44.44932937622071,0.9424678087234422,0.0,0.0,0.0,8.63656997680662
2025/04/09 09:50:34.402970836,1744185034,402804020,,44.39355850219732,1.325956940650928,0.0,0.0,0.0,8.683433532714773
2025/04/09 09:50:34.501861292,1744185034,501126085,,44.088386535644716,1.580061554908712,0.0,0.0,0.0,8.613183975219503
2025/04/09 09:50:34.603997539,1744185034,603595490,,43.54233169555795,2.3115115165706936,0.0,0.0,0.0,8.509943962095388
2025/04/09 09:50:34.701528827,1744185034,701309574,,43.51420211791994,0.5361931920051526,0.0,0.0,0.0,8.572775840759242
2025/04/09 09:50:34.800983101,1744185034,800781880,,43.372257232666215,0.9366840124130134,0.0,0.0,0.0,8.496299743652205
2025/04/09 09:50:34.901794344,1744185034,901585348,,42.752944946389846,1.2874623537048042,0.0,0.0,0.0,8.430876731794985
2025/04/09 09:50:35.902084,1744185035,694939,,42.693656921386946,1.3268276453018153,0.0,0.0,0.0,8.487612724304007
2025/04/09 09:50:35.101125515,1744185035,100936293,,42.55078506469765,2.232542276382382,0.0,0.0,0.0,8.403964996337379
2025/04/09 09:50:35.203702348,1744185035,203457166,,42.226119995117216,3.6920752525329483,0.0,0.0,0.0,8.359124183654721
2025/04/09 09:50:35.303743778,1744185035,303498507,,41.870040893563754,1.9335154294951926,0.0,0.0,0.0,8.353371620166804
2025/04/09 09:50:35.404155509,1744185035,402014070,,41.28142166137698,3.516740798950175,0.0,0.0,0.0,8.321634292602425
2025/04/09 09:50:35.504591974,1744185035,502462237,,41.47519683837909,3.5232977867125763,0.0,0.0,0.0,8.323832511901523
2025/04/09 09:50:35.601094390,1744185035,600865586,,40.6358871459961,1.11844992637633,0.0,0.0,0.0,8.136514663696254
2025/04/09 09:50:35.701816871,1744185035,700755483,,40.3457412719727,0.6385711431503256,0.0,0.0,0.0,8.169438362121554
2025/04/09 09:50:35.801429632,1744185035,801105113,,40.534664154052805,0.6445338129997276,0.0,0.0,0.0,8.171586990356403
2025/04/09 09:50:35.901715430,1744185035,901421779,,40.01863479614289,0.7749654650688109,0.0,0.0,0.0,8.06777000427239
2025/04/09 09:50:36.1689788,1744185036,1165600,,39.51580810546886,2.4994633197784193,0.0,0.0,0.0,8.025427818298112
2025/04/09 09:50:36.100385185,1744185036,100152268,,39.69999313354782,2.505379199981079,0.0,0.0,0.0,8.027564048763189
2025/04/09 09:50:36.199881488,1744185036,199707104,,39.223304748536435,2.514106750488072,0.0,0.0,0.0,7.645986557005003
2025/04/09 09:50:36.301975842,1744185036,301781189,,38.944473266601655,3.750539541244467,0.0,0.0,0.0,7.934203624725132
2025/04/09 09:50:36.401909310,1744185036,401225984,,38.649620056154426,1.8625644445414533,0.0,0.0,0.0,8.128744125363305
2025/04/09 09:50:36.501226172,1744185036,500970948,,38.16674423217786,1.0951110124587813,0.0,0.0,0.0,8.146182060241589
