time,header_stamp_secs,header_stamp_nsecs,header_frame_id,status_status,status_service,latitude,longitude,altitude,position_covariance_0,position_covariance_1,position_covariance_2,position_covariance_3,position_covariance_4,position_covariance_5,position_covariance_6,position_covariance_7,position_covariance_8,position_covariance_type
2025/04/09 10:58:23.910816794,1744189103,802448033,mA1/gps,0,1,63.43459648237878,10.39309113532408,0.0,1.4400000000000002e-10,0.0,0.0,0.0,1.4400000000000002e-10,0.0,0.0,0.0,1.0,2
2025/04/09 10:58:23.910936252,1744189103,852170008,mA1/gps,0,1,63.434596482850345,10.393091135349193,0.0,1.4400000000000002e-10,0.0,0.0,0.0,1.4400000000000002e-10,0.0,0.0,0.0,1.0,2
2025/04/09 10:58:23.911222932,1744189103,906322536,mA1/gps,0,1,63.43459648220237,10.393091134957071,0.0,1.4400000000000002e-10,0.0,0.0,0.0,1.4400000000000002e-10,0.0,0.0,0.0,1.0,2
2025/04/09 10:58:23.951897027,1744189103,949139529,mA1/gps,0,1,63.43459648150213,10.39309113550425,0.0,1.4400000000000002e-10,0.0,0.0,0.0,1.4400000000000002e-10,0.0,0.0,0.0,1.0,2
2025/04/09 10:58:24.2865383,1744189104,1520365,mA1/gps,0,1,63.434596482009134,10.393091135231986,0.0,1.4400000000000002e-10,0.0,0.0,0.0,1.4400000000000002e-10,0.0,0.0,0.0,1.0,2
2025/04/09 10:58:24.51814534,1744189104,51228746,mA1/gps,0,1,63.434596482572985,10.393091135482521,0.0,1.4400000000000002e-10,0.0,0.0,0.0,1.4400000000000002e-10,0.0,0.0,0.0,1.0,2
2025/04/09 10:58:24.108233804,1744189104,107713592,mA1/gps,0,1,63.434596481882835,10.39309113531421,0.0,1.4400000000000002e-10,0.0,0.0,0.0,1.4400000000000002e-10,0.0,0.0,0.0,1.0,2
2025/04/09 10:58:24.146961850,1744189104,146274867,mA1/gps,0,1,63.43459648163704,10.393091135343544,0.0,1.4400000000000002e-10,0.0,0.0,0.0,1.4400000000000002e-10,0.0,0.0,0.0,1.0,2
2025/04/09 10:58:24.207636114,1744189104,197461986,mA1/gps,0,1,63.434596482320195,10.393091135635144,0.0,1.4400000000000002e-10,0.0,0.0,0.0,1.4400000000000002e-10,0.0,0.0,0.0,1.0,2
2025/04/09 10:58:24.254777050,1744189104,251631501,mA1/gps,0,1,63.434596482921364,10.393091135353613,0.0,1.4400000000000002e-10,0.0,0.0,0.0,1.4400000000000002e-10,0.0,0.0,0.0,1.0,2
2025/04/09 10:58:24.304008336,1744189104,303490468,mA1/gps,0,1,63.43459648244073,10.393091134576075,0.0,1.4400000000000002e-10,0.0,0.0,0.0,1.4400000000000002e-10,0.0,0.0,0.0,1.0,2
2025/04/09 10:58:24.350797779,1744189104,349031716,mA1/gps,0,1,63.43459648215314,10.393091132459146,0.0,1.4400000000000002e-10,0.0,0.0,0.0,1.4400000000000002e-10,0.0,0.0,0.0,1.0,2
2025/04/09 10:58:24.407476818,1744189104,401902437,mA1/gps,0,1,63.43459648262825,10.39309112945594,0.0,1.4400000000000002e-10,0.0,0.0,0.0,1.4400000000000002e-10,0.0,0.0,0.0,1.0,2
2025/04/09 10:58:24.453808400,1744189104,453275069,mA1/gps,0,1,63.434596483337046,10.393091126554479,0.0,1.4400000000000002e-10,0.0,0.0,0.0,1.4400000000000002e-10,0.0,0.0,0.0,1.0,2
2025/04/09 10:58:24.508241617,1744189104,507649499,mA1/gps,0,1,63.434596483025345,10.393091126371203,0.0,1.4400000000000002e-10,0.0,0.0,0.0,1.4400000000000002e-10,0.0,0.0,0.0,1.0,2
2025/04/09 10:58:24.549140141,1744189104,547724927,mA1/gps,0,1,63.434596482659366,10.393091127815383,0.0,1.4400000000000002e-10,0.0,0.0,0.0,1.4400000000000002e-10,0.0,0.0,0.0,1.0,2
2025/04/09 10:58:24.601318994,1744189104,601107226,mA1/gps,0,1,63.434596483223444,10.393091130012396,0.0,1.4400000000000002e-10,0.0,0.0,0.0,1.4400000000000002e-10,0.0,0.0,0.0,1.0,2
2025/04/09 10:58:24.652655001,1744189104,652252691,mA1/gps,0,1,63.43459648350766,10.393091132945942,0.0,1.4400000000000002e-10,0.0,0.0,0.0,1.4400000000000002e-10,0.0,0.0,0.0,1.0,2
2025/04/09 10:58:24.706717192,1744189104,703806332,mA1/gps,0,1,63.43459648300213,10.393091136825834,0.0,1.4400000000000002e-10,0.0,0.0,0.0,1.4400000000000002e-10,0.0,0.0,0.0,1.0,2
2025/04/09 10:58:24.755370196,1744189104,754282801,mA1/gps,0,1,63.43459648250795,10.393091140797871,0.0,1.4400000000000002e-10,0.0,0.0,0.0,1.4400000000000002e-10,0.0,0.0,0.0,1.0,2
2025/04/09 10:58:24.804936601,1744189104,804571999,mA1/gps,0,1,63.43459648297925,10.393091146153038,0.0,1.4400000000000002e-10,0.0,0.0,0.0,1.4400000000000002e-10,0.0,0.0,0.0,1.0,2
2025/04/09 10:58:24.854719142,1744189104,854530613,mA1/gps,0,1,63.43459648329705,10.39309115104961,0.0,1.4400000000000002e-10,0.0,0.0,0.0,1.4400000000000002e-10,0.0,0.0,0.0,1.0,2
2025/04/09 10:58:24.907247653,1744189104,906799506,mA1/gps,0,1,63.43459648266244,10.393091157719644,0.0,1.4400000000000002e-10,0.0,0.0,0.0,1.4400000000000002e-10,0.0,0.0,0.0,1.0,2
2025/04/09 10:58:24.949095908,1744189104,947018630,mA1/gps,0,1,63.434596482135085,10.39309116336205,0.0,1.4400000000000002e-10,0.0,0.0,0.0,1.4400000000000002e-10,0.0,0.0,0.0,1.0,2
2025/04/09 10:58:24.999191580,1744189104,998369255,mA1/gps,0,1,63.43459648235587,10.393091170415964,0.0,1.4400000000000002e-10,0.0,0.0,0.0,1.4400000000000002e-10,0.0,0.0,0.0,1.0,2
2025/04/09 10:58:25.49245387,1744189105,48922412,mA1/gps,0,1,63.43459648256063,10.393091176444123,0.0,1.4400000000000002e-10,0.0,0.0,0.0,1.4400000000000002e-10,0.0,0.0,0.0,1.0,2
2025/04/09 10:58:25.100240334,1744189105,99332033,mA1/gps,0,1,63.43459648212795,10.393091181992252,0.0,1.4400000000000002e-10,0.0,0.0,0.0,1.4400000000000002e-10,0.0,0.0,0.0,1.0,2
2025/04/09 10:58:25.151897645,1744189105,151602073,mA1/gps,0,1,63.43459648134819,10.393091185477907,0.0,1.4400000000000002e-10,0.0,0.0,0.0,1.4400000000000002e-10,0.0,0.0,0.0,1.0,2
2025/04/09 10:58:25.202932537,1744189105,202613878,mA1/gps,0,1,63.43459648179293,10.393091186039364,0.0,1.4400000000000002e-10,0.0,0.0,0.0,1.4400000000000002e-10,0.0,0.0,0.0,1.0,2
2025/04/09 10:58:25.254981998,1744189105,254310460,mA1/gps,0,1,63.43459648203769,10.39309118608871,0.0,1.4400000000000002e-10,0.0,0.0,0.0,1.4400000000000002e-10,0.0,0.0,0.0,1.0,2
2025/04/09 10:58:25.304573024,1744189105,304245674,mA1/gps,0,1,63.43459648146369,10.393091182921067,0.0,1.4400000000000002e-10,0.0,0.0,0.0,1.4400000000000002e-10,0.0,0.0,0.0,1.0,2
2025/04/09 10:58:25.354629785,1744189105,354096198,mA1/gps,0,1,63.434596481103924,10.393091178668644,0.0,1.4400000000000002e-10,0.0,0.0,0.0,1.4400000000000002e-10,0.0,0.0,0.0,1.0,2
2025/04/09 10:58:25.405910330,1744189105,405651955,mA1/gps,0,1,63.43459648167809,10.393091172239258,0.0,1.4400000000000002e-10,0.0,0.0,0.0,1.4400000000000002e-10,0.0,0.0,0.0,1.0,2
2025/04/09 10:58:25.447499758,1744189105,447330738,mA1/gps,0,1,63.43459648203108,10.393091165509748,0.0,1.4400000000000002e-10,0.0,0.0,0.0,1.4400000000000002e-10,0.0,0.0,0.0,1.0,2
2025/04/09 10:58:25.497370718,1744189105,497112338,mA1/gps,0,1,63.4345964814498,10.39309115757249,0.0,1.4400000000000002e-10,0.0,0.0,0.0,1.4400000000000002e-10,0.0,0.0,0.0,1.0,2
2025/04/09 10:58:25.551923519,1744189105,550414055,mA1/gps,0,1,63.43459648119034,10.393091149038426,0.0,1.4400000000000002e-10,0.0,0.0,0.0,1.4400000000000002e-10,0.0,0.0,0.0,1.0,2
2025/04/09 10:58:25.603554136,1744189105,601611388,mA1/gps,0,1,63.43459648178343,10.393091140950652,0.0,1.4400000000000002e-10,0.0,0.0,0.0,1.4400000000000002e-10,0.0,0.0,0.0,1.0,2
2025/04/09 10:58:25.652404718,1744189105,652108836,mA1/gps,0,1,63.43459648260795,10.393091134326285,0.0,1.4400000000000002e-10,0.0,0.0,0.0,1.4400000000000002e-10,0.0,0.0,0.0,1.0,2
2025/04/09 10:58:25.703667316,1744189105,703435924,mA1/gps,0,1,63.43459648201417,10.393091127914714,0.0,1.4400000000000002e-10,0.0,0.0,0.0,1.4400000000000002e-10,0.0,0.0,0.0,1.0,2
2025/04/09 10:58:25.754450955,1744189105,754333496,mA1/gps,0,1,63.43459648189149,10.393091123199367,0.0,1.4400000000000002e-10,0.0,0.0,0.0,1.4400000000000002e-10,0.0,0.0,0.0,1.0,2
2025/04/09 10:58:25.805536512,1744189105,805140554,mA1/gps,0,1,63.434596482673605,10.39309111962845,0.0,1.4400000000000002e-10,0.0,0.0,0.0,1.4400000000000002e-10,0.0,0.0,0.0,1.0,2
2025/04/09 10:58:25.857218110,1744189105,855301186,mA1/gps,0,1,63.43459648321055,10.393091117885733,0.0,1.4400000000000002e-10,0.0,0.0,0.0,1.4400000000000002e-10,0.0,0.0,0.0,1.0,2
2025/04/09 10:58:25.898804963,1744189105,898439511,mA1/gps,0,1,63.434596483026205,10.393091118399198,0.0,1.4400000000000002e-10,0.0,0.0,0.0,1.4400000000000002e-10,0.0,0.0,0.0,1.0,2
2025/04/09 10:58:25.949281240,1744189105,948947491,mA1/gps,0,1,63.43459648278061,10.393091120056734,0.0,1.4400000000000002e-10,0.0,0.0,0.0,1.4400000000000002e-10,0.0,0.0,0.0,1.0,2
2025/04/09 10:58:26.821250,1744189105,999825560,mA1/gps,0,1,63.43459648334356,10.393091123461257,0.0,1.4400000000000002e-10,0.0,0.0,0.0,1.4400000000000002e-10,0.0,0.0,0.0,1.0,2
2025/04/09 10:58:26.50909217,1744189106,50598432,mA1/gps,0,1,63.43459648382139,10.393091127553355,0.0,1.4400000000000002e-10,0.0,0.0,0.0,1.4400000000000002e-10,0.0,0.0,0.0,1.0,2
2025/04/09 10:58:26.101601118,1744189106,101430868,mA1/gps,0,1,63.43459648357427,10.393091133593845,0.0,1.4400000000000002e-10,0.0,0.0,0.0,1.4400000000000002e-10,0.0,0.0,0.0,1.0,2
2025/04/09 10:58:26.152716267,1744189106,152365955,mA1/gps,0,1,63.43459648321363,10.393091139396342,0.0,1.4400000000000002e-10,0.0,0.0,0.0,1.4400000000000002e-10,0.0,0.0,0.0,1.0,2
2025/04/09 10:58:26.204239008,1744189106,203681272,mA1/gps,0,1,63.43459648374401,10.3930911456373,0.0,1.4400000000000002e-10,0.0,0.0,0.0,1.4400000000000002e-10,0.0,0.0,0.0,1.0,2
2025/04/09 10:58:26.256668689,1744189106,254642319,mA1/gps,0,1,63.43459648409799,10.39309115106173,0.0,1.4400000000000002e-10,0.0,0.0,0.0,1.4400000000000002e-10,0.0,0.0,0.0,1.0,2
2025/04/09 10:58:26.305929972,1744189106,305544436,mA1/gps,0,1,63.43459648358202,10.393091156461553,0.0,1.4400000000000002e-10,0.0,0.0,0.0,1.4400000000000002e-10,0.0,0.0,0.0,1.0,2
2025/04/09 10:58:26.348715940,1744189106,347499235,mA1/gps,0,1,63.43459648317627,10.393091161276836,0.0,1.4400000000000002e-10,0.0,0.0,0.0,1.4400000000000002e-10,0.0,0.0,0.0,1.0,2
2025/04/09 10:58:26.398679818,1744189106,398463195,mA1/gps,0,1,63.43459648355481,10.393091165293916,0.0,1.4400000000000002e-10,0.0,0.0,0.0,1.4400000000000002e-10,0.0,0.0,0.0,1.0,2
2025/04/09 10:58:26.450096433,1744189106,449636767,mA1/gps,0,1,63.43459648367202,10.393091167013692,0.0,1.4400000000000002e-10,0.0,0.0,0.0,1.4400000000000002e-10,0.0,0.0,0.0,1.0,2
2025/04/09 10:58:26.499502383,1744189106,499208901,mA1/gps,0,1,63.43459648320954,10.39309116723096,0.0,1.4400000000000002e-10,0.0,0.0,0.0,1.4400000000000002e-10,0.0,0.0,0.0,1.0,2
2025/04/09 10:58:26.549479889,1744189106,549075238,mA1/gps,0,1,63.43459648236732,10.393091166839119,0.0,1.4400000000000002e-10,0.0,0.0,0.0,1.4400000000000002e-10,0.0,0.0,0.0,1.0,2
2025/04/09 10:58:26.602209196,1744189106,601456492,mA1/gps,0,1,63.43459648292502,10.393091164178724,0.0,1.4400000000000002e-10,0.0,0.0,0.0,1.4400000000000002e-10,0.0,0.0,0.0,1.0,2
2025/04/09 10:58:26.650490272,1744189106,650046899,mA1/gps,0,1,63.43459648315416,10.393091160778553,0.0,1.4400000000000002e-10,0.0,0.0,0.0,1.4400000000000002e-10,0.0,0.0,0.0,1.0,2
2025/04/09 10:58:26.701592223,1744189106,701263398,mA1/gps,0,1,63.43459648262692,10.393091156405864,0.0,1.4400000000000002e-10,0.0,0.0,0.0,1.4400000000000002e-10,0.0,0.0,0.0,1.0,2
2025/04/09 10:58:26.751516365,1744189106,751264303,mA1/gps,0,1,63.434596481824705,10.393091151206137,0.0,1.4400000000000002e-10,0.0,0.0,0.0,1.4400000000000002e-10,0.0,0.0,0.0,1.0,2
2025/04/09 10:58:26.802639307,1744189106,802347655,mA1/gps,0,1,63.43459648246617,10.393091145372104,0.0,1.4400000000000002e-10,0.0,0.0,0.0,1.4400000000000002e-10,0.0,0.0,0.0,1.0,2
2025/04/09 10:58:26.853070997,1744189106,852642088,mA1/gps,0,1,63.43459648282671,10.393091139930933,0.0,1.4400000000000002e-10,0.0,0.0,0.0,1.4400000000000002e-10,0.0,0.0,0.0,1.0,2
2025/04/09 10:58:26.905543719,1744189106,904747363,mA1/gps,0,1,63.43459648224432,10.393091134410557,0.0,1.4400000000000002e-10,0.0,0.0,0.0,1.4400000000000002e-10,0.0,0.0,0.0,1.0,2
2025/04/09 10:58:26.954927647,1744189106,954474956,mA1/gps,0,1,63.43459648159463,10.393091129656758,0.0,1.4400000000000002e-10,0.0,0.0,0.0,1.4400000000000002e-10,0.0,0.0,0.0,1.0,2
2025/04/09 10:58:27.5681819,1744189107,5440482,mA1/gps,0,1,63.434596482400224,10.393091125176692,0.0,1.4400000000000002e-10,0.0,0.0,0.0,1.4400000000000002e-10,0.0,0.0,0.0,1.0,2
2025/04/09 10:58:27.55603331,1744189107,55313558,mA1/gps,0,1,63.43459648308501,10.393091122217575,0.0,1.4400000000000002e-10,0.0,0.0,0.0,1.4400000000000002e-10,0.0,0.0,0.0,1.0,2
2025/04/09 10:58:27.106838125,1744189107,106308804,mA1/gps,0,1,63.43459648244574,10.393091120682435,0.0,1.4400000000000002e-10,0.0,0.0,0.0,1.4400000000000002e-10,0.0,0.0,0.0,1.0,2
2025/04/09 10:58:27.148241094,1744189107,147138920,mA1/gps,0,1,63.43459648220707,10.393091119577225,0.0,1.4400000000000002e-10,0.0,0.0,0.0,1.4400000000000002e-10,0.0,0.0,0.0,1.0,2
2025/04/09 10:58:27.198441976,1744189107,198076597,mA1/gps,0,1,63.434596483104784,10.393091119869473,0.0,1.4400000000000002e-10,0.0,0.0,0.0,1.4400000000000002e-10,0.0,0.0,0.0,1.0,2
2025/04/09 10:58:27.252385325,1744189107,252025639,mA1/gps,0,1,63.4345964837922,10.393091120945435,0.0,1.4400000000000002e-10,0.0,0.0,0.0,1.4400000000000002e-10,0.0,0.0,0.0,1.0,2
2025/04/09 10:58:27.302882294,1744189107,301813398,mA1/gps,0,1,63.43459648343179,10.39309112450996,0.0,1.4400000000000002e-10,0.0,0.0,0.0,1.4400000000000002e-10,0.0,0.0,0.0,1.0,2
2025/04/09 10:58:27.351979334,1744189107,351662347,mA1/gps,0,1,63.43459648296807,10.393091127782398,0.0,1.4400000000000002e-10,0.0,0.0,0.0,1.4400000000000002e-10,0.0,0.0,0.0,1.0,2
2025/04/09 10:58:27.404703806,1744189107,404458073,mA1/gps,0,1,63.43459648382776,10.393091132018156,0.0,1.4400000000000002e-10,0.0,0.0,0.0,1.4400000000000002e-10,0.0,0.0,0.0,1.0,2
2025/04/09 10:58:27.454771065,1744189107,454381706,mA1/gps,0,1,63.43459648452625,10.393091136108826,0.0,1.4400000000000002e-10,0.0,0.0,0.0,1.4400000000000002e-10,0.0,0.0,0.0,1.0,2
2025/04/09 10:58:27.506213254,1744189107,505654986,mA1/gps,0,1,63.43459648408265,10.39309114045918,0.0,1.4400000000000002e-10,0.0,0.0,0.0,1.4400000000000002e-10,0.0,0.0,0.0,1.0,2
2025/04/09 10:58:27.555803576,1744189107,555565442,mA1/gps,0,1,63.43459648372411,10.39309114519781,0.0,1.4400000000000002e-10,0.0,0.0,0.0,1.4400000000000002e-10,0.0,0.0,0.0,1.0,2
2025/04/09 10:58:27.597935905,1744189107,597717700,mA1/gps,0,1,63.43459648434618,10.39309114871169,0.0,1.4400000000000002e-10,0.0,0.0,0.0,1.4400000000000002e-10,0.0,0.0,0.0,1.0,2
2025/04/09 10:58:27.651704619,1744189107,648085596,mA1/gps,0,1,63.43459648491465,10.39309115177441,0.0,1.4400000000000002e-10,0.0,0.0,0.0,1.4400000000000002e-10,0.0,0.0,0.0,1.0,2
2025/04/09 10:58:27.699305927,1744189107,699128364,mA1/gps,0,1,63.43459648435944,10.393091155067726,0.0,1.4400000000000002e-10,0.0,0.0,0.0,1.4400000000000002e-10,0.0,0.0,0.0,1.0,2
2025/04/09 10:58:27.749296205,1744189107,748944235,mA1/gps,0,1,63.434596483961265,10.393091157138805,0.0,1.4400000000000002e-10,0.0,0.0,0.0,1.4400000000000002e-10,0.0,0.0,0.0,1.0,2
2025/04/09 10:58:27.803190148,1744189107,802151920,mA1/gps,0,1,63.43459648463102,10.393091158642397,0.0,1.4400000000000002e-10,0.0,0.0,0.0,1.4400000000000002e-10,0.0,0.0,0.0,1.0,2
2025/04/09 10:58:27.854028982,1744189107,852153841,mA1/gps,0,1,63.434596485208544,10.393091159062525,0.0,1.4400000000000002e-10,0.0,0.0,0.0,1.4400000000000002e-10,0.0,0.0,0.0,1.0,2
2025/04/09 10:58:27.903449294,1744189107,903145906,mA1/gps,0,1,63.43459648519198,10.39309115936354,0.0,1.4400000000000002e-10,0.0,0.0,0.0,1.4400000000000002e-10,0.0,0.0,0.0,1.0,2
2025/04/09 10:58:27.953294215,1744189107,953045690,mA1/gps,0,1,63.4345964855602,10.39309115803613,0.0,1.4400000000000002e-10,0.0,0.0,0.0,1.4400000000000002e-10,0.0,0.0,0.0,1.0,2
2025/04/09 10:58:28.4386104,1744189108,4002159,mA1/gps,0,1,63.43459648611418,10.393091155095373,0.0,1.4400000000000002e-10,0.0,0.0,0.0,1.4400000000000002e-10,0.0,0.0,0.0,1.0,2
2025/04/09 10:58:28.54488970,1744189108,54166189,mA1/gps,0,1,63.434596486408665,10.393091151685669,0.0,1.4400000000000002e-10,0.0,0.0,0.0,1.4400000000000002e-10,0.0,0.0,0.0,1.0,2
2025/04/09 10:58:28.105269495,1744189108,105085948,mA1/gps,0,1,63.43459648909965,10.393091146837168,0.0,1.4400000000000002e-10,0.0,0.0,0.0,1.4400000000000002e-10,0.0,0.0,0.0,1.0,2
2025/04/09 10:58:28.152754878,1744189108,152124767,mA1/gps,0,1,63.434596492348675,10.393091142048407,0.0,1.4400000000000002e-10,0.0,0.0,0.0,1.4400000000000002e-10,0.0,0.0,0.0,1.0,2
2025/04/09 10:58:28.205276268,1744189108,202419721,mA1/gps,0,1,63.43459649445659,10.393091136181676,0.0,1.4400000000000002e-10,0.0,0.0,0.0,1.4400000000000002e-10,0.0,0.0,0.0,1.0,2
2025/04/09 10:58:28.254306756,1744189108,253820440,mA1/gps,0,1,63.43459649908352,10.393091128945116,0.0,1.4400000000000002e-10,0.0,0.0,0.0,1.4400000000000002e-10,0.0,0.0,0.0,1.0,2
2025/04/09 10:58:28.304642979,1744189108,304120726,mA1/gps,0,1,63.43459650431475,10.393091122167448,0.0,1.4400000000000002e-10,0.0,0.0,0.0,1.4400000000000002e-10,0.0,0.0,0.0,1.0,2
2025/04/09 10:58:28.356252818,1744189108,355849728,mA1/gps,0,1,63.43459651140341,10.393091115495789,0.0,1.4400000000000002e-10,0.0,0.0,0.0,1.4400000000000002e-10,0.0,0.0,0.0,1.0,2
2025/04/09 10:58:28.398243537,1744189108,397718593,mA1/gps,0,1,63.43459651977037,10.393091109287017,0.0,1.4400000000000002e-10,0.0,0.0,0.0,1.4400000000000002e-10,0.0,0.0,0.0,1.0,2
2025/04/09 10:58:28.452514530,1744189108,451678332,mA1/gps,0,1,63.4345965287473,10.393091103135285,0.0,1.4400000000000002e-10,0.0,0.0,0.0,1.4400000000000002e-10,0.0,0.0,0.0,1.0,2
2025/04/09 10:58:28.504074457,1744189108,503186811,mA1/gps,0,1,63.434596540641465,10.393091097315635,0.0,1.4400000000000002e-10,0.0,0.0,0.0,1.4400000000000002e-10,0.0,0.0,0.0,1.0,2
2025/04/09 10:58:28.552635041,1744189108,552276704,mA1/gps,0,1,63.43459655370783,10.39309109161442,0.0,1.4400000000000002e-10,0.0,0.0,0.0,1.4400000000000002e-10,0.0,0.0,0.0,1.0,2
2025/04/09 10:58:28.603433041,1744189108,603249438,mA1/gps,0,1,63.434596567734154,10.393091087230962,0.0,1.4400000000000002e-10,0.0,0.0,0.0,1.4400000000000002e-10,0.0,0.0,0.0,1.0,2
2025/04/09 10:58:28.654364666,1744189108,654074855,mA1/gps,0,1,63.43459658539444,10.393091082931097,0.0,1.4400000000000002e-10,0.0,0.0,0.0,1.4400000000000002e-10,0.0,0.0,0.0,1.0,2
2025/04/09 10:58:28.705445434,1744189108,704036945,mA1/gps,0,1,63.43459660536269,10.393091078702968,0.0,1.4400000000000002e-10,0.0,0.0,0.0,1.4400000000000002e-10,0.0,0.0,0.0,1.0,2
2025/04/09 10:58:28.756763079,1744189108,755112840,mA1/gps,0,1,63.43459662634593,10.393091075370723,0.0,1.4400000000000002e-10,0.0,0.0,0.0,1.4400000000000002e-10,0.0,0.0,0.0,1.0,2
2025/04/09 10:58:28.805652122,1744189108,805214925,mA1/gps,0,1,63.43459665062651,10.393091072225143,0.0,1.4400000000000002e-10,0.0,0.0,0.0,1.4400000000000002e-10,0.0,0.0,0.0,1.0,2
2025/04/09 10:58:28.860531671,1744189108,857966297,mA1/gps,0,1,63.43459667609631,10.393091069135458,0.0,1.4400000000000002e-10,0.0,0.0,0.0,1.4400000000000002e-10,0.0,0.0,0.0,1.0,2
2025/04/09 10:58:28.899325709,1744189108,898941733,mA1/gps,0,1,63.43459670429708,10.393091066439307,0.0,1.4400000000000002e-10,0.0,0.0,0.0,1.4400000000000002e-10,0.0,0.0,0.0,1.0,2
2025/04/09 10:58:28.952351684,1744189108,951478605,mA1/gps,0,1,63.434596735414885,10.393091063691518,0.0,1.4400000000000002e-10,0.0,0.0,0.0,1.4400000000000002e-10,0.0,0.0,0.0,1.0,2
2025/04/09 10:58:29.5036720,1744189109,4451521,mA1/gps,0,1,63.43459676895981,10.393091060752887,0.0,1.4400000000000002e-10,0.0,0.0,0.0,1.4400000000000002e-10,0.0,0.0,0.0,1.0,2
2025/04/09 10:58:29.55891688,1744189109,55239637,mA1/gps,0,1,63.43459680250636,10.393091057318099,0.0,1.4400000000000002e-10,0.0,0.0,0.0,1.4400000000000002e-10,0.0,0.0,0.0,1.0,2
2025/04/09 10:58:29.107837367,1744189109,106038750,mA1/gps,0,1,63.43459684192905,10.393091054121216,0.0,1.4400000000000002e-10,0.0,0.0,0.0,1.4400000000000002e-10,0.0,0.0,0.0,1.0,2
2025/04/09 10:58:29.148801888,1744189109,146765880,mA1/gps,0,1,63.43459688200225,10.393091049165331,0.0,1.4400000000000002e-10,0.0,0.0,0.0,1.4400000000000002e-10,0.0,0.0,0.0,1.0,2
2025/04/09 10:58:29.198332515,1744189109,197889702,mA1/gps,0,1,63.43459692366954,10.393091044493872,0.0,1.4400000000000002e-10,0.0,0.0,0.0,1.4400000000000002e-10,0.0,0.0,0.0,1.0,2
2025/04/09 10:58:29.248771689,1744189109,247785730,mA1/gps,0,1,63.43459696751887,10.393091038064592,0.0,1.4400000000000002e-10,0.0,0.0,0.0,1.4400000000000002e-10,0.0,0.0,0.0,1.0,2
2025/04/09 10:58:29.298864408,1744189109,298625377,mA1/gps,0,1,63.434597013277475,10.393091030886836,0.0,1.4400000000000002e-10,0.0,0.0,0.0,1.4400000000000002e-10,0.0,0.0,0.0,1.0,2
2025/04/09 10:58:29.348756659,1744189109,348457862,mA1/gps,0,1,63.4345970616025,10.393091021731927,0.0,1.4400000000000002e-10,0.0,0.0,0.0,1.4400000000000002e-10,0.0,0.0,0.0,1.0,2
2025/04/09 10:58:29.401097577,1744189109,400797442,mA1/gps,0,1,63.434597110851094,10.393091011349632,0.0,1.4400000000000002e-10,0.0,0.0,0.0,1.4400000000000002e-10,0.0,0.0,0.0,1.0,2
2025/04/09 10:58:29.450782734,1744189109,450625197,mA1/gps,0,1,63.43459716344977,10.39309100009898,0.0,1.4400000000000002e-10,0.0,0.0,0.0,1.4400000000000002e-10,0.0,0.0,0.0,1.0,2
2025/04/09 10:58:29.502100341,1744189109,501751347,mA1/gps,0,1,63.43459721806894,10.393090988497322,0.0,1.4400000000000002e-10,0.0,0.0,0.0,1.4400000000000002e-10,0.0,0.0,0.0,1.0,2
2025/04/09 10:58:29.553226594,1744189109,551845456,mA1/gps,0,1,63.43459727353076,10.393090977177806,0.0,1.4400000000000002e-10,0.0,0.0,0.0,1.4400000000000002e-10,0.0,0.0,0.0,1.0,2
2025/04/09 10:58:29.602897130,1744189109,602598735,mA1/gps,0,1,63.434597330575244,10.393090964868858,0.0,1.4400000000000002e-10,0.0,0.0,0.0,1.4400000000000002e-10,0.0,0.0,0.0,1.0,2
2025/04/09 10:58:29.654308965,1744189109,653583157,mA1/gps,0,1,63.434597389197314,10.393090953636992,0.0,1.4400000000000002e-10,0.0,0.0,0.0,1.4400000000000002e-10,0.0,0.0,0.0,1.0,2
2025/04/09 10:58:29.705475753,1744189109,705201807,mA1/gps,0,1,63.43459744924891,10.39309094220879,0.0,1.4400000000000002e-10,0.0,0.0,0.0,1.4400000000000002e-10,0.0,0.0,0.0,1.0,2
2025/04/09 10:58:29.757591158,1744189109,756188520,mA1/gps,0,1,63.43459751071012,10.393090932689987,0.0,1.4400000000000002e-10,0.0,0.0,0.0,1.4400000000000002e-10,0.0,0.0,0.0,1.0,2
2025/04/09 10:58:29.798870534,1744189109,798575250,mA1/gps,0,1,63.43459757314581,10.393090923506103,0.0,1.4400000000000002e-10,0.0,0.0,0.0,1.4400000000000002e-10,0.0,0.0,0.0,1.0,2
2025/04/09 10:58:29.849958220,1744189109,849482657,mA1/gps,0,1,63.434597637794944,10.393090915965093,0.0,1.4400000000000002e-10,0.0,0.0,0.0,1.4400000000000002e-10,0.0,0.0,0.0,1.0,2
2025/04/09 10:58:29.901010981,1744189109,900930781,mA1/gps,0,1,63.43459770338489,10.393090909820655,0.0,1.4400000000000002e-10,0.0,0.0,0.0,1.4400000000000002e-10,0.0,0.0,0.0,1.0,2
2025/04/09 10:58:29.952435060,1744189109,950621764,mA1/gps,0,1,63.43459777078737,10.39309090548452,0.0,1.4400000000000002e-10,0.0,0.0,0.0,1.4400000000000002e-10,0.0,0.0,0.0,1.0,2
2025/04/09 10:58:30.3204725,1744189110,2294837,mA1/gps,0,1,63.43459783953692,10.393090902821443,0.0,1.4400000000000002e-10,0.0,0.0,0.0,1.4400000000000002e-10,0.0,0.0,0.0,1.0,2
2025/04/09 10:58:30.53173321,1744189110,52937476,mA1/gps,0,1,63.43459790867602,10.393090901580639,0.0,1.4400000000000002e-10,0.0,0.0,0.0,1.4400000000000002e-10,0.0,0.0,0.0,1.0,2
2025/04/09 10:58:30.104636675,1744189110,103997605,mA1/gps,0,1,63.43459798057894,10.393090901997978,0.0,1.4400000000000002e-10,0.0,0.0,0.0,1.4400000000000002e-10,0.0,0.0,0.0,1.0,2
2025/04/09 10:58:30.156785947,1744189110,154361677,mA1/gps,0,1,63.434598052548246,10.393090903040619,0.0,1.4400000000000002e-10,0.0,0.0,0.0,1.4400000000000002e-10,0.0,0.0,0.0,1.0,2
2025/04/09 10:58:30.206208188,1744189110,205970502,mA1/gps,0,1,63.43459812676204,10.39309090470927,0.0,1.4400000000000002e-10,0.0,0.0,0.0,1.4400000000000002e-10,0.0,0.0,0.0,1.0,2
2025/04/09 10:58:30.246449351,1744189110,246077779,mA1/gps,0,1,63.43459820226189,10.393090906462294,0.0,1.4400000000000002e-10,0.0,0.0,0.0,1.4400000000000002e-10,0.0,0.0,0.0,1.0,2
2025/04/09 10:58:30.297454068,1744189110,297054878,mA1/gps,0,1,63.43459827844934,10.393090907993681,0.0,1.4400000000000002e-10,0.0,0.0,0.0,1.4400000000000002e-10,0.0,0.0,0.0,1.0,2
2025/04/09 10:58:30.347575769,1744189110,347201130,mA1/gps,0,1,63.434598356893716,10.393090909242991,0.0,1.4400000000000002e-10,0.0,0.0,0.0,1.4400000000000002e-10,0.0,0.0,0.0,1.0,2
2025/04/09 10:58:30.398404641,1744189110,398146997,mA1/gps,0,1,63.43459843717641,10.393090910013802,0.0,1.4400000000000002e-10,0.0,0.0,0.0,1.4400000000000002e-10,0.0,0.0,0.0,1.0,2
2025/04/09 10:58:30.449972225,1744189110,449719704,mA1/gps,0,1,63.43459851850484,10.393090909203984,0.0,1.4400000000000002e-10,0.0,0.0,0.0,1.4400000000000002e-10,0.0,0.0,0.0,1.0,2
2025/04/09 10:58:30.500005871,1744189110,499739719,mA1/gps,0,1,63.43459860152499,10.393090907850471,0.0,1.4400000000000002e-10,0.0,0.0,0.0,1.4400000000000002e-10,0.0,0.0,0.0,1.0,2
2025/04/09 10:58:30.552418751,1744189110,552090075,mA1/gps,0,1,63.43459868576374,10.39309090425404,0.0,1.4400000000000002e-10,0.0,0.0,0.0,1.4400000000000002e-10,0.0,0.0,0.0,1.0,2
2025/04/09 10:58:30.603360296,1744189110,603078082,mA1/gps,0,1,63.434598771331146,10.393090899527552,0.0,1.4400000000000002e-10,0.0,0.0,0.0,1.4400000000000002e-10,0.0,0.0,0.0,1.0,2
2025/04/09 10:58:30.653179216,1744189110,652935801,mA1/gps,0,1,63.43459885914926,10.393090893772039,0.0,1.4400000000000002e-10,0.0,0.0,0.0,1.4400000000000002e-10,0.0,0.0,0.0,1.0,2
2025/04/09 10:58:30.704407300,1744189110,704071324,mA1/gps,0,1,63.434598947375505,10.393090886210164,0.0,1.4400000000000002e-10,0.0,0.0,0.0,1.4400000000000002e-10,0.0,0.0,0.0,1.0,2
2025/04/09 10:58:30.754331948,1744189110,754032612,mA1/gps,0,1,63.43459903791752,10.393090877576059,0.0,1.4400000000000002e-10,0.0,0.0,0.0,1.4400000000000002e-10,0.0,0.0,0.0,1.0,2
2025/04/09 10:58:30.805192397,1744189110,804898213,mA1/gps,0,1,63.43459912735334,10.393090868762728,0.0,1.4400000000000002e-10,0.0,0.0,0.0,1.4400000000000002e-10,0.0,0.0,0.0,1.0,2
2025/04/09 10:58:30.855547341,1744189110,855319940,mA1/gps,0,1,63.434599219577876,10.393090859271188,0.0,1.4400000000000002e-10,0.0,0.0,0.0,1.4400000000000002e-10,0.0,0.0,0.0,1.0,2
2025/04/09 10:58:30.906437650,1744189110,906083241,mA1/gps,0,1,63.43459931378896,10.393090849649061,0.0,1.4400000000000002e-10,0.0,0.0,0.0,1.4400000000000002e-10,0.0,0.0,0.0,1.0,2
2025/04/09 10:58:30.947899951,1744189110,947427098,mA1/gps,0,1,63.43459940802621,10.393090840652814,0.0,1.4400000000000002e-10,0.0,0.0,0.0,1.4400000000000002e-10,0.0,0.0,0.0,1.0,2
2025/04/09 10:58:30.998593665,1744189110,998378268,mA1/gps,0,1,63.434599503246986,10.393090831945198,0.0,1.4400000000000002e-10,0.0,0.0,0.0,1.4400000000000002e-10,0.0,0.0,0.0,1.0,2
2025/04/09 10:58:31.47736013,1744189111,47425894,mA1/gps,0,1,63.43459960026107,10.393090824029292,0.0,1.4400000000000002e-10,0.0,0.0,0.0,1.4400000000000002e-10,0.0,0.0,0.0,1.0,2
2025/04/09 10:58:31.98580378,1744189111,98411136,mA1/gps,0,1,63.434599698006124,10.393090817301468,0.0,1.4400000000000002e-10,0.0,0.0,0.0,1.4400000000000002e-10,0.0,0.0,0.0,1.0,2
2025/04/09 10:58:31.149066041,1744189111,148908335,mA1/gps,0,1,63.43459979476941,10.393090812236956,0.0,1.4400000000000002e-10,0.0,0.0,0.0,1.4400000000000002e-10,0.0,0.0,0.0,1.0,2
2025/04/09 10:58:31.200235027,1744189111,199813779,mA1/gps,0,1,63.43459989310925,10.393090808359336,0.0,1.4400000000000002e-10,0.0,0.0,0.0,1.4400000000000002e-10,0.0,0.0,0.0,1.0,2
2025/04/09 10:58:31.250039316,1744189111,249637120,mA1/gps,0,1,63.434599992174256,10.393090805914353,0.0,1.4400000000000002e-10,0.0,0.0,0.0,1.4400000000000002e-10,0.0,0.0,0.0,1.0,2
2025/04/09 10:58:31.301562731,1744189111,301334652,mA1/gps,0,1,63.43460009324075,10.393090805270171,0.0,1.4400000000000002e-10,0.0,0.0,0.0,1.4400000000000002e-10,0.0,0.0,0.0,1.0,2
2025/04/09 10:58:31.354834458,1744189111,354278627,mA1/gps,0,1,63.43460019370868,10.393090804872841,0.0,1.4400000000000002e-10,0.0,0.0,0.0,1.4400000000000002e-10,0.0,0.0,0.0,1.0,2
2025/04/09 10:58:31.405772472,1744189111,403858323,mA1/gps,0,1,63.434600295926586,10.393090806463455,0.0,1.4400000000000002e-10,0.0,0.0,0.0,1.4400000000000002e-10,0.0,0.0,0.0,1.0,2
2025/04/09 10:58:31.453714707,1744189111,452372536,mA1/gps,0,1,63.434600398094325,10.393090808316536,0.0,1.4400000000000002e-10,0.0,0.0,0.0,1.4400000000000002e-10,0.0,0.0,0.0,1.0,2
2025/04/09 10:58:31.506561854,1744189111,504654136,mA1/gps,0,1,63.43460050132005,10.393090810217304,0.0,1.4400000000000002e-10,0.0,0.0,0.0,1.4400000000000002e-10,0.0,0.0,0.0,1.0,2
2025/04/09 10:58:31.556402444,1744189111,554478992,mA1/gps,0,1,63.43460060548858,10.393090812617436,0.0,1.4400000000000002e-10,0.0,0.0,0.0,1.4400000000000002e-10,0.0,0.0,0.0,1.0,2
2025/04/09 10:58:31.607849463,1744189111,605360100,mA1/gps,0,1,63.434600711274584,10.393090815066781,0.0,1.4400000000000002e-10,0.0,0.0,0.0,1.4400000000000002e-10,0.0,0.0,0.0,1.0,2
2025/04/09 10:58:31.655908657,1744189111,655497514,mA1/gps,0,1,63.43460081740844,10.393090816313599,0.0,1.4400000000000002e-10,0.0,0.0,0.0,1.4400000000000002e-10,0.0,0.0,0.0,1.0,2
2025/04/09 10:58:31.706458072,1744189111,706275163,mA1/gps,0,1,63.43460092312981,10.393090816581669,0.0,1.4400000000000002e-10,0.0,0.0,0.0,1.4400000000000002e-10,0.0,0.0,0.0,1.0,2
2025/04/09 10:58:31.748791661,1744189111,748047292,mA1/gps,0,1,63.43460103118885,10.393090816447637,0.0,1.4400000000000002e-10,0.0,0.0,0.0,1.4400000000000002e-10,0.0,0.0,0.0,1.0,2
2025/04/09 10:58:31.799376221,1744189111,799139783,mA1/gps,0,1,63.43460114006314,10.393090814912998,0.0,1.4400000000000002e-10,0.0,0.0,0.0,1.4400000000000002e-10,0.0,0.0,0.0,1.0,2
2025/04/09 10:58:31.849148658,1744189111,848919474,mA1/gps,0,1,63.43460124901309,10.393090812200809,0.0,1.4400000000000002e-10,0.0,0.0,0.0,1.4400000000000002e-10,0.0,0.0,0.0,1.0,2
2025/04/09 10:58:31.900206583,1744189111,899936859,mA1/gps,0,1,63.43460135923571,10.393090807706024,0.0,1.4400000000000002e-10,0.0,0.0,0.0,1.4400000000000002e-10,0.0,0.0,0.0,1.0,2
2025/04/09 10:58:31.951418564,1744189111,949838516,mA1/gps,0,1,63.43460147106886,10.393090802909551,0.0,1.4400000000000002e-10,0.0,0.0,0.0,1.4400000000000002e-10,0.0,0.0,0.0,1.0,2
2025/04/09 10:58:32.1216681,1744189112,948054,mA1/gps,0,1,63.43460158403944,10.393090797089556,0.0,1.4400000000000002e-10,0.0,0.0,0.0,1.4400000000000002e-10,0.0,0.0,0.0,1.0,2
2025/04/09 10:58:32.51069170,1744189112,50977090,mA1/gps,0,1,63.43460169629723,10.393090789751497,0.0,1.4400000000000002e-10,0.0,0.0,0.0,1.4400000000000002e-10,0.0,0.0,0.0,1.0,2
2025/04/09 10:58:32.102232233,1744189112,101879108,mA1/gps,0,1,63.43460180989159,10.393090782658073,0.0,1.4400000000000002e-10,0.0,0.0,0.0,1.4400000000000002e-10,0.0,0.0,0.0,1.0,2
2025/04/09 10:58:32.151936112,1744189112,151659021,mA1/gps,0,1,63.43460192494166,10.393090774798504,0.0,1.4400000000000002e-10,0.0,0.0,0.0,1.4400000000000002e-10,0.0,0.0,0.0,1.0,2
2025/04/09 10:58:32.202854534,1744189112,202614451,mA1/gps,0,1,63.434602040852425,10.393090767055286,0.0,1.4400000000000002e-10,0.0,0.0,0.0,1.4400000000000002e-10,0.0,0.0,0.0,1.0,2
2025/04/09 10:58:32.253007748,1744189112,252636604,mA1/gps,0,1,63.43460215976228,10.393090760066094,0.0,1.4400000000000002e-10,0.0,0.0,0.0,1.4400000000000002e-10,0.0,0.0,0.0,1.0,2
2025/04/09 10:58:32.303798199,1744189112,303504084,mA1/gps,0,1,63.4346022767213,10.393090753144199,0.0,1.4400000000000002e-10,0.0,0.0,0.0,1.4400000000000002e-10,0.0,0.0,0.0,1.0,2
2025/04/09 10:58:32.355144185,1744189112,353381748,mA1/gps,0,1,63.43460239337012,10.393090747455206,0.0,1.4400000000000002e-10,0.0,0.0,0.0,1.4400000000000002e-10,0.0,0.0,0.0,1.0,2
2025/04/09 10:58:32.404658959,1744189112,404401178,mA1/gps,0,1,63.43460251224847,10.393090743035549,0.0,1.4400000000000002e-10,0.0,0.0,0.0,1.4400000000000002e-10,0.0,0.0,0.0,1.0,2
2025/04/09 10:58:32.455380659,1744189112,455148800,mA1/gps,0,1,63.434602632610684,10.393090739439184,0.0,1.4400000000000002e-10,0.0,0.0,0.0,1.4400000000000002e-10,0.0,0.0,0.0,1.0,2
2025/04/09 10:58:32.505514640,1744189112,505261491,mA1/gps,0,1,63.43460275314218,10.393090737069706,0.0,1.4400000000000002e-10,0.0,0.0,0.0,1.4400000000000002e-10,0.0,0.0,0.0,1.0,2
2025/04/09 10:58:32.556446472,1744189112,556242971,mA1/gps,0,1,63.43460287429548,10.393090735175992,0.0,1.4400000000000002e-10,0.0,0.0,0.0,1.4400000000000002e-10,0.0,0.0,0.0,1.0,2
2025/04/09 10:58:32.606273578,1744189112,606074995,mA1/gps,0,1,63.43460299582752,10.39309073468702,0.0,1.4400000000000002e-10,0.0,0.0,0.0,1.4400000000000002e-10,0.0,0.0,0.0,1.0,2
2025/04/09 10:58:32.646889468,1744189112,645988448,mA1/gps,0,1,63.434603116497506,10.393090734683943,0.0,1.4400000000000002e-10,0.0,0.0,0.0,1.4400000000000002e-10,0.0,0.0,0.0,1.0,2
2025/04/09 10:58:32.698742916,1744189112,696983401,mA1/gps,0,1,63.43460323851485,10.393090736362378,0.0,1.4400000000000002e-10,0.0,0.0,0.0,1.4400000000000002e-10,0.0,0.0,0.0,1.0,2
2025/04/09 10:58:32.749733513,1744189112,747991021,mA1/gps,0,1,63.43460336086694,10.393090738396674,0.0,1.4400000000000002e-10,0.0,0.0,0.0,1.4400000000000002e-10,0.0,0.0,0.0,1.0,2
2025/04/09 10:58:32.798454240,1744189112,798059184,mA1/gps,0,1,63.43460348397094,10.393090740397046,0.0,1.4400000000000002e-10,0.0,0.0,0.0,1.4400000000000002e-10,0.0,0.0,0.0,1.0,2
2025/04/09 10:58:32.850282647,1744189112,849799757,mA1/gps,0,1,63.434603608068336,10.39309074263171,0.0,1.4400000000000002e-10,0.0,0.0,0.0,1.4400000000000002e-10,0.0,0.0,0.0,1.0,2
2025/04/09 10:58:32.902756263,1744189112,902481146,mA1/gps,0,1,63.434603732897564,10.393090744673524,0.0,1.4400000000000002e-10,0.0,0.0,0.0,1.4400000000000002e-10,0.0,0.0,0.0,1.0,2
2025/04/09 10:58:32.953917457,1744189112,952687759,mA1/gps,0,1,63.43460385728733,10.393090746077004,0.0,1.4400000000000002e-10,0.0,0.0,0.0,1.4400000000000002e-10,0.0,0.0,0.0,1.0,2
2025/04/09 10:58:33.3751996,1744189113,3338753,mA1/gps,0,1,63.43460398106449,10.393090746834977,0.0,1.4400000000000002e-10,0.0,0.0,0.0,1.4400000000000002e-10,0.0,0.0,0.0,1.0,2
2025/04/09 10:58:33.53987863,1744189113,53162958,mA1/gps,0,1,63.43460410693134,10.39309074660531,0.0,1.4400000000000002e-10,0.0,0.0,0.0,1.4400000000000002e-10,0.0,0.0,0.0,1.0,2
2025/04/09 10:58:33.104457429,1744189113,104173487,mA1/gps,0,1,63.43460423410732,10.393090745832898,0.0,1.4400000000000002e-10,0.0,0.0,0.0,1.4400000000000002e-10,0.0,0.0,0.0,1.0,2
2025/04/09 10:58:33.147510521,1744189113,147198825,mA1/gps,0,1,63.43460436088659,10.393090743584256,0.0,1.4400000000000002e-10,0.0,0.0,0.0,1.4400000000000002e-10,0.0,0.0,0.0,1.0,2
2025/04/09 10:58:33.199166735,1744189113,198633800,mA1/gps,0,1,63.43460448733582,10.39309073998001,0.0,1.4400000000000002e-10,0.0,0.0,0.0,1.4400000000000002e-10,0.0,0.0,0.0,1.0,2
2025/04/09 10:58:33.248735070,1744189113,248423509,mA1/gps,0,1,63.43460461451382,10.393090736048304,0.0,1.4400000000000002e-10,0.0,0.0,0.0,1.4400000000000002e-10,0.0,0.0,0.0,1.0,2
2025/04/09 10:58:33.299801996,1744189113,299480900,mA1/gps,0,1,63.43460474434443,10.393090731006293,0.0,1.4400000000000002e-10,0.0,0.0,0.0,1.4400000000000002e-10,0.0,0.0,0.0,1.0,2
2025/04/09 10:58:33.351039866,1744189113,350573581,mA1/gps,0,1,63.434604872983,10.393090724881926,0.0,1.4400000000000002e-10,0.0,0.0,0.0,1.4400000000000002e-10,0.0,0.0,0.0,1.0,2
2025/04/09 10:58:33.400507351,1744189113,400173577,mA1/gps,0,1,63.43460500210168,10.393090719141888,0.0,1.4400000000000002e-10,0.0,0.0,0.0,1.4400000000000002e-10,0.0,0.0,0.0,1.0,2
2025/04/09 10:58:33.453235879,1744189113,452844155,mA1/gps,0,1,63.43460513265905,10.393090712438939,0.0,1.4400000000000002e-10,0.0,0.0,0.0,1.4400000000000002e-10,0.0,0.0,0.0,1.0,2
2025/04/09 10:58:33.504778718,1744189113,504524763,mA1/gps,0,1,63.434605265074595,10.393090706669067,0.0,1.4400000000000002e-10,0.0,0.0,0.0,1.4400000000000002e-10,0.0,0.0,0.0,1.0,2
2025/04/09 10:58:33.556841590,1744189113,554533449,mA1/gps,0,1,63.43460539663671,10.393090700479519,0.0,1.4400000000000002e-10,0.0,0.0,0.0,1.4400000000000002e-10,0.0,0.0,0.0,1.0,2
2025/04/09 10:58:33.606739051,1744189113,606368029,mA1/gps,0,1,63.434605528094394,10.39309069497492,0.0,1.4400000000000002e-10,0.0,0.0,0.0,1.4400000000000002e-10,0.0,0.0,0.0,1.0,2
2025/04/09 10:58:33.658409353,1744189113,656272077,mA1/gps,0,1,63.43460566178016,10.39309069037244,0.0,1.4400000000000002e-10,0.0,0.0,0.0,1.4400000000000002e-10,0.0,0.0,0.0,1.0,2
2025/04/09 10:58:33.706532144,1744189113,706352340,mA1/gps,0,1,63.43460579511825,10.393090686149666,0.0,1.4400000000000002e-10,0.0,0.0,0.0,1.4400000000000002e-10,0.0,0.0,0.0,1.0,2
2025/04/09 10:58:33.753292251,1744189113,750543733,mA1/gps,0,1,63.43460593097538,10.39309068373566,0.0,1.4400000000000002e-10,0.0,0.0,0.0,1.4400000000000002e-10,0.0,0.0,0.0,1.0,2
2025/04/09 10:58:33.798129113,1744189113,797809129,mA1/gps,0,1,63.43460606566462,10.393090681978352,0.0,1.4400000000000002e-10,0.0,0.0,0.0,1.4400000000000002e-10,0.0,0.0,0.0,1.0,2
2025/04/09 10:58:33.849691858,1744189113,848990837,mA1/gps,0,1,63.43460620063606,10.393090681629445,0.0,1.4400000000000002e-10,0.0,0.0,0.0,1.4400000000000002e-10,0.0,0.0,0.0,1.0,2
2025/04/09 10:58:33.902836257,1744189113,902318675,mA1/gps,0,1,63.43460633643903,10.393090681412316,0.0,1.4400000000000002e-10,0.0,0.0,0.0,1.4400000000000002e-10,0.0,0.0,0.0,1.0,2
2025/04/09 10:58:33.954396993,1744189113,952783851,mA1/gps,0,1,63.434606472592016,10.393090682060603,0.0,1.4400000000000002e-10,0.0,0.0,0.0,1.4400000000000002e-10,0.0,0.0,0.0,1.0,2
2025/04/09 10:58:34.4537221,1744189114,3830183,mA1/gps,0,1,63.43460661002702,10.393090683831167,0.0,1.4400000000000002e-10,0.0,0.0,0.0,1.4400000000000002e-10,0.0,0.0,0.0,1.0,2
2025/04/09 10:58:34.54113791,1744189114,53625744,mA1/gps,0,1,63.434606746401144,10.393090685950328,0.0,1.4400000000000002e-10,0.0,0.0,0.0,1.4400000000000002e-10,0.0,0.0,0.0,1.0,2
2025/04/09 10:58:34.105006529,1744189114,104573793,mA1/gps,0,1,63.43460688502724,10.393090688110583,0.0,1.4400000000000002e-10,0.0,0.0,0.0,1.4400000000000002e-10,0.0,0.0,0.0,1.0,2
2025/04/09 10:58:34.146393808,1744189114,146026522,mA1/gps,0,1,63.43460702223141,10.393090690543046,0.0,1.4400000000000002e-10,0.0,0.0,0.0,1.4400000000000002e-10,0.0,0.0,0.0,1.0,2
2025/04/09 10:58:34.199512914,1744189114,199285191,mA1/gps,0,1,63.434607161391874,10.393090692283897,0.0,1.4400000000000002e-10,0.0,0.0,0.0,1.4400000000000002e-10,0.0,0.0,0.0,1.0,2
2025/04/09 10:58:34.248108532,1744189114,247537527,mA1/gps,0,1,63.43460729892428,10.393090693129782,0.0,1.4400000000000002e-10,0.0,0.0,0.0,1.4400000000000002e-10,0.0,0.0,0.0,1.0,2
2025/04/09 10:58:34.298857101,1744189114,298486486,mA1/gps,0,1,63.43460743803244,10.393090693864057,0.0,1.4400000000000002e-10,0.0,0.0,0.0,1.4400000000000002e-10,0.0,0.0,0.0,1.0,2
2025/04/09 10:58:34.349909862,1744189114,348297157,mA1/gps,0,1,63.434607577163824,10.393090693383547,0.0,1.4400000000000002e-10,0.0,0.0,0.0,1.4400000000000002e-10,0.0,0.0,0.0,1.0,2
2025/04/09 10:58:34.399784557,1744189114,399311217,mA1/gps,0,1,63.434607717046674,10.393090691862197,0.0,1.4400000000000002e-10,0.0,0.0,0.0,1.4400000000000002e-10,0.0,0.0,0.0,1.0,2
2025/04/09 10:58:34.450883269,1744189114,449155350,mA1/gps,0,1,63.43460785684276,10.393090689170341,0.0,1.4400000000000002e-10,0.0,0.0,0.0,1.4400000000000002e-10,0.0,0.0,0.0,1.0,2
2025/04/09 10:58:34.501994708,1744189114,500177344,mA1/gps,0,1,63.43460799800235,10.393090686450972,0.0,1.4400000000000002e-10,0.0,0.0,0.0,1.4400000000000002e-10,0.0,0.0,0.0,1.0,2
2025/04/09 10:58:34.552705629,1744189114,550090750,mA1/gps,0,1,63.43460813773622,10.393090681999249,0.0,1.4400000000000002e-10,0.0,0.0,0.0,1.4400000000000002e-10,0.0,0.0,0.0,1.0,2
2025/04/09 10:58:34.602186359,1744189114,602094309,mA1/gps,0,1,63.43460827759161,10.393090676825405,0.0,1.4400000000000002e-10,0.0,0.0,0.0,1.4400000000000002e-10,0.0,0.0,0.0,1.0,2
2025/04/09 10:58:34.652282320,1744189114,651833537,mA1/gps,0,1,63.43460841940772,10.393090672028178,0.0,1.4400000000000002e-10,0.0,0.0,0.0,1.4400000000000002e-10,0.0,0.0,0.0,1.0,2
2025/04/09 10:58:34.702738182,1744189114,702490561,mA1/gps,0,1,63.43460856142907,10.393090666528531,0.0,1.4400000000000002e-10,0.0,0.0,0.0,1.4400000000000002e-10,0.0,0.0,0.0,1.0,2
2025/04/09 10:58:34.753021958,1744189114,752605383,mA1/gps,0,1,63.43460870418253,10.393090660726635,0.0,1.4400000000000002e-10,0.0,0.0,0.0,1.4400000000000002e-10,0.0,0.0,0.0,1.0,2
2025/04/09 10:58:34.803848456,1744189114,803560885,mA1/gps,0,1,63.43460884747543,10.393090655833364,0.0,1.4400000000000002e-10,0.0,0.0,0.0,1.4400000000000002e-10,0.0,0.0,0.0,1.0,2
2025/04/09 10:58:34.853770102,1744189114,853438811,mA1/gps,0,1,63.43460899034717,10.39309065146574,0.0,1.4400000000000002e-10,0.0,0.0,0.0,1.4400000000000002e-10,0.0,0.0,0.0,1.0,2
2025/04/09 10:58:34.905168300,1744189114,904560330,mA1/gps,0,1,63.43460913460268,10.393090646986014,0.0,1.4400000000000002e-10,0.0,0.0,0.0,1.4400000000000002e-10,0.0,0.0,0.0,1.0,2
2025/04/09 10:58:34.958919596,1744189114,956841010,mA1/gps,0,1,63.43460927885547,10.393090643875132,0.0,1.4400000000000002e-10,0.0,0.0,0.0,1.4400000000000002e-10,0.0,0.0,0.0,1.0,2
2025/04/09 10:58:34.997999105,1744189114,997743017,mA1/gps,0,1,63.434609424003845,10.393090641527312,0.0,1.4400000000000002e-10,0.0,0.0,0.0,1.4400000000000002e-10,0.0,0.0,0.0,1.0,2
2025/04/09 10:58:35.47844621,1744189115,47653788,mA1/gps,0,1,63.43460956991571,10.393090640171145,0.0,1.4400000000000002e-10,0.0,0.0,0.0,1.4400000000000002e-10,0.0,0.0,0.0,1.0,2
2025/04/09 10:58:35.98668603,1744189115,98520718,mA1/gps,0,1,63.43460971655223,10.393090639792506,0.0,1.4400000000000002e-10,0.0,0.0,0.0,1.4400000000000002e-10,0.0,0.0,0.0,1.0,2
2025/04/09 10:58:35.150632177,1744189115,148764366,mA1/gps,0,1,63.43460986264202,10.393090639979283,0.0,1.4400000000000002e-10,0.0,0.0,0.0,1.4400000000000002e-10,0.0,0.0,0.0,1.0,2
2025/04/09 10:58:35.201551090,1744189115,199738150,mA1/gps,0,1,63.43461001042046,10.393090641105227,0.0,1.4400000000000002e-10,0.0,0.0,0.0,1.4400000000000002e-10,0.0,0.0,0.0,1.0,2
2025/04/09 10:58:35.249893966,1744189115,249590995,mA1/gps,0,1,63.43461015772354,10.393090642639207,0.0,1.4400000000000002e-10,0.0,0.0,0.0,1.4400000000000002e-10,0.0,0.0,0.0,1.0,2
2025/04/09 10:58:35.301311408,1744189115,301044563,mA1/gps,0,1,63.4346103064107,10.393090644535606,0.0,1.4400000000000002e-10,0.0,0.0,0.0,1.4400000000000002e-10,0.0,0.0,0.0,1.0,2
2025/04/09 10:58:35.353027347,1744189115,352400842,mA1/gps,0,1,63.43461045470263,10.393090647138843,0.0,1.4400000000000002e-10,0.0,0.0,0.0,1.4400000000000002e-10,0.0,0.0,0.0,1.0,2
2025/04/09 10:58:35.402205133,1744189115,402004820,mA1/gps,0,1,63.43461060367906,10.393090649234601,0.0,1.4400000000000002e-10,0.0,0.0,0.0,1.4400000000000002e-10,0.0,0.0,0.0,1.0,2
2025/04/09 10:58:35.452343922,1744189115,451962961,mA1/gps,0,1,63.43461075287955,10.393090650716546,0.0,1.4400000000000002e-10,0.0,0.0,0.0,1.4400000000000002e-10,0.0,0.0,0.0,1.0,2
2025/04/09 10:58:35.503638682,1744189115,503076309,mA1/gps,0,1,63.434610903154244,10.39309065171837,0.0,1.4400000000000002e-10,0.0,0.0,0.0,1.4400000000000002e-10,0.0,0.0,0.0,1.0,2
2025/04/09 10:58:35.552969222,1744189115,552681655,mA1/gps,0,1,63.43461105321924,10.393090652940057,0.0,1.4400000000000002e-10,0.0,0.0,0.0,1.4400000000000002e-10,0.0,0.0,0.0,1.0,2
2025/04/09 10:58:35.603847435,1744189115,603540120,mA1/gps,0,1,63.43461120310862,10.39309065301362,0.0,1.4400000000000002e-10,0.0,0.0,0.0,1.4400000000000002e-10,0.0,0.0,0.0,1.0,2
2025/04/09 10:58:35.656885040,1744189115,655019457,mA1/gps,0,1,63.43461135515654,10.39309065211541,0.0,1.4400000000000002e-10,0.0,0.0,0.0,1.4400000000000002e-10,0.0,0.0,0.0,1.0,2
2025/04/09 10:58:35.706037227,1744189115,705770830,mA1/gps,0,1,63.43461150514787,10.393090650261557,0.0,1.4400000000000002e-10,0.0,0.0,0.0,1.4400000000000002e-10,0.0,0.0,0.0,1.0,2
2025/04/09 10:58:35.747631634,1744189115,747366302,mA1/gps,0,1,63.43461165599466,10.393090647527815,0.0,1.4400000000000002e-10,0.0,0.0,0.0,1.4400000000000002e-10,0.0,0.0,0.0,1.0,2
2025/04/09 10:58:35.799657938,1744189115,798080073,mA1/gps,0,1,63.43461180783011,10.393090643728472,0.0,1.4400000000000002e-10,0.0,0.0,0.0,1.4400000000000002e-10,0.0,0.0,0.0,1.0,2
2025/04/09 10:58:35.848470656,1744189115,848367397,mA1/gps,0,1,63.43461196017468,10.393090640001866,0.0,1.4400000000000002e-10,0.0,0.0,0.0,1.4400000000000002e-10,0.0,0.0,0.0,1.0,2
2025/04/09 10:58:35.900600262,1744189115,900225537,mA1/gps,0,1,63.43461211193093,10.39309063514061,0.0,1.4400000000000002e-10,0.0,0.0,0.0,1.4400000000000002e-10,0.0,0.0,0.0,1.0,2
2025/04/09 10:58:35.950442260,1744189115,950290154,mA1/gps,0,1,63.4346122648115,10.393090630020263,0.0,1.4400000000000002e-10,0.0,0.0,0.0,1.4400000000000002e-10,0.0,0.0,0.0,1.0,2
2025/04/09 10:58:36.1541203,1744189116,1290229,mA1/gps,0,1,63.434612418809294,10.393090625799513,0.0,1.4400000000000002e-10,0.0,0.0,0.0,1.4400000000000002e-10,0.0,0.0,0.0,1.0,2
2025/04/09 10:58:36.51300918,1744189116,51071558,mA1/gps,0,1,63.43461257109469,10.393090620909083,0.0,1.4400000000000002e-10,0.0,0.0,0.0,1.4400000000000002e-10,0.0,0.0,0.0,1.0,2
2025/04/09 10:58:36.104681373,1744189116,102098553,mA1/gps,0,1,63.43461272503481,10.39309061611494,0.0,1.4400000000000002e-10,0.0,0.0,0.0,1.4400000000000002e-10,0.0,0.0,0.0,1.0,2
2025/04/09 10:58:36.153645023,1744189116,153399825,mA1/gps,0,1,63.434612879323815,10.39309061228278,0.0,1.4400000000000002e-10,0.0,0.0,0.0,1.4400000000000002e-10,0.0,0.0,0.0,1.0,2
2025/04/09 10:58:36.203275210,1744189116,202929616,mA1/gps,0,1,63.43461303411607,10.393090608862147,0.0,1.4400000000000002e-10,0.0,0.0,0.0,1.4400000000000002e-10,0.0,0.0,0.0,1.0,2
2025/04/09 10:58:36.253671101,1744189116,253318891,mA1/gps,0,1,63.43461318811898,10.393090605454267,0.0,1.4400000000000002e-10,0.0,0.0,0.0,1.4400000000000002e-10,0.0,0.0,0.0,1.0,2
2025/04/09 10:58:36.304165265,1744189116,303768578,mA1/gps,0,1,63.43461334379615,10.393090604372999,0.0,1.4400000000000002e-10,0.0,0.0,0.0,1.4400000000000002e-10,0.0,0.0,0.0,1.0,2
2025/04/09 10:58:36.354117034,1744189116,353682236,mA1/gps,0,1,63.43461350064517,10.393090602738326,0.0,1.4400000000000002e-10,0.0,0.0,0.0,1.4400000000000002e-10,0.0,0.0,0.0,1.0,2
2025/04/09 10:58:36.404843391,1744189116,404613718,mA1/gps,0,1,63.4346136570836,10.393090601737267,0.0,1.4400000000000002e-10,0.0,0.0,0.0,1.4400000000000002e-10,0.0,0.0,0.0,1.0,2
2025/04/09 10:58:36.454758652,1744189116,454480937,mA1/gps,0,1,63.43461381334626,10.39309060135185,0.0,1.4400000000000002e-10,0.0,0.0,0.0,1.4400000000000002e-10,0.0,0.0,0.0,1.0,2
2025/04/09 10:58:36.507533325,1744189116,505462909,mA1/gps,0,1,63.43461397104113,10.393090602285527,0.0,1.4400000000000002e-10,0.0,0.0,0.0,1.4400000000000002e-10,0.0,0.0,0.0,1.0,2
2025/04/09 10:58:36.556987479,1744189116,556300782,mA1/gps,0,1,63.43461412969015,10.393090603390927,0.0,1.4400000000000002e-10,0.0,0.0,0.0,1.4400000000000002e-10,0.0,0.0,0.0,1.0,2
2025/04/09 10:58:36.606414128,1744189116,606243807,mA1/gps,0,1,63.43461428789858,10.393090604799212,0.0,1.4400000000000002e-10,0.0,0.0,0.0,1.4400000000000002e-10,0.0,0.0,0.0,1.0,2
2025/04/09 10:58:36.648351248,1744189116,647863179,mA1/gps,0,1,63.43461444639228,10.393090606036838,0.0,1.4400000000000002e-10,0.0,0.0,0.0,1.4400000000000002e-10,0.0,0.0,0.0,1.0,2
2025/04/09 10:58:36.698983389,1744189116,698754901,mA1/gps,0,1,63.434614605446086,10.393090607406329,0.0,1.4400000000000002e-10,0.0,0.0,0.0,1.4400000000000002e-10,0.0,0.0,0.0,1.0,2
2025/04/09 10:58:36.749796685,1744189116,748556114,mA1/gps,0,1,63.43461476607275,10.393090608266652,0.0,1.4400000000000002e-10,0.0,0.0,0.0,1.4400000000000002e-10,0.0,0.0,0.0,1.0,2
2025/04/09 10:58:36.801057247,1744189116,800940892,mA1/gps,0,1,63.434614926659194,10.39309060975869,0.0,1.4400000000000002e-10,0.0,0.0,0.0,1.4400000000000002e-10,0.0,0.0,0.0,1.0,2
2025/04/09 10:58:36.849763690,1744189116,849549539,mA1/gps,0,1,63.43461508620476,10.39309060910559,0.0,1.4400000000000002e-10,0.0,0.0,0.0,1.4400000000000002e-10,0.0,0.0,0.0,1.0,2
2025/04/09 10:58:36.903701777,1744189116,900516888,mA1/gps,0,1,63.43461524754675,10.393090609212827,0.0,1.4400000000000002e-10,0.0,0.0,0.0,1.4400000000000002e-10,0.0,0.0,0.0,1.0,2
2025/04/09 10:58:36.951456960,1744189116,951346284,mA1/gps,0,1,63.43461540863052,10.393090607989874,0.0,1.4400000000000002e-10,0.0,0.0,0.0,1.4400000000000002e-10,0.0,0.0,0.0,1.0,2
2025/04/09 10:58:37.2075057,1744189117,1948091,mA1/gps,0,1,63.43461557053614,10.393090605899154,0.0,1.4400000000000002e-10,0.0,0.0,0.0,1.4400000000000002e-10,0.0,0.0,0.0,1.0,2
2025/04/09 10:58:37.53449992,1744189117,53336203,mA1/gps,0,1,63.43461573262461,10.393090602888867,0.0,1.4400000000000002e-10,0.0,0.0,0.0,1.4400000000000002e-10,0.0,0.0,0.0,1.0,2
2025/04/09 10:58:37.103476513,1744189117,103136387,mA1/gps,0,1,63.43461589535162,10.393090600536038,0.0,1.4400000000000002e-10,0.0,0.0,0.0,1.4400000000000002e-10,0.0,0.0,0.0,1.0,2
2025/04/09 10:58:37.155154020,1744189117,153188962,mA1/gps,0,1,63.434616058301906,10.393090596497986,0.0,1.4400000000000002e-10,0.0,0.0,0.0,1.4400000000000002e-10,0.0,0.0,0.0,1.0,2
2025/04/09 10:58:37.206667532,1744189117,206250557,mA1/gps,0,1,63.43461622178548,10.393090592614616,0.0,1.4400000000000002e-10,0.0,0.0,0.0,1.4400000000000002e-10,0.0,0.0,0.0,1.0,2
2025/04/09 10:58:37.247944350,1744189117,247773523,mA1/gps,0,1,63.43461638351349,10.39309058865302,0.0,1.4400000000000002e-10,0.0,0.0,0.0,1.4400000000000002e-10,0.0,0.0,0.0,1.0,2
2025/04/09 10:58:37.303737378,1744189117,302604908,mA1/gps,0,1,63.43461654919725,10.393090584512716,0.0,1.4400000000000002e-10,0.0,0.0,0.0,1.4400000000000002e-10,0.0,0.0,0.0,1.0,2
2025/04/09 10:58:37.355415005,1744189117,355198907,mA1/gps,0,1,63.434616712039386,10.393090580229432,0.0,1.4400000000000002e-10,0.0,0.0,0.0,1.4400000000000002e-10,0.0,0.0,0.0,1.0,2
2025/04/09 10:58:37.400093693,1744189117,399588633,mA1/gps,0,1,63.43461687585793,10.393090576454648,0.0,1.4400000000000002e-10,0.0,0.0,0.0,1.4400000000000002e-10,0.0,0.0,0.0,1.0,2
2025/04/09 10:58:37.452203877,1744189117,451931795,mA1/gps,0,1,63.43461704227091,10.39309057269199,0.0,1.4400000000000002e-10,0.0,0.0,0.0,1.4400000000000002e-10,0.0,0.0,0.0,1.0,2
2025/04/09 10:58:37.503185132,1744189117,502874912,mA1/gps,0,1,63.43461720471223,10.39309057007929,0.0,1.4400000000000002e-10,0.0,0.0,0.0,1.4400000000000002e-10,0.0,0.0,0.0,1.0,2
2025/04/09 10:58:37.553473825,1744189117,553350243,mA1/gps,0,1,63.43461737031889,10.393090567978927,0.0,1.4400000000000002e-10,0.0,0.0,0.0,1.4400000000000002e-10,0.0,0.0,0.0,1.0,2
2025/04/09 10:58:37.603849064,1744189117,603632099,mA1/gps,0,1,63.43461753558932,10.39309056619465,0.0,1.4400000000000002e-10,0.0,0.0,0.0,1.4400000000000002e-10,0.0,0.0,0.0,1.0,2
2025/04/09 10:58:37.656451977,1744189117,654215390,mA1/gps,0,1,63.43461770077776,10.393090565206824,0.0,1.4400000000000002e-10,0.0,0.0,0.0,1.4400000000000002e-10,0.0,0.0,0.0,1.0,2
2025/04/09 10:58:37.705371467,1744189117,705031477,mA1/gps,0,1,63.4346178660383,10.393090565427878,0.0,1.4400000000000002e-10,0.0,0.0,0.0,1.4400000000000002e-10,0.0,0.0,0.0,1.0,2
2025/04/09 10:58:37.746963693,1744189117,746671884,mA1/gps,0,1,63.43461803078456,10.393090565998932,0.0,1.4400000000000002e-10,0.0,0.0,0.0,1.4400000000000002e-10,0.0,0.0,0.0,1.0,2
2025/04/09 10:58:37.798786704,1744189117,798521452,mA1/gps,0,1,63.434618195601175,10.393090566698161,0.0,1.4400000000000002e-10,0.0,0.0,0.0,1.4400000000000002e-10,0.0,0.0,0.0,1.0,2
2025/04/09 10:58:37.849962164,1744189117,849639068,mA1/gps,0,1,63.4346183602316,10.393090568209914,0.0,1.4400000000000002e-10,0.0,0.0,0.0,1.4400000000000002e-10,0.0,0.0,0.0,1.0,2
2025/04/09 10:58:37.899914037,1744189117,899745927,mA1/gps,0,1,63.43461852491812,10.393090569931802,0.0,1.4400000000000002e-10,0.0,0.0,0.0,1.4400000000000002e-10,0.0,0.0,0.0,1.0,2
2025/04/09 10:58:37.949963140,1744189117,949773327,mA1/gps,0,1,63.434618688770506,10.39309057131793,0.0,1.4400000000000002e-10,0.0,0.0,0.0,1.4400000000000002e-10,0.0,0.0,0.0,1.0,2
2025/04/09 10:58:38.806522,1744189118,524170,mA1/gps,0,1,63.43461885120441,10.393090572734087,0.0,1.4400000000000002e-10,0.0,0.0,0.0,1.4400000000000002e-10,0.0,0.0,0.0,1.0,2
2025/04/09 10:58:38.52003231,1744189118,50375181,mA1/gps,0,1,63.43461901434365,10.393090574450184,0.0,1.4400000000000002e-10,0.0,0.0,0.0,1.4400000000000002e-10,0.0,0.0,0.0,1.0,2
2025/04/09 10:58:38.101769830,1744189118,101365649,mA1/gps,0,1,63.43461917749185,10.393090574499002,0.0,1.4400000000000002e-10,0.0,0.0,0.0,1.4400000000000002e-10,0.0,0.0,0.0,1.0,2
2025/04/09 10:58:38.153146470,1744189118,152857852,mA1/gps,0,1,63.43461933856433,10.39309057534387,0.0,1.4400000000000002e-10,0.0,0.0,0.0,1.4400000000000002e-10,0.0,0.0,0.0,1.0,2
2025/04/09 10:58:38.205585111,1744189118,203893915,mA1/gps,0,1,63.4346194977816,10.393090574387127,0.0,1.4400000000000002e-10,0.0,0.0,0.0,1.4400000000000002e-10,0.0,0.0,0.0,1.0,2
2025/04/09 10:58:38.256088625,1744189118,255497134,mA1/gps,0,1,63.43461965707006,10.393090573812561,0.0,1.4400000000000002e-10,0.0,0.0,0.0,1.4400000000000002e-10,0.0,0.0,0.0,1.0,2
2025/04/09 10:58:38.305361748,1744189118,305173971,mA1/gps,0,1,63.434619815214774,10.393090572159185,0.0,1.4400000000000002e-10,0.0,0.0,0.0,1.4400000000000002e-10,0.0,0.0,0.0,1.0,2
2025/04/09 10:58:38.355650434,1744189118,355077541,mA1/gps,0,1,63.434619971753015,10.393090569578552,0.0,1.4400000000000002e-10,0.0,0.0,0.0,1.4400000000000002e-10,0.0,0.0,0.0,1.0,2
2025/04/09 10:58:38.406476556,1744189118,406166528,mA1/gps,0,1,63.43462012624841,10.39309056685083,0.0,1.4400000000000002e-10,0.0,0.0,0.0,1.4400000000000002e-10,0.0,0.0,0.0,1.0,2
2025/04/09 10:58:38.447266633,1744189118,446013937,mA1/gps,0,1,63.434620280175956,10.393090563401133,0.0,1.4400000000000002e-10,0.0,0.0,0.0,1.4400000000000002e-10,0.0,0.0,0.0,1.0,2
2025/04/09 10:58:38.500683086,1744189118,498086756,mA1/gps,0,1,63.434620433426375,10.393090559941463,0.0,1.4400000000000002e-10,0.0,0.0,0.0,1.4400000000000002e-10,0.0,0.0,0.0,1.0,2
2025/04/09 10:58:38.549030765,1744189118,548572891,mA1/gps,0,1,63.43462058511717,10.393090555971533,0.0,1.4400000000000002e-10,0.0,0.0,0.0,1.4400000000000002e-10,0.0,0.0,0.0,1.0,2
2025/04/09 10:58:38.599039177,1744189118,598804184,mA1/gps,0,1,63.434620734282596,10.393090551905823,0.0,1.4400000000000002e-10,0.0,0.0,0.0,1.4400000000000002e-10,0.0,0.0,0.0,1.0,2
2025/04/09 10:58:38.651685338,1744189118,650139971,mA1/gps,0,1,63.43462088311045,10.393090548079739,0.0,1.4400000000000002e-10,0.0,0.0,0.0,1.4400000000000002e-10,0.0,0.0,0.0,1.0,2
2025/04/09 10:58:38.701562122,1744189118,699741279,mA1/gps,0,1,63.434621031278496,10.393090544473493,0.0,1.4400000000000002e-10,0.0,0.0,0.0,1.4400000000000002e-10,0.0,0.0,0.0,1.0,2
2025/04/09 10:58:38.754505502,1744189118,750156702,mA1/gps,0,1,63.43462117708249,10.393090541578928,0.0,1.4400000000000002e-10,0.0,0.0,0.0,1.4400000000000002e-10,0.0,0.0,0.0,1.0,2
2025/04/09 10:58:38.801048197,1744189118,800827189,mA1/gps,0,1,63.43462132325358,10.393090538495256,0.0,1.4400000000000002e-10,0.0,0.0,0.0,1.4400000000000002e-10,0.0,0.0,0.0,1.0,2
2025/04/09 10:58:38.852711476,1744189118,851987501,mA1/gps,0,1,63.434621465360834,10.393090536619818,0.0,1.4400000000000002e-10,0.0,0.0,0.0,1.4400000000000002e-10,0.0,0.0,0.0,1.0,2
2025/04/09 10:58:38.904554957,1744189118,902040366,mA1/gps,0,1,63.43462160974789,10.393090535311716,0.0,1.4400000000000002e-10,0.0,0.0,0.0,1.4400000000000002e-10,0.0,0.0,0.0,1.0,2
2025/04/09 10:58:38.955674620,1744189118,952966165,mA1/gps,0,1,63.43462175135827,10.393090533910396,0.0,1.4400000000000002e-10,0.0,0.0,0.0,1.4400000000000002e-10,0.0,0.0,0.0,1.0,2
2025/04/09 10:58:39.2945784,1744189119,2771356,mA1/gps,0,1,63.434621893338246,10.393090534040383,0.0,1.4400000000000002e-10,0.0,0.0,0.0,1.4400000000000002e-10,0.0,0.0,0.0,1.0,2
2025/04/09 10:58:39.57225583,1744189119,55136239,mA1/gps,0,1,63.43462203297006,10.39309053453151,0.0,1.4400000000000002e-10,0.0,0.0,0.0,1.4400000000000002e-10,0.0,0.0,0.0,1.0,2
2025/04/09 10:58:39.107164781,1744189119,106575980,mA1/gps,0,1,63.43462217240277,10.393090534428856,0.0,1.4400000000000002e-10,0.0,0.0,0.0,1.4400000000000002e-10,0.0,0.0,0.0,1.0,2
2025/04/09 10:58:39.149190306,1744189119,147133545,mA1/gps,0,1,63.434622310534124,10.393090535588344,0.0,1.4400000000000002e-10,0.0,0.0,0.0,1.4400000000000002e-10,0.0,0.0,0.0,1.0,2
2025/04/09 10:58:39.199960149,1744189119,199700944,mA1/gps,0,1,63.4346224451643,10.393090538567785,0.0,1.4400000000000002e-10,0.0,0.0,0.0,1.4400000000000002e-10,0.0,0.0,0.0,1.0,2
2025/04/09 10:58:39.250134518,1744189119,249751012,mA1/gps,0,1,63.43462258336821,10.393090541592354,0.0,1.4400000000000002e-10,0.0,0.0,0.0,1.4400000000000002e-10,0.0,0.0,0.0,1.0,2
2025/04/09 10:58:39.300928790,1744189119,300635645,mA1/gps,0,1,63.43462271844608,10.39309054401983,0.0,1.4400000000000002e-10,0.0,0.0,0.0,1.4400000000000002e-10,0.0,0.0,0.0,1.0,2
2025/04/09 10:58:39.351363218,1744189119,351058041,mA1/gps,0,1,63.43462285247188,10.393090547093747,0.0,1.4400000000000002e-10,0.0,0.0,0.0,1.4400000000000002e-10,0.0,0.0,0.0,1.0,2
2025/04/09 10:58:39.402518977,1744189119,402274171,mA1/gps,0,1,63.43462298453326,10.393090549633085,0.0,1.4400000000000002e-10,0.0,0.0,0.0,1.4400000000000002e-10,0.0,0.0,0.0,1.0,2
2025/04/09 10:58:39.455302232,1744189119,453955745,mA1/gps,0,1,63.4346231161259,10.393090550934305,0.0,1.4400000000000002e-10,0.0,0.0,0.0,1.4400000000000002e-10,0.0,0.0,0.0,1.0,2
2025/04/09 10:58:39.503765264,1744189119,503174481,mA1/gps,0,1,63.43462324568641,10.393090551995408,0.0,1.4400000000000002e-10,0.0,0.0,0.0,1.4400000000000002e-10,0.0,0.0,0.0,1.0,2
2025/04/09 10:58:39.557689096,1744189119,553138235,mA1/gps,0,1,63.434623375232725,10.3930905525324,0.0,1.4400000000000002e-10,0.0,0.0,0.0,1.4400000000000002e-10,0.0,0.0,0.0,1.0,2
2025/04/09 10:58:39.604489698,1744189119,604265970,mA1/gps,0,1,63.43462350181466,10.393090551388779,0.0,1.4400000000000002e-10,0.0,0.0,0.0,1.4400000000000002e-10,0.0,0.0,0.0,1.0,2
2025/04/09 10:58:39.654501932,1744189119,654116632,mA1/gps,0,1,63.43462362832509,10.393090549581567,0.0,1.4400000000000002e-10,0.0,0.0,0.0,1.4400000000000002e-10,0.0,0.0,0.0,1.0,2
2025/04/09 10:58:39.705411748,1744189119,705141101,mA1/gps,0,1,63.434623752797606,10.393090546730942,0.0,1.4400000000000002e-10,0.0,0.0,0.0,1.4400000000000002e-10,0.0,0.0,0.0,1.0,2
2025/04/09 10:58:39.755313929,1744189119,754979834,mA1/gps,0,1,63.43462387462831,10.393090543514072,0.0,1.4400000000000002e-10,0.0,0.0,0.0,1.4400000000000002e-10,0.0,0.0,0.0,1.0,2
2025/04/09 10:58:39.807310047,1744189119,805836593,mA1/gps,0,1,63.43462399474076,10.3930905389796,0.0,1.4400000000000002e-10,0.0,0.0,0.0,1.4400000000000002e-10,0.0,0.0,0.0,1.0,2
2025/04/09 10:58:39.849084712,1744189119,847074558,mA1/gps,0,1,63.43462411377759,10.3930905345052,0.0,1.4400000000000002e-10,0.0,0.0,0.0,1.4400000000000002e-10,0.0,0.0,0.0,1.0,2
2025/04/09 10:58:39.898489425,1744189119,898288357,mA1/gps,0,1,63.434624231332506,10.393090529451994,0.0,1.4400000000000002e-10,0.0,0.0,0.0,1.4400000000000002e-10,0.0,0.0,0.0,1.0,2
2025/04/09 10:58:39.949821226,1744189119,948152080,mA1/gps,0,1,63.434624345983245,10.393090524937334,0.0,1.4400000000000002e-10,0.0,0.0,0.0,1.4400000000000002e-10,0.0,0.0,0.0,1.0,2
2025/04/09 10:58:39.999366493,1744189119,999140811,mA1/gps,0,1,63.43462445962045,10.3930905204231,0.0,1.4400000000000002e-10,0.0,0.0,0.0,1.4400000000000002e-10,0.0,0.0,0.0,1.0,2
2025/04/09 10:58:40.49291046,1744189120,48983415,mA1/gps,0,1,63.43462457164365,10.39309051743648,0.0,1.4400000000000002e-10,0.0,0.0,0.0,1.4400000000000002e-10,0.0,0.0,0.0,1.0,2
2025/04/09 10:58:40.101542501,1744189120,101330067,mA1/gps,0,1,63.43462468089487,10.393090512117103,0.0,1.4400000000000002e-10,0.0,0.0,0.0,1.4400000000000002e-10,0.0,0.0,0.0,1.0,2
2025/04/09 10:58:40.151732282,1744189120,151615681,mA1/gps,0,1,63.434624789205806,10.393090507634628,0.0,1.4400000000000002e-10,0.0,0.0,0.0,1.4400000000000002e-10,0.0,0.0,0.0,1.0,2
2025/04/09 10:58:40.202232700,1744189120,202049318,mA1/gps,0,1,63.434624895363015,10.39309050392353,0.0,1.4400000000000002e-10,0.0,0.0,0.0,1.4400000000000002e-10,0.0,0.0,0.0,1.0,2
2025/04/09 10:58:40.246413873,1744189120,246288183,mA1/gps,0,1,63.43462500000964,10.393090503073667,0.0,1.4400000000000002e-10,0.0,0.0,0.0,1.4400000000000002e-10,0.0,0.0,0.0,1.0,2
