time,header_stamp_secs,header_stamp_nsecs,header_frame_id,child_frame_id,pose_position_x,pose_position_y,pose_position_z,pose_orientation_x,pose_orientation_y,pose_orientation_z,pose_orientation_w,twist_linear_x,twist_linear_y,twist_linear_z,twist_angular_x,twist_angular_y,twist_angular_z,gps_status
2025/05/06 15:48:37.60755512,1746539316,955348043,piren,vessel_center,-486.1078399178637,-322.9469508379595,2.3315896227256174,-0.0008631154420388243,-0.0001874919670728636,0.6733354476239468,0.7393365910406133,0.004468960148506247,0.002220660236571936,-6.557803204165789e-05,1.5819977569148635e-05,-0.0001400145500874258,0.00015991990254580747,0
2025/05/06 15:48:39.377555494,1746539319,173207880,piren,vessel_center,-486.10214306630166,-322.94330114495796,2.331496008424519,-0.0005922536779617368,-0.0004938004560974576,0.6735550404437254,0.7391366672608944,0.0037229164081056102,0.003671605849149861,-7.691629585713253e-05,8.042856609038264e-05,-0.0009365706377925896,0.00036263501579048935,0
2025/05/06 15:48:44.758785550,1746539324,740016512,piren,vessel_center,-486.1744360970776,-322.8888688394422,2.3813118902415096,0.0002307792450239276,0.0011213106482977448,0.6736184826797141,0.7390783647189584,0.08562920129165846,0.030751794879279846,-0.029113355300891736,6.934628804991181e-05,0.00022335161446053234,0.00014588079306176112,0
2025/05/06 15:48:46.222461788,1746539326,207627525,piren,vessel_center,-486.0522689314239,-322.8407162510741,2.338061877663221,-0.0008877769629476699,5.1943118673553454e-05,0.673938871344413,0.7387865773313665,0.11040781690348936,0.04919759270096678,-0.041362099548677575,-0.00023750644010771314,-0.00010205886970099254,0.0004575760383481885,0
2025/05/06 15:48:47.626307345,1746539327,578130114,piren,vessel_center,-485.9165655579248,-322.7364848457436,2.2878154994783886,-0.00869993408746745,-0.007681750716811889,0.6741410309465612,0.7385114570858777,-0.030826670513988436,0.08365736053310742,0.01286655632570246,-0.0006913311799493728,-0.0007129926927918864,0.0001764235731217882,0
2025/05/06 15:48:48.862456009,1746539328,843970145,piren,vessel_center,-485.9953999264161,-322.61662270160497,2.3212097293806675,0.004551944608297562,0.006112328647071587,0.6735409274817128,0.7391106400572699,-0.12041609617131128,0.11768825935851113,0.05134887788178887,-0.0007437341693625602,0.0009501719402460247,-0.0003194549199179472,0
2025/05/06 15:48:50.94396303,1746539330,77333998,piren,vessel_center,-486.0888005922234,-322.4540553072116,2.361759536706639,0.012456442737638402,0.011599118956263895,0.6721071740654359,0.7402582279472051,0.019994108216769876,0.13892440760014382,-0.0069230469634012914,-0.0006568269377375878,0.002618199862790869,-0.0013871522833998162,0
2025/05/06 15:48:51.506171383,1746539331,478217948,piren,vessel_center,-486.0144034718782,-322.27707445679056,2.3323732364987597,-0.021826914770781466,-0.02064085330249048,0.671188013323551,0.7406781971526628,0.12991069859017457,0.1468945820119649,-0.05304322064785671,0.00043342368469105364,0.0021990558108779673,-0.0008620749245414187,0
2025/05/06 15:48:52.962315808,1746539332,947883192,piren,vessel_center,-485.9176434331787,-322.0395836549223,2.296198872936134,-0.0009550147833201468,0.0005044963856924899,0.6704744417701173,0.7419318407800074,-0.11230309560132795,0.18926509996772498,0.054084267102317944,-0.0004086126205493418,0.0005014068925182854,-0.0013770293691076818,0
2025/05/06 15:48:54.132740878,1746539334,66289230,piren,vessel_center,-486.0626674169927,-321.65856515343074,2.37604005275146,0.0003496978859033751,0.0007522951900054757,0.6653820329601559,0.7465025532288191,0.05148754742076575,0.21689702031485525,-0.0025695287314123627,-0.0005425190668893848,-0.0017205445020114368,-0.0037906480713682917,0
2025/05/06 15:48:55.77335362,1746539335,54609891,piren,vessel_center,-485.9765088767754,-321.44979388653877,2.357406894316941,-0.023327512570318034,-0.020380370274326997,0.6639715551917605,0.7471159492080182,0.13401293365050163,0.22096772045119964,-0.0386283928209002,6.605694895591666e-05,-0.002437269974356479,-0.004910536911635259,0
2025/05/06 15:48:56.125866366,1746539336,111083066,piren,vessel_center,-485.90592822554464,-321.2075429603343,2.3417593042043534,0.0009064325934772099,0.0014807224673006733,0.6615576596926158,0.7498922914278807,-0.02118814361333521,0.24484364592458463,0.016547029671426627,0.000411318619058687,0.00042379165607511955,-0.005211546758702282,0
2025/05/06 15:48:57.165729200,1746539337,160092368,piren,vessel_center,-485.8994075643812,-320.94004003843537,2.3479829169077457,-0.000894205445056837,-0.0003405247708392041,0.6594435835322822,0.7517534466682575,0.04508878233409645,0.24367231324181432,-0.009973147740790209,7.315972649889309e-05,0.0024218068552840145,-0.004814942755799375,0
2025/05/06 15:48:58.248659389,1746539338,186209565,piren,vessel_center,-485.84831279024905,-320.71668230909836,2.3363620871703854,-0.019653058318037486,-0.017709695679594156,0.659710044023278,0.7510544466232049,0.06796884919681373,0.25002747795579183,-0.015743488104860346,0.001211502535255878,-7.0266588929845584e-06,-0.0029851986947124526,0
2025/05/06 15:48:59.189739604,1746539339,178570157,piren,vessel_center,-485.8222336489151,-320.42740445372533,2.340395235086943,-0.02608632669351036,-0.022109651963394955,0.6599070495301794,0.7505686862839873,-0.03992614769231283,0.2828702000713753,0.03163879494291118,-0.0008568947223540983,-0.003943378302314088,-0.0014489377748057345,0
2025/05/06 15:49:00.410428527,1746539340,386169080,piren,vessel_center,-485.8816000681014,-320.0908587780986,2.381917811861858,0.022071112802652414,0.019932680355818487,0.6615958492656561,0.7492706363310528,-0.0699727119185353,0.3083241783780528,0.04313763537727,-0.00046048614108542413,-0.0010903948261533343,0.0005660513888533884,0
2025/05/06 15:49:01.466634814,1746539341,459586469,piren,vessel_center,-485.80640975457254,-319.7526622395066,2.3669821605221135,-0.022649518886598632,-0.019197023562073964,0.6645512967478313,0.7466525614844824,0.2415579261422864,0.27607429655881843,-0.08601381645423756,0.0011585682346377279,0.0025226801383066593,0.0029488411521768156,0
2025/05/06 15:49:02.372658431,1746539342,354789140,piren,vessel_center,-485.67491394944335,-319.5094408248467,2.3259834124172376,0.0007023055959423301,0.0012803802160033391,0.666197103322198,0.7457742868445286,0.07513507988833237,0.29243281093731693,-0.01380905738193497,-0.00014742791040837184,0.0018741879272896056,0.002907316262496594,0
2025/05/06 15:49:03.268090998,1746539343,232920054,piren,vessel_center,-485.61795804375555,-319.25274000034756,2.3185615250558387,-0.0021864204835971967,-0.0013555490480750014,0.6670430189535235,0.7450147602011765,0.05250725641676593,0.28222466439842775,-0.0028785327745931184,0.0005611254774424427,-0.003064313602303223,0.002514057996731847,0
2025/05/06 15:49:04.171238499,1746539344,134666636,piren,vessel_center,-485.59146897849405,-319.003114567972,2.322775185213619,-9.520009499917409e-05,0.00046483175039247523,0.667219291070353,0.7448611900830661,0.005723000451507809,0.26922874048086726,0.012284379400933224,-0.0013281264356372518,0.001417357823200426,0.001669426366361722,0
2025/05/06 15:49:05.109958079,1746539345,100451229,piren,vessel_center,-485.58590015423306,-318.7554715281662,2.3326537031209287,-9.97317439547145e-05,-0.0007088428014744689,0.6672126910238246,0.7448669092745418,0.006053438918343213,0.2528957262999944,0.008378758844868776,-0.00042975944939102146,0.006724864350621514,0.0012306808320909884,0
2025/05/06 15:49:06.34185606,1746539346,17099982,piren,vessel_center,-485.5712396472052,-318.52301488423274,2.3371678932061832,-0.005031891992974727,-0.0049664364845123585,0.667020975826048,0.7450053908393436,0.025892845175440136,0.23657874350251462,0.000749462237498626,-1.6509626298803455e-05,-0.00446107084881464,0.0006077233584113418,0
2025/05/06 15:49:06.906418479,1746539346,895069313,piren,vessel_center,-485.5529074413974,-318.3230420309729,2.3398667527245482,-0.023906187536574242,-0.02043662781406034,0.6652068251233277,0.7459964599449505,0.01750407234071657,0.23221106214928172,0.005332552144780116,6.767210706994468e-05,-0.0037006996039701443,-0.0018718222529777331,0
2025/05/06 15:49:07.786813508,1746539347,778204001,piren,vessel_center,-485.57305305533345,-318.1105413281933,2.3597969318168457,0.0007449345627731053,0.001602887029223554,0.6626780655084084,0.7489023015852618,-0.06238816554855462,0.2386086082521621,0.03892874361226483,0.0001778446722029553,0.005659118905041524,-0.003988928908740228,0
2025/05/06 15:49:08.678637969,1746539348,665604890,piren,vessel_center,-485.5618527550109,-317.91899839736254,2.3690626010027347,-0.022894633842382186,-0.01966582948020834,0.6589056834879516,0.7516198448413626,0.08021830057523416,0.21526896607965743,-0.013848342022352814,0.0023380465257040036,-0.0012221621157362892,-0.006396967827987953,0
2025/05/06 15:49:09.555587018,1746539349,530752322,piren,vessel_center,-485.51939553035373,-317.7259861388137,2.366606715555012,0.014516783919638562,0.012676979523639649,0.655428270005891,0.7550114833907314,0.013019618941371075,0.21104732768712953,0.008606289932459682,-0.0025009846526905873,-0.00043277557127567514,-0.006935575144221437,0
2025/05/06 15:49:10.510038970,1746539350,501528670,piren,vessel_center,-485.4352967247126,-317.54110364200335,2.344571229249466,0.0007710528812159015,-0.0005006706356975013,0.6518116872245392,0.7583802998521709,0.17289430352138893,0.17737077640322302,-0.05865621159196073,0.0005694514474437037,0.005102268503295285,-0.008448752343322938,0
2025/05/06 15:49:11.380929636,1746539351,374183065,piren,vessel_center,-485.3043315903324,-317.3826049586617,2.30534991135668,-0.0014427905668826793,-0.002434633293357845,0.6471331132559206,0.7623717758704128,0.1180668798284843,0.17478266749990387,-0.02847586541007117,0.0004594077508032089,-0.00316773911643063,-0.010979440712641727,0
2025/05/06 15:49:12.353360376,1746539352,338718354,piren,vessel_center,-485.23301325799383,-317.21505538117907,2.298775529357146,0.012349134170635266,0.010999157853147132,0.6394005100381097,0.7686959770772595,0.027458935760796666,0.17852204736036645,0.01701863976879189,-0.002945266019473295,-0.00386789376541261,-0.013799622500223771,0
2025/05/06 15:49:13.227833747,1746539353,215528046,piren,vessel_center,-485.1931221787505,-317.06212959195483,2.307697916973489,0.013354282069992892,0.011297689637881738,0.6351853346263171,0.7721616514920272,0.06158956886465617,0.163671286537238,0.0030202486246258126,-0.0010298093836683113,0.0011374698087503032,-0.013717460641438865,0
2025/05/06 15:49:14.129328746,1746539354,117371456,piren,vessel_center,-485.1265809688495,-316.919586591836,2.304683533827914,0.013310635661751436,0.010754593155084344,0.6306605689266149,0.775870100278073,0.08623755572107271,0.15289234404745064,-0.009736761059429206,-0.0008125134190028167,-4.300677159413098e-05,-0.013918048413450169,0
2025/05/06 15:49:15.112431008,1746539355,103255812,piren,vessel_center,-485.04566114197394,-316.777683822763,2.295367838660894,-0.0035213735603394354,-0.0026800059113913826,0.6249302901989289,0.7806680151565363,0.0837665599206504,0.14504039468956823,-0.009856382463815046,-0.0010475655184042727,-0.001283662596921027,-0.013960048336449291,0
2025/05/06 15:49:15.985997434,1746539355,975846779,piren,vessel_center,-485.00998471954136,-316.6433249361627,2.3051753959178436,-0.020169278072241243,-0.015712757912672633,0.6206797048589726,0.7836472506408743,-0.006061680790707971,0.15082906575885377,0.031840853855149266,0.0028981556995050493,0.00147796769623248,-0.013596036969184122,0
2025/05/06 15:49:16.883071635,1746539356,839632809,piren,vessel_center,-485.0513828891882,-316.51135775659196,2.348181904673398,0.0194806141523526,0.015769605421822125,0.6161544257411109,0.7872264914601954,-0.0866995822382249,0.16064415791770503,0.067587999832636,-0.0014321333932005686,-0.0009987423759317655,-0.0142304517969857,0
2025/05/06 15:49:17.718794710,1746539357,710893762,piren,vessel_center,-485.01778142340095,-316.40308852026305,2.3597843674166574,-0.02323475041402076,-0.017608155839515194,0.6119327380387265,0.7903723320926391,0.1519108608260923,0.09785995472698293,-0.03434687973255442,0.0010747091017899507,0.0005754196079348494,-0.013720273408604884,0
2025/05/06 15:49:18.569447860,1746539358,554914985,piren,vessel_center,-484.9309849742691,-316.309552501824,2.3493012900163595,-0.023208409017997235,-0.017708726818880947,0.6059763494607673,0.794946812459494,0.056259195925167774,0.11987453374408748,0.007601009489767711,0.0010602618583685451,0.0008469380959194381,-0.015458854623380284,0
2025/05/06 15:49:19.530511630,1746539359,520919845,piren,vessel_center,-484.8954552202054,-316.1884133957308,2.3662488548725773,0.018146395888847408,0.013075595454894296,0.5979283613089584,0.8012374254003172,0.010744038132270477,0.12387537255981503,0.028450341158139884,-0.00036914248962647243,-0.0004103524866836525,-0.014936306638066514,0
2025/05/06 15:49:20.408497611,1746539360,382326100,piren,vessel_center,-484.796276736182,-316.11674982026466,2.352160202026913,0.005452251332639448,0.003450030596084483,0.5955416402764261,0.8032985279092424,0.21147922234736152,0.05002976970804472,-0.05657579620844991,0.0006266687969382327,-0.0015480859924885046,-0.014878439806655324,0
2025/05/06 15:49:21.239010917,1746539361,230522640,piren,vessel_center,-484.6194741345237,-316.0736720236266,2.308644847292174,0.01939929776103676,0.014101957898331066,0.5885682547263708,0.8080917098684817,0.2026453786246294,0.05072164484659031,-0.045802697468666616,-0.0020815807456576545,0.0003270779319141695,-0.016590867010249952,0
2025/05/06 15:49:22.184976892,1746539362,177879425,piren,vessel_center,-484.4377970461459,-316.02333534960616,2.270636156051207,-0.023086991833255726,-0.01608734264222855,0.580966249876918,0.8134410886590087,0.1777511994280304,0.055300803375712956,-0.033386171815353756,0.0007338780328362055,0.0005047949005574944,-0.01634566547446948,0
2025/05/06 15:49:23.48338693,1746539363,33263671,piren,vessel_center,-484.40216251156096,-315.9418593683332,2.292224850364976,0.012150972276271245,0.009598903946597006,0.5756699832127198,0.817535494852445,-0.07737992037391442,0.13292924983347865,0.07761605284164771,-0.0013201586052278744,2.0819891637935487e-05,-0.017675498400032706,0
2025/05/06 15:49:23.906254292,1746539363,869239008,piren,vessel_center,-484.4204299256279,-315.8470262010528,2.336874189207003,-0.004452539718820064,-0.001992216772641669,0.5709050877058095,0.8210015753906963,0.028556305136635346,0.09210634221008213,0.029924804274844653,-0.0008924088759497425,0.00020612113639035054,-0.01582488717578103,0
2025/05/06 15:49:24.780221016,1746539364,773624686,piren,vessel_center,-484.3771479279785,-315.7693028297433,2.3550019898649213,-0.02517003607231313,-0.01618003094988866,0.5647834557475704,0.8246965041737544,0.06755619371328983,0.08021238673127364,0.01020913281276932,0.001100397343553605,0.0005702097859168593,-0.016126376016211957,0
2025/05/06 15:49:25.684995172,1746539365,679224607,piren,vessel_center,-484.34156499072134,-315.6880357558736,2.371341002926485,0.0025091186940511996,-0.0009935682463539733,0.5597966845773997,0.8286256024777838,0.012049720597451671,0.10103242572377048,0.026185569844651858,0.0005729887837934919,0.0016993582818738478,-0.015409438948370947,0
2025/05/06 15:49:26.633675449,1746539366,625009056,piren,vessel_center,-484.27485784669676,-315.6205905808924,2.371413434950269,0.02100455335901963,0.014473420624236576,0.5539593475661073,0.8321528525924518,0.1346895341036089,0.036104157240743645,-0.02933314185346014,-0.0013637213058461826,-0.0009380890798551936,-0.01533409959063388,0
2025/05/06 15:49:27.527746938,1746539367,514426901,piren,vessel_center,-484.0992558099641,-315.6088729607295,2.3207583177749265,-0.02321427872725473,-0.015179991560456131,0.5486416468877996,0.8355973961302422,0.2577125641284966,-0.009494336226998072,-0.0837119103867414,0.0014746380707835764,-0.00042890175208619994,-0.016566099385445142,0
2025/05/06 15:49:28.452737083,1746539368,421510808,piren,vessel_center,-483.9705568087202,-315.5735900815707,2.2939359824446126,0.021321490388575077,0.013814174872426378,0.5421490246436651,0.839898206747774,0.02724188042407158,0.08798386729249677,0.02446235529202681,-0.0016293581524781128,0.00102543988645375,-0.017161695132442426,0
2025/05/06 15:49:29.361647143,1746539369,338379206,piren,vessel_center,-483.9119021123734,-315.5140421030264,2.302093919775457,-0.00010299046901964921,0.00013850053131066105,0.5342147196186658,0.8453488058507663,0.1034769896806666,0.044644557472839276,-0.0063092716088937115,0.0006319229004566594,-0.00039362803999381325,-0.017994585991030182,0
2025/05/06 15:49:30.318620588,1746539370,266417492,piren,vessel_center,-483.84050830055435,-315.46895574369165,2.3085002485182335,-6.690747667070904e-05,0.0003388221370653905,0.5275721966032441,0.8495101283058237,0.05442910747915456,0.055230524312992836,0.020595147616808657,0.00013228258334800633,-0.0005725530960104971,-0.01683135740320006,0
2025/05/06 15:49:31.214114390,1746539371,199155533,piren,vessel_center,-483.79015767881697,-315.41698338424857,2.3287329730946604,0.022197691847778887,0.013491911519775168,0.5209050799567441,0.8532192733848853,0.050885251823683655,0.05359124366827991,0.021878735426703738,-6.334224723234578e-05,-0.0005724055199287534,-0.01683997624190243,0
2025/05/06 15:49:32.121402716,1746539372,113632526,piren,vessel_center,-483.68843224278055,-315.39233801053183,2.3231202536229554,-0.003680755709412895,-0.002172365174503382,0.5144695323225842,0.8574980076820807,0.17042292256646768,-0.004324000787345815,-0.03669182783523674,-0.0008955874922353854,0.0006497008523441615,-0.01813051629590353,0
2025/05/06 15:49:33.44226438,1746539373,33954037,piren,vessel_center,-483.56472875230594,-315.3792188680403,2.307493051308001,-0.028523366772300357,-0.015585749379417486,0.5049005182894527,0.8625653416381258,0.1054805910230244,0.033459264672547485,0.0017527815469820449,-3.018923382988445e-05,-3.514679243475755e-05,-0.020333435371386245,0
2025/05/06 15:49:34.31551423,1746539374,21371882,piren,vessel_center,-483.5218358157419,-315.311559141652,2.3377341604954593,-0.025134420843616875,-0.013451015438912414,0.49722873898545406,0.8671510319427944,-0.03521466707156823,0.10900708997505779,0.06506508358063043,0.0016530792781197891,-0.0019507332918584333,-0.017729040972631276,0
2025/05/06 15:49:34.896228045,1746539374,879674230,piren,vessel_center,-483.546481578024,-315.22513022237916,2.3886437750094456,-0.02663274904701591,-0.014435758120814714,0.49313532857891024,0.8694250130247267,-0.023934716996109176,0.09677096933346609,0.056242800395728085,0.0006261138109501666,8.179547290366647e-05,-0.01889676414148088,0
2025/05/06 15:49:35.761661592,1746539375,720387943,piren,vessel_center,-483.5279166169773,-315.1644867287479,2.418022946619878,0.002723478040029117,0.0017143896221983555,0.48788272904739505,0.8729032513588519,0.06282634854164834,0.04766007648222574,0.014658307142665937,-0.00026513186431178056,0.001038972798969139,-0.017558351114334958,0
2025/05/06 15:49:36.625914520,1746539376,617044117,piren,vessel_center,-483.3866475018888,-315.17263513832114,2.3926006822786676,0.023752547064138645,0.01370222863602853,0.48073577577386345,0.8764366373728757,0.25175317333628305,-0.06600862617037756,-0.07137194076148945,-0.0007937558936581121,-0.0015124058593567402,-0.018197865670281137,0
2025/05/06 15:49:37.494540663,1746539377,487422117,piren,vessel_center,-483.13203304006737,-315.25677143758867,2.310560037836747,-0.00016633662372906222,0.0010544213414118494,0.47448238699391015,0.8802643494770895,0.3394501388795107,-0.12766772575159785,-0.1181672792396617,0.00010765601050015134,-0.0014035013969964994,-0.018169920536405034,0
2025/05/06 15:49:38.418719116,1746539378,365760706,piren,vessel_center,-482.91990874113947,-315.31668676687264,2.2496336438431532,0.024044300405617645,0.014310828454009899,0.4671762468702386,0.883721350973938,0.13583592894192414,-0.0069356775344197735,-0.018576648547066768,-0.00046498928257742675,0.0004634705016293008,-0.017548471851049043,0
2025/05/06 15:49:39.468982873,1746539379,459048350,piren,vessel_center,-482.8170637383433,-315.3028121322844,2.2451385992143127,0.0031032593033366697,0.0023818535324023893,0.4563102474013168,0.8898121457206546,0.046963494756619276,0.040113116530165534,0.014848267719722724,-0.000711962946118118,0.0015972120232039576,-0.017808771200746,0
2025/05/06 15:49:40.392860705,1746539380,384774502,piren,vessel_center,-482.82253448854993,-315.23840100516384,2.281960512443139,-0.0029377539763873195,-0.0016875142893336926,0.451869214337006,0.8920777628836818,-0.06409706286608516,0.09880194980255572,0.06542142454781277,-0.000710479771184016,-0.0005233701193439812,-0.01658898339579701,0
2025/05/06 15:49:41.271359103,1746539381,255372145,piren,vessel_center,-482.87259839012154,-315.15531668363434,2.337151380207665,-0.02679897539313381,-0.01315151056854074,0.44580044265193647,0.8946344605586023,-0.05443411469636876,0.09705107898339582,0.06465510973547076,0.0011059856971729518,-0.001275882057898937,-0.018000827901668615,0
2025/05/06 15:49:42.190640358,1746539382,158060061,piren,vessel_center,-482.90835710629693,-315.06239394293385,2.3939186167250446,-0.0030946556477713092,-0.0014116270065929473,0.43696721405084,0.8994710024565903,-0.022309341414756913,0.0987357077045096,0.05539235771716427,-0.0010293768659767964,-0.00025344478051102226,-0.017833038053152107,0
2025/05/06 15:49:43.75832873,1746539383,25986791,piren,vessel_center,-482.84685865434085,-315.0342034204929,2.4035317689016513,-0.026911284186002245,-0.012861182786358715,0.43057254340946,0.9020630009166238,0.15671096373666848,-0.025861814648850942,-0.028296081168799107,0.0013676570541821082,-0.00038097583756082146,-0.018453400520095576,0
2025/05/06 15:49:43.972840821,1746539383,961875546,piren,vessel_center,-482.7069315536231,-315.0551690302388,2.380178648049735,-0.027329504444611526,-0.012076951423469042,0.422240621152192,0.9059912269333176,0.15384723827646674,-0.020662718220773334,-0.023528080427220602,0.000747533458242494,0.0012944763894842295,-0.018068253382118985,0
2025/05/06 15:49:44.873072086,1746539384,858419705,piren,vessel_center,-482.5874737710369,-315.06343554925,2.3680214701951017,0.002002565427027801,0.002337943385673829,0.4150249077531672,0.9098048415440044,0.11152725499696323,0.0023077549434226026,-0.003471886384924832,0.0009317020429255717,-0.0020550151891669355,-0.018083932307992136,0
2025/05/06 15:49:45.743519882,1746539385,736785785,piren,vessel_center,-482.4651689244482,-315.0858412673187,2.3503801399901922,-0.0231399585559955,-0.009582194661644674,0.4081828058683608,0.912556585016472,0.16091187339684443,-0.0521469427794721,-0.035785809653518394,0.002832345374152428,0.0007241526341584862,-0.017207206195287067,0
2025/05/06 15:49:46.697553583,1746539386,688683136,piren,vessel_center,-482.35820356119234,-315.0993180846134,2.3377764371385386,-0.0017731496443063343,-0.0001662126234648711,0.40135660463201245,0.9159201407502541,0.058809284388644356,0.02812815221959744,0.01183051786989623,-0.0007032902373858551,0.002094720941074821,-0.01676565124875195,0
2025/05/06 15:49:47.590511915,1746539387,583462619,piren,vessel_center,-482.29660382982604,-315.0841350288275,2.3430101664167826,-0.026084473766524972,-0.011357112038232173,0.3947694476726859,0.9183396427350161,0.07745261563018181,0.0053056959799966455,-0.00032936461532798514,0.0015483262238907517,0.00037059486248175585,-0.01766687720481049,0
2025/05/06 15:49:48.553246086,1746539388,538642960,piren,vessel_center,-482.2473709963863,-315.0558001172271,2.3567300366510104,0.00045757393618097776,0.0007428408915649939,0.3854310025340695,0.9227362467677775,0.02310046449442786,0.057060126835677405,0.03085886066615139,0.0008427335434902989,-0.004111188096174598,-0.01779351862357784,0
2025/05/06 15:49:49.482964576,1746539389,474047498,piren,vessel_center,-482.18410110380745,-315.04030998650626,2.365388641156313,-0.025344752216651494,-0.01018872434771394,0.3781408300086294,0.9253449876190112,0.1149162625035388,-0.029089225350434664,-0.015106490336302719,0.0012059143132103726,0.0007827350643351547,-0.01774821358937309,0
2025/05/06 15:49:50.435528034,1746539390,404300407,piren,vessel_center,-482.09591015054554,-315.0506689923051,2.3618491828350496,-7.384303291522658e-05,0.00015161066114411035,0.3713526930430148,0.9284918679940682,0.08070439760322193,0.006165346643366043,0.0072917509913798355,0.0003627062996619731,0.00019769066605956968,-0.018639785101605737,0
2025/05/06 15:49:51.267129108,1746539391,251961592,piren,vessel_center,-482.00079126748363,-315.0731816165287,2.3543554613324438,-0.0023625327279670665,-0.00033496070004225857,0.36351277035595914,0.9315861592083551,0.13996202644675582,-0.05550784849765414,-0.02311809280762758,-0.00024024923798052173,-0.001976655541075472,-0.019238552126464536,0
2025/05/06 15:49:52.134175918,1746539392,125354637,piren,vessel_center,-481.87601481388367,-315.12350842023363,2.3339680381676375,0.022862457416431645,0.008343095808267989,0.35668215917504476,0.9339087418583488,0.13886976573840007,-0.056945504270924444,-0.022443181649494395,-0.0022496305356001487,0.0007524946834198443,-0.018343178384280415,0
2025/05/06 15:49:53.13496590,1746539392,999178667,piren,vessel_center,-481.74293613535474,-315.1932150570261,2.3023426221207655,-0.031919999639518234,-0.011158635400822408,0.34859159608674034,0.9366645598167487,0.17081208505173895,-0.1040315260584969,-0.05032583660373417,0.00019225230899501657,0.0005473836880210604,-0.020424896341871702,0
2025/05/06 15:49:53.978075640,1746539393,969944155,piren,vessel_center,-481.66223765829847,-315.199927047017,2.3036681899833322,0.023676058621890542,0.00921352887341382,0.3377135237700491,0.94090601602745,-0.0082869934600239,0.0994195366931769,0.058263342812943875,-0.001797580554323735,-5.358127726756697e-05,-0.01889792231681216,0
2025/05/06 15:49:54.855743100,1746539394,817487718,piren,vessel_center,-481.6282737735352,-315.1707631909204,2.3259283303492353,0.0010426171572290002,0.0012558238016819163,0.3339378176282738,0.9425936928569533,0.08306119940789362,-0.023558084202931512,-0.0022877105731927624,0.0007075608125208543,4.770339411789498e-05,-0.018327520335503653,0
2025/05/06 15:49:55.717510346,1746539395,704402315,piren,vessel_center,-481.5489168951634,-315.1917449499306,2.3250902671640947,-0.004657315913906543,-0.0009648319322963151,0.3252976483721529,0.9455997136586748,0.09363979423433197,-0.023167359844273323,0.0004161980934815745,-0.0008746097737249074,-0.00035404147548749387,-0.018833712284612548,0
2025/05/06 15:49:56.596100157,1746539396,586269620,piren,vessel_center,-481.47135026234474,-315.20356432457646,2.3303704191127386,0.0008896418833330868,0.0007700307908323001,0.31768195211522005,0.9481966003367465,0.0786194222448103,-0.003066563571928145,0.011319571430333204,0.0005193082038067354,0.001341836223770882,-0.018387232867276924,0
2025/05/06 15:49:57.509726784,1746539397,502334447,piren,vessel_center,-481.3958756760329,-315.2148526965642,2.336010520365685,0.004873823451769424,0.002014215183958919,0.30995715874845337,0.9507358984085643,0.08864299688243595,-0.022004188945447183,0.0011457998501073728,0.0016928782332586774,0.0001094399978132893,-0.018710006912970138,0
2025/05/06 15:49:58.535779975,1746539398,524338794,piren,vessel_center,-481.29582355203576,-315.24958573835164,2.330890248360052,-0.0058120826748127765,-0.0014558609811213827,0.2970603316960944,0.9548399130201832,0.1045688146950852,-0.047996048698268436,-0.01293036049837736,-0.0015399171072107436,-0.0005072977701993783,-0.019010686139172298,0
2025/05/06 15:49:59.432742392,1746539399,405540861,piren,vessel_center,-481.22160098339646,-315.27910984648065,2.3276633227694448,-0.030843726748346973,-0.008680077183010464,0.29396071717597394,0.9552802821882997,0.07169023636138266,-0.02280688372861668,0.004362228289925859,0.00033652975870046374,0.0007983326175866306,-0.018275480986856843,0
2025/05/06 15:50:00.284331621,1746539400,268153235,piren,vessel_center,-481.182506867377,-315.2599825490722,2.3491717063452247,-0.012638442037649507,-0.0034335132752641813,0.28492303263137897,0.9584609257792348,0.01584225762817372,0.07452052574713043,0.04918158182014112,0.001122113046004528,0.0012275647616331663,-0.019944389076452507,0
2025/05/06 15:50:01.199006916,1746539401,189547421,piren,vessel_center,-481.1425564423995,-315.2240667265624,2.381016194018288,-0.030204569658478973,-0.007854682159097843,0.2753721182657075,0.9608309863975989,0.0712576673160584,-0.0026888106775452697,0.016321064743822132,0.00031961035086708995,-0.0019494313384564148,-0.018624837075179045,0
2025/05/06 15:50:02.92729294,1746539402,53299783,piren,vessel_center,-481.07777651162434,-315.2313411237864,2.3918206684714036,-0.004819137167658152,5.965358739315084e-05,0.2687110880627609,0.9632087642409283,0.08015790835011107,-0.013798126023811426,0.009364087920735441,0.0011413002729127627,-0.0016964714136379379,-0.019556396912530374,0
2025/05/06 15:50:03.14699324,1746539403,328814,piren,vessel_center,-480.97161983720196,-315.2906305485392,2.378487418188509,-0.009362765160937743,-0.0018910581605039048,0.2591729523987474,0.9657836938323672,0.1463628003439226,-0.11635861917352419,-0.04010072264113822,-0.0010519959881187242,0.0020801137210783873,-0.01872626120566794,0
2025/05/06 15:50:03.899865631,1746539403,886707059,piren,vessel_center,-480.8489850192546,-315.39062097170944,2.3446891048710965,-0.02907090795580044,-0.007262689115415454,0.2525141750850767,0.9671291160122011,0.12888870073234104,-0.108013375269956,-0.035754599254718245,0.0008407497805652362,-0.00041676110843568424,-0.019023401954804807,0
2025/05/06 15:50:04.782307720,1746539404,774117035,piren,vessel_center,-480.7695116106822,-315.43028355313777,2.3382600908199174,0.026935833887254696,0.007486474579117183,0.24423458629441977,0.9693130972027398,0.046959406960877484,0.020527295353850367,0.021688165219507886,-0.0005369353993888227,-0.0010867737410947705,-0.019004228024757448,0
2025/05/06 15:50:05.681320616,1746539405,673170560,piren,vessel_center,-480.69284786308776,-315.478029679538,2.3268253899708657,-0.029199163100292427,-0.006432939176265841,0.23604545584003864,0.9712819204253035,0.12378106605674477,-0.12656176438181252,-0.046980360503370934,0.0005662767203267703,0.0012941104399200396,-0.01945852527083876,0
2025/05/06 15:50:06.614912964,1746539406,606566734,piren,vessel_center,-480.6183752801603,-315.51967438603424,2.3202460288594735,0.02724395846022062,0.006858737147625153,0.22756977959204963,0.9733564197500234,0.04049288025303216,0.03528001215095239,0.032831620085307524,-0.0006841720353913867,-0.0005145306431226233,-0.01938479851741357,0
2025/05/06 15:50:07.526235654,1746539407,474883718,piren,vessel_center,-480.55039468376265,-315.550920284406,2.3217272866203365,-0.0017666258047546032,-7.502658273428396e-05,0.2206559438631244,0.9753501052658741,0.11073913443069616,-0.10525360608898998,-0.029810773814876713,-0.00040994895491654594,-0.0016554664822769623,-0.01813962842972611,0
2025/05/06 15:50:08.494387035,1746539408,431864143,piren,vessel_center,-480.46201417403597,-315.62282671490425,2.3078755001001476,0.026857892721074014,0.005913601739109584,0.21757540507239,0.9756559977884828,0.07445896046028795,-0.04386478483584077,0.0020658906954187095,-0.0005796113245493261,0.0011480340141028765,-0.01150154847115635,0
2025/05/06 15:50:09.324806629,1746539409,313839036,piren,vessel_center,-480.3875931466414,-315.6939310313511,2.2950023260907635,-0.007785849876228089,-0.002222995511482504,0.22097254328177407,0.9752464170394297,0.08906985975559112,-0.10688637559246605,-0.02734466943456957,-0.0006631317484480639,0.002317500145481541,-0.007075857368731582,0
2025/05/06 15:50:10.189015482,1746539410,180815863,piren,vessel_center,-480.340117285642,-315.7327585577041,2.298305872301474,0.028134537878519692,0.005325668069289231,0.22117222325321773,0.9748143067780688,0.026528754266291824,0.008494026194558246,0.03159343448493438,-0.0005345474823083008,-0.0006827482085017361,-0.005631641399215653,0
2025/05/06 15:50:11.111774939,1746539411,99593508,piren,vessel_center,-480.2976661539736,-315.7743095624057,2.3065125066686605,0.02790915031251555,0.005014802235101896,0.22040580721100986,0.9749960057533772,0.06766511889331925,-0.10089855706100868,-0.013543602082739019,-0.000674963664317366,-0.001069188541112683,-0.004066571645929252,0
2025/05/06 15:50:11.987945449,1746539411,970491015,piren,vessel_center,-480.22659974304423,-315.8962844271317,2.2859235904090416,0.0037486336419546074,-0.0007337031668701463,0.21970480163561043,0.9755589216258229,0.08990681288669294,-0.16964591991031674,-0.03214525953333463,-1.4158173176077652e-05,0.002094841201864913,-0.0037529362515540564,0
2025/05/06 15:50:12.949592044,1746539412,911929718,piren,vessel_center,-480.1633127629475,-316.01766098235964,2.2808165982732183,0.025827425103717633,0.005054697707228151,0.21798505823064165,0.9755972060905997,0.05095696706753189,-0.10050735353579449,0.02072510017615003,-0.0013127460667544093,-0.0010992743847860738,-0.004032171566985796,0
2025/05/06 15:50:13.785849757,1746539413,766919627,piren,vessel_center,-480.103763447543,-316.1345599660185,2.290805911799879,-0.0009343449723503332,0.00013956986053227446,0.2147377503830322,0.9766712886535374,0.08166210063632207,-0.15983431511776808,0.0015791276423628708,9.261974043934623e-05,0.00025511629509745895,-0.005766450019787027,0
2025/05/06 15:50:14.647932252,1746539414,638145078,piren,vessel_center,-480.0456716370959,-316.24299229712483,2.306368831744053,-0.0008240495788393458,-0.00011198790300170223,0.21063872201526693,0.9775636230899635,0.05669669412059193,-0.09924378056693905,0.03323480311511397,-5.7133630851739706e-05,0.0014388719400166689,-0.007036724247153642,0
2025/05/06 15:50:15.577169993,1746539415,564804086,piren,vessel_center,-479.99337652496916,-316.3389501100508,2.335630273977782,-0.0006140138832218215,-0.0006118295830481418,0.20638223280747475,0.9784710637688342,0.0533969574733419,-0.103294456883122,0.028202209629119825,-1.3316014526309322e-05,0.0001658963283531296,-0.007052058589441366,0
2025/05/06 15:50:16.493467134,1746539416,480729814,piren,vessel_center,-479.9393859741529,-316.45211821817577,2.3503501620816487,-0.0005859050137202597,-0.000567806299023275,0.20291186401973887,0.979196665512785,0.06663393876970077,-0.14829317403291437,0.004532016445250312,3.629703244143722e-05,-0.0022102960906787814,-0.007989333145353088,0
2025/05/06 15:50:17.447638338,1746539417,439574875,piren,vessel_center,-479.86560692681235,-316.61423931846275,2.3462637416539396,-0.0006151749705576814,-0.00048260288059076887,0.1968035274909071,0.980442634844768,0.08991751070338978,-0.19550192196661495,-0.014120611204010054,1.3336158208556296e-05,0.0008424350535758745,-0.009426882853287813,0
2025/05/06 15:50:18.335772197,1746539418,321290972,piren,vessel_center,-479.7784549164398,-316.8026578825184,2.332734473549991,-0.0006687391932229788,-0.0005224592870817817,0.19240722768318802,0.9813148009479193,0.10308366039089378,-0.22174895813236556,-0.015839162249560196,-0.00025398469965511185,-0.0013732694151209624,-0.010376943636334793,0
2025/05/06 15:50:19.268842308,1746539419,213973852,piren,vessel_center,-479.68559238477206,-316.9999905893689,2.323321879758103,-0.0006824781540513653,-0.00024107562328982277,0.18612164419114338,0.9825264422241767,0.10245470092399955,-0.21553573126307068,-0.0060260002481188416,0.0003206847006970545,-0.0030738294006903413,-0.01246685096266998,0
2025/05/06 15:50:20.105880117,1746539420,94471280,piren,vessel_center,-479.60115460850085,-317.1773172497728,2.3229680952311633,-0.00066075653054847,-0.00022197721003113175,0.1795121254761008,0.9837555138010553,0.09772821723822744,-0.20491117512433388,0.004504152557941912,-9.732902108498765e-05,0.0030481177792616894,-0.013911811094395848,0
2025/05/06 15:50:21.32604187,1746539421,14807090,piren,vessel_center,-479.50870699061653,-317.37350881822096,2.328726788899155,-0.0005267689070001043,-0.0003891458561097247,0.17188250952593717,0.985117238707702,0.09642118708029557,-0.20739957357400213,0.007773385461609342,-4.214084971196461e-05,0.0011395632915953845,-0.01398325500823098,0
2025/05/06 15:50:21.971420534,1746539421,958031122,piren,vessel_center,-479.42016568575605,-317.56747713357487,2.334112464401298,0.027752637667546872,0.004525980801563309,0.16445592734498257,0.9859835468005436,0.09864792179882897,-0.22000910462015721,0.0040577323547056265,-0.0008853185810392036,-0.0028957746923382534,-0.015055029523847997,0
2025/05/06 15:50:22.902796000,1746539422,884472851,piren,vessel_center,-479.3076207962483,-317.8265205016798,2.314100916182274,-0.0024498411506069934,-0.00011395329698288944,0.15919871386690454,0.9872435134231606,0.1431248628773119,-0.33714049677946545,-0.04908138503504864,-0.0005571909953314254,-0.0006201856131433368,-0.012677940835664456,0
2025/05/06 15:50:23.809047843,1746539423,757244241,piren,vessel_center,-479.1971363984495,-318.06893204508697,2.2948957972905046,-0.029420490032106127,-0.004538176887468756,0.15631643701249845,0.9872583305480518,0.1190450974538635,-0.24076094085203237,0.0007032754269091918,0.0009791524843734136,0.0017943687487031407,-0.011954529978985213,0
2025/05/06 15:50:24.693011986,1746539424,681391835,piren,vessel_center,-479.10411844635445,-318.2257514453134,2.327357788699228,-0.01583620690599693,-0.002055264319369527,0.15352798363639247,0.9880152573113189,0.07363919182648718,-0.07935473288553055,0.07136464738057505,0.0009083417160022747,-0.00170932167221964,-0.008545745170179952,0
2025/05/06 15:50:25.638888923,1746539425,586156515,piren,vessel_center,-479.02738819085806,-318.32634974823384,2.3805195592753967,0.0018231688753008967,6.053507349599723e-05,0.1539671365248009,0.988074285294942,0.09570579453347822,-0.14294896056412595,0.045631129976055854,0.0006231574605967554,-0.00026820262577539357,-0.006111074774393297,0
2025/05/06 15:50:26.490733009,1746539426,481936947,piren,vessel_center,-478.91605562746116,-318.5362984485887,2.387139482579021,-0.0034055983960854415,-0.0007501129818261002,0.15488672261045933,0.9879260814398362,0.15319881572154376,-0.3258592885426418,-0.030223365273190902,-0.000466719516676794,0.003340150204732935,-0.003332862249838757,0
2025/05/06 15:50:27.418041144,1746539427,404949448,piren,vessel_center,-478.7711674025276,-318.8513422668046,2.3515906698512983,0.0017018278288763059,0.0004621776414296012,0.15722625247217817,0.987561033915081,0.16858204431368906,-0.37384985666585574,-0.0487584937616701,0.00044810456973261797,-0.003202418098308365,-0.00032561643450604874,0
2025/05/06 15:50:28.302130642,1746539428,291377476,piren,vessel_center,-478.62432091169336,-319.16734267726326,2.31455261925199,0.0009074007807241981,0.000878987188982466,0.16160574349123114,0.98685459297507,0.15818989539070574,-0.329156959438705,-0.03356122658537422,0.0006760196523174989,-0.0025931062932680687,0.003379464222313861,0
2025/05/06 15:50:29.148996752,1746539429,139230368,piren,vessel_center,-478.4997621486676,-319.4082681248465,2.3010111721613993,0.0007201040661788471,0.0012824298476400002,0.1672728791434214,0.9859095398295374,0.13434322720554523,-0.23896730876058367,0.000136535824862144,0.0004390715383149458,0.0012405501681596286,0.0065337777201997654,0
2025/05/06 15:50:30.18147535,1746539430,10343453,piren,vessel_center,-478.39370313790243,-319.5845574970604,2.3108661504141907,0.027935827545257936,0.005281882354119425,0.17203501304024393,0.9846804789099873,0.11591880206633509,-0.17870540939152246,0.02178437052453021,-0.00044635154014036646,-0.0005481241663812706,0.007907482441566756,0
2025/05/06 15:50:30.897823282,1746539430,871728321,piren,vessel_center,-478.2790006382004,-319.7898032597947,2.308940479040098,0.017241591421719438,0.0033512119315395883,0.17759736436802,0.9839464787646578,0.1400712352196479,-0.27909209185713674,-0.025863360564344108,-0.0001619174892998749,-0.0004348883737630153,0.009397939295617549,0
2025/05/06 15:50:31.903026265,1746539431,855417828,piren,vessel_center,-478.15127492345806,-320.05634339995055,2.2878486554190123,-0.02670818100264195,-0.004514594407689989,0.1835871891537302,0.9826301621075432,0.12624657364490308,-0.2783207480505547,-0.017772036673467384,0.001546279813165094,0.001488094710852453,0.009620698328972712,0
2025/05/06 15:50:32.745497418,1746539432,732268969,piren,vessel_center,-478.070661393249,-320.224977249886,2.310672344161278,-0.03225998232501116,-0.00598648362801234,0.18596775615995484,0.9820078661716479,0.05569888220306898,-0.10260202745698677,0.06810173020982348,0.00023759091816602114,0.0008366621562445893,0.00807121491626468,0
2025/05/06 15:50:33.807460487,1746539433,798747096,piren,vessel_center,-478.0157680405702,-320.3317067649025,2.38490037446231,-0.02672622346936125,-0.005353469834510431,0.18798083368048843,0.9817944059265082,0.046884170683097234,-0.09883666494474652,0.07312994063806123,0.0017108596091761092,-0.00017280495236213756,0.005616225766886029,0
2025/05/06 15:50:34.718377932,1746539434,705695770,piren,vessel_center,-477.9528066976826,-320.4816337238669,2.4248669919747265,0.025999454887935716,0.0046099552692095225,0.1864723141504103,0.9821053165080295,0.09364657949845429,-0.23563941006204855,0.016629409770258057,-0.0013898397341222254,0.0005621205046060493,0.003473892539506962,0
2025/05/06 15:50:35.625255696,1746539435,588630512,piren,vessel_center,-477.8180573546754,-320.8301780810324,2.380656179893617,-4.9335310768472704e-05,-5.6862196189672234e-05,0.18463314801439001,0.9828075065784827,0.20511139872733114,-0.5371887040037103,-0.11506022247301556,6.587222469198146e-05,0.0008509917987756637,0.0005997996880215088,0
2025/05/06 15:50:36.469659633,1746539436,459388767,piren,vessel_center,-477.65011545850945,-321.27333894955115,2.296466313582156,0.028348416436832998,0.005996400045470143,0.18128840311284686,0.983003013916444,0.1697500055380715,-0.45196978478570543,-0.07290860989939088,-0.0005282215317953294,-0.0022174123343378697,-0.0019456261397513756,0
2025/05/06 15:50:37.382234369,1746539437,374552560,piren,vessel_center,-477.51215819845595,-321.63988295096067,2.244701785670724,-0.001995400492621964,0.0011675523451093756,0.17782475984199803,0.9840594544973039,0.13594721867275442,-0.36024339177256426,-0.041741012203857696,-0.0003345403515413852,-0.0029688930194085887,-0.0038550465795826614,0
2025/05/06 15:50:38.289865840,1746539438,263220393,piren,vessel_center,-477.43632569571696,-321.84044134652646,2.2537853555155962,-0.006352665401416483,0.0002918534781586582,0.1741753754948636,0.9846941134357756,0.04620748663901399,-0.12158073284622281,0.05776482712280371,-0.0015516205683151158,0.002803837657317042,-0.005393053445622211,0
2025/05/06 15:50:39.380875931,1746539439,311907336,piren,vessel_center,-477.40035514110065,-321.9393255127261,2.324408548550945,-0.0008957576254571035,0.0005488134885482994,0.17024608600049995,0.9854010181766313,0.018027834642953204,-0.05686271611898468,0.07960156955042501,0.0002669972191827831,0.002949452052391427,-0.0050474578502062795,0
2025/05/06 15:50:40.237766523,1746539440,225694070,piren,vessel_center,-477.36576213555117,-322.04817030883754,2.3752887927534316,-0.0008787288169115576,0.0004109705291377439,0.16829101485831877,0.9857368783082266,0.05692029561946587,-0.17894200755499645,0.024904184596124583,-0.00011559751762945851,-0.000664582671294713,-0.005802342503035444,0
2025/05/06 15:50:41.129946286,1746539441,115078015,piren,vessel_center,-477.2937592021825,-322.2628783162483,2.373835372059996,-0.0009069850153403621,0.0008628390818550177,0.16498874903180424,0.9862946545428608,0.10354641241851827,-0.2996277645005643,-0.02794919645222846,7.032562138939037e-05,-0.0014389363890788083,-0.006919279428129723,0
2025/05/06 15:50:42.89436681,1746539442,82153388,piren,vessel_center,-477.18669173609163,-322.5621520600768,2.3415495682745506,-0.0009897833714484967,0.0012001659431812833,0.15920850764912395,0.9872437546131783,0.12238039034414218,-0.33069538806043913,-0.04055876209515878,0.0001248157961938813,0.0030884316928122915,-0.008744875637833648,0
2025/05/06 15:50:43.11396270,1746539443,4308336,piren,vessel_center,-477.0850135855843,-322.83674543174754,2.314692576327106,-0.0009936291986928096,0.000845253949929356,0.15433280772360314,0.9880180578850394,0.10481276429263747,-0.2828664006552112,-0.01949061787628408,-0.00036473731926920766,0.0011483369881816353,-0.009691232528873288,0
2025/05/06 15:50:43.902795231,1746539443,893036461,piren,vessel_center,-477.00536514107193,-323.05889557308683,2.3095664760247194,-0.0008697492374240267,0.000521097916687675,0.1490600152694025,0.9888276310060874,0.07211272924555491,-0.21061119675191498,0.008115677940062023,0.00033212908478201,-0.0024586794072989117,-0.010491197601875862,0
2025/05/06 15:50:44.798374661,1746539444,789296121,piren,vessel_center,-476.9489285514026,-323.23203296767525,2.3221419390326314,-0.0008233969112944524,0.0006507418546881668,0.14319509172349426,0.9896939245336738,0.053353437788928246,-0.1742917575897986,0.019837624076248665,-7.342910393110255e-07,0.0003786736767049581,-0.011580409075620714,0
2025/05/06 15:50:45.775767732,1746539445,715875826,piren,vessel_center,-476.8950380764944,-323.40603558530535,2.33755159501665,-0.0008387354051132094,0.0007603261751599849,0.13574474076264012,0.9907431976967146,0.060349800839731,-0.19260017617339095,0.012142270205107558,-0.00015506513534460637,0.00212217718634629,-0.013521478538771491,0
2025/05/06 15:50:46.670321066,1746539446,658929261,piren,vessel_center,-476.833465788675,-323.59603472547985,2.3423203402139268,-0.0040123437830172255,0.0006877922900218761,0.12661763943209084,0.991943245061822,0.0767570196293946,-0.23050983305752148,-0.0014915664768070432,-0.000605537706717917,-0.0028290996792724567,-0.016016211988000746,0
2025/05/06 15:50:47.513274641,1746539447,501473337,piren,vessel_center,-476.7656749718517,-323.79519959462647,2.339774248414886,-0.033306559191581785,-0.0020095876376786106,0.12094493400912278,0.9920982600578802,0.08105195795801595,-0.23356768413063897,-0.0043115871426677105,-0.00021758400417319537,-0.001860994313577564,-0.014998833347206647,0
2025/05/06 15:50:48.365145060,1746539448,355189256,piren,vessel_center,-476.70643158124943,-323.93893450894905,2.35538595161215,0.02791211757274647,0.0049684676780012375,0.11405703161637534,0.9930695955271206,0.06005525065415899,-0.11299100741230128,0.03857039218394164,-0.000833558028606911,0.0035281575087836342,-0.015773403616744328,0
2025/05/06 15:50:49.339323613,1746539449,289616160,piren,vessel_center,-476.6257098555979,-324.14285544714687,2.348545086284205,0.0015815726158803613,0.0020446495849722594,0.10691356035451849,0.9942649589764573,0.11241072638390509,-0.32717267122693505,-0.058233565992972754,0.0009778088168728887,0.0004908903777315543,-0.014060817828466101,0
2025/05/06 15:50:50.204328081,1746539450,195526291,piren,vessel_center,-476.53211497687863,-324.41080565675105,2.3070640247134877,-0.003780488624606849,0.0017411684617674077,0.10220710041414492,0.9947544344525838,0.09561870789702884,-0.26838929856980887,-0.03396499250638192,-0.0009037962160541357,-0.0008521919957803437,-0.014172463988997725,0
2025/05/06 15:50:51.238481100,1746539451,197076764,piren,vessel_center,-476.4505829948568,-324.6189009559343,2.29621362807296,-0.0037985227521059426,0.001942161764551591,0.09476527985091555,0.9954905027007338,0.06575377665567433,-0.1384319670737563,0.016897934012680485,-0.0007419467793530098,0.0018656623887980148,-0.013412850031764867,0
2025/05/06 15:50:52.75991624,1746539452,65429706,piren,vessel_center,-476.4036952174165,-324.70649569026915,2.320097782487683,-0.030118091397301705,-0.0009483815106878558,0.09141660769388486,0.995356722477342,0.0448205924475133,-0.06959062324913196,0.03788419886102382,0.000867323103590029,0.00021221702128847096,-0.012776191895115276,0
2025/05/06 15:50:52.975427360,1746539452,966915132,piren,vessel_center,-476.3687769417646,-324.73335123368696,2.3662140291407683,-0.003595363758805679,0.001303848944844,0.08639326851386306,0.9962537711310621,0.0280423060237354,0.017273823054620663,0.06060353371425699,-0.0007352370004334083,-0.002106992596304713,-0.011342750574863777,0
2025/05/06 15:50:53.863250681,1746539453,857336716,piren,vessel_center,-476.33208373166985,-324.78582832845535,2.388678298240778,-0.030123306478991866,-0.001557029644424652,0.0823352917208286,0.9961481123822427,0.05647479664653478,-0.13221571632407125,-0.004370889010761145,0.0009736866436729262,0.003324628140013925,-0.011890900298586164,0
2025/05/06 15:50:54.792834849,1746539454,737299152,piren,vessel_center,-476.28024307589993,-324.90420605084796,2.3846732623112405,0.02796808598264664,0.003031076166030485,0.07613817006797101,0.9967003450397937,0.05908178656127351,-0.13167629800604977,-0.004556673555783261,-0.0012167365942876048,0.0003833147793657449,-0.011897382452477664,0
2025/05/06 15:50:55.680625180,1746539455,634917230,piren,vessel_center,-476.21247484172795,-325.1174221025579,2.3413045084426516,-0.030056462262564382,-0.00015446748534806443,0.07049896037763231,0.9970589159130608,0.09099827892005127,-0.3410159619733344,-0.09179623511499299,0.0011016441968507574,-0.006020626960524337,-0.01237842536542285,0
2025/05/06 15:50:56.634757786,1746539456,624051888,piren,vessel_center,-476.1385732362822,-325.337480148437,2.2982020609583667,-0.030214173345646852,4.5530313337764595e-05,0.06345987770296269,0.9975269147135604,0.05366662814985834,-0.07467012816978191,0.015760575590149067,0.0009885435083280341,-0.001545816580531267,-0.01318871399036385,0
2025/05/06 15:50:57.523505383,1746539457,513284125,piren,vessel_center,-476.1031361196731,-325.33660758878744,2.338327874801833,0.026696209324808345,0.0024940889794536143,0.057202428899889406,0.9980024920088134,0.025316170711266798,0.0762990630090376,0.07348540585775588,-0.0014431827429676027,0.005474760792586774,-0.015107859543742833,0
2025/05/06 15:50:58.384019077,1746539458,375312718,piren,vessel_center,-476.0740557336843,-325.3761874937455,2.3552690617553624,-0.004983150338001812,-0.00010988409117807715,0.051729753791092216,0.9986486813243727,0.04216267147926378,-0.15569791566213048,-0.027575581044630787,-0.000976632384895192,-0.002462218297092463,-0.013906825544540665,0
2025/05/06 15:50:59.315962333,1746539459,294130768,piren,vessel_center,-476.0371828458166,-325.51140366164543,2.3337801905146565,-0.030245663690039823,-0.00029680238421302715,0.04623297222379836,0.9984726456020953,0.039942944358381326,-0.14538897807979034,-0.020269358130610222,0.0004560520901592555,-0.0053797378917546075,-0.013199017804825504,0
2025/05/06 15:51:00.254263033,1746539460,215362598,piren,vessel_center,-475.99933397923456,-325.58541450272395,2.342201502472158,-0.008691510725198323,0.0016727751814173792,0.03915286361029374,0.9991940315752591,0.03946694543260496,-0.016546057886807353,0.03505427021315036,0.0005894806325746157,0.0045438494064837685,-0.014525313036083837,0
2025/05/06 15:51:01.223157621,1746539461,207581496,piren,vessel_center,-475.9555759598051,-325.62890824774337,2.3649584675533424,0.001669667970716765,0.0011573277777833164,0.030322424179197657,0.9995381050231048,0.05371483214694313,-0.07841213917631601,0.01190787694991698,0.0004251727656639786,0.0030073193940874515,-0.015762002832266836,0
2025/05/06 15:51:02.176319673,1746539462,127250557,piren,vessel_center,-475.90754154139336,-325.7382036162831,2.358456441155133,-0.025419092258793043,0.0002901510511991319,0.023707051757102356,0.999395698038616,0.04691753758133932,-0.15575459015444673,-0.027802812803433812,9.239662810167965e-05,-0.004195640061744308,-0.013863835172073465,0
2025/05/06 15:51:03.73360793,1746539463,43193210,piren,vessel_center,-475.87220183990985,-325.8295962689551,2.3489247297734517,0.028787922364880772,0.0018389861857056923,0.019143356928418027,0.9994005230843306,0.03153282275875431,-0.04704340154921691,0.006680369647358613,-0.0002880885939104859,0.0027437625475054492,-0.013695606122617145,0
2025/05/06 15:51:04.34429423,1746539463,974802463,piren,vessel_center,-475.83828014560885,-325.9425002137358,2.324737967435862,-0.020779814238887098,0.00024563076830037324,0.012694820116081269,0.9997034462919208,0.04005625296194926,-0.19895549145789979,-0.06161450725344067,0.001161533071184061,0.0013340151639723795,-0.013516749882525407,0
2025/05/06 15:51:04.929178493,1746539464,911860753,piren,vessel_center,-475.8026614735086,-326.04763409977977,2.303186634015585,-0.026871888480579083,0.0002824372157763846,0.007389483437790346,0.9996115332334001,0.035100803380601106,-0.0145558309967323,0.019995495959866855,0.0021680639741185077,-0.0024728560552067153,-0.01345509020382116,0
2025/05/06 15:51:05.927299050,1746539465,881851348,piren,vessel_center,-475.7690520533611,-326.0172422741799,2.34260073341289,-0.03204582818481998,0.0002653698027043899,0.0007319255653477515,0.9994860973319157,0.03582071640921644,0.08372908050146226,0.06547989657463744,0.0003083574705811369,0.0010256191975962525,-0.013579537740291175,0
2025/05/06 15:51:06.788669825,1746539466,776620930,piren,vessel_center,-475.7368658338449,-325.9586149276756,2.3967487059345505,-0.03206841549837291,0.0006629826118374255,-0.004375414185796831,0.9994758791147402,0.03530817330756694,0.04561374777927132,0.05412089450941422,-3.6210651537353265e-05,0.0010196220489194663,-0.013290391907218582,0
2025/05/06 15:51:07.701963919,1746539467,692976318,piren,vessel_center,-475.70380811915953,-325.9694545155236,2.4246572422246513,-0.03204125434257053,0.001811599554378135,-0.010183619720024352,0.9994330242775687,0.0381846712073639,-0.0696785549521787,0.007938667619745272,0.0006759061662311093,-0.004086941223233841,-0.013783911607158772,0
2025/05/06 15:51:08.702348255,1746539468,693694073,piren,vessel_center,-475.6630238768279,-326.0730868792368,2.416442797475492,0.025071929848253283,0.0016618872183806266,-0.01870441531917764,0.9995092702482181,0.043739664269469396,-0.14473850251756581,-0.02801001929442059,-0.0017317708634954363,0.00014207650288016976,-0.013982795769133086,0
2025/05/06 15:51:09.637472734,1746539469,619655693,piren,vessel_center,-475.6270493732447,-326.29724114833374,2.3497374951866528,0.03031126318516226,0.000765585206756506,-0.02302213496208923,0.9992750484752426,0.0317018084349002,-0.338521642800742,-0.11735629863969863,-0.0002837687875473113,0.0014452226294243249,-0.013104164159146418,0
2025/05/06 15:51:10.555032289,1746539470,546467708,piren,vessel_center,-475.6024643462778,-326.57008313012835,2.252564331271102,0.023250787290616484,-0.00023958123108650878,-0.027838909969634392,0.9993419527783786,0.023229954496400793,-0.2709850695359814,-0.09969164961195766,-0.0009512214050152956,0.0008719765854593336,-0.012371302237320315,0
2025/05/06 15:51:11.540547042,1746539471,526034244,piren,vessel_center,-475.579141888788,-326.7279628636575,2.1992968794226573,-0.02933959297055099,0.0013220374736286802,-0.032251985346644536,0.9990481719829333,0.023344066998879538,-0.018526563420891262,0.0038847690300117532,0.000726291325337545,-0.002066029059278318,-0.009570353091389271,0
2025/05/06 15:51:12.433620031,1746539472,420993084,piren,vessel_center,-475.54958972477846,-326.59172742119455,2.2677457062211626,0.025639638102809968,-0.00010603883395957948,-0.03292528186230676,0.9991288823410173,0.042115881600375396,0.3215043658578002,0.1482141950037904,-0.0013563371402818209,-0.00041243279613036856,-0.00905470701052063,0
2025/05/06 15:51:13.350981937,1746539473,321310006,piren,vessel_center,-475.51248815574735,-326.41560263298766,2.3561409713455794,-0.0014708564562545756,0.00019260102820843153,-0.036400090529938714,0.9993361961299818,0.040630608404899286,0.07211816612425587,0.04925268614515564,-3.506130859725246e-06,0.002152841534223763,-0.009103682130271434,0
2025/05/06 15:51:14.320508759,1746539474,291296548,piren,vessel_center,-475.47525898404444,-326.41437054185224,2.377885853016874,-0.032628635480883905,0.0011131239451773007,-0.040013179488166586,0.9986656490382485,0.037116652908389405,-0.07834274222591325,-0.007014361886080296,-0.00019840807452120888,0.00036548870216863917,-0.007653809637253359,0
2025/05/06 15:51:15.228446156,1746539475,213545257,piren,vessel_center,-475.4400598726397,-326.47041861437737,2.3775376793625864,0.02569050913332934,-0.0007677351382267568,-0.04182509702830595,0.9987943079442336,0.037683237142846375,-0.03898327957649549,0.006889046115051782,-0.0011883599202376202,-0.001596064062497863,-0.0070050518407089365,0
2025/05/06 15:51:16.212500380,1746539476,166719351,piren,vessel_center,-475.4129480415591,-326.60012146483865,2.3455460251632845,0.0306463172273326,-0.00013443681575139044,-0.045349332679374625,0.9985009880779687,0.01781823054243436,-0.2446298758746247,-0.07895681244307319,-0.0002599593582223891,0.0005902641620134638,-0.007412878591001807,0
2025/05/06 15:51:17.58924356,1746539477,50288948,piren,vessel_center,-475.40055942750337,-326.81399541402055,2.2742505680246827,0.02572854201796693,-0.00015008162351630634,-0.04731151764214563,0.9985487669110273,0.01188813026756183,-0.26077358588327065,-0.0892146938574362,-0.0014901737573808616,0.0003003213000656943,-0.006563318855955474,0
2025/05/06 15:51:17.970531765,1746539477,956053109,piren,vessel_center,-475.38569263144325,-326.9749098293831,2.223279278671016,-0.02749284319132379,0.0022917083268909483,-0.0489652295158271,0.9984193998238737,0.02092172951465731,-0.09170904613761147,-0.022305503226311044,0.0017360134907225908,-0.0002738981466947101,-0.005047690528348353,0
2025/05/06 15:51:18.967385235,1746539478,908960335,piren,vessel_center,-475.3525756285918,-326.90411561271065,2.266203592820095,-0.032485054788418614,0.00211475524983381,-0.049829161227683896,0.9982270802362418,0.05040247916567754,0.2591269438186832,0.12016671772186895,2.6040228789122404e-05,0.0010396807438931878,-0.004140866147531952,0
2025/05/06 15:51:19.825894113,1746539479,812588181,piren,vessel_center,-475.30640290638667,-326.6576618286986,2.379381486034679,0.03001830917510364,-0.0013624503088316845,-0.05087269767116114,0.9982529806993228,0.05229350069112119,0.28901334160873415,0.1315550957334119,-0.00035322619403033417,0.00042597637205972667,-0.003969804357256951,0
2025/05/06 15:51:20.807657671,1746539480,792382647,piren,vessel_center,-475.2772664020205,-326.5803464400359,2.423522792057183,-0.0005137319106867854,0.001129016629847232,-0.05180067907829703,0.998656673260636,0.0003934523853331845,-0.1838845638495964,-0.0638138530858042,0.00016813746315621404,-0.0033332992345001724,-0.0026463570296523004,0
2025/05/06 15:51:21.778944817,1746539481,767016613,piren,vessel_center,-475.2855593392847,-326.7913533065271,2.3496172168556635,0.02764472446811454,0.0004817016835911307,-0.05198222604510614,0.99826518788745,-0.01890935108494883,-0.24617595874433348,-0.08694108587266904,-0.00023103156768846465,-0.0009350336227166982,-0.0021345751056617472,0
2025/05/06 15:51:22.712581763,1746539482,703422945,piren,vessel_center,-475.311036722729,-327.00000283531705,2.2720247302378147,-0.023467891666961643,0.002076573319006223,-0.052133725663775964,0.9983621690310449,-0.03784895119079007,-0.2192816035830215,-0.08612127263942128,0.00021982938231077576,0.005179718950007365,-0.001722101290538689,0
2025/05/06 15:51:23.612008045,1746539483,596124710,piren,vessel_center,-475.34332366329454,-327.03164899415856,2.258594498439385,0.013061365984826472,0.0002689501713132629,-0.05147232085567746,0.9985889687805218,-0.03347533319197279,0.15148575726698293,0.05726909113378738,0.0005564316897339169,-0.0061261240412977015,-0.00022100426554980983,0
2025/05/06 15:51:24.526978197,1746539484,511625947,piren,vessel_center,-475.3854284709672,-326.89234678414596,2.3076279204987253,0.024879425419917625,-0.00016145442920560953,-0.05070151008413421,0.9984038987295826,-0.06055361632588752,0.16014725170812238,0.05247607914254942,-0.001493573978495175,0.0010467184703034488,-0.00012339740496716416,0
