time,header_stamp_secs,header_stamp_nsecs,header_frame_id,twist_linear_x,twist_linear_y,twist_linear_z,twist_angular_x,twist_angular_y,twist_angular_z
2025/05/06 15:48:35.408554458,1746539315,184850270,piren,0.0009720041262730176,0.0008625751400503049,8.750995324839462e-06,6.249756546281268e-05,-0.0016422187493700501,0.00022513594252199817
2025/05/06 15:48:37.60727235,1746539316,955348043,piren,0.0026277236780264343,-0.004242339222202205,-6.97378607298943e-05,1.5819977569148635e-05,-0.0001400145500874258,0.00015991990254580747
2025/05/06 15:48:39.377126098,1746539319,173207880,piren,0.004000735661910019,-0.0033666199534742964,-8.183191438534856e-05,8.042856609038264e-05,-0.0009365706377925896,0.00036263501579048935
2025/05/06 15:48:44.756031255,1746539324,740016512,piren,0.03857765663597053,-0.08247222772875934,-0.028908762010045407,6.934628804991181e-05,0.00022335161446053234,0.00014588079306176112
2025/05/06 15:48:46.222436582,1746539326,207627525,piren,0.059158099485223326,-0.10538503754423736,-0.04141769630406145,-0.00023750644010771314,-0.00010205886970099254,0.0004575760383481885
2025/05/06 15:48:47.625992767,1746539327,578130114,piren,0.08050201934187233,0.037997892597780344,0.013782993072448438,-0.0006913311799493728,-0.0007129926927918864,0.0001764235731217882
2025/05/06 15:48:48.861402188,1746539328,843970145,piren,0.10588109538114966,0.13155608562582288,0.04969365999192029,-0.0007437341693625602,0.0009501719402460247,-0.0003194549199179472
2025/05/06 15:48:50.94377953,1746539330,77333998,piren,0.14020695786313436,-0.006756099651199788,-0.00663687079583341,-0.0006568269377375878,0.002618199862790869,-0.0013871522833998162
2025/05/06 15:48:51.505958710,1746539331,478217948,piren,0.15886951842530014,-0.11145974703418914,-0.06004658188225256,0.00043342368469105364,0.0021990558108779673,-0.0008620749245414187
2025/05/06 15:48:52.958671512,1746539332,947883192,piren,0.1768540547133416,0.13079139146303517,0.05454013701891752,-0.0004086126205493418,0.0005014068925182854,-0.0013770293691076818
2025/05/06 15:48:54.132484686,1746539334,66289230,piren,0.22136836693050982,-0.026310661148450657,-0.002383835401297245,-0.0005425190668893848,-0.0017205445020114368,-0.0037906480713682917
2025/05/06 15:48:55.72810271,1746539335,54609891,piren,0.2351987165092396,-0.10454223482089683,-0.045064814323348475,6.605694895591666e-05,-0.002437269974356479,-0.004910536911635259
2025/05/06 15:48:56.123932151,1746539336,111083066,piren,0.24027443966198447,0.051605024744686284,0.016621300688859354,0.000411318619058687,0.00042379165607511955,-0.005211546758702282
2025/05/06 15:48:57.165523301,1746539337,160092368,piren,0.24747616506137524,-0.01294422640369386,-0.009831222618419804,7.315972649889309e-05,0.0024218068552840145,-0.004814942755799375
2025/05/06 15:48:58.245265013,1746539338,186209565,piren,0.2566935574135725,-0.034272466657771894,-0.017753231349191392,0.001211502535255878,-7.0266588929845584e-06,-0.0029851986947124526
2025/05/06 15:48:59.189959332,1746539339,178570157,piren,0.2753882006077323,0.07346114812688782,0.03708718626861219,-0.0008568947223540983,-0.003943378302314088,-0.0014489377748057345
2025/05/06 15:49:00.410404782,1746539340,386169080,piren,0.29726227839832814,0.10998709658345165,0.036862059061524864,-0.00046048614108542413,-0.0010903948261533343,0.0005660513888533884
2025/05/06 15:49:01.466613797,1746539341,459586469,piren,0.30235584727553394,-0.20245630551116134,-0.09776508323884023,0.0011585682346377279,0.0025226801383066593,0.0029488411521768156
2025/05/06 15:49:02.372534591,1746539342,354789140,piren,0.2990364687919376,-0.04183872028628157,-0.013402649945403937,-0.00014742791040837184,0.0018741879272896056,0.002907316262496594
2025/05/06 15:49:03.267859209,1746539343,232920054,piren,0.28629247602127905,-0.021100516210889868,-0.002728646440080105,0.0005611254774424427,-0.003064313602303223,0.002514057996731847
2025/05/06 15:49:04.171220607,1746539344,134666636,piren,0.26822305601301855,0.023834759953471694,0.012492792055651281,-0.0013281264356372518,0.001417357823200426,0.001669426366361722
2025/05/06 15:49:05.109850718,1746539345,100451229,piren,0.2520421395335362,0.021705034749748033,0.008169912434657412,-0.00042975944939102146,0.006724864350621514,0.0012306808320909884
2025/05/06 15:49:06.32790651,1746539346,17099982,piren,0.23799172242129896,0.0003075896715014452,0.0005902962736991657,-1.6509626298803455e-05,-0.00446107084881464,0.0006077233584113418
2025/05/06 15:49:06.906391185,1746539346,895069313,piren,0.23268397010690597,0.008748202120935009,0.006200408077147592,6.767210706994468e-05,-0.0037006996039701443,-0.0018718222529777331
2025/05/06 15:49:07.786596535,1746539347,778204001,piren,0.22918615234891682,0.0910922411386133,0.038957789819507115,0.0001778446722029553,0.005659118905041524,-0.003988928908740228
2025/05/06 15:49:08.678429182,1746539348,665604890,piren,0.22392633993295555,-0.050425580368734346,-0.01678496975445989,0.0023380465257040036,-0.0012221621157362892,-0.006396967827987953
2025/05/06 15:49:09.550704421,1746539349,530752322,piren,0.21078205885547707,0.017083125156662788,0.007977701873766308,-0.0025009846526905873,-0.00043277557127567514,-0.006935575144221437
2025/05/06 15:49:10.509871567,1746539350,501528670,piren,0.2012356068033083,-0.14430545725739805,-0.058936824062607605,0.0005694514474437037,0.005102268503295285,-0.008448752343322938
2025/05/06 15:49:11.380916696,1746539351,374183065,piren,0.19158594255414405,-0.08795428347267,-0.029300418360795392,0.0004594077508032089,-0.00316773911643063,-0.010979440712641727
2025/05/06 15:49:12.353339053,1746539352,338718354,piren,0.18051833941986375,0.006073744387128401,0.017029016667062354,-0.002945266019473295,-0.00386789376541261,-0.013799622500223771
2025/05/06 15:49:13.227334764,1746539353,215528046,piren,0.17247419416495186,-0.028747788955773332,0.0041114363363986585,-0.0010298093836683113,0.0011374698087503032,-0.013717460641438865
2025/05/06 15:49:14.129280205,1746539354,117371456,piren,0.16728511261463805,-0.05348483110196612,-0.007928009870047369,-0.0008125134190028167,-4.300677159413098e-05,-0.013918048413450169
2025/05/06 15:49:15.112404131,1746539355,103255812,piren,0.15986191409125047,-0.049895173460448305,-0.010263577171340684,-0.0010475655184042727,-0.001283662596921027,-0.013960048336449291
2025/05/06 15:49:15.985691236,1746539355,975846779,piren,0.14541896416136782,0.03875987688419552,0.0339262115786435,0.0028981556995050493,0.00147796769623248,-0.013596036969184122
2025/05/06 15:49:16.881547598,1746539356,839632809,piren,0.13505889320817943,0.125987301365162,0.06146377807174816,-0.0014321333932005686,-0.0009987423759317655,-0.0142304517969857
2025/05/06 15:49:17.717813707,1746539357,710893762,piren,0.1328086830219207,-0.12035414095435588,-0.041351215128169125,0.0010747091017899507,0.0005754196079348494,-0.013720273408604884
2025/05/06 15:49:18.564251389,1746539358,554914985,piren,0.1304967483786992,-0.02289182103742802,0.006272121168246098,0.0010602618583685451,0.0008469380959194381,-0.015458854623380284
2025/05/06 15:49:19.530485048,1746539359,520919845,piren,0.12183109208676558,0.026201070773643337,0.02721494232027293,-0.00036914248962647243,-0.0004103524866836525,-0.014936306638066514
2025/05/06 15:49:20.408275044,1746539360,382326100,piren,0.10927990060429892,-0.18852377207675378,-0.05425818596462266,0.0006266687969382327,-0.0015480859924885046,-0.014878439806655324
2025/05/06 15:49:21.238996419,1746539361,230522640,piren,0.11044084921859283,-0.17930648087244067,-0.037252202220625384,-0.0020815807456576545,0.0003270779319141695,-0.016590867010249952
2025/05/06 15:49:22.183128374,1746539362,177879425,piren,0.11000058931468498,-0.14808248719503397,-0.04171032914209174,0.0007338780328362055,0.0005047949005574944,-0.01634566547446948
2025/05/06 15:49:23.42590324,1746539363,33263671,piren,0.09894095152306626,0.12000207959567591,0.07410990623058084,-0.0013201586052278744,2.0819891637935487e-05,-0.017675498400032706
2025/05/06 15:49:23.906059563,1746539363,869239008,piren,0.09623166411167824,0.0050059416888991945,0.030148666958418315,-0.0008924088759497425,0.00020612113639035054,-0.01582488717578103
2025/05/06 15:49:24.778675771,1746539364,773624686,piren,0.09919199325650416,-0.0345489590540711,0.008331301760556981,0.001100397343553605,0.0005702097859168593,-0.016126376016211957
2025/05/06 15:49:25.684828941,1746539365,679224607,piren,0.09834395118378753,0.026610506106680285,0.02566669266777742,0.0005729887837934919,0.0016993582818738478,-0.015409438948370947
2025/05/06 15:49:26.632584175,1746539366,625009056,piren,0.08530091046846645,-0.11167829103025691,-0.023599321259703456,-0.0013637213058461826,-0.0009380890798551936,-0.01533409959063388
2025/05/06 15:49:27.525950611,1746539367,514426901,piren,0.09374365714697877,-0.23523803073041938,-0.09689575694248713,0.0014746380707835764,-0.00042890175208619994,-0.016566099385445142
2025/05/06 15:49:28.451116679,1746539368,421510808,piren,0.09139394170804868,0.012631874729204746,0.02385939938699062,-0.0016293581524781128,0.00102543988645375,-0.017161695132442426
2025/05/06 15:49:29.361445901,1746539369,338379206,piren,0.08474028447855861,-0.07429704492920919,-0.006282047025712331,0.0006319229004566594,-0.00039362803999381325,-0.017994585991030182
2025/05/06 15:49:30.316628178,1746539370,266417492,piren,0.07362321541271385,-0.02429719705959376,0.020648656846487437,0.00013228258334800633,-0.0005725530960104971,-0.01683135740320006
2025/05/06 15:49:31.213374220,1746539371,199155533,piren,0.07092330507041275,-0.019609458241990733,0.022920804093424375,-6.334224723234578e-05,-0.0005724055199287534,-0.01683997624190243
2025/05/06 15:49:32.121357779,1746539372,113632526,piren,0.07639368168697871,-0.15208497730847695,-0.03798848278339755,-0.0008955874922353854,0.0006497008523441615,-0.01813051629590353
2025/05/06 15:49:33.44057094,1746539373,33954037,piren,0.08082022398092054,-0.07555004249827359,-0.003005360598739766,-3.018923382988445e-05,-3.514679243475755e-05,-0.020333435371386245
2025/05/06 15:49:34.31612938,1746539374,21371882,piren,0.07617771655369707,0.08160512002970584,0.069954581184852,0.0016530792781197891,-0.0019507332918584333,-0.017729040972631276
2025/05/06 15:49:34.896185686,1746539374,879674230,piren,0.07070510654412036,0.0666676390976281,0.06047278384123872,0.0006261138109501666,8.179547290366647e-05,-0.01889676414148088
2025/05/06 15:49:35.761336463,1746539375,720387943,piren,0.07350686522571434,-0.02844711083220619,0.014866121876463374,-0.00026513186431178056,0.001038972798969139,-0.017558351114334958
2025/05/06 15:49:36.625990765,1746539376,617044117,piren,0.07971275400968798,-0.25131660449845983,-0.05758987839374645,-0.0007937558936581121,-0.0015124058593567402,-0.018197865670281137
2025/05/06 15:49:37.494374498,1746539377,487422117,piren,0.08019827989665419,-0.3538231311637496,-0.11775558849543595,0.00010765601050015134,-0.0014035013969964994,-0.018169920536405034
2025/05/06 15:49:38.416397968,1746539378,365760706,piren,0.07080783444729753,-0.11700526018323393,-0.011858109290944989,-0.00046498928257742675,0.0004634705016293008,-0.017548471851049043
2025/05/06 15:49:39.468971167,1746539379,459048350,piren,0.059959569492770655,-0.014614526668699859,0.015045552442023253,-0.000711962946118118,0.0015972120232039576,-0.017808771200746
2025/05/06 15:49:40.392838997,1746539380,384774502,piren,0.04175760050571969,0.10968439801931623,0.06615026208455799,-0.000710479771184016,-0.0005233701193439812,-0.01658898339579701
2025/05/06 15:49:41.267991454,1746539381,255372145,piren,0.04467941356426369,0.09785918309997813,0.07063708853062235,0.0011059856971729518,-0.001275882057898937,-0.018000827901668615
2025/05/06 15:49:42.190632091,1746539382,158060061,piren,0.06381600651392012,0.07818854778772188,0.05593593023450374,-0.0010293768659767964,-0.00025344478051102226,-0.017833038053152107
2025/05/06 15:49:43.75638161,1746539383,25986791,piren,0.07844462322350955,-0.13617368356722945,-0.03648282901272747,0.0013676570541821082,-0.00038097583756082146,-0.018453400520095576
2025/05/06 15:49:43.972813192,1746539383,961875546,piren,0.08314999909910181,-0.12946480305028518,-0.03121591964249995,0.000747533458242494,0.0012944763894842295,-0.018068253382118985
2025/05/06 15:49:44.873059419,1746539384,858419705,piren,0.07485765989362314,-0.08272913462763046,-0.0028159144376943986,0.0009317020429255717,-0.0020550151891669355,-0.018083932307992136
2025/05/06 15:49:45.743495142,1746539385,736785785,piren,0.06844086821097183,-0.15272781784421052,-0.04338916948916548,0.002832345374152428,0.0007241526341584862,-0.017207206195287067
2025/05/06 15:49:46.697317824,1746539386,688683136,piren,0.060529637799461994,-0.02421199412807052,0.011816442733388416,-0.0007032902373858551,0.002094720941074821,-0.01676565124875195
2025/05/06 15:49:47.590274325,1746539387,583462619,piren,0.057141782408363526,-0.052448782108248646,-0.0033329442532631986,0.0015483262238907517,0.00037059486248175585,-0.01766687720481049
2025/05/06 15:49:48.553220235,1746539388,538642960,piren,0.05679258448827394,0.02371906480267453,0.030883120438253208,0.0008427335434902989,-0.004111188096174598,-0.01779351862357784
2025/05/06 15:49:49.482948587,1746539389,474047498,piren,0.06166095888249101,-0.10026942601534625,-0.02059380552001456,0.0012059143132103726,0.0007827350643351547,-0.01774821358937309
2025/05/06 15:49:50.435364443,1746539390,404300407,piren,0.06269481032085343,-0.051188694068424766,0.007311585508869834,0.0003627062996619731,0.00019769066605956968,-0.018639785101605737
2025/05/06 15:49:51.267041838,1746539391,251961592,piren,0.06540285338992015,-0.1355242829968528,-0.023676397395477247,-0.00024024923798052173,-0.001976655541075472,-0.019238552126464536
2025/05/06 15:49:52.133969450,1746539392,125354637,piren,0.06553972125568346,-0.13595292286301386,-0.015894854456424357,-0.0022496305356001487,0.0007524946834198443,-0.018343178384280415
2025/05/06 15:49:53.12460871,1746539392,999178667,piren,0.061315183114711305,-0.18655887618441214,-0.06299405273568746,0.00019225230899501657,0.0005473836880210604,-0.020424896341871702
2025/05/06 15:49:53.978060515,1746539393,969944155,piren,0.05675204151521925,0.084851710708161,0.05410109635103924,-0.001797580554323735,-5.358127726756697e-05,-0.01889792231681216
2025/05/06 15:49:54.855547672,1746539394,817487718,piren,0.04970900112117522,-0.07060005864202805,-0.002006670210617727,0.0007075608125208543,4.770339411789498e-05,-0.018327520335503653
2025/05/06 15:49:55.717331755,1746539395,704402315,piren,0.05956863071629259,-0.07587382374824797,-0.00022792906980840074,-0.0008746097737249074,-0.00035404147548749387,-0.018833712284612548
2025/05/06 15:49:56.594927739,1746539396,586269620,piren,0.06089291171455855,-0.04978711175692457,0.011482459207040458,0.0005193082038067354,0.001341836223770882,-0.018387232867276924
2025/05/06 15:49:57.509719729,1746539397,502334447,piren,0.05863972938526569,-0.07000526574133122,0.0019295053385268422,0.0016928782332586774,0.0001094399978132893,-0.018710006912970138
2025/05/06 15:49:58.535598237,1746539398,524338794,piren,0.058893258238700875,-0.09868638369967778,-0.014072445640658134,-0.0015399171072107436,-0.0005072977701993783,-0.019010686139172298
2025/05/06 15:49:59.432706533,1746539399,405540861,piren,0.04646151323618665,-0.05932617703208659,0.0006367708977030029,0.00033652975870046374,0.0007983326175866306,-0.018275480986856843
2025/05/06 15:50:00.282478008,1746539400,268153235,piren,0.05394692691705241,0.05245837968473677,0.05060594186235048,0.001122113046004528,0.0012275647616331663,-0.019944389076452507
2025/05/06 15:50:01.198998835,1746539401,189547421,piren,0.05899269544514815,-0.04096780744630123,0.013883898793802705,0.00031961035086708995,-0.0019494313384564148,-0.018624837075179045
2025/05/06 15:50:02.92351270,1746539402,53299783,piren,0.06141428340326265,-0.0533852800582272,0.009036723000592594,0.0011413002729127627,-0.0016964714136379379,-0.019556396912530374
2025/05/06 15:50:03.14379400,1746539403,328814,piren,0.06849292099873971,-0.17320743813341505,-0.04332861277660846,-0.0010519959881187242,0.0020801137210783873,-0.01872626120566794
2025/05/06 15:50:03.899446007,1746539403,886707059,piren,0.0596586699523837,-0.15481293443918287,-0.04507079111116894,0.0008407497805652362,-0.00041676110843568424,-0.019023401954804807
2025/05/06 15:50:04.782296352,1746539404,774117035,piren,0.051049957057610354,-0.002954964638217778,0.021956828907044135,-0.0005369353993888227,-0.0010867737410947705,-0.019004228024757448
2025/05/06 15:50:05.681141330,1746539405,673170560,piren,0.051957474072545265,-0.16614634156525113,-0.05694383955347615,0.0005662767203267703,0.0012941104399200396,-0.01945852527083876
2025/05/06 15:50:06.613419735,1746539406,606566734,piren,0.0519064068997049,0.015493490459369454,0.032061574542299305,-0.0006841720353913867,-0.0005145306431226233,-0.01938479851741357
2025/05/06 15:50:07.524394768,1746539407,474883718,piren,0.054669730107465495,-0.14256564871486274,-0.030272365965101657,-0.00040994895491654594,-0.0016554664822769623,-0.01813962842972611
2025/05/06 15:50:08.494367450,1746539408,431864143,piren,0.048767367311907533,-0.07112333847523367,0.00597818162065907,-0.0005796113245493261,0.0011480340141028765,-0.01150154847115635
2025/05/06 15:50:09.323646569,1746539409,313839036,piren,0.03427384416959898,-0.13437951257638733,-0.029551960277295952,-0.0006631317484480639,0.002317500145481541,-0.007075857368731582
2025/05/06 15:50:10.188982980,1746539410,180815863,piren,0.027662176315164985,-0.0019743877796742654,0.03170132774621873,-0.0005345474823083008,-0.0006827482085017361,-0.005631641399215653
2025/05/06 15:50:11.111556534,1746539411,99593508,piren,0.017659973723960075,-0.12076816644885854,-0.006759555448849304,-0.000674963664317366,-0.001069188541112683,-0.004066571645929252
2025/05/06 15:50:11.987205132,1746539411,970491015,piren,0.008406933656312121,-0.19202905925434138,-0.030829445738074456,-1.4158173176077652e-05,0.002094841201864913,-0.0037529362515540564
2025/05/06 15:50:12.949391600,1746539412,911929718,piren,0.0033654697032719505,-0.11139173721921693,0.02661625213593087,-0.0013127460667544093,-0.0010992743847860738,-0.004032171566985796
2025/05/06 15:50:13.785155945,1746539413,766919627,piren,0.007086295214725258,-0.17934987850694306,0.0012673252495615148,9.261974043934623e-05,0.00025511629509745895,-0.005766450019787027
2025/05/06 15:50:14.647527400,1746539414,638145078,piren,0.010790179620983553,-0.11384126390489811,0.033047449217834604,-5.7133630851739706e-05,0.0014388719400166689,-0.007036724247153642
2025/05/06 15:50:15.576506961,1746539415,564804086,piren,0.007156351572728724,-0.11610183862533363,0.028026669765392136,-1.3316014526309322e-05,0.0001658963283531296,-0.007052058589441366
2025/05/06 15:50:16.493412084,1746539416,480729814,piren,0.002221765267480788,-0.1625669333652921,0.004306085122403776,3.629703244143722e-05,-0.0022102960906787814,-0.007989333145353088
2025/05/06 15:50:17.447573160,1746539417,439574875,piren,0.007496127691319535,-0.21503777824873982,-0.014426152639933314,1.3336158208556296e-05,0.0008424350535758745,-0.009426882853287813
2025/05/06 15:50:18.335434560,1746539418,321290972,piren,0.011701102705936176,-0.24423305830112244,-0.016217828507179694,-0.00025398469965511185,-0.0013732694151209624,-0.010376943636334793
2025/05/06 15:50:19.268229527,1746539419,213973852,piren,0.016525177513781047,-0.23806568004014295,-0.006370272104506671,0.0003206847006970545,-0.0030738294006903413,-0.01246685096266998
2025/05/06 15:50:20.103218878,1746539420,94471280,piren,0.019057534619291758,-0.2262276524281172,0.004188218805208846,-9.732902108498765e-05,0.0030481177792616894,-0.013911811094395848
2025/05/06 15:50:21.27297149,1746539421,14807090,piren,0.020492741404591286,-0.22780679139131763,0.007494484899130001,-4.214084971196461e-05,0.0011395632915953845,-0.01398325500823098
2025/05/06 15:50:21.970990091,1746539421,958031122,piren,0.021904098532408267,-0.23950837063567462,0.017545217176782535,-0.0008853185810392036,-0.0028957746923382534,-0.015055029523847997
2025/05/06 15:50:22.902590523,1746539422,884472851,piren,0.02992180707495133,-0.3647973084238091,-0.05084321515626734,-0.0005571909953314254,-0.0006201856131433368,-0.012677940835664456
2025/05/06 15:50:23.805688396,1746539423,757244241,piren,0.03884732139442042,-0.265331509908095,-0.015104169439292147,0.0009791524843734136,0.0017943687487031407,-0.011954529978985213
2025/05/06 15:50:24.692820326,1746539424,681391835,piren,0.04603042160265248,-0.10018782215251895,0.06823794896802803,0.0009083417160022747,-0.00170932167221964,-0.008545745170179952
2025/05/06 15:50:25.638678835,1746539425,586156515,piren,0.047694414056634264,-0.16512490513669825,0.046208365345798794,0.0006231574605967554,-0.00026820262577539357,-0.006111074774393297
2025/05/06 15:50:26.490551319,1746539426,481936947,piren,0.046109838731150446,-0.35688982495676597,-0.03272828273761388,-0.000466719516676794,0.003340150204732935,-0.003332862249838757
2025/05/06 15:50:27.415379593,1746539427,404949448,piren,0.04416934916939867,-0.4078868409435872,-0.047311788034093444,0.00044810456973261797,-0.003202418098308365,-0.00032561643450604874
2025/05/06 15:50:28.301718608,1746539428,291377476,piren,0.04498599501886026,-0.36248968823996774,-0.03274429801392319,0.0006760196523174989,-0.0025931062932680687,0.003379464222313861
2025/05/06 15:50:29.148814708,1746539429,139230368,piren,0.04800509588888949,-0.26990452225718425,0.0007454046740133194,0.0004390715383149458,0.0012405501681596286,0.0065337777201997654
2025/05/06 15:50:30.18055022,1746539430,10343453,piren,0.04843568897487303,-0.2058494328866577,0.0335759710389234,-0.00044635154014036646,-0.0005481241663812706,0.007907482441566756
2025/05/06 15:50:30.894462348,1746539430,871728321,piren,0.03367146516322797,-0.31116656356217454,-0.014928571515734014,-0.0001619174892998749,-0.0004348883737630153,0.009397939295617549
2025/05/06 15:50:31.902369683,1746539431,855417828,piren,0.017263633710221535,-0.30371909758070514,-0.034251396408070255,0.001546279813165094,0.001488094710852453,0.009620698328972712
2025/05/06 15:50:32.744973754,1746539432,732268969,piren,0.014311527082964924,-0.12008033811293628,0.06035958719013634,0.00023759091816602114,0.0008366621562445893,0.00807121491626468
2025/05/06 15:50:33.807439408,1746539433,798747096,piren,0.007091359369187783,-0.11298765576011546,0.06706938410257636,0.0017108596091761092,-0.00017280495236213756,0.005616225766886029
2025/05/06 15:50:34.717627905,1746539434,705695770,piren,0.0007763773212497715,-0.252333308849032,0.029990818245119955,-0.0013898397341222254,0.0005621205046060493,0.003473892539506962
2025/05/06 15:50:35.625065783,1746539435,588630512,piren,-0.0038389007077253845,-0.5749888004385392,-0.11512769694653911,6.587222469198146e-05,0.0008509917987756637,0.0005997996880215088
2025/05/06 15:50:36.469471238,1746539436,459388767,piren,-0.0025519676590642915,-0.48620046185578025,-0.04483318513296668,-0.0005282215317953294,-0.0022174123343378697,-0.0019456261397513756
2025/05/06 15:50:37.381756630,1746539437,374552560,piren,0.0013982347590759114,-0.3848904314904377,-0.043088981968999025,-0.0003345403515413852,-0.0029688930194085887,-0.0038550465795826614
2025/05/06 15:50:38.288529881,1746539438,263220393,piren,0.001538804855159337,-0.13076114468428554,0.056151017746072396,-0.0015516205683151158,0.002803837657317042,-0.005393053445622211
2025/05/06 15:50:39.379727630,1746539439,311907336,piren,-0.0022061780257774215,-0.05974082912393607,0.07950438538430632,0.0002669972191827831,0.002949452052391427,-0.0050474578502062795
2025/05/06 15:50:40.237723838,1746539440,225694070,piren,-0.005700931216244903,-0.18773061899083457,0.024598670862536323,-0.00011559751762945851,-0.000664582671294713,-0.005802342503035444
2025/05/06 15:50:41.128581304,1746539441,115078015,piren,0.0004499621611635113,-0.3169725821993929,-0.028425235875527945,7.032562138939037e-05,-0.0014389363890788083,-0.006919279428129723
2025/05/06 15:50:42.89274876,1746539442,82153388,piren,0.012329863755697945,-0.3523376764421439,-0.04107978854665331,0.0001248157961938813,0.0030884316928122915,-0.008744875637833648
2025/05/06 15:50:43.11191396,1746539443,4308336,piren,0.01359365707759054,-0.30132231784350516,-0.019976827079702275,-0.00036473731926920766,0.0011483369881816353,-0.009691232528873288
2025/05/06 15:50:43.902595226,1746539443,893036461,piren,0.00681195149645232,-0.2225226116227795,0.007776295926146103,0.00033212908478201,-0.0024586794072989117,-0.010491197601875862
2025/05/06 15:50:44.798202494,1746539444,789296121,piren,0.001734326302914195,-0.18229499097310908,0.019577175358509055,-7.342910393110255e-07,0.0003786736767049581,-0.011580409075620714
2025/05/06 15:50:45.775547370,1746539445,715875826,piren,0.006299937348632961,-0.20175237893158993,0.01185957140868648,-0.00015506513534460637,0.00212217718634629,-0.013521478538771491
2025/05/06 15:50:46.670082671,1746539446,658929261,piren,0.016397705767055612,-0.24238112351559596,-0.00333978712538878,-0.000605537706717917,-0.0028290996792724567,-0.016016211988000746
2025/05/06 15:50:47.511436715,1746539447,501473337,piren,0.022615150852868075,-0.24536921699241565,-0.02060036521757857,-0.00021758400417319537,-0.001860994313577564,-0.014998833347206647
2025/05/06 15:50:48.364956617,1746539448,355189256,piren,0.032727188383841796,-0.12128103881994384,0.04561925913084795,-0.000833558028606911,0.0035281575087836342,-0.015773403616744328
2025/05/06 15:50:49.339283447,1746539449,289616160,piren,0.040497745901881835,-0.3437980233605808,-0.05685180843568139,0.0009778088168728887,0.0004908903777315543,-0.014060817828466101
2025/05/06 15:50:50.204029519,1746539450,195526291,piren,0.03919304576226903,-0.28197546030933973,-0.03582064418547778,-0.0009037962160541357,-0.0008521919957803437,-0.014172463988997725
2025/05/06 15:50:51.238460005,1746539451,197076764,piren,0.03837804642927029,-0.14847030395222596,0.01600634945567417,-0.0007419467793530098,0.0018656623887980148,-0.013412850031764867
2025/05/06 15:50:52.75764287,1746539452,65429706,piren,0.03126591755379552,-0.07873328974055789,0.033323630670125566,0.000867323103590029,0.00021221702128847096,-0.012776191895115276
2025/05/06 15:50:52.974312867,1746539452,966915132,piren,0.030401854902845877,0.011767577990026774,0.0607848296486977,-0.0007352370004334083,-0.002106992596304713,-0.011342750574863777
2025/05/06 15:50:53.863233784,1746539453,857336716,piren,0.03401637058260304,-0.1391783413418561,-0.012719229686420815,0.0009736866436729262,0.003324628140013925,-0.011890900298586164
2025/05/06 15:50:54.791156333,1746539454,737299152,piren,0.03839648197451684,-0.139156839382658,0.0033395297204259636,-0.0012167365942876048,0.0003833147793657449,-0.011897382452477664
2025/05/06 15:50:55.680698609,1746539455,634917230,piren,0.04251018706149772,-0.3442981285824257,-0.11247579525806035,0.0011016441968507574,-0.006020626960524337,-0.01237842536542285
2025/05/06 15:50:56.633896441,1746539456,624051888,piren,0.04371903901456144,-0.08167697651502578,0.011029410492261594,0.0009885435083280341,-0.001545816580531267,-0.01318871399036385
2025/05/06 15:50:57.522615034,1746539457,513284125,piren,0.033730499689197654,0.07674054708838478,0.0695392134907394,-0.0014431827429676027,0.005474760792586774,-0.015107859543742833
2025/05/06 15:50:58.383805782,1746539458,375312718,piren,0.025858350678052002,-0.15893831782616621,-0.029153066812064442,-0.000976632384895192,-0.002462218297092463,-0.013906825544540665
2025/05/06 15:50:59.315469334,1746539459,294130768,piren,0.026391249347391177,-0.14696363997895664,-0.029145001495091444,0.0004560520901592555,-0.0053797378917546075,-0.013199017804825504
2025/05/06 15:51:00.254246894,1746539460,215362598,piren,0.037910558325397165,-0.02018624055316226,0.03486429309962966,0.0005894806325746157,0.0045438494064837685,-0.014525313036083837
2025/05/06 15:51:01.223117588,1746539461,207581496,piren,0.048836169080075424,-0.08148274381505234,0.01229371165219959,0.0004251727656639786,0.0030073193940874515,-0.015762002832266836
2025/05/06 15:51:02.174254161,1746539462,127250557,piren,0.03953622095776282,-0.15618993178052606,-0.03571185418642415,9.239662810167965e-05,-0.004195640061744308,-0.013863835172073465
2025/05/06 15:51:03.72958536,1746539463,43193210,piren,0.02968726698989831,-0.04774930579944741,0.009523542062834605,-0.0002880885939104859,0.0027437625475054492,-0.013695606122617145
2025/05/06 15:51:04.34222406,1746539463,974802463,piren,0.03505822516881586,-0.1971771352694715,-0.06983005557514281,0.001161533071184061,0.0013340151639723795,-0.013516749882525407
2025/05/06 15:51:04.928364833,1746539464,911860753,piren,0.03486291728575336,-0.016126437333163147,0.019190453093045613,0.0021680639741185077,-0.0024728560552067153,-0.01345509020382116
2025/05/06 15:51:05.927120748,1746539465,881851348,piren,0.03590394624512656,0.07930947074921776,0.07072633169210113,0.0003083574705811369,0.0010256191975962525,-0.013579537740291175
2025/05/06 15:51:06.788736195,1746539466,776620930,piren,0.03484936480571714,0.04235585957434127,0.05698995739289537,-3.6210651537353265e-05,0.0010196220489194663,-0.013290391907218582
2025/05/06 15:51:07.701956840,1746539467,692976318,piren,0.039579378544086975,-0.06925692465741025,0.0036254323985882462,0.0006759061662311093,-0.004086941223233841,-0.013783911607158772
2025/05/06 15:51:08.701787496,1746539468,693694073,piren,0.0492279213051974,-0.14421826992562373,-0.020607180931324607,-0.0017317708634954363,0.00014207650288016976,-0.013982795769133086
2025/05/06 15:51:09.637443269,1746539469,619655693,piren,0.04757148860598059,-0.3431857893544121,-0.09661715991461639,-0.0002837687875473113,0.0014452226294243249,-0.013104164159146418
2025/05/06 15:51:10.555096535,1746539470,546467708,piren,0.038356212652282964,-0.2736138660511154,-0.08703572229386061,-0.0009512214050152956,0.0008719765854593336,-0.012371302237320315
2025/05/06 15:51:11.540360314,1746539471,526034244,piren,0.024487847654899975,-0.017181653908934405,0.002899402151656491,0.000726291325337545,-0.002066029059278318,-0.009570353091389271
2025/05/06 15:51:12.432919574,1746539472,420993084,piren,0.020651180846682705,0.3307500289392359,0.1314693859252295,-0.0013563371402818209,-0.00041243279613036856,-0.00905470701052063
2025/05/06 15:51:13.350487170,1746539473,321310006,piren,0.03526247996181779,0.07473719323433602,0.049483459573752164,-3.506130859725246e-06,0.002152841534223763,-0.009103682130271434
2025/05/06 15:51:14.320480659,1746539474,291296548,piren,0.04326179816563907,-0.07450366530447064,-0.011918604404105648,-0.00019840807452120888,0.00036548870216863917,-0.007653809637253359
2025/05/06 15:51:15.228431906,1746539475,213545257,piren,0.040805676691495284,-0.03529452668217205,0.008739252857602891,-0.0011883599202376202,-0.001596064062497863,-0.0070050518407089365
2025/05/06 15:51:16.211965833,1746539476,166719351,piren,0.04009957002195881,-0.24638383068792988,-0.06389425796473266,-0.0002599593582223891,0.0005902641620134638,-0.007412878591001807
2025/05/06 15:51:17.57925264,1746539477,50288948,piren,0.03666675629325961,-0.2627230890782906,-0.07573361066161746,-0.0014901737573808616,0.0003003213000656943,-0.006563318855955474
2025/05/06 15:51:17.970243921,1746539477,956053109,piren,0.029841674728289636,-0.08785809577303175,-0.027133610892797658,0.0017360134907225908,-0.0002738981466947101,-0.005047690528348353
2025/05/06 15:51:18.962129597,1746539478,908960335,piren,0.024219442953902118,0.25448171274150705,0.13703904345133425,2.6040228789122404e-05,0.0010396807438931878,-0.004140866147531952
2025/05/06 15:51:19.824733009,1746539479,812588181,piren,0.022600636941519644,0.30020614291379877,0.11373455069794647,-0.00035322619403033417,0.00042597637205972667,-0.003969804357256951
2025/05/06 15:51:20.803751732,1746539480,792382647,piren,0.019557156292125434,-0.1827839785867666,-0.0639799209311035,0.00016813746315621404,-0.0033332992345001724,-0.0026463570296523004
2025/05/06 15:51:21.777634735,1746539481,767016613,piren,0.007068930502408373,-0.25122650370709815,-0.07317234922786066,-0.00023103156768846465,-0.0009350336227166982,-0.0021345751056617472
2025/05/06 15:51:22.712542959,1746539482,703422945,piren,-0.014648669326318638,-0.21773015162445697,-0.09650303589927564,0.00021982938231077576,0.005179718950007365,-0.001722101290538689
2025/05/06 15:51:23.611777363,1746539483,596124710,piren,-0.04897729292472684,0.1486822276352493,0.053320740331885205,0.0005564316897339169,-0.0061261240412977015,-0.00022100426554980983
2025/05/06 15:51:24.526945187,1746539484,511625947,piren,-0.07657254279925219,0.1556034394342529,0.044629999859624694,-0.001493573978495175,0.0010467184703034488,-0.00012339740496716416
2025/05/06 15:51:25.503636198,1746539485,462907898,piren,-0.09708658179998846,0.0012620374028085354,-0.012757057696788051,-0.00027428205332430817,0.00640412782962243,-2.3935979024344986e-05
2025/05/06 15:51:26.449129140,1746539486,436734671,piren,-0.1125966037005021,0.03498184116988086,0.00783388087587816,0.0006172552069222041,0.00032843203676608684,0.0001600348820007096
2025/05/06 15:51:27.357866758,1746539487,350879240,piren,-0.12155422440354216,-0.10069628822978521,-0.03942775070604128,-0.0021979170251443638,-0.0035600718762153222,0.0004551670058345411
2025/05/06 15:51:28.307990446,1746539488,296115241,piren,-0.12903582154945278,-0.08836102167750591,-0.03591631995238338,-0.000419100614968785,0.00024445684487738777,0.00039967604599077175
2025/05/06 15:51:29.221779659,1746539489,188797176,piren,-0.13700038066632317,0.06965574096260937,0.035292919864718365,0.0022152499643288315,0.001399837275167392,0.0003879526028505073
2025/05/06 15:51:30.106636945,1746539490,93340478,piren,-0.15261501400444846,0.11032594904053006,0.045144758247260504,-0.0018911244096635744,-0.0011206498661668848,0.0002887680114659494
2025/05/06 15:51:31.120819511,1746539491,74656442,piren,-0.17362372293817593,-0.04910981045327773,-0.02502001732322777,0.0014469654923258755,-0.0015527353319638138,0.0004723377562963912
2025/05/06 15:51:31.975814140,1746539491,967093143,piren,-0.18828698085107948,0.08719946666255404,0.034095482763460624,-0.00045280258089948556,-0.00046797739743928695,0.0007059419279815979
2025/05/06 15:51:32.881738640,1746539492,874957856,piren,-0.2001938629204477,0.0362719365931678,0.013306087335355186,-0.0013327878758213325,-0.0005789830324856028,0.0027912506387110414
2025/05/06 15:51:33.826505986,1746539493,775143133,piren,-0.2075402232329446,-0.02025000488455086,-0.012181864454118303,0.000551496090014232,0.00030275389257606455,0.0033537533557537608
2025/05/06 15:51:34.692883596,1746539494,656065701,piren,-0.2111505427971685,-0.042686234575952865,-0.022790210715510125,-3.5076357646373645e-05,0.0017464049694446346,0.0030939551244866825
2025/05/06 15:51:35.683468820,1746539495,669834170,piren,-0.22236464725703003,-0.024000180783409,-0.014694582092257678,-0.0008449242074135842,0.0014431468821972631,0.0020773724996827015
2025/05/06 15:51:36.670734842,1746539496,661959941,piren,-0.23629990008982601,0.07202252987260335,0.031590212517059,0.0018006342868350119,-0.0015814485910936166,0.0013939288466401553
2025/05/06 15:51:37.587768458,1746539497,578730156,piren,-0.2538015278538595,0.13216435481946845,0.05233172024435557,0.000423951345491682,-0.0004749648313604189,0.000629594529752334
2025/05/06 15:51:38.491383126,1746539498,484351991,piren,-0.26579341584306243,-0.05278046171734288,-0.010389663753961333,-0.0013393262136342959,0.0007418427331903143,-0.0005963145127289694
2025/05/06 15:51:39.504491038,1746539499,492049567,piren,-0.2667453729288517,-0.2400090770272433,-0.08934397326339137,-9.899241303618401e-05,-0.0014194212344977556,-0.0019392223435518538
2025/05/06 15:51:40.524294702,1746539500,514014364,piren,-0.2698781685570961,-0.06679404668857267,-0.022455507070420586,0.0005183733823109138,-0.0024358474842842855,-0.0036552746309670195
2025/05/06 15:51:41.423896750,1746539501,381097366,piren,-0.2828184063862005,0.0954163572935123,0.04517191892966754,0.00035555162957030714,0.0026069994080532856,-0.00443422867983898
2025/05/06 15:51:42.411247288,1746539502,392176716,piren,-0.28744228511607794,0.21513464967760856,0.08702492412091571,0.0004508862459563105,0.002180725886672898,-0.00353708516618964
2025/05/06 15:51:43.480447319,1746539503,471318797,piren,-0.2789311839830434,0.008083515488511446,0.007538447048002791,0.0014470734061611554,0.0007446925477335555,-0.002174502906451981
2025/05/06 15:51:44.459694320,1746539504,407501886,piren,-0.26113067174331944,-0.05094310320004557,-0.016589686449486465,-0.0004512221407895809,-0.0023279486080746213,-0.000989612445178584
2025/05/06 15:51:45.398974622,1746539505,383084674,piren,-0.23516374501120457,-0.05960079403001199,-0.010624006514071077,0.0008426212578061664,-0.0014945847034436661,-0.0009285686655584312
2025/05/06 15:51:46.345351474,1746539506,303216659,piren,-0.21717441203537105,-0.25698346609312545,-0.0852985343523898,-0.0018350364874668921,0.0026354400195583508,-0.000987482293986212
2025/05/06 15:51:47.231808433,1746539507,219533418,piren,-0.22024650522165568,-0.17168375701103888,-0.0695853224755099,-0.00040091437446617345,0.002459698786738106,-0.001000971029185067
2025/05/06 15:51:48.125575873,1746539508,106957303,piren,-0.23205500453219663,0.09436325731801931,0.041684443091712084,-0.00012142244744820176,-0.00404947392617056,-0.0011790341273808357
2025/05/06 15:51:48.988623027,1746539508,982624359,piren,-0.2377000108072801,0.2029482055144109,0.08575707151548848,0.00017394483593415473,0.0012882401839189384,-0.0024087778031483213
2025/05/06 15:51:50.8528710,1746539509,999051929,piren,-0.23107539644628636,0.07958995858722696,0.03761047663502283,0.0012020420153705162,0.004443992405743951,-0.003433072920017251
2025/05/06 15:51:50.974917122,1746539510,965744085,piren,-0.22008881198364771,-0.07172615457678341,-0.023440154721189575,0.0007650147718185867,0.0026452735824379382,-0.004851392182582657
2025/05/06 15:51:51.986767596,1746539511,976021603,piren,-0.21561916184625274,-0.11308649478439467,-0.04487134932381583,7.421989135087245e-05,-0.001919218799894279,-0.0056082868252090605
2025/05/06 15:51:52.951636226,1746539512,943130587,piren,-0.20943532749537433,-0.04502266802278167,-0.027439040337570685,0.0016860268132846714,-0.0018702985679834873,-0.005975011365093059
2025/05/06 15:51:53.861065104,1746539513,852767009,piren,-0.2236686685926699,0.16277433485176993,0.04604000084244932,-0.0009610822814024264,0.0027276958204804206,-0.006582974016627414
2025/05/06 15:51:54.766009121,1746539514,759014350,piren,-0.23230670370863715,0.013976732297415174,-0.007371359009151039,-0.0012585927102851556,0.0005879030593157751,-0.007388972743836538
2025/05/06 15:51:55.736272150,1746539515,694384943,piren,-0.2240564420907225,-0.08027632992112954,-0.0360714790705498,0.0005221794697460337,-0.0036517392150826116,-0.00875335372712799
2025/05/06 15:51:56.651687880,1746539516,605083758,piren,-0.21091678258832666,-0.1017814946340361,-0.052763197095359926,-0.0016305441626971353,0.0009208496851464314,-0.010513169574985468
2025/05/06 15:51:57.491138180,1746539517,482379414,piren,-0.20354397534597948,0.0893601133252219,0.02383087700995622,0.0005280324386378679,0.0048233302848095655,-0.011699311055431951
2025/05/06 15:51:58.392574830,1746539518,383206892,piren,-0.20327829608228107,0.07497766408321607,0.01834778722515821,0.0002141445403924316,-0.0008353630060436077,-0.011963419755179502
2025/05/06 15:51:59.360488583,1746539519,311485297,piren,-0.20358187943687361,0.14135962460770624,0.04821586184058943,-0.0014679504573929902,-0.0006988195950801141,-0.01229832110876184
2025/05/06 15:52:00.279662063,1746539520,266866239,piren,-0.18807482424369862,0.05642908859813038,0.022407520399917197,0.0010458351366058336,-0.000844244849318256,-0.012646763291101487
2025/05/06 15:52:01.196239873,1746539521,183908932,piren,-0.16607772095483653,0.02571521515224523,0.011268169208753896,0.0007914678804368758,0.00046016955371239,-0.013631353745005423
2025/05/06 15:52:02.101401177,1746539522,90434468,piren,-0.14984773544405391,0.0556243121005762,0.016076973226088406,-0.0008183213469038158,-0.001293511478488804,-0.01482134212864732
2025/05/06 15:52:03.9385689,1746539522,966217602,piren,-0.14649913975703255,0.035063551237504466,-0.004037176802152207,0.0024476122043174766,0.0013286476711205292,-0.01526846950881433
2025/05/06 15:52:03.910804096,1746539523,872448744,piren,-0.14980155577319348,-0.0636356619172234,-0.05065704787592684,-0.00011782684218766704,0.0022597258105736292,-0.015131802236360797
2025/05/06 15:52:04.933473771,1746539524,875614394,piren,-0.15283737305876097,0.0502297150631106,0.008428483005994363,0.0016885642677326369,-0.002061818931949961,-0.015656612130330285
2025/05/06 15:52:05.818116649,1746539525,810630757,piren,-0.1471915185226362,0.11637977998496304,0.03579535532590791,0.002577502264358493,-0.0009719010222687532,-0.01686909403907519
2025/05/06 15:52:06.767031741,1746539526,757996740,piren,-0.13120912716569427,-0.03306805220875886,-0.019607898197947973,-0.0033860908618772376,0.0017042126372249066,-0.01811079131878471
2025/05/06 15:52:07.651888944,1746539527,644265471,piren,-0.13003338533870365,-0.14481863759144664,-0.08615811936880846,0.0032083535297930646,0.0006323138037117656,-0.017895576505519453
2025/05/06 15:52:08.568254788,1746539528,558915974,piren,-0.13383870945883616,0.11817282677769575,0.01779549525721238,-0.0010071680197733324,-0.00011983058037556637,-0.017253154205335904
2025/05/06 15:52:09.573578062,1746539529,567914795,piren,-0.13502567968063636,0.01644531565115219,-0.020234865419230638,-0.0014282529933416714,-0.0009720209158442968,-0.01760500297806048
2025/05/06 15:52:10.461721891,1746539530,449430516,piren,-0.13583120299029022,-0.027087601651812246,-0.03631442180938135,0.0006568479890721739,0.0007493633154955369,-0.018616074316809395
2025/05/06 15:52:11.350421292,1746539531,341357879,piren,-0.12533397647946962,0.12376574470558442,0.0347141501609108,-0.00039257611846436793,0.0014135131301410018,-0.0173213490994892
2025/05/06 15:52:12.400857038,1746539532,361318754,piren,-0.1171085211553533,0.14418407961333327,0.04261594039450633,0.00040997450038153006,-0.00030035821448548235,-0.016960176820772683
2025/05/06 15:52:13.279125993,1746539533,268836165,piren,-0.11292465754049172,0.09261368964056597,0.011284493879635,-0.00032460761307880173,-8.326837800288873e-05,-0.01774613618676019
2025/05/06 15:52:14.333096723,1746539534,282871377,piren,-0.10356629175323,-0.05717004213223746,-0.05851133795013416,0.0005334318243615539,-7.843644716389663e-05,-0.017721369129180296
2025/05/06 15:52:15.216044028,1746539535,206757218,piren,-0.10604406666375008,0.12716968787439717,0.030408595805379617,0.0015759381924665982,-0.00039143763576714993,-0.018107815227799664
2025/05/06 15:52:16.106937818,1746539536,95880253,piren,-0.1048007588957831,0.2021042502744279,0.05928512515312323,-0.00023935462611649326,0.0003416069932031983,-0.018343850273923445
2025/05/06 15:52:16.988981098,1746539536,978310410,piren,-0.10278140150597488,0.051443625567212686,0.0004766953428128767,-0.0011631245504744928,-9.266004514488749e-05,-0.018462701974131468
2025/05/06 15:52:17.939262296,1746539537,884296900,piren,-0.09639030318942576,-0.1142130361836613,-0.06730951957354644,0.0007952544487600869,-0.0005429595191573323,-0.019174492583633875
2025/05/06 15:52:18.948763009,1746539538,903211825,piren,-0.09486195818275286,-0.01969937984569373,-0.02832203351048027,-0.001024076684854292,0.00023348011279075543,-0.01978814451098868
2025/05/06 15:52:19.922614134,1746539539,914746878,piren,-0.10545129563337968,0.006106375054615559,-0.028336607672931943,0.00015540095699059493,-0.0003693393009415423,-0.02007813033544903
2025/05/06 15:52:20.890314627,1746539540,881941234,piren,-0.11941874644797751,0.2795431931507978,0.08541750904379555,-3.186851440436774e-05,-0.0010894149174187464,-0.02065967636197082
2025/05/06 15:52:21.888632458,1746539541,878671707,piren,-0.11553656381900299,0.18233097230804313,0.05184229129490266,-0.0006860253777789295,-0.0006848009733448003,-0.018774615666573777
2025/05/06 15:52:22.837006997,1746539542,816299104,piren,-0.10059707963558534,0.029478456211781336,-0.007310466221764897,0.00022690545033426704,0.0014985966227361305,-0.019145839676668237
2025/05/06 15:52:23.895338465,1746539543,883228319,piren,-0.07739485344818861,-0.06179584560694046,-0.046504071987030264,-0.00034495161217628327,0.0009092951821417284,-0.01921155663760932
2025/05/06 15:52:24.882507512,1746539544,873018654,piren,-0.08535423474618205,-0.0019791328223497107,-0.026313522621396176,0.0007350350816392113,-0.0004413093483295053,-0.01988020927153303
2025/05/06 15:52:25.824166299,1746539545,817996773,piren,-0.09806128057804116,0.06937123045506599,-0.0016731637133145293,0.0001295098306326121,-0.0009384364504559084,-0.01982215399477327
2025/05/06 15:52:26.742107823,1746539546,730067919,piren,-0.10272406443110263,0.12228627204521682,0.009603867176496627,-0.00016820029732661585,0.00027618625868008423,-0.020321194360513824
2025/05/06 15:52:27.768500565,1746539547,761499841,piren,-0.10056457404478308,0.016755187566354073,-0.03162110585180368,0.00038972354946571026,0.0003043218969086312,-0.01808446575055712
2025/05/06 15:52:28.783051869,1746539548,774244630,piren,-0.10132468781896303,0.23034971439516577,0.04187788870690583,0.00015129202418556634,0.0011477059615573582,-0.017826198117126584
2025/05/06 15:52:29.697939119,1746539549,687432996,piren,-0.0914006594551907,0.012934400977398293,-0.026406531973985653,-0.0005168333940877996,0.0007076887585746023,-0.01852031863698586
2025/05/06 15:52:30.600419844,1746539550,589639628,piren,-0.07997705779020875,-0.022055274197656956,-0.030177668021726615,-0.00034057681641903745,-0.0010522809787134146,-0.0177014632058301
2025/05/06 15:52:31.493317615,1746539551,482854661,piren,-0.07994316340703285,0.07302131277443959,0.013593549383282664,0.0009554523545226687,-0.0010960679481152764,-0.01730980276203579
2025/05/06 15:52:32.409716218,1746539552,399315597,piren,-0.08168745076262046,0.11441937884511844,0.035476409536206094,1.805058728136352e-06,-0.0007374489855220184,-0.01723208658397505
2025/05/06 15:52:33.461249959,1746539553,448699764,piren,-0.08525284598815897,0.23209535194238007,0.06314306960426176,0.00040122610825632786,-9.518999552202171e-05,-0.017245443366382257
2025/05/06 15:52:34.435385545,1746539554,410573750,piren,-0.08664205934016571,0.04733915314230845,-0.008904053143858228,0.0009303127421561321,0.0007532914198704151,-0.017176595395307186
2025/05/06 15:52:35.339032292,1746539555,330083004,piren,-0.08064940420191931,0.059330164751032054,-0.00513830124241847,-0.0005611935113630782,0.0004661384372966441,-0.018680518442912766
2025/05/06 15:52:36.233563545,1746539556,224649947,piren,-0.07991526085211173,-0.029557895755793318,-0.035813592034060475,0.0004100752159776676,-0.0009004508265826166,-0.018551244262093192
2025/05/06 15:52:37.125808336,1746539557,116649798,piren,-0.08008489227032589,-0.032850621741301864,-0.037275594288648295,-0.00042433682356872687,-0.0005572479874285869,-0.01871636243824317
2025/05/06 15:52:38.59164480,1746539558,53379330,piren,-0.08273493761525239,0.060165888371789274,-0.0033876852859331483,0.0006926304233598723,0.0011449936863690887,-0.021214529939617362
2025/05/06 15:52:39.17315643,1746539559,8573891,piren,-0.09942559357143067,0.11460491057270447,0.020275903061934154,0.0006727295903014238,-0.0013863667304302098,-0.019015352255810056
2025/05/06 15:52:39.987408824,1746539559,977886654,piren,-0.10838678895699834,0.23496349949866024,0.07308919856862828,0.0013427102859936994,-0.001026029155123489,-0.019693499791122834
2025/05/06 15:52:40.906025815,1746539560,888282778,piren,-0.10330548780829685,0.19354649522724893,0.034348687631415575,-0.0011397227522440968,0.0017934055749317013,-0.02013270823074391
2025/05/06 15:52:41.858893709,1746539561,852693127,piren,-0.07978609447234661,-0.152309578626156,-0.08774227617399356,0.0006462276310839736,-0.0009284808383874674,-0.020093493171546628
2025/05/06 15:52:42.797360489,1746539562,788381867,piren,-0.07045340643419147,-0.10139131975358202,-0.06282683648813873,-0.00013961143985969176,-0.000823500635338504,-0.018866099752941085
2025/05/06 15:52:43.793046678,1746539563,783645072,piren,-0.07748461087599304,0.09231234741353994,0.0091167398559838,0.000809484822855493,-0.0002901843683853843,-0.018930743578268353
2025/05/06 15:52:44.749379384,1746539564,717599929,piren,-0.09384576044290643,0.1744499285652585,0.02531708507236224,-0.0009776230021621784,0.001116588545552647,-0.017707292074163456
2025/05/06 15:52:45.681507603,1746539565,671692105,piren,-0.07996608733726714,0.06510100550708749,-0.012335006731661522,-0.00010885556108286776,0.00015213259900883358,-0.012620564357147973
2025/05/06 15:52:46.663080130,1746539566,648673657,piren,-0.04020685073934453,0.09660462647372584,0.020210647815750712,0.0007740492712795767,-0.00030520242354780867,-0.008527024120176118
2025/05/06 15:52:47.584571566,1746539567,577681891,piren,0.0025674842085988553,0.19132477595862535,0.07337739634711629,0.0001905950364330806,-0.0009355984335272227,-0.0065011064751607514
2025/05/06 15:52:48.702183337,1746539568,692164276,piren,0.021078750504285218,0.17559929014184567,0.033520315550752855,-0.0014941397838951422,-0.001780426323873716,-0.005924212093472703
2025/05/06 15:52:49.640524474,1746539569,628854760,piren,0.011235240645292521,-0.1066284805420189,-0.09111655666507278,-0.0011888042370969151,0.0006431119910794099,-0.005669444648898988
2025/05/06 15:52:50.583343358,1746539570,548530350,piren,-0.0064465085600704675,-0.0067136101331858955,-0.06185544744490819,-0.0007542832314549378,0.0010845805240883724,-0.006207734895318992
2025/05/06 15:52:51.514377304,1746539571,480852619,piren,-0.022958538869455494,0.17520057505591366,0.004032315523023993,-0.0010139854756377512,-0.0005826480937575818,-0.006395856280402929
2025/05/06 15:52:52.497696133,1746539572,445680223,piren,-0.02700225987374469,0.29552490859305125,0.02809743450973905,-0.0013667543707037576,0.0018165889416599348,-0.007510707969783094
2025/05/06 15:52:53.460534415,1746539573,405397597,piren,-0.022976339065877746,0.1635423860047839,-0.024738005670155522,-0.00011787073891932686,0.002211197487959559,-0.008627438435237764
2025/05/06 15:52:54.369150754,1746539574,352874000,piren,-0.01766187778596507,0.09048191761081825,-0.04268085646748622,0.0012072032133979846,-0.00041673196228098937,-0.01057783307012332
2025/05/06 15:52:55.298917870,1746539575,290656297,piren,-0.02615653530669912,0.34625375534650615,0.05986047267425061,0.00015742273797867085,-0.0011818623634648091,-0.011425199637763048
2025/05/06 15:52:56.204012681,1746539576,177152950,piren,-0.037019984823273705,0.3092437636461127,0.0252652886320519,-0.00019706352725965115,0.000733740816033896,-0.013008147185561236
2025/05/06 15:52:57.111476717,1746539577,66528716,piren,-0.042583306206908804,0.12199425454984358,-0.03842621886059829,0.0010316026497441267,0.00045238249378329093,-0.013854611752395041
2025/05/06 15:52:58.3808953,1746539577,994293831,piren,-0.04976946160879922,0.30677813948290567,0.034476716852112815,0.000511306099630377,-0.001171084130502685,-0.013996247751657552
2025/05/06 15:52:58.898665403,1746539578,892103323,piren,-0.057011409033899674,0.34056929371664935,0.05590509099811971,0.0010175645113013345,0.0008186297142208697,-0.015343020386189949
2025/05/06 15:52:59.790639106,1746539579,779581547,piren,-0.05981918382773711,0.34800469268666057,0.01412853409764222,-0.0011342795900323966,-0.0003447111082670705,-0.014866110926561177
2025/05/06 15:53:00.765284688,1746539580,716205050,piren,-0.054143874391463266,0.0734139916154282,-0.08226801589846629,0.0010358785718340747,-0.0014607000224425564,-0.01383793544271107
2025/05/06 15:53:01.634763207,1746539581,620520781,piren,-0.04756733192430586,0.15066484042490486,-0.0413780339245962,0.001066114659053888,6.814338728202179e-05,-0.013082301460205528
2025/05/06 15:53:02.641561205,1746539582,627950543,piren,-0.04559674470856956,0.4129200555466434,0.06468807827768273,-6.792792154340287e-05,0.001505615899108259,-0.009894678115195678
2025/05/06 15:53:03.582376475,1746539583,564194066,piren,-0.042431862577586216,0.43297924345473066,0.047529843134724435,-0.0008867773751147087,0.00018343740303697372,-0.005363520332094704
2025/05/06 15:53:04.540960291,1746539584,521577712,piren,-0.03008325534797701,0.22655912052496946,-0.03256853716892289,0.000549018545954474,-0.0020809849890191987,-0.0016159203405773296
2025/05/06 15:53:05.484811798,1746539585,472200547,piren,-0.011533297177235773,0.14502308817571455,-0.05118968473665945,0.0003091585188785449,0.0006681307129149797,0.0020760335554640217
2025/05/06 15:53:06.376566957,1746539586,371913514,piren,0.009886734079157397,0.35587828694432444,0.03767536095676719,-0.0013584163305123858,0.001199172879966501,0.004965200781408985
2025/05/06 15:53:07.395528582,1746539587,384871352,piren,0.022765800179883347,0.35353121344816024,0.03551488255206951,-0.0006060403698332639,-0.00018403773997227875,0.006273990896152117
2025/05/06 15:53:08.373710968,1746539588,364340704,piren,0.023584372625645417,0.26723652285888616,-0.003414454383367397,2.7966048676321183e-05,-0.0006495598354730696,0.006890316018765969
2025/05/06 15:53:09.332687209,1746539589,322703618,piren,0.01776664206599532,0.23069178097316506,-0.03973047774773455,-0.0010399814823690468,0.0009030054970211081,0.006264891368799019
2025/05/06 15:53:10.275283173,1746539590,266384092,piren,0.009955059610880473,0.15263344861407488,-0.07010905828077889,0.0005115456576344545,0.001995430281136179,0.005094467711702071
2025/05/06 15:53:11.216456711,1746539591,198275034,piren,0.002330640113211449,0.30522324107086907,-0.0003545134297926418,-0.0005858274158786945,-0.0023327531034238384,0.0036333177043898802
2025/05/06 15:53:12.187814745,1746539592,180046163,piren,-0.0012822088806045961,0.4168200153444199,0.06116456879628989,0.00038067968923416207,-0.0015970934646981818,0.0013628092512156403
2025/05/06 15:53:13.117389441,1746539593,98279956,piren,-0.0032147717849265733,0.43275010781722206,0.06327941381381841,-0.00033527582239292785,0.0013230999483626299,-0.0010049527483946667
2025/05/06 15:53:14.68300955,1746539594,60978948,piren,-0.008547899454613442,0.29153475030228343,0.0007685289361150393,0.0007838472457192808,0.0010202840577016722,-0.0032020755687270134
2025/05/06 15:53:15.55331338,1746539595,48199456,piren,-0.015637227532919705,0.17424751789170712,-0.03941831247885633,0.0021757868176334448,-0.0022915355959530394,-0.003609459276822288
2025/05/06 15:53:15.939610493,1746539595,931932807,piren,-0.016823819219383418,0.2953869822963671,0.012469281210627294,0.0026002372356115342,-0.0006324770065687653,-0.002979939905885246
2025/05/06 15:53:16.935756490,1746539596,925238203,piren,-0.010446396811049835,0.3676715386000699,0.05440578013108753,-0.000583123156732298,1.55943323916682e-05,-0.0019897000246945616
2025/05/06 15:53:17.870331659,1746539597,855318689,piren,-0.005644009828681101,0.3867216337151958,0.06799041907027856,-0.0005898958445625012,0.00047957846342431073,-0.0011333041144081309
2025/05/06 15:53:18.869808257,1746539598,819173512,piren,-0.0013961668669737054,0.30641923223429995,-0.0009626889127112618,-0.0008495278101225886,0.00034567763464045956,-0.0006300279333999173
2025/05/06 15:53:19.745050286,1746539599,729872050,piren,-0.0015444039210556664,-0.01305383766924131,-0.10729867231052796,-0.00048788943588490367,-0.0005393526566150874,0.00023769534807933107
2025/05/06 15:53:20.653872326,1746539600,644305392,piren,0.0005507025573076169,0.08393001405384734,-0.06036718512897823,0.0003494946132545986,0.0008781634694676345,0.0005459221738216058
2025/05/06 15:53:21.641619076,1746539601,632541439,piren,0.0031145914309922418,0.2687216881886075,0.01585523642468926,4.3760682993854304e-05,0.00173347236749259,0.0007232501188222945
2025/05/06 15:53:22.594439421,1746539602,586150757,piren,0.004192309688441254,0.37213502865156894,0.05551381848800587,-0.0005400237524031433,-0.00022127169724828354,0.0012712142701483964
2025/05/06 15:53:23.631928145,1746539603,619013534,piren,0.0040210284523338885,0.33010881901476374,0.035363712535471555,-0.0001478687868479523,-0.0003856749257533126,0.0011959358546834384
2025/05/06 15:53:24.586932219,1746539604,574008326,piren,0.003631181154296101,0.23195232550598294,-0.004278912141971059,0.00029910991139809386,0.0011119981733772087,0.0014273589590316973
2025/05/06 15:53:25.531912793,1746539605,516099980,piren,0.0005297790232026076,0.15979133427105688,-0.026972214722400675,-0.0005008919592859854,0.001765146615128269,0.0007847286473596132
2025/05/06 15:53:26.484749121,1746539606,474809547,piren,-0.0009780241359278186,0.1558000405543857,-0.02081280182966084,0.00035161175325801666,-0.0010540232142055214,0.0006771152536831223
2025/05/06 15:53:27.534248325,1746539607,464471294,piren,0.0004475831552112758,0.1883708676040487,0.00017817570838715087,0.00022971714657123288,0.0003560288167084751,-0.0003017370721556335
2025/05/06 15:53:28.412275244,1746539608,403920998,piren,0.0025786794821612835,0.21113613392880254,0.013657454802443519,-0.00053512956977904,0.0016198770549130572,-0.0013802843593168346
2025/05/06 15:53:29.330130667,1746539609,315327178,piren,-0.0016855828288229041,0.20708088462172813,0.012034520381275645,0.0003811057574970975,-0.0011488064937808578,-0.0003726166713203443
2025/05/06 15:53:30.304130110,1746539610,296294954,piren,-0.002820518034596667,0.1822829700576193,0.0019823526850967577,-6.967675692275612e-05,-0.0019147035696434186,-0.0002021171337055927
2025/05/06 15:53:31.264279121,1746539611,255556430,piren,-0.0008467096407349245,0.15559001798995736,-0.005694195481603246,-0.00019545217471440368,0.0008603585845914041,-0.0010447822023122095
2025/05/06 15:53:32.272345607,1746539612,261996585,piren,-0.0011576354451019732,0.12887692867295747,-0.005678002232899874,0.0003778912802649016,0.0016338815328649852,-0.001275573207019578
2025/05/06 15:53:33.176469625,1746539613,168299611,piren,-0.0026684944078542855,0.10924925710697342,-0.0014175023410853773,-0.00010307371405153766,-0.0007474156593132606,-0.0018632559512660489
2025/05/06 15:53:34.113719189,1746539614,105344154,piren,-0.003968210975578652,0.10017623194981792,0.002405137799203739,-0.00016897526220044262,-0.001397142829209939,-0.0017709984523354148
2025/05/06 15:53:35.93455172,1746539615,84829627,piren,-0.001962275628632673,0.09231584208324549,0.003077393746198457,0.00034842032141769097,0.0017899129446293965,-0.001697122279610836
2025/05/06 15:53:36.51393192,1746539616,6840257,piren,0.002241504810801046,0.0855281816137603,0.0013430006200306573,-0.00013595652481475663,0.00047927140761507215,-0.0012686023544298075
2025/05/06 15:53:37.26570252,1746539616,994792830,piren,0.001940453887586329,0.0723592083839065,-0.0008473690228567681,-0.0002704947979969026,-0.0004507200686761419,-0.0010549554762741913
2025/05/06 15:53:37.933440943,1746539617,900753426,piren,0.0013130744320028961,0.05661884968106707,-0.0014588218315608698,0.00023053589520785332,0.0009757417576169754,-0.0008641908785607107
2025/05/06 15:53:38.925750313,1746539618,868635896,piren,0.0017539542005820738,0.036087004707072046,-0.0006438679679126937,5.9464122866060206e-05,-0.00010589456418458627,-0.0008909644588343433
2025/05/06 15:53:39.957639851,1746539619,926589067,piren,0.005083637580262649,0.027023260949318947,0.0005211736193208669,-0.00012489219741028182,-0.0009457165348234638,-0.0009567481564909705
2025/05/06 15:53:40.856939668,1746539620,849754060,piren,0.005503061941124642,0.03195089741936162,0.001095801569566456,0.0001391944275874482,0.0005961314825505928,-0.0002729317369965097
