time,header_stamp_secs,header_stamp_nsecs,header_frame_id,child_frame_id,pose_position_x,pose_position_y,pose_position_z,pose_orientation_x,pose_orientation_y,pose_orientation_z,pose_orientation_w,twist_linear_x,twist_linear_y,twist_linear_z,twist_angular_x,twist_angular_y,twist_angular_z,gps_status
2025/04/05 15:58:41.601963922,1743861521,282320931,piren,vessel_center,-238.4126721082029,-300.8814895418486,2.341384143610964,0.005232762826481269,0.0004967274022062052,-0.01998872502616074,0.9997863883484903,0.14271878150891548,0.09776139336336212,0.04826911948269058,0.0010879259821797655,0.004547231118139736,0.0,0
2025/04/05 15:58:41.602143431,1743861521,320831703,piren,vessel_center,-238.39585440634585,-300.89404238952557,2.3367167938749605,-0.023056525241292664,0.0011202450415167715,-0.019644035712294873,0.9995405212175136,0.1478292004774175,0.04775643475295522,0.02698133092432792,-5.991748009850512e-06,0.009258384770435021,-0.008326838257809043,0
2025/04/05 15:58:41.602237259,1743861521,391298684,piren,vessel_center,-238.3840918199465,-300.8585123040381,2.3504742994195515,0.00424311080043199,0.0009442093377111701,-0.019666487990128923,0.9997971462899842,0.15722993221077097,0.12132247017480052,0.05450498736133974,0.000984297334722609,0.010798477888073236,0.0,0
2025/04/05 15:58:41.603261080,1743861521,428745380,piren,vessel_center,-238.37413397610214,-300.87884420046566,2.341869449322058,0.0063093295006740185,0.0006939310246434241,-0.019574328596431084,0.9997882558226937,0.16170758271275637,0.0625122383259169,0.029260672409306222,0.001519685355330815,0.011782646899376619,-0.00627042715714863,0
2025/04/05 15:58:41.603354212,1743861521,498490190,piren,vessel_center,-238.36452250978493,-300.8964623639438,2.334064704773923,-0.003244154157626183,0.0010493702183693935,-0.019568255267598623,0.9998027093740687,0.16476147187738654,0.016278519017260032,0.008601869170531289,0.00017190171902483706,0.012069232673522062,0.0,0
2025/04/05 15:58:41.607597076,1743861521,535528886,piren,vessel_center,-238.3540604462888,-300.8925451663379,2.335147420790621,0.03137805556432724,0.0004111901201556171,-0.019731739164689656,0.999312717331879,0.1697432223875466,0.023180256663636236,0.010054517252924115,-0.0005452377201949556,0.01174205538639359,-0.005517608385771429,0
2025/04/05 15:58:41.607701249,1743861521,572344459,piren,vessel_center,-238.3458912595138,-300.94645025073953,2.3099663622633013,0.005273784345385233,0.0006856397479221555,-0.01971014155567876,0.9997915919913858,0.16868154121088985,-0.09924708114826884,-0.047048209719376274,0.0010686332562304072,0.010739279937882689,0.0,0
2025/04/05 15:58:41.659870950,1743861521,647081218,piren,vessel_center,-238.33585454118153,-300.94118827053023,2.3119369098509925,-0.0003740366245537507,0.0009332396990961192,-0.019860891123516224,0.9998022475290038,0.17227608872588002,-0.07654001376972687,-0.037448391783029306,-0.0006386399937917651,0.009267013230581798,-0.004888614127186849,0
2025/04/05 15:58:41.700523522,1743861521,698136495,piren,vessel_center,-238.3167708670243,-300.9288213041254,2.3164773811203347,4.681096661065702e-05,0.0010393604095939649,-0.019861268872785998,0.9998022042071298,0.17896881587212188,-0.03318692067996367,-0.019593569273906992,-0.0008623706176280875,0.004908614225494572,0.0,0
2025/04/05 15:58:41.776804585,1743861521,774727294,piren,vessel_center,-238.30520780690233,-300.9178610936803,2.320686053670532,0.004108678234066459,0.0014550798725286513,-0.020376010028896396,0.9997828862913367,0.18445309187065956,-0.005056373307252084,-0.008017082006554673,9.617307943794928e-05,0.0020780364276603695,-0.018814193706434727,0
2025/04/05 15:58:41.852201276,1743861521,849995001,piren,vessel_center,-238.28380388522086,-300.91679362750784,2.320623750425231,0.017560704849248737,0.0012636911100107706,-0.020879682438668577,0.9996269622170244,0.19042276709601536,-0.001543480444706671,-0.006347389362488784,-0.0019604124744236565,-0.003958258741734038,-0.004487502074499609,0
2025/04/05 15:58:41.927872987,1743861521,924821927,piren,vessel_center,-238.27342614796999,-300.9382652373357,2.311007178864578,0.026834657490935453,0.0006463254635966852,-0.020887980435617078,0.999421420469894,0.192261250148249,-0.04925322654030411,-0.027082537848367477,-0.001698505765920196,-0.006548495935707791,0.0,0
2025/04/05 15:58:42.2137938,1743861521,997702491,piren,vessel_center,-238.26333266652188,-300.96919195753094,2.2969253022005938,-0.014279761309998012,0.0009495019176490963,-0.02057516854898153,0.9996858753139503,0.1926269709187636,-0.11233469390231207,-0.055271045954689395,-0.00101006495802434,-0.008530209479484576,-0.0172792756300418,0
2025/04/05 15:58:42.39874340,1743861522,36149249,piren,vessel_center,-238.25155826124237,-300.92273957315786,2.3167596197448024,0.007897062028251725,0.0004749551020699437,-0.02085071089819494,0.9997512984157675,0.19747012444340725,0.0033437231178142096,-0.00506960894799454,-0.001208030060120694,-0.009925482657746041,-0.0030677471591055846,0
2025/04/05 15:58:42.74960349,1743861522,73033766,piren,vessel_center,-238.24151372179145,-300.9270198780935,2.315720652608204,0.010266934618171082,0.0001962636062679821,-0.02085501889194792,0.9997297733493585,0.1974401969489236,-0.006547528549663053,-0.006804783795770662,-0.001526303002481547,-0.010693994478444668,0.0,0
2025/04/05 15:58:42.150471464,1743861522,146371967,piren,vessel_center,-238.23175693064536,-300.9344662245262,2.3132667174341885,-0.0049443926868284,0.00045873847423532623,-0.02040251237919015,0.9997795157076323,0.1972026092798842,-0.02238055397715457,-0.011506232441911011,-0.0014418096678779201,-0.010837703085066097,-0.0028785349901080523,0
2025/04/05 15:58:42.185040962,1743861522,183075780,piren,vessel_center,-238.21986536926966,-300.914791160224,2.32233785918755,0.004821134663730928,8.723506825147222e-05,-0.020407798858377655,0.9997801112226394,0.20057372607905108,0.023963229666515096,0.009999331349194672,-0.0018357306465805504,-0.0102847796193984,0.0,0
2025/04/05 15:58:42.224707374,1743861522,221398331,piren,vessel_center,-238.20937430753904,-300.91743718831106,2.3219934047268462,0.029094969844479877,-0.0004087505757564359,-0.020417248294807146,0.9993680261168975,0.2016852057701044,0.015428915773463947,0.00812664783008189,-0.0021433333651116973,-0.009220169460416303,0.0,0
2025/04/05 15:58:42.297971690,1743861522,294776638,piren,vessel_center,-238.1999939531481,-300.95981325479903,2.3033063421534683,-0.01505357831445962,0.00029622915753074475,-0.02077173294462847,0.9996708644042267,0.19963755650771872,-0.0805071571891402,-0.034329556927486474,-0.0018150518144599483,-0.007558841473632932,-0.01425899467457911,0
2025/04/05 15:58:42.337288834,1743861522,334996171,piren,vessel_center,-238.18764578540552,-300.9167359858912,2.3219848139550336,-0.001928378896904223,5.546115787429443e-05,-0.020991390763624176,0.9997777952088648,0.20481169267438873,0.02431721142593246,0.0110580704239066,-0.0018895438093860985,-0.0055140865368341506,-0.0025880165761431803,0
2025/04/05 15:58:42.408667250,1743861522,372830393,piren,vessel_center,-238.1776722115274,-300.90817129397476,2.3265068769122585,0.002582265478549197,-0.00011652970854822195,-0.020991560788376763,0.9997763113324366,0.2083699571257057,0.0411428496343889,0.020103646088272257,-0.0003683973726479972,-0.003154617620869324,0.0,0
2025/04/05 15:58:42.468285102,1743861522,449256875,piren,vessel_center,-238.15481262345833,-300.90798760760947,2.327276919032636,0.003284084835628338,-6.241908414925725e-05,-0.02068975855535769,0.9997805483112638,0.21101228021041152,0.03204082096995093,0.017168122884626782,0.00030931209762477877,0.0018548492615740257,-0.00233375041447566,0
2025/04/05 15:58:42.531922577,1743861522,529509859,piren,vessel_center,-238.14289504757943,-300.9105032114578,2.3264796653459774,-0.028096179909223952,0.0006071040905555839,-0.020768504649742097,0.9993892661589604,0.21395982118644952,0.022829396188899537,0.013462175121628676,0.0008123035334089902,0.004224366090523889,-0.0023120063035605835,0
2025/04/05 15:58:42.571756119,1743861522,569293756,piren,vessel_center,-238.1282033014208,-300.85884541591656,2.3465943476170135,-0.028428480548490922,0.0010333412927228812,-0.020765726160460775,0.9993795766957145,0.2214446557152087,0.13496050676421883,0.05658622548908597,0.0009575975391747533,0.006218112191858169,0.0,0
2025/04/05 15:58:42.646177131,1743861522,644283289,piren,vessel_center,-238.1140581498578,-300.821288998248,2.3609987152593197,0.029203061821251864,-0.00010984124342773224,-0.0207602905831732,0.9993578835682779,0.2286732159083613,0.20368279713088677,0.08241652952500084,-0.000613106460911123,0.007764822852031386,-0.0020794747602162697,0
2025/04/05 15:58:42.684742747,1743861522,682281211,piren,vessel_center,-238.10414692391902,-300.8908082864161,2.3306198258179456,0.0005755634333165643,0.0003229765814934794,-0.020754573967330627,0.999784382790758,0.224711337406211,0.026023987336066173,0.005531253135064432,0.0006259433291714859,0.008957919584391901,0.0,0
2025/04/05 15:58:42.759608173,1743861522,757696135,piren,vessel_center,-238.08022004971667,-300.89169493371776,2.3303568400243053,-0.002239843134315286,0.0004531181363736354,-0.020830710533221535,0.9997804055318195,0.22707931082695723,0.01816839007519787,0.003695923290117534,0.00012400016277766196,0.009927178239192175,-0.0015393236248129945,0
2025/04/05 15:58:42.835720348,1743861522,831304016,piren,vessel_center,-238.06773286272932,-300.8880303135206,2.3319158819241523,0.0335367994771814,-0.00035489907525327653,-0.020815394353748715,0.9992206345374238,0.22966638000480089,0.024299789505539713,0.006751433372131302,0.0012007341429397347,0.009628868076404533,0.0,0
2025/04/05 15:58:42.872293921,1743861522,869958656,piren,vessel_center,-238.05910090331176,-300.94414614175344,2.3060193678385565,-0.011102486449231145,0.0012067794337707607,-0.020927550224703495,0.9997186184720356,0.22789190906376006,-0.102783605873219,-0.05148774489495443,0.0019219508303118145,0.008472206691212784,-0.007095711160894949,0
2025/04/05 15:58:42.947253977,1743861522,944662894,piren,vessel_center,-238.0316310896127,-300.910204834577,2.3199237711941625,0.03391066784700841,0.000398246273009051,-0.021111300883470515,0.9992017919224743,0.23674499544620176,-0.01432126271033654,-0.013356077431541623,0.0011352947071169423,0.004803391118534186,-0.0010181794940866764,0
2025/04/05 15:58:43.44476146,1743861523,41867777,piren,vessel_center,-238.02001735763847,-300.9589312749113,2.297420790119363,5.746520352283025e-05,0.0011789149939599648,-0.0208661363773148,0.9997815817516698,0.23643591295108307,-0.12103879592887083,-0.061896764879876526,0.00046976194911959305,0.002493949011031359,-0.00034438317018006457,0
2025/04/05 15:58:43.87891300,1743861523,80429060,piren,vessel_center,-238.00514826706106,-300.9375848617278,2.307085581833622,0.03073555555054104,0.0006093113870650407,-0.020894551662486296,0.9993089472607843,0.24244869163233032,-0.05975710695333861,-0.03333963187975753,-0.00012284071689217275,7.53809348013892e-05,0.0,0
2025/04/05 15:58:43.123244931,1743861523,121138825,piren,vessel_center,-237.99310365315932,-300.9725425536797,2.29113234339038,-0.001838342888280887,0.0012285608200027663,-0.02086349945578229,0.9997798885375697,0.24212085409499193,-0.13079367991640525,-0.06507927621108107,0.0003628267335172013,-0.002407859358080529,0.0,0
2025/04/05 15:58:43.197573879,1743861523,195057344,piren,vessel_center,-237.97835627038287,-300.9434935763244,2.3042748008894094,-0.019296481957546786,0.00166028775265523,-0.020773648368055276,0.9995965910116545,0.24713080969338533,-0.05123250867950434,-0.028406694301551363,0.0008198181353835748,-0.004801580181088013,0.0009397412327548381,0
2025/04/05 15:58:43.237852518,1743861523,234938407,piren,vessel_center,-237.963006853766,-300.8929127518498,2.3255599388037913,0.005690830703661469,0.0008087004342952147,-0.02074745601414346,0.999768224899377,0.2538856017402622,0.06687908834164784,0.022054603138527556,-0.0001696445218596548,-0.0067431091171110385,0.000978592179623063,0
2025/04/05 15:58:43.274921828,1743861523,272923009,piren,vessel_center,-237.9503888937726,-300.89909368589474,2.3238419550753617,0.0040870940489219545,0.0007203246778449182,-0.020747350900069562,0.9997761370553025,0.2530912445235344,0.04554534143785542,0.015731263337242767,0.00017600662043790798,-0.00821814694059907,0.0,0
2025/04/05 15:58:43.349853564,1743861523,346475764,piren,vessel_center,-237.9379202547729,-300.90145781489525,2.3236737628412065,0.0032701846611904693,0.0007739752737744575,-0.020718979292209883,0.9997796911078192,0.25272702440042843,0.03523537620940271,0.013611693533628627,-0.00027535651266330323,-0.009250886310467792,0.0015728844063103294,0
2025/04/05 15:58:43.386631939,1743861523,383987056,piren,vessel_center,-237.9247147633443,-300.9022778094574,2.3240984167305165,0.003745422561078514,0.0005231768966720973,-0.020720326162293915,0.9997781584829217,0.25304343324389716,0.029365215683265083,0.012991806921685283,-0.0004819697998185039,-0.0097079129915827,0.0,0
2025/04/05 15:58:43.424526828,1743861523,422760537,piren,vessel_center,-237.9120804549338,-300.9041954205519,2.3239957147320514,-0.0027370645357817965,0.0006230513797142101,-0.020715268886741557,0.999781475083258,0.25285318537087276,0.021822751955051095,0.011312131584810476,-0.0025598454052892946,-0.009590135271486075,0.0,0
2025/04/05 15:58:43.500048842,1743861523,497005925,piren,vessel_center,-237.89876538929173,-300.89518394297875,2.32842800256359,-0.030154024128928463,0.0010235074699609956,-0.02037818021659354,0.9993369887241996,0.25376947455806653,0.039421477087853526,0.019902249939834978,-0.0013419849894847978,-0.008809364751821619,0.010804152309832287,0
2025/04/05 15:58:43.539153186,1743861523,536754362,piren,vessel_center,-237.8835745817886,-300.8426899429748,2.3492262555133507,0.0034989103427347573,0.0001197636621125073,-0.020180788022971376,0.999790217534584,0.258981910400098,0.15190335474540018,0.06398469634899195,-0.0010571019237472854,-0.0075175886252330645,0.0027491234582393423,0
2025/04/05 15:58:43.577934976,1743861523,575655587,piren,vessel_center,-237.871140382781,-300.8625231383032,2.341918927501902,0.030678968849808644,-0.0005459941078560432,-0.020181980817544184,0.9993253676411037,0.25725885372062285,0.09060352163737673,0.040490554385457164,-0.0025373413995072557,-0.005744818483110366,0.0,0
2025/04/05 15:58:43.616366756,1743861523,614426879,piren,vessel_center,-237.86198366135022,-300.9228213938204,2.3155765452550754,0.023761343447832626,-0.0004077312839127861,-0.020188778031610836,0.999513704535533,0.2543358484402233,-0.05160746860969981,-0.021719101488224597,-0.0038717180024338688,-0.0036558282498774953,0.0,0
2025/04/05 15:58:43.695521123,1743861523,689887678,piren,vessel_center,-237.8494341518864,-300.9541379367008,2.3024372478483173,0.003121667232092073,6.286739559393232e-07,-0.020052220366921353,0.9997940606203127,0.2534173109173934,-0.11536412387722508,-0.04846157734637157,-0.001142951333302676,-0.001421369383206609,0.01760996003015268,0
2025/04/05 15:58:43.733585910,1743861523,731705215,piren,vessel_center,-237.83479569784507,-300.94190379423753,2.3085951591339327,-0.028038409315173252,0.0007676591805090509,-0.019719283685759904,0.9994120312230477,0.25767167597259677,-0.07530046724928058,-0.029367909167982348,-0.0006456777742019598,0.0008245558096661338,0.0037407510501923516,0
2025/04/05 15:58:43.773318065,1743861523,771129125,piren,vessel_center,-237.81730646406362,-300.879929908408,2.3336659146786265,0.02307165875126112,0.00018489495570287728,-0.019738793034459926,0.9995389159136644,0.2663324676746014,0.07128452430665685,0.029802929603344477,-0.003989915690334063,0.0031043337854009677,0.0,0
2025/04/05 15:58:43.850792438,1743861523,848651730,piren,vessel_center,-237.79035215032036,-300.91817315519984,2.3171927095482117,0.007416651863422363,0.00021634044650776962,-0.019997563326324373,0.9997724960874639,0.26653155197507195,-0.029692107463188108,-0.013490181641018818,0.00010423806254603087,0.006852199561034383,0.004625323059990149,0
2025/04/05 15:58:43.926550511,1743861523,922848920,piren,vessel_center,-237.7763119614083,-300.9217672401244,2.3160776431559054,0.00036590055760380694,0.0005421274454626815,-0.019995460529839436,0.9997998568577685,0.2681395956159121,-0.034382831376842546,-0.01447042596365439,-0.0004939543324461472,0.008030680438075618,0.0,0
2025/04/05 15:58:44.3114193,1743861523,999845303,piren,vessel_center,-237.74765994128146,-300.91240603558407,2.3199000986450504,0.017456658999865548,0.00018550038853428204,-0.018839184992253868,0.999670103461635,0.2713795594932207,-0.005826970831094402,-0.002713098537573769,-0.00047986798507722956,0.00892209620110921,0.02432356056373251,0
2025/04/05 15:58:44.77944806,1743861524,74524990,piren,vessel_center,-237.73380033463621,-300.9322144509849,2.310691906053222,-0.0012400574678318116,0.0008167527468034238,-0.019029699701280735,0.9998178162553947,0.2713692041405465,-0.049201974152538124,-0.022876022884729223,0.0001908215471652303,0.00861211004331346,0.028810567213105442,0
2025/04/05 15:58:44.152948975,1743861524,150076234,piren,vessel_center,-237.7178420713285,-300.9146201063634,2.3177863723597323,-0.018895970397012386,0.0011928700927767513,-0.01867802665777364,0.9996462627769228,0.27662086521986556,-0.0046204169304017995,-0.004561551188426067,0.0025153022184303273,0.007796464228750201,0.005984038000861419,0
2025/04/05 15:58:44.192131406,1743861524,188188061,piren,vessel_center,-237.70081486190236,-300.8715841967012,2.334706912159798,0.0038298185377933585,0.0008308507465499173,-0.018699280324266813,0.9998174728881063,0.28314426951183114,0.09155074449704455,0.03356110211365293,0.002171364142677544,0.006545209336638972,0.0,0
2025/04/05 15:58:44.233602567,1743861524,230126146,piren,vessel_center,-237.68767927715504,-300.8793660773913,2.331201254290572,0.02989914997989144,0.0003474137938813226,-0.019396611923465663,0.9993646439513588,0.2862111763342681,0.06580915184677008,0.022673546942534296,0.0006885583395664966,0.0049468922398382305,0.00693237026628877,0
2025/04/05 15:58:44.271013636,1743861524,269222824,piren,vessel_center,-237.67435157818863,-300.9272944644808,2.3090545229316652,-0.0018084612358437626,0.0010084312582238305,-0.019376043234596563,0.9998101227147718,0.28278811359311923,-0.04831242606987858,-0.029166601709190915,0.0009066710417007279,0.0030617891429823734,0.0,0
2025/04/05 15:58:44.348715235,1743861524,345626449,piren,vessel_center,-237.64453576361635,-300.90905543084733,2.3165094167666047,0.0028733722081703806,0.0009683242858697068,-0.018977183484868234,0.9998153192401147,0.2853638600373642,-0.0021659827628808317,-0.008407861392110024,0.0021915704842021995,-0.0011121288452247556,0.006824442068033258,0
2025/04/05 15:58:44.422650541,1743861524,420649162,piren,vessel_center,-237.6292409595781,-300.8995192852509,2.3210934237469965,0.001096439611161901,0.0006136852867627062,-0.018975183994004743,0.9998191654509038,0.2876388699062545,0.01791807650452041,0.0020256158671898812,0.0009811154232720078,-0.002944963979602459,0.0,0
2025/04/05 15:58:44.497789226,1743861524,495657913,piren,vessel_center,-237.61503072875732,-300.89381128831525,2.3236009781222258,-0.00014196372572225366,0.0007361060463774685,-0.01805119240874137,0.9998367829034956,0.28666008998502546,0.028577584608274385,0.007370267032544245,0.0007279003850166661,-0.004605390168726613,0.0406113845142317,0
2025/04/05 15:58:44.538157950,1743861524,535344870,piren,vessel_center,-237.60005740140778,-300.88791813877566,2.326246806216822,0.02448071610373321,0.0003136569679265251,-0.017413236741785118,0.9995485857848679,0.2881918945221059,0.03851155161564759,0.012435056806405623,0.0008116453084436999,-0.00604752714336501,0.007937052766389592,0
2025/04/05 15:58:44.577241595,1743861524,575184943,piren,vessel_center,-237.58598459603593,-300.9248696886634,2.309832132958674,0.003070586830359259,0.0004616703828899321,-0.017402951132186747,0.9998437356151538,0.28683338752018694,-0.04801015986754452,-0.025470405095910892,0.0011267525224009298,-0.007097398232113944,0.0,0
2025/04/05 15:58:44.652828595,1743861524,650931399,piren,vessel_center,-237.55621971845537,-300.917956020187,2.3132652319045035,0.02957778937280928,-0.00023227329582519444,-0.018196373012882665,0.999396814300561,0.28802335878153823,-0.021768340912285442,-0.01207034825669024,-0.0012192235455864239,-0.00778542115611475,0.008211531898486992,0
2025/04/05 15:58:44.732669373,1743861524,728010401,piren,vessel_center,-237.5433852324846,-300.9551723919899,2.2966664881457604,-0.00763682083349791,0.00039859989294755436,-0.018189790947506425,0.9998053068427715,0.28302049270857876,-0.10195174630925963,-0.04755776201630188,-0.0012658782060975741,-0.007436515142446411,0.0,0
2025/04/05 15:58:44.770159223,1743861524,767613678,piren,vessel_center,-237.52985352640155,-300.9193654666594,2.31268235816995,-0.024627450476275077,0.0005670841656231372,-0.01744609623335137,0.9995442965795985,0.28726201084016334,-0.013066113459217252,-0.007622062717103237,-0.00026514268732524577,-0.006636858639929941,0.04221859792339409,0
2025/04/05 15:58:44.846462806,1743861524,843824216,piren,vessel_center,-237.51277951546243,-300.86552146896463,2.334939549570798,-0.02627312238052203,0.000577878324680831,-0.016515980934589586,0.9995181896647947,0.29340895362774966,0.10805439258997478,0.042690721130007624,0.00010401462741866158,-0.005482360448031714,0.008616339343563865,0
2025/04/05 15:58:44.884227720,1743861524,882191671,piren,vessel_center,-237.4945246881861,-300.8241429080383,2.3519482958085884,-0.016012934187130297,0.0003580031132197501,-0.016518312406631465,0.9997352665219561,0.2980310926278434,0.18677739315585323,0.0752613583087243,-0.0008172670644551565,-0.00400543777749437,0.0,0
2025/04/05 15:58:44.927554862,1743861524,924459537,piren,vessel_center,-237.47887099222012,-300.81302530171746,2.3572572243859415,-0.01942392615794701,0.00043060745037361444,-0.01651439262402528,0.9996748473909375,0.29979815035983387,0.19079070894504194,0.07872141204466454,-0.0011734994593042157,-0.002360761417123741,0.0,0
2025/04/05 15:58:45.5944100,1743861525,2084819,piren,vessel_center,-237.44851634280909,-300.7934733707962,2.3655437222237015,-0.007373507183180441,0.00023636999234361405,-0.015529037093429085,0.999852201341777,0.29984350301931495,0.1913403357772041,0.07943547474207657,-0.0011714969227693797,0.0012334782698675626,0.04463920417739134,0
2025/04/05 15:58:45.81214765,1743861525,79235067,piren,vessel_center,-237.43351213821953,-300.80724963386683,2.3604274014098805,0.021089512974584414,-0.00031576401424244344,-0.01603906489245501,0.9996488789234738,0.29919835165028413,0.13903083723084828,0.05905906741785858,-0.002014924932746784,0.003027246878231269,0.04701263679091992,0
2025/04/05 15:58:45.158704825,1743861525,156497173,piren,vessel_center,-237.40434337251912,-300.86525004242395,2.33569795248218,-0.029865503263250954,0.0005869588205837759,-0.015299480951037078,0.9994366578612196,0.29725405966955804,-0.0047358337503737025,-0.0021942051694540943,-0.0009161864378058944,0.005983517457492109,0.009370564938628359,0
2025/04/05 15:58:45.235865298,1743861525,233172932,piren,vessel_center,-237.3842114704598,-300.7882573190683,2.365414898698514,-0.02804226482654552,0.0006013381688454622,-0.01640593806266332,0.9994719180507718,0.3083114270449414,0.15586662854166214,0.05980637742106156,-0.00040283688884975796,0.00697579529434048,0.009565245221125724,0
2025/04/05 15:58:45.274182406,1743861525,272250221,piren,vessel_center,-237.3680300245373,-300.76818730092555,2.372981745319974,0.0002851345026368235,0.00015079419841979345,-0.0164162835779947,0.9998651917098185,0.30926473136075855,0.1827730406055253,0.06983246912321842,-0.0007331794895820094,0.007593885596114299,0.0,0
2025/04/05 15:58:45.351854171,1743861525,348447130,piren,vessel_center,-237.353896711058,-300.80210767370625,2.359539235681586,0.001757616919649277,0.00016999665566708178,-0.01638661558745467,0.9998641711320042,0.30641307852749833,0.08711994251566473,0.03221359299007641,9.316926219191499e-05,0.007779625231835078,0.00958335786013704,0
2025/04/05 15:58:45.389331237,1743861525,387274627,piren,vessel_center,-237.33886215121436,-300.8286746256839,2.3487470397816486,0.02985440456506571,-5.365791246449039e-05,-0.01638040435437177,0.9994200288177545,0.30422084058589005,0.017950949753822054,0.004484487553685346,-0.000621394738371448,0.007426618853412324,0.0,0
2025/04/05 15:58:45.431467563,1743861525,429244767,piren,vessel_center,-237.32736928709528,-300.89413000605884,2.319673989994803,0.021132701542378833,9.067757804579961e-05,-0.01608885581315767,0.9996472124813439,0.30308007935800557,-0.12910087075397306,-0.06052491530505609,-0.0006482846943482276,0.006657102283955882,0.011604661689899327,0
2025/04/05 15:58:45.471969442,1743861525,469656621,piren,vessel_center,-237.31144156051425,-300.9260060031761,2.3058182214831664,-0.031047605891763266,0.000991695738022164,-0.01606916067854974,0.9993882352634736,0.30369215443977277,-0.18513506993840556,-0.08437571618496552,0.0010698303363948602,0.0055278844346595525,0.0,0
2025/04/05 15:58:45.551097167,1743861525,546748468,piren,vessel_center,-237.2775911209745,-300.8656295975737,2.32925091862451,0.029042131969713336,0.0001773891399763026,-0.015567327364797316,0.9994569432559184,0.31087176292624,-0.009459465694635516,-0.013387973668756076,0.0004999174209878549,0.0024110846124307766,0.00955070715242568,0
2025/04/05 15:58:45.627956145,1743861525,624260169,piren,vessel_center,-237.26265248768806,-300.91597078643304,2.3073067027199206,-0.0025821657516169306,0.0006356986759481941,-0.015554093779872371,0.9998754914857707,0.309596451135394,-0.12029521388540153,-0.06067488985504565,0.0010302062726318425,0.000585504097375334,0.0,0
2025/04/05 15:58:45.705798653,1743861525,702828214,piren,vessel_center,-237.23045797870301,-300.90315293299875,2.3133672939358956,0.0030381037589682133,0.0007731597768746847,-0.013142766630816758,0.9999087157509915,0.311760511514285,-0.06483992033804489,-0.033603316616570185,0.002568778198109181,-0.0032379940944623807,0.05150958387554984,0
2025/04/05 15:58:45.784784938,1743861525,780521271,piren,vessel_center,-237.2134441534812,-300.89886127242414,2.3161096591032444,0.029036027932469476,7.155256431283264e-05,-0.014001497605072612,0.9994802959673346,0.314013014842726,-0.04790339020069033,-0.023674071597848796,0.000797347147113966,-0.004829573128551415,0.04289845465376648,0
2025/04/05 15:58:45.860547169,1743861525,858879273,piren,vessel_center,-237.18228877986442,-300.9404915135597,2.297799491690381,-0.028013395305252063,0.0008211530774743878,-0.013300912789625707,0.9995187147372768,0.3128932449847524,-0.1296959355506714,-0.05906507244395233,0.0022581208188940964,-0.006928787558540316,0.009817438190611613,0
2025/04/05 15:58:45.940339872,1743861525,936682353,piren,vessel_center,-237.1637716748578,-300.87292922047885,2.325826819660918,-0.025992908806735163,0.0008651370141534812,-0.014248486360748628,0.9995602037226868,0.3189514240665402,0.03501153351317052,0.009851930899438019,0.0026046875947552364,-0.007509886796209412,0.009715738437301405,0
2025/04/05 15:58:45.999116518,1743861525,996540072,piren,vessel_center,-237.13194707737594,-300.8274142248888,2.3450318610017513,0.004975224102543484,9.895266977416095e-05,-0.014270160544887,0.9998857934141888,0.3229974369943419,0.1288529528033906,0.05047723100196289,-0.000532960285535218,-0.007109983776190859,0.0,0
2025/04/05 15:58:46.76906636,1743861526,74345461,piren,vessel_center,-237.1167668985167,-300.84878064537673,2.3377377782774844,-0.02922583322963467,0.0005434169650997407,-0.013275411716382733,0.9994845265504595,0.32011752799462545,0.06667894157308192,0.028515657397371927,0.0005203948884019473,-0.006331501993124954,0.048865477467931004,0
2025/04/05 15:58:46.158127937,1743861526,154543923,piren,vessel_center,-237.0826960151523,-300.8047896641611,2.3558753530159793,0.027375028214240694,-0.0004423617770994638,-0.012244964237791308,0.9995501353094516,0.3237982074336286,0.14944262478929893,0.06240889846339147,-0.0022729599197132853,-0.003682759877832006,0.009637308665983262,0
2025/04/05 15:58:46.235231752,1743861526,232494083,piren,vessel_center,-237.06704184761048,-300.8709528470171,2.328190513255983,0.02803156182508232,-0.0005085313132065701,-0.013385704945212006,0.9995172814117171,0.3208072899762327,-0.015047569382750148,-0.006404851519460977,-0.0025375015480376692,-0.0019162536571986535,0.009297508152609943,0
2025/04/05 15:58:46.274781285,1743861526,272520915,piren,vessel_center,-237.05249197198663,-300.919795596637,2.307646780991521,-0.027712684576951037,0.0002244264136552273,-0.013393536566068785,0.9995261727061362,0.3167772256822899,-0.12191162015660657,-0.051344320991354976,-0.0005959974448054359,-6.261283955477023e-05,0.0,0
2025/04/05 15:58:46.351856084,1743861526,350102182,piren,vessel_center,-237.0188220509711,-300.8646555552676,2.3305358842721313,-0.0013086309967430868,-5.323380794969662e-05,-0.013143259488546947,0.9999127658856511,0.32059408307875387,0.027965290669180895,0.011036256428421293,-0.0026426676534853488,0.0035419079019509557,0.009847236013267216,0
2025/04/05 15:58:46.430405123,1743861526,427121179,piren,vessel_center,-237.0024159057592,-300.86508743209635,2.3316101650800323,-0.023476316206410094,0.0002488460669670536,-0.013146830531966905,0.9996379151972855,0.32151994237040055,0.023905588200750637,0.0122005116994718,0.0005868157632339001,0.005015278326344587,0.0,0
2025/04/05 15:58:46.506856703,1743861526,504665493,piren,vessel_center,-236.96846331979725,-300.82636734004666,2.3473678169787453,0.029960487820019536,9.255432312318425e-05,-0.011191739572991752,0.9994884219282453,0.3249671770891608,0.1046044442405219,0.04448836657825485,-0.0021959407770691477,0.006612820472615226,0.042548125383540754,0
2025/04/05 15:58:46.586383013,1743861526,583619223,piren,vessel_center,-236.95186836989248,-300.88860970452083,2.3200544989408645,-0.028083654385344107,0.0007008025007604398,-0.011485739450768044,0.9995393414075749,0.3247448021772014,-0.04567419510017309,-0.021295711552216864,-0.0002904662420805829,0.006835553018834633,0.051165646203407564,0
2025/04/05 15:58:46.629072754,1743861526,625221355,piren,vessel_center,-236.9322835663858,-300.8357076574286,2.3413382799304254,-0.004952769765481241,0.00047684883275533175,-0.011500351247217308,0.9999214892220446,0.3322139747895106,0.07697650456848357,0.028373871960014473,-0.0016130470848354204,0.006789577887334511,0.0,0
2025/04/05 15:58:46.707728310,1743861526,704731155,piren,vessel_center,-236.90045667967658,-300.8343938617274,2.342343859905505,-0.016061508904795362,0.0007682916471304345,-0.01057272134953018,0.9998148104638735,0.3358920653107815,0.06435696786966225,0.024881020133458196,0.0009435791231709003,0.005420574922495142,0.04796392210926129,0
2025/04/05 15:58:46.784867945,1743861526,782782641,piren,vessel_center,-236.88123393189605,-300.81683050977506,2.3495560291248507,-0.0014867327104819148,0.0006427649854326988,-0.01088828330575061,0.9999394090472057,0.34054074767661846,0.09609646131111738,0.03808972467049688,-0.00042507490263667423,0.004296662522104063,0.05026667173493624,0
2025/04/05 15:58:46.826662546,1743861526,823683358,piren,vessel_center,-236.86271843891416,-300.82898817060607,2.3447759031094546,0.002238849762841069,0.0005762575210545222,-0.010890221875068724,0.9999380273529559,0.3439429149164424,0.05842359894172666,0.02324358250290682,0.000980896911839406,0.002902152440212398,0.0,0
2025/04/05 15:58:46.905996368,1743861526,901961232,piren,vessel_center,-236.82854787141403,-300.84201115876647,2.339380776035847,-0.00014065545344397464,0.000558630681655916,-0.009738970275202707,0.9999524091704484,0.3428296820539343,0.016387973681776274,0.006044270750786781,0.0009297569971303968,-0.00018261761115912644,0.04794194441029238,0
2025/04/05 15:58:46.985700749,1743861526,982844075,piren,vessel_center,-236.81106929290672,-300.84957953601344,2.3363053084286327,-0.010248249145114179,0.00037265733632684293,-0.010458221865951616,0.9998927243016482,0.34260239736493064,-0.0023078239919868057,-0.001482775755776414,0.0014306870129343764,-0.0016065680953759617,0.04081787381575394,0
2025/04/05 15:58:47.26018173,1743861527,23289281,piren,vessel_center,-236.7935648649077,-300.8380764039915,2.341007435608186,-0.01860897271956201,0.00045789284352171363,-0.010452126959942715,0.9997720987857581,0.3435632091049,0.023512997871102996,0.009131721057258376,0.0009374309969122187,-0.002861801263584504,0.0,0
2025/04/05 15:58:47.105407670,1743861527,101619047,piren,vessel_center,-236.75945325120207,-300.8152221605591,2.350115592842219,-0.011249732463498351,0.0006075207835019882,-0.009334204576784865,0.9998929678035126,0.34237479560124473,0.06903624532028522,0.02732777078505147,0.0017614093041895657,-0.005133790895238048,0.04407688565495198,0
2025/04/05 15:58:47.182029218,1743861527,179270233,piren,vessel_center,-236.7420544973209,-300.8125844175313,2.351455981856477,-0.026895259213115495,0.0005532940707038013,-0.00979129168561718,0.9995901507641308,0.34209259023784844,0.0670444764033619,0.02719778216908327,0.0028753710597597716,-0.005827348412503241,0.04741555080505555,0
2025/04/05 15:58:47.223134973,1743861527,220604104,piren,vessel_center,-236.72413357408848,-300.7846551640963,2.3622572043862977,-0.02889466037310646,0.0006157824761155105,-0.00978004026655325,0.9995344267338918,0.3440771354917159,0.12170755721895155,0.04819747198250186,0.002209814354299925,-0.006176458606174298,0.0,0
2025/04/05 15:58:47.303210014,1743861527,299887318,piren,vessel_center,-236.68950386991898,-300.75806121909676,2.372656969250364,0.00640778983015468,8.876391991063809e-05,-0.00852423612711623,0.9999431332575409,0.34325670182447526,0.15330119613809082,0.06041611836376257,0.0008705971199409474,-0.005706414878178424,0.04878630740352191,0
2025/04/05 15:58:47.380377933,1743861527,378275665,piren,vessel_center,-236.67356757877718,-300.80392700932856,2.3547047155793566,0.018215745446812325,-0.00016194616979059776,-0.00920339974427529,0.9997917072192598,0.33982301029334383,0.034012375490783675,0.013678759031333268,-0.0004193772557113387,-0.004929076108203759,0.048789552385013195,0
2025/04/05 15:58:47.459930538,1743861527,457256610,piren,vessel_center,-236.63987139434633,-300.85598364048235,2.333353885531629,-7.685785952374696e-05,-5.8034790094157864e-05,-0.008496980658806615,0.9999638953704861,0.33858033986994074,-0.08930562974023806,-0.03683887442497668,-0.00014479237312923232,-0.0025625126860919084,0.008992118738861207,0
2025/04/05 15:58:47.539043074,1743861527,535988967,piren,vessel_center,-236.62211371258172,-300.8639852621754,2.331017686822013,-0.0009876684566540814,-2.3831604494912747e-05,-0.009673678567827105,0.9999527208253602,0.3402793054454831,-0.09712763268844347,-0.037921841962043214,-0.000698894374192927,-0.0011418188276522848,0.008543620791616025,0
2025/04/05 15:58:47.578382981,1743861527,576470803,piren,vessel_center,-236.60494263045487,-300.86784160388606,2.330104730746293,0.012039321788581818,-0.00010125018692150325,-0.00967294240771384,0.9998807322198222,0.33984365323710775,-0.09468104635798219,-0.03564937996665055,-0.0017697834025153306,0.00030922334031229664,0.0,0
2025/04/05 15:58:47.657204208,1743861527,655235916,piren,vessel_center,-236.57289460229413,-300.89414382784565,2.319296919138959,0.024776123536493673,-0.00010129316157781583,-0.009508062586856922,0.9996478030726843,0.342285313934485,-0.1339755272497768,-0.05245484527541781,-0.0008893346355932074,0.0029491605561618693,0.008635944633330679,0
2025/04/05 15:58:47.737362338,1743861527,734754830,piren,vessel_center,-236.55494925287942,-300.93053109267765,2.303064105740282,0.03093719288277128,-7.339405073808892e-05,-0.009156692632664847,0.9994793843245985,0.3443012569844539,-0.20002318387828374,-0.08272859939485745,-0.001630437024152734,0.003987236112798352,0.008572979061748549,0
2025/04/05 15:58:47.777936057,1743861527,775643188,piren,vessel_center,-236.53647488591977,-300.9658859061474,2.2867524349164663,0.00074285178268801,0.00033852642916729547,-0.009154654983146127,0.9999577620395901,0.34633993790573625,-0.2559319430848972,-0.10960632648239074,-0.0012582830403001207,0.004717277611413421,0.0,0
2025/04/05 15:58:47.820773129,1743861527,817625613,piren,vessel_center,-236.517233910713,-300.9399170933133,2.298306949095951,-0.0284904569409588,0.000606980041870833,-0.009148158628753655,0.9995520179721651,0.35075965608937154,-0.1698794302597434,-0.07179076086130853,-0.0005249383619416452,0.0051717651662557,0.0,0
2025/04/05 15:58:47.901390498,1743861527,899008832,piren,vessel_center,-236.4793338734618,-300.8760071927129,2.3236704426576757,-0.030185239461330397,0.0007333698107056003,-0.007182562255360866,0.9995182461000054,0.35565722186818205,0.010587270935275284,0.0008186986644872912,-0.0008687746732051116,0.005113815936982525,0.04324097724117844,0
2025/04/05 15:58:47.981650412,1743861527,979823009,piren,vessel_center,-236.45909673493063,-300.82051433168306,2.345627117952706,-0.004191156852335339,0.0008426704563916002,-0.00783757665702931,0.9999601474573306,0.3602173004216182,0.13271747382691507,0.049524555616573825,-0.0008346240823009489,0.004531346237323242,0.038327486200831526,0
2025/04/05 15:58:48.23893119,1743861528,20857086,piren,vessel_center,-236.43933947490547,-300.8250625341919,2.344499301837358,0.014138855729161438,0.0007005300261953198,-0.007849158363206675,0.9998689877825704,0.36415657822515174,0.10788192250893194,0.04152243950525725,-0.002203076549759101,0.0036439613645660035,0.0,0
2025/04/05 15:58:48.105274881,1743861528,100394177,piren,vessel_center,-236.4029341839211,-300.8555180839632,2.3317026960825267,-0.019274322490604727,0.0009360607103427822,-0.006528880582248746,0.9997924774678081,0.3634954937406745,0.016028873754658043,0.0037809467891271945,0.00016837041700498243,0.001302320921015334,0.04583080820027355,0
2025/04/05 15:58:48.181795777,1743861528,180079205,piren,vessel_center,-236.38323850457024,-300.82521536752904,2.344118692782514,0.019028419328435915,0.00035704312204547483,-0.007435245023855976,0.9997912326628523,0.3660768271310643,0.08156109482433754,0.030947393073346794,-0.0012663037354245631,0.0002191685523969438,0.029577856840489934,0
2025/04/05 15:58:48.224412678,1743861528,221360531,piren,vessel_center,-236.36513330218773,-300.86791354122704,2.3260792697956094,-0.02735460501179963,0.0006716871461699374,-0.007410367398465705,0.9995980996760878,0.3651238915774228,-0.022510554105747302,-0.012626456610449543,0.0012371174821703772,-0.0008207778425322104,0.0,0
2025/04/05 15:58:48.303884933,1743861528,300479066,piren,vessel_center,-236.3279906997644,-300.8213996536818,2.34461099241541,-0.011525771053343457,0.0002922377655779431,-0.006027363409956608,0.9999153674631862,0.36530089517552816,0.08594428763226465,0.031408564424435445,0.0008899511024080676,-0.0024646995028568086,0.045132353713898836,0
2025/04/05 15:58:48.381361920,1743861528,379458593,piren,vessel_center,-236.3098386255659,-300.8144041793145,2.348255277098127,0.02053186168552201,6.792981528055695e-05,-0.0066767136690619785,0.9997669026007254,0.3637779080855807,0.0916419928685173,0.03590840093016718,-0.00014580869950362718,-0.0030673729578654637,0.04391377562959769,0
2025/04/05 15:58:48.461021365,1743861528,459130675,piren,vessel_center,-236.27368296305593,-300.8607230029709,2.328888937930014,1.7984166712003915e-05,0.0005076933714101204,-0.006077737450841997,0.9999814013427895,0.36260982366204636,-0.03186053608005744,-0.015189444838929922,0.000847429928372347,-0.003780573762391034,0.007875809974641242,0
2025/04/05 15:58:48.540780786,1743861528,539083892,piren,vessel_center,-236.25679711895447,-300.86318384546394,2.3288916177402337,-0.02974491371914834,0.0006901701138537559,-0.007177250060656692,0.9995315156885356,0.368079434092624,-0.03451298428622061,-0.013840489498857855,0.0015986292437030964,-0.004001720379570994,0.009228020790417343,0
2025/04/05 15:58:48.583058649,1743861528,581249293,piren,vessel_center,-236.23648813222792,-300.81474641910074,2.3482171679715536,-0.0021471432672501324,-1.9267247707830553e-05,-0.007194246997244143,0.9999718157101758,0.3707049462005443,0.07712829094584782,0.03071025756402792,0.000482998754511017,-0.0037386004296999418,0.0,0
2025/04/05 15:58:48.626543086,1743861528,623003461,piren,vessel_center,-236.2188209620813,-300.8271663116697,2.3441392288583653,0.028968685644174746,-0.000302499636873314,-0.007193086009497903,0.999554392346749,0.36885896676653823,0.04097145652235673,0.018241236394622384,0.0001552181184144417,-0.003212151925982634,0.0,0
2025/04/05 15:58:48.708685558,1743861528,705061191,piren,vessel_center,-236.18286346119748,-300.8865495152925,2.3185757026332605,-0.031109103433713148,0.00016581690830139628,-0.005319418405922218,0.9995018258993458,0.3644569970404063,-0.1007149373705942,-0.0428908176371532,0.001027452073835054,-0.0018188155292799817,0.03949996692610134,0
2025/04/05 15:58:48.787266326,1743861528,784808850,piren,vessel_center,-236.163516938681,-300.82994656451643,2.341488453703667,-0.0259572575983221,0.0004006653070802601,-0.006069732180223248,0.9996445461245445,0.36617161846531865,0.0365193571581586,0.012901695637868145,0.002336294268505194,-0.0010510453408040421,0.030467647001721974,0
2025/04/05 15:58:48.829762663,1743861528,826735495,piren,vessel_center,-236.1436580010476,-300.7981101822263,2.354855544995444,0.03184138385737375,9.837499988622355e-05,-0.006084789711385819,0.9994744078417291,0.36912113847586164,0.10316679390271026,0.041158353198637365,0.0004291034936958642,-0.00030094932422778997,0.0,0
2025/04/05 15:58:48.911865160,1743861528,907771232,piren,vessel_center,-236.10724302015984,-300.8688405792948,2.3245317345115435,0.007006674090167979,0.0002783633845862382,-0.005121434245753393,0.9999622992609706,0.36724529538698786,-0.07719650123917736,-0.03547851711255842,-0.0007576376898872796,0.0011498085570036485,0.03578032872284482,0
2025/04/05 15:58:48.991982142,1743861528,989884538,piren,vessel_center,-236.0879829860378,-300.88225889681064,2.3203431515308752,-0.004350661833749862,0.00047108249324324806,-0.005753303733549699,0.9999738743182456,0.36841573688245716,-0.09826705229197605,-0.04076545296896438,-0.0013723654553528387,0.001763089933285066,0.026228177709176032,0
2025/04/05 15:58:49.35056954,1743861529,33209822,piren,vessel_center,-236.06815502635962,-300.87231984343873,2.3255413640465523,0.026765456473189658,0.00021923515085755493,-0.0057601646950329955,0.9996251211221218,0.3716198705119268,-0.06527875146998657,-0.024691198060039783,-0.0019337110194450563,0.0022966082429988956,0.0,0
2025/04/05 15:58:49.77163598,1743861529,74877971,piren,vessel_center,-236.04895049105085,-300.9164903019978,2.3063611080992703,0.021342884293703273,0.00019334312936133456,-0.005596570978656743,0.9997565315124182,0.3722054823737835,-0.15605557687781574,-0.06452350174883212,-0.002356984322821014,0.002691282220038165,0.03550598297319347,0
2025/04/05 15:58:49.145267468,1743861529,141745938,piren,vessel_center,-236.02989689079098,-300.9385553867683,2.297067639047684,0.0289013956792867,0.0001383998796145455,-0.005007384877275169,0.9995697155626283,0.37310653027084295,-0.18772955852064105,-0.07799827928098037,-0.0016976199207842093,0.0030097957474535435,0.006882059528170884,0
2025/04/05 15:58:49.184923959,1743861529,182867823,piren,vessel_center,-236.01030853955422,-300.96605056241975,2.284702383582322,0.026179584835896684,0.0002664423575553883,-0.005005932816553813,0.9996446863675746,0.3744101394570634,-0.22758802972784897,-0.09665121283648898,-4.9672442259101806e-05,0.003039555467923396,0.0,0
2025/04/05 15:58:49.233745494,1743861529,224812969,piren,vessel_center,-235.9929618062772,-300.97879873984874,2.2789831047907563,-0.0012099892438419903,0.0005006175898859874,-0.00499678173941371,0.9999866586511578,0.3792396234451644,-0.23542133785913383,-0.10065660503963013,-0.0014129720773829178,0.002908179196471199,0.0,0
2025/04/05 15:58:49.270183660,1743861529,267528263,piren,vessel_center,-235.97181413318577,-300.94302985347815,2.2949589948285514,-0.016280717435046287,0.0007308363931254442,-0.005069592880808213,0.999854341064732,0.3838775898567064,-0.12962576895720296,-0.05390568867368689,-0.0006276089590329452,0.002572263233207854,0.0395777838527655,0
2025/04/05 15:58:49.349842579,1743861529,348000811,piren,vessel_center,-235.93125256433572,-300.8952581022461,2.315076974249437,0.029565416298311605,0.0006668596932341923,-0.004329717195039544,0.9995532477093294,0.3879917734240962,0.005599662722943377,0.002888279150542447,-0.0019142998585002196,0.0012776635812635124,0.006755885776885128,0
2025/04/05 15:58:49.432415257,1743861529,429376262,piren,vessel_center,-235.91062902185462,-300.93252979455866,2.29833276469899,-0.0023120818514389607,0.000783805050304618,-0.0052825932540892535,0.9999830669244691,0.3908759356803557,-0.07785737095191501,-0.03464582650040452,-0.001852304942045138,0.0004951109319061087,0.006674048791430572,0
2025/04/05 15:58:49.473972223,1743861529,471628593,piren,vessel_center,-235.89015542545752,-300.9062645156539,2.3102027933384295,-0.023930712539717635,0.0008374021286324848,-0.005265523753856261,0.9996994018276764,0.3915934619282552,-0.010545176913456036,-0.004287429228651232,-0.0003890212750967963,-0.000272718543661019,0.0,0
2025/04/05 15:58:49.555281193,1743861529,552967141,piren,vessel_center,-235.85010090096756,-300.8509882415524,2.332883568156839,-0.01796219040152236,0.0005666839872703088,-0.005113885786560185,0.999825428141033,0.3922274907913561,0.1146879104492655,0.04708888942444214,0.000337075908503755,-0.00161794721649119,0.006507321581391827,0
2025/04/05 15:58:49.638936364,1743861529,635446889,piren,vessel_center,-235.8303129081223,-300.82138086438493,2.3454675501552655,0.031149664077711234,0.0003153456497162091,-0.004890556391850174,0.9995027170764196,0.39117123683349747,0.1673223798718027,0.06965027176248173,-0.000888662270169726,-0.0020374860430652127,0.0065256545216585285,0
2025/04/05 15:58:49.680914742,1743861529,678954451,piren,vessel_center,-235.8114777234161,-300.88275581370874,2.318689099705419,0.0008507259103677338,0.00042668134925399686,-0.004878828524273276,0.999987645544025,0.3887471294639681,0.011974696849347322,0.00225037197437461,-0.00027057205762902315,-0.002393153085244028,0.0,0
2025/04/05 15:58:49.725478012,1743861529,722721847,piren,vessel_center,-235.79224085863987,-300.8771009924029,2.3222350416157056,0.014947881584428368,0.00037806835318880195,-0.0048865601037549975,0.9998762620598665,0.3883975607568573,0.023215099598701282,0.009881909751472073,-0.0018593124738206868,-0.0025472982964735145,0.0,0
2025/04/05 15:58:49.767950664,1743861529,765711538,piren,vessel_center,-235.77460401644058,-300.8968106100736,2.3144438493076516,0.004524315057143019,0.0002225962132442072,-0.004395182905188301,0.9999800814973364,0.38956408566634765,-0.022861691855814558,-0.008401231627706073,0.0011879208052540562,-0.002537972670885383,0.02950620592100016,0
2025/04/05 15:58:49.850140365,1743861529,847964166,piren,vessel_center,-235.73448542402798,-300.8944337731129,2.3162856121342625,0.026493628924021757,0.00022999488616784846,-0.0035963417342374216,0.999642486619551,0.3904026494004484,-0.012395550474093386,-0.0024029835846434144,-0.0012314435279037555,-0.002039108824268891,0.006599074737911913,0
2025/04/05 15:58:49.931430817,1743861529,929262834,piren,vessel_center,-235.7143151343706,-300.9282554037567,2.301379766404303,0.013186435132439337,0.00023738452533037029,-0.004275195046797422,0.9999038875233944,0.3919896435148076,-0.08619426933560133,-0.03526644534574321,7.281859455388195e-05,-0.0016309828720896338,0.0065882814792746994,0
2025/04/05 15:58:49.974550640,1743861529,972085707,piren,vessel_center,-235.69440326468583,-300.93042534031264,2.3009869652790504,-0.003167804051890271,0.0002879281794616646,-0.00427061858801674,0.9999858218653542,0.3918695350561848,-0.08125945360420699,-0.0321471387387575,0.001131013385124856,-0.0011390337008962796,0.0,0
2025/04/05 15:58:50.55273926,1743861530,52739518,piren,vessel_center,-235.65463738101147,-300.90697745344255,2.3115531319171914,-0.023108286178371493,0.00036629269521693756,-0.004096150145560636,0.9997245092992094,0.39198163677485814,-0.01084352985203621,-0.0014229856194542916,0.0017673328872024607,2.084599754168623e-05,0.0065069038688128,0
2025/04/05 15:58:50.136797869,1743861530,134230954,piren,vessel_center,-235.63441796553093,-300.8532015726557,2.3334685196922167,-0.0015057122789117875,0.0003090398324815143,-0.0038686676555143664,0.999991335330205,0.3929108660628345,0.10988695326354901,0.04744217354477237,0.0005116228514319691,0.0005961407088125116,0.006419752486797836,0
2025/04/05 15:58:50.179766256,1743861530,176743609,piren,vessel_center,-235.61428021344173,-300.85138109408064,2.3348237165544785,0.025391256202135393,0.000320497841596898,-0.0038771019942634285,0.9996700202915646,0.3930209251754605,0.10144463454576,0.04506272942213344,-0.0009523976557200303,0.0010896904443639455,0.0,0
2025/04/05 15:58:50.265153747,1743861530,261982177,piren,vessel_center,-235.57480286137948,-300.8917049993963,2.3171025788771247,0.003839125623758952,0.00035070694895142276,-0.0037100416048778512,0.999985686752751,0.3925464482499138,-0.010949148942472647,-0.004438878536499741,0.0018684793759418986,0.0018438659758031912,0.006396434040142367,0
2025/04/05 15:58:50.346816739,1743861530,344801633,piren,vessel_center,-235.5549189373664,-300.88859885487045,2.3188845979958246,0.003945553406113619,0.00040463062806318475,-0.003477252312541085,0.9999860887026025,0.3932077350567398,-0.002830939525756521,1.4238660017457105e-05,0.0017978629391422617,0.002068858506130197,0.006455499259206059,0
2025/04/05 15:58:50.387683491,1743861530,385861849,piren,vessel_center,-235.53440086823068,-300.8864019596927,2.320091280903863,-0.00602682131832678,0.0003885126226215939,-0.0034740383605334317,0.9999757284755508,0.39424412177968415,0.0023726515653834483,0.0026945502287798627,0.0005429716528876216,0.002237557122678467,0.0,0
2025/04/05 15:58:50.431034788,1743861530,428814988,piren,vessel_center,-235.5143469497074,-300.8679484852845,2.327913778543049,-0.02761803685253058,0.0004896867961816884,-0.0034672270614296563,0.999612416181271,0.39521376783520745,0.043122716045854784,0.019781893919044807,0.0015908333081000661,0.0022652648087574763,0.0,0
2025/04/05 15:58:50.512828928,1743861530,510724050,piren,vessel_center,-235.47377903388394,-300.8164534623255,2.3480448761280095,-0.009943411311987364,0.0005402717395097009,-0.0019465022785221553,0.9999485225784415,0.396499805543158,0.14787214498101095,0.0600743855174173,0.0005582876153596853,0.0018494276528326582,0.03339318749145912,0
2025/04/05 15:58:50.596409307,1743861530,594027217,piren,vessel_center,-235.43565453916156,-300.8076188560148,2.3518516398576406,0.02779824090617708,0.0005930115257932597,0.004377392340968959,0.9996037937983958,0.401250391956387,0.13767869529269774,0.05641687433650305,-0.0017693698082172056,0.0010421010870750567,0.17204988041571054,0
2025/04/05 15:58:50.680279833,1743861530,677297238,piren,vessel_center,-235.41345066904833,-300.86880556224224,2.325026112127257,-0.028455342403121718,0.0005443776842117293,-0.0013907890648178305,0.9995939489850042,0.4050555610392622,-0.013935079600378208,-0.00960607532398823,-0.00021296306325612027,0.0005088188496003399,0.03306849472695075,0
2025/04/05 15:58:50.724477538,1743861530,720500685,piren,vessel_center,-235.39107437950065,-300.8185272556777,2.345116802546866,-0.003806886519605374,0.00048668513440709824,-0.0014038711990594242,0.9999916499142697,0.40992093197385215,0.09935402427545342,0.03611032809681768,-0.0005840292857026574,-1.380507013917874e-05,0.0,0
2025/04/05 15:58:50.805572846,1743861530,803883838,piren,vessel_center,-235.34948099831584,-300.82131964077405,2.344680406503827,-0.00024984831484327417,7.333703995487322e-05,-0.0014169905812113377,0.9999989621670569,0.4094186856608077,0.07062065727113806,0.0269528797364668,-0.001173083946652567,-0.0006284958579911811,0.032205447063908085,0
2025/04/05 15:58:50.889080227,1743861530,887082593,piren,vessel_center,-235.32934302040837,-300.833287980118,2.3404507824232703,0.027197173595033586,0.0005081802513996181,-0.0019980896715651045,0.9996279623634676,0.40777765020370693,0.03601102297875516,0.014495616514445349,-0.001045586500297841,-0.0010414694950055378,0.026477187893961907,0
2025/04/05 15:58:50.937524767,1743861530,933133098,piren,vessel_center,-235.30798469631114,-300.887634817477,2.316839905953858,0.0022817626067547464,0.0005217957971182153,-0.0017170357452646395,0.9999957865295244,0.4089597634678058,-0.08886680483769849,-0.039626848190472304,-0.00043016638988828344,-0.001465376144490867,0.00542670969414829,0
2025/04/05 15:58:50.979528594,1743861530,976874331,piren,vessel_center,-235.2860417801439,-300.8854201272051,2.3186244914287863,0.0022327631342441956,0.0001465908907587979,-0.0017163700643419893,0.9999960236689441,0.40959045376562253,-0.07348345285877256,-0.030995713451682835,-0.00040103184229248515,-0.0016675902851973987,0.0,0
2025/04/05 15:58:51.65006238,1743861531,60538792,piren,vessel_center,-235.24520351106145,-300.88580522353516,2.31914541468011,-0.0017537461562045678,0.0004736555301122902,-0.0022590488459012324,0.9999957983527582,0.40862999416413015,-0.0578835816166247,-0.022896849454420807,-0.001291765185494216,-0.0016796866882704373,0.005457643871566543,0
2025/04/05 15:58:51.145082043,1743861531,143220039,piren,vessel_center,-235.2248547094724,-300.87656084286374,2.323547973138354,0.0007674215743148206,0.00045244539732599757,-0.0020771830288146874,0.9999974458307154,0.40854324173792533,-0.030918363695855055,-0.010572724454421567,-0.0003799452330998289,-0.001704198037099839,0.0051991434464742975,0
2025/04/05 15:58:51.187958667,1743861531,185831418,piren,vessel_center,-235.20402592377638,-300.8741105726792,2.324985855048735,0.03264091615918117,0.00027292434217333303,-0.0020895536761571173,0.9994649217806632,0.40848532439204077,-0.021964775923424874,-0.006177478401816194,-0.00023544353132636374,-0.001619078244010033,0.0,0
2025/04/05 15:58:51.231502625,1743861531,229647528,piren,vessel_center,-235.18663902922012,-300.92485958739616,2.3019484706667557,0.0033182698702470606,0.00035344205639479507,-0.0021016298623210143,0.9999922236276154,0.4109623875106537,-0.13281350822226157,-0.05683283365016291,0.000771080894010701,-0.0014434785636671314,0.005906284044557193,0
2025/04/05 15:58:51.273913431,1743861531,271640759,piren,vessel_center,-235.1643300127675,-300.91292462263124,2.3077745336913047,0.0028163920994624596,0.00032193719568999937,-0.002101534191513896,0.9999937739036309,0.4122064434795904,-0.09066729228943585,-0.03720009229700804,0.0008507837000871057,-0.0011650551048531686,0.0,0
2025/04/05 15:58:51.356256563,1743861531,354191363,piren,vessel_center,-235.1223656578223,-300.9058973668568,2.3113691991449024,-0.0023718436937977894,0.0003598868824670759,-0.0017947392431306524,0.999995511864915,0.4124962560637643,-0.054598475238844896,-0.020820161524177268,-0.00016436108165259345,-0.0004287188737308334,0.0051477400621555295,0
2025/04/05 15:58:51.441842826,1743861531,438455806,piren,vessel_center,-235.10141987414247,-300.8885483172944,2.3190677110594597,-0.0026633137132793107,0.00032023619558386546,-0.0016136422878939482,0.999995100171701,0.41338846670437324,-0.009995916923708124,-0.0014052953132381168,-9.314289461977965e-05,-4.057118932422158e-06,0.005061512185601351,0
2025/04/05 15:58:51.483994628,1743861531,482013614,piren,vessel_center,-235.08010903407845,-300.8755573562695,2.324798436602386,0.02878991167094695,0.00035743789908709004,-0.0016248973181916169,0.9995840999800031,0.4129048246302093,0.020115756502718806,0.011529257803991324,-6.135583498128856e-05,0.00037110704337958966,0.0,0
2025/04/05 15:58:51.532014575,1743861531,526030092,piren,vessel_center,-235.05983650518155,-300.91836935893184,2.3054469282581382,0.0023602187088050696,0.0003784727569567907,-0.0016147491314976688,0.9999958393469751,0.4132141236974578,-0.0772478167336885,-0.032744334368608075,0.0016297001915835149,0.0007113028310471117,0.0,0
2025/04/05 15:58:51.613943339,1743861531,611603223,piren,vessel_center,-235.0173189727998,-300.90767029344744,2.3104443927689626,-0.028851462594968295,0.000436869654820002,-0.0004167828614211301,0.9995835275468891,0.4123839637137282,-0.03564880766120948,-0.014083666989356272,0.0019733163890176823,0.0012493814133276268,0.025448965119363877,0
2025/04/05 15:58:51.702910223,1743861531,695330590,piren,vessel_center,-234.97817660521312,-300.84468919876804,2.3355099118264495,-0.002454573539291815,0.0003819885310336213,-0.00023290961547368943,0.9999968874484627,0.4159807284170713,0.11153584895314453,0.044472555224130544,0.00026384828668981074,0.001593033413884623,0.02651682713393977,0
2025/04/05 15:58:51.781272640,1743861531,779263238,piren,vessel_center,-234.95618221769683,-300.84341065212044,2.3366880769656366,0.011094275169346397,0.0005268519952447293,-0.0006450518046291901,0.9999381097816061,0.41775242533624374,0.10174455342144029,0.04205410771500698,-0.00011163396170754358,0.0015560949613352194,0.024725029551093698,0
2025/04/05 15:58:51.823957073,1743861531,822128378,piren,vessel_center,-234.93416585657053,-300.86552957296794,2.3276312496308287,0.0027425525067879554,0.0005330562591506989,-0.0006404374279465017,0.9999958920398989,0.4202922602047922,0.04128758684532841,0.017255638182780007,7.989222781278829e-05,0.001415714081591445,0.0,0
2025/04/05 15:58:51.910280554,1743861531,907155795,piren,vessel_center,-234.89150457022768,-300.86616972333417,2.3276679840394507,0.0033496092642302717,0.00048006570289055946,4.370267702212102e-05,0.9999942738559926,0.42014231796636087,0.0305309450310233,0.01343660460420256,-3.6801044610119766e-05,0.0009735135086633182,0.02610025459377538,0
2025/04/05 15:58:51.994253063,1743861531,992321321,piren,vessel_center,-234.86932127186927,-300.8691836786414,2.3266006404684565,0.004233375379371437,0.00022887251124655052,-0.0002986354128811504,0.9999909684427962,0.41907878103415913,0.02017177937209454,0.009453425815449668,-0.000548945857937168,0.0007733818386416854,0.024966303013179696,0
2025/04/05 15:58:52.37783510,1743861532,35658374,piren,vessel_center,-234.8489187402902,-300.8729508243251,2.3251176461057868,0.0005951137883658622,0.0002243673933541184,-0.00011738659879400456,0.9999997908595972,0.4190002749307043,0.009612067466241577,0.005132484333769971,5.108149419427634e-05,0.0005921078449984433,0.004786231884606648,0
2025/04/05 15:58:52.80802909,1743861532,78810293,piren,vessel_center,-234.8275550406837,-300.8695688944653,2.3266242144366553,0.004471478312900405,0.0005620390659783181,-0.00011971645392279494,0.9999898377792428,0.41895749197265125,0.016038264116559738,0.00789872973194331,-0.0001541564106201968,0.0002230430878352543,0.0,0
2025/04/05 15:58:52.126206193,1743861532,122902217,piren,vessel_center,-234.80600382323234,-300.87369081282816,2.3249189551647422,-0.0010232910710627101,0.000536512640323138,-0.00011664182163496549,0.9999993257119009,0.42042366623059046,0.005096567310783947,0.0032320077262010805,-0.0010153072077312844,-0.00022235732534686518,0.0,0
2025/04/05 15:58:52.210014588,1743861532,207540915,piren,vessel_center,-234.76364212180377,-300.8673553589638,2.327668881358022,0.0014454416323129546,0.00046303813995571236,0.000273691822814097,0.9999988106927702,0.4198038250491438,0.01804948466142378,0.008624012040112239,-0.0005336294404293399,-0.0008995576007085238,0.02214779995232343,0
2025/04/05 15:58:52.292773594,1743861532,290608550,piren,vessel_center,-234.74227026329888,-300.8672208028908,2.327770907688171,0.008406682121370962,0.0004080646563355964,-3.271911623319407e-05,0.9999645794268945,0.41969893603497915,0.016301808738717234,0.007872842965559845,-0.0010306993257155393,-0.0011562872645706358,0.02119204788250702,0
