time,header_stamp_secs,header_stamp_nsecs,header_frame_id,pose_position_x,pose_position_y,pose_position_z,pose_orientation_x,pose_orientation_y,pose_orientation_z,pose_orientation_w
2025/04/05 15:58:40.792491138,1743861520,791752966,piren,-238.47921113665328,-300.92745596601856,2.315916749460614,0.0009378168607297428,0.0013461645042050624,-0.01896507762304037,0.999818800669109
2025/04/05 15:58:40.862290187,1743861520,861503973,piren,-238.46533457613165,-300.92323776832836,2.319667926549029,0.004928382481128512,1.2761802279729801e-05,-0.020053136612812807,0.9997867685637993
2025/04/05 15:58:41.11652381,1743861521,9979442,piren,-238.44802089266923,-300.92800708844567,2.31995448708542,0.005846868320937642,0.00014547903620829267,-0.019114385122366163,0.9998001966633541
2025/04/05 15:58:41.94062918,1743861521,93749749,piren,-238.44002510139282,-300.9327286555584,2.319437264144983,0.021688646544551878,-0.000406056863869159,-0.01933676917715683,0.9995776743638677
2025/04/05 15:58:41.135150602,1743861521,134711656,piren,-238.43316409238292,-300.9622908832085,2.3072497680589747,-0.025376183722502988,0.0005742041325269556,-0.019977694175932408,0.9994781695088237
2025/04/05 15:58:41.174403321,1743861521,172700577,piren,-238.4226634332738,-300.90431258153257,2.3312685134052114,-0.014218041292794439,0.0007397441463990971,-0.019978540604651228,0.9996990337074967
2025/04/05 15:58:41.601804577,1743861521,282320931,piren,-238.4126721082029,-300.8814895418486,2.341384143610964,0.005232762826481269,0.0004967274022062052,-0.01998872502616074,0.9997863883484903
2025/04/05 15:58:41.602039078,1743861521,320831703,piren,-238.39585440634585,-300.89404238952557,2.3367167938749605,-0.023056525241292664,0.0011202450415167715,-0.019644035712294873,0.9995405212175136
2025/04/05 15:58:41.602199786,1743861521,391298684,piren,-238.3840918199465,-300.8585123040381,2.3504742994195515,0.00424311080043199,0.0009442093377111701,-0.019666487990128923,0.9997971462899842
2025/04/05 15:58:41.602268338,1743861521,428745380,piren,-238.37413397610214,-300.87884420046566,2.341869449322058,0.0063093295006740185,0.0006939310246434241,-0.019574328596431084,0.9997882558226937
2025/04/05 15:58:41.603177516,1743861521,498490190,piren,-238.36452250978493,-300.8964623639438,2.334064704773923,-0.003244154157626183,0.0010493702183693935,-0.019568255267598623,0.9998027093740687
2025/04/05 15:58:41.607515161,1743861521,535528886,piren,-238.3540604462888,-300.8925451663379,2.335147420790621,0.03137805556432724,0.0004111901201556171,-0.019731739164689656,0.999312717331879
2025/04/05 15:58:41.607664565,1743861521,572344459,piren,-238.3458912595138,-300.94645025073953,2.3099663622633013,0.005273784345385233,0.0006856397479221555,-0.01971014155567876,0.9997915919913858
2025/04/05 15:58:41.647535815,1743861521,647081218,piren,-238.33585454118153,-300.94118827053023,2.3119369098509925,-0.0003740366245537507,0.0009332396990961192,-0.019860891123516224,0.9998022475290038
2025/04/05 15:58:41.698726803,1743861521,698136495,piren,-238.3167708670243,-300.9288213041254,2.3164773811203347,4.681096661065702e-05,0.0010393604095939649,-0.019861268872785998,0.9998022042071298
2025/04/05 15:58:41.775156460,1743861521,774727294,piren,-238.30520780690233,-300.9178610936803,2.320686053670532,0.004108678234066459,0.0014550798725286513,-0.020376010028896396,0.9997828862913367
2025/04/05 15:58:41.850470588,1743861521,849995001,piren,-238.28380388522086,-300.91679362750784,2.320623750425231,0.017560704849248737,0.0012636911100107706,-0.020879682438668577,0.9996269622170244
2025/04/05 15:58:41.925316026,1743861521,924821927,piren,-238.27342614796999,-300.9382652373357,2.311007178864578,0.026834657490935453,0.0006463254635966852,-0.020887980435617078,0.999421420469894
2025/04/05 15:58:41.998065878,1743861521,997702491,piren,-238.26333266652188,-300.96919195753094,2.2969253022005938,-0.014279761309998012,0.0009495019176490963,-0.02057516854898153,0.9996858753139503
2025/04/05 15:58:42.36633870,1743861522,36149249,piren,-238.25155826124237,-300.92273957315786,2.3167596197448024,0.007897062028251725,0.0004749551020699437,-0.02085071089819494,0.9997512984157675
2025/04/05 15:58:42.73485553,1743861522,73033766,piren,-238.24151372179145,-300.9270198780935,2.315720652608204,0.010266934618171082,0.0001962636062679821,-0.02085501889194792,0.9997297733493585
2025/04/05 15:58:42.146749283,1743861522,146371967,piren,-238.23175693064536,-300.9344662245262,2.3132667174341885,-0.0049443926868284,0.00045873847423532623,-0.02040251237919015,0.9997795157076323
2025/04/05 15:58:42.183436750,1743861522,183075780,piren,-238.21986536926966,-300.914791160224,2.32233785918755,0.004821134663730928,8.723506825147222e-05,-0.020407798858377655,0.9997801112226394
2025/04/05 15:58:42.222905389,1743861522,221398331,piren,-238.20937430753904,-300.91743718831106,2.3219934047268462,0.029094969844479877,-0.0004087505757564359,-0.020417248294807146,0.9993680261168975
2025/04/05 15:58:42.295131120,1743861522,294776638,piren,-238.1999939531481,-300.95981325479903,2.3033063421534683,-0.01505357831445962,0.00029622915753074475,-0.02077173294462847,0.9996708644042267
2025/04/05 15:58:42.335512798,1743861522,334996171,piren,-238.18764578540552,-300.9167359858912,2.3219848139550336,-0.001928378896904223,5.546115787429443e-05,-0.020991390763624176,0.9997777952088648
2025/04/05 15:58:42.407119386,1743861522,372830393,piren,-238.1776722115274,-300.90817129397476,2.3265068769122585,0.002582265478549197,-0.00011652970854822195,-0.020991560788376763,0.9997763113324366
2025/04/05 15:58:42.468242119,1743861522,449256875,piren,-238.15481262345833,-300.90798760760947,2.327276919032636,0.003284084835628338,-6.241908414925725e-05,-0.02068975855535769,0.9997805483112638
2025/04/05 15:58:42.531054667,1743861522,529509859,piren,-238.14289504757943,-300.9105032114578,2.3264796653459774,-0.028096179909223952,0.0006071040905555839,-0.020768504649742097,0.9993892661589604
2025/04/05 15:58:42.569730169,1743861522,569293756,piren,-238.1282033014208,-300.85884541591656,2.3465943476170135,-0.028428480548490922,0.0010333412927228812,-0.020765726160460775,0.9993795766957145
2025/04/05 15:58:42.644584532,1743861522,644283289,piren,-238.1140581498578,-300.821288998248,2.3609987152593197,0.029203061821251864,-0.00010984124342773224,-0.0207602905831732,0.9993578835682779
2025/04/05 15:58:42.682794052,1743861522,682281211,piren,-238.10414692391902,-300.8908082864161,2.3306198258179456,0.0005755634333165643,0.0003229765814934794,-0.020754573967330627,0.999784382790758
2025/04/05 15:58:42.758892944,1743861522,757696135,piren,-238.08022004971667,-300.89169493371776,2.3303568400243053,-0.002239843134315286,0.0004531181363736354,-0.020830710533221535,0.9997804055318195
2025/04/05 15:58:42.832794735,1743861522,831304016,piren,-238.06773286272932,-300.8880303135206,2.3319158819241523,0.0335367994771814,-0.00035489907525327653,-0.020815394353748715,0.9992206345374238
2025/04/05 15:58:42.871141572,1743861522,869958656,piren,-238.05910090331176,-300.94414614175344,2.3060193678385565,-0.011102486449231145,0.0012067794337707607,-0.020927550224703495,0.9997186184720356
2025/04/05 15:58:42.945074044,1743861522,944662894,piren,-238.0316310896127,-300.910204834577,2.3199237711941625,0.03391066784700841,0.000398246273009051,-0.021111300883470515,0.9992017919224743
2025/04/05 15:58:43.42299616,1743861523,41867777,piren,-238.02001735763847,-300.9589312749113,2.297420790119363,5.746520352283025e-05,0.0011789149939599648,-0.0208661363773148,0.9997815817516698
2025/04/05 15:58:43.80864596,1743861523,80429060,piren,-238.00514826706106,-300.9375848617278,2.307085581833622,0.03073555555054104,0.0006093113870650407,-0.020894551662486296,0.9993089472607843
2025/04/05 15:58:43.121626654,1743861523,121138825,piren,-237.99310365315932,-300.9725425536797,2.29113234339038,-0.001838342888280887,0.0012285608200027663,-0.02086349945578229,0.9997798885375697
2025/04/05 15:58:43.195426797,1743861523,195057344,piren,-237.97835627038287,-300.9434935763244,2.3042748008894094,-0.019296481957546786,0.00166028775265523,-0.020773648368055276,0.9995965910116545
2025/04/05 15:58:43.235611864,1743861523,234938407,piren,-237.963006853766,-300.8929127518498,2.3255599388037913,0.005690830703661469,0.0008087004342952147,-0.02074745601414346,0.999768224899377
2025/04/05 15:58:43.273350940,1743861523,272923009,piren,-237.9503888937726,-300.89909368589474,2.3238419550753617,0.0040870940489219545,0.0007203246778449182,-0.020747350900069562,0.9997761370553025
2025/04/05 15:58:43.346834019,1743861523,346475764,piren,-237.9379202547729,-300.90145781489525,2.3236737628412065,0.0032701846611904693,0.0007739752737744575,-0.020718979292209883,0.9997796911078192
2025/04/05 15:58:43.384531127,1743861523,383987056,piren,-237.9247147633443,-300.9022778094574,2.3240984167305165,0.003745422561078514,0.0005231768966720973,-0.020720326162293915,0.9997781584829217
2025/04/05 15:58:43.423142332,1743861523,422760537,piren,-237.9120804549338,-300.9041954205519,2.3239957147320514,-0.0027370645357817965,0.0006230513797142101,-0.020715268886741557,0.999781475083258
2025/04/05 15:58:43.498143063,1743861523,497005925,piren,-237.89876538929173,-300.89518394297875,2.32842800256359,-0.030154024128928463,0.0010235074699609956,-0.02037818021659354,0.9993369887241996
2025/04/05 15:58:43.537207338,1743861523,536754362,piren,-237.8835745817886,-300.8426899429748,2.3492262555133507,0.0034989103427347573,0.0001197636621125073,-0.020180788022971376,0.999790217534584
2025/04/05 15:58:43.576198653,1743861523,575655587,piren,-237.871140382781,-300.8625231383032,2.341918927501902,0.030678968849808644,-0.0005459941078560432,-0.020181980817544184,0.9993253676411037
2025/04/05 15:58:43.614902358,1743861523,614426879,piren,-237.86198366135022,-300.9228213938204,2.3155765452550754,0.023761343447832626,-0.0004077312839127861,-0.020188778031610836,0.999513704535533
2025/04/05 15:58:43.690708842,1743861523,689887678,piren,-237.8494341518864,-300.9541379367008,2.3024372478483173,0.003121667232092073,6.286739559393232e-07,-0.020052220366921353,0.9997940606203127
2025/04/05 15:58:43.732172465,1743861523,731705215,piren,-237.83479569784507,-300.94190379423753,2.3085951591339327,-0.028038409315173252,0.0007676591805090509,-0.019719283685759904,0.9994120312230477
2025/04/05 15:58:43.771643669,1743861523,771129125,piren,-237.81730646406362,-300.879929908408,2.3336659146786265,0.02307165875126112,0.00018489495570287728,-0.019738793034459926,0.9995389159136644
2025/04/05 15:58:43.848962059,1743861523,848651730,piren,-237.79035215032036,-300.91817315519984,2.3171927095482117,0.007416651863422363,0.00021634044650776962,-0.019997563326324373,0.9997724960874639
2025/04/05 15:58:43.926490825,1743861523,922848920,piren,-237.7763119614083,-300.9217672401244,2.3160776431559054,0.00036590055760380694,0.0005421274454626815,-0.019995460529839436,0.9997998568577685
2025/04/05 15:58:44.251492,1743861523,999845303,piren,-237.74765994128146,-300.91240603558407,2.3199000986450504,0.017456658999865548,0.00018550038853428204,-0.018839184992253868,0.999670103461635
2025/04/05 15:58:44.74937696,1743861524,74524990,piren,-237.73380033463621,-300.9322144509849,2.310691906053222,-0.0012400574678318116,0.0008167527468034238,-0.019029699701280735,0.9998178162553947
2025/04/05 15:58:44.151838938,1743861524,150076234,piren,-237.7178420713285,-300.9146201063634,2.3177863723597323,-0.018895970397012386,0.0011928700927767513,-0.01867802665777364,0.9996462627769228
2025/04/05 15:58:44.188657826,1743861524,188188061,piren,-237.70081486190236,-300.8715841967012,2.334706912159798,0.0038298185377933585,0.0008308507465499173,-0.018699280324266813,0.9998174728881063
2025/04/05 15:58:44.231460161,1743861524,230126146,piren,-237.68767927715504,-300.8793660773913,2.331201254290572,0.02989914997989144,0.0003474137938813226,-0.019396611923465663,0.9993646439513588
2025/04/05 15:58:44.269608162,1743861524,269222824,piren,-237.67435157818863,-300.9272944644808,2.3090545229316652,-0.0018084612358437626,0.0010084312582238305,-0.019376043234596563,0.9998101227147718
2025/04/05 15:58:44.345941518,1743861524,345626449,piren,-237.64453576361635,-300.90905543084733,2.3165094167666047,0.0028733722081703806,0.0009683242858697068,-0.018977183484868234,0.9998153192401147
2025/04/05 15:58:44.421174478,1743861524,420649162,piren,-237.6292409595781,-300.8995192852509,2.3210934237469965,0.001096439611161901,0.0006136852867627062,-0.018975183994004743,0.9998191654509038
2025/04/05 15:58:44.496017207,1743861524,495657913,piren,-237.61503072875732,-300.89381128831525,2.3236009781222258,-0.00014196372572225366,0.0007361060463774685,-0.01805119240874137,0.9998367829034956
2025/04/05 15:58:44.535817029,1743861524,535344870,piren,-237.60005740140778,-300.88791813877566,2.326246806216822,0.02448071610373321,0.0003136569679265251,-0.017413236741785118,0.9995485857848679
2025/04/05 15:58:44.575575554,1743861524,575184943,piren,-237.58598459603593,-300.9248696886634,2.309832132958674,0.003070586830359259,0.0004616703828899321,-0.017402951132186747,0.9998437356151538
2025/04/05 15:58:44.651325501,1743861524,650931399,piren,-237.55621971845537,-300.917956020187,2.3132652319045035,0.02957778937280928,-0.00023227329582519444,-0.018196373012882665,0.999396814300561
2025/04/05 15:58:44.728480779,1743861524,728010401,piren,-237.5433852324846,-300.9551723919899,2.2966664881457604,-0.00763682083349791,0.00039859989294755436,-0.018189790947506425,0.9998053068427715
2025/04/05 15:58:44.768609076,1743861524,767613678,piren,-237.52985352640155,-300.9193654666594,2.31268235816995,-0.024627450476275077,0.0005670841656231372,-0.01744609623335137,0.9995442965795985
2025/04/05 15:58:44.844139706,1743861524,843824216,piren,-237.51277951546243,-300.86552146896463,2.334939549570798,-0.02627312238052203,0.000577878324680831,-0.016515980934589586,0.9995181896647947
2025/04/05 15:58:44.882632700,1743861524,882191671,piren,-237.4945246881861,-300.8241429080383,2.3519482958085884,-0.016012934187130297,0.0003580031132197501,-0.016518312406631465,0.9997352665219561
2025/04/05 15:58:44.924959962,1743861524,924459537,piren,-237.47887099222012,-300.81302530171746,2.3572572243859415,-0.01942392615794701,0.00043060745037361444,-0.01651439262402528,0.9996748473909375
2025/04/05 15:58:45.3233478,1743861525,2084819,piren,-237.44851634280909,-300.7934733707962,2.3655437222237015,-0.007373507183180441,0.00023636999234361405,-0.015529037093429085,0.999852201341777
2025/04/05 15:58:45.79625064,1743861525,79235067,piren,-237.43351213821953,-300.80724963386683,2.3604274014098805,0.021089512974584414,-0.00031576401424244344,-0.01603906489245501,0.9996488789234738
2025/04/05 15:58:45.156907349,1743861525,156497173,piren,-237.40434337251912,-300.86525004242395,2.33569795248218,-0.029865503263250954,0.0005869588205837759,-0.015299480951037078,0.9994366578612196
2025/04/05 15:58:45.233754870,1743861525,233172932,piren,-237.3842114704598,-300.7882573190683,2.365414898698514,-0.02804226482654552,0.0006013381688454622,-0.01640593806266332,0.9994719180507718
2025/04/05 15:58:45.272594828,1743861525,272250221,piren,-237.3680300245373,-300.76818730092555,2.372981745319974,0.0002851345026368235,0.00015079419841979345,-0.0164162835779947,0.9998651917098185
2025/04/05 15:58:45.349626428,1743861525,348447130,piren,-237.353896711058,-300.80210767370625,2.359539235681586,0.001757616919649277,0.00016999665566708178,-0.01638661558745467,0.9998641711320042
2025/04/05 15:58:45.388443555,1743861525,387274627,piren,-237.33886215121436,-300.8286746256839,2.3487470397816486,0.02985440456506571,-5.365791246449039e-05,-0.01638040435437177,0.9994200288177545
2025/04/05 15:58:45.429833295,1743861525,429244767,piren,-237.32736928709528,-300.89413000605884,2.319673989994803,0.021132701542378833,9.067757804579961e-05,-0.01608885581315767,0.9996472124813439
2025/04/05 15:58:45.470016502,1743861525,469656621,piren,-237.31144156051425,-300.9260060031761,2.3058182214831664,-0.031047605891763266,0.000991695738022164,-0.01606916067854974,0.9993882352634736
2025/04/05 15:58:45.547352027,1743861525,546748468,piren,-237.2775911209745,-300.8656295975737,2.32925091862451,0.029042131969713336,0.0001773891399763026,-0.015567327364797316,0.9994569432559184
2025/04/05 15:58:45.624516563,1743861525,624260169,piren,-237.26265248768806,-300.91597078643304,2.3073067027199206,-0.0025821657516169306,0.0006356986759481941,-0.015554093779872371,0.9998754914857707
2025/04/05 15:58:45.703499963,1743861525,702828214,piren,-237.23045797870301,-300.90315293299875,2.3133672939358956,0.0030381037589682133,0.0007731597768746847,-0.013142766630816758,0.9999087157509915
2025/04/05 15:58:45.781936214,1743861525,780521271,piren,-237.2134441534812,-300.89886127242414,2.3161096591032444,0.029036027932469476,7.155256431283264e-05,-0.014001497605072612,0.9994802959673346
2025/04/05 15:58:45.859254977,1743861525,858879273,piren,-237.18228877986442,-300.9404915135597,2.297799491690381,-0.028013395305252063,0.0008211530774743878,-0.013300912789625707,0.9995187147372768
2025/04/05 15:58:45.937316570,1743861525,936682353,piren,-237.1637716748578,-300.87292922047885,2.325826819660918,-0.025992908806735163,0.0008651370141534812,-0.014248486360748628,0.9995602037226868
2025/04/05 15:58:45.997775530,1743861525,996540072,piren,-237.13194707737594,-300.8274142248888,2.3450318610017513,0.004975224102543484,9.895266977416095e-05,-0.014270160544887,0.9998857934141888
2025/04/05 15:58:46.75783783,1743861526,74345461,piren,-237.1167668985167,-300.84878064537673,2.3377377782774844,-0.02922583322963467,0.0005434169650997407,-0.013275411716382733,0.9994845265504595
2025/04/05 15:58:46.155981874,1743861526,154543923,piren,-237.0826960151523,-300.8047896641611,2.3558753530159793,0.027375028214240694,-0.0004423617770994638,-0.012244964237791308,0.9995501353094516
2025/04/05 15:58:46.233076589,1743861526,232494083,piren,-237.06704184761048,-300.8709528470171,2.328190513255983,0.02803156182508232,-0.0005085313132065701,-0.013385704945212006,0.9995172814117171
2025/04/05 15:58:46.273659592,1743861526,272520915,piren,-237.05249197198663,-300.919795596637,2.307646780991521,-0.027712684576951037,0.0002244264136552273,-0.013393536566068785,0.9995261727061362
2025/04/05 15:58:46.350475258,1743861526,350102182,piren,-237.0188220509711,-300.8646555552676,2.3305358842721313,-0.0013086309967430868,-5.323380794969662e-05,-0.013143259488546947,0.9999127658856511
2025/04/05 15:58:46.430335054,1743861526,427121179,piren,-237.0024159057592,-300.86508743209635,2.3316101650800323,-0.023476316206410094,0.0002488460669670536,-0.013146830531966905,0.9996379151972855
2025/04/05 15:58:46.505024716,1743861526,504665493,piren,-236.96846331979725,-300.82636734004666,2.3473678169787453,0.029960487820019536,9.255432312318425e-05,-0.011191739572991752,0.9994884219282453
2025/04/05 15:58:46.584042802,1743861526,583619223,piren,-236.95186836989248,-300.88860970452083,2.3200544989408645,-0.028083654385344107,0.0007008025007604398,-0.011485739450768044,0.9995393414075749
2025/04/05 15:58:46.625605348,1743861526,625221355,piren,-236.9322835663858,-300.8357076574286,2.3413382799304254,-0.004952769765481241,0.00047684883275533175,-0.011500351247217308,0.9999214892220446
2025/04/05 15:58:46.705711008,1743861526,704731155,piren,-236.90045667967658,-300.8343938617274,2.342343859905505,-0.016061508904795362,0.0007682916471304345,-0.01057272134953018,0.9998148104638735
2025/04/05 15:58:46.783834626,1743861526,782782641,piren,-236.88123393189605,-300.81683050977506,2.3495560291248507,-0.0014867327104819148,0.0006427649854326988,-0.01088828330575061,0.9999394090472057
2025/04/05 15:58:46.824722864,1743861526,823683358,piren,-236.86271843891416,-300.82898817060607,2.3447759031094546,0.002238849762841069,0.0005762575210545222,-0.010890221875068724,0.9999380273529559
2025/04/05 15:58:46.902789744,1743861526,901961232,piren,-236.82854787141403,-300.84201115876647,2.339380776035847,-0.00014065545344397464,0.000558630681655916,-0.009738970275202707,0.9999524091704484
2025/04/05 15:58:46.983252566,1743861526,982844075,piren,-236.81106929290672,-300.84957953601344,2.3363053084286327,-0.010248249145114179,0.00037265733632684293,-0.010458221865951616,0.9998927243016482
2025/04/05 15:58:47.24567879,1743861527,23289281,piren,-236.7935648649077,-300.8380764039915,2.341007435608186,-0.01860897271956201,0.00045789284352171363,-0.010452126959942715,0.9997720987857581
2025/04/05 15:58:47.102248633,1743861527,101619047,piren,-236.75945325120207,-300.8152221605591,2.350115592842219,-0.011249732463498351,0.0006075207835019882,-0.009334204576784865,0.9998929678035126
2025/04/05 15:58:47.179657970,1743861527,179270233,piren,-236.7420544973209,-300.8125844175313,2.351455981856477,-0.026895259213115495,0.0005532940707038013,-0.00979129168561718,0.9995901507641308
2025/04/05 15:58:47.220989881,1743861527,220604104,piren,-236.72413357408848,-300.7846551640963,2.3622572043862977,-0.02889466037310646,0.0006157824761155105,-0.00978004026655325,0.9995344267338918
2025/04/05 15:58:47.300556691,1743861527,299887318,piren,-236.68950386991898,-300.75806121909676,2.372656969250364,0.00640778983015468,8.876391991063809e-05,-0.00852423612711623,0.9999431332575409
2025/04/05 15:58:47.379555243,1743861527,378275665,piren,-236.67356757877718,-300.80392700932856,2.3547047155793566,0.018215745446812325,-0.00016194616979059776,-0.00920339974427529,0.9997917072192598
2025/04/05 15:58:47.457621956,1743861527,457256610,piren,-236.63987139434633,-300.85598364048235,2.333353885531629,-7.685785952374696e-05,-5.8034790094157864e-05,-0.008496980658806615,0.9999638953704861
2025/04/05 15:58:47.537754595,1743861527,535988967,piren,-236.62211371258172,-300.8639852621754,2.331017686822013,-0.0009876684566540814,-2.3831604494912747e-05,-0.009673678567827105,0.9999527208253602
2025/04/05 15:58:47.576832226,1743861527,576470803,piren,-236.60494263045487,-300.86784160388606,2.330104730746293,0.012039321788581818,-0.00010125018692150325,-0.00967294240771384,0.9998807322198222
2025/04/05 15:58:47.655600934,1743861527,655235916,piren,-236.57289460229413,-300.89414382784565,2.319296919138959,0.024776123536493673,-0.00010129316157781583,-0.009508062586856922,0.9996478030726843
2025/04/05 15:58:47.735329775,1743861527,734754830,piren,-236.55494925287942,-300.93053109267765,2.303064105740282,0.03093719288277128,-7.339405073808892e-05,-0.009156692632664847,0.9994793843245985
2025/04/05 15:58:47.777141615,1743861527,775643188,piren,-236.53647488591977,-300.9658859061474,2.2867524349164663,0.00074285178268801,0.00033852642916729547,-0.009154654983146127,0.9999577620395901
2025/04/05 15:58:47.818093013,1743861527,817625613,piren,-236.517233910713,-300.9399170933133,2.298306949095951,-0.0284904569409588,0.000606980041870833,-0.009148158628753655,0.9995520179721651
2025/04/05 15:58:47.900456427,1743861527,899008832,piren,-236.4793338734618,-300.8760071927129,2.3236704426576757,-0.030185239461330397,0.0007333698107056003,-0.007182562255360866,0.9995182461000054
2025/04/05 15:58:47.980259580,1743861527,979823009,piren,-236.45909673493063,-300.82051433168306,2.345627117952706,-0.004191156852335339,0.0008426704563916002,-0.00783757665702931,0.9999601474573306
2025/04/05 15:58:48.21495547,1743861528,20857086,piren,-236.43933947490547,-300.8250625341919,2.344499301837358,0.014138855729161438,0.0007005300261953198,-0.007849158363206675,0.9998689877825704
2025/04/05 15:58:48.102079390,1743861528,100394177,piren,-236.4029341839211,-300.8555180839632,2.3317026960825267,-0.019274322490604727,0.0009360607103427822,-0.006528880582248746,0.9997924774678081
2025/04/05 15:58:48.181243511,1743861528,180079205,piren,-236.38323850457024,-300.82521536752904,2.344118692782514,0.019028419328435915,0.00035704312204547483,-0.007435245023855976,0.9997912326628523
2025/04/05 15:58:48.221912962,1743861528,221360531,piren,-236.36513330218773,-300.86791354122704,2.3260792697956094,-0.02735460501179963,0.0006716871461699374,-0.007410367398465705,0.9995980996760878
2025/04/05 15:58:48.301353825,1743861528,300479066,piren,-236.3279906997644,-300.8213996536818,2.34461099241541,-0.011525771053343457,0.0002922377655779431,-0.006027363409956608,0.9999153674631862
2025/04/05 15:58:48.379814694,1743861528,379458593,piren,-236.3098386255659,-300.8144041793145,2.348255277098127,0.02053186168552201,6.792981528055695e-05,-0.0066767136690619785,0.9997669026007254
2025/04/05 15:58:48.459489479,1743861528,459130675,piren,-236.27368296305593,-300.8607230029709,2.328888937930014,1.7984166712003915e-05,0.0005076933714101204,-0.006077737450841997,0.9999814013427895
2025/04/05 15:58:48.539632713,1743861528,539083892,piren,-236.25679711895447,-300.86318384546394,2.3288916177402337,-0.02974491371914834,0.0006901701138537559,-0.007177250060656692,0.9995315156885356
2025/04/05 15:58:48.581673566,1743861528,581249293,piren,-236.23648813222792,-300.81474641910074,2.3482171679715536,-0.0021471432672501324,-1.9267247707830553e-05,-0.007194246997244143,0.9999718157101758
2025/04/05 15:58:48.623485863,1743861528,623003461,piren,-236.2188209620813,-300.8271663116697,2.3441392288583653,0.028968685644174746,-0.000302499636873314,-0.007193086009497903,0.999554392346749
2025/04/05 15:58:48.705836865,1743861528,705061191,piren,-236.18286346119748,-300.8865495152925,2.3185757026332605,-0.031109103433713148,0.00016581690830139628,-0.005319418405922218,0.9995018258993458
2025/04/05 15:58:48.785189471,1743861528,784808850,piren,-236.163516938681,-300.82994656451643,2.341488453703667,-0.0259572575983221,0.0004006653070802601,-0.006069732180223248,0.9996445461245445
2025/04/05 15:58:48.827163863,1743861528,826735495,piren,-236.1436580010476,-300.7981101822263,2.354855544995444,0.03184138385737375,9.837499988622355e-05,-0.006084789711385819,0.9994744078417291
2025/04/05 15:58:48.909235350,1743861528,907771232,piren,-236.10724302015984,-300.8688405792948,2.3245317345115435,0.007006674090167979,0.0002783633845862382,-0.005121434245753393,0.9999622992609706
2025/04/05 15:58:48.990256996,1743861528,989884538,piren,-236.0879829860378,-300.88225889681064,2.3203431515308752,-0.004350661833749862,0.00047108249324324806,-0.005753303733549699,0.9999738743182456
2025/04/05 15:58:49.33635375,1743861529,33209822,piren,-236.06815502635962,-300.87231984343873,2.3255413640465523,0.026765456473189658,0.00021923515085755493,-0.0057601646950329955,0.9996251211221218
2025/04/05 15:58:49.75577106,1743861529,74877971,piren,-236.04895049105085,-300.9164903019978,2.3063611080992703,0.021342884293703273,0.00019334312936133456,-0.005596570978656743,0.9997565315124182
2025/04/05 15:58:49.144311825,1743861529,141745938,piren,-236.02989689079098,-300.9385553867683,2.297067639047684,0.0289013956792867,0.0001383998796145455,-0.005007384877275169,0.9995697155626283
2025/04/05 15:58:49.183266620,1743861529,182867823,piren,-236.01030853955422,-300.96605056241975,2.284702383582322,0.026179584835896684,0.0002664423575553883,-0.005005932816553813,0.9996446863675746
2025/04/05 15:58:49.225204530,1743861529,224812969,piren,-235.9929618062772,-300.97879873984874,2.2789831047907563,-0.0012099892438419903,0.0005006175898859874,-0.00499678173941371,0.9999866586511578
2025/04/05 15:58:49.267885102,1743861529,267528263,piren,-235.97181413318577,-300.94302985347815,2.2949589948285514,-0.016280717435046287,0.0007308363931254442,-0.005069592880808213,0.999854341064732
2025/04/05 15:58:49.348334719,1743861529,348000811,piren,-235.93125256433572,-300.8952581022461,2.315076974249437,0.029565416298311605,0.0006668596932341923,-0.004329717195039544,0.9995532477093294
2025/04/05 15:58:49.432066211,1743861529,429376262,piren,-235.91062902185462,-300.93252979455866,2.29833276469899,-0.0023120818514389607,0.000783805050304618,-0.0052825932540892535,0.9999830669244691
2025/04/05 15:58:49.472058068,1743861529,471628593,piren,-235.89015542545752,-300.9062645156539,2.3102027933384295,-0.023930712539717635,0.0008374021286324848,-0.005265523753856261,0.9996994018276764
2025/04/05 15:58:49.553478069,1743861529,552967141,piren,-235.85010090096756,-300.8509882415524,2.332883568156839,-0.01796219040152236,0.0005666839872703088,-0.005113885786560185,0.999825428141033
2025/04/05 15:58:49.635902884,1743861529,635446889,piren,-235.8303129081223,-300.82138086438493,2.3454675501552655,0.031149664077711234,0.0003153456497162091,-0.004890556391850174,0.9995027170764196
2025/04/05 15:58:49.679426927,1743861529,678954451,piren,-235.8114777234161,-300.88275581370874,2.318689099705419,0.0008507259103677338,0.00042668134925399686,-0.004878828524273276,0.999987645544025
2025/04/05 15:58:49.723214274,1743861529,722721847,piren,-235.79224085863987,-300.8771009924029,2.3222350416157056,0.014947881584428368,0.00037806835318880195,-0.0048865601037549975,0.9998762620598665
2025/04/05 15:58:49.766306901,1743861529,765711538,piren,-235.77460401644058,-300.8968106100736,2.3144438493076516,0.004524315057143019,0.0002225962132442072,-0.004395182905188301,0.9999800814973364
2025/04/05 15:58:49.848316925,1743861529,847964166,piren,-235.73448542402798,-300.8944337731129,2.3162856121342625,0.026493628924021757,0.00022999488616784846,-0.0035963417342374216,0.999642486619551
2025/04/05 15:58:49.929922062,1743861529,929262834,piren,-235.7143151343706,-300.9282554037567,2.301379766404303,0.013186435132439337,0.00023738452533037029,-0.004275195046797422,0.9999038875233944
2025/04/05 15:58:49.972492511,1743861529,972085707,piren,-235.69440326468583,-300.93042534031264,2.3009869652790504,-0.003167804051890271,0.0002879281794616646,-0.00427061858801674,0.9999858218653542
2025/04/05 15:58:50.53691984,1743861530,52739518,piren,-235.65463738101147,-300.90697745344255,2.3115531319171914,-0.023108286178371493,0.00036629269521693756,-0.004096150145560636,0.9997245092992094
2025/04/05 15:58:50.134770266,1743861530,134230954,piren,-235.63441796553093,-300.8532015726557,2.3334685196922167,-0.0015057122789117875,0.0003090398324815143,-0.0038686676555143664,0.999991335330205
2025/04/05 15:58:50.178914046,1743861530,176743609,piren,-235.61428021344173,-300.85138109408064,2.3348237165544785,0.025391256202135393,0.000320497841596898,-0.0038771019942634285,0.9996700202915646
2025/04/05 15:58:50.264829564,1743861530,261982177,piren,-235.57480286137948,-300.8917049993963,2.3171025788771247,0.003839125623758952,0.00035070694895142276,-0.0037100416048778512,0.999985686752751
2025/04/05 15:58:50.346182214,1743861530,344801633,piren,-235.5549189373664,-300.88859885487045,2.3188845979958246,0.003945553406113619,0.00040463062806318475,-0.003477252312541085,0.9999860887026025
2025/04/05 15:58:50.386277903,1743861530,385861849,piren,-235.53440086823068,-300.8864019596927,2.320091280903863,-0.00602682131832678,0.0003885126226215939,-0.0034740383605334317,0.9999757284755508
2025/04/05 15:58:50.430724471,1743861530,428814988,piren,-235.5143469497074,-300.8679484852845,2.327913778543049,-0.02761803685253058,0.0004896867961816884,-0.0034672270614296563,0.999612416181271
2025/04/05 15:58:50.511689835,1743861530,510724050,piren,-235.47377903388394,-300.8164534623255,2.3480448761280095,-0.009943411311987364,0.0005402717395097009,-0.0019465022785221553,0.9999485225784415
2025/04/05 15:58:50.595144227,1743861530,594027217,piren,-235.43565453916156,-300.8076188560148,2.3518516398576406,0.02779824090617708,0.0005930115257932597,0.004377392340968959,0.9996037937983958
2025/04/05 15:58:50.678946789,1743861530,677297238,piren,-235.41345066904833,-300.86880556224224,2.325026112127257,-0.028455342403121718,0.0005443776842117293,-0.0013907890648178305,0.9995939489850042
2025/04/05 15:58:50.720977551,1743861530,720500685,piren,-235.39107437950065,-300.8185272556777,2.345116802546866,-0.003806886519605374,0.00048668513440709824,-0.0014038711990594242,0.9999916499142697
2025/04/05 15:58:50.804286321,1743861530,803883838,piren,-235.34948099831584,-300.82131964077405,2.344680406503827,-0.00024984831484327417,7.333703995487322e-05,-0.0014169905812113377,0.9999989621670569
2025/04/05 15:58:50.887458307,1743861530,887082593,piren,-235.32934302040837,-300.833287980118,2.3404507824232703,0.027197173595033586,0.0005081802513996181,-0.0019980896715651045,0.9996279623634676
2025/04/05 15:58:50.933806929,1743861530,933133098,piren,-235.30798469631114,-300.887634817477,2.316839905953858,0.0022817626067547464,0.0005217957971182153,-0.0017170357452646395,0.9999957865295244
2025/04/05 15:58:50.977294824,1743861530,976874331,piren,-235.2860417801439,-300.8854201272051,2.3186244914287863,0.0022327631342441956,0.0001465908907587979,-0.0017163700643419893,0.9999960236689441
2025/04/05 15:58:51.61018733,1743861531,60538792,piren,-235.24520351106145,-300.88580522353516,2.31914541468011,-0.0017537461562045678,0.0004736555301122902,-0.0022590488459012324,0.9999957983527582
2025/04/05 15:58:51.143623600,1743861531,143220039,piren,-235.2248547094724,-300.87656084286374,2.323547973138354,0.0007674215743148206,0.00045244539732599757,-0.0020771830288146874,0.9999974458307154
2025/04/05 15:58:51.187901836,1743861531,185831418,piren,-235.20402592377638,-300.8741105726792,2.324985855048735,0.03264091615918117,0.00027292434217333303,-0.0020895536761571173,0.9994649217806632
2025/04/05 15:58:51.229987197,1743861531,229647528,piren,-235.18663902922012,-300.92485958739616,2.3019484706667557,0.0033182698702470606,0.00035344205639479507,-0.0021016298623210143,0.9999922236276154
2025/04/05 15:58:51.272985221,1743861531,271640759,piren,-235.1643300127675,-300.91292462263124,2.3077745336913047,0.0028163920994624596,0.00032193719568999937,-0.002101534191513896,0.9999937739036309
2025/04/05 15:58:51.356065996,1743861531,354191363,piren,-235.1223656578223,-300.9058973668568,2.3113691991449024,-0.0023718436937977894,0.0003598868824670759,-0.0017947392431306524,0.999995511864915
2025/04/05 15:58:51.438799292,1743861531,438455806,piren,-235.10141987414247,-300.8885483172944,2.3190677110594597,-0.0026633137132793107,0.00032023619558386546,-0.0016136422878939482,0.999995100171701
2025/04/05 15:58:51.482333111,1743861531,482013614,piren,-235.08010903407845,-300.8755573562695,2.324798436602386,0.02878991167094695,0.00035743789908709004,-0.0016248973181916169,0.9995840999800031
2025/04/05 15:58:51.526652790,1743861531,526030092,piren,-235.05983650518155,-300.91836935893184,2.3054469282581382,0.0023602187088050696,0.0003784727569567907,-0.0016147491314976688,0.9999958393469751
2025/04/05 15:58:51.612120252,1743861531,611603223,piren,-235.0173189727998,-300.90767029344744,2.3104443927689626,-0.028851462594968295,0.000436869654820002,-0.0004167828614211301,0.9995835275468891
2025/04/05 15:58:51.702233256,1743861531,695330590,piren,-234.97817660521312,-300.84468919876804,2.3355099118264495,-0.002454573539291815,0.0003819885310336213,-0.00023290961547368943,0.9999968874484627
2025/04/05 15:58:51.779709595,1743861531,779263238,piren,-234.95618221769683,-300.84341065212044,2.3366880769656366,0.011094275169346397,0.0005268519952447293,-0.0006450518046291901,0.9999381097816061
2025/04/05 15:58:51.822546117,1743861531,822128378,piren,-234.93416585657053,-300.86552957296794,2.3276312496308287,0.0027425525067879554,0.0005330562591506989,-0.0006404374279465017,0.9999958920398989
2025/04/05 15:58:51.907673977,1743861531,907155795,piren,-234.89150457022768,-300.86616972333417,2.3276679840394507,0.0033496092642302717,0.00048006570289055946,4.370267702212102e-05,0.9999942738559926
2025/04/05 15:58:51.993813414,1743861531,992321321,piren,-234.86932127186927,-300.8691836786414,2.3266006404684565,0.004233375379371437,0.00022887251124655052,-0.0002986354128811504,0.9999909684427962
2025/04/05 15:58:52.36425781,1743861532,35658374,piren,-234.8489187402902,-300.8729508243251,2.3251176461057868,0.0005951137883658622,0.0002243673933541184,-0.00011738659879400456,0.9999997908595972
2025/04/05 15:58:52.79204739,1743861532,78810293,piren,-234.8275550406837,-300.8695688944653,2.3266242144366553,0.004471478312900405,0.0005620390659783181,-0.00011971645392279494,0.9999898377792428
2025/04/05 15:58:52.123337642,1743861532,122902217,piren,-234.80600382323234,-300.87369081282816,2.3249189551647422,-0.0010232910710627101,0.000536512640323138,-0.00011664182163496549,0.9999993257119009
2025/04/05 15:58:52.208817862,1743861532,207540915,piren,-234.76364212180377,-300.8673553589638,2.327668881358022,0.0014454416323129546,0.00046303813995571236,0.000273691822814097,0.9999988106927702
2025/04/05 15:58:52.290955502,1743861532,290608550,piren,-234.74227026329888,-300.8672208028908,2.327770907688171,0.008406682121370962,0.0004080646563355964,-3.271911623319407e-05,0.9999645794268945
2025/04/05 15:58:52.335359096,1743861532,334863308,piren,-234.72090158900252,-300.8788923116871,2.322804745185197,-0.001948765287394736,0.0003962943127559827,0.00018675976680026968,0.9999980051907413
2025/04/05 15:58:52.377786974,1743861532,377396321,piren,-234.69900827033302,-300.8699996015541,2.3266231823993766,-0.031237362104836654,0.00041064953582528,0.00020122937596733757,0.9995118899154869
2025/04/05 15:58:52.444092882,1743861532,443721191,piren,-234.67762826309817,-300.8139112451354,2.3482704472083946,-0.026479334022404977,0.0004278299515939082,-0.00032629894542473897,0.9996492161554776
2025/04/05 15:58:52.486633617,1743861532,486330186,piren,-234.65617192580928,-300.78218123876667,2.360814582551757,0.030927196156347016,0.00030666918228497496,-0.0003493414775344423,0.9995215317602976
2025/04/05 15:58:52.530372430,1743861532,530024467,piren,-234.63811350159713,-300.8575850815464,2.328306401988163,0.028792650681742617,0.00030232388410818164,-0.0002353747850120717,0.9995853322581814
2025/04/05 15:58:52.577350633,1743861532,576922593,piren,-234.61557961025176,-300.90703415857945,2.3071834567596867,-0.002851618054973447,0.00036982614758300476,-0.0002253747070669707,0.9999958403460139
2025/04/05 15:58:52.622545337,1743861532,621698096,piren,-234.59359684747665,-300.88976955705687,2.3157640409144715,-0.02837794802405891,0.00035565268094383537,-0.0002153961473973855,0.9995971784582098
2025/04/05 15:58:52.709959503,1743861532,709433045,piren,-234.5499930853741,-300.8356298292847,2.3377504855230007,-0.004329040605718583,0.00010759882174666066,0.0007888603425069483,0.9999903127177221
2025/04/05 15:58:52.798631625,1743861532,797131244,piren,-234.52829699324914,-300.8356693766614,2.338906792487214,-0.0017455453510309524,0.0005662802397800003,0.0005358671942728356,0.9999981726205642
2025/04/05 15:58:52.843472864,1743861532,842398716,piren,-234.5060774864224,-300.8403659504339,2.337809826302326,0.002714683254610739,0.0005767479389541366,0.0007381540381227505,0.9999958764841274
2025/04/05 15:58:52.887026894,1743861532,886655507,piren,-234.4836036504397,-300.8513442308689,2.3338094912875156,0.0035689601557343047,0.0003810716009185428,0.0007384960568051277,0.9999932859431687
2025/04/05 15:58:52.933734104,1743861532,933075970,piren,-234.46214534156337,-300.8607432096095,2.330260281788549,-0.011867829278231339,0.0004022860013999993,0.0002428264865424092,0.9999294644271132
2025/04/05 15:58:52.980476426,1743861532,978768432,piren,-234.44027886331048,-300.8414556833379,2.338321193227669,-0.003506699256566879,0.00016781101298024703,0.00023840801494652355,0.9999938090115391
2025/04/05 15:58:53.24788773,1743861533,22433089,piren,-234.4198523211536,-300.84176770290463,2.338388020813682,-0.0032862410778700616,7.877301122180449e-05,0.00023784473925194682,0.9999945689073871
2025/04/05 15:58:53.107285647,1743861533,106938018,piren,-234.37764443254008,-300.8411971594297,2.3387882040200725,0.012568652859876114,0.00019823332020549902,0.001174486755052154,0.9999203019489609
2025/04/05 15:58:53.194080998,1743861533,192938170,piren,-234.35612079114964,-300.8685579897788,2.32701700355611,-0.013461136167878326,0.00023613738348736725,0.0008222395028884068,0.9999090288493279
2025/04/05 15:58:53.238532034,1743861533,237789127,piren,-234.33484918963626,-300.84440128304476,2.3368085304531507,0.0009226343523581214,0.000268866344653056,0.0009009294267884984,0.999999132391078
2025/04/05 15:58:53.282067599,1743861533,280813256,piren,-234.31541444450465,-300.85140247315917,2.333977423176788,-0.0002541691244240846,0.0003113501446011699,0.0009012438804401517,0.9999995131091873
2025/04/05 15:58:53.327062355,1743861533,326691568,piren,-234.293171320781,-300.85432244349835,2.332808573842993,-0.009964204093809376,0.0003073670259851324,0.0009038648872136257,0.9999499003402891
2025/04/05 15:58:53.371206627,1743861533,370835099,piren,-234.27058782001356,-300.84003988403686,2.3386151461392792,-0.02673279148426393,0.00028326340815816716,0.0007094483579675703,0.9996423231858123
2025/04/05 15:58:53.457779498,1743861533,457427632,piren,-234.22687229731162,-300.80037169669157,2.3539008470187794,0.003685153175720196,0.00033319932829992897,0.0008793586101530387,0.9999927676502035
2025/04/05 15:58:53.542683199,1743861533,542292017,piren,-234.20524992656198,-300.8249144206867,2.3440838390835874,-0.00024127810577467522,0.00020151001863464386,0.0006661917874954881,0.9999997286835084
2025/04/05 15:58:53.587604010,1743861533,587195083,piren,-234.18359156910694,-300.83620130235306,2.3397448547750557,0.015615374446701856,0.00021113968270208852,0.0006621619640789392,0.9998778310586034
2025/04/05 15:58:53.632266795,1743861533,631907174,piren,-234.16226687335538,-300.87093492909844,2.325045600673562,-0.007784813517520584,0.00029162162905929905,0.0006348891026258727,0.9999694538090403
2025/04/05 15:58:53.678092145,1743861533,677745937,piren,-234.14036123196527,-300.8566846960181,2.3312876147001846,-0.001096251760382079,0.00026230891722161636,0.0006329637910817714,0.9999991643911255
2025/04/05 15:58:53.723583029,1743861533,722639062,piren,-234.11872621372046,-300.85764213480957,2.3312475382831224,-0.011597934479659627,0.00023721366102539632,0.0006363052451379487,0.9999325111031843
2025/04/05 15:58:53.812074320,1743861533,810260796,piren,-234.0752652982846,-300.8415416852018,2.3380926544111826,4.2866444841363695e-05,0.00015355107578381911,0.0007699696270165074,0.9999996908656065
2025/04/05 15:58:53.901784519,1743861533,900480028,piren,-234.03178175266544,-300.8483832661828,2.3356506795204366,-0.02301445315517088,0.0005185029046358552,0.0007002185673402531,0.9997347527192723
2025/04/05 15:58:53.990460141,1743861533,989989296,piren,-234.01109559465857,-300.81496024653,2.3488916289315376,-0.0007363247285619343,0.0005303466458479521,0.0006408650664985385,0.9999993829249576
2025/04/05 15:58:54.35677055,1743861534,35100727,piren,-233.9884133132981,-300.8290345260917,2.3435510020773167,-0.031097437761817667,0.0004972785881271398,0.0006674474489876598,0.9995160111736873
2025/04/05 15:58:54.81898824,1743861534,80572483,piren,-233.96573207405916,-300.787759193693,2.3593431918054333,-0.03176989635467034,0.00014358233805366645,0.0006577772173598779,0.9994949826781814
2025/04/05 15:58:54.127043045,1743861534,125241783,piren,-233.9440490672484,-300.7574423586472,2.370910832832604,0.013838299642079426,0.00013583546385696825,0.00065087721922484,0.9999040250797014
2025/04/05 15:58:54.170851501,1743861534,170361018,piren,-233.92191103112637,-300.8132501151772,2.3483914171660887,0.015755459939841007,0.00018775515632206302,0.0006631614504214899,0.9998756374904711
2025/04/05 15:58:54.257989953,1743861534,257448118,piren,-233.87794954376346,-300.85583046169324,2.330994913964282,0.001025057723120833,0.00017325650579124658,0.000654131927387493,0.9999992456748501
2025/04/05 15:58:54.344064010,1743861534,343654157,piren,-233.85635512356995,-300.8627696246303,2.328950473563052,-0.0013865092061207092,0.0001908411159826005,0.000600504137180741,0.9999988402826631
2025/04/05 15:58:54.388261542,1743861534,387877826,piren,-233.83389578788473,-300.8635006458788,2.3292376555517498,-0.0004581401709529698,0.0002137798337278455,0.0006002939538265681,0.9999996920264204
2025/04/05 15:58:54.434161705,1743861534,433777720,piren,-233.81292479162587,-300.86500844948733,2.3289960889134136,-0.0004852004453101303,0.0002192486009754184,0.0005696722125640783,0.9999996959920284
2025/04/05 15:58:54.480649997,1743861534,479011808,piren,-233.79062595550315,-300.8658992284216,2.3288747107873324,-0.00025073008862599506,0.0007124300140469438,0.0005697205723934828,0.9999995524980835
2025/04/05 15:58:54.525256240,1743861534,524549521,piren,-233.76826402434017,-300.86653544739517,2.328747019965792,-0.0002601162773123214,0.000712956423845351,0.0005697083691045743,0.9999995497324158
2025/04/05 15:58:54.614015103,1743861534,612850274,piren,-233.72330407731621,-300.8686118874133,2.32805872978894,-0.002579211282038997,0.0007158149243011346,0.00033433046655934024,0.9999963617440295
2025/04/05 15:58:54.702957178,1743861534,701520095,piren,-233.70124815345648,-300.86393799304074,2.3300012779282384,-8.652546112469037e-05,0.0007229878582465456,0.00041738521401998987,0.9999996477956803
2025/04/05 15:58:54.748209809,1743861534,747802647,piren,-233.6603009518948,-300.8655125142069,2.3294383358059574,-0.03364848913119511,0.0007764398973427694,0.0004287322750263208,0.9994333357002407
2025/04/05 15:58:54.837699650,1743861534,836633208,piren,-233.63746554511073,-300.8086324039398,2.3510320911405045,-0.017853727035572232,0.0006180863053330312,0.0005147845998626178,0.9998402859442473
2025/04/05 15:58:54.886041060,1743861534,883904900,piren,-233.61480705201413,-300.7951796629156,2.3567264397433014,-0.02298556625941696,0.0006056841676347747,0.0005196157442549378,0.9997354784591279
2025/04/05 15:58:54.931673210,1743861534,931338652,piren,-233.592595777356,-300.7773685610924,2.3638682753671656,-4.1560007195285067e-05,0.0006009508389681102,0.0005248664370546048,0.9999996808229882
2025/04/05 15:58:54.978573100,1743861534,978161957,piren,-233.57006421457245,-300.80387326316884,2.353646087208565,-0.0001831772667880473,0.000560795771871337,0.0005249623846020728,0.9999996881842944
2025/04/05 15:58:55.25455532,1743861535,24034952,piren,-233.54823255298106,-300.82336153349894,2.3461717016790056,-0.00023418653281923816,0.0005493830006483458,0.0005250102841562892,0.9999996838495441
2025/04/05 15:58:55.114479151,1743861535,113742041,piren,-233.50380421003126,-300.83695139145294,2.3410844110429623,-0.0003500672192573937,0.00010661998115825777,0.0005905254517524252,0.9999997586823771
2025/04/05 15:58:55.203579249,1743861535,203052969,piren,-233.45963773148108,-300.8477790597338,2.3370433346761796,0.00396483291257715,8.441284388620376e-05,0.0005929341817434326,0.9999919606694362
2025/04/05 15:58:55.291296435,1743861535,290162134,piren,-233.43812328440026,-300.8620843881646,2.331292467039882,0.02847972517286526,0.00020102733050037172,0.0005149414010558212,0.999594217509007
2025/04/05 15:58:55.338708389,1743861535,336848206,piren,-233.41654619004032,-300.9125966836389,2.3087258443751693,0.026602313918794102,0.00010241645950829422,0.0004845919163404778,0.9996459731203389
2025/04/05 15:58:55.381716798,1743861535,381317659,piren,-233.39716004138646,-300.94429647182955,2.294624132212895,0.008289660617660318,0.0005710506078580829,0.000482908203863279,0.99996536051391
2025/04/05 15:58:55.427555967,1743861535,427122226,piren,-233.37368466427674,-300.93687151458295,2.298374409931143,0.0020500223727054827,0.0005906399854364747,0.00048656699950837024,0.9999976058997512
2025/04/05 15:58:55.474210125,1743861535,473001651,piren,-233.3498904343824,-300.92055484586047,2.305765453676195,0.02721473614504472,0.0006212141466776914,0.00042550348694667193,0.9996293268888835
2025/04/05 15:58:55.563453603,1743861535,562394652,piren,-233.304517753076,-300.95374561893993,2.2908031345051882,0.03029837052999037,0.0008934340400495362,0.000379229871974014,0.9995404277484466
2025/04/05 15:58:55.650717245,1743861535,650299274,piren,-233.25897177263482,-300.9828677699658,2.2773807536020194,0.024724600613180985,0.0011557596720675957,0.00043268342382842207,0.9996935386052838
2025/04/05 15:58:55.744244710,1743861535,742183541,piren,-233.23580939601328,-300.98765532248825,2.2751774365107442,0.030680546125591502,0.0007060350447448637,0.0004695281082051893,0.9995288815973787
2025/04/05 15:58:55.790206271,1743861535,788950478,piren,-233.2129709939682,-301.00036697864755,2.269076603968513,0.00137398126424855,0.0008262486030928999,0.0004898018340653524,0.99999859479046
2025/04/05 15:58:55.837033172,1743861535,836743641,piren,-233.1898745587408,-300.9603854103264,2.2871202862118007,-0.030295008802862056,0.0008420645932237017,0.0005500115481071054,0.9995404948555873
2025/04/05 15:58:55.883404806,1743861535,882979053,piren,-233.1675390394966,-300.8772574538013,2.321084010109556,-0.0291725041206518,0.0007837513653092851,0.0005491520960531434,0.9995739338183561
2025/04/05 15:58:55.953444154,1743861535,953086597,piren,-233.12610550817496,-300.81697880962247,2.3458159431062287,0.02859835507457742,0.0007857499438762165,0.0005387198638531981,0.9995905293993949
2025/04/05 15:58:56.41684221,1743861536,41278483,piren,-233.10320474317365,-300.8746435397938,2.321541369239429,-0.002807067091243542,0.0007294715487778422,0.0006022666859767714,0.9999956127505979
2025/04/05 15:58:56.87204064,1743861536,86812917,piren,-233.08004585319622,-300.8643042781841,2.32739778429693,-0.029938504121749355,0.0007872002554933086,0.0006266548798549717,0.999551236100667
2025/04/05 15:58:56.137073458,1743861536,136699705,piren,-233.05762607306914,-300.8112206698474,2.348980502142117,0.0022492993424618325,0.0004211710919114614,0.0006365113949334275,0.9999971790563329
2025/04/05 15:58:56.183734392,1743861536,183348817,piren,-233.03542493359993,-300.8282492865893,2.3431743502656555,0.028607767235763425,9.406803296437474e-05,0.0006338401872323439,0.9995905086842345
2025/04/05 15:58:56.230941375,1743861536,230619762,piren,-233.01408532612865,-300.88482022307056,2.3188386377739074,-0.002663128791915443,5.675729790969425e-05,0.0006364436366790894,0.9999962497245398
2025/04/05 15:58:56.277735023,1743861536,276334345,piren,-232.9921934855032,-300.8736141774239,2.3246319726588562,-0.029819627528013138,0.0003750018281466805,0.0008261919746444993,0.9995548842332473
2025/04/05 15:58:56.367045129,1743861536,365314928,piren,-232.94739488190243,-300.81868340767835,2.346681210374381,0.026832832047339206,0.00015839183610144892,0.0009511151662148109,0.9996394697171007
2025/04/05 15:58:56.454615247,1743861536,454134570,piren,-232.9027659533955,-300.87079673195274,2.324338574210562,-0.025126971716373948,0.0004363778372969031,0.0008222808759775291,0.9996838343801048
2025/04/05 15:58:56.543750642,1743861536,543324900,piren,-232.88020061289868,-300.82610482739653,2.342781514099047,0.0014504789867365235,0.0005511465117878525,0.0008067667040421042,0.9999984707366891
2025/04/05 15:58:56.589366909,1743861536,588066882,piren,-232.85675995726388,-300.8390354573221,2.3383744284037076,-0.032109996588961985,0.0001544180467808554,0.0008093876416261977,0.9994840014556358
2025/04/05 15:58:56.635111985,1743861536,634314235,piren,-232.83502955407786,-300.7915712523163,2.356868604085539,-0.0032235739237097515,0.00021135438978703628,0.0008043565100878481,0.9999944584401881
2025/04/05 15:58:56.683297163,1743861536,681844533,piren,-232.81224235332198,-300.80681521128525,2.3514727675629934,-0.0042399503916809795,0.0007429231035881945,0.0009109788261147877,0.9999903204549115
2025/04/05 15:58:56.728963710,1743861536,727795733,piren,-232.79193994228552,-300.817212186705,2.3477690176228934,-0.028867873105529615,0.0005645101287128586,0.0009229064333967958,0.9995826506469553
2025/04/05 15:58:56.775038467,1743861536,774618777,piren,-232.76726711032944,-300.78217367915016,2.361249807437472,0.027476933575066732,0.00023679956301006836,0.0009121718399708042,0.9996219935504684
2025/04/05 15:58:56.864829985,1743861536,864397125,piren,-232.72104061778015,-300.84730128600415,2.333211448611953,0.02885514602979244,0.0003455970453007566,0.000992512106394083,0.9995830510918041
2025/04/05 15:58:56.957423728,1743861536,956956753,piren,-232.67796392323146,-300.9027391876755,2.309269726390998,-0.029241437721051807,0.00021736619433499713,0.000890896380340217,0.9995719570774196
2025/04/05 15:58:57.46357506,1743861537,45995532,piren,-232.63288591151144,-300.84827997192707,2.3314817987851084,-0.0007946405094834392,0.0006166047784572033,0.0008563785295401477,0.9999991274800304
2025/04/05 15:58:57.134519469,1743861537,134116718,piren,-232.60939889308256,-300.85199226982405,2.3313813525257148,-0.0007393017928564522,0.000624791785229023,0.0008401119801875588,0.9999991786396352
2025/04/05 15:58:57.181483918,1743861537,181052641,piren,-232.58583370001242,-300.8548168800708,2.331282098408208,-0.005041691276727354,0.0006487622734304275,0.0008434730075896215,0.9999867244168136
2025/04/05 15:58:57.227827196,1743861537,227360423,piren,-232.56290047916391,-300.84965643275905,2.3342054589013186,-2.757486907298423e-05,0.0005892155880941777,0.0008402109785200661,0.9999994730549256
2025/04/05 15:58:57.273587662,1743861537,273224485,piren,-232.53986310827105,-300.8544848165701,2.3328217466175065,-0.00022399703217435392,0.00046730178577258187,0.0008686384246935178,0.9999994884606981
2025/04/05 15:58:57.319959112,1743861537,319495273,piren,-232.5167258637101,-300.8550270015901,2.3328196953453704,0.002889582839420388,0.0005260408405447809,0.0008666611668833667,0.9999953112342428
2025/04/05 15:58:57.411888890,1743861537,409047015,piren,-232.47155069681588,-300.86474713336264,2.329420164621662,-0.026998982932559958,0.00032113816008881964,0.0009763513347703048,0.999634932627387
2025/04/05 15:58:57.502339279,1743861537,501858696,piren,-232.42619739502015,-300.81595110994914,2.3487720449517098,0.025708065615435982,0.0002926628467984234,0.0009865867990862239,0.9996689633860093
2025/04/05 15:58:57.594309057,1743861537,594002441,piren,-232.38376368560702,-300.87685971916585,2.322533710614569,0.0277842892649788,0.0002729937638087952,0.000999311915983051,0.9996134053323513
2025/04/05 15:58:57.686154337,1743861537,685752064,piren,-232.36060280405619,-300.94976045348477,2.290706859176126,0.012044824292018464,0.00035063318904177197,0.0009819111316161837,0.9999269148866186
2025/04/05 15:58:57.732962647,1743861537,732553670,piren,-232.3377334470695,-300.94550313543283,2.2932872127706836,-0.011749866172459223,0.0003355364789128482,0.0010205917593443007,0.9999303908036106
2025/04/05 15:58:57.783494332,1743861537,780432330,piren,-232.3146041723741,-300.90183603483524,2.3121039789477,-0.0005416908144806751,0.00014459296886616598,0.0010165993769318342,0.9999993260945937
2025/04/05 15:58:57.829847017,1743861537,827774853,piren,-232.29245280163173,-300.8887047854804,2.318196638869036,0.000908580585231846,0.0001474049073112197,0.0010165005728666576,0.9999990597394075
2025/04/05 15:58:57.875586307,1743861537,875031129,piren,-232.2697911032399,-300.8814710530156,2.321585382247046,0.013600254147674606,0.0008369491857338294,0.0009722156781128229,0.9999066893464883
2025/04/05 15:58:57.968210779,1743861537,967222012,piren,-232.223402149512,-300.89718613769446,2.3148568300246715,0.007003369171868431,0.0005676969136003705,0.001007569641601604,0.9999748073546024
2025/04/05 15:58:58.57421112,1743861538,57076973,piren,-232.17730187136468,-300.89830710801556,2.3144086818463294,0.008264362293236484,0.0004918845549172196,0.0009819059122685456,0.9999652465092226
2025/04/05 15:58:58.150155303,1743861538,148643114,piren,-232.15462800818767,-300.89965608554564,2.3137309631543155,0.027105453234066167,0.0005369622765165867,0.0009884809768449566,0.99963194675933
2025/04/05 15:58:58.196510462,1743861538,196096657,piren,-232.1114919189905,-300.93234365343415,2.2986388508702964,-0.028395695229352633,0.0005905462497806208,0.0010205066186167364,0.9995960655753953
2025/04/05 15:58:58.287785189,1743861538,286718180,piren,-232.0872369330739,-300.86154371178725,2.3270845108560407,-0.0011637375868511954,0.0005388346106679475,0.0010637848602292168,0.9999986118659678
2025/04/05 15:58:58.334499798,1743861538,334064118,piren,-232.06399745953001,-300.8570245126239,2.329745498967694,0.030959679178423523,0.00057595429889844,0.001097958567359492,0.9995198652497103
2025/04/05 15:58:58.380382978,1743861538,379943195,piren,-232.04030932870216,-300.90721343785,2.307430208089806,-0.019188222589268326,0.0004426488417803844,0.0011254642332422238,0.9998151576697202
2025/04/05 15:58:58.428075359,1743861538,427672202,piren,-232.01747446342546,-300.8595995104686,2.327621140231802,0.030895628920087518,0.0005373804790558508,0.0010979132270909635,0.9995218686564086
2025/04/05 15:58:58.475815104,1743861538,475471770,piren,-231.99389779369838,-300.909155541645,2.305960778396001,0.021534629271498136,0.00040618399566185874,0.0011091771323256754,0.9997674051912224
2025/04/05 15:58:58.523014841,1743861538,522365776,piren,-231.97129977612184,-300.9294206895712,2.297841323173094,-0.0010715451639751463,0.0003651228559793491,0.0011181597804811338,0.9999987340966823
2025/04/05 15:58:58.615808485,1743861538,615217626,piren,-231.9256152276185,-300.90918891471523,2.30741431586538,0.031459585853882636,0.00045170923645496055,0.0012547247706864136,0.9995041351002094
2025/04/05 15:58:58.714339268,1743861538,711269967,piren,-231.87917176934224,-300.9459565740077,2.291035063477947,-0.002806144975992355,0.0003550378625802756,0.0013168177552555574,0.9999951327328995
2025/04/05 15:58:58.808032695,1743861538,806556153,piren,-231.83384868337214,-300.9175676752504,2.30407831645678,0.001988052155470417,0.00042292978939773956,0.0013716053600572006,0.9999969937343596
2025/04/05 15:58:58.905880432,1743861538,901648137,piren,-231.79097371859817,-300.9017096070304,2.3116355465645815,-0.002784040763797575,0.0003365371149151851,0.0013965363545276372,0.9999950927609627
2025/04/05 15:58:58.997634018,1743861538,997323549,piren,-231.74358086699254,-300.8809501144652,2.3209642004911433,0.001988243584985008,0.0006138978421037317,0.0015156297356629905,0.9999966864362055
2025/04/05 15:58:59.90365656,1743861539,89966198,piren,-231.71983275845034,-300.8749761845615,2.323783427988263,0.028206244918100715,0.0003440934637015606,0.001379206953112925,0.999601114012729
2025/04/05 15:58:59.138431608,1743861539,138095782,piren,-231.69694234045755,-300.9142859199539,2.3059395012152395,-0.002825520958852777,0.0003906490209630784,0.0014520650966665146,0.999994877652685
2025/04/05 15:58:59.187185547,1743861539,185702325,piren,-231.6736642108792,-300.890892067865,2.3162232894557473,-0.029433709898797764,0.00039325897598673084,0.0014606980095639046,0.9995655898590627
2025/04/05 15:58:59.234602825,1743861539,234197009,piren,-231.6509024767566,-300.8288110418895,2.3408053829862596,0.001968229841934855,0.0004719902487272106,0.0014477247439598983,0.9999969036899865
2025/04/05 15:58:59.284027981,1743861539,282624409,piren,-231.62749211717454,-300.83778048870397,2.3377061148362412,0.02890578143029281,0.00047014351686382877,0.001445401331735621,0.9995809850032003
2025/04/05 15:58:59.332194649,1743861539,331739565,piren,-231.60452287406147,-300.8893506171396,2.314910956432262,-0.014558866077134976,0.00039213595911537506,0.0014632189288719792,0.9998928665803672
2025/04/05 15:58:59.380868264,1743861539,379248706,piren,-231.58141141894112,-300.85390004525965,2.3300627380541368,-0.02583297279640946,0.0004233843114297355,0.001520377566014175,0.9996650272537705
2025/04/05 15:58:59.428460373,1743861539,428151734,piren,-231.55857429861612,-300.80938016457975,2.3479954135778756,-0.0005251894816089355,0.0005282483543820279,0.0015091896140894654,0.9999985837371937
2025/04/05 15:58:59.477266646,1743861539,476913525,piren,-231.5350854234467,-300.8206891171673,2.3440511947663736,-0.0038588748381008214,0.00021502183490409044,0.0015228844196301828,0.9999913717995965
