time,header_stamp_secs,header_stamp_nsecs,header_frame_id,twist_linear_x,twist_linear_y,twist_linear_z,twist_angular_x,twist_angular_y,twist_angular_z
2025/04/05 15:58:40.813572164,1743861520,791752966,piren,0.1164283839813555,-0.014197262559521567,-0.009936043455653581,-0.0009385396989961863,-0.01350136045993085,-0.051396914179809634
2025/04/05 15:58:40.864233861,1743861520,861503973,piren,0.12037783062179487,-0.0001485189575853611,0.00042501126541654176,0.0003360616482735409,-0.01344464256532764,-0.008768002759547516
2025/04/05 15:58:41.26517236,1743861521,9979442,piren,0.11980634656014369,-0.00848873488007749,0.0010149765360951465,0.0009667385185472813,-0.007635073775950938,-0.007916022040472
2025/04/05 15:58:41.99669125,1743861521,93749749,piren,0.1255674754265033,-0.017369362277433634,0.00037328010730027005,5.757845373891776e-05,-0.004672509916952521,-0.03368858006042672
2025/04/05 15:58:41.138449512,1743861521,134711656,piren,0.12985203824151964,-0.07906032390411713,-0.031540259499409945,0.0010203275750215945,-0.0014347668612235292,-0.008660501439407354
2025/04/05 15:58:41.174882985,1743861521,172700577,piren,0.13328849177858712,0.057422938239250286,0.03076972032985072,0.0020372499377800204,0.0016749308570934874,0.0
2025/04/05 15:58:41.601842759,1743861521,282320931,piren,0.1386397161090441,0.10388707003035665,0.04735350378885676,0.0010879259821797655,0.004547231118139736,0.0
2025/04/05 15:58:41.602062773,1743861521,320831703,piren,0.1458008925679979,0.05222161422315138,0.029616625851999815,-5.991748009850512e-06,0.009258384770435021,-0.008326838257809043
2025/04/05 15:58:41.602204366,1743861521,391298684,piren,0.15222599039718035,0.1278690034500811,0.05373967625376541,0.000984297334722609,0.010798477888073236,0.0
2025/04/05 15:58:41.603194777,1743861521,428745380,piren,0.1590894758288169,0.06915842531676591,0.028652401040427888,0.001519685355330815,0.011782646899376619,-0.00627042715714863
2025/04/05 15:58:41.603321751,1743861521,498490190,piren,0.16398090223559875,0.022655351014636737,0.009073242101238508,0.00017190171902483706,0.012069232673522062,0.0
2025/04/05 15:58:41.607521165,1743861521,535528886,piren,0.1686767287934102,0.030445380708960766,0.008509942404640619,-0.0005452377201949556,0.01174205538639359,-0.005517608385771429
2025/04/05 15:58:41.607669319,1743861521,572344459,piren,0.1725354193173189,-0.09301000853098265,-0.04580007525751551,0.0010686332562304072,0.010739279937882689,0.0
2025/04/05 15:58:41.659795852,1743861521,647081218,piren,0.17524896272592647,-0.06960857259279847,-0.03717867919617989,-0.0006386399937917651,0.009267013230581798,-0.004888614127186849
2025/04/05 15:58:41.700323897,1743861521,698136495,piren,0.18018599621433104,-0.02605405632001064,-0.019217430455236977,-0.0008623706176280875,0.004908614225494572,0.0
2025/04/05 15:58:41.776704697,1743861521,774727294,piren,0.18452976818300357,0.002400016092169611,-0.007469149392829154,9.617307943794928e-05,0.0020780364276603695,-0.018814193706434727
2025/04/05 15:58:41.852152243,1743861521,849995001,piren,0.1903411782673741,0.006193725058984649,-0.005947733836257126,-0.0019604124744236565,-0.003958258741734038,-0.004487502074499609
2025/04/05 15:58:41.927861879,1743861521,924821927,piren,0.19421336999022618,-0.042557321567417705,-0.024367473967427916,-0.001698505765920196,-0.006548495935707791,0.0
2025/04/05 15:58:42.2120277,1743861521,997702491,piren,0.1971601845413457,-0.1026946405173157,-0.057972358422195835,-0.00101006495802434,-0.008530209479484576,-0.0172792756300418
2025/04/05 15:58:42.39831015,1743861522,36149249,piren,0.1971654399775165,0.011494667243821682,-0.0049993369855514365,-0.001208030060120694,-0.009925482657746041,-0.0030677471591055846
2025/04/05 15:58:42.74949636,1743861522,73033766,piren,0.19754701755316997,0.0015537205674322199,-0.0066759562679421175,-0.001526303002481547,-0.010693994478444668,0.0
2025/04/05 15:58:42.150456587,1743861522,146371967,piren,0.19795972232799772,-0.014202665806075467,-0.011505837994221257,-0.0014418096678779201,-0.010837703085066097,-0.0028785349901080523
2025/04/05 15:58:42.185032780,1743861522,183075780,piren,0.19942510367318186,0.03222341990949523,0.009763289967648017,-0.0018357306465805504,-0.0102847796193984,0.0
2025/04/05 15:58:42.224686538,1743861522,221398331,piren,0.2008839711877865,0.024088368476543585,0.006811512122208737,-0.0021433333651116973,-0.009220169460416303,0.0
2025/04/05 15:58:42.297960106,1743861522,294776638,piren,0.20280827501378906,-0.07107842424238661,-0.036492958211656046,-0.0018150518144599483,-0.007558841473632932,-0.01425899467457911
2025/04/05 15:58:42.337350173,1743861522,334996171,piren,0.20361018199256772,0.0328495458991733,0.011190990677924279,-0.0018895438093860985,-0.0055140865368341506,-0.0025880165761431803
2025/04/05 15:58:42.408572547,1743861522,372830393,piren,0.2064618780350124,0.049955882151040784,0.019820001297069925,-0.0003683973726479972,-0.003154617620869324,0.0
2025/04/05 15:58:42.468247953,1743861522,449256875,piren,0.20950587799989046,0.04085506498524407,0.016902419943718928,0.00030931209762477877,0.0018548492615740257,-0.00233375041447566
2025/04/05 15:58:42.531823435,1743861522,529509859,piren,0.2128259989093891,0.030891834624775905,0.015231720626008733,0.0008123035334089902,0.004224366090523889,-0.0023120063035605835
2025/04/05 15:58:42.571740983,1743861522,569293756,piren,0.2155935813083187,0.1405864168440645,0.06487635889585698,0.0009575975391747533,0.006218112191858169,0.0
2025/04/05 15:58:42.646256210,1743861522,644283289,piren,0.21994135586883343,0.217457813825825,0.07006072397964055,-0.000613106460911123,0.007764822852031386,-0.0020794747602162697
2025/04/05 15:58:42.684541226,1743861522,682281211,piren,0.22343400540019423,0.03533349045943081,0.005640702064389344,0.0006259433291714859,0.008957919584391901,0.0
2025/04/05 15:58:42.759601204,1743861522,757696135,piren,0.22612235438139403,0.027593726255401126,0.0040038447639852955,0.00012400016277766196,0.009927178239192175,-0.0015393236248129945
2025/04/05 15:58:42.835675877,1743861522,831304016,piren,0.22845125505071268,0.034224935049946,0.004624458204232667,0.0012007341429397347,0.009628868076404533,0.0
2025/04/05 15:58:42.872251423,1743861522,869958656,piren,0.23209549862704443,-0.09199302486884214,-0.053095598875410044,0.0019219508303118145,0.008472206691212784,-0.007095711160894949
2025/04/05 15:58:42.947203386,1743861522,944662894,piren,0.23716745621607466,-0.0051860343325741375,-0.012505158883260915,0.0011352947071169423,0.004803391118534186,-0.0010181794940866764
2025/04/05 15:58:43.44123493,1743861523,41867777,piren,0.24142553237598677,-0.11107257771045903,-0.061319942541094075,0.00046976194911959305,0.002493949011031359,-0.00034438317018006457
2025/04/05 15:58:43.87839587,1743861523,80429060,piren,0.24481346817548189,-0.051505393386433146,-0.029620452588378636,-0.00012284071689217275,7.53809348013892e-05,0.0
2025/04/05 15:58:43.123226636,1743861523,121138825,piren,0.24752123736898748,-0.12033671188472882,-0.06493935409302098,0.0003628267335172013,-0.002407859358080529,0.0
2025/04/05 15:58:43.197550954,1743861523,195057344,piren,0.2491186620681994,-0.039804681386335854,-0.029339851320824336,0.0008198181353835748,-0.004801580181088013,0.0009397412327548381
2025/04/05 15:58:43.237728440,1743861523,234938407,piren,0.25085194207412487,0.07760225495608905,0.021640469759064643,-0.0001696445218596548,-0.0067431091171110385,0.000978592179623063
2025/04/05 15:58:43.274905082,1743861523,272923009,piren,0.25095856914891923,0.056133785868736956,0.015678758946992406,0.00017600662043790798,-0.00821814694059907,0.0
2025/04/05 15:58:43.349839759,1743861523,346475764,piren,0.25102725013949484,0.04576440462631921,0.013736730192019642,-0.00027535651266330323,-0.009250886310467792,0.0015728844063103294
2025/04/05 15:58:43.386583907,1743861523,383987056,piren,0.2515938793235282,0.03992114363760288,0.01299631581170289,-0.0004819697998185039,-0.0097079129915827,0.0
2025/04/05 15:58:43.424507685,1743861523,422760537,piren,0.2517191637163532,0.0322141849991158,0.011774509707975306,-0.0025598454052892946,-0.009590135271486075,0.0
2025/04/05 15:58:43.499851887,1743861523,497005925,piren,0.2519338790986808,0.04843694525664285,0.02307122715481881,-0.0013419849894847978,-0.008809364751821619,0.010804152309832287
2025/04/05 15:58:43.539140949,1743861523,536754362,piren,0.2526169506542076,0.16267419832146446,0.06294507055284393,-0.0010571019237472854,-0.0075175886252330645,0.0027491234582393423
2025/04/05 15:58:43.577861469,1743861523,575655587,piren,0.2533854906693181,0.10321115773627837,0.034261508755323106,-0.0025373413995072557,-0.005744818483110366,0.0
2025/04/05 15:58:43.616347845,1743861523,614426879,piren,0.2562153414692123,-0.04227959210869642,-0.019695402369649437,-0.0038717180024338688,-0.0036558282498774953,0.0
2025/04/05 15:58:43.695490074,1743861523,689887678,piren,0.2578453053739567,-0.10541053237657969,-0.04777192889300149,-0.001142951333302676,-0.001421369383206609,0.01760996003015268
2025/04/05 15:58:43.733565643,1743861523,731705215,piren,0.2604548066028985,-0.06333159655425008,-0.0328592399595945,-0.0006456777742019598,0.0008245558096661338,0.0037407510501923516
2025/04/05 15:58:43.773306177,1743861523,771129125,piren,0.26327451671818797,0.08303902853350825,0.02633875363844353,-0.003989915690334063,0.0031043337854009677,0.0
2025/04/05 15:58:43.850769878,1743861523,848651730,piren,0.26751536509026647,-0.019206641440017103,-0.013011871878010341,0.00010423806254603087,0.006852199561034383,0.004625323059990149
2025/04/05 15:58:43.926512544,1743861523,922848920,piren,0.26931563418072424,-0.02364449240789624,-0.014157761925181964,-0.0004939543324461472,0.008030680438075618,0.0
2025/04/05 15:58:44.3094038,1743861523,999845303,piren,0.2714091388577004,0.0043095674118001455,-0.002585880260212488,-0.00047986798507722956,0.00892209620110921,0.02432356056373251
2025/04/05 15:58:44.77937881,1743861524,74524990,piren,0.2730809382577043,-0.03878303432059879,-0.022540387054849984,0.0001908215471652303,0.00861211004331346,0.028810567213105442
2025/04/05 15:58:44.152941375,1743861524,150076234,piren,0.27660747598061064,0.005875976724264196,-0.0038776547053922437,0.0025153022184303273,0.007796464228750201,0.005984038000861419
2025/04/05 15:58:44.192109175,1743861524,188188061,piren,0.27946264460554043,0.10232906838791511,0.03328596976765827,0.002171364142677544,0.006545209336638972,0.0
2025/04/05 15:58:44.233339054,1743861524,230126146,piren,0.2834037427625797,0.0780985902405693,0.018566110173896876,0.0006885583395664966,0.0049468922398382305,0.00693237026628877
2025/04/05 15:58:44.270997309,1743861524,269222824,piren,0.2845040014132865,-0.03721370379352321,-0.028749118027716184,0.0009066710417007279,0.0030617891429823734,0.0
2025/04/05 15:58:44.348681964,1743861524,345626449,piren,0.28525716499718135,0.008618005578859562,-0.007873755619527184,0.0021915704842021995,-0.0011121288452247556,0.006824442068033258
2025/04/05 15:58:44.422629198,1743861524,420649162,piren,0.28674909958933914,0.02882393835240863,0.0023269140014804367,0.0009811154232720078,-0.002944963979602459,0.0
2025/04/05 15:58:44.497768699,1743861524,495657913,piren,0.28543059791622283,0.03890403536933777,0.007801036698148477,0.0007279003850166661,-0.004605390168726613,0.0406113845142317
2025/04/05 15:58:44.537775912,1743861524,535344870,piren,0.28665864258968093,0.049087066209154664,0.010469998733691052,0.0008116453084436999,-0.00604752714336501,0.007937052766389592
2025/04/05 15:58:44.577222499,1743861524,575184943,piren,0.2883563989925514,-0.038153410006692076,-0.02494020143207524,0.0011267525224009298,-0.007097398232113944,0.0
2025/04/05 15:58:44.652821283,1743861524,650931399,piren,0.2886320138582277,-0.011957856609425799,-0.011206222305589432,-0.0012192235455864239,-0.00778542115611475,0.008211531898486992
2025/04/05 15:58:44.732662351,1743861524,728010401,piren,0.2865666710824132,-0.09085302123084579,-0.0488033826131452,-0.0012658782060975741,-0.007436515142446411,0.0
2025/04/05 15:58:44.770151187,1743861524,767613678,piren,0.2875451139733794,-0.0026562964663036977,-0.007683329489620371,-0.00026514268732524577,-0.006636858639929941,0.04221859792339409
2025/04/05 15:58:44.846455858,1743861524,843824216,piren,0.28966560983375456,0.11528159112887224,0.04889839183402707,0.00010401462741866158,-0.005482360448031714,0.008616339343563865
2025/04/05 15:58:44.884213423,1743861524,882191671,piren,0.2916833162261802,0.19400903770579733,0.08157165650693395,-0.0008172670644551565,-0.00400543777749437,0.0
2025/04/05 15:58:44.927541749,1743861524,924459537,piren,0.29331451583472234,0.19737812662148366,0.08651910901801492,-0.0011734994593042157,-0.002360761417123741,0.0
2025/04/05 15:58:45.5032212,1743861525,2084819,piren,0.2937370479059529,0.19936554023285644,0.08245709854756919,-0.0011714969227693797,0.0012334782698675626,0.04463920417739134
2025/04/05 15:58:45.81189145,1743861525,79235067,piren,0.29458154866738895,0.15091677878353896,0.05275450541847631,-0.002014924932746784,0.003027246878231269,0.04701263679091992
2025/04/05 15:58:45.158524066,1743861525,156497173,piren,0.29726026106749537,0.004485979273240683,-0.001852519288581341,-0.0009161864378058944,0.005983517457492109,0.009370564938628359
2025/04/05 15:58:45.235818476,1743861525,233172932,piren,0.3030115438657628,0.16228450158698124,0.06910057560118582,-0.00040283688884975796,0.00697579529434048,0.009565245221125724
2025/04/05 15:58:45.274170960,1743861525,272250221,piren,0.3030762320760632,0.19286658328155443,0.06981769677919732,-0.0007331794895820094,0.007593885596114299,0.0
2025/04/05 15:58:45.350385962,1743861525,348447130,piren,0.3033809353731871,0.09722662636110893,0.031993215350902965,9.316926219191499e-05,0.007779625231835078,0.00958335786013704
2025/04/05 15:58:45.389323098,1743861525,387274627,piren,0.30346587402908587,0.028136699589547884,0.00307514364534414,-0.000621394738371448,0.007426618853412324,0.0
2025/04/05 15:58:45.431460298,1743861525,429244767,piren,0.30712750900325486,-0.12172561076071584,-0.055167051798691705,-0.0006482846943482276,0.006657102283955882,0.011604661689899327
2025/04/05 15:58:45.471961939,1743861525,469656621,piren,0.3095754666300634,-0.16970824042067806,-0.09479094822392523,0.0010698303363948602,0.0055278844346595525,0.0
2025/04/05 15:58:45.551090085,1743861525,546748468,piren,0.3110321815964588,-0.0005392262275312823,-0.012987053610219623,0.0004999174209878549,0.0024110846124307766,0.00955070715242568
2025/04/05 15:58:45.627933204,1743861525,624260169,piren,0.3132607532328822,-0.11029212868633453,-0.060874379931882105,0.0010302062726318425,0.000585504097375334,0.0
2025/04/05 15:58:45.705792017,1743861525,702828214,piren,0.31341096847281824,-0.05682429480062165,-0.03275025279395984,0.002568778198109181,-0.0032379940944623807,0.05150958387554984
2025/04/05 15:58:45.784766136,1743861525,780521271,piren,0.31525306980357215,-0.04038783448761571,-0.021064063097672836,0.000797347147113966,-0.004829573128551415,0.04289845465376648
2025/04/05 15:58:45.860538525,1743861525,858879273,piren,0.3162895079838011,-0.11783243319001063,-0.06548561724644741,0.0022581208188940964,-0.006928787558540316,0.009817438190611613
2025/04/05 15:58:45.940318949,1743861525,936682353,piren,0.3178128399021905,0.04350863723707456,0.012444927261435054,0.0026046875947552364,-0.007509886796209412,0.009715738437301405
2025/04/05 15:58:45.999099086,1743861525,996540072,piren,0.3191717680585066,0.13851388220600924,0.04921042075941743,-0.000532960285535218,-0.007109983776190859,0.0
2025/04/05 15:58:46.76865587,1743861526,74345461,piren,0.31822407140968695,0.073360026216724,0.032957588267720536,0.0005203948884019473,-0.006331501993124954,0.048865477467931004
2025/04/05 15:58:46.158109551,1743861526,154543923,piren,0.32005251857227224,0.1605082430281496,0.053635222793627535,-0.0022729599197132853,-0.003682759877832006,0.009637308665983262
2025/04/05 15:58:46.235008285,1743861526,232494083,piren,0.32109353610007024,-0.006802347582829658,-0.00611865273772849,-0.0025375015480376692,-0.0019162536571986535,0.009297508152609943
2025/04/05 15:58:46.274774584,1743861526,272520915,piren,0.31991408712191216,-0.11035831509324048,-0.057641237746730634,-0.0005959974448054359,-6.261283955477023e-05,0.0
2025/04/05 15:58:46.351808962,1743861526,350102182,piren,0.3197498314594759,0.03635327830034459,0.011086342125654128,-0.0026426676534853488,0.0035419079019509557,0.009847236013267216
2025/04/05 15:58:46.430353600,1743861526,427121179,piren,0.3207816041405084,0.03174537419412571,0.013667356625756799,0.0005868157632339001,0.005015278326344587,0.0
2025/04/05 15:58:46.506809008,1743861526,504665493,piren,0.32250806476584787,0.11432675494781089,0.03798568105297719,-0.0021959407770691477,0.006612820472615226,0.042548125383540754
2025/04/05 15:58:46.586334305,1743861526,583619223,piren,0.32572541548452627,-0.036950534623830196,-0.023161124068564787,-0.0002904662420805829,0.006835553018834633,0.051165646203407564
2025/04/05 15:58:46.629049374,1743861526,625221355,piren,0.33033138377470134,0.08431000462935177,0.02948870841390562,-0.0016130470848354204,0.006789577887334511,0.0
2025/04/05 15:58:46.707601798,1743861526,704731155,piren,0.3344246078325388,0.07060284698970706,0.02756417399453865,0.0009435791231709003,0.005420574922495142,0.04796392210926129
2025/04/05 15:58:46.784861215,1743861526,782782641,piren,0.33831928368463837,0.10337417443909756,0.038822676057839026,-0.00042507490263667423,0.004296662522104063,0.05026667173493624
2025/04/05 15:58:46.826641347,1743861526,823683358,piren,0.3425609226907324,0.06600458766571443,0.023360616739405368,0.000980896911839406,0.002902152440212398,0.0
2025/04/05 15:58:46.905985072,1743861526,901961232,piren,0.34243850746535165,0.023060342806726024,0.00643264969073428,0.0009297569971303968,-0.00018261761115912644,0.04794194441029238
2025/04/05 15:58:46.985654810,1743861526,982844075,piren,0.34257642943428623,0.004886203787004342,-0.001200984731414871,0.0014306870129343764,-0.0016065680953759617,0.04081787381575394
2025/04/05 15:58:47.26011116,1743861527,23289281,piren,0.3429913797099665,0.03032614260499952,0.010448280632053872,0.0009374309969122187,-0.002861801263584504,0.0
2025/04/05 15:58:47.105078716,1743861527,101619047,piren,0.34099781826562486,0.07477786588885642,0.029361021749747078,0.0017614093041895657,-0.005133790895238048,0.04407688565495198
2025/04/05 15:58:47.182016704,1743861527,179270233,piren,0.34069666711862073,0.07215807929482475,0.03132114419212409,0.0028753710597597716,-0.005827348412503241,0.04741555080505555
2025/04/05 15:58:47.223083691,1743861527,220604104,piren,0.34159513049608786,0.12541126308889397,0.0557636339355859,0.002209814354299925,-0.006176458606174298,0.0
2025/04/05 15:58:47.303187460,1743861527,299887318,piren,0.34057625941750697,0.1598925207555737,0.05846982786478639,0.0008705971199409474,-0.005706414878178424,0.04878630740352191
2025/04/05 15:58:47.380364113,1743861527,378275665,piren,0.33913913858529093,0.04073406285115495,0.012206935047686659,-0.0004193772557113387,-0.004929076108203759,0.048789552385013195
2025/04/05 15:58:47.459864791,1743861527,457256610,piren,0.3400447244736622,-0.08353349053082146,-0.03689154423458847,-0.00014479237312923232,-0.0025625126860919084,0.008992118738861207
2025/04/05 15:58:47.537773121,1743861527,535988967,piren,0.3420921558939585,-0.09045116738363532,-0.03812337916130913,-0.000698894374192927,-0.0011418188276522848,0.008543620791616025
2025/04/05 15:58:47.578310061,1743861527,576470803,piren,0.3416128367502811,-0.08892127405692468,-0.03350767471060359,-0.0017697834025153306,0.00030922334031229664,0.0
2025/04/05 15:58:47.657191332,1743861527,655235916,piren,0.34478498105985855,-0.12988033129031717,-0.04598483673367891,-0.0008893346355932074,0.0029491605561618693,0.008635944633330679
2025/04/05 15:58:47.737309836,1743861527,734754830,piren,0.3479403541463715,-0.19842250581985735,-0.07044622025617676,-0.001630437024152734,0.003987236112798352,0.008572979061748549
2025/04/05 15:58:47.777919630,1743861527,775643188,piren,0.3510431141518672,-0.24970976712902393,-0.108994601204154,-0.0012582830403001207,0.004717277611413421,0.0
2025/04/05 15:58:47.820750889,1743861527,817625613,piren,0.3538630290382415,-0.15908294051705651,-0.08073936602848789,-0.0005249383619416452,0.0051717651662557,0.0
2025/04/05 15:58:47.901370968,1743861527,899008832,piren,0.35546681498193733,0.015608327995081522,0.002131568471475758,-0.0008687746732051116,0.005113815936982525,0.04324097724117844
2025/04/05 15:58:47.981603319,1743861527,979823009,piren,0.358011104158736,0.13792443021002065,0.051264157472245636,-0.0008346240823009489,0.004531346237323242,0.038327486200831526
2025/04/05 15:58:48.23875107,1743861528,20857086,piren,0.36235276034653546,0.11472215587400762,0.038883668451011585,-0.002203076549759101,0.0036439613645660035,0.0
2025/04/05 15:58:48.105227940,1743861528,100394177,piren,0.3632479063314692,0.02060216749579115,0.0051675489858624656,0.00016837041700498243,0.001302320921015334,0.04583080820027355
2025/04/05 15:58:48.181722541,1743861528,180079205,piren,0.3647939148161181,0.08811794287951574,0.0279790018610599,-0.0012663037354245631,0.0002191685523969438,0.029577856840489934
2025/04/05 15:58:48.224260788,1743861528,221360531,piren,0.36542961397792156,-0.016387950018616045,-0.013200036949174375,0.0012371174821703772,-0.0008207778425322104,0.0
2025/04/05 15:58:48.303877611,1743861528,300479066,piren,0.3642237723970737,0.08959191254278785,0.033645138424943814,0.0008899511024080676,-0.0024646995028568086,0.045132353713898836
2025/04/05 15:58:48.381094129,1743861528,379458593,piren,0.36250755516758776,0.09788827828302654,0.032065432269023544,-0.00014580869950362718,-0.0030673729578654637,0.04391377562959769
2025/04/05 15:58:48.460968369,1743861528,459130675,piren,0.3629855462807814,-0.02745101560954183,-0.014819991339111542,0.000847429928372347,-0.003780573762391034,0.007875809974641242
2025/04/05 15:58:48.540773660,1743861528,539083892,piren,0.36855094943642946,-0.02835922907664177,-0.015202856032347107,0.0015986292437030964,-0.004001720379570994,0.009228020790417343
2025/04/05 15:58:48.583051551,1743861528,581249293,piren,0.36955898247946606,0.08232149571843897,0.031038365498934694,0.000482998754511017,-0.0037386004296999418,0.0
2025/04/05 15:58:48.626495503,1743861528,623003461,piren,0.36823428054811,0.04725254855035179,0.015461293722016047,0.0001552181184144417,-0.003212151925982634,0.0
2025/04/05 15:58:48.708529409,1743861528,705061191,piren,0.36550836816138854,-0.09397525574432251,-0.04882937282666058,0.001027452073835054,-0.0018188155292799817,0.03949996692610134
2025/04/05 15:58:48.787009916,1743861528,784808850,piren,0.36569432326823187,0.04023377515321855,0.01518804244787317,0.002336294268505194,-0.0010510453408040421,0.030467647001721974
2025/04/05 15:58:48.828473427,1743861528,826735495,piren,0.36781556550596484,0.11006160971419235,0.03443782964346685,0.0004291034936958642,-0.00030094932422778997,0.0
2025/04/05 15:58:48.911832212,1743861528,907771232,piren,0.3680386534600267,-0.07391898887351674,-0.034214976358309564,-0.0007576376898872796,0.0011498085570036485,0.03578032872284482
2025/04/05 15:58:48.991969656,1743861528,989884538,piren,0.3695586435353439,-0.09366430739521447,-0.04125284733268833,-0.0013723654553528387,0.001763089933285066,0.026228177709176032
2025/04/05 15:58:49.35034132,1743861529,33209822,piren,0.37236459491585294,-0.062218134442554154,-0.021114237236106823,-0.0019337110194450563,0.0022966082429988956,0.0
2025/04/05 15:58:49.77116218,1743861529,74877971,piren,0.3739675359684882,-0.1544888473556429,-0.05774967139371972,-0.002356984322821014,0.002691282220038165,0.03550598297319347
2025/04/05 15:58:49.145253176,1743861529,141745938,piren,0.375009719527653,-0.1881750439874043,-0.06702585116226091,-0.0016976199207842093,0.0030097957474535435,0.006882059528170884
2025/04/05 15:58:49.184862382,1743861529,182867823,piren,0.37674273605146236,-0.228570744939885,-0.08450471073561866,-4.9672442259101806e-05,0.003039555467923396,0.0
2025/04/05 15:58:49.233383893,1743861529,224812969,piren,0.38167301012190147,-0.2313753601975982,-0.10084050022801944,-0.0014129720773829178,0.002908179196471199,0.0
2025/04/05 15:58:49.270171914,1743861529,267528263,piren,0.3852445235233547,-0.12391249388192013,-0.05747189050788957,-0.0006276089590329452,0.002572263233207854,0.0395777838527655
2025/04/05 15:58:49.349808827,1743861529,348000811,piren,0.3879240440724589,0.009133944254795004,0.0029701374810978992,-0.0019142998585002196,0.0012776635812635124,0.006755885776885128
2025/04/05 15:58:49.432372410,1743861529,429376262,piren,0.3917299498264154,-0.07356351051036018,-0.03438250906813005,-0.001852304942045138,0.0004951109319061087,0.006674048791430572
2025/04/05 15:58:49.473917321,1743861529,471628593,piren,0.39168873725482795,-0.006220380624222042,-0.004032642197221675,-0.0003890212750967963,-0.000272718543661019,0.0
2025/04/05 15:58:49.555256749,1743861529,552967141,piren,0.39098688330682463,0.11691921715460236,0.0516936996634975,0.000337075908503755,-0.00161794721649119,0.006507321581391827
2025/04/05 15:58:49.638890002,1743861529,635446889,piren,0.38945482238835083,0.17515833438424025,0.05922309433486623,-0.000888662270169726,-0.0020374860430652127,0.0065256545216585285
2025/04/05 15:58:49.680903204,1743861529,678954451,piren,0.3886097073564143,0.015771425458672043,0.0025584550994006906,-0.00027057205762902315,-0.002393153085244028,0.0
2025/04/05 15:58:49.724866133,1743861529,722721847,piren,0.38814339278044585,0.027298747033733747,0.009420363202304698,-0.0018593124738206868,-0.0025472982964735145,0.0
2025/04/05 15:58:49.767941420,1743861529,765711538,piren,0.3897539829435526,-0.019510747074571445,-0.008036044839286084,0.0011879208052540562,-0.002537972670885383,0.02950620592100016
2025/04/05 15:58:49.850121387,1743861529,847964166,piren,0.39048304661651745,-0.009693310139957606,-0.0016378962624598926,-0.0012314435279037555,-0.002039108824268891,0.006599074737911913
2025/04/05 15:58:49.931378191,1743861529,929262834,piren,0.39273237255942056,-0.08373726339448316,-0.032839140054816904,7.281859455388195e-05,-0.0016309828720896338,0.0065882814792746994
2025/04/05 15:58:49.974053842,1743861529,972085707,piren,0.3925670128323414,-0.0777048224993433,-0.0324248489669804,0.001131013385124856,-0.0011390337008962796,0.0
2025/04/05 15:58:50.55266029,1743861530,52739518,piren,0.39205814323847393,-0.0075621227342855075,-0.0015611587279468083,0.0017673328872024607,2.084599754168623e-05,0.0065069038688128
2025/04/05 15:58:50.136752270,1743861530,134230954,piren,0.39201993276037295,0.1127798761175504,0.048020025613353126,0.0005116228514319691,0.0005961407088125116,0.006419752486797836
2025/04/05 15:58:50.179714100,1743861530,176743609,piren,0.39218656913821653,0.10665126577128173,0.04002890935122333,-0.0009523976557200303,0.0010896904443639455,0.0
2025/04/05 15:58:50.265116954,1743861530,261982177,piren,0.3926199981921797,-0.008068852879981521,-0.004090497723079007,0.0018684793759418986,0.0018438659758031912,0.006396434040142367
2025/04/05 15:58:50.346800297,1743861530,344801633,piren,0.39321776408327563,-9.488813199043248e-05,0.00034399910033566523,0.0017978629391422617,0.002068858506130197,0.006455499259206059
2025/04/05 15:58:50.387587131,1743861530,385861849,piren,0.394216009619319,0.005077261979317568,0.003045784765030785,0.0005429716528876216,0.002237557122678467,0.0
2025/04/05 15:58:50.431027151,1743861530,428814988,piren,0.39488841524075746,0.04469241683585481,0.022595168481566435,0.0015908333081000661,0.0022652648087574763,0.0
2025/04/05 15:58:50.512582495,1743861530,510724050,piren,0.39585675923719144,0.1481862662631292,0.0634464775189586,0.0005582876153596853,0.0018494276528326582,0.03339318749145912
2025/04/05 15:58:50.596187848,1743861530,594027217,piren,0.40239098635857834,0.13709802863239054,0.049252294718491955,-0.0017693698082172056,0.0010421010870750567,0.17204988041571054
2025/04/05 15:58:50.680259582,1743861530,677297238,piren,0.40510262555803134,-0.012252290948305678,-0.009910337428059631,-0.00021296306325612027,0.0005088188496003399,0.03306849472695075
2025/04/05 15:58:50.723139833,1743861530,720500685,piren,0.4096050332090811,0.10022519381011004,0.03726896431096788,-0.0005840292857026574,-1.380507013917874e-05,0.0
2025/04/05 15:58:50.805536930,1743861530,803883838,piren,0.4092129629511534,0.07176715964504951,0.027048491213728838,-0.001173083946652567,-0.0006284958579911811,0.032205447063908085
2025/04/05 15:58:50.889036460,1743861530,887082593,piren,0.40761502330668475,0.03838583675086436,0.012885999821277194,-0.001045586500297841,-0.0010414694950055378,0.026477187893961907
2025/04/05 15:58:50.937512442,1743861530,933133098,piren,0.40930375601210134,-0.08764075686041121,-0.0387971298749867,-0.00043016638988828344,-0.001465376144490867,0.00542670969414829
2025/04/05 15:58:50.979461346,1743861530,976874331,piren,0.4098495483164272,-0.07221440314973243,-0.03055028043903091,-0.00040103184229248515,-0.0016675902851973987,0.0
2025/04/05 15:58:51.64957059,1743861531,60538792,piren,0.4089087677522897,-0.05595673197806038,-0.02270926392297751,-0.001291765185494216,-0.0016796866882704373,0.005457643871566543
2025/04/05 15:58:51.145075657,1743861531,143220039,piren,0.40867757424632795,-0.029236750483908655,-0.010156811262890874,-0.0003799452330998289,-0.001704198037099839,0.0051991434464742975
2025/04/05 15:58:51.187922375,1743861531,185831418,piren,0.4085772619792476,-0.020607365986973474,-0.004564025094379566,-0.00023544353132636374,-0.001619078244010033,0.0
2025/04/05 15:58:51.231486768,1743861531,229647528,piren,0.4115575549086601,-0.13145816400065666,-0.055665186702733904,0.000771080894010701,-0.0014434785636671314,0.005906284044557193
2025/04/05 15:58:51.273477623,1743861531,271640759,piren,0.41260802349350295,-0.08914127294930548,-0.03642813761172785,0.0008507837000871057,-0.0011650551048531686,0.0
2025/04/05 15:58:51.356212630,1743861531,354191363,piren,0.41270437270289173,-0.0530187828311488,-0.020778433770097894,-0.00016436108165259345,-0.0004287188737308334,0.0051477400621555295
2025/04/05 15:58:51.441716573,1743861531,438455806,piren,0.41341939365216507,-0.008654825624916115,-0.001190193233988041,-9.314289461977965e-05,-4.057118932422158e-06,0.005061512185601351
2025/04/05 15:58:51.483947558,1743861531,482013614,piren,0.41282829061061455,0.022095663054400316,0.010608760238398966,-6.135583498128856e-05,0.00037110704337958966,0.0
2025/04/05 15:58:51.529569657,1743861531,526030092,piren,0.4134862182834429,-0.0760658732035237,-0.03206959416433583,0.0016297001915835149,0.0007113028310471117,0.0
2025/04/05 15:58:51.613936867,1743861531,611603223,piren,0.4124262265629403,-0.0344439008636507,-0.015746302046123824,0.0019733163890176823,0.0012493814133276268,0.025448965119363877
2025/04/05 15:58:51.702537157,1743861531,695330590,piren,0.4158944722950152,0.11150915446925248,0.04533780506666045,0.00026384828668981074,0.001593033413884623,0.02651682713393977
2025/04/05 15:58:51.781265222,1743861531,779263238,piren,0.4175768705371103,0.10319625018099833,0.04022041946526556,-0.00011163396170754358,0.0015560949613352194,0.024725029551093698
2025/04/05 15:58:51.823949425,1743861531,822128378,piren,0.42022045629118565,0.04192113715273531,0.017475475355698766,7.989222781278829e-05,0.001415714081591445,0.0
2025/04/05 15:58:51.910226599,1743861531,907155795,piren,0.4201319925508715,0.030584903333329826,0.013635278407464174,-3.6801044610119766e-05,0.0009735135086633182,0.02610025459377538
2025/04/05 15:58:51.994240575,1743861531,992321321,piren,0.4190623024400125,0.020502203905975104,0.00947306520798726,-0.000548945857937168,0.0007733818386416854,0.024966303013179696
2025/04/05 15:58:52.37773606,1743861532,35658374,piren,0.4189956632684916,0.009716650852726856,0.005309000548198679,5.108149419427634e-05,0.0005921078449984433,0.004786231884606648
2025/04/05 15:58:52.80795562,1743861532,78810293,piren,0.4189445686845424,0.01621067552499193,0.008225466309644389,-0.0001541564106201968,0.0002230430878352543,0.0
2025/04/05 15:58:52.126010472,1743861532,122902217,piren,0.4204187509629831,0.005187557795298877,0.003693654276222816,-0.0010153072077312844,-0.00022235732534686518,0.0
2025/04/05 15:58:52.209978390,1743861532,207540915,piren,0.41980550662270283,0.017845108173948947,0.008960900045143202,-0.0005336294404293399,-0.0008995576007085238,0.02214779995232343
2025/04/05 15:58:52.292380404,1743861532,290608550,piren,0.419691411123187,0.016462211521462378,0.007939934172167859,-0.0010306993257155393,-0.0011562872645706358,0.02119204788250702
2025/04/05 15:58:52.337504672,1743861532,334863308,piren,0.4207104736973878,-0.011584731965226545,-0.0037474504027669164,-0.001733596812874489,-0.0013409187257994737,0.004299409591334838
2025/04/05 15:58:52.379151998,1743861532,377396321,piren,0.42150288779609807,0.009120765409061047,0.0058433459052822535,-0.000909882709782899,-0.0014492979324863247,0.0
2025/04/05 15:58:52.445551354,1743861532,443721191,piren,0.42214036364309643,0.1305330299493501,0.05983226832809328,0.0005087484467653679,-0.0014802588326782212,0.0042405583226874126
2025/04/05 15:58:52.488097435,1743861532,486330186,piren,0.42178489734265195,0.19314812899076875,0.06284371227349841,-0.0013118710909305839,-0.001376765731661442,0.0
2025/04/05 15:58:52.534683161,1743861532,530024467,piren,0.42493519753214576,0.004353190754980902,-0.004401635701354468,-0.0017823388730362122,-0.0012043601730056665,0.00493456755013142
2025/04/05 15:58:52.579218629,1743861532,576922593,piren,0.4269018145375273,-0.10552826735064845,-0.05114732632098769,-0.0014436443714606994,-0.000989999078539024,0.0
2025/04/05 15:58:52.625412120,1743861532,621698096,piren,0.4284751238844843,-0.05415749709520277,-0.028980068468585477,0.0006201414306079426,-0.0007264904973309172,0.0
2025/04/05 15:58:52.713294377,1743861532,709433045,piren,0.42927313610241674,0.07608612040605044,0.029351237632116497,-0.0012077060995228212,0.00018051030769538837,0.019494842063286208
2025/04/05 15:58:52.799534776,1743861532,797131244,piren,0.42843171414571574,0.06757676687554383,0.0286238593177824,-0.0002266962951430195,0.0004656650150915255,0.019330752353417635
2025/04/05 15:58:52.845310127,1743861532,842398716,piren,0.4303437899944329,0.049629739995985515,0.0225962812219234,0.0012954194069478317,0.000581571214418972,0.0035078435621951074
2025/04/05 15:58:52.890169487,1743861532,886655507,piren,0.4315085288997828,0.019503578160659406,0.0111328723163089,0.0016979081020239333,0.0007373194372718493,0.0
2025/04/05 15:58:52.939210263,1743861532,933075970,piren,0.4314433910611923,-0.003307547165089743,0.0021162061670237024,0.00022004553441210386,0.0009338369565898623,0.003651556893291071
2025/04/05 15:58:52.980579707,1743861532,978768432,piren,0.42963972315497917,0.03983088489202635,0.019970023050973243,0.00014237727522506066,0.001177411124680528,0.0
2025/04/05 15:58:53.25137171,1743861533,22433089,piren,0.4275228559715195,0.03471647842758142,0.01782808134723941,0.00024285681860623288,0.001427913999612193,0.0
2025/04/05 15:58:53.109155656,1743861533,106938018,piren,0.42557593953408324,0.027810553002762476,0.01395371215403848,0.00044292324345752407,0.0016027261903234882,0.018260080223683507
2025/04/05 15:58:53.195341594,1743861533,192938170,piren,0.42446592798740024,-0.035951481912572615,-0.014095752140061677,0.0011631046900217124,0.0015430097416811324,0.013417668830896793
2025/04/05 15:58:53.239430933,1743861533,237789127,piren,0.4247106447615583,0.021271472646968687,0.010096729081530118,0.0013553021440258243,0.0013755952669627933,0.002518454807097633
2025/04/05 15:58:53.283331645,1743861533,280813256,piren,0.42779745420017,0.00360875841233777,0.0029499563740489187,0.000804074282080372,0.0011463767202659577,0.0
2025/04/05 15:58:53.328599611,1743861533,326691568,piren,0.43015381395122554,-0.00336584662435467,-6.160387578916595e-06,0.0011697358104536624,0.0008258893471294608,0.0
2025/04/05 15:58:53.374155885,1743861533,370835099,piren,0.43098657627614834,0.02812256240772574,0.014507320242341859,0.001880532848094801,0.00044050438237274277,0.008261347406739394
2025/04/05 15:58:53.459176450,1743861533,457427632,piren,0.4307785396910631,0.1105244322558913,0.04328847396119989,-0.00043832618804031406,-0.00033099205811272037,0.0016901861398388382
2025/04/05 15:58:53.544277253,1743861533,542292017,piren,0.4310500302110163,0.043548677713660056,0.017343605350778966,-0.0002557836871738664,-0.0006521397827804588,0.0013128264411143868
2025/04/05 15:58:53.589130330,1743861533,587195083,piren,0.43013057181862097,0.013625242144125279,0.005304156552560181,-0.0001656839140785161,-0.0009572940841618581,0.0
2025/04/05 15:58:53.634293772,1743861533,631907174,piren,0.42980593532090117,-0.06483099545160015,-0.02848752118156231,0.0006487890372708302,-0.001224101707931871,0.0009221558012813963
2025/04/05 15:58:53.679492239,1743861533,677745937,piren,0.42987583210291835,-0.026244285785197212,-0.010548476018744079,-0.0009766611943680839,-0.0013649972541423163,0.0
2025/04/05 15:58:53.725812016,1743861533,722639062,piren,0.4300397515924552,-0.025303968387918357,-0.009990754320924652,-0.0011946602325771953,-0.0014362948082331775,0.0
2025/04/05 15:58:53.814609320,1743861533,810260796,piren,0.43028841390560396,0.015736944362517158,0.00788672179059374,-0.0008647306326576546,-0.001368488747475794,0.0028408053657897176
2025/04/05 15:58:53.904828106,1743861533,900480028,piren,0.43032833207347615,-0.00312496161607818,0.0009048035128912695,0.0004932612839802334,-0.0013802235377556294,0.000705555220683089
2025/04/05 15:58:53.992215152,1743861533,989989296,piren,0.4341053279059639,0.07145144174155896,0.030529207746176262,-0.0008960831372641636,-0.001283073720162029,0.00015987151755958442
2025/04/05 15:58:54.37183379,1743861534,35100727,piren,0.43695213198073146,0.03130172191046426,0.017244348995740046,-0.0002796333614641438,-0.0011261365679806326,0.0002380860947298352
2025/04/05 15:58:54.83260063,1743861534,80572483,piren,0.4387524846063708,0.11705939416351774,0.05594993877141163,-0.0001931889096946343,-0.000767485754405486,0.0
2025/04/05 15:58:54.129347900,1743861534,125241783,piren,0.4384685707719573,0.176213745889525,0.06388883487404624,-0.0012935429083056665,-0.00027423747465217323,0.0
2025/04/05 15:58:54.172762335,1743861534,170361018,piren,0.4378034561607845,0.03082087466312258,0.009985110618410467,-0.0005568188994205925,0.00022893207669698695,0.000847867723207244
2025/04/05 15:58:54.260444645,1743861534,257448118,piren,0.4371578449526053,-0.07116876162726175,-0.029994129756374294,0.0006494666454706542,0.0011373920641638484,-0.00020201864570613533
2025/04/05 15:58:54.345636378,1743861534,343654157,piren,0.43675238935520583,-0.07858690498298967,-0.031532290067373576,0.00039616432352309027,0.001514586939852838,-0.0005648189942500022
2025/04/05 15:58:54.389712374,1743861534,387877826,piren,0.43553106451118484,-0.07112153674160009,-0.027035610672666358,0.000493115530443031,0.0017821038927209423,0.0
2025/04/05 15:58:54.435932049,1743861534,433777720,piren,0.4354816174789985,-0.06688059746333183,-0.024658014798708654,0.0005690293037499013,0.0019438895237768252,-0.0009441561337386513
2025/04/05 15:58:54.481201893,1743861534,479011808,piren,0.43482858038319017,-0.06121255254300412,-0.021606220355947277,0.0006294588880228807,0.0018047270213431684,0.0
2025/04/05 15:58:54.528639088,1743861534,524549521,piren,0.43636884533938963,-0.055903368181351484,-0.019427618033511576,0.0006791035921947687,0.0014702645477969445,0.0
2025/04/05 15:58:54.615989534,1743861534,612850274,piren,0.43633064602203747,-0.04753945838321677,-0.01658345055909094,0.0008221510088026475,0.0005715858021505366,-0.004455790139869394
2025/04/05 15:58:54.704400918,1743861534,701520095,piren,0.4357983172060526,-0.031928020932304686,-0.010093005625981774,0.0007201994079101318,7.518688882229029e-05,-0.003827257655794578
2025/04/05 15:58:54.750631419,1743861534,747802647,piren,0.4389350845576475,-0.028375241460306733,-0.011047433180258068,0.00016094388154239998,-0.0008989804562350966,-0.0005006172171947243
2025/04/05 15:58:54.839075566,1743861534,836633208,piren,0.44112169595061473,0.098965791247161,0.04338548464468621,0.0009368714880443152,-0.0013045270079238306,-0.00019067745292611718
2025/04/05 15:58:54.886482505,1743861534,883904900,piren,0.44136479930080996,0.11657472055573524,0.053434326434800214,0.0008000342894472373,-0.0016076839535106074,0.0
2025/04/05 15:58:54.935709128,1743861534,931338652,piren,0.4416624623119563,0.1451945733384397,0.05861011273565631,0.00021888052470186422,-0.0018222629581896245,2.8761927092205286e-05
2025/04/05 15:58:54.980408496,1743861534,978161957,piren,0.4406807868069119,0.06926240073356763,0.029084931789815197,4.043959261511035e-05,-0.0019095835270480383,0.0
2025/04/05 15:58:55.29064680,1743861535,24034952,piren,0.4404341423841744,0.01824234860947103,0.009286229250236321,-0.00012861567994477645,-0.0018858157774712505,0.0
2025/04/05 15:58:55.117157762,1743861535,113742041,piren,0.4399610651920504,-0.016224887527412902,-0.004410824262216759,-0.0004524232219055472,-0.001091726096853786,0.0012117704759267171
2025/04/05 15:58:55.205466884,1743861535,203052969,piren,0.43722816072398174,-0.036787082112940066,-0.012081398346419008,-0.0009291824304721055,4.95174549510984e-05,0.0009827618366958911
2025/04/05 15:58:55.295046476,1743861535,290162134,piren,0.4354158420995662,-0.06555709955962824,-0.01995163627633883,-0.001659900784273917,0.0005708886931724854,-0.0006788349389193999
2025/04/05 15:58:55.339456846,1743861535,336848206,piren,0.4350501217081791,-0.17302836850496175,-0.062139364293533894,-0.0022599465369846977,0.0011136848500372875,-0.0004578032209064152
2025/04/05 15:58:55.383351248,1743861535,381317659,piren,0.43778437486348376,-0.2257938171539145,-0.0918236286196968,-0.0009083230612281269,0.001388609994848288,0.0
2025/04/05 15:58:55.430062777,1743861535,427122226,piren,0.44168198614735404,-0.18336905381076088,-0.07584972913159059,-0.00026666083565313414,0.0014878722843538006,0.0
2025/04/05 15:58:55.475038359,1743861535,473001651,piren,0.4439283904101333,-0.12840029379776824,-0.04438255633453511,-0.001976577434251267,0.0015343169932770942,-0.0023071770194720218
2025/04/05 15:58:55.564928444,1743861535,562394652,piren,0.445206865633688,-0.1754888595107501,-0.062168690400287926,-0.0008807864180047646,0.00122137979227594,-0.0003552142969223335
2025/04/05 15:58:55.652693309,1743861535,650299274,piren,0.4468107768358142,-0.20189642256959764,-0.075946356969546,-0.001988117548542001,0.00038493709440168885,-0.0002450737220828618
2025/04/05 15:58:55.744794956,1743861535,742183541,piren,0.44875212896143085,-0.19135485019212933,-0.06991535604745924,-0.0003180043266878116,-9.93073376736756e-06,0.0003017174526023212
2025/04/05 15:58:55.793111834,1743861535,788950478,piren,0.447478626181917,-0.19359385372309793,-0.08490587229230015,0.0005908438769191024,-0.0004440879860605923,0.0
2025/04/05 15:58:55.838925585,1743861535,836743641,piren,0.4462002213741004,-0.07956006954961985,-0.040065290078152925,0.0009076130805836389,-0.0008666177266057018,0.0005492336132488176
2025/04/05 15:58:55.885134305,1743861535,882979053,piren,0.4449372033009718,0.10944821455343026,0.050839705789630756,0.0013421275475122907,-0.0012046491074309941,0.0
2025/04/05 15:58:55.955038823,1743861535,953086597,piren,0.4465389822732853,0.22833507787729024,0.07762283844024476,-0.0002880919009414399,-0.0016573024280737473,0.0007122305111790201
2025/04/05 15:58:56.47937058,1743861536,41278483,piren,0.4480464614029974,0.07042974086009177,0.02703722815951024,-9.880484227197054e-05,-0.001734168957464295,0.0009062934013884651
2025/04/05 15:58:56.88711508,1743861536,86812917,piren,0.44824734517181697,0.08306577213321573,0.041797045975745246,0.0014694015666595764,-0.0016808063595276494,0.0
2025/04/05 15:58:56.139458322,1743861536,136699705,piren,0.4486660745320006,0.19422329816334638,0.07951718686666065,0.0013288848290490178,-0.0013987949130161127,0.0013434681976098992
2025/04/05 15:58:56.185239634,1743861536,183348817,piren,0.4470858864431386,0.1370548916983745,0.05033938198691899,-0.00037286133638189596,-0.0008117329002313978,0.0
2025/04/05 15:58:56.232501943,1743861536,230619762,piren,0.4448008955410332,-0.006672909352578925,-0.002474389467714606,-0.0002881136909746552,-0.0001384003565602067,0.0
2025/04/05 15:58:56.279845746,1743861536,276334345,piren,0.44293480387355033,0.018069543805682608,0.012120863745502537,0.0010047086881971189,0.00039948097671195347,0.0067181345605551125
2025/04/05 15:58:56.368193718,1743861536,365314928,piren,0.4434526845574515,0.13923934435046545,0.05000338724485117,-0.0012976987327066871,0.0013213332827488006,0.0012441492856377068
2025/04/05 15:58:56.456515193,1743861536,454134570,piren,0.4430309678428787,-0.009842255601865054,-0.005311768234303106,0.001825858007668943,0.0020182427742694345,0.001135377400186978
2025/04/05 15:58:56.548499610,1743861536,543324900,piren,0.44403717158955724,0.09038051717756188,0.03657965045642601,0.0002585836593549462,0.0020605070276330088,0.0010312730308017332
2025/04/05 15:58:56.590389604,1743861536,588066882,piren,0.4445048513495075,0.04940812404702927,0.025716026518561787,-0.0002288286119894265,0.002117360029183564,0.0
2025/04/05 15:58:56.637231750,1743861536,634314235,piren,0.44375420469076193,0.15033091096818474,0.0621231983613184,-0.0013157912274948385,0.002123573270516418,0.0
2025/04/05 15:58:56.685083194,1743861536,681844533,piren,0.44296633931426493,0.09886356220859346,0.043415645639064304,-0.001649559216827499,0.0018346248147841015,0.004971080994155075
2025/04/05 15:58:56.730981465,1743861536,727795733,piren,0.44836757107267305,0.0652781756335522,0.03428064164021513,-0.0005019942260295235,0.0013710614629354407,0.0
2025/04/05 15:58:56.777539048,1743861536,774618777,piren,0.45009977333761414,0.13984037561645513,0.048918028580269314,-0.0016841481843036339,0.001017727104047626,0.004218408450307127
2025/04/05 15:58:56.866665074,1743861536,864397125,piren,0.44838571603379745,-0.04079415682546805,-0.016415327632188073,-0.0012351393098528147,0.00030426025877869584,0.0007394717861700936
2025/04/05 15:58:56.958888110,1743861536,956956753,piren,0.45040322187246595,-0.1505313031585054,-0.07697773453175977,0.0006497743756411163,-0.0004637992618353878,0.00037411702974370347
2025/04/05 15:58:57.48080578,1743861537,45995532,piren,0.4515423433593892,0.00022828373458161745,-0.003295589398846064,-0.00020548327714357264,-0.0012334721600147616,4.149779206621625e-05
2025/04/05 15:58:57.137628359,1743861537,134116718,piren,0.45374716254505265,-0.00812214134315364,-0.003094564063307286,-2.921965413106971e-05,-0.001705408100759926,-6.166028551110253e-05
2025/04/05 15:58:57.183125223,1743861537,181052641,piren,0.4547072241285674,-0.013542590035295458,-0.0030000415332085014,0.00040734392496616487,-0.0021078696005095636,0.0
2025/04/05 15:58:57.231421510,1743861537,227360423,piren,0.45531624701786644,-0.0006855993335203069,0.003959412264168067,0.000408122092100634,-0.002373933782012512,0.0
2025/04/05 15:58:57.275694707,1743861537,273224485,piren,0.4549122028783598,-0.01145100916759055,0.0003798861584361782,0.0004513249097778995,-0.00245553155333416,0.0009127489958166121
2025/04/05 15:58:57.321622605,1743861537,319495273,piren,0.4549121650257058,-0.011447802853077197,0.0005021688498520866,0.0014251915699167168,-0.00242251174958399,0.0
2025/04/05 15:58:57.415563374,1743861537,409047015,piren,0.4532941333916783,-0.028439159859789273,-0.00806694034961174,0.002116915120894984,-0.001793284492630384,0.002082117250649279
2025/04/05 15:58:57.504161184,1743861537,501858696,piren,0.4506328247148544,0.07620428529479481,0.029669257207810735,-0.0012595776899452218,-0.0006782620453697032,0.0020618867081716153
2025/04/05 15:58:57.595814324,1743861537,594002441,piren,0.45106885906727334,-0.06275162556129923,-0.02176052661114979,-0.0007771089954536441,0.0005549435943612419,0.002183451113203204
2025/04/05 15:58:57.687681118,1743861537,685752064,piren,0.4511000480124068,-0.20821799756923093,-0.08343056898079061,-0.00010058691116790514,0.0011007581127718874,0.0026599209737468038
2025/04/05 15:58:57.736299080,1743861537,732553670,piren,0.4513083302994548,-0.17192254223466272,-0.07678286223797205,0.00043507959052858474,0.0015820250163451782,0.0005218922880018793
2025/04/05 15:58:57.783510939,1743861537,780432330,piren,0.45106807126389936,-0.056771611252312615,-0.022761715295311413,8.257546814159195e-05,0.002075262857106866,0.0
2025/04/05 15:58:57.829866260,1743861537,827774853,piren,0.4503412661664176,-0.0214255422619275,-0.00658729282496833,-0.000793241011796704,0.002496504112129343,0.0
2025/04/05 15:58:57.877771285,1743861537,875031129,piren,0.4496626271562561,-0.002917031652809426,0.0023609649187329496,-0.0009957246355496668,0.0025164920257244676,0.0019328557501113678
2025/04/05 15:58:57.969163359,1743861537,967222012,piren,0.4518373557971344,-0.03765055650456156,-0.0127278398027269,-0.0007392037645425538,0.0018992517607646618,0.00019720396927849033
2025/04/05 15:58:58.58857729,1743861538,57076973,piren,0.45124094014976857,-0.0317637439924249,-0.010652466509054718,0.0001386056069530644,0.0012239446940275646,0.00048163713738827327
2025/04/05 15:58:58.151541612,1743861538,148643114,piren,0.45114327277034033,-0.031732118860881814,-0.009654032809000637,-0.001359899456546303,0.0008074542089166598,0.0005654489293081084
2025/04/05 15:58:58.198333447,1743861538,196096657,piren,0.45464354316373323,-0.0950648207409768,-0.0478543280123258,0.0006825289627388217,-0.00025035662715967627,0.0
2025/04/05 15:58:58.289928808,1743861538,286718180,piren,0.45685752982054184,0.07065991218203323,0.02584276153160329,-0.0006952191422470494,-0.0007154870804535324,0.0027973729881569684
2025/04/05 15:58:58.336617504,1743861538,334064118,piren,0.4579703862488622,0.0744248952231003,0.024250568987328948,-0.0005816924380290443,-0.001157013636974713,0.0007146280253899227
2025/04/05 15:58:58.382076594,1743861538,379943195,piren,0.4585659861452162,-0.04616329975502952,-0.025851344247731986,0.001110984537948628,-0.001534446436517285,0.0
2025/04/05 15:58:58.429816680,1743861538,427672202,piren,0.45870697704968966,0.06514426142051888,0.01957619539065312,-0.00045527986202650004,-0.0018004432146871115,0.0
2025/04/05 15:58:58.477422737,1743861538,475471770,piren,0.4584118029375957,-0.0548778529120988,-0.024993294406630978,-0.0012284661389831027,-0.0019041563153725436,0.0032426907766693507
2025/04/05 15:58:58.524862526,1743861538,522365776,piren,0.45778361557193287,-0.0928597069478824,-0.04252729609725776,-0.00022320397081879173,-0.001891075936964898,0.0
2025/04/05 15:58:58.618698396,1743861538,615217626,piren,0.4568114056259867,-0.028186708473896496,-0.009697421065963701,0.00016109974247954055,-0.0016361437497191913,0.0042046205465236216
2025/04/05 15:58:58.715517085,1743861538,711269967,piren,0.4555438461185325,-0.10300382184002044,-0.04578195285240176,-0.00037384534236716157,-0.0010352919566487702,0.003917168314919242
2025/04/05 15:58:58.809402646,1743861538,806556153,piren,0.4543377260648708,-0.017357762887164008,-0.005884145728276412,0.0011696444282564935,-0.00025419150562611397,0.0046258641848434465
2025/04/05 15:58:58.905918263,1743861538,901648137,piren,0.45727586233261724,0.021084502159151915,0.012177723675776738,-0.00023621788430382146,0.0006488901089269061,0.004783181010605947
2025/04/05 15:58:58.999689829,1743861538,997323549,piren,0.4575893875722908,0.06214199240548225,0.03009271624336138,0.0011660364543190057,0.0011285392215440917,0.005982006114473659
2025/04/05 15:58:59.91952432,1743861539,89966198,piren,0.4585642013233263,0.06998046444593431,0.029052598162530013,-0.0005341057528245927,0.0013409027745362552,0.005495852279890369
2025/04/05 15:58:59.139851476,1743861539,138095782,piren,0.45834420112712193,-0.026848911329914654,-0.010401979497928605,-0.0004830091223877756,0.0015565033017236822,0.001209171415695306
2025/04/05 15:58:59.188885766,1743861539,185702325,piren,0.45827660230191314,0.027123451687488597,0.01546877720836163,0.0010216208543490177,0.0016436672329737559,0.0
2025/04/05 15:58:59.236920478,1743861539,234197009,piren,0.4584407716508079,0.16299041804539885,0.06638466557598083,0.0007790802688914637,0.0016397676333026003,0.0
2025/04/05 15:58:59.285685829,1743861539,282624409,piren,0.4582464164217031,0.1269170975298178,0.045253183021456415,-0.0008095120240470424,0.0015783770580868434,0.006478760372910137
2025/04/05 15:58:59.333965678,1743861539,331739565,piren,0.45826358272720713,-0.0043032593755386,-0.004065175542236901,-0.00041350367910845335,0.001423644119711256,0.0
2025/04/05 15:58:59.381358414,1743861539,379248706,piren,0.4578460367904182,0.0730122130863395,0.034088366551524626,0.001069309102486749,0.0011515482768285881,0.007010000650260862
2025/04/05 15:58:59.431771636,1743861539,428151734,piren,0.4580966420416641,0.1651325633514451,0.06705849207337852,-0.0003195747396635821,0.0007936713169951403,0.0
2025/04/05 15:58:59.479087949,1743861539,476913525,piren,0.4583395087277101,0.12077867081680983,0.05124295036133937,-0.0013130530678272362,0.0005627153044174885,0.005811800050918309
2025/04/05 15:58:59.595474280,1743861539,592965761,piren,0.45702674041576313,0.09567213762068887,0.04085834305485383,-0.000275240983222284,7.936438376325423e-05,0.0011353959670777364
2025/04/05 15:58:59.644209703,1743861539,641586006,piren,0.4568386165947472,0.057827283844779837,0.03001124072467406,0.00046635228080155883,-0.00018008717978891309,0.0007222316429806291
2025/04/05 15:58:59.691523890,1743861539,689683413,piren,0.45992391537698096,0.14168577301119475,0.06746743784122879,0.0006729158167585448,-0.00040089563060727995,0.0
2025/04/05 15:58:59.741625631,1743861539,739011560,piren,0.4621545819045869,0.19151624564758107,0.07741630251016093,-0.0006296205179434445,-0.0005861892214522888,0.00031538927916546154
2025/04/05 15:58:59.788907123,1743861539,786925733,piren,0.46313488114698786,0.11150548216509966,0.043467760596362474,-0.0008222540369360804,-0.0007746696422873924,0.0
2025/04/05 15:58:59.840305371,1743861539,837980961,piren,0.46385964916810063,0.014129552605200664,0.006604550377957415,-0.0005984072106066856,-0.0009325477814996975,-4.146775191282366e-05
2025/04/05 15:58:59.889877910,1743861539,887373260,piren,0.4638137402913275,-0.00438343904827332,9.787019470470136e-06,0.0003016216986477453,-0.0010237676174334655,0.0
2025/04/05 15:58:59.943760161,1743861539,940898596,piren,0.4635589313061059,-0.029389587549864996,-0.007719359642919756,-0.0005902591434722472,-0.001026155787544463,-0.0004061592366783622
2025/04/05 15:58:59.991206669,1743861539,989068725,piren,0.46202706606911764,-0.1510874637908157,-0.05510242828721467,-0.0014834822739496706,-0.0010054329596562593,0.0
2025/04/05 15:59:00.40488601,1743861540,38390709,piren,0.46095602680738057,-0.19657342362141825,-0.09924192930045508,0.00029288042451085266,-0.000921684872432492,-0.0007340288561806712
2025/04/05 15:59:00.88368378,1743861540,86564116,piren,0.4596381913199853,-0.014807834593266277,-0.01091523933817892,0.0016808710143971601,-0.0009201129753473505,0.0
2025/04/05 15:59:00.136857154,1743861540,134908505,piren,0.4601255564555377,0.08757200499970579,0.033345569424406515,9.78227729394651e-05,-0.0009306554184850881,0.0
2025/04/05 15:59:00.185436564,1743861540,183637743,piren,0.46024420251844717,0.05265010798872903,0.021021914562168398,0.00021999718001472048,-0.0009501856501242999,-0.004370069564024046
2025/04/05 15:59:00.234135455,1743861540,231645815,piren,0.46035541309330724,-0.005514524301677825,-0.0005536452308496674,0.0015377872461895437,-0.0009155659027180236,0.0
2025/04/05 15:59:00.281978038,1743861540,279659911,piren,0.4596632755745727,0.048244547830941405,0.025245260766603293,0.0023977793680569214,-0.0007821816367252776,-0.0028911283660432276
2025/04/05 15:59:00.375071758,1743861540,373167913,piren,0.4588733579247361,0.10957649717318316,0.0462116428103074,-0.0006093879118241052,-0.0002502193620206388,-0.00034998728790573767
2025/04/05 15:59:00.469231480,1743861540,467254689,piren,0.4608349294721953,0.049454214288583966,0.023050493528878876,0.000720405891320458,0.0006238603922627862,-0.0005047939624398069
2025/04/05 15:59:00.565879688,1743861540,563436947,piren,0.46203354001555735,0.008130701970065294,0.006807610237538107,-0.000520547534797355,0.00137116589083425,-0.0008210805615634769
2025/04/05 15:59:00.659122960,1743861540,657145707,piren,0.46225209571409087,-0.005057925859558934,0.0013880376179662376,0.0006139200267802349,0.00178247018756894,-0.0012046239885644971
2025/04/05 15:59:00.753995540,1743861540,752192507,piren,0.4621191212089178,-0.03257832217815101,-0.010190074318775584,-0.0011378138482100203,0.0016018698718201262,-0.0015619898153052163
2025/04/05 15:59:00.848932194,1743861540,846011795,piren,0.46326519997554955,-0.028036537088065167,-0.010568988488902038,0.0003476071325914112,0.0011783223944749413,-0.0016329016028876146
2025/04/05 15:59:00.897670999,1743861540,895362946,piren,0.46338884037807865,0.07513767465930836,0.02985052589071009,0.00013937973499012873,0.0007125032165943872,0.0
2025/04/05 15:59:00.949297243,1743861540,946536680,piren,0.46336770768234226,0.01951126304017277,0.006817879644640776,-0.0014894361287027052,0.00021572630259817144,-0.001300152930042452
2025/04/05 15:59:01.3732279,1743861540,998581423,piren,0.4610748800859279,-0.1144247058666712,-0.05147020678453881,-0.001294970676121158,-0.00032549755101092385,0.0
2025/04/05 15:59:01.62517847,1743861541,58447498,piren,0.4633951570602021,-0.07725614495664959,-0.03097895659682328,-0.00015271096648082074,-0.0012597135098716208,-0.0013150032126815587
2025/04/05 15:59:01.162547512,1743861541,160277439,piren,0.46427366139900533,-0.09965985171423715,-0.04811497871141822,-0.00028083304823015,-0.0018326750634911806,-0.0008726811132202245
2025/04/05 15:59:01.257204090,1743861541,255045146,piren,0.4644793737847414,0.03750340786581719,0.012810971911600112,-0.00014818673831783284,-0.001983663884543915,-0.0006637458185012599
2025/04/05 15:59:01.351903050,1743861541,349766710,piren,0.46453627057138774,-0.030743741917020423,-0.011441027790023074,-0.0014549413350828913,-0.0017535297736250143,-0.0004343025314923394
2025/04/05 15:59:01.447429738,1743861541,445106809,piren,0.4642508364997952,-0.1454429031260147,-0.07280760051628242,0.0005528157952497257,-0.0014557240994850903,-0.0001896490351866804
2025/04/05 15:59:01.494739950,1743861541,492789702,piren,0.46313687466042247,0.03159673645110342,0.01112320831420558,0.0012252847152934743,-0.0009949930657414837,0.0
2025/04/05 15:59:01.544860615,1743861541,542907756,piren,0.4618773618142992,0.07557064570335102,0.033428102514001176,0.0009139558281200713,8.861087817738456e-05,-5.816329552405392e-05
2025/04/05 15:59:01.643187634,1743861541,638577854,piren,0.4660204351114561,0.11489268966608372,0.04997302006854694,0.001045047804076469,0.00060006161662292,-1.637713993414883e-05
2025/04/05 15:59:01.689700328,1743861541,686982019,piren,0.46677465821646086,0.06710372933003647,0.03080533805512557,0.0009002692618208281,0.0009812254120454577,0.0
2025/04/05 15:59:01.739686907,1743861541,737081134,piren,0.46811130703800163,0.01798978244983405,0.010349696545692752,-0.000626755823365866,0.0012405715619363466,-5.596667327431474e-05
2025/04/05 15:59:01.788793085,1743861541,786498788,piren,0.46822908608930647,-0.09298235558585895,-0.04469755671978582,0.0009023863042431276,0.001533535279445999,0.0
2025/04/05 15:59:01.838566367,1743861541,836465688,piren,0.4674619765787588,0.04742282126032572,0.018993967633461995,0.001272340054835362,0.0017844818847695006,0.00011544901023596503
2025/04/05 15:59:01.888534076,1743861541,886440529,piren,0.4662890171083167,0.061246062743186704,0.021358491721208843,-0.0005024348390463392,0.0020677716320211875,0.0
