time,header_stamp_secs,header_stamp_nsecs,header_frame_id,twist_linear_x,twist_linear_y,twist_linear_z,twist_angular_x,twist_angular_y,twist_angular_z
2025/04/05 15:58:41.601970008,1743861521,282320931,piren,0.14271878150891548,0.09776139336336212,0.04826911948269058,0.0010879259821797655,0.004547231118139736,0.0
2025/04/05 15:58:41.602147995,1743861521,320831703,piren,0.1478292004774175,0.04775643475295522,0.02698133092432792,-5.991748009850512e-06,0.009258384770435021,-0.008326838257809043
2025/04/05 15:58:41.602242378,1743861521,391298684,piren,0.15722993221077097,0.12132247017480052,0.05450498736133974,0.000984297334722609,0.010798477888073236,0.0
2025/04/05 15:58:41.603266543,1743861521,428745380,piren,0.16170758271275637,0.0625122383259169,0.029260672409306222,0.001519685355330815,0.011782646899376619,-0.00627042715714863
2025/04/05 15:58:41.603359175,1743861521,498490190,piren,0.16476147187738654,0.016278519017260032,0.008601869170531289,0.00017190171902483706,0.012069232673522062,0.0
2025/04/05 15:58:41.607602092,1743861521,535528886,piren,0.1697432223875466,0.023180256663636236,0.010054517252924115,-0.0005452377201949556,0.01174205538639359,-0.005517608385771429
2025/04/05 15:58:41.607705833,1743861521,572344459,piren,0.16868154121088985,-0.09924708114826884,-0.047048209719376274,0.0010686332562304072,0.010739279937882689,0.0
2025/04/05 15:58:41.659881098,1743861521,647081218,piren,0.17227608872588002,-0.07654001376972687,-0.037448391783029306,-0.0006386399937917651,0.009267013230581798,-0.004888614127186849
2025/04/05 15:58:41.699759448,1743861521,698136495,piren,0.17896881587212188,-0.03318692067996367,-0.019593569273906992,-0.0008623706176280875,0.004908614225494572,0.0
2025/04/05 15:58:41.776716369,1743861521,774727294,piren,0.18445309187065956,-0.005056373307252084,-0.008017082006554673,9.617307943794928e-05,0.0020780364276603695,-0.018814193706434727
2025/04/05 15:58:41.852207932,1743861521,849995001,piren,0.19042276709601536,-0.001543480444706671,-0.006347389362488784,-0.0019604124744236565,-0.003958258741734038,-0.004487502074499609
2025/04/05 15:58:41.927592860,1743861521,924821927,piren,0.192261250148249,-0.04925322654030411,-0.027082537848367477,-0.001698505765920196,-0.006548495935707791,0.0
2025/04/05 15:58:42.2144369,1743861521,997702491,piren,0.1926269709187636,-0.11233469390231207,-0.055271045954689395,-0.00101006495802434,-0.008530209479484576,-0.0172792756300418
2025/04/05 15:58:42.39880290,1743861522,36149249,piren,0.19747012444340725,0.0033437231178142096,-0.00506960894799454,-0.001208030060120694,-0.009925482657746041,-0.0030677471591055846
2025/04/05 15:58:42.74966622,1743861522,73033766,piren,0.1974401969489236,-0.006547528549663053,-0.006804783795770662,-0.001526303002481547,-0.010693994478444668,0.0
2025/04/05 15:58:42.150478163,1743861522,146371967,piren,0.1972026092798842,-0.02238055397715457,-0.011506232441911011,-0.0014418096678779201,-0.010837703085066097,-0.0028785349901080523
2025/04/05 15:58:42.184985227,1743861522,183075780,piren,0.20057372607905108,0.023963229666515096,0.009999331349194672,-0.0018357306465805504,-0.0102847796193984,0.0
2025/04/05 15:58:42.224715223,1743861522,221398331,piren,0.2016852057701044,0.015428915773463947,0.00812664783008189,-0.0021433333651116973,-0.009220169460416303,0.0
2025/04/05 15:58:42.297766865,1743861522,294776638,piren,0.19963755650771872,-0.0805071571891402,-0.034329556927486474,-0.0018150518144599483,-0.007558841473632932,-0.01425899467457911
2025/04/05 15:58:42.337295690,1743861522,334996171,piren,0.20481169267438873,0.02431721142593246,0.0110580704239066,-0.0018895438093860985,-0.0055140865368341506,-0.0025880165761431803
2025/04/05 15:58:42.407988092,1743861522,372830393,piren,0.2083699571257057,0.0411428496343889,0.020103646088272257,-0.0003683973726479972,-0.003154617620869324,0.0
2025/04/05 15:58:42.468291629,1743861522,449256875,piren,0.21101228021041152,0.03204082096995093,0.017168122884626782,0.00030931209762477877,0.0018548492615740257,-0.00233375041447566
2025/04/05 15:58:42.531678661,1743861522,529509859,piren,0.21395982118644952,0.022829396188899537,0.013462175121628676,0.0008123035334089902,0.004224366090523889,-0.0023120063035605835
2025/04/05 15:58:42.571762571,1743861522,569293756,piren,0.2214446557152087,0.13496050676421883,0.05658622548908597,0.0009575975391747533,0.006218112191858169,0.0
2025/04/05 15:58:42.646204224,1743861522,644283289,piren,0.2286732159083613,0.20368279713088677,0.08241652952500084,-0.000613106460911123,0.007764822852031386,-0.0020794747602162697
2025/04/05 15:58:42.684748802,1743861522,682281211,piren,0.224711337406211,0.026023987336066173,0.005531253135064432,0.0006259433291714859,0.008957919584391901,0.0
2025/04/05 15:58:42.759560150,1743861522,757696135,piren,0.22707931082695723,0.01816839007519787,0.003695923290117534,0.00012400016277766196,0.009927178239192175,-0.0015393236248129945
2025/04/05 15:58:42.835726841,1743861522,831304016,piren,0.22966638000480089,0.024299789505539713,0.006751433372131302,0.0012007341429397347,0.009628868076404533,0.0
2025/04/05 15:58:42.872300028,1743861522,869958656,piren,0.22789190906376006,-0.102783605873219,-0.05148774489495443,0.0019219508303118145,0.008472206691212784,-0.007095711160894949
2025/04/05 15:58:42.947260842,1743861522,944662894,piren,0.23674499544620176,-0.01432126271033654,-0.013356077431541623,0.0011352947071169423,0.004803391118534186,-0.0010181794940866764
2025/04/05 15:58:43.44167673,1743861523,41867777,piren,0.23643591295108307,-0.12103879592887083,-0.061896764879876526,0.00046976194911959305,0.002493949011031359,-0.00034438317018006457
2025/04/05 15:58:43.87898711,1743861523,80429060,piren,0.24244869163233032,-0.05975710695333861,-0.03333963187975753,-0.00012284071689217275,7.53809348013892e-05,0.0
2025/04/05 15:58:43.123253112,1743861523,121138825,piren,0.24212085409499193,-0.13079367991640525,-0.06507927621108107,0.0003628267335172013,-0.002407859358080529,0.0
2025/04/05 15:58:43.197580394,1743861523,195057344,piren,0.24713080969338533,-0.05123250867950434,-0.028406694301551363,0.0008198181353835748,-0.004801580181088013,0.0009397412327548381
2025/04/05 15:58:43.237858631,1743861523,234938407,piren,0.2538856017402622,0.06687908834164784,0.022054603138527556,-0.0001696445218596548,-0.0067431091171110385,0.000978592179623063
2025/04/05 15:58:43.274928318,1743861523,272923009,piren,0.2530912445235344,0.04554534143785542,0.015731263337242767,0.00017600662043790798,-0.00821814694059907,0.0
2025/04/05 15:58:43.349470334,1743861523,346475764,piren,0.25272702440042843,0.03523537620940271,0.013611693533628627,-0.00027535651266330323,-0.009250886310467792,0.0015728844063103294
2025/04/05 15:58:43.386638196,1743861523,383987056,piren,0.25304343324389716,0.029365215683265083,0.012991806921685283,-0.0004819697998185039,-0.0097079129915827,0.0
2025/04/05 15:58:43.424532760,1743861523,422760537,piren,0.25285318537087276,0.021822751955051095,0.011312131584810476,-0.0025598454052892946,-0.009590135271486075,0.0
2025/04/05 15:58:43.499873149,1743861523,497005925,piren,0.25376947455806653,0.039421477087853526,0.019902249939834978,-0.0013419849894847978,-0.008809364751821619,0.010804152309832287
2025/04/05 15:58:43.539159046,1743861523,536754362,piren,0.258981910400098,0.15190335474540018,0.06398469634899195,-0.0010571019237472854,-0.0075175886252330645,0.0027491234582393423
2025/04/05 15:58:43.577944708,1743861523,575655587,piren,0.25725885372062285,0.09060352163737673,0.040490554385457164,-0.0025373413995072557,-0.005744818483110366,0.0
2025/04/05 15:58:43.616373806,1743861523,614426879,piren,0.2543358484402233,-0.05160746860969981,-0.021719101488224597,-0.0038717180024338688,-0.0036558282498774953,0.0
2025/04/05 15:58:43.692044905,1743861523,689887678,piren,0.2534173109173934,-0.11536412387722508,-0.04846157734637157,-0.001142951333302676,-0.001421369383206609,0.01760996003015268
2025/04/05 15:58:43.733592399,1743861523,731705215,piren,0.25767167597259677,-0.07530046724928058,-0.029367909167982348,-0.0006456777742019598,0.0008245558096661338,0.0037407510501923516
2025/04/05 15:58:43.772988850,1743861523,771129125,piren,0.2663324676746014,0.07128452430665685,0.029802929603344477,-0.003989915690334063,0.0031043337854009677,0.0
2025/04/05 15:58:43.850799078,1743861523,848651730,piren,0.26653155197507195,-0.029692107463188108,-0.013490181641018818,0.00010423806254603087,0.006852199561034383,0.004625323059990149
2025/04/05 15:58:43.926557702,1743861523,922848920,piren,0.2681395956159121,-0.034382831376842546,-0.01447042596365439,-0.0004939543324461472,0.008030680438075618,0.0
2025/04/05 15:58:44.1470948,1743861523,999845303,piren,0.2713795594932207,-0.005826970831094402,-0.002713098537573769,-0.00047986798507722956,0.00892209620110921,0.02432356056373251
2025/04/05 15:58:44.77886929,1743861524,74524990,piren,0.2713692041405465,-0.049201974152538124,-0.022876022884729223,0.0001908215471652303,0.00861211004331346,0.028810567213105442
2025/04/05 15:58:44.152954926,1743861524,150076234,piren,0.27662086521986556,-0.0046204169304017995,-0.004561551188426067,0.0025153022184303273,0.007796464228750201,0.005984038000861419
2025/04/05 15:58:44.192139443,1743861524,188188061,piren,0.28314426951183114,0.09155074449704455,0.03356110211365293,0.002171364142677544,0.006545209336638972,0.0
2025/04/05 15:58:44.231961360,1743861524,230126146,piren,0.2862111763342681,0.06580915184677008,0.022673546942534296,0.0006885583395664966,0.0049468922398382305,0.00693237026628877
2025/04/05 15:58:44.270796926,1743861524,269222824,piren,0.28278811359311923,-0.04831242606987858,-0.029166601709190915,0.0009066710417007279,0.0030617891429823734,0.0
2025/04/05 15:58:44.348721497,1743861524,345626449,piren,0.2853638600373642,-0.0021659827628808317,-0.008407861392110024,0.0021915704842021995,-0.0011121288452247556,0.006824442068033258
2025/04/05 15:58:44.422657067,1743861524,420649162,piren,0.2876388699062545,0.01791807650452041,0.0020256158671898812,0.0009811154232720078,-0.002944963979602459,0.0
2025/04/05 15:58:44.497795471,1743861524,495657913,piren,0.28666008998502546,0.028577584608274385,0.007370267032544245,0.0007279003850166661,-0.004605390168726613,0.0406113845142317
2025/04/05 15:58:44.537469174,1743861524,535344870,piren,0.2881918945221059,0.03851155161564759,0.012435056806405623,0.0008116453084436999,-0.00604752714336501,0.007937052766389592
2025/04/05 15:58:44.577248134,1743861524,575184943,piren,0.28683338752018694,-0.04801015986754452,-0.025470405095910892,0.0011267525224009298,-0.007097398232113944,0.0
2025/04/05 15:58:44.652670475,1743861524,650931399,piren,0.28802335878153823,-0.021768340912285442,-0.01207034825669024,-0.0012192235455864239,-0.00778542115611475,0.008211531898486992
2025/04/05 15:58:44.732589283,1743861524,728010401,piren,0.28302049270857876,-0.10195174630925963,-0.04755776201630188,-0.0012658782060975741,-0.007436515142446411,0.0
2025/04/05 15:58:44.770082713,1743861524,767613678,piren,0.28726201084016334,-0.013066113459217252,-0.007622062717103237,-0.00026514268732524577,-0.006636858639929941,0.04221859792339409
2025/04/05 15:58:44.846392040,1743861524,843824216,piren,0.29340895362774966,0.10805439258997478,0.042690721130007624,0.00010401462741866158,-0.005482360448031714,0.008616339343563865
2025/04/05 15:58:44.884233894,1743861524,882191671,piren,0.2980310926278434,0.18677739315585323,0.0752613583087243,-0.0008172670644551565,-0.00400543777749437,0.0
2025/04/05 15:58:44.927561538,1743861524,924459537,piren,0.29979815035983387,0.19079070894504194,0.07872141204466454,-0.0011734994593042157,-0.002360761417123741,0.0
2025/04/05 15:58:45.5885671,1743861525,2084819,piren,0.29984350301931495,0.1913403357772041,0.07943547474207657,-0.0011714969227693797,0.0012334782698675626,0.04463920417739134
2025/04/05 15:58:45.81221460,1743861525,79235067,piren,0.29919835165028413,0.13903083723084828,0.05905906741785858,-0.002014924932746784,0.003027246878231269,0.04701263679091992
2025/04/05 15:58:45.158570043,1743861525,156497173,piren,0.29725405966955804,-0.0047358337503737025,-0.0021942051694540943,-0.0009161864378058944,0.005983517457492109,0.009370564938628359
2025/04/05 15:58:45.235871366,1743861525,233172932,piren,0.3083114270449414,0.15586662854166214,0.05980637742106156,-0.00040283688884975796,0.00697579529434048,0.009565245221125724
2025/04/05 15:58:45.273919169,1743861525,272250221,piren,0.30926473136075855,0.1827730406055253,0.06983246912321842,-0.0007331794895820094,0.007593885596114299,0.0
2025/04/05 15:58:45.350403456,1743861525,348447130,piren,0.30641307852749833,0.08711994251566473,0.03221359299007641,9.316926219191499e-05,0.007779625231835078,0.00958335786013704
2025/04/05 15:58:45.389195576,1743861525,387274627,piren,0.30422084058589005,0.017950949753822054,0.004484487553685346,-0.000621394738371448,0.007426618853412324,0.0
2025/04/05 15:58:45.431400234,1743861525,429244767,piren,0.30308007935800557,-0.12910087075397306,-0.06052491530505609,-0.0006482846943482276,0.006657102283955882,0.011604661689899327
2025/04/05 15:58:45.471905475,1743861525,469656621,piren,0.30369215443977277,-0.18513506993840556,-0.08437571618496552,0.0010698303363948602,0.0055278844346595525,0.0
2025/04/05 15:58:45.551040059,1743861525,546748468,piren,0.31087176292624,-0.009459465694635516,-0.013387973668756076,0.0004999174209878549,0.0024110846124307766,0.00955070715242568
2025/04/05 15:58:45.625845220,1743861525,624260169,piren,0.309596451135394,-0.12029521388540153,-0.06067488985504565,0.0010302062726318425,0.000585504097375334,0.0
2025/04/05 15:58:45.705734453,1743861525,702828214,piren,0.311760511514285,-0.06483992033804489,-0.033603316616570185,0.002568778198109181,-0.0032379940944623807,0.05150958387554984
2025/04/05 15:58:45.782182111,1743861525,780521271,piren,0.314013014842726,-0.04790339020069033,-0.023674071597848796,0.000797347147113966,-0.004829573128551415,0.04289845465376648
2025/04/05 15:58:45.860466797,1743861525,858879273,piren,0.3128932449847524,-0.1296959355506714,-0.05906507244395233,0.0022581208188940964,-0.006928787558540316,0.009817438190611613
2025/04/05 15:58:45.940346534,1743861525,936682353,piren,0.3189514240665402,0.03501153351317052,0.009851930899438019,0.0026046875947552364,-0.007509886796209412,0.009715738437301405
2025/04/05 15:58:45.998120449,1743861525,996540072,piren,0.3229974369943419,0.1288529528033906,0.05047723100196289,-0.000532960285535218,-0.007109983776190859,0.0
2025/04/05 15:58:46.76913734,1743861526,74345461,piren,0.32011752799462545,0.06667894157308192,0.028515657397371927,0.0005203948884019473,-0.006331501993124954,0.048865477467931004
2025/04/05 15:58:46.158134449,1743861526,154543923,piren,0.3237982074336286,0.14944262478929893,0.06240889846339147,-0.0022729599197132853,-0.003682759877832006,0.009637308665983262
2025/04/05 15:58:46.235238268,1743861526,232494083,piren,0.3208072899762327,-0.015047569382750148,-0.006404851519460977,-0.0025375015480376692,-0.0019162536571986535,0.009297508152609943
2025/04/05 15:58:46.274723167,1743861526,272520915,piren,0.3167772256822899,-0.12191162015660657,-0.051344320991354976,-0.0005959974448054359,-6.261283955477023e-05,0.0
2025/04/05 15:58:46.351817915,1743861526,350102182,piren,0.32059408307875387,0.027965290669180895,0.011036256428421293,-0.0026426676534853488,0.0035419079019509557,0.009847236013267216
2025/04/05 15:58:46.430411737,1743861526,427121179,piren,0.32151994237040055,0.023905588200750637,0.0122005116994718,0.0005868157632339001,0.005015278326344587,0.0
2025/04/05 15:58:46.506863525,1743861526,504665493,piren,0.3249671770891608,0.1046044442405219,0.04448836657825485,-0.0021959407770691477,0.006612820472615226,0.042548125383540754
2025/04/05 15:58:46.586389062,1743861526,583619223,piren,0.3247448021772014,-0.04567419510017309,-0.021295711552216864,-0.0002904662420805829,0.006835553018834633,0.051165646203407564
2025/04/05 15:58:46.628991702,1743861526,625221355,piren,0.3322139747895106,0.07697650456848357,0.028373871960014473,-0.0016130470848354204,0.006789577887334511,0.0
2025/04/05 15:58:46.707739046,1743861526,704731155,piren,0.3358920653107815,0.06435696786966225,0.024881020133458196,0.0009435791231709003,0.005420574922495142,0.04796392210926129
2025/04/05 15:58:46.784805857,1743861526,782782641,piren,0.34054074767661846,0.09609646131111738,0.03808972467049688,-0.00042507490263667423,0.004296662522104063,0.05026667173493624
2025/04/05 15:58:46.826669392,1743861526,823683358,piren,0.3439429149164424,0.05842359894172666,0.02324358250290682,0.000980896911839406,0.002902152440212398,0.0
2025/04/05 15:58:46.906002355,1743861526,901961232,piren,0.3428296820539343,0.016387973681776274,0.006044270750786781,0.0009297569971303968,-0.00018261761115912644,0.04794194441029238
2025/04/05 15:58:46.985708074,1743861526,982844075,piren,0.34260239736493064,-0.0023078239919868057,-0.001482775755776414,0.0014306870129343764,-0.0016065680953759617,0.04081787381575394
2025/04/05 15:58:47.25950973,1743861527,23289281,piren,0.3435632091049,0.023512997871102996,0.009131721057258376,0.0009374309969122187,-0.002861801263584504,0.0
2025/04/05 15:58:47.105126164,1743861527,101619047,piren,0.34237479560124473,0.06903624532028522,0.02732777078505147,0.0017614093041895657,-0.005133790895238048,0.04407688565495198
2025/04/05 15:58:47.181197402,1743861527,179270233,piren,0.34209259023784844,0.0670444764033619,0.02719778216908327,0.0028753710597597716,-0.005827348412503241,0.04741555080505555
2025/04/05 15:58:47.223140988,1743861527,220604104,piren,0.3440771354917159,0.12170755721895155,0.04819747198250186,0.002209814354299925,-0.006176458606174298,0.0
2025/04/05 15:58:47.303217838,1743861527,299887318,piren,0.34325670182447526,0.15330119613809082,0.06041611836376257,0.0008705971199409474,-0.005706414878178424,0.04878630740352191
2025/04/05 15:58:47.380384714,1743861527,378275665,piren,0.33982301029334383,0.034012375490783675,0.013678759031333268,-0.0004193772557113387,-0.004929076108203759,0.048789552385013195
2025/04/05 15:58:47.459883111,1743861527,457256610,piren,0.33858033986994074,-0.08930562974023806,-0.03683887442497668,-0.00014479237312923232,-0.0025625126860919084,0.008992118738861207
2025/04/05 15:58:47.537808218,1743861527,535988967,piren,0.3402793054454831,-0.09712763268844347,-0.037921841962043214,-0.000698894374192927,-0.0011418188276522848,0.008543620791616025
2025/04/05 15:58:47.578390455,1743861527,576470803,piren,0.33984365323710775,-0.09468104635798219,-0.03564937996665055,-0.0017697834025153306,0.00030922334031229664,0.0
2025/04/05 15:58:47.656751070,1743861527,655235916,piren,0.342285313934485,-0.1339755272497768,-0.05245484527541781,-0.0008893346355932074,0.0029491605561618693,0.008635944633330679
2025/04/05 15:58:47.737368717,1743861527,734754830,piren,0.3443012569844539,-0.20002318387828374,-0.08272859939485745,-0.001630437024152734,0.003987236112798352,0.008572979061748549
2025/04/05 15:58:47.777943487,1743861527,775643188,piren,0.34633993790573625,-0.2559319430848972,-0.10960632648239074,-0.0012582830403001207,0.004717277611413421,0.0
2025/04/05 15:58:47.819460916,1743861527,817625613,piren,0.35075965608937154,-0.1698794302597434,-0.07179076086130853,-0.0005249383619416452,0.0051717651662557,0.0
2025/04/05 15:58:47.901398908,1743861527,899008832,piren,0.35565722186818205,0.010587270935275284,0.0008186986644872912,-0.0008687746732051116,0.005113815936982525,0.04324097724117844
2025/04/05 15:58:47.981657038,1743861527,979823009,piren,0.3602173004216182,0.13271747382691507,0.049524555616573825,-0.0008346240823009489,0.004531346237323242,0.038327486200831526
2025/04/05 15:58:48.23899744,1743861528,20857086,piren,0.36415657822515174,0.10788192250893194,0.04152243950525725,-0.002203076549759101,0.0036439613645660035,0.0
2025/04/05 15:58:48.105281193,1743861528,100394177,piren,0.3634954937406745,0.016028873754658043,0.0037809467891271945,0.00016837041700498243,0.001302320921015334,0.04583080820027355
2025/04/05 15:58:48.181741418,1743861528,180079205,piren,0.3660768271310643,0.08156109482433754,0.030947393073346794,-0.0012663037354245631,0.0002191685523969438,0.029577856840489934
2025/04/05 15:58:48.224210093,1743861528,221360531,piren,0.3651238915774228,-0.022510554105747302,-0.012626456610449543,0.0012371174821703772,-0.0008207778425322104,0.0
2025/04/05 15:58:48.303824264,1743861528,300479066,piren,0.36530089517552816,0.08594428763226465,0.031408564424435445,0.0008899511024080676,-0.0024646995028568086,0.045132353713898836
2025/04/05 15:58:48.381027081,1743861528,379458593,piren,0.3637779080855807,0.0916419928685173,0.03590840093016718,-0.00014580869950362718,-0.0030673729578654637,0.04391377562959769
2025/04/05 15:58:48.461028131,1743861528,459130675,piren,0.36260982366204636,-0.03186053608005744,-0.015189444838929922,0.000847429928372347,-0.003780573762391034,0.007875809974641242
2025/04/05 15:58:48.540715025,1743861528,539083892,piren,0.368079434092624,-0.03451298428622061,-0.013840489498857855,0.0015986292437030964,-0.004001720379570994,0.009228020790417343
2025/04/05 15:58:48.583065114,1743861528,581249293,piren,0.3707049462005443,0.07712829094584782,0.03071025756402792,0.000482998754511017,-0.0037386004296999418,0.0
2025/04/05 15:58:48.626549818,1743861528,623003461,piren,0.36885896676653823,0.04097145652235673,0.018241236394622384,0.0001552181184144417,-0.003212151925982634,0.0
2025/04/05 15:58:48.708695196,1743861528,705061191,piren,0.3644569970404063,-0.1007149373705942,-0.0428908176371532,0.001027452073835054,-0.0018188155292799817,0.03949996692610134
2025/04/05 15:58:48.787273921,1743861528,784808850,piren,0.36617161846531865,0.0365193571581586,0.012901695637868145,0.002336294268505194,-0.0010510453408040421,0.030467647001721974
2025/04/05 15:58:48.828372281,1743861528,826735495,piren,0.36912113847586164,0.10316679390271026,0.041158353198637365,0.0004291034936958642,-0.00030094932422778997,0.0
2025/04/05 15:58:48.911683809,1743861528,907771232,piren,0.36724529538698786,-0.07719650123917736,-0.03547851711255842,-0.0007576376898872796,0.0011498085570036485,0.03578032872284482
2025/04/05 15:58:48.991635646,1743861528,989884538,piren,0.36841573688245716,-0.09826705229197605,-0.04076545296896438,-0.0013723654553528387,0.001763089933285066,0.026228177709176032
2025/04/05 15:58:49.35063879,1743861529,33209822,piren,0.3716198705119268,-0.06527875146998657,-0.024691198060039783,-0.0019337110194450563,0.0022966082429988956,0.0
2025/04/05 15:58:49.77169779,1743861529,74877971,piren,0.3722054823737835,-0.15605557687781574,-0.06452350174883212,-0.002356984322821014,0.002691282220038165,0.03550598297319347
2025/04/05 15:58:49.144571990,1743861529,141745938,piren,0.37310653027084295,-0.18772955852064105,-0.07799827928098037,-0.0016976199207842093,0.0030097957474535435,0.006882059528170884
2025/04/05 15:58:49.184546901,1743861529,182867823,piren,0.3744101394570634,-0.22758802972784897,-0.09665121283648898,-4.9672442259101806e-05,0.003039555467923396,0.0
2025/04/05 15:58:49.233751692,1743861529,224812969,piren,0.3792396234451644,-0.23542133785913383,-0.10065660503963013,-0.0014129720773829178,0.002908179196471199,0.0
2025/04/05 15:58:49.269437835,1743861529,267528263,piren,0.3838775898567064,-0.12962576895720296,-0.05390568867368689,-0.0006276089590329452,0.002572263233207854,0.0395777838527655
2025/04/05 15:58:49.349849929,1743861529,348000811,piren,0.3879917734240962,0.005599662722943377,0.002888279150542447,-0.0019142998585002196,0.0012776635812635124,0.006755885776885128
2025/04/05 15:58:49.432428512,1743861529,429376262,piren,0.3908759356803557,-0.07785737095191501,-0.03464582650040452,-0.001852304942045138,0.0004951109319061087,0.006674048791430572
2025/04/05 15:58:49.473292348,1743861529,471628593,piren,0.3915934619282552,-0.010545176913456036,-0.004287429228651232,-0.0003890212750967963,-0.000272718543661019,0.0
2025/04/05 15:58:49.555288552,1743861529,552967141,piren,0.3922274907913561,0.1146879104492655,0.04708888942444214,0.000337075908503755,-0.00161794721649119,0.006507321581391827
2025/04/05 15:58:49.638942635,1743861529,635446889,piren,0.39117123683349747,0.1673223798718027,0.06965027176248173,-0.000888662270169726,-0.0020374860430652127,0.0065256545216585285
2025/04/05 15:58:49.680922588,1743861529,678954451,piren,0.3887471294639681,0.011974696849347322,0.00225037197437461,-0.00027057205762902315,-0.002393153085244028,0.0
2025/04/05 15:58:49.724884044,1743861529,722721847,piren,0.3883975607568573,0.023215099598701282,0.009881909751472073,-0.0018593124738206868,-0.0025472982964735145,0.0
2025/04/05 15:58:49.767702494,1743861529,765711538,piren,0.38956408566634765,-0.022861691855814558,-0.008401231627706073,0.0011879208052540562,-0.002537972670885383,0.02950620592100016
2025/04/05 15:58:49.850147265,1743861529,847964166,piren,0.3904026494004484,-0.012395550474093386,-0.0024029835846434144,-0.0012314435279037555,-0.002039108824268891,0.006599074737911913
2025/04/05 15:58:49.931437116,1743861529,929262834,piren,0.3919896435148076,-0.08619426933560133,-0.03526644534574321,7.281859455388195e-05,-0.0016309828720896338,0.0065882814792746994
2025/04/05 15:58:49.973947071,1743861529,972085707,piren,0.3918695350561848,-0.08125945360420699,-0.0321471387387575,0.001131013385124856,-0.0011390337008962796,0.0
2025/04/05 15:58:50.55201553,1743861530,52739518,piren,0.39198163677485814,-0.01084352985203621,-0.0014229856194542916,0.0017673328872024607,2.084599754168623e-05,0.0065069038688128
2025/04/05 15:58:50.136804229,1743861530,134230954,piren,0.3929108660628345,0.10988695326354901,0.04744217354477237,0.0005116228514319691,0.0005961407088125116,0.006419752486797836
2025/04/05 15:58:50.179774132,1743861530,176743609,piren,0.3930209251754605,0.10144463454576,0.04506272942213344,-0.0009523976557200303,0.0010896904443639455,0.0
2025/04/05 15:58:50.265159644,1743861530,261982177,piren,0.3925464482499138,-0.010949148942472647,-0.004438878536499741,0.0018684793759418986,0.0018438659758031912,0.006396434040142367
2025/04/05 15:58:50.346824076,1743861530,344801633,piren,0.3932077350567398,-0.002830939525756521,1.4238660017457105e-05,0.0017978629391422617,0.002068858506130197,0.006455499259206059
2025/04/05 15:58:50.387612666,1743861530,385861849,piren,0.39424412177968415,0.0023726515653834483,0.0026945502287798627,0.0005429716528876216,0.002237557122678467,0.0
2025/04/05 15:58:50.431040729,1743861530,428814988,piren,0.39521376783520745,0.043122716045854784,0.019781893919044807,0.0015908333081000661,0.0022652648087574763,0.0
2025/04/05 15:58:50.512726487,1743861530,510724050,piren,0.396499805543158,0.14787214498101095,0.0600743855174173,0.0005582876153596853,0.0018494276528326582,0.03339318749145912
2025/04/05 15:58:50.595817610,1743861530,594027217,piren,0.401250391956387,0.13767869529269774,0.05641687433650305,-0.0017693698082172056,0.0010421010870750567,0.17204988041571054
2025/04/05 15:58:50.678988391,1743861530,677297238,piren,0.4050555610392622,-0.013935079600378208,-0.00960607532398823,-0.00021296306325612027,0.0005088188496003399,0.03306849472695075
2025/04/05 15:58:50.724588437,1743861530,720500685,piren,0.40992093197385215,0.09935402427545342,0.03611032809681768,-0.0005840292857026574,-1.380507013917874e-05,0.0
2025/04/05 15:58:50.805475698,1743861530,803883838,piren,0.4094186856608077,0.07062065727113806,0.0269528797364668,-0.001173083946652567,-0.0006284958579911811,0.032205447063908085
2025/04/05 15:58:50.889086516,1743861530,887082593,piren,0.40777765020370693,0.03601102297875516,0.014495616514445349,-0.001045586500297841,-0.0010414694950055378,0.026477187893961907
2025/04/05 15:58:50.937530807,1743861530,933133098,piren,0.4089597634678058,-0.08886680483769849,-0.039626848190472304,-0.00043016638988828344,-0.001465376144490867,0.00542670969414829
2025/04/05 15:58:50.979535077,1743861530,976874331,piren,0.40959045376562253,-0.07348345285877256,-0.030995713451682835,-0.00040103184229248515,-0.0016675902851973987,0.0
2025/04/05 15:58:51.65013556,1743861531,60538792,piren,0.40862999416413015,-0.0578835816166247,-0.022896849454420807,-0.001291765185494216,-0.0016796866882704373,0.005457643871566543
2025/04/05 15:58:51.145014475,1743861531,143220039,piren,0.40854324173792533,-0.030918363695855055,-0.010572724454421567,-0.0003799452330998289,-0.001704198037099839,0.0051991434464742975
2025/04/05 15:58:51.187965394,1743861531,185831418,piren,0.40848532439204077,-0.021964775923424874,-0.006177478401816194,-0.00023544353132636374,-0.001619078244010033,0.0
2025/04/05 15:58:51.231509237,1743861531,229647528,piren,0.4109623875106537,-0.13281350822226157,-0.05683283365016291,0.000771080894010701,-0.0014434785636671314,0.005906284044557193
2025/04/05 15:58:51.273497859,1743861531,271640759,piren,0.4122064434795904,-0.09066729228943585,-0.03720009229700804,0.0008507837000871057,-0.0011650551048531686,0.0
2025/04/05 15:58:51.356160812,1743861531,354191363,piren,0.4124962560637643,-0.054598475238844896,-0.020820161524177268,-0.00016436108165259345,-0.0004287188737308334,0.0051477400621555295
2025/04/05 15:58:51.440396717,1743861531,438455806,piren,0.41338846670437324,-0.009995916923708124,-0.0014052953132381168,-9.314289461977965e-05,-4.057118932422158e-06,0.005061512185601351
2025/04/05 15:58:51.484001533,1743861531,482013614,piren,0.4129048246302093,0.020115756502718806,0.011529257803991324,-6.135583498128856e-05,0.00037110704337958966,0.0
2025/04/05 15:58:51.529610360,1743861531,526030092,piren,0.4132141236974578,-0.0772478167336885,-0.032744334368608075,0.0016297001915835149,0.0007113028310471117,0.0
2025/04/05 15:58:51.613874184,1743861531,611603223,piren,0.4123839637137282,-0.03564880766120948,-0.014083666989356272,0.0019733163890176823,0.0012493814133276268,0.025448965119363877
2025/04/05 15:58:51.702916715,1743861531,695330590,piren,0.4159807284170713,0.11153584895314453,0.044472555224130544,0.00026384828668981074,0.001593033413884623,0.02651682713393977
2025/04/05 15:58:51.781210862,1743861531,779263238,piren,0.41775242533624374,0.10174455342144029,0.04205410771500698,-0.00011163396170754358,0.0015560949613352194,0.024725029551093698
2025/04/05 15:58:51.823897208,1743861531,822128378,piren,0.4202922602047922,0.04128758684532841,0.017255638182780007,7.989222781278829e-05,0.001415714081591445,0.0
2025/04/05 15:58:51.910287536,1743861531,907155795,piren,0.42014231796636087,0.0305309450310233,0.01343660460420256,-3.6801044610119766e-05,0.0009735135086633182,0.02610025459377538
2025/04/05 15:58:51.994259183,1743861531,992321321,piren,0.41907878103415913,0.02017177937209454,0.009453425815449668,-0.000548945857937168,0.0007733818386416854,0.024966303013179696
2025/04/05 15:58:52.37789860,1743861532,35658374,piren,0.4190002749307043,0.009612067466241577,0.005132484333769971,5.108149419427634e-05,0.0005921078449984433,0.004786231884606648
2025/04/05 15:58:52.80742427,1743861532,78810293,piren,0.41895749197265125,0.016038264116559738,0.00789872973194331,-0.0001541564106201968,0.0002230430878352543,0.0
2025/04/05 15:58:52.126212279,1743861532,122902217,piren,0.42042366623059046,0.005096567310783947,0.0032320077262010805,-0.0010153072077312844,-0.00022235732534686518,0.0
2025/04/05 15:58:52.210020476,1743861532,207540915,piren,0.4198038250491438,0.01804948466142378,0.008624012040112239,-0.0005336294404293399,-0.0008995576007085238,0.02214779995232343
2025/04/05 15:58:52.292329027,1743861532,290608550,piren,0.41969893603497915,0.016301808738717234,0.007872842965559845,-0.0010306993257155393,-0.0011562872645706358,0.02119204788250702
2025/04/05 15:58:52.336902217,1743861532,334863308,piren,0.42071168976042395,-0.011442756044834815,-0.0040360266271367,-0.001733596812874489,-0.0013409187257994737,0.004299409591334838
2025/04/05 15:58:52.379087270,1743861532,377396321,piren,0.4215035318970424,0.00962659025694848,0.004911092730714406,-0.000909882709782899,-0.0014492979324863247,0.0
2025/04/05 15:58:52.445498939,1743861532,443721191,piren,0.4222745294247036,0.13323250753396676,0.052484088952035206,0.0005087484467653679,-0.0014802588326782212,0.0042405583226874126
2025/04/05 15:58:52.488043271,1743861532,486330186,piren,0.42196043166254665,0.18860672741038795,0.07439709683852772,-0.0013118710909305839,-0.001376765731661442,0.0
2025/04/05 15:58:52.534702427,1743861532,530024467,piren,0.42493459629445196,0.004406780335557414,-0.004406350806020115,-0.0017823388730362122,-0.0012043601730056665,0.00493456755013142
2025/04/05 15:58:52.579168989,1743861532,576922593,piren,0.42681641354481625,-0.10601156128145703,-0.05085982165380753,-0.0014436443714606994,-0.000989999078539024,0.0
2025/04/05 15:58:52.625447898,1743861532,621698096,piren,0.4284317880310257,-0.05590754626587113,-0.026160273755307245,0.0006201414306079426,-0.0007264904973309172,0.0
2025/04/05 15:58:52.712794884,1743861532,709433045,piren,0.42915859531033246,0.07701416846603024,0.028596086706631878,-0.0012077060995228212,0.00018051030769538837,0.019494842063286208
2025/04/05 15:58:52.800089901,1743861532,797131244,piren,0.4283910001577172,0.06813457912112425,0.02790176591705243,-0.0002266962951430195,0.0004656650150915255,0.019330752353417635
2025/04/05 15:58:52.845365433,1743861532,842398716,piren,0.4302960768274491,0.05014295563341874,0.022370759288701365,0.0012954194069478317,0.000581571214418972,0.0035078435621951074
2025/04/05 15:58:52.888250908,1743861532,886655507,piren,0.43148772299125565,0.020062105422039157,0.010945216041320224,0.0016979081020239333,0.0007373194372718493,0.0
2025/04/05 15:58:52.935013062,1743861532,933075970,piren,0.43144652864896244,-0.003050991313193672,0.0018445205171915141,0.00022004553441210386,0.0009338369565898623,0.003651556893291071
2025/04/05 15:58:52.980623126,1743861532,978768432,piren,0.4296272802995648,0.040174311413829836,0.01954527179266566,0.00014237727522506066,0.001177411124680528,0.0
2025/04/05 15:58:53.24810620,1743861533,22433089,piren,0.4275090510066778,0.03503604512170566,0.017531502690317096,0.00024285681860623288,0.001427913999612193,0.0
2025/04/05 15:58:53.109113869,1743861533,106938018,piren,0.425515493229091,0.028452673082074376,0.014492193346862008,0.00044292324345752407,0.0016027261903234882,0.018260080223683507
2025/04/05 15:58:53.195371351,1743861533,192938170,piren,0.424518306910409,-0.03562260162875648,-0.01333269115473567,0.0011631046900217124,0.0015430097416811324,0.013417668830896793
2025/04/05 15:58:53.239298254,1743861533,237789127,piren,0.4246770224219293,0.02201825431402537,0.009908297749974818,0.0013553021440258243,0.0013755952669627933,0.002518454807097633
2025/04/05 15:58:53.283387651,1743861533,280813256,piren,0.4277920065863103,0.0043812849060486485,0.0026815375187087915,0.000804074282080372,0.0011463767202659577,0.0
2025/04/05 15:58:53.328343132,1743861533,326691568,piren,0.4301591310045072,-0.0025903674671099277,-0.0002112535611508994,0.0011697358104536624,0.0008258893471294608,0.0
2025/04/05 15:58:53.374210161,1743861533,370835099,piren,0.4309534241845316,0.029462489182878897,0.012723116835210772,0.001880532848094801,0.00044050438237274277,0.008261347406739394
2025/04/05 15:58:53.459191414,1743861533,457427632,piren,0.4306127971602567,0.11096090781770723,0.043817670178037484,-0.00043832618804031406,-0.00033099205811272037,0.0016901861398388382
2025/04/05 15:58:53.544008284,1743861533,542292017,piren,0.4309985690756324,0.044131289816414176,0.01714873861212214,-0.0002557836871738664,-0.0006521397827804588,0.0013128264411143868
2025/04/05 15:58:53.589148393,1743861533,587195083,piren,0.43011455334640264,0.0140253532992119,0.005554329634689407,-0.0001656839140785161,-0.0009572940841618581,0.0
2025/04/05 15:58:53.634319420,1743861533,631907174,piren,0.42987179550416416,-0.06472283228958989,-0.027729646262253355,0.0006487890372708302,-0.001224101707931871,0.0009221558012813963
2025/04/05 15:58:53.679402870,1743861533,677745937,piren,0.42990314764906573,-0.025723388740425464,-0.010717034198139758,-0.0009766611943680839,-0.0013649972541423163,0.0
2025/04/05 15:58:53.725837833,1743861533,722639062,piren,0.43006710201020754,-0.02498400219897124,-0.009611521234536341,-0.0011946602325771953,-0.0014362948082331775,0.0
2025/04/05 15:58:53.814637868,1743861533,810260796,piren,0.43026607224462654,0.016398874837705045,0.007755960231373064,-0.0008647306326576546,-0.001368488747475794,0.0028408053657897176
2025/04/05 15:58:53.904856724,1743861533,900480028,piren,0.4303330373125849,-0.002487793802083648,0.0005876384624322649,0.0004932612839802334,-0.0013802235377556294,0.000705555220683089
2025/04/05 15:58:53.992127202,1743861533,989989296,piren,0.434045443204673,0.0720523516116827,0.029963121155621077,-0.0008960831372641636,-0.001283073720162029,0.00015987151755958442
2025/04/05 15:58:54.37216891,1743861534,35100727,piren,0.43692522051956106,0.03288264455877647,0.014812642239234489,-0.0002796333614641438,-0.0011261365679806326,0.0002380860947298352
2025/04/05 15:58:54.83269187,1743861534,80572483,piren,0.43861081895895526,0.12094916178916713,0.048258573470116084,-0.0001931889096946343,-0.000767485754405486,0.0
2025/04/05 15:58:54.127064856,1743861534,125241783,piren,0.43825798651448655,0.17495043459293805,0.06862971447408486,-0.0012935429083056665,-0.00027423747465217323,0.0
2025/04/05 15:58:54.172236490,1743861534,170361018,piren,0.43776630691816115,0.03107413426910166,0.010796003058999339,-0.0005568188994205925,0.00022893207669698695,0.000847867723207244
2025/04/05 15:58:54.260465815,1743861534,257448118,piren,0.4372400931953056,-0.07053499392613961,-0.03029087964068001,0.0006494666454706542,0.0011373920641638484,-0.00020201864570613533
2025/04/05 15:58:54.345484976,1743861534,343654157,piren,0.436834484760789,-0.07814968140673959,-0.03148168958269007,0.00039616432352309027,0.001514586939852838,-0.0005648189942500022
2025/04/05 15:58:54.389586402,1743861534,387877826,piren,0.43560456791194646,-0.07062342690251175,-0.027156902878799332,0.000493115530443031,0.0017821038927209423,0.0
2025/04/05 15:58:54.435812083,1743861534,433777720,piren,0.43554670836740605,-0.06640838612647716,-0.024784314704763905,0.0005690293037499013,0.0019438895237768252,-0.0009441561337386513
2025/04/05 15:58:54.481007200,1743861534,479011808,piren,0.4348668469933731,-0.06072805129442717,-0.02219524356667147,0.0006294588880228807,0.0018047270213431684,0.0
2025/04/05 15:58:54.528579432,1743861534,524549521,piren,0.43640414007820744,-0.05541640309256767,-0.02002091132266944,0.0006791035921947687,0.0014702645477969445,0.0
2025/04/05 15:58:54.615914336,1743861534,612850274,piren,0.4363383518598315,-0.04733422227591295,-0.016963422166659078,0.0008221510088026475,0.0005715858021505366,-0.004455790139869394
2025/04/05 15:58:54.704431762,1743861534,701520095,piren,0.43580977281735644,-0.03156602512926843,-0.010717674060614931,0.0007201994079101318,7.518688882229029e-05,-0.003827257655794578
2025/04/05 15:58:54.750000823,1743861534,747802647,piren,0.43894336673470236,-0.028700799147873157,-0.009807828062837096,0.00016094388154239998,-0.0008989804562350966,-0.0005006172171947243
2025/04/05 15:58:54.838671766,1743861534,836633208,piren,0.4410698909341821,0.1008959694748682,0.03927127968901306,0.0009368714880443152,-0.0013045270079238306,-0.00019067745292611718
2025/04/05 15:58:54.886528057,1743861534,883904900,piren,0.44130331027784025,0.11935356616841086,0.04747518674777144,0.0008000342894472373,-0.0016076839535106074,0.0
2025/04/05 15:58:54.935767735,1743861534,931338652,piren,0.4415799182563663,0.14566300688088626,0.058067239269642135,0.00021888052470186422,-0.0018222629581896245,2.8761927092205286e-05
2025/04/05 15:58:54.980160262,1743861534,978161957,piren,0.4406401480276602,0.06973562141961334,0.028565229296059903,4.043959261511035e-05,-0.0019095835270480383,0.0
2025/04/05 15:58:55.26961833,1743861535,24034952,piren,0.4404246752972088,0.018709042758655377,0.008793646715873429,-0.00012861567994477645,-0.0018858157774712505,0.0
2025/04/05 15:58:55.117216328,1743861535,113742041,piren,0.43997897322701673,-0.015708377513738048,-0.0044934646831812225,-0.0004524232219055472,-0.001091726096853786,0.0012117704759267171
2025/04/05 15:58:55.205407656,1743861535,203052969,piren,0.4372693502837822,-0.0361713166552818,-0.012444487947977086,-0.0009291824304721055,4.95174549510984e-05,0.0009827618366958911
2025/04/05 15:58:55.294992369,1743861535,290162134,piren,0.43547371048050565,-0.06386151878286912,-0.0238140828741027,-0.001659900784273917,0.0005708886931724854,-0.0006788349389193999
2025/04/05 15:58:55.339505262,1743861535,336848206,piren,0.43520227655674293,-0.1690545987275982,-0.07133194536442847,-0.0022599465369846977,0.0011136848500372875,-0.0004578032209064152
2025/04/05 15:58:55.383392017,1743861535,381317659,piren,0.43789421183355476,-0.22381345990547744,-0.09605092357829609,-0.0009083230612281269,0.001388609994848288,0.0
2025/04/05 15:58:55.429876197,1743861535,427122226,piren,0.44176971615695526,-0.18262559846557452,-0.07712183130317062,-0.00026666083565313414,0.0014878722843538006,0.0
2025/04/05 15:58:55.475054404,1743861535,473001651,piren,0.44397662495518975,-0.12540259343586513,-0.0518440798860485,-0.001976577434251267,0.0015343169932770942,-0.0023071770194720218
2025/04/05 15:58:55.564983513,1743861535,562394652,piren,0.4452171012313105,-0.17103954852009337,-0.07346866474269828,-0.0008807864180047646,0.00122137979227594,-0.0003552142969223335
2025/04/05 15:58:55.652474831,1743861535,650299274,piren,0.4467954155097917,-0.19748317361986664,-0.08685699566775963,-0.001988117548542001,0.00038493709440168885,-0.0002450737220828618
2025/04/05 15:58:55.744600475,1743861535,742183541,piren,0.4488221087448895,-0.18626586135387696,-0.08214044403703152,-0.0003180043266878116,-9.93073376736756e-06,0.0003017174526023212
2025/04/05 15:58:55.793139042,1743861535,788950478,piren,0.4475265851295947,-0.1929204136989483,-0.08617643424511559,0.0005908438769191024,-0.0004440879860605923,0.0
2025/04/05 15:58:55.838982071,1743861535,836743641,piren,0.44622474660996003,-0.0813726216399118,-0.03593941638936077,0.0009076130805836389,-0.0008666177266057018,0.0005492336132488176
2025/04/05 15:58:55.885159841,1743861535,882979053,piren,0.4448892557664979,0.11269500512721606,0.04365876954185206,0.0013421275475122907,-0.0012046491074309941,0.0
2025/04/05 15:58:55.955047838,1743861535,953086597,piren,0.44642684318073433,0.22402455339847618,0.08986294391297955,-0.0002880919009414399,-0.0016573024280737473,0.0007122305111790201
2025/04/05 15:58:56.47984243,1743861536,41278483,piren,0.44799989068108087,0.07111824320418236,0.02598624854047034,-9.880484227197054e-05,-0.001734168957464295,0.0009062934013884651
2025/04/05 15:58:56.88649116,1743861536,86812917,piren,0.4482026692747243,0.08595881348405783,0.03602842829479196,0.0014694015666595764,-0.0016808063595276494,0.0
2025/04/05 15:58:56.138394583,1743861536,136699705,piren,0.44848587799313033,0.19443551383515112,0.08001354380967032,0.0013288848290490178,-0.0013987949130161127,0.0013434681976098992
2025/04/05 15:58:56.184946070,1743861536,183348817,piren,0.4469238786522058,0.13452037591237057,0.05802759454594056,-0.00037286133638189596,-0.0008117329002313978,0.0
2025/04/05 15:58:56.232539542,1743861536,230619762,piren,0.4448087556890871,-0.006119943849080295,-0.002490812353611073,-0.0002881136909746552,-0.0001384003565602067,0.0
2025/04/05 15:58:56.279796329,1743861536,276334345,piren,0.4429123153607864,0.019481615342238006,0.0106682613010442,0.0010047086881971189,0.00039948097671195347,0.0067181345605551125
2025/04/05 15:58:56.368476571,1743861536,365314928,piren,0.44320666057476527,0.13720311954657516,0.05728330647902207,-0.0012976987327066871,0.0013213332827488006,0.0012441492856377068
2025/04/05 15:58:56.456546374,1743861536,454134570,piren,0.44304218201155005,-0.009378025012983932,-0.0052154530201739754,0.001825858007668943,0.0020182427742694345,0.001135377400186978
2025/04/05 15:58:56.548557729,1743861536,543324900,piren,0.44393104358969165,0.09099111355285457,0.03635332526510527,0.0002585836593549462,0.0020605070276330088,0.0010312730308017332
2025/04/05 15:58:56.590331594,1743861536,588066882,piren,0.44443041965564617,0.05167158609147007,0.022331343230888506,-0.0002288286119894265,0.002117360029183564,0.0
2025/04/05 15:58:56.637178251,1743861536,634314235,piren,0.4435374857541549,0.15144139302151413,0.06096287360747328,-0.0013157912274948385,0.002123573270516418,0.0
2025/04/05 15:58:56.685135648,1743861536,681844533,piren,0.44284854176685284,0.10003232656213183,0.04191423006388997,-0.001649559216827499,0.0018346248147841015,0.004971080994155075
2025/04/05 15:58:56.731037274,1743861536,727795733,piren,0.44828081367848,0.06796033673199416,0.029926344814427734,-0.0005019942260295235,0.0013710614629354407,0.0
2025/04/05 15:58:56.776264578,1743861536,774618777,piren,0.4498713840326903,0.13776847491953956,0.05633555962408468,-0.0016841481843036339,0.001017727104047626,0.004218408450307127
2025/04/05 15:58:56.866680411,1743861536,864397125,piren,0.44845257385375165,-0.038880589109612645,-0.01902538698552686,-0.0012351393098528147,0.00030426025877869584,0.0007394717861700936
2025/04/05 15:58:56.958832952,1743861536,956956753,piren,0.45064303902465813,-0.15397716311572368,-0.06826559700751209,0.0006497743756411163,-0.0004637992618353878,0.00037411702974370347
2025/04/05 15:58:57.48137493,1743861537,45995532,piren,0.4515368868158933,0.0009959811864973522,-0.003853405704704091,-0.00020548327714357264,-0.0012334721600147616,4.149779206621625e-05
2025/04/05 15:58:57.137521776,1743861537,134116718,piren,0.45375595923198975,-0.007364722830107006,-0.0036501155487222298,-2.921965413106971e-05,-0.001705408100759926,-6.166028551110253e-05
2025/04/05 15:58:57.183182012,1743861537,181052641,piren,0.4547252612094329,-0.012808053955041053,-0.0034572012770478474,0.00040734392496616487,-0.0021078696005095636,0.0
2025/04/05 15:58:57.231236034,1743861537,227360423,piren,0.4553211058306946,7.9732136464351e-05,0.0034228669647476083,0.000408122092100634,-0.002373933782012512,0.0
2025/04/05 15:58:57.275718474,1743861537,273224485,piren,0.45493156856200617,-0.010660607443969659,-4.0332739192880645e-05,0.0004513249097778995,-0.00245553155333416,0.0009127489958166121
2025/04/05 15:58:57.321295533,1743861537,319495273,piren,0.45493156856200617,-0.010660607443969659,-4.0332739192880645e-05,0.0014251915699167168,-0.00242251174958399,0.0
2025/04/05 15:58:57.415637428,1743861537,409047015,piren,0.45334442777118544,-0.027956123834928823,-0.006835031557352498,0.002116915120894984,-0.001793284492630384,0.002082117250649279
2025/04/05 15:58:57.504217401,1743861537,501858696,piren,0.45050156789977824,0.07547411649729836,0.0333060908819409,-0.0012595776899452218,-0.0006782620453697032,0.0020618867081716153
2025/04/05 15:58:57.595875253,1743861537,594002441,piren,0.4511792226602669,-0.06053788259982866,-0.02543376612376417,-0.0007771089954536441,0.0005549435943612419,0.002183451113203204
2025/04/05 15:58:57.687427019,1743861537,685752064,piren,0.45144570551617597,-0.20525794584823415,-0.08872766370281472,-0.00010058691116790514,0.0011007581127718874,0.0026599209737468038
2025/04/05 15:58:57.736322873,1743861537,732553670,piren,0.45160986336686654,-0.1727614363230259,-0.07303557276376861,0.00043507959052858474,0.0015820250163451782,0.0005218922880018793
2025/04/05 15:58:57.783525648,1743861537,780432330,piren,0.4511759995584274,-0.05587908712782336,-0.022831151642389684,8.257546814159195e-05,0.002075262857106866,0.0
2025/04/05 15:58:57.829928710,1743861537,827774853,piren,0.4503819141524449,-0.020497830346266704,-0.006758154764950293,-0.000793241011796704,0.002496504112129343,0.0
2025/04/05 15:58:57.877828138,1743861537,875031129,piren,0.44967076626089725,-0.0020956633451078184,0.0015400180383828652,-0.0009957246355496668,0.0025164920257244676,0.0019328557501113678
2025/04/05 15:58:57.969214852,1743861537,967222012,piren,0.4518970866044359,-0.036554445192996346,-0.013760598095593197,-0.0007392037645425538,0.0018992517607646618,0.00019720396927849033
2025/04/05 15:58:58.58914825,1743861538,57076973,piren,0.4512913171884296,-0.030693498372511376,-0.0116126108338612,0.0001386056069530644,0.0012239446940275646,0.00048163713738827327
2025/04/05 15:58:58.151569320,1743861538,148643114,piren,0.45119303618930673,-0.03025758107364708,-0.011819609327667964,-0.001359899456546303,0.0008074542089166598,0.0005654489293081084
2025/04/05 15:58:58.198010307,1743861538,196096657,piren,0.45478569344106773,-0.09671568112726162,-0.042943663769125326,0.0006825289627388217,-0.00025035662715967627,0.0
2025/04/05 15:58:58.289870921,1743861538,286718180,piren,0.4567335941629838,0.07169116074219345,0.025184826806609828,-0.0006952191422470494,-0.0007154870804535324,0.0027973729881569684
2025/04/05 15:58:58.336672979,1743861538,334064118,piren,0.4578378496907138,0.07380272959389912,0.028314136066351758,-0.0005816924380290443,-0.001157013636974713,0.0007146280253899227
2025/04/05 15:58:58.381842241,1743861538,379943195,piren,0.45864755465745505,-0.04609689570124828,-0.024486786364630194,0.001110984537948628,-0.001534446436517285,0.0
2025/04/05 15:58:58.429765709,1743861538,427672202,piren,0.45858715005008466,0.06483269338314131,0.02310066435605587,-0.00045527986202650004,-0.0018004432146871115,0.0
2025/04/05 15:58:58.477432090,1743861538,475471770,piren,0.458509780903228,-0.05272594725620364,-0.027683566967524668,-0.0012284661389831027,-0.0019041563153725436,0.0032426907766693507
2025/04/05 15:58:58.524888404,1743861538,522365776,piren,0.45795913174747543,-0.0919270450015574,-0.04266364752669102,-0.00022320397081879173,-0.001891075936964898,0.0
2025/04/05 15:58:58.618752118,1743861538,615217626,piren,0.45687015575078965,-0.026362226630089927,-0.011827282497083022,0.00016109974247954055,-0.0016361437497191913,0.0042046205465236216
2025/04/05 15:58:58.715572145,1743861538,711269967,piren,0.45578145973549944,-0.10206000267062335,-0.04553006779420731,-0.00037384534236716157,-0.0010352919566487702,0.003917168314919242
2025/04/05 15:58:58.809435566,1743861538,806556153,piren,0.45437843147110507,-0.01608706689462451,-0.006334960282610755,0.0011696444282564935,-0.00025419150562611397,0.0046258641848434465
2025/04/05 15:58:58.905955539,1743861538,901648137,piren,0.45722314709951245,0.022428252331883412,0.011748817430556027,-0.00023621788430382146,0.0006488901089269061,0.004783181010605947
2025/04/05 15:58:58.999634518,1743861538,997323549,piren,0.45743585314996876,0.06340979331189373,0.029780610720965963,0.0011660364543190057,0.0011285392215440917,0.005982006114473659
2025/04/05 15:58:59.92010108,1743861539,89966198,piren,0.45839299454378346,0.06950390488491393,0.03267285353767024,-0.0005341057528245927,0.0013409027745362552,0.005495852279890369
2025/04/05 15:58:59.139786603,1743861539,138095782,piren,0.45841211835959295,-0.0255770903438588,-0.010611979765774014,-0.0004830091223877756,0.0015565033017236822,0.001209171415695306
2025/04/05 15:58:59.188939449,1743861539,185702325,piren,0.45820550419150585,0.02931418538241814,0.013446314778573432,0.0010216208543490177,0.0016436672329737559,0.0
2025/04/05 15:58:59.236979075,1743861539,234197009,piren,0.45803006342034713,0.16405548272268788,0.06659580243390374,0.0007790802688914637,0.0016397676333026003,0.0
2025/04/05 15:58:59.285714547,1743861539,282624409,piren,0.4579273246929919,0.1254260779177457,0.05211950364297701,-0.0008095120240470424,0.0015783770580868434,0.006478760372910137
2025/04/05 15:58:59.334025217,1743861539,331739565,piren,0.4582711058437102,-0.003084073663649184,-0.004317057543997631,-0.00041350367910845335,0.001423644119711256,0.0
2025/04/05 15:58:59.381230261,1743861539,379248706,piren,0.45764639856918204,0.07605680502269932,0.029848445269486858,0.001069309102486749,0.0011515482768285881,0.007010000650260862
2025/04/05 15:58:59.431698445,1743861539,428151734,piren,0.45766651666513136,0.1665847169288554,0.06640052633346444,-0.0003195747396635821,0.0007936713169951403,0.0
2025/04/05 15:58:59.479024731,1743861539,476913525,piren,0.4579907134819454,0.12256524754452583,0.050106875829733624,-0.0013130530678272362,0.0005627153044174885,0.005811800050918309
2025/04/05 15:58:59.595535192,1743861539,592965761,piren,0.45672686741354523,0.09713735354202979,0.040754223077100006,-0.000275240983222284,7.936438376325423e-05,0.0011353959670777364
2025/04/05 15:58:59.644252139,1743861539,641586006,piren,0.45667153323249793,0.06082307012238741,0.026416960742449203,0.00046635228080155883,-0.00018008717978891309,0.0007222316429806291
2025/04/05 15:58:59.691425856,1743861539,689683413,piren,0.4595167035965237,0.14663238660054956,0.05916133614062283,0.0006729158167585448,-0.00040089563060727995,0.0
2025/04/05 15:58:59.741674163,1743861539,739011560,piren,0.46163514389122656,0.19300804196009264,0.07680822534045789,-0.0006296205179434445,-0.0005861892214522888,0.00031538927916546154
2025/04/05 15:58:59.788828153,1743861539,786925733,piren,0.46283338288376447,0.11197203647520834,0.04543522460749864,-0.0008222540369360804,-0.0007746696422873924,0.0
2025/04/05 15:58:59.840363406,1743861539,837980961,piren,0.46381992699418834,0.01549032752041056,0.006337471521642275,-0.0005984072106066856,-0.0009325477814996975,-4.146775191282366e-05
2025/04/05 15:58:59.889935990,1743861539,887373260,piren,0.46382440471600195,-0.0030490727524011274,-0.00015830951829831977,0.0003016216986477453,-0.0010237676174334655,0.0
2025/04/05 15:58:59.943591647,1743861539,940898596,piren,0.4636356615780419,-0.027563817218378982,-0.009613971954925995,-0.0005902591434722472,-0.001026155787544463,-0.0004061592366783622
2025/04/05 15:58:59.991167360,1743861539,989068725,piren,0.46241566341880164,-0.14677997891767516,-0.0629293342742624,-0.0014834822739496706,-0.0010054329596562593,0.0
2025/04/05 15:59:00.40328947,1743861540,38390709,piren,0.46148393130283744,-0.20119882230305847,-0.08673030098361775,0.00029288042451085266,-0.000921684872432492,-0.0007340288561806712
2025/04/05 15:59:00.88384135,1743861540,86564116,piren,0.4596689110843959,-0.014105598957621618,-0.010545406373924121,0.0016808710143971601,-0.0009201129753473505,0.0
2025/04/05 15:59:00.136797773,1743861540,134908505,piren,0.45991583052398305,0.0889383277469733,0.03261462025582064,9.78227729394651e-05,-0.0009306554184850881,0.0
2025/04/05 15:59:00.185361800,1743861540,183637743,piren,0.4601351482926707,0.05349502745862083,0.021274587136032978,0.00021999718001472048,-0.0009501856501242999,-0.004370069564024046
2025/04/05 15:59:00.234190445,1743861540,231645815,piren,0.46036728579597413,-0.004362352183306932,-0.0008688601162539396,0.0015377872461895437,-0.0009155659027180236,0.0
2025/04/05 15:59:00.282171108,1743861540,279659911,piren,0.4595550243315534,0.05061564504317176,0.022414785009462448,0.0023977793680569214,-0.0007821816367252776,-0.0028911283660432276
2025/04/05 15:59:00.375007280,1743861540,373167913,piren,0.4586084862528201,0.11066855809144727,0.04623861875047518,-0.0006093879118241052,-0.0002502193620206388,-0.00034998728790573767
2025/04/05 15:59:00.469289874,1743861540,467254689,piren,0.4607107551035829,0.050644391890182314,0.022948256718742864,0.000720405891320458,0.0006238603922627862,-0.0005047939624398069
2025/04/05 15:59:00.565930825,1743861540,563436947,piren,0.462013797448049,0.00933517346215923,0.0065992026067085985,-0.000520547534797355,0.00137116589083425,-0.0008210805615634769
2025/04/05 15:59:00.659131334,1743861540,657145707,piren,0.4622632834112214,-0.003963060950991337,0.0012083924338565427,0.0006139200267802349,0.00178247018756894,-0.0012046239885644971
2025/04/05 15:59:00.754015597,1743861540,752192507,piren,0.46217629338721095,-0.03161311209801168,-0.010627880870863027,-0.0011378138482100203,0.0016018698718201262,-0.0015619898153052163
2025/04/05 15:59:00.848880088,1743861540,846011795,piren,0.4633139873685427,-0.02760485506373696,-0.009514069766762024,0.0003476071325914112,0.0011783223944749413,-0.0016329016028876146
2025/04/05 15:59:00.897617624,1743861540,895362946,piren,0.4632630987593761,0.07601297075120785,0.029584979998926293,0.00013937973499012873,0.0007125032165943872,0.0
2025/04/05 15:59:00.948864015,1743861540,946536680,piren,0.46333445064487977,0.020110756453595988,0.007317766840491666,-0.0014894361287027052,0.00021572630259817144,-0.001300152930042452
2025/04/05 15:59:01.4051562,1743861540,998581423,piren,0.4612548331471321,-0.1136952709514389,-0.05147431210866634,-0.001294970676121158,-0.00032549755101092385,0.0
2025/04/05 15:59:01.61789936,1743861541,58447498,piren,0.46351456002798885,-0.0755113999165587,-0.03340000594223865,-0.00015271096648082074,-0.0012597135098716208,-0.0013150032126815587
2025/04/05 15:59:01.162555819,1743861541,160277439,piren,0.4644265146048615,-0.10120634937593419,-0.04315619615905531,-0.00028083304823015,-0.0018326750634911806,-0.0008726811132202245
2025/04/05 15:59:01.257098583,1743861541,255045146,piren,0.46441897809722876,0.03804754276902715,0.013383293566980835,-0.00014818673831783284,-0.001983663884543915,-0.0006637458185012599
2025/04/05 15:59:01.351642676,1743861541,349766710,piren,0.4645812239149568,-0.02926126196275615,-0.013344901436644095,-0.0014549413350828913,-0.0017535297736250143,-0.0004343025314923394
2025/04/05 15:59:01.447454869,1743861541,445106809,piren,0.4644953490116454,-0.14877153040142727,-0.06398848679245644,0.0005528157952497257,-0.0014557240994850903,-0.0001896490351866804
2025/04/05 15:59:01.494760441,1743861541,492789702,piren,0.4630769336469716,0.03280921962145841,0.010057475813279038,0.0012252847152934743,-0.0009949930657414837,0.0
2025/04/05 15:59:01.544881710,1743861541,542907756,piren,0.46174025584678063,0.07734647320999102,0.031185206408980558,0.0009139558281200713,8.861087817738456e-05,-5.816329552405392e-05
2025/04/05 15:59:01.642525131,1743861541,638577854,piren,0.46582141055944287,0.1157478947578511,0.049854961021803854,0.001045047804076469,0.00060006161662292,-1.637713993414883e-05
2025/04/05 15:59:01.689758414,1743861541,686982019,piren,0.4666740316283271,0.06772875923311404,0.030961658099804633,0.0009002692618208281,0.0009812254120454577,0.0
2025/04/05 15:59:01.739520295,1743861541,737081134,piren,0.46808772810752586,0.01836028834659375,0.010757456714829427,-0.000626755823365866,0.0012405715619363466,-5.596667327431474e-05
2025/04/05 15:59:01.788739418,1743861541,786498788,piren,0.4683926644461512,-0.09448419352797827,-0.03953626377698674,0.0009023863042431276,0.001533535279445999,0.0
2025/04/05 15:59:01.838507032,1743861541,836465688,piren,0.4673762359199604,0.04871352555237535,0.017800024022941598,0.001272340054835362,0.0017844818847695006,0.00011544901023596503
2025/04/05 15:59:01.888560677,1743861541,886440529,piren,0.4661736860241267,0.06088451928662834,0.024655275620085973,-0.0005024348390463392,0.0020677716320211875,0.0
2025/04/05 15:59:01.939531098,1743861541,936245016,piren,0.46525489625341876,-0.0719678746131649,-0.033173383271564896,-0.0006835800321882317,0.0022638905538887866,4.048479010058949e-05
2025/04/05 15:59:01.988083374,1743861541,985427755,piren,0.46335150936699887,-0.03499697996339819,-0.015582105962915788,-0.0009554952237417855,0.0021520874628684085,0.0
2025/04/05 15:59:02.37750900,1743861542,34878875,piren,0.4638675679766497,-0.006816739135956599,-0.0025443791696847587,8.029676429794915e-05,0.0017974914832598375,0.0
2025/04/05 15:59:02.87016417,1743861542,84740621,piren,0.4640139541441844,-0.003558381575203388,-0.00043759077747152625,-0.0006112425424909522,0.001463854750296319,2.82733096313772e-05
2025/04/05 15:59:02.136321094,1743861542,133707492,piren,0.46374378133582506,-0.11146899592831687,-0.04914778065157746,-0.0006779728895399868,0.0011055743164176842,0.0
2025/04/05 15:59:02.185759721,1743861542,183566783,piren,0.4627957530088228,-0.05836680395655094,-0.0252780448059365,0.0006518335968321234,0.0006114619298646868,0.0008141959807611811
