time,header_stamp_secs,header_stamp_nsecs,header_frame_id,quaternion_x,quaternion_y,quaternion_z,quaternion_w
2025/05/06 15:12:23.228934300,1746537143,228081967,,-0.00040017906957223243,4.197185606763551e-05,-0.10325956129216758,0.994654362628961
2025/05/06 15:12:23.321821397,1746537143,320202684,,-0.0004003626632454231,4.058260814327126e-05,-0.10325948037434565,0.9946543710131726
2025/05/06 15:12:23.424190227,1746537143,421819240,,-0.00040030279918374626,4.056053262131032e-05,-0.1032594000275014,0.9946543793793262
2025/05/06 15:12:23.521847453,1746537143,521353368,,-0.00040071768326033024,3.942959177551923e-05,-0.10325945586151652,0.9946543734613693
2025/05/06 15:12:23.623462857,1746537143,621494387,,-0.00040402867858343756,4.2551965254495345e-05,-0.10326816791307415,0.9946534675182278
2025/05/06 15:12:23.726586347,1746537143,724550950,,-0.0004108226107711439,4.7593271160094565e-05,-0.10328976169266114,0.9946512223333043
2025/05/06 15:12:23.829648508,1746537143,819691886,,-0.0004190398549381933,5.605482026093332e-05,-0.10332333841857602,0.9946477311096112
2025/05/06 15:12:23.926006852,1746537143,925161282,,-0.0004274268312968039,6.327404163496341e-05,-0.1033680993329739,0.9946430763560303
2025/05/06 15:12:24.25630813,1746537144,23990909,,-0.00043380331018282584,7.04203028522265e-05,-0.10342331192077328,0.9946373336080883
2025/05/06 15:12:24.125267758,1746537144,122059068,,-0.0004374893283435508,7.324329556531536e-05,-0.10348828555968664,0.994630573625416
2025/05/06 15:12:24.232448343,1746537144,221047866,,-0.00043756918747553077,7.372627446572501e-05,-0.10356181311828935,0.9946229204886117
2025/05/06 15:12:24.327689514,1746537144,325691812,,-0.0004577798481251098,6.375149437554225e-05,-0.1036078842633764,0.9946181139974399
2025/05/06 15:12:24.427314127,1746537144,423603319,,-0.0005016335499437623,4.485229190820605e-05,-0.10360809037115766,0.9946180724085479
2025/05/06 15:12:24.565380844,1746537144,520040386,,-0.0005560929454715048,1.7701544560767345e-05,-0.10356468525357987,0.994622564803161
2025/05/06 15:12:24.630722971,1746537144,624012574,,-0.0006051914758793191,-1.497587265774421e-05,-0.10347961617771903,0.9946313902922593
2025/05/06 15:12:24.771505791,1746537144,733327884,,-0.0006366191990545265,-4.279642413060516e-05,-0.10335533301465623,0.9946442922079687
2025/05/06 15:12:24.852821389,1746537144,818671030,,-0.0006383927029033419,-5.138073909125385e-05,-0.10319504446152329,0.9946609334910871
2025/05/06 15:12:24.929516105,1746537144,926011646,,-0.0006166092074971536,-7.274906399424093e-05,-0.10299790617944302,0.9946813790472352
2025/05/06 15:12:25.33901739,1746537145,25557267,,-0.0005565317133125848,-5.643765200551673e-05,-0.10278109471652626,0.9947038421842533
2025/05/06 15:12:25.136633783,1746537145,124022530,,-0.00045080691318158416,-3.265574625250362e-05,-0.10256518651589178,0.9947261825355205
2025/05/06 15:12:25.224172416,1746537145,221365063,,-0.00032546238019230553,5.978451430144622e-06,-0.10234974619568413,0.9947484222114535
2025/05/06 15:12:25.325639525,1746537145,318788182,,-0.00021120808712826882,4.7661293614069754e-05,-0.1021346554198228,0.9947705591149243
2025/05/06 15:12:25.676421549,1746537145,626336500,,-0.0001506942581263287,0.00015539255386295064,-0.10149672519662417,0.9948358497354002
2025/05/06 15:12:25.844750014,1746537145,815977639,,-0.0002386505493972916,0.0001388307889811148,-0.10114191413278197,0.9948719701436383
2025/05/06 15:12:25.944622601,1746537145,932415975,,-0.0002547833855422781,9.347292236247873e-05,-0.10101553236167726,0.9948848117093386
2025/05/06 15:12:26.21855215,1746537146,19452181,,-0.00028776249295976974,4.523053222498166e-05,-0.10089683513291399,0.9948968508378686
2025/05/06 15:12:26.146330287,1746537146,121403364,,-0.0003292963014231484,6.991293952165961e-06,-0.10078543698361798,0.9949081300336674
2025/05/06 15:12:26.411753858,1746537146,226232447,,-0.00037089644948492704,-2.9236664568714007e-05,-0.100680875924768,0.9949187016053436
2025/05/06 15:12:26.471544698,1746537146,324633695,,-0.00040355310377943444,-4.815070379432834e-05,-0.10058273314797805,0.9949286148357
2025/05/06 15:12:26.557788879,1746537146,427639545,,-0.0004220211513456767,-5.162629194736676e-05,-0.10049056733134586,0.9949379202293468
2025/05/06 15:12:26.697608596,1746537146,528392234,,-0.0004235284382064721,-3.7368662421213916e-05,-0.10040397287423125,0.9949466626198189
2025/05/06 15:12:26.751453676,1746537146,628714689,,-0.00040882090982928684,-1.0692225414843096e-05,-0.10032251801399418,0.9949548859774858
2025/05/06 15:12:26.800005543,1746537146,717484064,,-0.0003814204485096361,3.7088684580766317e-05,-0.10024581809536491,0.9949626269851858
2025/05/06 15:12:26.865006634,1746537146,827657841,,-0.00035116374639782775,7.618787417713004e-05,-0.1001732635437887,0.9949699433402085
2025/05/06 15:12:26.937437518,1746537146,927146196,,-0.00034170347471261525,0.0001146330985203277,-0.10008787132190171,0.9949785365083201
2025/05/06 15:12:27.30867749,1746537147,25520160,,-0.0003415625861436686,0.00013737697423654762,-0.09999187819172782,0.9949881852355119
2025/05/06 15:12:27.131324024,1746537147,129304114,,-0.0003205406937802575,0.00014095719006246404,-0.09990058803544588,0.9949973617527367
2025/05/06 15:12:27.231827435,1746537147,230032760,,-0.0002827830784758896,0.00012919950536982545,-0.0998145726232543,0.9950060072347581
2025/05/06 15:12:27.326264455,1746537147,322277898,,-0.00023972930838892014,0.00010177957914352153,-0.09973352916527582,0.995014148306955
2025/05/06 15:12:27.426236687,1746537147,417466201,,-0.00020436632520270639,5.9956814626573913e-05,-0.09965722474768272,0.9950218048842826
2025/05/06 15:12:27.530517826,1746537147,527299490,,-0.00018570312151528,8.993151644476351e-06,-0.09958544693774658,0.9950289966587321
2025/05/06 15:12:27.627271635,1746537147,624861335,,-0.0001867831780422104,-1.9091689935063037e-05,-0.0995182494654041,0.9950357193442321
2025/05/06 15:12:27.724156940,1746537147,723301714,,-0.00020322930973565656,-4.73324280944499e-05,-0.099462962101127,0.9950412431791753
2025/05/06 15:12:27.830345706,1746537147,825573417,,-0.0002449513326087693,-5.577189087273632e-05,-0.09941118047113248,0.995046408006017
2025/05/06 15:12:27.925026791,1746537147,924579193,,-0.00030266045026494876,-4.696949087566792e-05,-0.09936251250342956,0.9950512536043179
2025/05/06 15:12:28.27431390,1746537148,17995296,,-0.0003634673845822203,-2.3626540536988264e-05,-0.09931686070168445,0.9950557916587437
2025/05/06 15:12:28.124042019,1746537148,123101197,,-0.00041412330082272363,1.177089654495839e-05,-0.09927413729696835,0.9950600353884586
2025/05/06 15:12:28.225714683,1746537148,224072985,,-0.00044519657698526666,4.9553184011125074e-05,-0.09923419239494577,0.9950640051796732
2025/05/06 15:12:28.323567184,1746537148,322364213,,-0.00045132765218620935,8.558951481701683e-05,-0.09919682481919781,0.9950677257973825
2025/05/06 15:12:28.423755309,1746537148,420644950,,-0.0004335363464514847,0.00011106707107436399,-0.09916179541934088,0.9950712225964304
2025/05/06 15:12:28.523706911,1746537148,522334973,,-0.00039708774278170253,0.00012496828644921237,-0.09912887373379799,0.9950745163536853
2025/05/06 15:12:28.620660657,1746537148,618564282,,-0.0003529544051588408,0.00012164091285885106,-0.09909784491817485,0.9950776239868172
2025/05/06 15:12:28.722273755,1746537148,720170777,,-0.0003232673878153375,0.00010651956766489872,-0.0990684856400321,0.9950805592035091
2025/05/06 15:12:28.819641438,1746537148,818181182,,-0.0003176509466926535,8.032930789675635e-05,-0.09904067009345688,0.995083332345848
2025/05/06 15:12:28.922538421,1746537148,919561898,,-0.0003358351581386632,5.06059534038497e-05,-0.09901434380340852,0.9950859482351082
2025/05/06 15:12:29.26698927,1746537149,21914997,,-0.0003729001771674105,1.9840774117614005e-05,-0.09898944760777124,0.9950884130639397
2025/05/06 15:12:29.124893780,1746537149,123167649,,-0.00041896641479086707,-3.7005720184310556e-06,-0.0989659114108277,0.9950907359794248
2025/05/06 15:12:29.229441436,1746537149,226903602,,-0.00046032225574654594,-1.9897031903470384e-05,-0.09894226844369323,0.9950930686236062
2025/05/06 15:12:29.321010846,1746537149,318002815,,-0.00047341259840609246,-2.5559574061512336e-05,-0.0989126070423724,0.9950960111443021
2025/05/06 15:12:29.420651492,1746537149,420155529,,-0.00045059181854688514,-2.2675290966957406e-05,-0.09887716020200853,0.9950995445900026
2025/05/06 15:12:29.524859166,1746537149,522988210,,-0.0003538005966430219,-1.5155595550719003e-05,-0.0988608722887187,0.9951012021527054
2025/05/06 15:12:29.629221493,1746537149,628513999,,-0.0001900826104975887,-7.578288034160467e-06,-0.09886737669629907,0.9951006007617335
2025/05/06 15:12:29.719772626,1746537149,718588699,,-2.7758396424661975e-05,8.908061802484251e-06,-0.09887351477402645,0.9951000086555865
2025/05/06 15:12:29.823941547,1746537149,821773784,,8.9891668517465e-05,3.234521799332519e-05,-0.09887051379445996,0.9951003026706877
2025/05/06 15:12:29.919492833,1746537149,918037489,,0.00013705218847530576,6.259931750114717e-05,-0.09885781168777436,0.9951015578152451
2025/05/06 15:12:30.18648237,1746537150,18209793,,0.00010513292976945585,9.521910150577707e-05,-0.09883292086342488,0.9951040315635314
2025/05/06 15:12:30.121679223,1746537150,120777661,,3.436926213369739e-06,0.00012672241102900186,-0.09879427623030083,0.9951078709937677
2025/05/06 15:12:30.224189571,1746537150,222312183,,-0.00014588158051433148,0.00015316148007187425,-0.0987441509356211,0.9951128317513189
2025/05/06 15:12:30.324225958,1746537150,323069514,,-0.0003073196770873192,0.00016003068376834766,-0.09868091874500927,0.9951190663535883
2025/05/06 15:12:30.431950831,1746537150,430457914,,-0.00044089463796942826,0.00016632984424406883,-0.09860149480475812,0.9951268879738746
2025/05/06 15:12:30.518758003,1746537150,518067170,,-0.0005240310739673203,0.00015594337833392131,-0.09850484727256724,0.995136420867463
2025/05/06 15:12:30.621881906,1746537150,621442565,,-0.0005460434484153618,0.0001390472466770676,-0.09839292703334845,0.9951474837491304
2025/05/06 15:12:30.724522603,1746537150,722706222,,-0.000507567799468745,0.00011405906942302112,-0.09826572548740638,0.9951600758470425
2025/05/06 15:12:30.818288330,1746537150,817761976,,-0.0004133197237347161,9.481820510033504e-05,-0.098133703377828,0.9951731489734168
2025/05/06 15:12:30.919383885,1746537150,918897846,,-0.0002729024025864082,7.739124005795903e-05,-0.09802217425147684,0.9951841904340561
2025/05/06 15:12:31.25283626,1746537151,22491026,,-0.00012245752367726295,7.235058485966541e-05,-0.0979306366583287,0.9951932325801066
2025/05/06 15:12:31.132415393,1746537151,127722376,,-1.707200500191194e-06,7.918881180432824e-05,-0.09785799794705842,0.9952003848291112
2025/05/06 15:12:31.218405608,1746537151,215964479,,5.749546556879622e-05,9.408637199064714e-05,-0.09780341487230962,0.9952057475122121
2025/05/06 15:12:31.321267859,1746537151,318895121,,4.441211798655459e-05,0.00012131806357061736,-0.09776807423257665,0.9952092176875899
2025/05/06 15:12:31.420098557,1746537151,418434701,,-3.621085149993634e-05,0.00014647539189396308,-0.09775293582698105,0.9952107016963493
2025/05/06 15:12:31.524328213,1746537151,521980111,,-0.00016306185714974866,0.00017333332586480784,-0.09775811959453716,0.9952101755004965
2025/05/06 15:12:31.624347130,1746537151,621713516,,-0.000341109543108576,0.0002031397169602467,-0.09776551938590533,0.995209397864459
2025/05/06 15:12:31.726931691,1746537151,723534587,,-0.0005410823742673235,0.0002153888913730276,-0.09777151511474591,0.995208717641509
2025/05/06 15:12:31.818310545,1746537151,817963885,,-0.000715164160137918,0.0002167246736629088,-0.09777865927390181,0.9952079055962317
2025/05/06 15:12:31.922539997,1746537151,919790711,,-0.0008283600266370465,0.00021739923817409558,-0.09778832209010956,0.9952068682540522
2025/05/06 15:12:32.24169704,1746537152,20373172,,-0.0008616695350567857,0.00020022061925335265,-0.09780170121882209,0.99520552886126
2025/05/06 15:12:32.126473638,1746537152,124787876,,-0.0008159480816683153,0.00017061724687808224,-0.09782026506859444,0.9952037484155659
2025/05/06 15:12:32.220571545,1746537152,218582181,,-0.0007035365336069571,0.0001409835701684168,-0.09784657438733114,0.9952012525316893
2025/05/06 15:12:32.322258608,1746537152,321574062,,-0.000565814146082929,0.00011224853415197687,-0.09787704341299387,0.9951983478821443
2025/05/06 15:12:32.426597975,1746537152,426180683,,-0.000455044545228345,8.659391293463211e-05,-0.09789951411916159,0.9951961970240784
2025/05/06 15:12:32.526566166,1746537152,524590943,,-0.0003921368413939806,8.590699595539334e-05,-0.09791624772035198,0.9951945775982968
2025/05/06 15:12:32.622543072,1746537152,619970408,,-0.00038769723795598114,9.332862636579666e-05,-0.09792394578748022,0.9951938212338488
2025/05/06 15:12:32.720878621,1746537152,719044437,,-0.0004341666114220028,0.0001227001863686165,-0.09792285268824323,0.995193906414933
2025/05/06 15:12:32.825122916,1746537152,823291320,,-0.0005158945168874959,0.00015848025065801104,-0.09791324914772422,0.9951948072504163
2025/05/06 15:12:32.923528252,1746537152,922008916,,-0.0006115738437402015,0.00018769284249431638,-0.09789573507498152,0.9951964709558407
2025/05/06 15:12:33.25569649,1746537153,23650670,,-0.0006954296076431779,0.00022200140522978768,-0.09787059230125304,0.9951988817596404
2025/05/06 15:12:33.126239970,1746537153,123518073,,-0.0007477412532625919,0.00024834342946572876,-0.09783838471205591,0.9952020044621569
2025/05/06 15:12:33.226774708,1746537153,225648610,,-0.000749279005400771,0.0002633028437729195,-0.09780507411417898,0.9952052736647372
2025/05/06 15:12:33.324286832,1746537153,318849807,,-0.0006988073238742724,0.0002522343542843195,-0.09777241418601605,0.9952085224064315
2025/05/06 15:12:33.424015981,1746537153,422168431,,-0.0006074556731415476,0.0002311539689066028,-0.09774040779607959,0.9952117313663982
2025/05/06 15:12:33.525562938,1746537153,524252525,,-0.0004949113663013053,0.0002068593427987072,-0.09770829404689813,0.9952149524330896
2025/05/06 15:12:33.625011246,1746537153,624501046,,-0.00038367603541230986,0.0001710211808391636,-0.0976739135034601,0.9952183831528506
2025/05/06 15:12:33.723017547,1746537153,720803016,,-0.00029816293230169476,0.00014333187922081306,-0.09764035430251243,0.9952217098549037
2025/05/06 15:12:33.820686707,1746537153,818490728,,-0.0002564931463134326,0.00012457067657215467,-0.09760757850749892,0.9952249390521295
2025/05/06 15:12:33.922896303,1746537153,921276472,,-0.00026579829220178,0.00012194548637585922,-0.09757553873341424,0.9952280787444907
2025/05/06 15:12:34.25006609,1746537154,24421260,,-0.00032069873621460557,0.00013329594339007097,-0.09754421128183488,0.9952311320642642
2025/05/06 15:12:34.127085690,1746537154,125413400,,-0.0004056725746621515,0.00015587781693833353,-0.09751359219062554,0.9952340983255893
2025/05/06 15:12:34.226843025,1746537154,224832246,,-0.000500136389435538,0.00019436058356520785,-0.09748368879291446,0.9952369780644617
2025/05/06 15:12:34.322295931,1746537154,316970454,,-0.0005827139373222914,0.00022249077435775838,-0.09745450845576169,0.9952397850387456
2025/05/06 15:12:34.421154652,1746537154,420318598,,-0.0006335967718292558,0.00023960331865004612,-0.09742606924550191,0.9952425343486637
2025/05/06 15:12:34.524527820,1746537154,522820813,,-0.0006413045127246136,0.0002483222998718386,-0.0973983727026049,0.9952452381495939
2025/05/06 15:12:34.620588242,1746537154,619962665,,-0.000605266409545401,0.00024276617819658203,-0.09736990973553022,0.9952480471697751
2025/05/06 15:12:34.721766347,1746537154,721409632,,-0.0005447347416574583,0.0002071954078864125,-0.09733993189464549,0.9952510226032777
2025/05/06 15:12:34.824963325,1746537154,823340277,,-0.00047937533289338466,0.00017474204303016315,-0.09731282310705354,0.9952537134436846
2025/05/06 15:12:34.924874197,1746537154,923697056,,-0.0004423762296925564,0.00012446817951119473,-0.09728650847845192,0.9952563107456369
2025/05/06 15:12:35.20837339,1746537155,18812832,,-0.0004458112675315174,0.0001068293827741754,-0.09726802241175996,0.9952581181060027
2025/05/06 15:12:35.125289083,1746537155,121270445,,-0.0004955811886135814,6.221624155724245e-05,-0.09725564921649583,0.995259307529401
2025/05/06 15:12:35.223264079,1746537155,221573751,,-0.0005727198962261827,6.570859719239292e-05,-0.09724325328681852,0.995260477143796
2025/05/06 15:12:35.326628455,1746537155,324646292,,-0.0006600108458988133,6.75567927400305e-05,-0.09722862813208494,0.9952618518225823
2025/05/06 15:12:35.420098238,1746537155,418837032,,-0.0007349525595895279,7.708506066430302e-05,-0.09721422258290734,0.9952632058054942
2025/05/06 15:12:35.522864431,1746537155,521540123,,-0.000775352949001901,0.0001043510255127291,-0.09719963149589353,0.9952645977707287
2025/05/06 15:12:35.623975295,1746537155,622587535,,-0.0007865810041230009,0.00012366801809251269,-0.0971602388883301,0.9952684331253091
2025/05/06 15:12:35.735542628,1746537155,727297914,,-0.0007536867959732999,0.0001252249764319969,-0.09709097745780122,0.9952752174002966
2025/05/06 15:12:35.818316608,1746537155,816518068,,-0.0006744491351310284,0.00010372633811775529,-0.09698585408286538,0.9952855261014439
2025/05/06 15:12:35.921367863,1746537155,919487142,,-0.0005478634055697413,6.94701784916332e-05,-0.0968428908428185,0.9952995275357007
2025/05/06 15:12:36.20745605,1746537156,19073417,,-0.0003545627069190921,2.5490960697364998e-05,-0.09669295946727283,0.9953141942245967
2025/05/06 15:12:36.122878512,1746537156,121117009,,-0.00011344104125002728,-1.8830966542535875e-05,-0.09655710946431043,0.9953274392823811
2025/05/06 15:12:36.225969437,1746537156,224089953,,0.00013867000760900481,-4.996128119962825e-05,-0.09644998602051769,0.9953378212803637
2025/05/06 15:12:36.323066459,1746537156,319503811,,0.0003104267692331489,-6.0301676047133745e-05,-0.09635063356214178,0.9953474043825616
2025/05/06 15:12:36.421061454,1746537156,419322145,,0.00036638784110820774,-4.146952257940043e-05,-0.09625956993089,0.9953561971660942
2025/05/06 15:12:36.524616101,1746537156,522783985,,0.00029319099265306904,2.411019369843541e-06,-0.09617714152974084,0.9953641903747578
2025/05/06 15:12:36.622303487,1746537156,617228689,,0.00011182665180904917,6.839505506559549e-05,-0.09611937441484722,0.9953698049865762
2025/05/06 15:12:36.718900658,1746537156,717740556,,-0.0001421310522075856,0.0001496548270746616,-0.09609664281296545,0.9953719870692936
2025/05/06 15:12:36.820331997,1746537156,819831531,,-0.0004241395138229398,0.00023236882603807962,-0.09611427831201275,0.9953701882289636
2025/05/06 15:12:36.925020805,1746537156,924534997,,-0.0007050379811285971,0.0003040260776741148,-0.09615366512981201,0.9953662055603923
2025/05/06 15:12:37.27577966,1746537157,23889983,,-0.0009595082225688571,0.0003296445869699182,-0.09618971245668625,0.9953625017529629
2025/05/06 15:12:37.122664040,1746537157,121406746,,-0.0011273025920617828,0.00034327014091224705,-0.09622092132006951,0.9953593048014336
2025/05/06 15:12:37.220730991,1746537157,216589619,,-0.001173625852331731,0.0003036756271483159,-0.09624739386245097,0.9953567046833806
2025/05/06 15:12:37.325822505,1746537157,322200453,,-0.0010873221462174031,0.00025367899923234543,-0.09626966231317977,0.9953546631706821
2025/05/06 15:12:37.426497901,1746537157,424602158,,-0.0008950938997875256,0.00018004418566706308,-0.09628626828424013,0.9953532643895318
2025/05/06 15:12:37.529684998,1746537157,524444543,,-0.0006452095815800667,0.00010441415785278402,-0.0962911877457964,0.9953529926437069
2025/05/06 15:12:37.618225376,1746537157,615771806,,-0.00039764827299999773,4.6649482139432864e-05,-0.09629963952136678,0.9953523090482744
2025/05/06 15:12:37.720791175,1746537157,718498883,,-0.0002099875788196516,1.6550752767612698e-05,-0.09631393864879369,0.9953509837505792
2025/05/06 15:12:37.823435476,1746537157,820564355,,-0.00012255332809520928,1.5174122703894994e-05,-0.09632912891085608,0.9953495283937716
2025/05/06 15:12:37.926969414,1746537157,924826499,,-0.00015054948696833565,5.2796246641111323e-05,-0.09634490142769318,0.9953479966907536
2025/05/06 15:12:38.20028200,1746537158,17867611,,-0.00028126879197331754,0.00010486037277257532,-0.09635846392343238,0.9953466513343406
2025/05/06 15:12:38.127438326,1746537158,125116873,,-0.0004795407057304335,0.00018301141647352894,-0.09637291231805203,0.9953451654169372
2025/05/06 15:12:38.227497105,1746537158,225772363,,-0.0006977488636945363,0.0002619410888809637,-0.09638871806509632,0.9953434882306492
2025/05/06 15:12:38.320108455,1746537158,317572869,,-0.0008829882148400312,0.00032808833470057843,-0.09640600625214106,0.9953416471987743
2025/05/06 15:12:38.419247901,1746537158,417652174,,-0.000993061054255846,0.00035893283589224037,-0.09642510747064882,0.9953396825437212
2025/05/06 15:12:38.532580721,1746537158,519664903,,-0.0010003948227274486,0.000369577878752293,-0.09644181376688318,0.9953380527136215
2025/05/06 15:12:38.624611507,1746537158,622665971,,-0.0009123887367587512,0.0003204338859302878,-0.0964358866575011,0.9953387285911763
2025/05/06 15:12:38.718435357,1746537158,717816894,,-0.0006948216340131896,0.00025013376548865704,-0.09642143052325952,0.9953403249099498
2025/05/06 15:12:38.828770420,1746537158,824299939,,-0.00038205202277602246,0.0001455414392355723,-0.09640160831317279,0.9953424349280879
2025/05/06 15:12:38.924801234,1746537158,923966045,,-3.924625891372977e-05,6.216194213247947e-05,-0.0963795387488686,0.9953446534272334
2025/05/06 15:12:39.25496213,1746537159,25068545,,0.0002513530921034582,-1.5817602500345396e-05,-0.0963630246027377,0.9953462232112195
2025/05/06 15:12:39.123054288,1746537159,118295637,,0.00042580758887447517,-4.259241668704243e-05,-0.09635307187112287,0.9953471265919149
2025/05/06 15:12:39.223093691,1746537159,219434451,,0.00044212460145683877,-3.9000622193220935e-05,-0.09634848561836212,0.9953475635795953
2025/05/06 15:12:39.326146306,1746537159,325679150,,0.0003034726587624613,2.943707928581951e-05,-0.09634879999084645,0.9953475854082973
2025/05/06 15:12:39.434000033,1746537159,428487001,,5.0836742283223676e-05,0.00011440782785012148,-0.09635946176259745,0.995346592125224
2025/05/06 15:12:39.518261279,1746537159,517378698,,-0.0002349410103838693,0.0002102917330938074,-0.09639658687095295,0.9953429552770942
2025/05/06 15:12:39.622952351,1746537159,620474740,,-0.0005176693415607412,0.0003024423040986302,-0.09643945013230816,0.9953386725156838
2025/05/06 15:12:39.722613445,1746537159,720952925,,-0.0007344323519093076,0.0003672078526028677,-0.09648993379583275,0.9953336216784748
2025/05/06 15:12:39.824609460,1746537159,824342991,,-0.000847550709537627,0.00038862946961005753,-0.09654633227469704,0.9953280546378837
2025/05/06 15:12:39.927387901,1746537159,926830438,,-0.0008210457037877284,0.0003589976320612031,-0.09660813974829847,0.9953220907520468
2025/05/06 15:12:40.22012426,1746537160,17678530,,-0.0006403675460659236,0.0002937874457999374,-0.09667503418109342,0.9953157495912677
2025/05/06 15:12:40.118078188,1746537160,117564202,,-0.0003423602400051171,0.00020556894858406898,-0.09673743886337598,0.9953098554987929
2025/05/06 15:12:40.219884449,1746537160,218629659,,-1.1779000281222486e-05,0.00011918150847568041,-0.09677158941091643,0.9953066086085776
2025/05/06 15:12:40.325148454,1746537160,323358544,,0.00031929975959516345,4.3452853545653376e-05,-0.09680031037718238,0.9953037707506157
2025/05/06 15:12:40.423261225,1746537160,422477539,,0.0005796133937381609,-2.0923991069154802e-05,-0.09683338413296344,0.9953004367164009
2025/05/06 15:12:40.525830006,1746537160,524025560,,0.0007116524955672173,-2.9162651665558094e-05,-0.09688047397542941,0.9952957683334946
2025/05/06 15:12:40.619344487,1746537160,616491359,,0.0006796448220343315,-2.6319561233969895e-05,-0.09695096512989383,0.9952889267697992
2025/05/06 15:12:40.724285253,1746537160,719058562,,0.00048417463025532094,3.111103860599171e-05,-0.09704909247041496,0.9952794774623355
2025/05/06 15:12:40.821389998,1746537160,820986055,,0.0001585318101331569,0.0001087126491135116,-0.09717762545835919,0.995267035603762
2025/05/06 15:12:40.925563585,1746537160,922305965,,-0.00026577892518872656,0.00018545977942656004,-0.09731460236003261,0.9952536174934216
2025/05/06 15:12:41.25053600,1746537161,23648455,,-0.0007027598350143736,0.0002772867290226237,-0.09744672304630873,0.9952404560749227
2025/05/06 15:12:41.119861741,1746537161,118244233,,-0.0010484792268248314,0.0003480301520309723,-0.09757653601493355,0.9952274107889365
2025/05/06 15:12:41.221440583,1746537161,219529496,,-0.0012252247946119607,0.00038520104106366397,-0.097705026688614,0.9952145890229593
2025/05/06 15:12:41.325183454,1746537161,323831215,,-0.0012004905525538545,0.00038501872094326564,-0.09783012273923208,0.9952023300152811
2025/05/06 15:12:41.427224770,1746537161,424336966,,-0.0009856102414909722,0.000337004440786744,-0.09795369261218476,0.995190428563346
2025/05/06 15:12:41.524604480,1746537161,523223629,,-0.0006180913750437552,0.00027198999891045824,-0.09810784324685945,0.9951755599279668
2025/05/06 15:12:41.627707550,1746537161,625125495,,-0.00024751682316993633,0.00018193840826381328,-0.0982748909992236,0.9951592593313537
2025/05/06 15:12:41.725772019,1746537161,724443397,,1.9059134119431508e-05,9.322711248399387e-05,-0.09843816589585329,0.995143164796159
2025/05/06 15:12:41.822439061,1746537161,818824467,,0.0001257007610359134,2.504610519466336e-05,-0.09859764237777016,0.9951273729978272
2025/05/06 15:12:41.918604364,1746537161,918022479,,5.4047155070002174e-05,-1.9245920868375118e-05,-0.09875292822695864,0.9951119815754912
2025/05/06 15:12:42.22912201,1746537162,18651716,,-0.00016861673306241618,-9.47994072716931e-06,-0.09890452071245291,0.9950969135019805
2025/05/06 15:12:42.123760163,1746537162,122706610,,-0.0004862409813478499,4.376320039519365e-05,-0.09905328118423752,0.9950820112639595
2025/05/06 15:12:42.224845822,1746537162,224344675,,-0.0008221001526323799,0.00011938781771711062,-0.0991999538511548,0.9950671731364756
2025/05/06 15:12:42.327061668,1746537162,325363045,,-0.0010983372979444465,0.0002177243019566763,-0.09934000506207843,0.9950529180126927
2025/05/06 15:12:42.419872347,1746537162,418489127,,-0.0012514797866124499,0.0003150524124404275,-0.09946857216039054,0.9950398673885857
2025/05/06 15:12:42.524202744,1746537162,523422435,,-0.0012397560801870504,0.0003932076426217936,-0.09959183273359949,0.995027524868219
2025/05/06 15:12:42.625905913,1746537162,624646362,,-0.001060460571606019,0.0004349145199697512,-0.09970761527464538,0.9950161193312296
2025/05/06 15:12:42.721464058,1746537162,719506801,,-0.0007563201801195065,0.00043487524349439705,-0.09981818520342074,0.9950053109235163
2025/05/06 15:12:42.824334938,1746537162,823227126,,-0.00040105136134593866,0.0003825768791622409,-0.09991681305978664,0.9949956398199505
2025/05/06 15:12:42.928684770,1746537162,925535996,,-7.00617330391486e-05,0.0003058752402645362,-0.10001152507368133,0.9949862292434641
2025/05/06 15:12:43.20224864,1746537163,17992574,,0.00016118074024612338,0.00021607110533492717,-0.10010310478394413,0.9949770327734511
2025/05/06 15:12:43.125830405,1746537163,120720214,,0.0002481631721832566,0.00012691863334755678,-0.1001964520309504,0.9949676343012922
2025/05/06 15:12:43.221606885,1746537163,221086715,,0.00017863733632324697,6.713058151239239e-05,-0.1002931503172765,0.9949579124674688
2025/05/06 15:12:43.328447582,1746537163,326269477,,-2.8432540786112578e-05,3.224756864794709e-05,-0.1003932408078614,0.9949478354927859
2025/05/06 15:12:43.424862783,1746537163,424334603,,-0.00032082353452971826,3.376404070841978e-05,-0.10049678844455105,0.9949373304106045
2025/05/06 15:12:43.519944443,1746537163,517976439,,-0.0006284797197938067,6.9219266823563e-05,-0.10060389331243147,0.9949263575121104
2025/05/06 15:12:43.622867538,1746537163,621441834,,-0.0008780282085278483,0.0001344971668330867,-0.10071474267543487,0.9949149469099346
2025/05/06 15:12:43.726101866,1746537163,722925655,,-0.0010040209285578706,0.0002057043020576488,-0.10083549908690571,0.994902584051127
2025/05/06 15:12:43.825900494,1746537163,824303837,,-0.0009767472761348563,0.00026984034687324305,-0.10096936583334302,0.9948890190941693
2025/05/06 15:12:43.929664366,1746537163,926262444,,-0.0008081707042168428,0.0003162811744069531,-0.10111557849865016,0.9948743069409396
2025/05/06 15:12:44.18910624,1746537164,17425342,,-0.000539831522671036,0.00034264605994183085,-0.10127358285061155,0.9948584083135675
2025/05/06 15:12:44.120651287,1746537164,120291888,,-0.0002358792842228807,0.0003407203418886724,-0.10144372238724501,0.9948411930850227
2025/05/06 15:12:44.221979064,1746537164,219903934,,3.226740219061172e-05,0.00031341008890658036,-0.10162570568680786,0.9948226558922898
2025/05/06 15:12:44.322826126,1746537164,321495845,,0.00020372231609593335,0.000273147798367358,-0.10181726112392556,0.9948030605223933
2025/05/06 15:12:44.429084463,1746537164,424325728,,0.00024254751643017255,0.00021499101721812348,-0.10201409772516122,0.9947829003430276
2025/05/06 15:12:44.516745093,1746537164,515820276,,0.00014852770118703473,0.0001584973928091382,-0.10221756377176305,0.9947620431413052
2025/05/06 15:12:44.620681789,1746537164,618292610,,-4.579959053546873e-05,0.00010090309832010886,-0.10242630798858342,0.9947405888736973
2025/05/06 15:12:44.723433443,1746537164,722528054,,-0.0002935866383192404,4.730850918304104e-05,-0.10264343954692917,0.9947181690744201
2025/05/06 15:12:44.827011882,1746537164,824211272,,-0.0005313101675678705,2.8936720722892823e-05,-0.10286999932611542,0.9946946667750949
2025/05/06 15:12:44.924522975,1746537164,923875729,,-0.0007079292234036298,2.020662200773457e-05,-0.10310622127098691,0.9946700988584735
2025/05/06 15:12:45.34690268,1746537165,33989646,,-0.0007832767437738979,3.960991364885163e-05,-0.10335233746760111,0.9946444989284264
2025/05/06 15:12:45.122290943,1746537165,120424621,,-0.0007421901672245286,8.650566683767079e-05,-0.10360758925841983,0.994617971443601
2025/05/06 15:12:45.221603975,1746537165,220497768,,-0.000600435920907768,0.00014785460395516366,-0.10386944143251967,0.9945907483745349
2025/05/06 15:12:45.322749586,1746537165,320427532,,-0.000401461240434333,0.00021017288079540708,-0.10413293269447273,0.9945632845549252
2025/05/06 15:12:45.424729667,1746537165,422747699,,-0.00019573700784501479,0.00025901947772833593,-0.10439833224107015,0.9945355110910907
2025/05/06 15:12:45.525244083,1746537165,524881598,,-4.3338715577883986e-05,0.00030333021684888264,-0.10466274583942717,0.9945077253324314
2025/05/06 15:12:45.617558547,1746537165,616997774,,2.0805148929582437e-05,0.00033563892603851147,-0.10492417390007427,0.9944801680501447
2025/05/06 15:12:45.722533681,1746537165,718710639,,-1.820207416462024e-05,0.0003359379111453796,-0.1051823775260969,0.9944528919322232
2025/05/06 15:12:45.819366025,1746537165,817840460,,-0.00014883305955399923,0.0003038056479372114,-0.10543635400371038,0.9944259956403256
2025/05/06 15:12:45.923323919,1746537165,920677793,,-0.00033249519737699944,0.0002710707248068506,-0.10568816662391513,0.9943992293859049
2025/05/06 15:12:46.25476350,1746537166,25115883,,-0.0005258735368309503,0.00021215773203473796,-0.10593928386931444,0.9943724385658408
2025/05/06 15:12:46.121243911,1746537166,119485280,,-0.0006840826403966406,0.00015859799741460388,-0.10618810394084506,0.9943458118074741
2025/05/06 15:12:46.220408329,1746537166,219157795,,-0.0007724840308502171,0.0001154011932391989,-0.10643387502585898,0.9943194759220834
2025/05/06 15:12:46.323120461,1746537166,321936090,,-0.0007729943626802604,8.30712070091494e-05,-0.10667804327491531,0.9942933121880712
2025/05/06 15:12:46.427407765,1746537166,422979344,,-0.0006890873090794272,7.332375382921558e-05,-0.1069177628524528,0.9942676258276412
2025/05/06 15:12:46.523849370,1746537166,523523668,,-0.0005527765412336453,7.868593191431558e-05,-0.1071384470837042,0.9942439546726507
2025/05/06 15:12:46.625400171,1746537166,624157434,,-0.0003884704016397025,0.00011416807092042477,-0.10734570562033617,0.994221673240566
2025/05/06 15:12:46.720024699,1746537166,718293125,,-0.00023525997963952115,0.0001673780618100719,-0.10753967190819858,0.9942007521638693
2025/05/06 15:12:46.822071216,1746537166,820095875,,-0.00012750338041724274,0.0002213759003872892,-0.1077211443556882,0.9941811151869159
2025/05/06 15:12:46.921773489,1746537166,921271938,,-8.725850402632764e-05,0.0002781393430557778,-0.10789036086948452,0.9941627558181365
2025/05/06 15:12:47.29304901,1746537167,26091531,,-0.00012027188992410392,0.0003431862812319483,-0.10804801501390204,0.9941456101645294
2025/05/06 15:12:47.124303034,1746537167,123671323,,-0.00021773085650777667,0.00037279611447640633,-0.10819538510170386,0.9941295550676608
2025/05/06 15:12:47.219787265,1746537167,218954587,,-0.00035370117648211836,0.0003817040251064986,-0.1083334435839567,0.9941144774113073
2025/05/06 15:12:47.319680778,1746537167,318582868,,-0.00048321272908180384,0.00034905556360466215,-0.10847261126084097,0.9940992592653545
2025/05/06 15:12:47.423199087,1746537167,421853097,,-0.0005712599163267056,0.00029275638190876354,-0.10861612769728289,0.9940835602502721
2025/05/06 15:12:47.528569997,1746537167,526035712,,-0.0006091996510771663,0.00022486940101794923,-0.1087525620411695,0.9940686387564086
2025/05/06 15:12:47.620775797,1746537167,618683787,,-0.0005708858027924685,0.0001408644993564097,-0.10887414750284571,0.9940553678000645
2025/05/06 15:12:47.723431752,1746537167,720918948,,-0.0004384132736779995,5.753830424439409e-05,-0.1089919304196102,0.9940425361052473
2025/05/06 15:12:47.822725625,1746537167,821429977,,-0.00023572997257770647,-2.1402925047595637e-06,-0.10911060542151949,0.9940295871911201
2025/05/06 15:12:47.923515401,1746537167,922325657,,2.5951377156167e-06,-4.093370883256375e-05,-0.10924672853182704,0.9940146631829885
2025/05/06 15:12:48.26792916,1746537168,26024227,,0.00018967421659517292,-3.561820950518311e-05,-0.10937978458634627,0.9940000128163375
2025/05/06 15:12:48.122038895,1746537168,120120497,,0.0002761800847785689,8.282658990863315e-06,-0.10950552976254038,0.9939861480963322
2025/05/06 15:12:48.220382504,1746537168,219663239,,0.00024026450522745922,9.16269305097925e-05,-0.10962046652719912,0.9939734841512787
2025/05/06 15:12:48.323889346,1746537168,322185053,,9.194719501553797e-05,0.000191788657185184,-0.10972509629655962,0.9939619499787379
2025/05/06 15:12:48.428843751,1746537168,424982437,,-0.0001304222471315399,0.0002958963562717283,-0.10981979621943311,0.9939514614877861
2025/05/06 15:12:48.517341012,1746537168,515595174,,-0.000371939280619078,0.0003875958786723732,-0.1099042353854701,0.993942035772178
2025/05/06 15:12:48.621985162,1746537168,621395610,,-0.0005703410081967187,0.0004379016985668834,-0.10999952399445648,0.9939313797613142
2025/05/06 15:12:48.725282441,1746537168,723712837,,-0.0007381918807241679,0.0004269061746479975,-0.11010510875534672,0.9939195831906315
2025/05/06 15:12:48.819862286,1746537168,816670584,,-0.0008799792909241507,0.0003825224164260931,-0.1101901158164172,0.993910065191722
2025/05/06 15:12:48.920022054,1746537168,916940644,,-0.0009584872303746544,0.0002938664416755137,-0.11026228641820612,0.9939020188824315
2025/05/06 15:12:49.26206316,1746537169,23802413,,-0.0009572336961517508,0.00019590649551935575,-0.11032124775234942,0.9938955013574922
2025/05/06 15:12:49.120488271,1746537169,120103722,,-0.0008817871003965111,8.917048107925765e-05,-0.11036028289374772,0.9938912528339038
2025/05/06 15:12:49.224784678,1746537169,221327499,,-0.0007439074651713999,9.457671970663776e-06,-0.11038774349277747,0.9938883199830897
2025/05/06 15:12:49.322983135,1746537169,321901274,,-0.0005795602138085854,-4.088861685168013e-05,-0.11040582400208383,0.9938864203039
2025/05/06 15:12:49.425452571,1746537169,423521416,,-0.0004393246342521546,-4.306417333576122e-05,-0.11040360076600123,0.9938867390589554
2025/05/06 15:12:49.526095922,1746537169,524110053,,-0.0005320396325914031,9.06362141039196e-06,-0.11023953866916895,0.9939049053937147
2025/05/06 15:12:49.617082721,1746537169,616813728,,-0.0006281054030525456,6.009849520854824e-05,-0.11003314468519408,0.9939277181679061
2025/05/06 15:12:49.723217501,1746537169,720342081,,-0.0006279343679038359,9.549698900176e-05,-0.10983257365966566,0.9939498993118561
2025/05/06 15:12:49.821037763,1746537169,818736748,,-0.0005338848931498546,0.00012763659597261133,-0.10963643975575545,0.9939716040981769
2025/05/06 15:12:49.927062945,1746537169,925075654,,-0.00037261096882357204,0.00014470021604975685,-0.10944451836300523,0.9939928257403084
2025/05/06 15:12:50.22446829,1746537170,20736186,,-0.00018252160900525668,0.00015175823686890962,-0.10925636665486847,0.9940135763663778
2025/05/06 15:12:50.125040810,1746537170,123696914,,-1.293005594141231e-05,0.00014277385875250317,-0.10907122201978202,0.9940339269741
2025/05/06 15:12:50.230832997,1746537170,227650429,,9.806825377599346e-05,0.00013289923514916147,-0.10888969387155487,0.9940538251467925
2025/05/06 15:12:50.325322386,1746537170,321647966,,0.00012412975505324592,0.00011814367903808201,-0.10871106337620703,0.9940733752261396
2025/05/06 15:12:50.421753553,1746537170,420806675,,5.8375448599955125e-05,9.091075066141493e-05,-0.10853497748648769,0.9940926249548128
2025/05/06 15:12:50.525594864,1746537170,524851735,,-8.385651464759211e-05,6.758812088314383e-05,-0.10836089553153608,0.994111615825675
2025/05/06 15:12:50.619625715,1746537170,615649331,,-0.00027953519645475836,4.585124258880221e-05,-0.10819246233521708,0.9941299265446042
2025/05/06 15:12:50.720788762,1746537170,718650991,,-0.0005115229906450359,5.693589005385268e-07,-0.10802246329475432,0.9941483218150294
2025/05/06 15:12:50.823293631,1746537170,820970958,,-0.0007268639520304173,-2.0290237149573898e-05,-0.10784779573987306,0.9941671510420932
2025/05/06 15:12:50.922257849,1746537170,921481242,,-0.0008782744808348506,-3.765317341057498e-05,-0.10766834136681606,0.9941864792298745
2025/05/06 15:12:51.27890320,1746537171,26014518,,-0.0009324096731258262,-5.681590965204177e-05,-0.10748429061162154,0.9942063441036123
2025/05/06 15:12:51.117098944,1746537171,116404547,,-0.0008759825628945463,-4.8543834823546696e-05,-0.10729580321464839,0.9942267552779743
2025/05/06 15:12:51.219780519,1746537171,218889390,,-0.0007272802730955217,-2.3582293863908432e-05,-0.10710203757276308,0.994247767940689
2025/05/06 15:12:51.324156874,1746537171,319349935,,-0.0005229452856121475,2.0756095960138994e-05,-0.1069029032716882,0.994269327380412
2025/05/06 15:12:51.421013561,1746537171,419976398,,-0.0003128842477772669,5.484603836064672e-05,-0.1066995298132539,0.9942912598594992
2025/05/06 15:12:51.525393094,1746537171,521313982,,-0.0001461812514829364,9.209545236979472e-05,-0.10649668032431304,0.9943130428740088
2025/05/06 15:12:51.622346692,1746537171,621334272,,-6.265354738350183e-05,0.0001073998522858731,-0.10629216476527514,0.9943349336362051
2025/05/06 15:12:51.725140692,1746537171,722195617,,-8.003245580630497e-05,9.443833815171905e-05,-0.10608633227574762,0.9943569151871404
2025/05/06 15:12:51.825614606,1746537171,824295733,,-0.00018989532098067144,6.045609628991595e-05,-0.10587854965898066,0.9943790489581618
2025/05/06 15:12:51.922660098,1746537171,917429541,,-0.00036224008363333566,3.234513320277475e-05,-0.1056689958345654,0.9944012927662699
2025/05/06 15:12:52.19721817,1746537172,18851186,,-0.0005576116343297907,-1.1508743951474095e-05,-0.1054575872710886,0.9944236452457146
2025/05/06 15:12:52.127370225,1746537172,119029517,,-0.000728396650615394,-5.242052109277371e-05,-0.1052448037503183,0.9944460759508106
2025/05/06 15:12:52.223595060,1746537172,222384782,,-0.0008304620929668869,-8.949975227931805e-05,-0.10503526967234515,0.9944681465222324
2025/05/06 15:12:52.326454269,1746537172,325139054,,-0.0008397784236221283,-0.00010542059748697418,-0.10483004599077039,0.9944897913584985
2025/05/06 15:12:52.419032672,1746537172,416945212,,-0.0007553996868321623,-0.0001004887649215868,-0.10462849316261198,0.9945110847506138
2025/05/06 15:12:52.519179242,1746537172,518004483,,-0.0005929162199780915,-0.00011180668598800061,-0.10442944749699364,0.9945321143357281
2025/05/06 15:12:52.623896480,1746537172,623067434,,-0.0003878888280563675,-9.661146966675767e-05,-0.10423637453935673,0.994552471431936
2025/05/06 15:12:52.726241281,1746537172,723069145,,-0.0001910291368123515,-8.18734470324965e-05,-0.10404903036822181,0.9945721472492784
2025/05/06 15:12:52.826697267,1746537172,823915116,,-4.669286113743306e-05,-6.26371667610204e-05,-0.10386724489554544,0.9945911669294931
2025/05/06 15:12:52.920331204,1746537172,918947347,,1.3100248420703924e-05,-3.947648366138403e-05,-0.10369087066586097,0.994609572450691
2025/05/06 15:12:53.30779496,1746537173,25543288,,-2.2525544028436736e-05,-9.352093518436611e-06,-0.10351960651466902,0.9946274128899657
2025/05/06 15:12:53.122960117,1746537173,121689331,,-0.00014268278336689513,1.892169383756814e-05,-0.10335342200575164,0.9946446850223922
2025/05/06 15:12:53.226108557,1746537173,224833605,,-0.0003173856664827741,4.3108274029358397e-05,-0.10319233200471317,0.9946613695240428
2025/05/06 15:12:53.325636612,1746537173,324444214,,-0.0005053094280042536,5.152965946968977e-05,-0.1030363449408083,0.9946774621093588
2025/05/06 15:12:53.426641086,1746537173,424893385,,-0.0006619851359734526,5.6326186592180606e-05,-0.10288591398316317,0.9946929412169816
2025/05/06 15:12:53.519383325,1746537173,517849041,,-0.0007367188455351993,2.511467782556355e-05,-0.10275540997441493,0.9947063799612353
2025/05/06 15:12:53.621359117,1746537173,619805274,,-0.0006613113257367689,-4.72423656053947e-05,-0.10267998291990973,0.9947142210419314
2025/05/06 15:12:53.725312345,1746537173,724362598,,-0.0005138656976870127,-0.00012356550347304235,-0.10261858549839896,0.994720637457532
2025/05/06 15:12:53.818116800,1746537173,816616068,,-0.00033025335085196827,-0.00017353306892540685,-0.10257015058827212,0.9947257034113964
2025/05/06 15:12:53.920932920,1746537173,917729444,,-0.00015764772911998413,-0.00021424811697828798,-0.10253432573328726,0.9947294311979303
2025/05/06 15:12:54.25006260,1746537174,23714063,,-3.256451782333451e-05,-0.0002078553722639199,-0.10251073980125203,0.994731875412212
2025/05/06 15:12:54.125293510,1746537174,123301218,,1.4947926654920477e-05,-0.0001730793504819139,-0.10249928986883436,0.994733062382307
2025/05/06 15:12:54.218472203,1746537174,215080210,,-2.3002110459914013e-05,-0.00010649901985246856,-0.10250007982072065,0.9947329901866167
2025/05/06 15:12:54.325456579,1746537174,321278222,,-0.00013466360281201055,-2.0968191233749217e-05,-0.10251407087520342,0.9947315450404912
2025/05/06 15:12:54.420455291,1746537174,419124276,,-0.0002912925474792889,7.687825081826589e-05,-0.10254336473221434,0.9947284893817923
2025/05/06 15:12:54.523999423,1746537174,522212982,,-0.00047075360687938363,0.00014411435585461982,-0.10258044417675896,0.994724590072344
2025/05/06 15:12:54.624189600,1746537174,622789266,,-0.0006170756607636197,0.00018333223131706096,-0.10261945082061741,0.9947204802959456
2025/05/06 15:12:54.724670776,1746537174,723883329,,-0.0006649169742425966,0.00018592591942007285,-0.10267177870764098,0.9947150492346937
2025/05/06 15:12:54.817520298,1746537174,816861858,,-0.0005893888169604082,0.00012928087991100442,-0.10274551535766614,0.9947074921710222
2025/05/06 15:12:54.919746795,1746537174,918210230,,-0.00038895771813723154,4.329368132323206e-05,-0.10285564183003683,0.994696216832698
2025/05/06 15:12:55.26324442,1746537175,23649917,,-0.00015512015385836124,-6.740782924849263e-05,-0.10297654583857205,0.9946837700500993
2025/05/06 15:12:55.123780473,1746537175,123424629,,5.064466908130147e-05,-0.00017226026459510045,-0.10310216734795105,0.994670754998695
2025/05/06 15:12:55.227888668,1746537175,224424357,,0.00017681476894504283,-0.00026071241503893965,-0.10323055961166243,0.9946574045005834
2025/05/06 15:12:55.318242548,1746537175,316435645,,0.0001983596423722189,-0.00029756173731495394,-0.103361530046468,0.9946437886082222
2025/05/06 15:12:55.422540778,1746537175,420027575,,0.00011421773032574505,-0.00028853013388473436,-0.1034974817942206,0.9946296672465219
2025/05/06 15:12:55.521800696,1746537175,519543151,,-3.285515794481313e-05,-0.00023138263775730297,-0.10365890105959516,0.99461287826658
2025/05/06 15:12:55.622787713,1746537175,620936007,,-0.00024295131814162064,-0.00015240211490862382,-0.10382741980259437,0.9945952868606347
2025/05/06 15:12:55.725356045,1746537175,725007213,,-0.00046578659441779617,-5.024888505978127e-05,-0.10400162725391882,0.9945770166490049
2025/05/06 15:12:55.818628697,1746537175,816657311,,-0.000651236270229402,4.429504299923561e-05,-0.1041814831880854,0.9945580890475931
2025/05/06 15:12:55.921276035,1746537175,920517257,,-0.0007560085899816398,0.000130988190782845,-0.1043669211776717,0.994538564891779
2025/05/06 15:12:56.23525352,1746537176,22064097,,-0.0007578046645249456,0.000177974104983494,-0.10455772046008507,0.9945185152371468
2025/05/06 15:12:56.140474976,1746537176,122168513,,-0.000660197554923543,0.00018302284667614762,-0.1047535481735056,0.9944979762608304
2025/05/06 15:12:56.224651815,1746537176,224352976,,-0.0004895610218964381,0.00015216536728270404,-0.10495417052447172,0.9944769274675139
2025/05/06 15:12:56.324412065,1746537176,321057357,,-0.00029084344508284297,7.318421609454074e-05,-0.10515925375689607,0.9944553491250644
2025/05/06 15:12:56.420794815,1746537176,420539782,,-0.00010912363005935242,-2.0425266998547876e-05,-0.10536830224696643,0.9944332599809973
2025/05/06 15:12:56.523782938,1746537176,522654516,,1.5616363613234104e-05,-0.0001121928069436763,-0.10558282755885645,0.9944105056230953
2025/05/06 15:12:56.626503684,1746537176,623716625,,7.880310331052139e-05,-0.00019872539030382983,-0.10582652541884642,0.9943845839593776
2025/05/06 15:12:56.720024623,1746537176,718296174,,3.14175591170663e-05,-0.00025752754387335197,-0.10608277897196734,0.9943572681376075
2025/05/06 15:12:56.823421296,1746537176,820547929,,-0.0001238717282634048,-0.0002725251567350024,-0.10634403676614002,0.9943293499792288
2025/05/06 15:12:56.921765313,1746537176,920580876,,-0.00034716255696203393,-0.0002451704749799916,-0.10661024086615745,0.9943007975014689
2025/05/06 15:12:57.27591503,1746537177,26157490,,-0.0005837049370552782,-0.00018225850247201026,-0.1068814244262107,0.9942715862293405
2025/05/06 15:12:57.124328799,1746537177,123832337,,-0.0007789500497885709,-0.00010133873432621626,-0.1071574849183236,0.9942417494720588
2025/05/06 15:12:57.222505000,1746537177,220195783,,-0.0008860932037559402,9.62111951884643e-07,-0.10743829161323651,0.9942113599899861
2025/05/06 15:12:57.319135342,1746537177,317478170,,-0.0008853330505543723,8.910927623329653e-05,-0.1077237507391996,0.9941804674059963
2025/05/06 15:12:57.419123080,1746537177,418151068,,-0.0007789697877475997,0.00015410790329884095,-0.10801409309039842,0.9941490457424795
2025/05/06 15:12:57.521201427,1746537177,520310649,,-0.0006033018212008169,0.00018476582716058139,-0.10831865817367423,0.9941160245061722
2025/05/06 15:12:57.625315358,1746537177,622953227,,-0.0004119501225279339,0.00015226264172257893,-0.10863609676492127,0.9940814884066935
2025/05/06 15:12:57.725272002,1746537177,723625589,,-0.0002456879577408046,9.311649541569822e-05,-0.1089619857606192,0.9940458825556536
2025/05/06 15:12:57.820707076,1746537177,818727212,,-0.00014172021303966896,1.4218872215852066e-05,-0.10929572689874785,0.9940092674592522
2025/05/06 15:12:57.921118075,1746537177,919095557,,-0.00012182539827789487,-8.06283499407868e-05,-0.10963726004954977,0.9939716544582491
2025/05/06 15:12:58.20991900,1746537178,18866271,,-0.00018769839542177017,-0.00017519211022825088,-0.10998643044637495,0.9939330556907249
2025/05/06 15:12:58.121995433,1746537178,120423838,,-0.0003189968565742485,-0.000233639502447094,-0.11034316481002662,0.9938934699620959
2025/05/06 15:12:58.221202402,1746537178,220166233,,-0.00048355480472680757,-0.0002558984540933675,-0.11070755848456071,0.9938528750197987
2025/05/06 15:12:58.323597532,1746537178,323074864,,-0.0006408832460764201,-0.0002504928308713265,-0.11108050337494885,0.9938111733583873
2025/05/06 15:12:58.426824019,1746537178,424842980,,-0.000754943943393884,-0.0001936970102098276,-0.11146043148714696,0.9937685669982773
2025/05/06 15:12:58.517881590,1746537178,516699447,,-0.0008101271338724404,-0.0001268916594557666,-0.11184217401849782,0.9937256440805731
2025/05/06 15:12:58.624247151,1746537178,622716940,,-0.0008947808815699333,-5.5193214383288504e-05,-0.11214793270403431,0.9936911177579754
2025/05/06 15:12:58.721871051,1746537178,720137497,,-0.0009223722966642722,2.3530170738518142e-05,-0.11240619732994779,0.9936619120593776
2025/05/06 15:12:58.825335973,1746537178,823052686,,-0.0007862137000913801,7.750497345715853e-05,-0.11268138926043131,0.9936308571976497
2025/05/06 15:12:58.928278625,1746537178,926446380,,-0.0005161991548776242,0.00010735145014690191,-0.11297816297907559,0.9935973312685437
2025/05/06 15:12:59.23692878,1746537179,22929636,,-0.0001919233470857696,9.551627653065638e-05,-0.11328989681712187,0.9935619524323763
2025/05/06 15:12:59.120686966,1746537179,119468769,,0.00010687898050941655,6.0158576943435845e-05,-0.11361201274085617,0.9935251861522186
2025/05/06 15:12:59.222900748,1746537179,222495156,,0.0003118828756179715,1.2418023416915417e-05,-0.11394387151014045,0.9934871396853334
2025/05/06 15:12:59.326465361,1746537179,324934780,,0.00037698885642595666,-4.827058570170114e-05,-0.11428508159652612,0.9934479229802778
2025/05/06 15:12:59.420508917,1746537179,418688669,,0.0002913129278260524,-0.00010996423138443736,-0.11463539855823743,0.9934075842482983
2025/05/06 15:12:59.519804702,1746537179,519497623,,8.062447823043106e-05,-0.00014344327679399353,-0.11499466717718168,0.9933660953769909
2025/05/06 15:12:59.624253192,1746537179,622928828,,-0.00020636582357346007,-0.00016477694977353827,-0.11536427155308548,0.9933232178453948
2025/05/06 15:12:59.725891479,1746537179,723306589,,-0.0005275466162361762,-0.00018340811075784886,-0.11573903687729932,0.9932794991334251
2025/05/06 15:12:59.825549145,1746537179,823896687,,-0.0008138053930239962,-0.00018208992972149892,-0.11610731285212651,0.9932363245805593
2025/05/06 15:12:59.918425176,1746537179,916143971,,-0.0009733497811389096,-0.0001545523344697132,-0.11647457550642011,0.9931931846143421
2025/05/06 15:13:00.19388617,1746537180,18163143,,-0.0009626474621178107,-0.0001393732349471767,-0.11683196417286794,0.9931512201233379
2025/05/06 15:13:00.120948052,1746537180,120539841,,-0.0007717001430970728,-0.00010913601454852035,-0.11717260045697238,0.9931112597641667
2025/05/06 15:13:00.220511486,1746537180,219217943,,-0.00039478226147345274,-8.485201099872088e-05,-0.11752433199251106,0.9930699211721279
2025/05/06 15:13:00.324353557,1746537180,323802381,,9.477018131314447e-05,-8.722338867634319e-05,-0.1179062104959871,0.9930247272536415
2025/05/06 15:13:00.423502952,1746537180,422810685,,0.0005510380051094183,-8.11692923460825e-05,-0.1182984835123606,0.9929779245115868
2025/05/06 15:13:00.517972839,1746537180,515566364,,0.0008864367908885501,-0.00010188519504412753,-0.11872203302350527,0.9929271286071242
2025/05/06 15:13:00.621374263,1746537180,619779910,,0.001006286177943116,-0.00011841404413013688,-0.11917002942225137,0.9928733441148181
2025/05/06 15:13:00.720511451,1746537180,719240048,,0.0008554332872702546,-0.000132605411415333,-0.11962416232229658,0.992818870911701
2025/05/06 15:13:00.823968892,1746537180,823471269,,0.00047458019661349144,-0.00013543535057097085,-0.12008301153548497,0.9927637315955249
2025/05/06 15:13:00.924779017,1746537180,922215673,,-4.1822548954354074e-05,-0.00013181338021884528,-0.12054660391932584,0.9927076594645698
2025/05/06 15:13:01.28591721,1746537181,25305385,,-0.0005710301482072963,-0.0001273877378680521,-0.12101487186175444,0.9926505218279076
2025/05/06 15:13:01.126200250,1746537181,124488868,,-0.0009912246198043179,-0.00011490077340620281,-0.12148757077652012,0.9925924513204729
2025/05/06 15:13:01.221974637,1746537181,220284521,,-0.0012140409541942323,-0.00011305232353381847,-0.12196425361352994,0.9925337445972445
2025/05/06 15:13:01.319588546,1746537181,317750187,,-0.0011967605160504917,-0.00010602202520891918,-0.12244449479904254,0.9924746355534758
2025/05/06 15:13:01.420763376,1746537181,420250999,,-0.0009606573653758254,-0.00011554263188363309,-0.12292787218857454,0.9924151359317914
2025/05/06 15:13:01.523802192,1746537181,520154050,,-0.0005530217877804742,-0.0001345843280277943,-0.12343274497679395,0.992352776749002
2025/05/06 15:13:01.622850626,1746537181,621570283,,-8.32720417777518e-05,-0.00015099943258724732,-0.12396736492705727,0.9922862806156196
2025/05/06 15:13:01.724428694,1746537181,722540019,,0.00032348911365598707,-0.00017845267232532086,-0.1245365510208011,0.992214951998447
2025/05/06 15:13:01.816979056,1746537181,815058314,,0.0005458141393185611,-0.0001769156911729385,-0.12512610730947213,0.9921406795698592
2025/05/06 15:13:01.923456741,1746537181,920539743,,0.0005062397226601299,-0.0001581861120058195,-0.1257158923578006,0.9920661435142211
2025/05/06 15:13:02.19044722,1746537182,18755040,,0.0002267275702718115,-0.0001335146912310961,-0.12630630851169994,0.9919912535897599
2025/05/06 15:13:02.123174703,1746537182,119723201,,-0.0002126374428244232,-7.697751885923083e-05,-0.1268978499306586,0.9919157648423356
2025/05/06 15:13:02.224002371,1746537182,223115972,,-0.0007068556325396959,-3.519854430448676e-05,-0.12749084182620724,0.9918394952645424
2025/05/06 15:13:02.327518277,1746537182,327226856,,-0.0011347073894550006,4.064350817263919e-06,-0.1280855610838418,0.991762472300933
2025/05/06 15:13:02.422789521,1746537182,419843466,,-0.0014116733069686183,1.8439451459080363e-05,-0.1286763156161976,0.9916856420448477
2025/05/06 15:13:02.521908413,1746537182,520644200,,-0.001501153445749131,8.518355238184157e-06,-0.12924459942094121,0.9916116074281757
2025/05/06 15:13:02.620478282,1746537182,619365662,,-0.001352704749828682,-2.9998652692083316e-05,-0.12981127589364097,0.9915377965265901
2025/05/06 15:13:02.721079575,1746537182,720300416,,-0.0010107454578082908,-8.671228157696981e-05,-0.13037688674554895,0.9914639873828691
2025/05/06 15:13:02.824812346,1746537182,822954052,,-0.0005630887691990836,-0.00014761741134331806,-0.13094100129725952,0.9913899915368366
2025/05/06 15:13:02.924879088,1746537182,924543928,,-0.00011963522946673317,-0.00021516091459194644,-0.13150430804627397,0.9913155685040276
2025/05/06 15:13:03.27758284,1746537183,24005846,,0.00019024274102093073,-0.00026062542771440047,-0.13205164676351527,0.9912427848257609
2025/05/06 15:13:03.120979923,1746537183,119854990,,0.0003002563077799388,-0.00026003390546212987,-0.13256742659083784,0.9911739098844362
2025/05/06 15:13:03.222836103,1746537183,221333731,,0.00023417311131365226,-0.00024239534688730129,-0.13306562442269634,0.9911071718055761
2025/05/06 15:13:03.325037347,1746537183,323123238,,5.1428203769458144e-05,-0.00019941338875675783,-0.13356459030376708,0.9910400888997514
2025/05/06 15:13:03.421657225,1746537183,418400993,,-0.0002004800914371573,-0.00012969734636699605,-0.13406606546487582,0.9909723674639465
2025/05/06 15:13:03.519776714,1746537183,518505358,,-0.00046808045371341195,-6.892976070470329e-05,-0.13456841560485425,0.9909041919736621
2025/05/06 15:13:03.622905352,1746537183,622256278,,-0.0006868776072699378,-9.989506326308443e-06,-0.1350715650823762,0.9908356071546681
2025/05/06 15:13:03.723535459,1746537183,722857782,,-0.0008096817328114959,3.423599374325688e-05,-0.13557540081495478,0.9907667000546863
2025/05/06 15:13:03.824741679,1746537183,822861542,,-0.000815829120190744,3.918045211190546e-05,-0.1360796851012451,0.9906975583852444
2025/05/06 15:13:03.924558258,1746537183,923933587,,-0.000708212126324935,2.521785035465234e-05,-0.13658393510091257,0.9906282483717057
2025/05/06 15:13:04.15967284,1746537184,14904315,,-0.000552633568413032,-2.2911869970621385e-05,-0.13706818641350368,0.9905614601550468
2025/05/06 15:13:04.120981310,1746537184,119329984,,-0.000374885672248748,-9.763404537396455e-05,-0.1375333536093074,0.9904970603557101
2025/05/06 15:13:04.219254979,1746537184,216882289,,-0.0001843616848879963,-0.00018034822890980177,-0.1379993530043394,0.9904322854469503
2025/05/06 15:13:04.324355142,1746537184,322119991,,-2.537695934401284e-05,-0.0002541731186524316,-0.13846583125627526,0.9903671785386188
2025/05/06 15:13:04.421660522,1746537184,420300082,,7.081483493794569e-05,-0.00029530064557850517,-0.13893471136938446,0.9903014963936456
2025/05/06 15:13:04.527035617,1746537184,525937140,,8.425883738443156e-05,-0.00031700782060077484,-0.13941162460857415,0.9902344628069092
2025/05/06 15:13:04.625209301,1746537184,623917491,,5.648213946742434e-06,-0.0002955930042802426,-0.1398900688314784,0.9901669966400606
2025/05/06 15:13:04.721980329,1746537184,720302659,,-0.00014384894735372235,-0.00023984808748656294,-0.14037001445694486,0.9900990762654677
2025/05/06 15:13:04.826041924,1746537184,823539762,,-0.0003276266474592393,-0.00016318036576489764,-0.14085144861248558,0.990030673997888
2025/05/06 15:13:04.925304983,1746537184,923677045,,-0.0005024148371068086,-7.85944673598402e-05,-0.14133427070111096,0.9899617999335258
2025/05/06 15:13:05.27724336,1746537185,24701436,,-0.000628946557354558,5.070917907883285e-06,-0.1418184713617383,0.989892481828776
2025/05/06 15:13:05.119280132,1746537185,118655831,,-0.0006881236820752683,5.306991414286078e-05,-0.14230421600159257,0.9898227284607858
2025/05/06 15:13:05.242014451,1746537185,222366891,,-0.0006711792382466057,5.8640358222085886e-05,-0.1427912332347192,0.989752600295168
2025/05/06 15:13:05.325496351,1746537185,324176734,,-0.0005844797438524715,4.1751607069543236e-05,-0.14327918531517106,0.9896821366962492
2025/05/06 15:13:05.424278723,1746537185,422110632,,-0.00045590361851382584,-2.0025180698866947e-05,-0.1437676334473986,0.9896113678226505
2025/05/06 15:13:05.524869681,1746537185,523292844,,-0.00031680429022080915,-0.00010192634631362867,-0.14425625052522015,0.9895403091488828
2025/05/06 15:13:05.618439574,1746537185,616008837,,-0.00019821006642865434,-0.0001677173626686258,-0.14474491634979852,0.9894689695864877
2025/05/06 15:13:05.719687212,1746537185,717949772,,-0.00013219663648331409,-0.00024067250074323213,-0.14523345846953983,0.9893973757503974
2025/05/06 15:13:05.821633483,1746537185,821135595,,-0.00012930376228367874,-0.000283381303652541,-0.14572183574660272,0.9893255528703451
2025/05/06 15:13:05.923175113,1746537185,922845815,,-0.00018554004786906,-0.0002898895882114689,-0.14621197342350062,0.9892532235815675
2025/05/06 15:13:06.19948895,1746537186,19056138,,-0.0002796229692118937,-0.00026528030146019893,-0.14671114622594525,0.9891793017499032
2025/05/06 15:13:06.125810351,1746537186,124746562,,-0.0003717609734457889,-0.0002133787258127301,-0.14723610243915136,0.9891012821758072
2025/05/06 15:13:06.220645408,1746537186,219341755,,-0.00047812791519743564,-0.00015615162535706297,-0.14776974136457416,0.9890216633357499
2025/05/06 15:13:06.325281091,1746537186,322983036,,-0.0005821461755839212,-8.243372985342408e-05,-0.14830417473658983,0.9889416191394765
2025/05/06 15:13:06.423183096,1746537186,421802155,,-0.0006598425671338314,-1.2764279403888982e-05,-0.14883925778202048,0.9888611832748604
2025/05/06 15:13:06.525942774,1746537186,523481651,,-0.0006955772121529839,3.0347983244144733e-05,-0.149374721318379,0.9887804143905756
2025/05/06 15:13:06.626862675,1746537186,625050280,,-0.0006813307473287636,5.283904668792722e-05,-0.14991039345171148,0.9886993511333974
2025/05/06 15:13:06.719538342,1746537186,716017507,,-0.000622427916268536,5.620066462824364e-05,-0.1504460943378398,0.9886180162850888
