time,header_stamp_secs,header_stamp_nsecs,header_frame_id,wrench_force_x,wrench_force_y,wrench_force_z,wrench_torque_x,wrench_torque_y,wrench_torque_z
2025/04/11 12:08:14.676713442,1744366094,676279732,,4.47452688939304,-21.23349850643561,0.0,0.0,0.0,33.93888971060998
2025/04/11 12:08:14.754681029,1744366094,753562361,,3.7355986220293502,-19.90338322023078,0.0,0.0,0.0,30.132222945240507
2025/04/11 12:08:14.826333104,1744366094,826190983,,6.796305847789682,25.888589245973805,0.0,0.0,0.0,-25.117563462922817
2025/04/11 12:08:15.734356159,1744366095,734204076,,1.9058068028529078,4.726535832855134,0.0,0.0,0.0,-45.37378533119164
2025/04/11 12:08:15.807743568,1744366095,807599138,,1.336750561257496,6.15848444294555,0.0,0.0,0.0,-41.57965919730401
2025/04/11 12:08:16.274334119,1744366096,234430714,,4.52030860669079,-45.52466226440275,0.0,0.0,0.0,11.373463475029098
2025/04/11 12:08:16.401208317,1744366096,399023152,,9.601715243241102,-31.190034401457154,0.0,0.0,0.0,14.632296209121932
2025/04/11 12:08:16.460502694,1744366096,459736031,,7.316608862259983,19.669555415066156,0.0,0.0,0.0,-35.909430871406926
2025/04/11 12:08:16.549042923,1744366096,546565319,,7.1705539021836415,18.27504596258288,0.0,0.0,0.0,-32.54500646523914
2025/04/11 12:08:16.666743019,1744366096,660570983,,6.579530684625041,17.665537744748363,0.0,0.0,0.0,-30.761775048029676
2025/04/11 12:08:16.891826653,1744366096,846881429,,6.037559759502123,15.83283640163586,0.0,0.0,0.0,-26.62183730622823
2025/04/11 12:08:16.916902960,1744366096,916730070,,4.788804104441738,15.443683784869549,0.0,0.0,0.0,-24.488811875251997
2025/04/11 12:08:17.11502309,1744366096,995951683,,5.967807897018034,12.517222909190494,0.0,0.0,0.0,-22.228170384521192
2025/04/11 12:08:17.144120950,1744366097,140988739,,3.846992174270717,10.79160355137779,0.0,0.0,0.0,-25.447724839095883
2025/04/11 12:08:17.402841086,1744366097,399663753,,3.1193305769886948,8.385435529092163,0.0,0.0,0.0,-17.104236994472004
2025/04/11 12:08:17.960831479,1744366097,939524433,,15.487988764612481,-38.4999842895361,0.0,0.0,0.0,32.9466161220879
2025/04/11 12:08:18.179091783,1744366098,143525734,,4.9208624302888,-21.8986708051479,0.0,0.0,0.0,42.80107384228213
2025/04/11 12:08:18.355368059,1744366098,351551421,,5.059647069021011,-23.201573637538758,0.0,0.0,0.0,27.125794498221737
2025/04/11 12:08:18.641343725,1744366098,592464460,,5.058791844979773,-20.14741051957229,0.0,0.0,0.0,36.848081292730875
2025/04/11 12:08:19.225721714,1744366099,204513906,,9.575206131666391,-27.24089418711435,0.0,0.0,0.0,30.410530634724637
2025/04/11 12:08:19.546911368,1744366099,527929156,,10.844675382756826,-18.101737252526306,0.0,0.0,0.0,33.882444542340096
2025/04/11 12:08:19.683416991,1744366099,667576805,,13.746007029265286,-19.95735212406369,0.0,0.0,0.0,21.591021270935215
2025/04/11 12:08:19.836029693,1744366099,834973776,,-5.353211463386259,30.762558583434767,0.0,0.0,0.0,-41.708269631777554
2025/04/11 12:08:20.450672232,1744366100,450348041,,-4.14902283140875,8.944633058167597,0.0,0.0,0.0,-52.08896307090532
2025/04/11 12:08:20.528635434,1744366100,528490573,,-4.04163255415569,8.347638653956338,0.0,0.0,0.0,-47.89448728776094
2025/04/11 12:08:20.609471719,1744366100,609285510,,-3.534453186737842,7.766008157732571,0.0,0.0,0.0,-44.271315995522826
2025/04/11 12:08:20.872417054,1744366100,871027533,,20.63258607744428,-48.89618746639941,0.0,0.0,0.0,18.368985004592275
2025/04/11 12:08:21.137373263,1744366101,136397542,,18.966728144720307,-39.41380285215496,0.0,0.0,0.0,19.91430414413888
2025/04/11 12:08:21.229148329,1744366101,228751406,,18.589426742214485,-30.708870877683438,0.0,0.0,0.0,14.99703527630166
2025/04/11 12:08:21.299844833,1744366101,298813989,,17.401731453375994,-26.982446949471168,0.0,0.0,0.0,12.053781502159197
2025/04/11 12:08:21.378924881,1744366101,378723862,,16.13465912863738,-25.857825261646667,0.0,0.0,0.0,11.366999965171743
2025/04/11 12:08:21.453975186,1744366101,453703119,,-4.2091790207629245,27.21212964950773,0.0,0.0,0.0,-41.52658064477387
2025/04/11 12:08:21.523905261,1744366101,523496629,,-4.369565429154228,24.924350879514606,0.0,0.0,0.0,-42.4473325182513
2025/04/11 12:08:21.598862859,1744366101,598661859,,-3.2893353528144758,24.32354454100478,0.0,0.0,0.0,-40.29442617017085
2025/04/11 12:08:21.845699396,1744366101,845385745,,16.884078246656117,-30.329416684056795,0.0,0.0,0.0,16.555540847088068
2025/04/11 12:08:22.142512125,1744366102,142299735,,17.92062588711255,-32.69176877523762,0.0,0.0,0.0,15.737560428094895
2025/04/11 12:08:22.213609756,1744366102,213397507,,-1.8395213752591957,10.8688841626781,0.0,0.0,0.0,-41.934263067503935
2025/04/11 12:08:22.288785943,1744366102,285988335,,-2.31324529969244,10.651371184860523,0.0,0.0,0.0,-41.086229847239466
2025/04/11 12:08:22.359339298,1744366102,359079334,,-2.9200173118037753,10.534653578074114,0.0,0.0,0.0,-39.14408398973232
2025/04/11 12:08:22.433239963,1744366102,433114693,,-2.2341319346833046,10.406898184039491,0.0,0.0,0.0,-35.61456790760002
2025/04/11 12:08:22.678491781,1744366102,678243319,,15.732350540750929,-41.654638384319824,0.0,0.0,0.0,13.68890260060931
2025/04/11 12:08:22.917774059,1744366102,917563379,,18.28817057171208,-33.42568222089791,0.0,0.0,0.0,15.706801324691327
2025/04/11 12:08:22.991457438,1744366102,988536403,,-0.0741014060491807,9.386373908543064,0.0,0.0,0.0,-38.258627716062875
2025/04/11 12:08:23.70827385,1744366103,68219583,,-1.0326192211926895,9.063740514695596,0.0,0.0,0.0,-36.992365069940675
2025/04/11 12:08:23.322847368,1744366103,320473250,,15.194376843418617,-39.869127426685964,0.0,0.0,0.0,9.590360443373669
2025/04/11 12:08:23.400742699,1744366103,398135168,,-3.3069770998702666,6.683185502306472,0.0,0.0,0.0,-29.13384970848071
2025/04/11 12:08:23.463672362,1744366103,463364599,,-2.3619906714009105,6.631814667589737,0.0,0.0,0.0,-25.50427939937947
2025/04/11 12:08:23.700346695,1744366103,698306171,,13.809767548933422,-39.242237482709186,0.0,0.0,0.0,19.692561320417724
2025/04/11 12:08:23.812247045,1744366103,811863262,,-2.4456365449346578,4.683740144136138,0.0,0.0,0.0,-17.792965222301582
2025/04/11 12:08:24.25666493,1744366104,24870025,,13.292478281592267,-38.79498355016696,0.0,0.0,0.0,27.848647407939623
2025/04/11 12:08:24.280776236,1744366104,280182764,,15.772101726923673,-30.672773980955043,0.0,0.0,0.0,20.011130351042226
2025/04/11 12:08:24.352946036,1744366104,352672598,,-2.230886782414572,5.632045101330036,0.0,0.0,0.0,-25.786636230583717
2025/04/11 12:08:24.564912692,1744366104,564468107,,12.973724073980016,-37.512990411113066,0.0,0.0,0.0,17.972122351450935
2025/04/11 12:08:24.947463280,1744366104,947253646,,-1.5294445582666754,1.0091690337836923,0.0,0.0,0.0,-21.03808648272659
2025/04/11 12:08:25.159026162,1744366105,158778635,,10.754074993935312,-36.28796285158383,0.0,0.0,0.0,21.198939961599123
2025/04/11 12:08:25.243960670,1744366105,243523418,,-1.4192633305166709,5.1168902225051625,0.0,0.0,0.0,-5.379794891129357
2025/04/11 12:08:25.412381229,1744366105,412167414,,7.768137308782016,-31.044640189069995,0.0,0.0,0.0,21.597337657087365
2025/04/11 12:08:25.651343070,1744366105,651005957,,11.129523850702043,-25.050765392739834,0.0,0.0,0.0,20.620902453841538
2025/04/11 12:08:25.724499513,1744366105,720624368,,7.524714547628264,-19.04831721003049,0.0,0.0,0.0,29.585746806228187
2025/04/11 12:08:25.796397536,1744366105,796100396,,5.340218501357597,-16.797492771646887,0.0,0.0,0.0,28.613374212616108
2025/04/11 12:08:25.864819173,1744366105,864392341,,6.151969938915052,-15.670382506487044,0.0,0.0,0.0,23.855247628674128
2025/04/11 12:08:26.767984450,1744366106,767799229,,-6.441624710058733,6.078275052830314,0.0,0.0,0.0,-7.112244773536354
2025/04/11 12:08:26.885212905,1744366106,884938002,,-5.385075772833424,31.533155094767103,0.0,0.0,0.0,-31.988492060737343
2025/04/11 12:08:26.953085100,1744366106,952924969,,-1.8196920853488052,29.00981845451105,0.0,0.0,0.0,-27.337973726565416
2025/04/11 12:08:27.40126469,1744366107,39258494,,-1.3245552390336854,26.103424591778733,0.0,0.0,0.0,-25.93244343715336
2025/04/11 12:08:27.185817201,1744366107,185120268,,-0.5681367015145966,-2.5152622455060794,0.0,0.0,0.0,-2.0169521873266234
2025/04/11 12:08:27.264109854,1744366107,263666293,,0.816995896000563,21.9300059300017,0.0,0.0,0.0,-26.642905393735354
2025/04/11 12:08:27.349345027,1744366107,349045568,,0.10381203410205586,18.730756941290608,0.0,0.0,0.0,-26.70116811920417
2025/04/11 12:08:27.425782647,1744366107,417393576,,-0.2218031149165398,16.850565514987494,0.0,0.0,0.0,-28.747263805671196
2025/04/11 12:08:27.541639964,1744366107,541409151,,-1.6889703821749222,-7.193992705790691,0.0,0.0,0.0,-7.477449930426644
2025/04/11 12:08:27.653336464,1744366107,653113232,,-1.7201153098235409,-4.662151490489805,0.0,0.0,0.0,-5.151810794525716
2025/04/11 12:08:27.725273391,1744366107,725035087,,1.1663899983360722,14.510301016268684,0.0,0.0,0.0,-23.60999744926425
2025/04/11 12:08:27.800375432,1744366107,800206465,,0.44798368397268007,12.912134454625871,0.0,0.0,0.0,-26.003957669278734
2025/04/11 12:08:27.924331937,1744366107,921048217,,-4.474795330308119,-10.912363715840414,0.0,0.0,0.0,-4.961480421693871
2025/04/11 12:08:28.158493192,1744366108,158242710,,-2.5805016049742022,13.398386986451044,0.0,0.0,0.0,-20.92353534868839
2025/04/11 12:08:28.265989245,1744366108,265676862,,-1.255687940625883,9.367267669391893,0.0,0.0,0.0,-18.489226616672283
2025/04/11 12:08:28.343778774,1744366108,342802722,,0.19292521965840592,7.566611327544479,0.0,0.0,0.0,-12.83700693060721
2025/04/11 12:08:28.613971825,1744366108,613746840,,-9.94865351851896,-12.717243048566914,0.0,0.0,0.0,0.8332075997909243
2025/04/11 12:08:28.685989633,1744366108,685564449,,-1.2389815570703249,-7.886876719214001,0.0,0.0,0.0,8.968427982251278
2025/04/11 12:08:28.769122186,1744366108,768825316,,-1.6766084473014828,-4.939269460949674,0.0,0.0,0.0,4.181119215924177
2025/04/11 12:08:28.841170461,1744366108,840870391,,9.055550544606263,11.237147941631662,0.0,0.0,0.0,-7.467691117753446
2025/04/11 12:08:28.915822309,1744366108,915599655,,8.457339815881426,9.709889499883644,0.0,0.0,0.0,-9.472394487853222
2025/04/11 12:08:28.991928945,1744366108,991622508,,6.248154253070176,9.478410658701307,0.0,0.0,0.0,-11.19282415435405
2025/04/11 12:08:29.253742629,1744366109,253541232,,-4.447581841450578,-6.984488306641765,0.0,0.0,0.0,-2.809983971547645
2025/04/11 12:08:29.328148579,1744366109,327712417,,6.775643764311049,3.9108045661825486,0.0,0.0,0.0,-17.987927739398323
2025/04/11 12:08:29.404206401,1744366109,404019268,,4.632682331338472,3.825870428277952,0.0,0.0,0.0,-14.243933086743127
2025/04/11 12:08:29.542383669,1744366109,542180475,,-8.12242773443257,-10.171844161200966,0.0,0.0,0.0,-4.640317011068596
2025/04/11 12:08:29.660659389,1744366109,651228761,,4.624179455471797,3.8017995736552592,0.0,0.0,0.0,-9.537364005126314
2025/04/11 12:08:29.783333584,1744366109,782873307,,-8.980271874096587,-5.371852053698831,0.0,0.0,0.0,-5.202339506384568
2025/04/11 12:08:29.857731209,1744366109,856533636,,-4.131407428346307,-3.1605589962242675,0.0,0.0,0.0,-4.138200156947967
2025/04/11 12:08:29.945486367,1744366109,945237403,,9.665702835000339,5.830546739627337,0.0,0.0,0.0,-7.099726793230722
2025/04/11 12:08:30.34545366,1744366110,26656546,,9.009690247634765,3.257672841711468,0.0,0.0,0.0,-4.700665503760533
2025/04/11 12:08:30.101600564,1744366110,101461106,,6.715119964554994,2.745083600992686,0.0,0.0,0.0,-6.281307164148444
2025/04/11 12:08:30.208797838,1744366110,208623267,,-6.683489812203753,-4.855160346907525,0.0,0.0,0.0,-3.8056287031060947
2025/04/11 12:08:30.285123819,1744366110,284915627,,6.733937785423237,2.6104349206826356,0.0,0.0,0.0,-6.065538341327979
2025/04/11 12:08:30.366123593,1744366110,365923671,,4.804203037637407,2.6848133770194664,0.0,0.0,0.0,-7.526094425173206
2025/04/11 12:08:30.444625264,1744366110,444410425,,7.354686060828769,3.0475602774626225,0.0,0.0,0.0,-31.5371183477412
2025/04/11 12:08:30.523600337,1744366110,522379995,,7.296969987739246,3.02364447599075,0.0,0.0,0.0,-14.943598938711567
2025/04/11 12:08:30.605835523,1744366110,605636659,,4.669664892444317,3.2849938030049515,0.0,0.0,0.0,-10.648216439847204
2025/04/11 12:08:30.692952283,1744366110,688471217,,2.972948592718339,3.2576274176721256,0.0,0.0,0.0,-19.781613535036307
2025/04/11 12:08:30.761022523,1744366110,760743846,,0.4427320362523943,2.704376902302087,0.0,0.0,0.0,3.3663514862886856
2025/04/11 12:08:30.905131569,1744366110,904905298,,-13.14542589395107,-3.8188193619284903,0.0,0.0,0.0,1.383616892304488
2025/04/11 12:08:30.978610065,1744366110,977969645,,1.7953273382603285,-0.2766044761260389,0.0,0.0,0.0,2.4184951221885456
2025/04/11 12:08:31.73411550,1744366111,72244256,,-11.12633879840157,-6.745887267035457,0.0,0.0,0.0,1.226963589013991
2025/04/11 12:08:31.155218005,1744366111,153027701,,-7.61041821526058,-5.718377819109307,0.0,0.0,0.0,4.433522271882644
2025/04/11 12:08:31.228402360,1744366111,227632750,,-6.621201476612846,-2.626877899254609,0.0,0.0,0.0,-0.7817940601897533
2025/04/11 12:08:31.304515179,1744366111,304354281,,7.0815897821921965,4.336945617760065,0.0,0.0,0.0,-5.113354911431102
2025/04/11 12:08:31.378565095,1744366111,377515444,,6.752942807201805,2.7932571837576177,0.0,0.0,0.0,-7.4985450876273845
2025/04/11 12:08:31.480449951,1744366111,480292595,,-9.412467349172289,-5.758511825481548,0.0,0.0,0.0,-1.4847024278366945
2025/04/11 12:08:31.557044448,1744366111,556072695,,-6.185182775497175,-2.547925099317908,0.0,0.0,0.0,-4.253626464044402
2025/04/11 12:08:31.693558210,1744366111,682786078,,9.036705162193911,2.4682220471480463,0.0,0.0,0.0,-1.9902033636337393
2025/04/11 12:08:31.823310350,1744366111,816460968,,4.617938515452408,1.258025236723924,0.0,0.0,0.0,-3.4070084960207154
2025/04/11 12:08:31.943794726,1744366111,936310790,,4.52013274897719,0.5437000507514256,0.0,0.0,0.0,-2.0959091468508007
2025/04/11 12:08:32.29967416,1744366112,29319178,,2.1159581035103088,-2.03619601459755,0.0,0.0,0.0,3.7472303920596204
2025/04/11 12:08:32.156239841,1744366112,155834853,,-210.46241639962992,-1.6331713225146274,0.0,0.0,0.0,-108.76360965362704
2025/04/11 12:08:32.241913857,1744366112,241659288,,-6.958418997098711,-7.08808618704181,0.0,0.0,0.0,4.827033916165405
2025/04/11 12:08:32.322088628,1744366112,321945348,,7.666080814791918,-1.0475846774482847,0.0,0.0,0.0,0.3304243627697474
2025/04/11 12:08:32.398742174,1744366112,396462517,,5.98387052083028,-1.130355314224218,0.0,0.0,0.0,1.530654226685641
2025/04/11 12:08:32.502883253,1744366112,502715360,,-6.42679995153199,-6.2323926718894,0.0,0.0,0.0,-0.5632953607340809
2025/04/11 12:08:32.588163537,1744366112,587736726,,-4.176558481609561,-2.606044034712525,0.0,0.0,0.0,0.16955259773154552
2025/04/11 12:08:32.681343072,1744366112,680915561,,-3.643818711909873,-1.8766073055249137,0.0,0.0,0.0,0.9017237269532643
2025/04/11 12:08:32.771228771,1744366112,770770410,,12.301938349725262,3.1488415483785275,0.0,0.0,0.0,2.562049313504076
2025/04/11 12:08:32.854573967,1744366112,846590231,,12.037402964501773,-0.2672986710510088,0.0,0.0,0.0,1.7371908421951403
2025/04/11 12:08:32.927664713,1744366112,927180208,,-279.01081274868903,-0.13608193448412464,0.0,0.0,0.0,-120.23805096225938
2025/04/11 12:08:33.2551801,1744366113,918059,,-2.2783010540997566,-5.421933912192074,0.0,0.0,0.0,5.225430066812848
2025/04/11 12:08:33.71037332,1744366113,69867989,,13.423174710258756,-0.2548782916440757,0.0,0.0,0.0,3.728030920341368
2025/04/11 12:08:33.155392232,1744366113,155200560,,-280.6341759750868,-0.013416685663543149,0.0,0.0,0.0,-111.65292782292036
2025/04/11 12:08:33.223360643,1744366113,223198226,,11.473386529724479,-0.2548001692466926,0.0,0.0,0.0,3.354402207432571
2025/04/11 12:08:33.348883578,1744366113,343608873,,11.061731449143352,-0.15398714343018582,0.0,0.0,0.0,2.558052936079072
2025/04/11 12:08:33.426845121,1744366113,426325304,,-281.9383004490462,-0.013051693860319347,0.0,0.0,0.0,-108.30190819236128
2025/04/11 12:08:33.511479493,1744366113,504131181,,-2.507269581464996,-5.262142785325764,0.0,0.0,0.0,7.4629576663642325
2025/04/11 12:08:33.585878414,1744366113,583597032,,13.038982540057702,-0.07919532587818878,0.0,0.0,0.0,4.823293742462916
2025/04/11 12:08:33.668427607,1744366113,667728625,,12.479908453185573,-1.1301736240267104,0.0,0.0,0.0,2.67362810986846
2025/04/11 12:08:33.759672617,1744366113,759125607,,-292.97525201553736,-0.991684239820259,0.0,0.0,0.0,-110.26836931359925
2025/04/11 12:08:33.834073172,1744366113,833886287,,10.375118736130801,-1.1233778721259853,0.0,0.0,0.0,3.2247400533887642
2025/04/11 12:08:33.973970324,1744366113,956520068,,-4.525420806928018,-5.080726519777116,0.0,0.0,0.0,-0.505777148387935
2025/04/11 12:08:34.39731780,1744366114,39028843,,9.291471390050646,-2.178422952712978,0.0,0.0,0.0,0.42057307638835795
2025/04/11 12:08:34.127005448,1744366114,120675945,,10.242791465758444,-0.2728364216600454,0.0,0.0,0.0,-8.366505372891808
2025/04/11 12:08:34.273395858,1744366114,272559629,,-7.009953578680594,-5.870980671455001,0.0,0.0,0.0,1.3912948034096004
2025/04/11 12:08:34.352827023,1744366114,352666692,,8.751703607540996,-1.117812380645887,0.0,0.0,0.0,1.3661245980377572
2025/04/11 12:08:34.440520665,1744366114,440274458,,-308.03456122221814,-0.9691157491962059,0.0,0.0,0.0,-121.34280909599224
2025/04/11 12:08:34.555970846,1744366114,555732645,,-4.672824669708518,-5.140993308309916,0.0,0.0,0.0,-2.384336178858767
2025/04/11 12:08:34.641569177,1744366114,637305945,,9.964021299642354,0.7735528168705201,0.0,0.0,0.0,-5.563212918118367
2025/04/11 12:08:34.724082411,1744366114,723315080,,9.882828964044222,-0.2829570706371385,0.0,0.0,0.0,-1.5706306620293446
2025/04/11 12:08:34.812049389,1744366114,811623501,,-338.927290369781,-0.2805177176179683,0.0,0.0,0.0,-114.64641724810755
2025/04/11 12:08:34.889899965,1744366114,889709692,,-345.7455721220675,-0.012638986095595328,0.0,0.0,0.0,-113.83819256411427
2025/04/11 12:08:34.971088707,1744366114,969669599,,11.30123297128749,-1.1507108007565279,0.0,0.0,0.0,4.30040532098851
2025/04/11 12:08:35.37827083,1744366115,37558384,,8.358869143876703,-1.2818907796689416,0.0,0.0,0.0,7.798787020501273
2025/04/11 12:08:35.114828214,1744366115,112474961,,-357.7032575156692,-1.13376347954879,0.0,0.0,0.0,-116.36761258401624
2025/04/11 12:08:35.187263392,1744366115,186650945,,-357.3865189951299,-1.1252533551338786,0.0,0.0,0.0,-106.56337343448965
2025/04/11 12:08:35.269488073,1744366115,269206601,,9.12271308754481,-1.2578647989660965,0.0,0.0,0.0,13.186051325578767
2025/04/11 12:08:35.346745590,1744366115,346206414,,10.219844585391229,-1.107654360861332,0.0,0.0,0.0,4.935909947727595
2025/04/11 12:08:35.421964499,1744366115,421229262,,-358.42260860044075,-1.0990378095286815,0.0,0.0,0.0,-108.52841384382006
2025/04/11 12:08:35.500557825,1744366115,500343346,,-357.0378714080796,-0.14001283600433112,0.0,0.0,0.0,-106.20738600117008
2025/04/11 12:08:35.615998523,1744366115,615787577,,-353.9933425038256,-0.1389054227540072,0.0,0.0,0.0,-100.65208152430714
2025/04/11 12:08:35.702774321,1744366115,702436250,,-351.8783005279324,-2.2087278510428234,0.0,0.0,0.0,-94.48080704507015
2025/04/11 12:08:35.799557532,1744366115,797353852,,-354.6647483827931,-2.1895903533319654,0.0,0.0,0.0,-88.75291301725633
2025/04/11 12:08:35.867734707,1744366115,867523889,,-353.0977862967289,-0.27626444777700954,0.0,0.0,0.0,-85.79445380114211
2025/04/11 12:08:35.947030805,1744366115,945324651,,-350.6445484251585,-0.4567245021391244,0.0,0.0,0.0,-81.45006203606798
2025/04/11 12:08:36.23665555,1744366116,21566662,,-349.72176610425794,0.7346939496317617,0.0,0.0,0.0,-82.8360205176451
2025/04/11 12:08:36.97345665,1744366116,96097002,,-350.01896676282445,0.30424298500989266,0.0,0.0,0.0,-78.61399656635055
2025/04/11 12:08:36.180372113,1744366116,179179699,,-356.28226254824216,-0.11180734850715623,0.0,0.0,0.0,-82.92667198412255
2025/04/11 12:08:36.263302256,1744366116,261452284,,-359.2085677859717,1.045152748725144,0.0,0.0,0.0,-93.80557622665901
2025/04/11 12:08:36.352106641,1744366116,350483820,,-362.221707883703,0.6010495324751446,0.0,0.0,0.0,-85.18305756103686
2025/04/11 12:08:36.437867551,1744366116,437535047,,-366.47477166089044,0.01703665159537593,0.0,0.0,0.0,-80.53137348086057
2025/04/11 12:08:36.526031911,1744366116,524740196,,-380.83820339735297,1.216577418625505,0.0,0.0,0.0,-79.05684290323667
2025/04/11 12:08:36.622867888,1744366116,622403296,,-379.2604799094022,0.7686794881778098,0.0,0.0,0.0,-74.14900244447037
2025/04/11 12:08:36.741889715,1744366116,741620895,,-376.12664953199794,0.05389509134707282,0.0,0.0,0.0,-69.35525666247463
2025/04/11 12:08:36.811857147,1744366116,811436995,,-375.01909810043145,1.7100738491121348,0.0,0.0,0.0,-67.34239903584812
2025/04/11 12:08:37.72254568,1744366117,71882089,,-378.48602993327836,0.9627171733713453,0.0,0.0,0.0,-55.9808717656247
2025/04/11 12:08:37.191721778,1744366117,191399858,,-368.43142197746863,-0.7250200059871474,0.0,0.0,0.0,-42.539034251106344
2025/04/11 12:08:37.280217245,1744366117,280024432,,-360.1184655719036,0.8896276678846249,0.0,0.0,0.0,-40.72321107564457
2025/04/11 12:08:37.365579103,1744366117,363464524,,-358.62117753012024,-0.6128736776361023,0.0,0.0,0.0,-37.838722394927686
2025/04/11 12:08:37.437850941,1744366117,437577367,,-355.88034203214545,-1.1679991910533545,0.0,0.0,0.0,-37.749323918281604
2025/04/11 12:08:37.516169437,1744366117,513936473,,-353.51858395760553,-1.228863900993943,0.0,0.0,0.0,-38.59749942704474
2025/04/11 12:08:37.609550100,1744366117,608999808,,-358.2546416858029,-1.726834467260133,0.0,0.0,0.0,-34.7286221750162
2025/04/11 12:08:37.690801847,1744366117,689973450,,-355.24396234914525,-3.7145575203373085,0.0,0.0,0.0,-32.70321183466254
2025/04/11 12:08:37.759748041,1744366117,759544562,,-352.6938785421072,-3.8527901997595677,0.0,0.0,0.0,-33.847261343570864
2025/04/11 12:08:37.832341422,1744366117,832067413,,-350.52766586515463,-5.36389703104669,0.0,0.0,0.0,-32.36765287427107
2025/04/11 12:08:37.899872646,1744366117,899636562,,-351.13265282956706,-6.284813999197269,0.0,0.0,0.0,-29.768782695114794
2025/04/11 12:08:38.9947537,1744366118,9726649,,-349.071258626202,-6.8909694727422135,0.0,0.0,0.0,-30.0272943128669
2025/04/11 12:08:38.80850528,1744366118,80404468,,-345.6990742744223,-8.244955322544243,0.0,0.0,0.0,-28.88244579559685
2025/04/11 12:08:38.158968940,1744366118,158721938,,-350.73804200598,-8.863262936330258,0.0,0.0,0.0,-27.388088793000108
2025/04/11 12:08:38.222654656,1744366118,222524626,,-348.39894212388253,-10.58860227115565,0.0,0.0,0.0,-26.133130518440524
2025/04/11 12:08:38.314103692,1744366118,306976605,,-346.4961824296835,-11.343118694191446,0.0,0.0,0.0,-26.323815866973888
2025/04/11 12:08:38.391717052,1744366118,389431942,,-343.98276868141204,-11.736717984488621,0.0,0.0,0.0,-26.028030971064027
2025/04/11 12:08:38.457580118,1744366118,454917470,,-341.5609801352614,-13.15323590667154,0.0,0.0,0.0,-22.034549883001432
2025/04/11 12:08:38.542011895,1744366118,541669200,,-339.636184082687,-11.519193856942223,0.0,0.0,0.0,-17.79892357134105
2025/04/11 12:08:38.624231347,1744366118,622246405,,-337.1381487600338,-10.182110936374755,0.0,0.0,0.0,-21.924366838438104
2025/04/11 12:08:38.712710581,1744366118,712490611,,-334.82490997773726,-11.641448409862008,0.0,0.0,0.0,-21.862708302428928
2025/04/11 12:08:38.783821739,1744366118,783353787,,-332.2594662277131,-13.23737955064631,0.0,0.0,0.0,-21.83659687431029
2025/04/11 12:08:38.861458402,1744366118,859330082,,-330.24403609910473,-14.494904164869453,0.0,0.0,0.0,-17.680114440690943
2025/04/11 12:08:38.939419591,1744366118,935658038,,-328.08729985189893,-15.831275487377596,0.0,0.0,0.0,-17.66641257739151
2025/04/11 12:08:39.21048101,1744366119,20798502,,-325.9997654671372,-15.647805132008813,0.0,0.0,0.0,-20.310828631165208
2025/04/11 12:08:39.125294609,1744366119,125061280,,-323.60076710250075,-15.413024353229545,0.0,0.0,0.0,-23.39213717111886
2025/04/11 12:08:39.210682472,1744366119,210265016,,-320.78938065471806,-14.399390663220345,0.0,0.0,0.0,-29.784064557971632
2025/04/11 12:08:39.307160223,1744366119,306507894,,-312.98192672963586,-15.631195958336349,0.0,0.0,0.0,-27.24597605296833
2025/04/11 12:08:39.447759070,1744366119,447589756,,-204.7566225877901,-9.593698596981795,0.0,0.0,0.0,-30.654363473251138
2025/04/11 12:08:39.527538291,1744366119,526942555,,0.9408626730625542,48.231187203186764,0.0,0.0,0.0,-11.820721524648349
2025/04/11 12:08:39.611858156,1744366119,611613609,,123.71915640922687,-13.512070627726885,0.0,0.0,0.0,82.39872680114192
2025/04/11 12:08:39.689169181,1744366119,688987243,,121.3222526827758,-6.112836972124597,0.0,0.0,0.0,83.1288183391201
2025/04/11 12:08:39.767896606,1744366119,766787300,,120.40182947513696,-8.885101985876688,0.0,0.0,0.0,79.78063383366698
2025/04/11 12:08:39.839319061,1744366119,837512456,,119.45678954748755,-9.165818308993693,0.0,0.0,0.0,75.45589452697257
2025/04/11 12:08:39.910195806,1744366119,909978735,,118.61875011565883,-11.303547500929824,0.0,0.0,0.0,74.42854882483763
2025/04/11 12:08:39.987938403,1744366119,983783706,,117.76002561920197,-11.433921730631056,0.0,0.0,0.0,71.18427962668122
2025/04/11 12:08:40.54210878,1744366120,54046926,,116.89040531282483,-11.53528781702741,0.0,0.0,0.0,68.02440492296618
2025/04/11 12:08:40.129256626,1744366120,127247999,,116.06132112797468,-11.567265909748343,0.0,0.0,0.0,65.05052472172139
2025/04/11 12:08:40.265449364,1744366120,264097535,,115.21670000956033,-11.614126760444648,0.0,0.0,0.0,62.17950841391753
2025/04/11 12:08:40.358834726,1744366120,348716805,,113.63590905423132,-6.933542499158449,0.0,0.0,0.0,54.03867923028022
2025/04/11 12:08:40.433159033,1744366120,432482207,,112.67100854081797,-7.862221439345404,0.0,0.0,0.0,51.517771502998016
2025/04/11 12:08:40.513942015,1744366120,513594595,,110.08237979051003,-7.020624850323017,0.0,0.0,0.0,47.58106326449885
2025/04/11 12:08:40.595139250,1744366120,594921966,,109.18862762001405,-7.7495550767440875,0.0,0.0,0.0,45.50808893663011
2025/04/11 12:08:40.668572955,1744366120,668269463,,108.30169702485117,-6.799455705451265,0.0,0.0,0.0,40.64391486618328
2025/04/11 12:08:40.744073407,1744366120,743836084,,106.27418149474653,-5.19473429815379,0.0,0.0,0.0,38.7038302249148
2025/04/11 12:08:40.821220283,1744366120,816625368,,105.47324795266107,-5.89572271073159,0.0,0.0,0.0,36.788363930362245
2025/04/11 12:08:40.894673997,1744366120,894435221,,104.66111042920994,-5.0566788258038,0.0,0.0,0.0,32.381420278818766
2025/04/11 12:08:40.970549813,1744366120,969600464,,102.11319964289575,-6.290463276490755,0.0,0.0,0.0,33.20401910157651
2025/04/11 12:08:41.45086896,1744366121,44208835,,101.04609775470088,-6.864011903496618,0.0,0.0,0.0,31.326001469218035
2025/04/11 12:08:41.112092423,1744366121,111870089,,99.92480624065288,-5.910280398024696,0.0,0.0,0.0,26.81987220528879
2025/04/11 12:08:41.193882065,1744366121,193642249,,97.51360316233406,-5.6442950094333355,0.0,0.0,0.0,24.981219218088953
2025/04/11 12:08:41.304458701,1744366121,303816377,,96.22235165860587,-4.721961870401671,0.0,0.0,0.0,20.42318147590651
2025/04/11 12:08:41.383543913,1744366121,382772920,,93.18606946481933,-5.412241801482125,0.0,0.0,0.0,18.891468140955823
2025/04/11 12:08:41.463890921,1744366121,463044809,,91.92616899550617,-4.5892569350400265,0.0,0.0,0.0,14.786448990073858
2025/04/11 12:08:41.566502116,1744366121,565848451,,89.51352942820063,-5.067269172664396,0.0,0.0,0.0,13.863919602982492
2025/04/11 12:08:41.649832038,1744366121,649543834,,87.94443450278618,-5.536220651679926,0.0,0.0,0.0,11.520294571584166
2025/04/11 12:08:41.731474546,1744366121,731209104,,85.01656823933828,-4.334952170183897,0.0,0.0,0.0,8.121836035808109
2025/04/11 12:08:41.809604653,1744366121,809427279,,83.78907533185776,-4.780174618785566,0.0,0.0,0.0,6.447735254936006
2025/04/11 12:08:41.877264595,1744366121,876969543,,82.62594760306676,-3.6426719015506137,0.0,0.0,0.0,2.0662154091271034
2025/04/11 12:08:41.962340489,1744366121,961985607,,80.27949285912302,-4.009788857108077,0.0,0.0,0.0,1.8139793647955216
2025/04/11 12:08:42.33253605,1744366122,32687726,,79.04692683895979,-4.46546299147802,0.0,0.0,0.0,0.14859985193084668
2025/04/11 12:08:42.115553143,1744366122,113124845,,78.00419900903708,-3.3942956006704037,0.0,0.0,0.0,-3.8767328465217474
2025/04/11 12:08:42.185570859,1744366122,185377267,,75.37331565248115,-3.806067492365017,0.0,0.0,0.0,-4.094292867125965
2025/04/11 12:08:42.266870512,1744366122,266582935,,74.37128700872415,-4.18676846522834,0.0,0.0,0.0,-5.444419117247989
2025/04/11 12:08:42.416830758,1744366122,416376363,,73.26024285121349,-2.975858054568107,0.0,0.0,0.0,-9.826926743944973
2025/04/11 12:08:42.514455765,1744366122,514095628,,68.1045826141754,-3.6343789044509975,0.0,0.0,0.0,-9.847826548832849
2025/04/11 12:08:42.611969151,1744366122,610544098,,66.90091743035703,-2.0337952495017646,0.0,0.0,0.0,-14.432195077665021
2025/04/11 12:08:42.681550257,1744366122,681288090,,65.67552470833243,-2.250793913023614,0.0,0.0,0.0,-15.555833612887042
2025/04/11 12:08:42.755887124,1744366122,755659567,,64.79040723623271,-2.367264492121066,0.0,0.0,0.0,-16.294692118357908
2025/04/11 12:08:42.835741843,1744366122,829588318,,63.86332283616249,-0.9795488175595182,0.0,0.0,0.0,-19.691036320698252
2025/04/11 12:08:42.912538053,1744366122,910692931,,61.48424900521772,-1.0598477278135192,0.0,0.0,0.0,-19.164282069625493
2025/04/11 12:08:42.980446376,1744366122,980244113,,60.505751769082764,-1.0050892412079264,0.0,0.0,0.0,-20.051727227215757
2025/04/11 12:08:43.62766348,1744366123,61914879,,59.682707822013384,0.3383962954676605,0.0,0.0,0.0,-23.06631569231311
2025/04/11 12:08:43.144988157,1744366123,144778959,,57.05262565064328,0.30016093851160974,0.0,0.0,0.0,-22.33208222667873
2025/04/11 12:08:43.233523690,1744366123,226519491,,56.14232303400457,1.44129212157479,0.0,0.0,0.0,-24.944094565126946
2025/04/11 12:08:43.303838271,1744366123,303616063,,55.00248703861505,1.4251031173478594,0.0,0.0,0.0,-25.608653541621223
2025/04/11 12:08:43.383431998,1744366123,383196317,,53.01177631409926,2.107965932374512,0.0,0.0,0.0,-25.68727044580055
2025/04/11 12:08:43.511679076,1744366123,511212589,,51.04101161437732,0.5519499652175739,0.0,0.0,0.0,-24.20267146619986
2025/04/11 12:08:43.591597289,1744366123,591189732,,50.3823430956333,3.1515047574433055,0.0,0.0,0.0,-28.942424518791874
2025/04/11 12:08:43.663597338,1744366123,663293049,,48.40448132892666,1.5852862332521767,0.0,0.0,0.0,-24.849452358529867
2025/04/11 12:08:43.738643617,1744366123,738496717,,46.631756738822816,1.610884765727107,0.0,0.0,0.0,-26.022757056430237
2025/04/11 12:08:43.808942507,1744366123,807689185,,46.279182170454796,1.5958273081677987,0.0,0.0,0.0,-25.962958677564274
2025/04/11 12:08:43.890995783,1744366123,890776842,,44.556656473103466,1.6272565307924935,0.0,0.0,0.0,-24.85751955362685
2025/04/11 12:08:43.964514218,1744366123,964291112,,42.628459457189464,1.6665551501197626,0.0,0.0,0.0,-26.126467224105298
2025/04/11 12:08:44.39185858,1744366124,38778962,,42.31617323294075,0.2446593547580136,0.0,0.0,0.0,-23.507702337268924
2025/04/11 12:08:44.106419795,1744366124,106186032,,40.51677201817132,1.7791048088584205,0.0,0.0,0.0,-25.010390243186784
2025/04/11 12:08:44.192882535,1744366124,192674062,,40.24355671999039,1.8164022357909744,0.0,0.0,0.0,-25.013851711519486
2025/04/11 12:08:44.250585365,1744366124,250377035,,38.17405601066261,0.14134176349780603,0.0,0.0,0.0,-23.299028371253236
2025/04/11 12:08:44.332038685,1744366124,331756888,,36.80247053002423,1.3342136018662245,0.0,0.0,0.0,-24.461654300216075
2025/04/11 12:08:44.406007000,1744366124,405585741,,36.500221655930574,1.387337054252825,0.0,0.0,0.0,-24.46309655695491
2025/04/11 12:08:44.492088161,1744366124,489053131,,35.656958430449016,1.432112604538517,0.0,0.0,0.0,-24.01132615619187
2025/04/11 12:08:44.615051717,1744366124,614702639,,34.55431256723092,1.48747182513668,0.0,0.0,0.0,-24.65700195888094
2025/04/11 12:08:44.688016338,1744366124,687683891,,31.639249261228407,1.5564513273866822,0.0,0.0,0.0,-22.687447083866317
2025/04/11 12:08:44.760887374,1744366124,760681890,,29.953494227484562,1.6371989948916053,0.0,0.0,0.0,-23.80213094534531
2025/04/11 12:08:44.843669757,1744366124,843263416,,29.735578712012412,1.5333504157114675,0.0,0.0,0.0,-24.07587196805558
2025/04/11 12:08:44.910935303,1744366124,910458012,,29.49034177377031,2.2066581134689898,0.0,0.0,0.0,-22.961616050472095
2025/04/11 12:08:44.993225794,1744366124,992943982,,27.93660708350143,1.4110068671375302,0.0,0.0,0.0,-24.8909415783438
2025/04/11 12:08:45.75335284,1744366125,75037068,,29.049990411292754,2.0858167229807663,0.0,0.0,0.0,-22.216248033223906
2025/04/11 12:08:45.145852349,1744366125,145647356,,27.14940164857549,1.103781896987968,0.0,0.0,0.0,-22.76306094401852
2025/04/11 12:08:45.214031683,1744366125,213799478,,25.587682002362378,1.6705523354550138,0.0,0.0,0.0,-22.938472620081647
2025/04/11 12:08:45.292545227,1744366125,291572290,,25.41337077478199,2.1384612140360986,0.0,0.0,0.0,-21.86765257620027
2025/04/11 12:08:45.365760836,1744366125,365511583,,26.76418162443543,1.3302273030214309,0.0,0.0,0.0,-19.593965998290948
2025/04/11 12:08:45.446254678,1744366125,445843648,,23.62399010800319,0.4541243560039021,0.0,0.0,0.0,-21.275212528731032
2025/04/11 12:08:45.533733434,1744366125,533609708,,23.433883152541362,1.1081903997978202,0.0,0.0,0.0,-20.21054509293201
2025/04/11 12:08:45.636363954,1744366125,636112374,,24.969477219213466,1.8962479975917432,0.0,0.0,0.0,-17.817243841206334
2025/04/11 12:08:45.714935404,1744366125,714728213,,22.61316763261592,0.6428052408914766,0.0,0.0,0.0,-18.55489725105253
2025/04/11 12:08:45.775377885,1744366125,774899423,,20.926361379336583,1.2583317398061382,0.0,0.0,0.0,-18.7833712527176
2025/04/11 12:08:45.848357581,1744366125,847760949,,21.99978228840996,1.7423110787704132,0.0,0.0,0.0,-17.04323634297088
2025/04/11 12:08:45.923250953,1744366125,918733168,,21.839666008324592,0.2044349353917454,0.0,0.0,0.0,-17.514172144907427
2025/04/11 12:08:45.995742535,1744366125,995511767,,21.684376097237404,0.7819400221262072,0.0,0.0,0.0,-16.60413949565904
2025/04/11 12:08:46.68966933,1744366126,68716901,,19.99416363344183,2.924260346176652,0.0,0.0,0.0,-17.15400732133552
2025/04/11 12:08:46.149489523,1744366126,149207566,,19.847790649780407,0.5855596635022664,0.0,0.0,0.0,-16.219160751395698
2025/04/11 12:08:46.224664291,1744366126,223113148,,19.68799202478551,-0.52997882638833,0.0,0.0,0.0,-15.201298878599282
2025/04/11 12:08:46.297561491,1744366126,297349367,,19.1744075329782,1.5549211412880908,0.0,0.0,0.0,-14.864384012729552
2025/04/11 12:08:46.380350543,1744366126,380008389,,17.55433809116964,2.158080169000371,0.0,0.0,0.0,-15.11692497754322
2025/04/11 12:08:46.459948158,1744366126,459499323,,17.40784951235056,-0.49133808999614814,0.0,0.0,0.0,-14.07184817731956
2025/04/11 12:08:46.535260757,1744366126,533552365,,18.172523811840954,1.730015778017986,0.0,0.0,0.0,-14.130471477135863
2025/04/11 12:08:46.648912832,1744366126,648100278,,17.43774810390544,1.871953715228173,0.0,0.0,0.0,-14.513782151827613
2025/04/11 12:08:46.714884096,1744366126,714740296,,14.95331676230812,-1.7702529152792437,0.0,0.0,0.0,-11.257717532792768
2025/04/11 12:08:46.786658205,1744366126,784260823,,14.854270518729415,0.10575203801923294,0.0,0.0,0.0,-12.828881720021805
2025/04/11 12:08:46.863778042,1744366126,863599525,,14.750467092657978,0.6826308174852755,0.0,0.0,0.0,-11.969834514728568
2025/04/11 12:08:46.934740736,1744366126,934530905,,15.37774886996285,2.905127917654184,0.0,0.0,0.0,-13.242219958958195
2025/04/11 12:08:47.14665167,1744366127,14125051,,13.853691817504462,0.6419059306762023,0.0,0.0,0.0,-13.498447341253417
2025/04/11 12:08:47.162979840,1744366127,162708281,,13.742400962700401,1.297980518665355,0.0,0.0,0.0,-9.952735772845244
2025/04/11 12:08:47.242239879,1744366127,241767716,,13.539301752877854,1.4218845522591295,0.0,0.0,0.0,-15.270060218163131
2025/04/11 12:08:47.324524022,1744366127,324049264,,12.613249059668647,2.0619923511548706,0.0,0.0,0.0,-14.934934301156432
2025/04/11 12:08:47.395665964,1744366127,395455816,,10.843354120648293,1.0696600511677303,0.0,0.0,0.0,-9.565345684052296
2025/04/11 12:08:47.480368200,1744366127,478863634,,12.155007862851335,1.3621457586894365,0.0,0.0,0.0,-8.118628987631311
2025/04/11 12:08:47.547858952,1744366127,546531343,,12.053341808282525,0.37443535149326124,0.0,0.0,0.0,-10.131636147292681
2025/04/11 12:08:47.613533580,1744366127,613273820,,10.213455651056961,0.9256218566763437,0.0,0.0,0.0,-10.071016688690705
2025/04/11 12:08:47.726860654,1744366127,725318554,,11.474398950664686,1.4685408342932362,0.0,0.0,0.0,-8.210403987376004
2025/04/11 12:08:47.804758620,1744366127,804570390,,9.116569058912582,1.9974144411051782,0.0,0.0,0.0,-12.459392144796851
2025/04/11 12:08:47.880983727,1744366127,880656917,,9.185438416465104,1.0491573392289695,0.0,0.0,0.0,-8.530868132098306
2025/04/11 12:08:47.956196029,1744366127,955854071,,9.115902416676875,1.663186114547372,0.0,0.0,0.0,-7.639571578176096
2025/04/11 12:08:48.29378493,1744366128,28290253,,9.047517021920093,0.7737753403421692,0.0,0.0,0.0,-18.724651532582165
2025/04/11 12:08:48.113324284,1744366128,112785965,,7.531186736584317,1.3756157983262227,0.0,0.0,0.0,-7.770403043314843
2025/04/11 12:08:48.351501342,1744366128,351105008,,7.467566108386649,0.10634470576604826,0.0,0.0,0.0,-48.50394966204045
2025/04/11 12:08:48.439525920,1744366128,435979144,,7.289719344563757,-4.158022727823223,0.0,0.0,0.0,-6.9859354590617215
2025/04/11 12:08:48.515677794,1744366128,515526594,,12.376558907888857,1.3183385165944514,0.0,0.0,0.0,-3.1997407087388865
2025/04/11 12:08:48.589809181,1744366128,589577236,,17.989305732530198,0.519610141103442,0.0,0.0,0.0,-4.421903646818535
2025/04/11 12:08:48.660325755,1744366128,659888022,,26.505344444760027,0.6068654892160197,0.0,0.0,0.0,-1.676663745208856
2025/04/11 12:08:48.914007347,1744366128,913706754,,49.66779914743916,3.1578189925417064,0.0,0.0,0.0,0.682651122496452
2025/04/11 12:08:49.106544537,1744366129,98592833,,71.46846598572236,8.434378550342359,0.0,0.0,0.0,1.363737718197772
2025/04/11 12:08:49.217435511,1744366129,216600128,,152.5478487706665,48.33708234019669,0.0,0.0,0.0,5.505945727787655
2025/04/11 12:08:49.299165070,1744366129,297123548,,213.5812647720748,68.63814425712414,0.0,0.0,0.0,6.135912092282126
2025/04/11 12:08:49.386524671,1744366129,378535098,,205.20181897518614,64.95201436999896,0.0,0.0,0.0,5.753251550628779
2025/04/11 12:08:49.471123530,1744366129,470830350,,126.37026511305882,48.784063668023634,0.0,0.0,0.0,3.333138876293148
2025/04/11 12:08:49.543304383,1744366129,539645665,,-4.294798085057309,-25.421930532316182,0.0,0.0,0.0,3.9804943588233925
2025/04/11 12:08:49.622486283,1744366129,622070424,,-25.69242341680745,-37.097126942428275,0.0,0.0,0.0,-31.932075603605828
2025/04/11 12:08:49.691105654,1744366129,690353322,,-25.481286084354302,-34.740228617428116,0.0,0.0,0.0,-5.238086864067249
2025/04/11 12:08:49.767276507,1744366129,766633338,,-25.30529144472792,-33.125827085043525,0.0,0.0,0.0,5.143437580270245
2025/04/11 12:08:49.848682706,1744366129,848401221,,-24.292739608825038,-32.426221560319405,0.0,0.0,0.0,4.952366509204275
2025/04/11 12:08:49.926677099,1744366129,923427325,,-23.34841818583024,-31.58903015954182,0.0,0.0,0.0,4.47967841906603
2025/04/11 12:08:50.184565103,1744366130,181939435,,-22.88186593383277,-29.84712612321374,0.0,0.0,0.0,66.12369471392087
2025/04/11 12:08:50.272788764,1744366130,272548280,,-20.613633732098663,-28.39166820208129,0.0,0.0,0.0,149.29581992877797
2025/04/11 12:08:50.353960129,1744366130,353318739,,-19.973355780849353,-27.474119775565654,0.0,0.0,0.0,294.47266433616034
2025/04/11 12:08:50.428230801,1744366130,426734128,,-19.219421024609872,-26.73708678785863,0.0,0.0,0.0,312.5056179636278
2025/04/11 12:08:50.548244253,1744366130,548029136,,-18.59533259100761,-26.1761721318298,0.0,0.0,0.0,322.7755536320783
2025/04/11 12:08:50.635856466,1744366130,635338610,,-17.63272666996636,-25.0789737632374,0.0,0.0,0.0,325.08733080842336
2025/04/11 12:08:50.727113653,1744366130,723951537,,-16.939526578212444,-24.42978398283833,0.0,0.0,0.0,330.2474599895189
2025/04/11 12:08:50.803473953,1744366130,803262598,,-16.25090985328962,-23.702172117454765,0.0,0.0,0.0,322.8958929404991
2025/04/11 12:08:50.889515804,1744366130,884752400,,-15.647635137575854,-23.085256866993433,0.0,0.0,0.0,320.54036486378374
2025/04/11 12:08:50.969693892,1744366130,966418979,,-15.004790301774442,-22.557674993521886,0.0,0.0,0.0,313.7853128445931
2025/04/11 12:08:51.47940662,1744366131,46230332,,-14.409542562020704,-21.907366766292327,0.0,0.0,0.0,303.1036294362894
2025/04/11 12:08:51.127865883,1744366131,127353996,,-13.789214211748309,-21.383745251652854,0.0,0.0,0.0,296.46770226118235
2025/04/11 12:08:51.284951868,1744366131,283983443,,-13.178367692334106,-20.77626629920637,0.0,0.0,0.0,290.11114103308216
2025/04/11 12:08:51.365409929,1744366131,365171688,,-12.055101811056254,-19.74141261633642,0.0,0.0,0.0,277.4693578712479
2025/04/11 12:08:51.441055115,1744366131,440766926,,-11.504263788106279,-19.26941320028604,0.0,0.0,0.0,275.1352072603323
2025/04/11 12:08:51.523052058,1744366131,522616464,,-10.987885688700146,-18.88017702598553,0.0,0.0,0.0,271.37441005920556
2025/04/11 12:08:51.601447276,1744366131,601302524,,-10.411095474696886,-18.51723421149022,0.0,0.0,0.0,268.90283945151526
2025/04/11 12:08:51.719632377,1744366131,719172314,,-9.889928751615734,-18.371413393754594,0.0,0.0,0.0,256.39625976424645
2025/04/11 12:08:51.798363055,1744366131,797708173,,-9.137475815189646,-18.090251506544604,0.0,0.0,0.0,250.5933914174381
2025/04/11 12:08:51.882175613,1744366131,878662638,,-8.687485712344944,-17.741255640466065,0.0,0.0,0.0,244.34529529155353
2025/04/11 12:08:51.957980122,1744366131,957762051,,-8.248020475927554,-17.38322765570858,0.0,0.0,0.0,233.7838321277867
2025/04/11 12:08:52.39374294,1744366132,38975744,,-7.866243441989283,-17.00500601645311,0.0,0.0,0.0,236.06475721896484
2025/04/11 12:08:52.134376934,1744366132,133014228,,-6.7342678677133065,-16.660142595040668,0.0,0.0,0.0,222.15309370399564
2025/04/11 12:08:52.245215192,1744366132,244117755,,-6.340376157674662,-16.186703655368618,0.0,0.0,0.0,223.41634995235495
2025/04/11 12:08:52.326780398,1744366132,325556172,,-4.518325153238514,-15.728264638598205,0.0,0.0,0.0,211.98723438459464
2025/04/11 12:08:52.413296028,1744366132,410481206,,-4.240748071029017,-15.267282359348442,0.0,0.0,0.0,210.28933107335908
2025/04/11 12:08:52.495859755,1744366132,495497179,,-2.897942980789587,-14.986457358500573,0.0,0.0,0.0,204.75779268294272
2025/04/11 12:08:52.581911748,1744366132,579524099,,-1.8684742206724678,-14.319989857609528,0.0,0.0,0.0,199.8126642420649
2025/04/11 12:08:52.660909300,1744366132,660382372,,0.0506667699271901,-14.19797900347416,0.0,0.0,0.0,190.48038087759164
2025/04/11 12:08:52.741894474,1744366132,740570901,,-1.1137606053019695,-12.497338413484002,0.0,0.0,0.0,188.66937028464622
2025/04/11 12:08:52.864810646,1744366132,860456021,,-0.8317841060104527,-12.397104747962942,0.0,0.0,0.0,186.7811763708578
2025/04/11 12:08:52.939922003,1744366132,938122169,,-0.5811413408578971,-12.248059136921597,0.0,0.0,0.0,181.54830690595736
2025/04/11 12:08:53.17528060,1744366133,17346552,,0.4893979373492314,-12.15387009553507,0.0,0.0,0.0,172.40870768784745
2025/04/11 12:08:53.107410654,1744366133,107253829,,-0.7456256748745318,-12.056115032040893,0.0,0.0,0.0,167.9027858987513
2025/04/11 12:08:53.198174526,1744366133,196092452,,1.1667672732235914,-10.192650776726055,0.0,0.0,0.0,165.9658978274694
2025/04/11 12:08:53.285483687,1744366133,284215944,,-0.47419266453558606,-10.101768034303618,0.0,0.0,0.0,164.97177496209636
2025/04/11 12:08:53.362200744,1744366133,361418997,,-0.3350088970369427,-10.013017886202732,0.0,0.0,0.0,157.24116902297482
2025/04/11 12:08:53.440443725,1744366133,440184335,,-0.2175100985709193,-9.93570885804941,0.0,0.0,0.0,155.78090076600415
2025/04/11 12:08:53.524256904,1744366133,522820012,,-0.1015724366319759,-9.857535136320863,0.0,0.0,0.0,148.50702554462185
2025/04/11 12:08:53.606145274,1744366133,605982108,,0.016898054296426324,-9.775872058637006,0.0,0.0,0.0,146.71887169496816
2025/04/11 12:08:53.686395851,1744366133,686244488,,0.13176545162550468,-8.046293806417836,0.0,0.0,0.0,146.4599218691236
2025/04/11 12:08:53.774361226,1744366133,770986165,,-1.1366757630432218,-7.981616575605017,0.0,0.0,0.0,138.1021947068362
2025/04/11 12:08:53.853641356,1744366133,853389533,,0.6846431985579855,-7.913536836520279,0.0,0.0,0.0,137.5959936045681
2025/04/11 12:08:53.979260053,1744366133,977107004,,-0.844263933918846,-7.8486229913924035,0.0,0.0,0.0,129.0487007512
2025/04/11 12:08:54.63278648,1744366134,60577135,,1.7974513548158626,-10.220460083907668,0.0,0.0,0.0,126.86905885569178
2025/04/11 12:08:54.137699333,1744366134,137133868,,0.22439550233345074,-8.467674864070375,0.0,0.0,0.0,125.42161288450689
2025/04/11 12:08:54.230753075,1744366134,229260225,,-0.9228754348371027,-8.403575536981975,0.0,0.0,0.0,125.75806028712952
2025/04/11 12:08:54.310498260,1744366134,309500081,,0.39412976803396305,-8.325875746545464,0.0,0.0,0.0,124.51690233223894
2025/04/11 12:08:54.391245464,1744366134,390466964,,0.49144509666140834,-8.259290838076979,0.0,0.0,0.0,113.37562841547879
2025/04/11 12:08:54.472967030,1744366134,472801003,,-0.2089156871465363,-7.587756276497956,0.0,0.0,0.0,110.9065732748225
2025/04/11 12:08:54.554250302,1744366134,553249614,,1.5186468216153628,-7.52581381031456,0.0,0.0,0.0,106.71218158176055
2025/04/11 12:08:54.636518436,1744366134,636359603,,0.006492982623974797,-6.91974953514611,0.0,0.0,0.0,105.19041671470632
2025/04/11 12:08:54.713353045,1744366134,712383174,,0.1081386421013022,-6.862138629077478,0.0,0.0,0.0,102.2912893969966
2025/04/11 12:08:54.791902067,1744366134,790114254,,0.20191347977073093,-8.345496658591827,0.0,0.0,0.0,99.934894030696
2025/04/11 12:08:54.863211009,1744366134,860284525,,-1.2293441359510382,-6.757584536039445,0.0,0.0,0.0,102.96729066136606
2025/04/11 12:08:54.940472850,1744366134,940306032,,-0.6269592921350124,-6.710257322393375,0.0,0.0,0.0,96.04237369685046
2025/04/11 12:08:55.70489782,1744366135,60542388,,0.4530609344406571,-6.656592113434584,0.0,0.0,0.0,95.70202768619424
2025/04/11 12:08:55.142139770,1744366135,141942480,,-0.5909597357123246,-6.575459628028739,0.0,0.0,0.0,92.8426207671543
2025/04/11 12:08:55.233722044,1744366135,231240456,,-0.48846443267392203,-7.425784710591628,0.0,0.0,0.0,94.33412661356192
2025/04/11 12:08:55.311024492,1744366135,310806372,,1.3689582756662233,-7.358228245822204,0.0,0.0,0.0,89.84990690254466
2025/04/11 12:08:55.392193513,1744366135,389958372,,-0.09372030274651166,-6.170232651228574,0.0,0.0,0.0,92.26267879100237
2025/04/11 12:08:55.472969537,1744366135,472020964,,0.002834955484544821,-6.121440593388584,0.0,0.0,0.0,87.20550523914591
2025/04/11 12:08:55.555401906,1744366135,553656806,,0.10250537129785897,-6.0711955860384705,0.0,0.0,0.0,84.61103081163213
2025/04/11 12:08:55.643920850,1744366135,643681821,,0.20071462339435442,-7.648722727022999,0.0,0.0,0.0,80.84666092360521
2025/04/11 12:08:55.730752814,1744366135,728310537,,0.30846736125423746,-5.790782848611528,0.0,0.0,0.0,78.38410070784357
2025/04/11 12:08:55.816976074,1744366135,816613344,,0.22257673475996143,-5.7407105660305575,0.0,0.0,0.0,79.67475541757494
2025/04/11 12:08:55.902489801,1744366135,900988205,,-1.4001261800709344,-5.690935615761617,0.0,0.0,0.0,71.4939803331838
2025/04/11 12:08:55.986131067,1744366135,985978354,,0.4257569161085044,-6.360186419093338,0.0,0.0,0.0,72.940759995284
2025/04/11 12:08:56.87973694,1744366136,87605993,,-1.1276494535944224,-6.292376473429357,0.0,0.0,0.0,69.14579790269374
2025/04/11 12:08:56.196177907,1744366136,193740557,,1.0440562598108443,-4.291186792061012,0.0,0.0,0.0,68.32117022459005
2025/04/11 12:08:56.356849384,1744366136,356546351,,-0.9345061627403766,-6.346190752299719,0.0,0.0,0.0,67.29975171704683
2025/04/11 12:08:56.442098158,1744366136,441818480,,-0.7244478265276086,-6.242846880013303,0.0,0.0,0.0,58.36658504904068
2025/04/11 12:08:56.533196530,1744366136,530193037,,-0.6078604874324256,-6.024514152999416,0.0,0.0,0.0,57.59232135888374
2025/04/11 12:08:56.606466053,1744366136,606300032,,-0.49113739491388486,-4.214592727242632,0.0,0.0,0.0,54.1138913617969
2025/04/11 12:08:56.684508437,1744366136,684304403,,-0.3909634874296657,-4.984840702141213,0.0,0.0,0.0,55.10983399779445
2025/04/11 12:08:56.767275709,1744366136,765215883,,1.241346249407961,-4.945935497407135,0.0,0.0,0.0,51.68764131107366
2025/04/11 12:08:56.832131040,1744366136,831955599,,1.470702097939423,-5.183646576247753,0.0,0.0,0.0,-26.94969824290041
2025/04/11 12:08:56.907360564,1744366136,907188884,,1.5294997167832705,-5.156502908731085,0.0,0.0,0.0,-299.40205207880524
2025/04/11 12:08:56.985262281,1744366136,984819624,,1.5922579013045493,-5.125943128704932,0.0,0.0,0.0,-340.432902152327
2025/04/11 12:08:57.57119122,1744366137,56817764,,1.6623923475475948,-5.084690479352389,0.0,0.0,0.0,-335.4182784016904
2025/04/11 12:08:57.132826350,1744366137,132565659,,1.726161817860664,-5.044770549938676,0.0,0.0,0.0,-330.65032770948085
2025/04/11 12:08:57.224814955,1744366137,222742148,,1.7939283645840618,-5.000204262546475,0.0,0.0,0.0,-325.41268213020976
2025/04/11 12:08:57.297581563,1744366137,296524517,,1.8736239566827209,-4.9453185916549955,0.0,0.0,0.0,-319.07051634205067
2025/04/11 12:08:57.404285641,1744366137,403449083,,1.9343272043198212,-4.9014804990768255,0.0,0.0,0.0,-314.1032046218944
2025/04/11 12:08:57.477822692,1744366137,476924916,,2.0248782890023094,-4.833997202411695,0.0,0.0,0.0,-306.5734201725021
2025/04/11 12:08:57.541866245,1744366137,541316189,,2.0867154516537596,-4.785958101785354,0.0,0.0,0.0,-301.3300509077809
2025/04/11 12:08:57.612435830,1744366137,612260056,,2.1401096986455173,-3.424582712402426,0.0,0.0,0.0,-296.761581563378
2025/04/11 12:08:57.684999947,1744366137,684222874,,2.198627949329783,-3.3771423624716306,0.0,0.0,0.0,-291.72511964507424
2025/04/11 12:08:57.758309672,1744366137,758144894,,2.2579100812184976,-3.328200071326947,0.0,0.0,0.0,-286.5974533814311
2025/04/11 12:08:57.826196871,1744366137,825880337,,2.31816776312273,-4.1118110601235145,0.0,0.0,0.0,-284.5253178906918
2025/04/11 12:08:57.903069434,1744366137,902499984,,2.3682977266385805,-4.074874410831441,0.0,0.0,0.0,-283.9860118266005
2025/04/11 12:08:57.962787346,1744366137,962476657,,2.428046160104614,-5.19429097538179,0.0,0.0,0.0,-279.24450164647493
2025/04/11 12:08:58.35691431,1744366138,34878557,,2.4135228768926,-4.1926071369341,0.0,0.0,0.0,-272.9212014505416
2025/04/11 12:08:58.111287333,1744366138,110730324,,2.480670815862176,-4.215601029953916,0.0,0.0,0.0,-267.40884823204874
2025/04/11 12:08:58.193709974,1744366138,193111498,,2.5498447985102644,-4.219865721746515,0.0,0.0,0.0,-261.7535451066235
2025/04/11 12:08:58.267977020,1744366138,266369222,,2.6183883226193743,-4.1743570006810415,0.0,0.0,0.0,-256.2765291392242
2025/04/11 12:08:58.373297004,1744366138,364313343,,2.6831161406496875,-4.162287602420662,0.0,0.0,0.0,-250.95813374002694
2025/04/11 12:08:58.440317651,1744366138,440184583,,2.7685871003072364,-4.130044974478849,0.0,0.0,0.0,-243.94571543516793
2025/04/11 12:08:58.510061372,1744366138,509892620,,2.8265155855625608,-4.0894223662097176,0.0,0.0,0.0,-239.44416814861773
2025/04/11 12:08:58.585407122,1744366138,584932884,,2.884305434014962,-4.057561288915849,0.0,0.0,0.0,-234.61298305847305
2025/04/11 12:08:58.655042793,1744366138,654794580,,2.945898658159166,-4.016270846487799,0.0,0.0,0.0,-229.47534702577266
2025/04/11 12:08:58.724374661,1744366138,721486854,,3.0018193503621617,-3.973428816828516,0.0,0.0,0.0,-224.81201194992178
2025/04/11 12:08:58.792936451,1744366138,791171466,,3.0546933513720447,-3.9296777178265216,0.0,0.0,0.0,-220.39626459991564
2025/04/11 12:08:58.862814452,1744366138,862450697,,3.107085435544505,-3.8841527691996163,0.0,0.0,0.0,-216.0099819634661
2025/04/11 12:08:58.939780574,1744366138,939616890,,3.161341510934278,-3.8354133569527136,0.0,0.0,0.0,-211.45318982160123
2025/04/11 12:08:59.9044150,1744366139,8676166,,3.2179377932996474,-3.783359336668127,0.0,0.0,0.0,-206.6815752177913
2025/04/11 12:08:59.89518319,1744366139,89325972,,3.268471788676841,-3.736116135518273,0.0,0.0,0.0,-202.40224200546695
2025/04/11 12:08:59.162655349,1744366139,162358168,,3.3263002173317133,-3.681548282570489,0.0,0.0,0.0,-197.48477293229325
2025/04/11 12:08:59.246536037,1744366139,246028997,,3.377940888861751,-3.632447782057966,0.0,0.0,0.0,-193.0719639010547
2025/04/11 12:08:59.360105982,1744366139,359691202,,3.435998710491944,-3.5769851160559654,0.0,0.0,0.0,-188.08885611251486
2025/04/11 12:08:59.437732824,1744366139,437187673,,3.5137221825903637,-3.5023939895930027,0.0,0.0,0.0,-181.38463603075442
2025/04/11 12:08:59.514263931,1744366139,514073951,,3.565453092796858,-3.4524471848177,0.0,0.0,0.0,-176.89270807623825
2025/04/11 12:08:59.593050781,1744366139,590287328,,3.615560276059881,-3.403884962924465,0.0,0.0,0.0,-172.52257949644357
2025/04/11 12:08:59.668180422,1744366139,667596814,,3.6666894381541937,-3.354119511244363,0.0,0.0,0.0,-168.04430769325782
2025/04/11 12:08:59.766817359,1744366139,766594041,,3.7297596314096566,-3.29241856952639,0.0,0.0,0.0,-162.49599264386364
2025/04/11 12:08:59.850091758,1744366139,848819247,,3.746600765856421,-3.2581251440129364,0.0,0.0,0.0,-157.28124213966686
2025/04/11 12:08:59.932961720,1744366139,930307157,,3.794367759325901,-3.2203691046660623,0.0,0.0,0.0,-152.57850662352402
2025/04/11 12:09:00.6712865,1744366140,6095625,,3.8519825501015603,-3.1154581540055233,0.0,0.0,0.0,-148.85222125746571
2025/04/11 12:09:00.85869002,1744366140,83024998,,3.8598428517381294,-3.081882148907411,0.0,0.0,0.0,-143.72774170666705
2025/04/11 12:09:00.154363919,1744366140,154183196,,3.909319681725769,-3.048030517142621,0.0,0.0,0.0,-139.68200316418944
2025/04/11 12:09:00.245551777,1744366140,245022538,,3.9648340789117853,-2.9464228160805135,0.0,0.0,0.0,-136.76021159094867
2025/04/11 12:09:00.317261682,1744366140,317004136,,4.029070100096689,-2.8986752160009956,0.0,0.0,0.0,-132.6486504653613
2025/04/11 12:09:00.440773774,1744366140,440568411,,4.076888082319577,-1.4222817829736414,0.0,0.0,0.0,-128.50028817438846
2025/04/11 12:09:00.517705183,1744366140,517379443,,4.026580266431608,-1.352938011244774,0.0,0.0,0.0,-126.79069753816081
2025/04/11 12:09:00.603490396,1744366140,600049452,,4.071279016681366,-1.3100921178841531,0.0,0.0,0.0,-126.39922704992512
2025/04/11 12:09:00.676627887,1744366140,676151587,,4.0370325680760075,-2.6716119422306974,0.0,0.0,0.0,-118.93134140382713
2025/04/11 12:09:00.748400192,1744366140,748139816,,4.007026326822093,-2.6205573670374065,0.0,0.0,0.0,-93.55921352745298
2025/04/11 12:09:00.838553260,1744366140,826781120,,3.977997171743155,-2.5711652699655474,0.0,0.0,0.0,-80.59084553544798
2025/04/11 12:09:00.909989127,1744366140,909687945,,4.381537543673581,-3.921718234335003,0.0,0.0,0.0,-91.21173557414795
2025/04/11 12:09:00.975430297,1744366140,975218018,,4.4802407855467195,-2.9788972391298785,0.0,0.0,0.0,-92.53515831203416
2025/04/11 12:09:01.59187668,1744366141,54521562,,4.450925855556299,-2.9319425078208496,0.0,0.0,0.0,-87.94013850457273
2025/04/11 12:09:01.138629274,1744366141,137722832,,4.41523984897843,-2.8747830040832127,0.0,0.0,0.0,-79.1155981002403
2025/04/11 12:09:01.213460842,1744366141,213297094,,4.378758652662121,-2.8163498176002975,0.0,0.0,0.0,-94.7525289147078
2025/04/11 12:09:01.291131611,1744366141,290937499,,4.345595561661469,-4.202419596447442,0.0,0.0,0.0,-92.99127895123871
2025/04/11 12:09:01.367548254,1744366141,363353017,,4.4559775606263585,-3.334480161862686,0.0,0.0,0.0,-86.78750860194899
2025/04/11 12:09:01.433227438,1744366141,432663094,,4.423578131192798,-3.2901812052764825,0.0,0.0,0.0,-78.14434920191223
2025/04/11 12:09:01.543380790,1744366141,543096551,,4.521528236165793,-2.7869369888565245,0.0,0.0,0.0,-76.15683539648796
2025/04/11 12:09:01.626846902,1744366141,626303330,,4.610829473113306,-2.7255560662557343,0.0,0.0,0.0,-69.48693973277264
2025/04/11 12:09:01.698505550,1744366141,698310673,,4.674965660943606,-2.68032975671008,0.0,0.0,0.0,-65.67937851912558
2025/04/11 12:09:01.773197693,1744366141,772817024,,4.723623466476987,-2.6411788377272387,0.0,0.0,0.0,-62.904794071204115
2025/04/11 12:09:01.848968276,1744366141,848764401,,4.7944794665895785,-2.4512651192927564,0.0,0.0,0.0,-61.92420411095353
2025/04/11 12:09:01.924427264,1744366141,924217779,,4.808026596322335,-2.411780623151145,0.0,0.0,0.0,-58.7734318722183
2025/04/11 12:09:01.999289251,1744366141,999126892,,4.836502970661805,-2.3727647599755954,0.0,0.0,0.0,-55.787206874416775
2025/04/11 12:09:02.80740691,1744366142,78459600,,4.800250738517093,-2.3343063485368702,0.0,0.0,0.0,-51.5853097715577
2025/04/11 12:09:02.147406726,1744366142,147174060,,4.762115087159067,-2.2938498998261565,0.0,0.0,0.0,-59.79874957091419
2025/04/11 12:09:02.232263848,1744366142,226798526,,4.837412573776582,-2.2592671106956033,0.0,0.0,0.0,-53.85163970804074
2025/04/11 12:09:02.297204521,1744366142,297027033,,4.802391375285779,-2.219094238169234,0.0,0.0,0.0,-47.20802107920616
2025/04/11 12:09:02.380199078,1744366142,379829906,,3.796757719793618,-2.1843135712037025,0.0,0.0,0.0,-49.08813470493195
2025/04/11 12:09:02.449578917,1744366142,449345598,,3.9203649725350544,-2.143369820162903,0.0,0.0,0.0,-42.420710773865
2025/04/11 12:09:02.553879397,1744366142,553131268,,3.6297721562416427,-2.1093244591543794,0.0,0.0,0.0,-37.131281989899904
2025/04/11 12:09:02.628518508,1744366142,628323061,,3.074313026203754,-2.0588069083495384,0.0,0.0,0.0,-35.36718968191656
2025/04/11 12:09:02.705000574,1744366142,703911839,,3.029360166463597,-2.022591992341688,0.0,0.0,0.0,-30.29520987733376
2025/04/11 12:09:02.779499379,1744366142,779297802,,1.4912834979714091,-0.547007926435441,0.0,0.0,0.0,-27.718233516289615
2025/04/11 12:09:02.852296812,1744366142,850778491,,1.5951480822803603,-0.5405220466711711,0.0,0.0,0.0,-27.18008966038309
2025/04/11 12:09:02.933678559,1744366142,933390329,,1.5533929456446316,-0.5065716564504186,0.0,0.0,0.0,-24.334884039578988
2025/04/11 12:09:03.7315913,1744366143,6504128,,1.717318297296245,-2.1287900274443388,0.0,0.0,0.0,-21.62426863021922
2025/04/11 12:09:03.87864750,1744366143,87562231,,0.335114032462684,-1.0406845823235642,0.0,0.0,0.0,-20.411811963904512
2025/04/11 12:09:03.179253533,1744366143,177682946,,0.4429331306373996,-2.652387177725643,0.0,0.0,0.0,-17.019408417633542
2025/04/11 12:09:03.261774130,1744366143,258835324,,0.5088270659252316,-0.8135626055106968,0.0,0.0,0.0,-13.346499396896867
2025/04/11 12:09:03.372450150,1744366143,370657689,,0.1845967652363356,6.444823508875942,0.0,0.0,0.0,-26.48159755082382
2025/04/11 12:09:03.627407756,1744366143,627248278,,-0.3924194766522362,12.257210349276349,0.0,0.0,0.0,-73.9249764216174
2025/04/11 12:09:03.883624989,1744366143,883074032,,-0.42617925271844115,26.775106947051583,0.0,0.0,0.0,-109.2016386909775
2025/04/11 12:09:04.172652737,1744366144,167117405,,-0.8006338529905861,28.005448249555897,0.0,0.0,0.0,-139.26752710079538
2025/04/11 12:09:04.255668657,1744366144,254145108,,0.13308426310771893,28.08281429746428,0.0,0.0,0.0,-157.50150016356585
2025/04/11 12:09:04.493664535,1744366144,493436986,,10.1140492447729,45.280488376778464,0.0,0.0,0.0,-213.2928171086492
2025/04/11 12:09:04.565124817,1744366144,564889828,,-1.5078286356205979,33.70871587171813,0.0,0.0,0.0,-206.7087430171934
2025/04/11 12:09:04.645847520,1744366144,645125896,,2.6115997079691624,32.20431480181672,0.0,0.0,0.0,-218.52723410774956
2025/04/11 12:09:04.715023438,1744366144,713683610,,2.5064354143141827,32.135853023013354,0.0,0.0,0.0,-213.21735634127523
