time,header_stamp_secs,header_stamp_nsecs,header_frame_id,wrench_force_x,wrench_force_y,wrench_force_z,wrench_torque_x,wrench_torque_y,wrench_torque_z
2025/04/11 12:08:14.676359568,1744366094,676035095,,-8.19403577573032,-31.221167631259704,0.0,0.0,0.0,54.62733343392127
2025/04/11 12:08:14.754729285,1744366094,753311272,,-7.455223141377495,-32.55207255979852,0.0,0.0,0.0,58.434007828685274
2025/04/11 12:08:14.826223286,1744366094,826026221,,-6.923330006625093,-30.750171525179127,0.0,0.0,0.0,60.387636399934536
2025/04/11 12:08:15.734261578,1744366095,733984940,,-0.715313099964419,-9.97516778704825,0.0,0.0,0.0,82.85153420204125
2025/04/11 12:08:15.807645255,1744366095,807425930,,-0.14618509437669758,-11.407970412489007,0.0,0.0,0.0,79.05741188285089
2025/04/11 12:08:16.273717988,1744366096,234030107,,-1.1838177371686953,-11.324355832521078,0.0,0.0,0.0,79.30892483063496
2025/04/11 12:08:16.399419787,1744366096,398717146,,-6.26515737809828,-25.659834372956908,0.0,0.0,0.0,76.0586293890226
2025/04/11 12:08:16.460568060,1744366096,459547166,,-5.6735391181498755,-25.012581099422846,0.0,0.0,0.0,74.01204622785224
2025/04/11 12:08:16.547326756,1744366096,546351666,,-5.2747679744111196,-23.66527566457873,0.0,0.0,0.0,71.12082357339344
2025/04/11 12:08:16.665560945,1744366096,660323062,,-4.68352159706248,-23.055767446744213,0.0,0.0,0.0,69.33759215618397
2025/04/11 12:08:16.891763496,1744366096,846683617,,-3.8861317752644524,-21.252438795739863,0.0,0.0,0.0,65.17232482453878
2025/04/11 12:08:16.916797254,1744366096,916559336,,-2.637165358180141,-20.864172619250652,0.0,0.0,0.0,63.039299393562544
2025/04/11 12:08:17.10322495,1744366096,995754932,,-3.562187560485441,-17.929010419108707,0.0,0.0,0.0,61.121191014404005
2025/04/11 12:08:17.144149771,1744366097,140646647,,-1.4414776955872455,-16.20428083943321,0.0,0.0,0.0,64.3407454689787
2025/04/11 12:08:17.394874343,1744366097,393832632,,-0.48555462751054534,-13.800997205117554,0.0,0.0,0.0,56.12153664657161
2025/04/11 12:08:17.959945783,1744366097,939313659,,-3.854438120691583,-20.699532006850617,0.0,0.0,0.0,62.803986600080066
2025/04/11 12:08:18.179187006,1744366098,143148693,,10.182684665963642,-37.44330154592632,0.0,0.0,0.0,58.93115729785459
2025/04/11 12:08:18.354637795,1744366098,350605744,,11.488242640451645,-36.68377182144562,0.0,0.0,0.0,71.05808916877045
2025/04/11 12:08:18.640730800,1744366098,592212812,,12.557958872183313,-40.11878287032029,0.0,0.0,0.0,60.92366248168319
2025/04/11 12:08:19.225449540,1744366099,202673842,,9.587294249803335,-33.5405274742626,0.0,0.0,0.0,68.0214380542402
2025/04/11 12:08:19.528169441,1744366099,527672181,,11.377202669000987,-42.901165732092835,0.0,0.0,0.0,68.95203574330444
2025/04/11 12:08:19.682028749,1744366099,666924608,,10.210650380402683,-41.53564409175662,0.0,0.0,0.0,80.06899764996322
2025/04/11 12:08:19.835757473,1744366099,834686249,,10.065747798377714,-36.45882523458833,0.0,0.0,0.0,81.02210096112326
2025/04/11 12:08:20.450562955,1744366100,450128701,,9.363278641192686,-14.608534387208124,0.0,0.0,0.0,90.61328176597368
2025/04/11 12:08:20.528542010,1744366100,528301489,,9.25654544554363,-14.012471245966836,0.0,0.0,0.0,86.4188059828293
2025/04/11 12:08:20.609372648,1744366100,609116131,,8.648391995179004,-13.329186220171536,0.0,0.0,0.0,82.66020530826697
2025/04/11 12:08:20.871926605,1744366100,870576358,,6.3019975864961495,-12.670264559967777,0.0,0.0,0.0,80.84860532743897
2025/04/11 12:08:21.136888367,1744366101,136120056,,7.709707325860748,-21.38669229555012,0.0,0.0,0.0,78.94976293349784
2025/04/11 12:08:21.228880815,1744366101,228546099,,7.509524597507195,-29.17719555908414,0.0,0.0,0.0,81.588207948796
2025/04/11 12:08:21.299633353,1744366101,298642574,,7.877990760369123,-32.30920572997219,0.0,0.0,0.0,80.36739159354393
2025/04/11 12:08:21.378831078,1744366101,378560155,,9.145686788110666,-33.43471624225958,0.0,0.0,0.0,81.06286301090248
2025/04/11 12:08:21.453985639,1744366101,453069286,,9.072555161357407,-32.56014781891081,0.0,0.0,0.0,79.32167418115083
2025/04/11 12:08:21.523633155,1744366101,523309097,,9.23356527275164,-30.273259780729205,0.0,0.0,0.0,80.24242605462825
2025/04/11 12:08:21.598702317,1744366101,598491457,,8.077200514710228,-29.54592756331313,0.0,0.0,0.0,77.40916844922359
2025/04/11 12:08:21.845550103,1744366101,845254865,,8.075146454271618,-27.25126797780844,0.0,0.0,0.0,78.41901512215021
2025/04/11 12:08:22.142406623,1744366102,142106801,,6.7699869058562,-25.218372215973318,0.0,0.0,0.0,74.91970428137776
2025/04/11 12:08:22.213626202,1744366102,213270723,,6.568794217666422,-16.01154191948352,0.0,0.0,0.0,78.76013739611722
2025/04/11 12:08:22.286701483,1744366102,285331263,,6.92045498215704,-15.622728053604419,0.0,0.0,0.0,77.04308562116525
2025/04/11 12:08:22.359221915,1744366102,358853107,,7.310357640020328,-15.446118746073381,0.0,0.0,0.0,74.58108807908779
2025/04/11 12:08:22.433172219,1744366102,432934943,,6.624396922628861,-15.31836573622455,0.0,0.0,0.0,71.05157199695549
2025/04/11 12:08:22.678505909,1744366102,678110920,,6.845198439961962,-13.192838574908691,0.0,0.0,0.0,71.98542906442975
2025/04/11 12:08:22.917649495,1744366102,917367885,,4.28993344745296,-21.42261871293998,0.0,0.0,0.0,69.97554120460555
2025/04/11 12:08:22.990461031,1744366102,988249445,,4.379550414990831,-14.016378791355564,0.0,0.0,0.0,72.90246469116053
2025/04/11 12:08:23.68498085,1744366103,68008781,,5.17762540100226,-13.55207612413163,0.0,0.0,0.0,71.0642721133977
2025/04/11 12:08:23.322433395,1744366103,320265673,,5.9465800352434925,-11.298272933421458,0.0,0.0,0.0,71.83213253758336
2025/04/11 12:08:23.400141541,1744366103,397988206,,7.231607503388943,-11.057912274614822,0.0,0.0,0.0,62.813594428939695
2025/04/11 12:08:23.463567585,1744366103,463189490,,6.2239973356770335,-10.93201131523378,0.0,0.0,0.0,58.57067039059041
2025/04/11 12:08:23.700355914,1744366103,698151613,,5.003741438493336,-9.04383810933183,0.0,0.0,0.0,57.01218874061743
2025/04/11 12:08:23.812272575,1744366103,811645687,,6.17805245947018,-8.91762877023477,0.0,0.0,0.0,50.32457761854182
2025/04/11 12:08:24.25553712,1744366104,24530298,,5.451196950341327,-8.29832013025296,0.0,0.0,0.0,51.229828544208814
2025/04/11 12:08:24.280276619,1744366104,279978564,,2.702807101811679,-16.74982962622269,0.0,0.0,0.0,54.919846516633555
2025/04/11 12:08:24.352831862,1744366104,352497338,,5.824623669392722,-9.725344490215534,0.0,0.0,0.0,57.121595260735084
2025/04/11 12:08:24.564768296,1744366104,564288834,,4.538719468500453,-7.5345750490920125,0.0,0.0,0.0,57.09040816612719
2025/04/11 12:08:24.947401406,1744366104,947123536,,4.30500112259773,-4.2904431140601815,0.0,0.0,0.0,49.00951630755569
2025/04/11 12:08:25.158891062,1744366105,158571926,,4.270825442466055,-4.256383004129063,0.0,0.0,0.0,48.620449381662596
2025/04/11 12:08:25.243758740,1744366105,243302028,,4.180429903087472,-8.378292114213536,0.0,0.0,0.0,33.270561034928186
2025/04/11 12:08:25.412291988,1744366105,411978383,,4.1442696126047025,-6.584491128068677,0.0,0.0,0.0,38.8352947892017
2025/04/11 12:08:25.651203556,1744366105,650874826,,0.7548250186216876,-12.580952289144932,0.0,0.0,0.0,39.8818784604651
2025/04/11 12:08:25.724391008,1744366105,720391864,,2.638305586343904,-17.03348897283084,0.0,0.0,0.0,28.852661091721032
2025/04/11 12:08:25.796284867,1744366105,795913362,,4.411993069382149,-18.303127498128504,0.0,0.0,0.0,31.93852474368272
2025/04/11 12:08:25.864539169,1744366105,864121298,,3.3312530225107295,-19.759358399274674,0.0,0.0,0.0,32.661186087146184
2025/04/11 12:08:26.767840291,1744366106,767637802,,8.470174381231828,-35.908034650608634,0.0,0.0,0.0,57.63934819760862
2025/04/11 12:08:26.885066991,1744366106,884759715,,6.010847235750752,-33.93535102524806,0.0,0.0,0.0,54.77769570453617
2025/04/11 12:08:26.952991647,1744366106,952743817,,2.0623399269215668,-31.2297703225683,0.0,0.0,0.0,49.385581148440416
2025/04/11 12:08:27.40218702,1744366107,39011494,,1.5671891182184083,-28.323806805371262,0.0,0.0,0.0,47.98005276637699
2025/04/11 12:08:27.185324906,1744366107,184908593,,0.36698583715187993,-25.546114326149194,0.0,0.0,0.0,50.236781746652795
2025/04/11 12:08:27.264016456,1744366107,263494376,,-0.6529152314850677,-23.961145065362416,0.0,0.0,0.0,47.978741804257815
2025/04/11 12:08:27.349182802,1744366107,348919053,,-0.15128003326234563,-20.672933760138264,0.0,0.0,0.0,47.207620679628974
2025/04/11 12:08:27.425838225,1744366107,417203397,,0.17422733565733495,-18.7927189688144,0.0,0.0,0.0,49.253716366096
2025/04/11 12:08:27.541549899,1744366107,541222405,,-0.7475439954190719,-18.369710831196613,0.0,0.0,0.0,47.12655118775086
2025/04/11 12:08:27.653241666,1744366107,652889551,,-2.1888393105377872,-20.07158836241547,0.0,0.0,0.0,42.635106235199544
2025/04/11 12:08:27.725113153,1744366107,724853178,,-1.4787019158794834,-16.394835971293404,0.0,0.0,0.0,43.414444623336514
2025/04/11 12:08:27.800268804,1744366107,800006109,,-1.0126066226056452,-14.850463197606828,0.0,0.0,0.0,45.3070506258217
2025/04/11 12:08:27.924349338,1744366107,920824718,,-0.5196352116840686,-13.555480293559,0.0,0.0,0.0,44.85035066095168
2025/04/11 12:08:28.158346715,1744366108,158056411,,1.1460445412992755,-15.18619242449273,0.0,0.0,0.0,38.786297799860264
2025/04/11 12:08:28.265874835,1744366108,265479780,,-0.1786249990179769,-11.154697717380785,0.0,0.0,0.0,36.35198906784416
2025/04/11 12:08:28.344229127,1744366108,342628618,,-1.6274900485310866,-9.354393400565414,0.0,0.0,0.0,30.699769381779085
2025/04/11 12:08:28.613846580,1744366108,613559741,,-1.1473757630972514,-9.281917718034649,0.0,0.0,0.0,32.55480051788486
2025/04/11 12:08:28.685740055,1744366108,685365490,,-10.126536059201648,-14.441219670556507,0.0,0.0,0.0,20.477929744799503
2025/04/11 12:08:28.769134418,1744366108,768629922,,-12.854733105432892,-14.33964403697513,0.0,0.0,0.0,20.33389352516469
2025/04/11 12:08:28.841036352,1744366108,840714100,,-11.251300781117493,-12.564170374912607,0.0,0.0,0.0,23.17911022328323
2025/04/11 12:08:28.915708222,1744366108,915429888,,-10.653456024911577,-11.037205426435463,0.0,0.0,0.0,25.183813593383007
2025/04/11 12:08:28.991808241,1744366108,991409400,,-8.580090374057114,-10.606231984957105,0.0,0.0,0.0,26.410667210079147
2025/04/11 12:08:29.253635400,1744366109,253355500,,-11.020907805461043,-10.525792302489094,0.0,0.0,0.0,25.80026984496073
2025/04/11 12:08:29.327411240,1744366109,326925024,,-9.108320890241835,-5.0388573968786545,0.0,0.0,0.0,33.20577079512342
2025/04/11 12:08:29.404112369,1744366109,403826123,,-6.998143442407198,-4.776676926805479,0.0,0.0,0.0,28.76075685535885
2025/04/11 12:08:29.542217704,1744366109,541908123,,-7.946192947330125,-3.2258418434377063,0.0,0.0,0.0,26.616852808187737
2025/04/11 12:08:29.658428918,1744366109,650934135,,-7.042021843624873,-4.54141948437227,0.0,0.0,0.0,23.165189742125825
2025/04/11 12:08:29.783211282,1744366109,782685416,,-7.707598151538178,-5.310603962841697,0.0,0.0,0.0,21.947958326574998
2025/04/11 12:08:29.857522776,1744366109,856324652,,-12.825650524534552,-7.850526514029639,0.0,0.0,0.0,16.962933891078826
2025/04/11 12:08:29.945363022,1744366109,944988067,,-12.170524850762668,-6.316008064080691,0.0,0.0,0.0,19.04641449159498
2025/04/11 12:08:30.34127092,1744366110,26290895,,-11.514862977126953,-3.743098433180279,0.0,0.0,0.0,16.64735320212479
2025/04/11 12:08:30.101512718,1744366110,101286047,,-9.220095521882264,-3.230503053183085,0.0,0.0,0.0,18.227994862512702
2025/04/11 12:08:30.208701423,1744366110,208449312,,-10.273999201468122,-6.1560939637003855,0.0,0.0,0.0,16.631070063579728
2025/04/11 12:08:30.285011234,1744366110,284724985,,-9.239190146720844,-3.096065939559665,0.0,0.0,0.0,18.012226993366554
2025/04/11 12:08:30.366057381,1744366110,365741836,,-7.414707426446611,-3.072431322690548,0.0,0.0,0.0,18.9021520499901
2025/04/11 12:08:30.444651515,1744366110,444178582,,-7.354686060828769,-3.0475602774626225,0.0,0.0,0.0,10.372531326867175
2025/04/11 12:08:30.523356879,1744366110,522190630,,-7.296969987739246,-3.02364447599075,0.0,0.0,0.0,10.291132641561909
2025/04/11 12:08:30.605699759,1744366110,605394925,,-4.669664892444317,-3.2849938030049515,0.0,0.0,0.0,10.123779966000768
2025/04/11 12:08:30.693069441,1744366110,688248085,,-2.972948592718339,-3.2576274176721256,0.0,0.0,0.0,2.7450572911398226
2025/04/11 12:08:30.760925729,1744366110,760598502,,-2.948334872861281,-3.1899721881945737,0.0,0.0,0.0,8.580337165749889
2025/04/11 12:08:30.905004757,1744366110,904739830,,-4.363712213348734,-6.040267628427955,0.0,0.0,0.0,9.66772225717061
2025/04/11 12:08:30.978106162,1744366110,977763697,,-4.300733241122877,-0.20898464068571343,0.0,0.0,0.0,9.528193529850029
2025/04/11 12:08:31.72906270,1744366111,72074309,,-6.383243721129681,-3.113350403862981,0.0,0.0,0.0,9.824904849706712
2025/04/11 12:08:31.155258103,1744366111,152806807,,-9.077882871165201,-4.964246997785224,0.0,0.0,0.0,12.312096548307785
2025/04/11 12:08:31.227726146,1744366111,227388383,,-10.618748703440865,-6.9035795973884575,0.0,0.0,0.0,15.752782333810359
2025/04/11 12:08:31.304405549,1744366111,304184249,,-9.692537867977109,-4.724715704286936,0.0,0.0,0.0,16.489412536247997
2025/04/11 12:08:31.378009695,1744366111,377317213,,-9.36360073757595,-3.1808332571657445,0.0,0.0,0.0,18.87460271244428
2025/04/11 12:08:31.480365776,1744366111,480105294,,-7.8279272431128675,-3.77209635170351,0.0,0.0,0.0,16.455692608805933
2025/04/11 12:08:31.556206717,1744366111,555354634,,-11.832008157730364,-5.7755927000595335,0.0,0.0,0.0,12.610846160089324
2025/04/11 12:08:31.692067228,1744366111,682341164,,-11.734278585579531,-2.709633196649847,0.0,0.0,0.0,12.508779985643017
2025/04/11 12:08:31.823347531,1744366111,816203523,,-7.228793617991471,-1.645607479212785,0.0,0.0,0.0,14.78306612083761
2025/04/11 12:08:31.943451445,1744366111,935748629,,-7.13143154849196,-0.9314344042937535,0.0,0.0,0.0,13.471966771667695
2025/04/11 12:08:32.29983963,1744366112,29098939,,-4.727059730860162,1.6484678301359565,0.0,0.0,0.0,7.628827232757274
2025/04/11 12:08:32.155951742,1744366112,155658328,,-8.376328717557584,1.6331713225146274,0.0,0.0,0.0,0.9103992044082858
2025/04/11 12:08:32.241704193,1744366112,241487396,,-10.789584008882734,-0.9068021186222524,0.0,0.0,0.0,7.4490481227139895
2025/04/11 12:08:32.322016196,1744366112,321680604,,-10.364004713488818,0.8062092311287046,0.0,0.0,0.0,10.18815225923953
2025/04/11 12:08:32.398456058,1744366112,396175532,,-8.68225075268758,0.8888508983545051,0.0,0.0,0.0,8.987923348997953
2025/04/11 12:08:32.502892617,1744366112,502528275,,-11.590848745367424,-2.09125291984644,0.0,0.0,0.0,8.920774456193065
2025/04/11 12:08:32.588083324,1744366112,587471081,,-13.57190228804376,-5.388972063309936,0.0,0.0,0.0,12.106530394822165
2025/04/11 12:08:32.681363178,1744366112,672110375,,-15.144704008427041,-5.343262784959705,0.0,0.0,0.0,4.577000752722029
2025/04/11 12:08:32.770951663,1744366112,770498342,,-14.999968106271282,-3.3903816674304608,0.0,0.0,0.0,7.956528262179518
2025/04/11 12:08:32.854462231,1744366112,846275723,,-14.86814532366315,0.13711896781538258,0.0,0.0,0.0,7.886604667143239
2025/04/11 12:08:32.927427128,1744366112,926918299,,-14.755697261076591,0.13608193448412464,0.0,0.0,0.0,0.0007462747593791619
2025/04/11 12:08:33.2311748,1744366112,999656947,,-16.24103183164243,-1.4693066845791662,0.0,0.0,0.0,4.171898309957172
2025/04/11 12:08:33.70734710,1744366113,69722871,,-16.12090143679074,0.013509014405229891,0.0,0.0,0.0,6.790545701667909
2025/04/11 12:08:33.155295515,1744366113,155043714,,-16.01072148585068,0.013416685663543149,0.0,0.0,0.0,-0.3283114959272879
2025/04/11 12:08:33.223226197,1744366113,223032939,,-14.171569827835441,0.013301922457714,0.0,0.0,0.0,7.164175368251023
2025/04/11 12:08:33.347910787,1744366113,343320834,,-13.909707895295085,0.013211298975420505,0.0,0.0,0.0,6.983116230485869
2025/04/11 12:08:33.426539255,1744366113,426079190,,-16.145775478688165,0.013051693860319347,0.0,0.0,0.0,-3.6793311264863817
2025/04/11 12:08:33.511031747,1744366113,503892948,,-16.012540141435395,-1.6292089145033373,0.0,0.0,0.0,1.9343506832451425
2025/04/11 12:08:33.585177474,1744366113,582960609,,-15.887434154437585,-0.06169276902384979,0.0,0.0,0.0,4.717854443267065
2025/04/11 12:08:33.668034856,1744366113,667354226,,-15.310453640182033,1.0000000898718184,0.0,0.0,0.0,6.950167399469919
2025/04/11 12:08:33.759214782,1744366113,758874372,,-15.183134214931371,0.991684239820259,0.0,0.0,0.0,-1.712870005248405
2025/04/11 12:08:33.834005591,1744366113,833699298,,-13.222898010117618,0.9826081967519542,0.0,0.0,0.0,6.316429113176177
2025/04/11 12:08:33.971141548,1744366113,956361566,,-14.608524658159872,-0.5089708412153158,0.0,0.0,0.0,7.75356796183398
2025/04/11 12:08:34.39432809,1744366114,38786818,,-11.989957479757066,1.936753849209751,0.0,0.0,0.0,10.098004499295236
2025/04/11 12:08:34.126619795,1744366114,120276924,,-10.242791465758444,0.2728364216600454,0.0,0.0,0.0,8.366505372891808
2025/04/11 12:08:34.273419556,1744366114,272352521,,-11.77904407146589,-1.3490005220874792,0.0,0.0,0.0,4.087409649105048
2025/04/11 12:08:34.352734625,1744366114,352447869,,-11.599958288174541,0.9769304399234215,0.0,0.0,0.0,8.175023587692223
2025/04/11 12:08:34.440337336,1744366114,440103138,,-13.099014217234952,0.9691157491962059,0.0,0.0,0.0,1.10550440849223
2025/04/11 12:08:34.555861441,1744366114,555504678,,-14.727480124603005,-0.7825849540191854,0.0,0.0,0.0,5.628169959147463
2025/04/11 12:08:34.641358888,1744366114,637042081,,-9.964021299642354,-0.7735528168705201,0.0,0.0,0.0,5.563212918118367
2025/04/11 12:08:34.723634157,1744366114,723069592,,-9.882828964044222,0.2829570706371385,0.0,0.0,0.0,1.5706306620293446
2025/04/11 12:08:34.811814686,1744366114,811384483,,-11.01255948373462,0.2805177176179683,0.0,0.0,0.0,-5.590887439392439
2025/04/11 12:08:34.889809062,1744366114,889537928,,-11.390231100588792,0.012638986095595328,0.0,0.0,0.0,-6.399112123385734
2025/04/11 12:08:34.970742313,1744366114,969456143,,-11.30123297128749,1.1507108007565279,0.0,0.0,0.0,-4.30040532098851
2025/04/11 12:08:35.37690503,1744366115,37393937,,-11.206476279649408,1.1410625129290963,0.0,0.0,0.0,1.7424031268986298
2025/04/11 12:08:35.114548285,1744366115,112205278,,-12.407734915971432,1.13376347954879,0.0,0.0,0.0,-3.8696921034837573
2025/04/11 12:08:35.187169048,1744366115,186425422,,-12.724473436510706,1.1252533551338786,0.0,0.0,0.0,-9.545902383381453
2025/04/11 12:08:35.269267623,1744366115,268967985,,-11.970795391545664,1.1169242668778168,0.0,0.0,0.0,-3.6448812053395088
2025/04/11 12:08:35.346541541,1744366115,345910476,,-10.219844585391229,1.107654360861332,0.0,0.0,0.0,-4.935909947727595
2025/04/11 12:08:35.421865430,1744366115,420987472,,-11.6883838311999,1.0990378095286815,0.0,0.0,0.0,-11.708890843679946
2025/04/11 12:08:35.500450992,1744366115,500176058,,-13.073121023561072,0.14001283600433112,0.0,0.0,0.0,-14.029918686329914
2025/04/11 12:08:35.615918690,1744366115,615610949,,-16.11764992781505,0.1389054227540072,0.0,0.0,0.0,-19.585223163192857
2025/04/11 12:08:35.702633128,1744366115,702250596,,-18.2326919037082,2.2087278510428234,0.0,0.0,0.0,-25.756497642429856
2025/04/11 12:08:35.799379890,1744366115,797061351,,-21.202957916035032,2.1895903533319654,0.0,0.0,0.0,-31.48439167024366
2025/04/11 12:08:35.867625836,1744366115,867273206,,-24.209128986474255,0.27626444777700954,0.0,0.0,0.0,-34.442850886357895
2025/04/11 12:08:35.947092691,1744366115,945008684,,-26.662366858044578,0.4567245021391244,0.0,0.0,0.0,-38.78724265143202
2025/04/11 12:08:36.22613622,1744366116,21187796,,-27.5851491789452,-0.7346939496317617,0.0,0.0,0.0,-41.52930541008928
2025/04/11 12:08:36.96247364,1744366116,95764004,,-30.1663054539724,-0.30424298500989266,0.0,0.0,0.0,-45.75132936138382
2025/04/11 12:08:36.180387059,1744366116,178990802,,-32.56063295957034,0.11180734850715623,0.0,0.0,0.0,-49.6947269416587
2025/04/11 12:08:36.263677189,1744366116,261255734,,-35.3910721066064,-1.045152748725144,0.0,0.0,0.0,-51.19990167861442
2025/04/11 12:08:36.350993944,1744366116,350068689,,-38.13470691121887,-0.6010495324751446,0.0,0.0,0.0,-55.6943991040022
2025/04/11 12:08:36.437734158,1744366116,437362314,,-41.10005744067204,-0.01703665159537593,0.0,0.0,0.0,-60.346083184178504
2025/04/11 12:08:36.525786614,1744366116,524505318,,-44.00691989366264,-1.216577418625505,0.0,0.0,0.0,-61.82061376180239
2025/04/11 12:08:36.622881509,1744366116,622036510,,-47.02382184841033,-0.7686794881778098,0.0,0.0,0.0,-66.7284542205687
2025/04/11 12:08:36.741787996,1744366116,741422520,,-50.15765222581458,-0.05389509134707282,0.0,0.0,0.0,-71.52220000256443
2025/04/11 12:08:36.811740791,1744366116,811207236,,-54.143591108552926,-1.7100738491121348,0.0,0.0,0.0,-73.53505762919094
2025/04/11 12:08:37.72145078,1744366117,71686917,,-56.455864597971654,-0.9627171733713453,0.0,0.0,0.0,-76.64052716015655
2025/04/11 12:08:37.191637566,1744366117,191180634,,-65.07132460456259,0.7250200059871474,0.0,0.0,0.0,-90.0823646746749
2025/04/11 12:08:37.280237039,1744366117,279813955,,-69.04422363708079,-0.8896276678846249,0.0,0.0,0.0,-91.89818785013668
2025/04/11 12:08:37.363989265,1744366117,363211314,,-71.980690145661,0.6128736776361023,0.0,0.0,0.0,-94.78267653085356
2025/04/11 12:08:37.437725251,1744366117,437415594,,-74.72152564363583,1.1679991910533545,0.0,0.0,0.0,-99.00009624773402
2025/04/11 12:08:37.515921496,1744366117,513675352,,-77.08328371817575,1.228863900993943,0.0,0.0,0.0,-98.15192073897089
2025/04/11 12:08:37.609272972,1744366117,608819956,,-79.56567081419712,1.726834467260133,0.0,0.0,0.0,-102.02079799099943
2025/04/11 12:08:37.690289694,1744366117,689751569,,-82.57635015085478,3.7145575203373085,0.0,0.0,0.0,-104.04620833135309
2025/04/11 12:08:37.759648617,1744366117,759378310,,-85.12643395789277,3.8527901997595677,0.0,0.0,0.0,-102.90215882244476
2025/04/11 12:08:37.832249168,1744366117,831896642,,-87.29264663484534,5.36389703104669,0.0,0.0,0.0,-104.38176729174455
2025/04/11 12:08:37.899775206,1744366117,899461796,,-89.5660166040267,6.284813999197269,0.0,0.0,0.0,-106.98063747090083
2025/04/11 12:08:38.9849591,1744366118,9547661,,-91.62741080739177,6.8909694727422135,0.0,0.0,0.0,-106.72212585314873
2025/04/11 12:08:38.80473423,1744366118,80187379,,-94.99959515917149,9.563836715023186,0.0,0.0,0.0,-107.86697437041877
2025/04/11 12:08:38.158860113,1744366118,158527244,,-97.15655027917626,8.863262936330258,0.0,0.0,0.0,-109.36133137301552
2025/04/11 12:08:38.222595511,1744366118,222299593,,-99.49565016127369,10.58860227115565,0.0,0.0,0.0,-110.6162896475751
2025/04/11 12:08:38.312707672,1744366118,306719280,,-101.3984098554728,11.343118694191446,0.0,0.0,0.0,-110.42560429904174
2025/04/11 12:08:38.391226157,1744366118,389203455,,-103.91182360374421,13.055599376967564,0.0,0.0,0.0,-110.7213891949516
2025/04/11 12:08:38.457031490,1744366118,454681555,,-106.33361214989486,14.472117299150483,0.0,0.0,0.0,-110.58684904277982
2025/04/11 12:08:38.541742517,1744366118,541443000,,-108.25840820246924,15.71645232938485,0.0,0.0,0.0,-110.69443885541676
2025/04/11 12:08:38.624562873,1744366118,622035732,,-110.75644352512245,17.257747323246093,0.0,0.0,0.0,-110.69703208734315
2025/04/11 12:08:38.712607118,1744366118,712316840,,-113.06968230741897,18.717084796733346,0.0,0.0,0.0,-110.75869062335232
2025/04/11 12:08:38.783482218,1744366118,783149130,,-115.63512605744313,20.313015937517648,0.0,0.0,0.0,-110.78480205147096
2025/04/11 12:08:38.861557009,1744366118,859062352,,-117.65055618605155,21.57054055174079,0.0,0.0,0.0,-110.81324798606687
2025/04/11 12:08:38.939145704,1744366118,935440055,,-119.80729243325735,22.906911874248934,0.0,0.0,0.0,-110.8269498493663
2025/04/11 12:08:39.20954655,1744366119,20576722,,-121.89482681801903,22.72344151888015,0.0,0.0,0.0,-108.1825337955926
2025/04/11 12:08:39.125220319,1744366119,124869496,,-124.2938251826555,22.488660740100883,0.0,0.0,0.0,-105.10122525563895
2025/04/11 12:08:39.210599487,1744366119,210100940,,-127.1052116304382,21.475027050091683,0.0,0.0,0.0,-102.83733436780962
2025/04/11 12:08:39.307182523,1744366119,306280303,,-127.71674270395789,21.26764338799333,0.0,0.0,0.0,-101.24738637378948
2025/04/11 12:08:39.447696604,1744366119,447416122,,-126.45129367197553,21.009387111691268,0.0,0.0,0.0,-97.83899895350667
2025/04/11 12:08:39.527070797,1744366119,526808844,,-124.70321466280865,23.67539849017261,0.0,0.0,0.0,-91.9044600549415
2025/04/11 12:08:39.611746618,1744366119,611367917,,-123.71915640922687,23.48857113889632,0.0,0.0,0.0,-91.17922339843196
2025/04/11 12:08:39.689026385,1744366119,688814382,,-121.3222526827758,23.285280362017176,0.0,0.0,0.0,-83.1288183391201
2025/04/11 12:08:39.767635361,1744366119,765982872,,-120.40182947513696,24.618357372229227,0.0,0.0,0.0,-79.78063383366698
2025/04/11 12:08:39.838930134,1744366119,837304586,,-119.45678954748755,24.89907369534623,0.0,0.0,0.0,-75.980331000819
2025/04/11 12:08:39.910096688,1744366119,909812063,,-118.61875011565883,24.158424972853652,0.0,0.0,0.0,-74.42854882483763
2025/04/11 12:08:39.988173814,1744366119,983584026,,-117.76002561920197,24.288799202554884,0.0,0.0,0.0,-71.18427962668122
2025/04/11 12:08:40.54140852,1744366120,53851957,,-116.89040531282483,24.390165288951238,0.0,0.0,0.0,-68.02440492296618
2025/04/11 12:08:40.128579764,1744366120,127069731,,-116.06132112797468,24.42214338167217,0.0,0.0,0.0,-65.05052472172139
2025/04/11 12:08:40.264927580,1744366120,263882180,,-115.21670000956033,24.469004232368476,0.0,0.0,0.0,-62.17950841391753
2025/04/11 12:08:40.358543568,1744366120,348555727,,-113.63590905423132,25.5451757999397,0.0,0.0,0.0,-54.03867923028022
2025/04/11 12:08:40.432697973,1744366120,432270532,,-112.67100854081797,26.473854740126654,0.0,0.0,0.0,-51.517771502998016
2025/04/11 12:08:40.513815530,1744366120,513345025,,-110.08237979051003,25.632258151104267,0.0,0.0,0.0,-47.58106326449885
2025/04/11 12:08:40.595074288,1744366120,594744818,,-109.18862762001405,26.361188377525338,0.0,0.0,0.0,-45.50808893663011
2025/04/11 12:08:40.668469088,1744366120,668036502,,-108.30169702485117,25.411089006232515,0.0,0.0,0.0,-40.64391486618328
2025/04/11 12:08:40.743955354,1744366120,743695089,,-106.27418149474653,26.684743606015118,0.0,0.0,0.0,-38.7038302249148
2025/04/11 12:08:40.816898678,1744366120,816416175,,-105.47324795266107,27.38573201859292,0.0,0.0,0.0,-36.788363930362245
2025/04/11 12:08:40.894575930,1744366120,894265115,,-104.66111042920994,26.54668813366513,0.0,0.0,0.0,-32.381420278818766
2025/04/11 12:08:40.970197880,1744366120,969386977,,-102.11319964289575,26.34128267346341,0.0,0.0,0.0,-33.20401910157651
2025/04/11 12:08:41.44509385,1744366121,44019267,,-101.04609775470088,26.914831300469274,0.0,0.0,0.0,-31.326001469218035
2025/04/11 12:08:41.111989821,1744366121,111717910,,-99.92480624065288,25.961099794997352,0.0,0.0,0.0,-26.81987220528879
2025/04/11 12:08:41.193771731,1744366121,193475958,,-97.51360316233406,27.134304317294664,0.0,0.0,0.0,-24.981219218088953
2025/04/11 12:08:41.303908175,1744366121,303629433,,-96.22235165860587,26.211971178263,0.0,0.0,0.0,-20.42318147590651
2025/04/11 12:08:41.383294193,1744366121,382603688,,-93.18606946481933,26.902251109343453,0.0,0.0,0.0,-18.891468140955823
2025/04/11 12:08:41.463600739,1744366121,462833952,,-91.92616899550617,26.079266242901355,0.0,0.0,0.0,-14.786448990073858
2025/04/11 12:08:41.566188379,1744366121,565631005,,-89.51352942820063,26.557278480525724,0.0,0.0,0.0,-13.863919602982492
2025/04/11 12:08:41.649852803,1744366121,649324524,,-87.94443450278618,27.026229959541254,0.0,0.0,0.0,-11.520294571584166
2025/04/11 12:08:41.731388992,1744366121,731079097,,-85.01656823933828,25.824961478045225,0.0,0.0,0.0,-8.121836035808109
2025/04/11 12:08:41.809510897,1744366121,809225887,,-83.78907533185776,26.270183926646894,0.0,0.0,0.0,-6.447735254936006
2025/04/11 12:08:41.877156896,1744366121,876802750,,-82.62594760306676,25.132681209411942,0.0,0.0,0.0,-2.0662154091271034
2025/04/11 12:08:41.962075401,1744366121,961744709,,-80.27949285912302,25.499798164969405,0.0,0.0,0.0,-1.8139793647955216
2025/04/11 12:08:42.32981311,1744366122,32478980,,-79.04692683895979,25.95547229933935,0.0,0.0,0.0,-0.14859985193084668
2025/04/11 12:08:42.115328094,1744366122,112911070,,-78.00419900903708,24.884304908531732,0.0,0.0,0.0,3.8767328465217474
2025/04/11 12:08:42.185590242,1744366122,185190120,,-75.37331565248115,25.296076800226345,0.0,0.0,0.0,4.094292867125965
2025/04/11 12:08:42.266740003,1744366122,266393632,,-74.37128700872415,25.67677777308967,0.0,0.0,0.0,5.444419117247989
2025/04/11 12:08:42.416462122,1744366122,416060605,,-73.26024285121349,24.465867362429435,0.0,0.0,0.0,9.826926743944973
2025/04/11 12:08:42.514199622,1744366122,513840221,,-68.1045826141754,25.124388212312326,0.0,0.0,0.0,9.847826548832849
2025/04/11 12:08:42.611593308,1744366122,610323334,,-66.90091743035703,23.523804557363093,0.0,0.0,0.0,14.432195077665021
2025/04/11 12:08:42.681454457,1744366122,681068732,,-65.67552470833243,23.740803220884942,0.0,0.0,0.0,15.555833612887042
2025/04/11 12:08:42.755791641,1744366122,755472349,,-64.79040723623271,23.857273799982394,0.0,0.0,0.0,16.294692118357908
2025/04/11 12:08:42.835490085,1744366122,829407166,,-63.86332283616249,22.469558125420846,0.0,0.0,0.0,19.691036320698252
2025/04/11 12:08:42.912044095,1744366122,910482710,,-61.48424900521772,22.549857035674847,0.0,0.0,0.0,19.164282069625493
2025/04/11 12:08:42.980359775,1744366122,980021275,,-60.505751769082764,22.495098549069255,0.0,0.0,0.0,20.051727227215757
2025/04/11 12:08:43.62398098,1744366123,61525156,,-59.682707822013384,21.151613012393668,0.0,0.0,0.0,23.06631569231311
2025/04/11 12:08:43.144883855,1744366123,144555432,,-57.05262565064328,21.18984836934972,0.0,0.0,0.0,22.33208222667873
2025/04/11 12:08:43.232533819,1744366123,226273715,,-56.14232303400457,20.048717186286538,0.0,0.0,0.0,24.944094565126946
2025/04/11 12:08:43.303746627,1744366123,303467849,,-55.00248703861505,20.06490619051347,0.0,0.0,0.0,25.608653541621223
2025/04/11 12:08:43.383346049,1744366123,383007553,,-53.01177631409926,19.382043375486816,0.0,0.0,0.0,25.68727044580055
2025/04/11 12:08:43.511326065,1744366123,511028159,,-51.04101161437732,20.938059342643754,0.0,0.0,0.0,24.20267146619986
2025/04/11 12:08:43.591486009,1744366123,590987237,,-50.3823430956333,18.338504550418023,0.0,0.0,0.0,28.942424518791874
2025/04/11 12:08:43.663419970,1744366123,663098497,,-48.40448132892666,19.90472307460915,0.0,0.0,0.0,24.849452358529867
2025/04/11 12:08:43.738547237,1744366123,738331501,,-46.631756738822816,19.87912454213422,0.0,0.0,0.0,26.022757056430237
2025/04/11 12:08:43.808516830,1744366123,807403084,,-46.279182170454796,19.89418199969353,0.0,0.0,0.0,25.962958677564274
2025/04/11 12:08:43.890926218,1744366123,890605315,,-44.556656473103466,19.862752777068835,0.0,0.0,0.0,24.85751955362685
2025/04/11 12:08:43.964408367,1744366123,964142889,,-42.628459457189464,19.823454157741565,0.0,0.0,0.0,26.126467224105298
2025/04/11 12:08:44.39194880,1744366124,38564396,,-42.31617323294075,21.245349953103315,0.0,0.0,0.0,23.507702337268924
2025/04/11 12:08:44.106328260,1744366124,106031320,,-40.51677201817132,19.710904499002908,0.0,0.0,0.0,25.010390243186784
2025/04/11 12:08:44.192787720,1744366124,192513062,,-40.24355671999039,19.673607072070354,0.0,0.0,0.0,25.013851711519486
2025/04/11 12:08:44.250488804,1744366124,250206481,,-38.17405601066261,21.348667544363522,0.0,0.0,0.0,23.299028371253236
2025/04/11 12:08:44.331842617,1744366124,331498421,,-36.80247053002423,20.155795705995104,0.0,0.0,0.0,24.461654300216075
2025/04/11 12:08:44.405796364,1744366124,405380715,,-36.500221655930574,20.102672253608503,0.0,0.0,0.0,24.46309655695491
2025/04/11 12:08:44.491292636,1744366124,488710434,,-35.656958430449016,20.05789670332281,0.0,0.0,0.0,24.01132615619187
2025/04/11 12:08:44.614935664,1744366124,614476356,,-34.55431256723092,20.002537482724648,0.0,0.0,0.0,24.65700195888094
2025/04/11 12:08:44.688029621,1744366124,687435113,,-31.639249261228407,19.933557980474646,0.0,0.0,0.0,22.687447083866317
2025/04/11 12:08:44.760769601,1744366124,760474852,,-29.953494227484562,19.852810312969723,0.0,0.0,0.0,23.80213094534531
2025/04/11 12:08:44.843695921,1744366124,843091003,,-29.735578712012412,19.95665889214986,0.0,0.0,0.0,24.07587196805558
2025/04/11 12:08:44.910771834,1744366124,910079297,,-29.49034177377031,19.28335119439234,0.0,0.0,0.0,22.961616050472095
2025/04/11 12:08:44.993115809,1744366124,992703504,,-27.93660708350143,20.079002440723798,0.0,0.0,0.0,24.8909415783438
2025/04/11 12:08:45.75214557,1744366125,74727747,,-29.049990411292754,19.404192584880562,0.0,0.0,0.0,22.216248033223906
2025/04/11 12:08:45.145747313,1744366125,145495174,,-27.14940164857549,20.38622741087336,0.0,0.0,0.0,22.76306094401852
2025/04/11 12:08:45.213928254,1744366125,213604523,,-25.587682002362378,19.819456972406314,0.0,0.0,0.0,22.938472620081647
2025/04/11 12:08:45.292586148,1744366125,291331948,,-25.41337077478199,19.35154809382523,0.0,0.0,0.0,21.86765257620027
2025/04/11 12:08:45.365657262,1744366125,365327075,,-26.76418162443543,18.720592093951225,0.0,0.0,0.0,19.593965998290948
2025/04/11 12:08:45.446068419,1744366125,445531030,,-23.62399010800319,19.596695040968754,0.0,0.0,0.0,21.275212528731032
2025/04/11 12:08:45.533664753,1744366125,533478347,,-23.433883152541362,18.942628997174836,0.0,0.0,0.0,20.21054509293201
2025/04/11 12:08:45.636255849,1744366125,635937596,,-24.969477219213466,18.154571399380913,0.0,0.0,0.0,17.817243841206334
2025/04/11 12:08:45.714955329,1744366125,714556699,,-22.61316763261592,19.40801415608118,0.0,0.0,0.0,18.55489725105253
2025/04/11 12:08:45.774992246,1744366125,774698322,,-20.926361379336583,18.792487657166518,0.0,0.0,0.0,18.7833712527176
2025/04/11 12:08:45.848205968,1744366125,847538251,,-21.99978228840996,18.308508318202243,0.0,0.0,0.0,17.04323634297088
2025/04/11 12:08:45.923271484,1744366125,918497728,,-21.839666008324592,19.84638446158091,0.0,0.0,0.0,17.514172144907427
2025/04/11 12:08:45.995637428,1744366125,995343278,,-21.684376097237404,19.26887937484645,0.0,0.0,0.0,16.60413949565904
2025/04/11 12:08:46.68865087,1744366126,68582800,,-19.99416363344183,17.126559050796004,0.0,0.0,0.0,17.15400732133552
2025/04/11 12:08:46.149364356,1744366126,149028182,,-19.847790649780407,19.46525973347039,0.0,0.0,0.0,16.219160751395698
2025/04/11 12:08:46.224678880,1744366126,222963390,,-19.68799202478551,22.019988134249658,0.0,0.0,0.0,15.201298878599282
2025/04/11 12:08:46.297453169,1744366126,297195946,,-19.1744075329782,19.935088166573237,0.0,0.0,0.0,14.864384012729552
2025/04/11 12:08:46.380118869,1744366126,379824461,,-17.55433809116964,19.331929138860957,0.0,0.0,0.0,15.11692497754322
2025/04/11 12:08:46.459637329,1744366126,459318713,,-17.40784951235056,21.981347397857476,0.0,0.0,0.0,14.07184817731956
2025/04/11 12:08:46.534980713,1744366126,533352910,,-18.172523811840954,19.759993529843342,0.0,0.0,0.0,14.130471477135863
2025/04/11 12:08:46.648329366,1744366126,647905343,,-17.43774810390544,19.618055592633155,0.0,0.0,0.0,14.513782151827613
2025/04/11 12:08:46.714903023,1744366126,714604177,,-14.95331676230812,23.260262223140572,0.0,0.0,0.0,11.257717532792768
2025/04/11 12:08:46.786530025,1744366126,783989084,,-14.854270518729415,21.384257269842095,0.0,0.0,0.0,12.828881720021805
2025/04/11 12:08:46.863679268,1744366126,863420876,,-14.750467092657978,20.807378490376053,0.0,0.0,0.0,11.969834514728568
2025/04/11 12:08:46.934642776,1744366126,934349548,,-15.37774886996285,18.584881390207144,0.0,0.0,0.0,13.242219958958195
2025/04/11 12:08:47.14249816,1744366127,13890724,,-13.853691817504462,20.848103377185126,0.0,0.0,0.0,13.498447341253417
2025/04/11 12:08:47.162837491,1744366127,162396827,,-13.742400962700401,20.192028789195973,0.0,0.0,0.0,9.952735772845244
2025/04/11 12:08:47.241871609,1744366127,241560790,,-13.539301752877854,20.0681247556022,0.0,0.0,0.0,15.270060218163131
2025/04/11 12:08:47.324199898,1744366127,323830048,,-12.613249059668647,19.428016956706458,0.0,0.0,0.0,14.934934301156432
2025/04/11 12:08:47.395557820,1744366127,395218035,,-10.843354120648293,20.420349256693598,0.0,0.0,0.0,9.565345684052296
2025/04/11 12:08:47.479983666,1744366127,478679418,,-12.155007862851335,20.12786354917189,0.0,0.0,0.0,8.118628987631311
2025/04/11 12:08:47.547922763,1744366127,546276218,,-12.053341808282525,21.115573956368067,0.0,0.0,0.0,10.131636147292681
2025/04/11 12:08:47.613446924,1744366127,613068277,,-10.213455651056961,20.564387451184984,0.0,0.0,0.0,10.071016688690705
2025/04/11 12:08:47.725529495,1744366127,725147004,,-11.474398950664686,20.021468473568092,0.0,0.0,0.0,8.210403987376004
2025/04/11 12:08:47.804668052,1744366127,804377545,,-9.116569058912582,19.49259486675615,0.0,0.0,0.0,12.459392144796851
2025/04/11 12:08:47.880736358,1744366127,880481736,,-9.185438416465104,20.44085196863236,0.0,0.0,0.0,8.530868132098306
2025/04/11 12:08:47.956101303,1744366127,955666315,,-9.115902416676875,19.826823193313956,0.0,0.0,0.0,7.639571578176096
2025/04/11 12:08:48.28596591,1744366128,28010660,,-9.047517021920093,20.71623396751916,0.0,0.0,0.0,1.6880952886856804
2025/04/11 12:08:48.113201908,1744366128,112579563,,-7.531186736584317,20.114393509535105,0.0,0.0,0.0,7.245966569468408
2025/04/11 12:08:48.351368648,1744366128,350959278,,-7.467566108386649,19.944474691206608,0.0,0.0,0.0,-1.5568451682818178
2025/04/11 12:08:48.438354022,1744366128,435738139,,-7.289719344563757,24.20884212479588,0.0,0.0,0.0,-10.050620784834763
2025/04/11 12:08:48.515563522,1744366128,515348620,,-3.8392473539337786,23.050048705695588,0.0,0.0,0.0,-5.580755888551153
2025/04/11 12:08:48.589723564,1744366128,589352302,,-2.2335627057967997,23.848777081186597,0.0,0.0,0.0,-4.358592950471504
2025/04/11 12:08:48.660190602,1744366128,659620882,,0.7639064249909495,23.76152173307402,0.0,0.0,0.0,-2.9758025519408022
2025/04/11 12:08:48.913836892,1744366128,913448736,,3.529336777853807,24.088946144177044,0.0,0.0,0.0,-5.33511741964611
2025/04/11 12:08:49.105595343,1744366129,97382841,,11.996606646113584,30.34838206977483,0.0,0.0,0.0,-6.01620401534743
2025/04/11 12:08:49.216872310,1744366129,216418666,,18.775179793786627,35.105498836561125,0.0,0.0,0.0,-5.505945727787655
2025/04/11 12:08:49.299028528,1744366129,296283152,,22.572726927143947,37.853944060746954,0.0,0.0,0.0,-6.135912092282126
2025/04/11 12:08:49.386582073,1744366129,378331812,,25.195413080477913,40.100887851680724,0.0,0.0,0.0,-5.753251550628779
2025/04/11 12:08:49.470999640,1744366129,470624600,,27.682515038308367,40.415269522894334,0.0,0.0,0.0,-3.333138876293148
2025/04/11 12:08:49.543379409,1744366129,539378826,,27.24648494418817,39.715996961454366,0.0,0.0,0.0,-3.9804943588233925
2025/04/11 12:08:49.622418393,1744366129,621801671,,25.69242341680745,37.097126942428275,0.0,0.0,0.0,-5.744632617829719
2025/04/11 12:08:49.690578590,1744366129,690004366,,25.481286084354302,34.740228617428116,0.0,0.0,0.0,-7.670438602851696
2025/04/11 12:08:49.767296166,1744366129,766457325,,25.30529144472792,33.125827085043525,0.0,0.0,0.0,-5.143437580270245
2025/04/11 12:08:49.848703308,1744366129,848201627,,24.292739608825038,32.426221560319405,0.0,0.0,0.0,-4.952366509204275
2025/04/11 12:08:49.927203091,1744366129,923093817,,23.34841818583024,31.58903015954182,0.0,0.0,0.0,-4.47967841906603
2025/04/11 12:08:50.183624973,1744366130,181011599,,22.88186593383277,29.84712612321374,0.0,0.0,0.0,0.4331595341260055
2025/04/11 12:08:50.272690735,1744366130,272329621,,20.613633732098663,28.39166820208129,0.0,0.0,0.0,24.589815447198603
2025/04/11 12:08:50.353986087,1744366130,353089933,,19.973355780849353,27.474119775565654,0.0,0.0,0.0,32.1500468454803
2025/04/11 12:08:50.427773988,1744366130,426473574,,19.219421024609872,26.73708678785863,0.0,0.0,0.0,38.88531221215343
2025/04/11 12:08:50.548143448,1744366130,547845447,,18.59533259100761,26.1761721318298,0.0,0.0,0.0,45.12746150464044
2025/04/11 12:08:50.635481929,1744366130,635185012,,17.63272666996636,25.0789737632374,0.0,0.0,0.0,55.19977856657665
2025/04/11 12:08:50.726352402,1744366130,723688414,,16.939526578212444,24.42978398283833,0.0,0.0,0.0,62.42377414134049
2025/04/11 12:08:50.803329600,1744366130,803052340,,16.25090985328962,23.702172117454765,0.0,0.0,0.0,69.77534119036027
2025/04/11 12:08:50.889532265,1744366130,884547433,,15.647635137575854,23.085256866993433,0.0,0.0,0.0,76.25885998973189
2025/04/11 12:08:50.969620651,1744366130,966167799,,15.004790301774442,22.557674993521886,0.0,0.0,0.0,83.01391200892256
2025/04/11 12:08:51.46670571,1744366131,45843023,,14.409542562020704,21.907366766292327,0.0,0.0,0.0,89.56760469456998
2025/04/11 12:08:51.127436203,1744366131,126959047,,13.789214211748309,21.383745251652854,0.0,0.0,0.0,96.20353186967702
2025/04/11 12:08:51.285044489,1744366131,283502663,,13.178367692334106,20.77626629920637,0.0,0.0,0.0,102.56009309777723
2025/04/11 12:08:51.365293625,1744366131,364942767,,12.055101811056254,19.74141261633642,0.0,0.0,0.0,115.20187625961148
2025/04/11 12:08:51.441093402,1744366131,440524155,,11.504263788106279,19.26941320028604,0.0,0.0,0.0,121.66401759318333
2025/04/11 12:08:51.522746275,1744366131,522446423,,10.987885688700146,18.88017702598553,0.0,0.0,0.0,125.42481479431007
2025/04/11 12:08:51.601358876,1744366131,601142354,,10.411095474696886,18.51723421149022,0.0,0.0,0.0,132.02443715981286
2025/04/11 12:08:51.719461082,1744366131,718941539,,9.889928751615734,18.371413393754594,0.0,0.0,0.0,136.27497436661292
2025/04/11 12:08:51.798217984,1744366131,797521146,,9.137475815189646,18.090251506544604,0.0,0.0,0.0,146.2058334360775
2025/04/11 12:08:51.882198305,1744366131,878455860,,8.687485712344944,17.741255640466065,0.0,0.0,0.0,152.4539295619621
2025/04/11 12:08:51.957832075,1744366131,957539756,,8.248020475927554,17.38322765570858,0.0,0.0,0.0,158.88740200307268
2025/04/11 12:08:52.39385978,1744366132,38798674,,7.866243441989283,17.00500601645311,0.0,0.0,0.0,164.86251939236328
2025/04/11 12:08:52.134191845,1744366132,132826365,,6.7342678677133065,16.660142595040668,0.0,0.0,0.0,170.51814042686374
2025/04/11 12:08:52.244533150,1744366132,243845537,,6.340376157674662,16.186703655368618,0.0,0.0,0.0,177.51092665897318
2025/04/11 12:08:52.326383589,1744366132,325326598,,4.518325153238514,15.728264638598205,0.0,0.0,0.0,184.81199046892098
2025/04/11 12:08:52.412651810,1744366132,410175535,,4.240748071029017,15.267282359348442,0.0,0.0,0.0,190.63794553796905
2025/04/11 12:08:52.495578991,1744366132,495339395,,2.897942980789587,14.986457358500573,0.0,0.0,0.0,196.1694839283854
2025/04/11 12:08:52.581956144,1744366132,579274795,,1.8684742206724678,14.319989857609528,0.0,0.0,0.0,201.11461236926323
2025/04/11 12:08:52.660492625,1744366132,659767638,,-0.0506667699271901,14.19797900347416,0.0,0.0,0.0,206.31884397592398
2025/04/11 12:08:52.742174121,1744366132,740333364,,1.1137606053019695,12.497338413484002,0.0,0.0,0.0,208.1298545688694
2025/04/11 12:08:52.864861969,1744366132,860129338,,0.8317841060104527,12.397104747962942,0.0,0.0,0.0,214.14610024047033
2025/04/11 12:08:52.938553069,1744366132,937890594,,0.5811413408578971,12.248059136921597,0.0,0.0,0.0,219.37896970537076
2025/04/11 12:08:53.17420580,1744366133,17199275,,-0.4893979373492314,12.15387009553507,0.0,0.0,0.0,224.39051716566817
2025/04/11 12:08:53.107321040,1744366133,107090485,,0.7456256748745318,12.056115032040893,0.0,0.0,0.0,228.89643895476433
2025/04/11 12:08:53.198255366,1744366133,195777023,,-1.1667672732235914,10.192650776726055,0.0,0.0,0.0,230.83332702604622
2025/04/11 12:08:53.285387724,1744366133,283974993,,0.47419266453558606,10.101768034303618,0.0,0.0,0.0,235.95550164923176
2025/04/11 12:08:53.361950532,1744366133,361154343,,0.3350088970369427,10.013017886202732,0.0,0.0,0.0,239.5580558305408
2025/04/11 12:08:53.440358134,1744366133,440047819,,0.2175100985709193,9.93570885804941,0.0,0.0,0.0,245.14637584532397
2025/04/11 12:08:53.524170123,1744366133,522647440,,0.1015724366319759,9.857535136320863,0.0,0.0,0.0,248.29219930889377
2025/04/11 12:08:53.606046708,1744366133,605803733,,-0.016898054296426324,9.775872058637006,0.0,0.0,0.0,254.20840491635997
2025/04/11 12:08:53.686315588,1744366133,686044859,,-0.13176545162550468,8.046293806417836,0.0,0.0,0.0,254.46735474220452
2025/04/11 12:08:53.774263777,1744366133,770651612,,1.1366757630432218,7.981616575605017,0.0,0.0,0.0,258.6970301466794
2025/04/11 12:08:53.853575469,1744366133,853172600,,-0.6846431985579855,7.913536836520279,0.0,0.0,0.0,263.33128300676003
2025/04/11 12:08:53.978921684,1744366133,976792137,,0.844263933918846,7.8486229913924035,0.0,0.0,0.0,267.75052410231564
2025/04/11 12:08:54.63164032,1744366134,60384019,,-1.7974513548158626,10.220460083907668,0.0,0.0,0.0,269.93016599782385
2025/04/11 12:08:54.137724211,1744366134,136874043,,-0.22439550233345074,8.467674864070375,0.0,0.0,0.0,271.37761196900874
2025/04/11 12:08:54.230631381,1744366134,228991826,,0.9228754348371027,8.403575536981975,0.0,0.0,0.0,275.1692163241986
2025/04/11 12:08:54.310390990,1744366134,309316115,,-0.39412976803396305,8.325875746545464,0.0,0.0,0.0,280.5384260369017
2025/04/11 12:08:54.390726237,1744366134,390255493,,-0.49144509666140834,8.259290838076979,0.0,0.0,0.0,283.42359643803684
2025/04/11 12:08:54.472837534,1744366134,472602722,,0.2089156871465363,7.587756276497956,0.0,0.0,0.0,285.8926515786931
2025/04/11 12:08:54.554263742,1744366134,553015233,,-1.5186468216153628,7.52581381031456,0.0,0.0,0.0,290.0870432717551
2025/04/11 12:08:54.636420884,1744366134,636152580,,-0.006492982623974797,6.91974953514611,0.0,0.0,0.0,291.6088081388093
2025/04/11 12:08:54.713393895,1744366134,711690358,,-0.1081386421013022,6.862138629077478,0.0,0.0,0.0,294.507935456519
2025/04/11 12:08:54.791799463,1744366134,789882137,,-0.20191347977073093,8.345496658591827,0.0,0.0,0.0,296.8643308228196
2025/04/11 12:08:54.863263713,1744366134,860137254,,1.2293441359510382,6.757584536039445,0.0,0.0,0.0,297.95998594996206
2025/04/11 12:08:54.940353738,1744366134,940106737,,0.6269592921350124,6.710257322393375,0.0,0.0,0.0,300.75685115666516
2025/04/11 12:08:55.70539712,1744366135,60308556,,-0.4530609344406571,6.656592113434584,0.0,0.0,0.0,305.2252489251339
2025/04/11 12:08:55.142054810,1744366135,141698491,,0.5909597357123246,6.575459628028739,0.0,0.0,0.0,312.2127076019863
2025/04/11 12:08:55.232211480,1744366135,230939560,,0.48846443267392203,7.425784710591628,0.0,0.0,0.0,310.7212017555787
2025/04/11 12:08:55.311039035,1744366135,310546232,,-1.3689582756662233,7.358228245822204,0.0,0.0,0.0,315.20542146659596
2025/04/11 12:08:55.392015887,1744366135,389717674,,0.09372030274651166,6.170232651228574,0.0,0.0,0.0,316.9206403007945
2025/04/11 12:08:55.473303811,1744366135,471794615,,-0.002834955484544821,6.121440593388584,0.0,0.0,0.0,321.97781385265097
2025/04/11 12:08:55.555416405,1744366135,553444316,,-0.10250537129785897,6.0711955860384705,0.0,0.0,0.0,324.57228828016474
2025/04/11 12:08:55.643818082,1744366135,643501145,,-0.20071462339435442,7.648722727022999,0.0,0.0,0.0,324.2086674455354
2025/04/11 12:08:55.729122802,1744366135,727935609,,-0.30846736125423746,5.790782848611528,0.0,0.0,0.0,326.67122766129705
2025/04/11 12:08:55.816999041,1744366135,816374711,,-0.22257673475996143,5.7407105660305575,0.0,0.0,0.0,329.50856367422193
2025/04/11 12:08:55.902205968,1744366135,900137108,,1.4001261800709344,5.690935615761617,0.0,0.0,0.0,333.5613480359568
2025/04/11 12:08:55.986051425,1744366135,985819407,,-0.4257569161085044,6.360186419093338,0.0,0.0,0.0,336.2425590965129
2025/04/11 12:08:56.87789650,1744366136,87392610,,1.1276494535944224,6.292376473429357,0.0,0.0,0.0,340.03752118910313
2025/04/11 12:08:56.194887447,1744366136,193570030,,-1.0440562598108443,4.291186792061012,0.0,0.0,0.0,340.8621488672068
2025/04/11 12:08:56.356872096,1744366136,356382978,,0.9345061627403766,6.346190752299719,0.0,0.0,0.0,341.88356737475004
2025/04/11 12:08:56.441972976,1744366136,441569050,,0.7244478265276086,6.242846880013303,0.0,0.0,0.0,346.68874332009995
2025/04/11 12:08:56.533254365,1744366136,529979579,,0.6078604874324256,6.024514152999416,0.0,0.0,0.0,351.59099773291314
2025/04/11 12:08:56.606401086,1744366136,606111626,,0.49113739491388486,4.214592727242632,0.0,0.0,0.0,350.9414370073437
2025/04/11 12:08:56.684349435,1744366136,684133381,,0.3909634874296657,4.984840702141213,0.0,0.0,0.0,354.0734850940024
2025/04/11 12:08:56.765273788,1744366136,765004628,,-1.241346249407961,4.945935497407135,0.0,0.0,0.0,357.4956777807232
2025/04/11 12:08:56.832031078,1744366136,831760216,,-1.470702097939423,5.183646576247753,0.0,0.0,0.0,353.57240942454104
2025/04/11 12:08:56.907270081,1744366136,907022791,,-1.5294997167832705,5.156502908731085,0.0,0.0,0.0,349.4467870336392
2025/04/11 12:08:56.985161869,1744366136,984568201,,-1.5922579013045493,5.125943128704932,0.0,0.0,0.0,340.432902152327
2025/04/11 12:08:57.56956312,1744366137,56651044,,-1.6623923475475948,5.084690479352389,0.0,0.0,0.0,335.4182784016904
2025/04/11 12:08:57.132706952,1744366137,132374109,,-1.726161817860664,5.044770549938676,0.0,0.0,0.0,330.65032770948085
2025/04/11 12:08:57.224594318,1744366137,222542678,,-1.7939283645840618,5.000204262546475,0.0,0.0,0.0,325.41268213020976
2025/04/11 12:08:57.297415205,1744366137,296297491,,-1.8736239566827209,4.9453185916549955,0.0,0.0,0.0,319.07051634205067
2025/04/11 12:08:57.404321587,1744366137,403190075,,-1.9343272043198212,4.9014804990768255,0.0,0.0,0.0,314.1032046218944
2025/04/11 12:08:57.477661956,1744366137,476714795,,-2.0248782890023094,4.833997202411695,0.0,0.0,0.0,306.5734201725021
2025/04/11 12:08:57.541368645,1744366137,541060832,,-2.0867154516537596,4.785958101785354,0.0,0.0,0.0,301.3300509077809
2025/04/11 12:08:57.612458039,1744366137,612107560,,-2.1401096986455173,4.743464104881369,0.0,0.0,0.0,296.761581563378
2025/04/11 12:08:57.684629733,1744366137,683987419,,-2.198627949329783,4.6960237549505734,0.0,0.0,0.0,291.72511964507424
2025/04/11 12:08:57.758202367,1744366137,757960919,,-2.2579100812184976,4.64708146380589,0.0,0.0,0.0,286.5974533814311
2025/04/11 12:08:57.826101662,1744366137,825694623,,-2.31816776312273,5.430692452602457,0.0,0.0,0.0,279.8728515935421
2025/04/11 12:08:57.902946393,1744366137,901555416,,-2.3682977266385805,5.393755803310384,0.0,0.0,0.0,271.07748635968153
2025/04/11 12:08:57.962658869,1744366137,962273544,,-2.428046160104614,5.19429097538179,0.0,0.0,0.0,262.20794540257845
2025/04/11 12:08:58.35189909,1744366138,34650679,,-2.4135228768926,5.511488529413043,0.0,0.0,0.0,260.01267598362267
2025/04/11 12:08:58.110956696,1744366138,110537631,,-2.480670815862176,5.534482422432859,0.0,0.0,0.0,254.5003227651298
2025/04/11 12:08:58.193289758,1744366138,192915803,,-2.5498447985102644,5.538747114225458,0.0,0.0,0.0,248.8450196397046
2025/04/11 12:08:58.266925023,1744366138,266144586,,-2.6183883226193743,5.493238393159984,0.0,0.0,0.0,239.2399728953277
2025/04/11 12:08:58.373324889,1744366138,364085991,,-2.6831161406496875,5.481168994899605,0.0,0.0,0.0,233.92157749613045
2025/04/11 12:08:58.440230031,1744366138,440025226,,-2.7685871003072364,5.448926366957792,0.0,0.0,0.0,226.90915919127144
2025/04/11 12:08:58.509994580,1744366138,509739256,,-2.8265155855625608,5.40830375868866,0.0,0.0,0.0,218.2795811277437
2025/04/11 12:08:58.585056735,1744366138,584725113,,-2.884305434014962,5.376442681394792,0.0,0.0,0.0,213.44839603759903
2025/04/11 12:08:58.654874501,1744366138,654611775,,-2.945898658159166,5.335152238966742,0.0,0.0,0.0,208.31076000489864
2025/04/11 12:08:58.721645865,1744366138,720589243,,-3.0018193503621617,5.292310209307459,0.0,0.0,0.0,203.64742492904776
2025/04/11 12:08:58.792860573,1744366138,790934841,,-3.0546933513720447,5.2485591103054645,0.0,0.0,0.0,199.23167757904162
2025/04/11 12:08:58.862614426,1744366138,862168508,,-3.107085435544505,5.203034161678559,0.0,0.0,0.0,194.84539494259207
2025/04/11 12:08:58.939665104,1744366138,939456493,,-3.161341510934278,5.154294749431656,0.0,0.0,0.0,190.2886028007272
2025/04/11 12:08:59.8795962,1744366139,8545300,,-3.2179377932996474,5.10224072914707,0.0,0.0,0.0,185.51698819691728
2025/04/11 12:08:59.89436030,1744366139,89095152,,-3.268471788676841,5.054997527997216,0.0,0.0,0.0,181.23765498459292
2025/04/11 12:08:59.162544830,1744366139,162176157,,-3.3263002173317133,5.000429675049432,0.0,0.0,0.0,176.32018591141923
2025/04/11 12:08:59.246216790,1744366139,245802459,,-3.377940888861751,4.951329174536909,0.0,0.0,0.0,171.90737688018066
2025/04/11 12:08:59.359915165,1744366139,359274077,,-3.435998710491944,4.895866508534908,0.0,0.0,0.0,166.92426909164084
2025/04/11 12:08:59.437579925,1744366139,436948020,,-3.5137221825903637,4.821275382071946,0.0,0.0,0.0,160.2200490098804
2025/04/11 12:08:59.514160848,1744366139,513907601,,-3.565453092796858,4.771328577296643,0.0,0.0,0.0,155.72812105536423
2025/04/11 12:08:59.593063625,1744366139,590067965,,-3.615560276059881,4.722766355403408,0.0,0.0,0.0,151.35799247556955
2025/04/11 12:08:59.667741537,1744366139,667404430,,-3.6666894381541937,4.673000903723306,0.0,0.0,0.0,146.8797206723838
2025/04/11 12:08:59.766719115,1744366139,766424211,,-3.7297596314096566,4.611299962005333,0.0,0.0,0.0,141.33140562298962
2025/04/11 12:08:59.849031731,1744366139,848479855,,-3.746600765856421,4.577006536491879,0.0,0.0,0.0,140.24468589577037
2025/04/11 12:08:59.930541578,1744366139,929688272,,-3.794367759325901,4.539250497145005,0.0,0.0,0.0,131.41391960265
2025/04/11 12:09:00.6342398,1744366140,5900188,,-3.8519825501015603,4.434339546484466,0.0,0.0,0.0,127.68763423659169
2025/04/11 12:09:00.83135459,1744366140,82287944,,-3.8598428517381294,4.400763541386354,0.0,0.0,0.0,126.69118546277056
2025/04/11 12:09:00.154273245,1744366140,154028580,,-3.909319681725769,4.366911909621564,0.0,0.0,0.0,118.51741614331543
2025/04/11 12:09:00.245197808,1744366140,244840080,,-3.9648340789117853,4.265304208559456,0.0,0.0,0.0,115.59562457007465
2025/04/11 12:09:00.317178573,1744366140,316797827,,-4.029070100096689,4.2175566084799385,0.0,0.0,0.0,111.48406344448728
2025/04/11 12:09:00.440648856,1744366140,440401276,,-4.076888082319577,5.619540255416268,0.0,0.0,0.0,107.33570115351442
2025/04/11 12:09:00.517593260,1744366140,517170513,,-4.026580266431608,5.550196483687401,0.0,0.0,0.0,93.24202200105144
2025/04/11 12:09:00.603504812,1744366140,599729599,,-4.071279016681366,5.50735059032678,0.0,0.0,0.0,84.59449377355793
2025/04/11 12:09:00.676381137,1744366140,675887200,,-4.0370325680760075,6.868870414673324,0.0,0.0,0.0,81.25463318239159
2025/04/11 12:09:00.748288607,1744366140,747932156,,-4.007026326822093,6.8178158394800334,0.0,0.0,0.0,80.65068806053404
2025/04/11 12:09:00.839090108,1744366140,826528706,,-3.977997171743155,6.768423742408174,0.0,0.0,0.0,80.06640906160155
2025/04/11 12:09:00.909888713,1744366140,909529103,,-4.381537543673581,8.11897670677763,0.0,0.0,0.0,74.17517933025147
2025/04/11 12:09:00.975298852,1744366140,975072117,,-4.4802407855467195,7.176155711572505,0.0,0.0,0.0,71.37057129116013
2025/04/11 12:09:01.59246362,1744366141,54264795,,-4.450925855556299,7.129200980263477,0.0,0.0,0.0,70.90358226067625
2025/04/11 12:09:01.138253649,1744366141,137431020,,-4.41523984897843,7.07204147652584,0.0,0.0,0.0,70.33510150295027
2025/04/11 12:09:01.213345128,1744366141,213007555,,-4.378758652662121,7.013608290042924,0.0,0.0,0.0,61.20385337759842
2025/04/11 12:09:01.291072997,1744366141,290806832,,-4.345595561661469,6.96048982693145,0.0,0.0,0.0,55.314570729803165
2025/04/11 12:09:01.366130440,1744366141,363144101,,-4.4559775606263585,6.092550392346695,0.0,0.0,0.0,53.2388330648396
2025/04/11 12:09:01.432664923,1744366141,432316231,,-4.423578131192798,6.048251435760491,0.0,0.0,0.0,52.851733311409305
2025/04/11 12:09:01.543265664,1744366141,542897924,,-4.521528236165793,5.545007219340533,0.0,0.0,0.0,50.864219505985034
2025/04/11 12:09:01.626437458,1744366141,626113243,,-4.610829473113306,5.483626296739743,0.0,0.0,0.0,40.06629306529217
2025/04/11 12:09:01.698411389,1744366141,698179798,,-4.674965660943606,5.438399987194089,0.0,0.0,0.0,32.13070298201621
2025/04/11 12:09:01.772945166,1744366141,772621055,,-4.723623466476987,5.3992490682112475,0.0,0.0,0.0,25.22808584976857
2025/04/11 12:09:01.848851436,1744366141,848566697,,-4.7944794665895785,5.209335349776765,0.0,0.0,0.0,24.247495889517985
2025/04/11 12:09:01.924323474,1744366141,924016261,,-4.808026596322335,5.169850853635154,0.0,0.0,0.0,16.968698595851116
2025/04/11 12:09:01.999200954,1744366141,998897952,,-4.836502970661805,5.130834990459604,0.0,0.0,0.0,9.854440913723415
2025/04/11 12:09:02.80657765,1744366142,78221643,,-4.800250738517093,5.092376579020879,0.0,0.0,0.0,9.780576495190509
2025/04/11 12:09:02.147287204,1744366142,146972771,,-4.762115087159067,5.051920130310165,0.0,0.0,0.0,1.4818931866368459
2025/04/11 12:09:02.228402834,1744366142,226529418,,-4.837412573776582,5.017337341179612,0.0,0.0,0.0,-4.465216676236601
2025/04/11 12:09:02.297110372,1744366142,296812641,,-4.802391375285779,4.977164468653243,0.0,0.0,0.0,-11.108835305071182
2025/04/11 12:09:02.379951392,1744366142,379625466,,-3.796757719793618,4.942383801687711,0.0,0.0,0.0,-17.484779418603203
2025/04/11 12:09:02.449471580,1744366142,449153949,,-3.9203649725350544,4.901440050646912,0.0,0.0,0.0,-24.15220334967016
2025/04/11 12:09:02.553704588,1744366142,552907940,,-3.6297721562416427,4.867394689638388,0.0,0.0,0.0,-29.441632133635252
2025/04/11 12:09:02.628437660,1744366142,628144652,,-3.074313026203754,4.816877138833547,0.0,0.0,0.0,-39.46178218087641
2025/04/11 12:09:02.704059500,1744366142,703644061,,-3.029360166463597,4.780662222825697,0.0,0.0,0.0,-44.53376198545921
2025/04/11 12:09:02.779405717,1744366142,779107220,,-1.4912834979714091,4.744266398878068,0.0,0.0,0.0,-42.98270947687445
2025/04/11 12:09:02.851954253,1744366142,850519529,,-1.5951480822803603,4.737780519113798,0.0,0.0,0.0,-43.52085333278097
2025/04/11 12:09:02.933553951,1744366142,933128249,,-1.5533929456446316,4.7038301288930455,0.0,0.0,0.0,-50.49408782321398
2025/04/11 12:09:03.6551943,1744366143,6213349,,-1.717318297296245,6.326048499886966,0.0,0.0,0.0,-53.20470323257375
2025/04/11 12:09:03.87754269,1744366143,87312381,,-0.335114032462684,5.237943054766191,0.0,0.0,0.0,-54.41715989888846
2025/04/11 12:09:03.179300402,1744366143,177424193,,-0.4429331306373996,6.84964565016827,0.0,0.0,0.0,-57.80956344515943
2025/04/11 12:09:03.261501838,1744366143,258638939,,-0.5088270659252316,5.010821077953324,0.0,0.0,0.0,-61.4824724658961
2025/04/11 12:09:03.371772866,1744366143,370452952,,-0.1845967652363356,4.970865005833531,0.0,0.0,0.0,-68.98752628950821
2025/04/11 12:09:03.627313019,1744366143,627060748,,0.3924194766522362,4.915233040616229,0.0,0.0,0.0,-79.33655922291385
2025/04/11 12:09:03.883207538,1744366143,882880832,,0.42617925271844115,4.789224107635917,0.0,0.0,0.0,-101.85233164593656
2025/04/11 12:09:04.173498619,1744366144,166946398,,0.8006338529905861,3.558882805131603,0.0,0.0,0.0,-121.3227744128765
2025/04/11 12:09:04.255509461,1744366144,253953474,,1.2082845313335042,3.4815167572232184,0.0,0.0,0.0,-140.24108406494977
2025/04/11 12:09:04.493513183,1744366144,493251128,,1.3241269103174318,3.576593990164895,0.0,0.0,0.0,-146.37020779369456
2025/04/11 12:09:04.565022942,1744366144,564705679,,1.5078286356205979,3.634854837510389,0.0,0.0,0.0,-161.21035488319723
2025/04/11 12:09:04.645345501,1744366144,644886809,,1.608146404854324,3.700069811220388,0.0,0.0,0.0,-165.9039792711567
2025/04/11 12:09:04.714725512,1744366144,713424802,,1.7133106985093036,3.7685315900237555,0.0,0.0,0.0,-171.21385703763102
2025/04/11 12:09:04.785247907,1744366144,784858054,,1.794761883501451,3.8564755337206265,0.0,0.0,0.0,-173.6882067416276
2025/04/11 12:09:04.868728080,1744366144,868398387,,1.8746190710430568,3.974603095595725,0.0,0.0,0.0,-176.42112916743352
