time,header_stamp_secs,header_stamp_nsecs,header_frame_id,status_status,status_service,latitude,longitude,altitude,position_covariance_0,position_covariance_1,position_covariance_2,position_covariance_3,position_covariance_4,position_covariance_5,position_covariance_6,position_covariance_7,position_covariance_8,position_covariance_type
2025/05/06 15:27:58.922936968,1746538078,859420334,mA1/gps,0,1,63.434657830969755,10.392567830314025,0.0,1.4400000000000002e-10,0.0,0.0,0.0,1.4400000000000002e-10,0.0,0.0,0.0,1.0,2
2025/05/06 15:27:58.922971274,1746538078,911173806,mA1/gps,0,1,63.434657830538804,10.392567829537233,0.0,1.4400000000000002e-10,0.0,0.0,0.0,1.4400000000000002e-10,0.0,0.0,0.0,1.0,2
2025/05/06 15:27:58.960507444,1746538078,957429751,mA1/gps,0,1,63.43465783004155,10.392567829626184,0.0,1.4400000000000002e-10,0.0,0.0,0.0,1.4400000000000002e-10,0.0,0.0,0.0,1.0,2
2025/05/06 15:27:59.42265011,1746538079,32216867,mA1/gps,0,1,63.43465783063605,10.392567829658894,0.0,1.4400000000000002e-10,0.0,0.0,0.0,1.4400000000000002e-10,0.0,0.0,0.0,1.0,2
2025/05/06 15:27:59.59653618,1746538079,57402489,mA1/gps,0,1,63.43465783094596,10.392567830309964,0.0,1.4400000000000002e-10,0.0,0.0,0.0,1.4400000000000002e-10,0.0,0.0,0.0,1.0,2
2025/05/06 15:27:59.117457951,1746538079,112419676,mA1/gps,0,1,63.43465783055373,10.392567829865332,0.0,1.4400000000000002e-10,0.0,0.0,0.0,1.4400000000000002e-10,0.0,0.0,0.0,1.0,2
2025/05/06 15:27:59.157690987,1746538079,154155427,mA1/gps,0,1,63.434657829781116,10.39256783020284,0.0,1.4400000000000002e-10,0.0,0.0,0.0,1.4400000000000002e-10,0.0,0.0,0.0,1.0,2
2025/05/06 15:27:59.211686508,1746538079,206947798,mA1/gps,0,1,63.43465783044408,10.392567830020091,0.0,1.4400000000000002e-10,0.0,0.0,0.0,1.4400000000000002e-10,0.0,0.0,0.0,1.0,2
2025/05/06 15:27:59.264648072,1746538079,262385332,mA1/gps,0,1,63.434657830778534,10.392567830349408,0.0,1.4400000000000002e-10,0.0,0.0,0.0,1.4400000000000002e-10,0.0,0.0,0.0,1.0,2
2025/05/06 15:27:59.322137436,1746538079,313950203,mA1/gps,0,1,63.43465783027855,10.392567829794977,0.0,1.4400000000000002e-10,0.0,0.0,0.0,1.4400000000000002e-10,0.0,0.0,0.0,1.0,2
2025/05/06 15:27:59.371415176,1746538079,364497853,mA1/gps,0,1,63.43465782999585,10.392567829685717,0.0,1.4400000000000002e-10,0.0,0.0,0.0,1.4400000000000002e-10,0.0,0.0,0.0,1.0,2
2025/05/06 15:27:59.410327915,1746538079,408562257,mA1/gps,0,1,63.434657830512,10.392567829884726,0.0,1.4400000000000002e-10,0.0,0.0,0.0,1.4400000000000002e-10,0.0,0.0,0.0,1.0,2
2025/05/06 15:27:59.462396122,1746538079,461110559,mA1/gps,0,1,63.43465783124554,10.392567830381916,0.0,1.4400000000000002e-10,0.0,0.0,0.0,1.4400000000000002e-10,0.0,0.0,0.0,1.0,2
2025/05/06 15:27:59.513610417,1746538079,507195959,mA1/gps,0,1,63.43465783045191,10.392567830183069,0.0,1.4400000000000002e-10,0.0,0.0,0.0,1.4400000000000002e-10,0.0,0.0,0.0,1.0,2
2025/05/06 15:27:59.566863622,1746538079,562761476,mA1/gps,0,1,63.43465782993089,10.392567830535661,0.0,1.4400000000000002e-10,0.0,0.0,0.0,1.4400000000000002e-10,0.0,0.0,0.0,1.0,2
2025/05/06 15:27:59.612440798,1746538079,609744524,mA1/gps,0,1,63.43465783042887,10.392567829963907,0.0,1.4400000000000002e-10,0.0,0.0,0.0,1.4400000000000002e-10,0.0,0.0,0.0,1.0,2
2025/05/06 15:27:59.669818337,1746538079,654709503,mA1/gps,0,1,63.434657831124696,10.392567830096263,0.0,1.4400000000000002e-10,0.0,0.0,0.0,1.4400000000000002e-10,0.0,0.0,0.0,1.0,2
2025/05/06 15:27:59.714716633,1746538079,709396657,mA1/gps,0,1,63.43465783042086,10.392567830009943,0.0,1.4400000000000002e-10,0.0,0.0,0.0,1.4400000000000002e-10,0.0,0.0,0.0,1.0,2
2025/05/06 15:27:59.780373004,1746538079,763230154,mA1/gps,0,1,63.43465782998151,10.392567829620067,0.0,1.4400000000000002e-10,0.0,0.0,0.0,1.4400000000000002e-10,0.0,0.0,0.0,1.0,2
2025/05/06 15:27:59.815570625,1746538079,805999294,mA1/gps,0,1,63.434657830711544,10.392567830396128,0.0,1.4400000000000002e-10,0.0,0.0,0.0,1.4400000000000002e-10,0.0,0.0,0.0,1.0,2
2025/05/06 15:27:59.873335849,1746538079,865979760,mA1/gps,0,1,63.43465783106498,10.392567830157477,0.0,1.4400000000000002e-10,0.0,0.0,0.0,1.4400000000000002e-10,0.0,0.0,0.0,1.0,2
2025/05/06 15:27:59.916438103,1746538079,913377421,mA1/gps,0,1,63.434657830447435,10.392567830085127,0.0,1.4400000000000002e-10,0.0,0.0,0.0,1.4400000000000002e-10,0.0,0.0,0.0,1.0,2
2025/05/06 15:27:59.959867419,1746538079,955984528,mA1/gps,0,1,63.434657829945266,10.39256782944373,0.0,1.4400000000000002e-10,0.0,0.0,0.0,1.4400000000000002e-10,0.0,0.0,0.0,1.0,2
2025/05/06 15:28:00.17560278,1746538080,14170384,mA1/gps,0,1,63.43465783043086,10.39256782964446,0.0,1.4400000000000002e-10,0.0,0.0,0.0,1.4400000000000002e-10,0.0,0.0,0.0,1.0,2
2025/05/06 15:28:00.82887966,1746538080,58809088,mA1/gps,0,1,63.43465783110994,10.392567829878898,0.0,1.4400000000000002e-10,0.0,0.0,0.0,1.4400000000000002e-10,0.0,0.0,0.0,1.0,2
2025/05/06 15:28:00.116378260,1746538080,111857640,mA1/gps,0,1,63.434657830324504,10.392567829500846,0.0,1.4400000000000002e-10,0.0,0.0,0.0,1.4400000000000002e-10,0.0,0.0,0.0,1.0,2
2025/05/06 15:28:00.160072981,1746538080,154352159,mA1/gps,0,1,63.43465783006259,10.392567829609028,0.0,1.4400000000000002e-10,0.0,0.0,0.0,1.4400000000000002e-10,0.0,0.0,0.0,1.0,2
2025/05/06 15:28:00.213445195,1746538080,210784331,mA1/gps,0,1,63.43465783054303,10.392567829497949,0.0,1.4400000000000002e-10,0.0,0.0,0.0,1.4400000000000002e-10,0.0,0.0,0.0,1.0,2
2025/05/06 15:28:00.260373141,1746538080,258078616,mA1/gps,0,1,63.43465783093122,10.392567830164436,0.0,1.4400000000000002e-10,0.0,0.0,0.0,1.4400000000000002e-10,0.0,0.0,0.0,1.0,2
2025/05/06 15:28:00.318663309,1746538080,310179179,mA1/gps,0,1,63.43465783043378,10.392567830248558,0.0,1.4400000000000002e-10,0.0,0.0,0.0,1.4400000000000002e-10,0.0,0.0,0.0,1.0,2
2025/05/06 15:28:00.374477622,1746538080,361166337,mA1/gps,0,1,63.43465782999209,10.392567829532767,0.0,1.4400000000000002e-10,0.0,0.0,0.0,1.4400000000000002e-10,0.0,0.0,0.0,1.0,2
2025/05/06 15:28:00.436230400,1746538080,434487039,mA1/gps,0,1,63.43465783050407,10.392567829350003,0.0,1.4400000000000002e-10,0.0,0.0,0.0,1.4400000000000002e-10,0.0,0.0,0.0,1.0,2
2025/05/06 15:28:00.466307129,1746538080,459597549,mA1/gps,0,1,63.43465783083848,10.392567830354432,0.0,1.4400000000000002e-10,0.0,0.0,0.0,1.4400000000000002e-10,0.0,0.0,0.0,1.0,2
2025/05/06 15:28:00.515656502,1746538080,509652243,mA1/gps,0,1,63.43465783056387,10.392567829595013,0.0,1.4400000000000002e-10,0.0,0.0,0.0,1.4400000000000002e-10,0.0,0.0,0.0,1.0,2
2025/05/06 15:28:00.558334600,1746538080,555374082,mA1/gps,0,1,63.434657829959974,10.392567829468815,0.0,1.4400000000000002e-10,0.0,0.0,0.0,1.4400000000000002e-10,0.0,0.0,0.0,1.0,2
2025/05/06 15:28:00.619394731,1746538080,612323332,mA1/gps,0,1,63.434657830487,10.392567829756567,0.0,1.4400000000000002e-10,0.0,0.0,0.0,1.4400000000000002e-10,0.0,0.0,0.0,1.0,2
2025/05/06 15:28:00.668231786,1746538080,666478274,mA1/gps,0,1,63.434657831022164,10.392567830299859,0.0,1.4400000000000002e-10,0.0,0.0,0.0,1.4400000000000002e-10,0.0,0.0,0.0,1.0,2
2025/05/06 15:28:00.712583933,1746538080,710934149,mA1/gps,0,1,63.43465783031346,10.39256782982681,0.0,1.4400000000000002e-10,0.0,0.0,0.0,1.4400000000000002e-10,0.0,0.0,0.0,1.0,2
2025/05/06 15:28:00.763637346,1746538080,761978529,mA1/gps,0,1,63.43465782992406,10.392567830245115,0.0,1.4400000000000002e-10,0.0,0.0,0.0,1.4400000000000002e-10,0.0,0.0,0.0,1.0,2
2025/05/06 15:28:00.815795120,1746538080,810918959,mA1/gps,0,1,63.434657830499475,10.392567829705152,0.0,1.4400000000000002e-10,0.0,0.0,0.0,1.4400000000000002e-10,0.0,0.0,0.0,1.0,2
2025/05/06 15:28:00.864863929,1746538080,860632021,mA1/gps,0,1,63.434657830970295,10.392567830210865,0.0,1.4400000000000002e-10,0.0,0.0,0.0,1.4400000000000002e-10,0.0,0.0,0.0,1.0,2
2025/05/06 15:28:00.954169207,1746538080,913003319,mA1/gps,0,1,63.43465783043538,10.392567830026389,0.0,1.4400000000000002e-10,0.0,0.0,0.0,1.4400000000000002e-10,0.0,0.0,0.0,1.0,2
2025/05/06 15:28:01.26396720,1746538080,963931219,mA1/gps,0,1,63.43465782990846,10.39256783098269,0.0,1.4400000000000002e-10,0.0,0.0,0.0,1.4400000000000002e-10,0.0,0.0,0.0,1.0,2
2025/05/06 15:28:01.149869057,1746538081,104987837,mA1/gps,0,1,63.434657830131506,10.392567832912649,0.0,1.4400000000000002e-10,0.0,0.0,0.0,1.4400000000000002e-10,0.0,0.0,0.0,1.0,2
2025/05/06 15:28:01.170322364,1746538081,155300357,mA1/gps,0,1,63.434657829822555,10.39256783324339,0.0,1.4400000000000002e-10,0.0,0.0,0.0,1.4400000000000002e-10,0.0,0.0,0.0,1.0,2
2025/05/06 15:28:01.207764163,1746538081,206624401,mA1/gps,0,1,63.43465783051035,10.392567833495665,0.0,1.4400000000000002e-10,0.0,0.0,0.0,1.4400000000000002e-10,0.0,0.0,0.0,1.0,2
2025/05/06 15:28:01.262889960,1746538081,259644830,mA1/gps,0,1,63.43465783077642,10.39256783357637,0.0,1.4400000000000002e-10,0.0,0.0,0.0,1.4400000000000002e-10,0.0,0.0,0.0,1.0,2
2025/05/06 15:28:01.309288235,1746538081,308421814,mA1/gps,0,1,63.43465783017754,10.392567833080031,0.0,1.4400000000000002e-10,0.0,0.0,0.0,1.4400000000000002e-10,0.0,0.0,0.0,1.0,2
2025/05/06 15:28:01.361281787,1746538081,359474902,mA1/gps,0,1,63.43465782984295,10.392567833157027,0.0,1.4400000000000002e-10,0.0,0.0,0.0,1.4400000000000002e-10,0.0,0.0,0.0,1.0,2
2025/05/06 15:28:01.415301363,1746538081,409567354,mA1/gps,0,1,63.43465783049227,10.39256783270011,0.0,1.4400000000000002e-10,0.0,0.0,0.0,1.4400000000000002e-10,0.0,0.0,0.0,1.0,2
2025/05/06 15:28:01.466687083,1746538081,464608315,mA1/gps,0,1,63.43465783087895,10.3925678314832,0.0,1.4400000000000002e-10,0.0,0.0,0.0,1.4400000000000002e-10,0.0,0.0,0.0,1.0,2
2025/05/06 15:28:01.531087457,1746538081,509060436,mA1/gps,0,1,63.43465783064435,10.392567830157844,0.0,1.4400000000000002e-10,0.0,0.0,0.0,1.4400000000000002e-10,0.0,0.0,0.0,1.0,2
2025/05/06 15:28:01.579003106,1746538081,563270797,mA1/gps,0,1,63.43465783011505,10.392567828429616,0.0,1.4400000000000002e-10,0.0,0.0,0.0,1.4400000000000002e-10,0.0,0.0,0.0,1.0,2
2025/05/06 15:28:01.613902582,1746538081,609013916,mA1/gps,0,1,63.43465783092895,10.392567826207973,0.0,1.4400000000000002e-10,0.0,0.0,0.0,1.4400000000000002e-10,0.0,0.0,0.0,1.0,2
2025/05/06 15:28:01.749960887,1746538081,662704032,mA1/gps,0,1,63.43465783131617,10.392567824175659,0.0,1.4400000000000002e-10,0.0,0.0,0.0,1.4400000000000002e-10,0.0,0.0,0.0,1.0,2
2025/05/06 15:28:01.792740632,1746538081,706356526,mA1/gps,0,1,63.434657830848934,10.39256782095688,0.0,1.4400000000000002e-10,0.0,0.0,0.0,1.4400000000000002e-10,0.0,0.0,0.0,1.0,2
2025/05/06 15:28:01.827053914,1746538081,758789029,mA1/gps,0,1,63.43465783063909,10.392567816908356,0.0,1.4400000000000002e-10,0.0,0.0,0.0,1.4400000000000002e-10,0.0,0.0,0.0,1.0,2
2025/05/06 15:28:01.862971013,1746538081,812779230,mA1/gps,0,1,63.43465783152741,10.392567812693885,0.0,1.4400000000000002e-10,0.0,0.0,0.0,1.4400000000000002e-10,0.0,0.0,0.0,1.0,2
2025/05/06 15:28:01.891680353,1746538081,863194396,mA1/gps,0,1,63.43465783215794,10.392567808433979,0.0,1.4400000000000002e-10,0.0,0.0,0.0,1.4400000000000002e-10,0.0,0.0,0.0,1.0,2
2025/05/06 15:28:01.913294014,1746538081,906759163,mA1/gps,0,1,63.43465783169101,10.392567804197881,0.0,1.4400000000000002e-10,0.0,0.0,0.0,1.4400000000000002e-10,0.0,0.0,0.0,1.0,2
2025/05/06 15:28:01.978285225,1746538081,962017225,mA1/gps,0,1,63.43465783148215,10.392567800425217,0.0,1.4400000000000002e-10,0.0,0.0,0.0,1.4400000000000002e-10,0.0,0.0,0.0,1.0,2
2025/05/06 15:28:02.38408317,1746538082,10544916,mA1/gps,0,1,63.43465783227159,10.392567797100279,0.0,1.4400000000000002e-10,0.0,0.0,0.0,1.4400000000000002e-10,0.0,0.0,0.0,1.0,2
2025/05/06 15:28:02.111440061,1746538082,59751648,mA1/gps,0,1,63.434657832672485,10.39256779530119,0.0,1.4400000000000002e-10,0.0,0.0,0.0,1.4400000000000002e-10,0.0,0.0,0.0,1.0,2
2025/05/06 15:28:02.131574176,1746538082,108060392,mA1/gps,0,1,63.43465783206883,10.392567793968917,0.0,1.4400000000000002e-10,0.0,0.0,0.0,1.4400000000000002e-10,0.0,0.0,0.0,1.0,2
2025/05/06 15:28:02.183168539,1746538082,163544500,mA1/gps,0,1,63.434657831724216,10.392567792740326,0.0,1.4400000000000002e-10,0.0,0.0,0.0,1.4400000000000002e-10,0.0,0.0,0.0,1.0,2
2025/05/06 15:28:02.241802870,1746538082,206559379,mA1/gps,0,1,63.434657832095645,10.392567794109794,0.0,1.4400000000000002e-10,0.0,0.0,0.0,1.4400000000000002e-10,0.0,0.0,0.0,1.0,2
2025/05/06 15:28:02.275125905,1746538082,264225471,mA1/gps,0,1,63.4346578324636,10.392567795900876,0.0,1.4400000000000002e-10,0.0,0.0,0.0,1.4400000000000002e-10,0.0,0.0,0.0,1.0,2
2025/05/06 15:28:02.315736436,1746538082,308509204,mA1/gps,0,1,63.43465783183024,10.392567798030246,0.0,1.4400000000000002e-10,0.0,0.0,0.0,1.4400000000000002e-10,0.0,0.0,0.0,1.0,2
2025/05/06 15:28:02.382382383,1746538082,364679352,mA1/gps,0,1,63.43465783129564,10.392567801488944,0.0,1.4400000000000002e-10,0.0,0.0,0.0,1.4400000000000002e-10,0.0,0.0,0.0,1.0,2
2025/05/06 15:28:02.461031009,1746538082,418796806,mA1/gps,0,1,63.4346578314239,10.392567805544113,0.0,1.4400000000000002e-10,0.0,0.0,0.0,1.4400000000000002e-10,0.0,0.0,0.0,1.0,2
2025/05/06 15:28:02.465353196,1746538082,456123108,mA1/gps,0,1,63.4346578318573,10.39256781049834,0.0,1.4400000000000002e-10,0.0,0.0,0.0,1.4400000000000002e-10,0.0,0.0,0.0,1.0,2
2025/05/06 15:28:02.514455372,1746538082,509455846,mA1/gps,0,1,63.43465783084166,10.392567815136479,0.0,1.4400000000000002e-10,0.0,0.0,0.0,1.4400000000000002e-10,0.0,0.0,0.0,1.0,2
2025/05/06 15:28:02.566721330,1746538082,562146942,mA1/gps,0,1,63.4346578302564,10.392567820605816,0.0,1.4400000000000002e-10,0.0,0.0,0.0,1.4400000000000002e-10,0.0,0.0,0.0,1.0,2
2025/05/06 15:28:02.614948289,1746538082,611730777,mA1/gps,0,1,63.43465783032802,10.392567825124646,0.0,1.4400000000000002e-10,0.0,0.0,0.0,1.4400000000000002e-10,0.0,0.0,0.0,1.0,2
2025/05/06 15:28:02.688259571,1746538082,665707337,mA1/gps,0,1,63.43465783061679,10.392567830177642,0.0,1.4400000000000002e-10,0.0,0.0,0.0,1.4400000000000002e-10,0.0,0.0,0.0,1.0,2
2025/05/06 15:28:02.739667795,1746538082,709164513,mA1/gps,0,1,63.43465782994401,10.392567834691487,0.0,1.4400000000000002e-10,0.0,0.0,0.0,1.4400000000000002e-10,0.0,0.0,0.0,1.0,2
2025/05/06 15:28:02.824364543,1746538082,765797758,mA1/gps,0,1,63.43465782917306,10.392567838935449,0.0,1.4400000000000002e-10,0.0,0.0,0.0,1.4400000000000002e-10,0.0,0.0,0.0,1.0,2
2025/05/06 15:28:02.858112095,1746538082,805785143,mA1/gps,0,1,63.43465782949197,10.392567841716117,0.0,1.4400000000000002e-10,0.0,0.0,0.0,1.4400000000000002e-10,0.0,0.0,0.0,1.0,2
2025/05/06 15:28:02.883939376,1746538082,861544118,mA1/gps,0,1,63.43465782978128,10.392567844434387,0.0,1.4400000000000002e-10,0.0,0.0,0.0,1.4400000000000002e-10,0.0,0.0,0.0,1.0,2
2025/05/06 15:28:02.939391576,1746538082,906864067,mA1/gps,0,1,63.4346578291675,10.392567846560377,0.0,1.4400000000000002e-10,0.0,0.0,0.0,1.4400000000000002e-10,0.0,0.0,0.0,1.0,2
2025/05/06 15:28:02.977400385,1746538082,959019324,mA1/gps,0,1,63.43465782845703,10.39256784818091,0.0,1.4400000000000002e-10,0.0,0.0,0.0,1.4400000000000002e-10,0.0,0.0,0.0,1.0,2
2025/05/06 15:28:03.12636674,1746538083,6664760,mA1/gps,0,1,63.434657828898,10.392567849616881,0.0,1.4400000000000002e-10,0.0,0.0,0.0,1.4400000000000002e-10,0.0,0.0,0.0,1.0,2
2025/05/06 15:28:03.67685305,1746538083,61504314,mA1/gps,0,1,63.43465782960756,10.392567849781738,0.0,1.4400000000000002e-10,0.0,0.0,0.0,1.4400000000000002e-10,0.0,0.0,0.0,1.0,2
2025/05/06 15:28:03.161688127,1746538083,111883883,mA1/gps,0,1,63.43465782898473,10.392567849316572,0.0,1.4400000000000002e-10,0.0,0.0,0.0,1.4400000000000002e-10,0.0,0.0,0.0,1.0,2
2025/05/06 15:28:03.205539045,1746538083,167158953,mA1/gps,0,1,63.43465782864102,10.392567849183111,0.0,1.4400000000000002e-10,0.0,0.0,0.0,1.4400000000000002e-10,0.0,0.0,0.0,1.0,2
2025/05/06 15:28:03.349807369,1746538083,208019104,mA1/gps,0,1,63.43465782906213,10.392567848773908,0.0,1.4400000000000002e-10,0.0,0.0,0.0,1.4400000000000002e-10,0.0,0.0,0.0,1.0,2
2025/05/06 15:28:03.380120020,1746538083,262795470,mA1/gps,0,1,63.434657829585056,10.392567848554904,0.0,1.4400000000000002e-10,0.0,0.0,0.0,1.4400000000000002e-10,0.0,0.0,0.0,1.0,2
2025/05/06 15:28:03.428451562,1746538083,304057453,mA1/gps,0,1,63.43465782886673,10.392567848437716,0.0,1.4400000000000002e-10,0.0,0.0,0.0,1.4400000000000002e-10,0.0,0.0,0.0,1.0,2
2025/05/06 15:28:03.503369470,1746538083,357888475,mA1/gps,0,1,63.43465782857931,10.39256784823715,0.0,1.4400000000000002e-10,0.0,0.0,0.0,1.4400000000000002e-10,0.0,0.0,0.0,1.0,2
2025/05/06 15:28:03.553447833,1746538083,417981706,mA1/gps,0,1,63.43465782902235,10.39256784894722,0.0,1.4400000000000002e-10,0.0,0.0,0.0,1.4400000000000002e-10,0.0,0.0,0.0,1.0,2
2025/05/06 15:28:03.653960800,1746538083,465200775,mA1/gps,0,1,63.43465782948234,10.392567849961742,0.0,1.4400000000000002e-10,0.0,0.0,0.0,1.4400000000000002e-10,0.0,0.0,0.0,1.0,2
2025/05/06 15:28:03.710105259,1746538083,511529061,mA1/gps,0,1,63.43465782878993,10.392567850662212,0.0,1.4400000000000002e-10,0.0,0.0,0.0,1.4400000000000002e-10,0.0,0.0,0.0,1.0,2
2025/05/06 15:28:03.833554050,1746538083,567628877,mA1/gps,0,1,63.43465782811722,10.392567853194473,0.0,1.4400000000000002e-10,0.0,0.0,0.0,1.4400000000000002e-10,0.0,0.0,0.0,1.0,2
2025/05/06 15:28:03.870760239,1746538083,607430508,mA1/gps,0,1,63.43465782869996,10.39256785557414,0.0,1.4400000000000002e-10,0.0,0.0,0.0,1.4400000000000002e-10,0.0,0.0,0.0,1.0,2
2025/05/06 15:28:03.897622058,1746538083,663718249,mA1/gps,0,1,63.43465782877647,10.392567858763828,0.0,1.4400000000000002e-10,0.0,0.0,0.0,1.4400000000000002e-10,0.0,0.0,0.0,1.0,2
2025/05/06 15:28:03.924492195,1746538083,707967448,mA1/gps,0,1,63.43465782816593,10.39256786222086,0.0,1.4400000000000002e-10,0.0,0.0,0.0,1.4400000000000002e-10,0.0,0.0,0.0,1.0,2
2025/05/06 15:28:03.969385818,1746538083,859825274,mA1/gps,0,1,63.434657828054114,10.392567873343925,0.0,1.4400000000000002e-10,0.0,0.0,0.0,1.4400000000000002e-10,0.0,0.0,0.0,1.0,2
2025/05/06 15:28:04.9646642,1746538083,914806154,mA1/gps,0,1,63.43465782725572,10.392567877707483,0.0,1.4400000000000002e-10,0.0,0.0,0.0,1.4400000000000002e-10,0.0,0.0,0.0,1.0,2
2025/05/06 15:28:04.30726596,1746538083,956883763,mA1/gps,0,1,63.43465782664185,10.392567880810239,0.0,1.4400000000000002e-10,0.0,0.0,0.0,1.4400000000000002e-10,0.0,0.0,0.0,1.0,2
2025/05/06 15:28:04.57822905,1746538084,7334589,mA1/gps,0,1,63.4346578270641,10.392567883457051,0.0,1.4400000000000002e-10,0.0,0.0,0.0,1.4400000000000002e-10,0.0,0.0,0.0,1.0,2
2025/05/06 15:28:04.154401172,1746538084,62140278,mA1/gps,0,1,63.43465782735671,10.392567885076502,0.0,1.4400000000000002e-10,0.0,0.0,0.0,1.4400000000000002e-10,0.0,0.0,0.0,1.0,2
2025/05/06 15:28:04.269909525,1746538084,129397899,mA1/gps,0,1,63.43465782649669,10.392567885805473,0.0,1.4400000000000002e-10,0.0,0.0,0.0,1.4400000000000002e-10,0.0,0.0,0.0,1.0,2
2025/05/06 15:28:04.298216445,1746538084,165121033,mA1/gps,0,1,63.4346578261421,10.392567887002082,0.0,1.4400000000000002e-10,0.0,0.0,0.0,1.4400000000000002e-10,0.0,0.0,0.0,1.0,2
2025/05/06 15:28:04.338061775,1746538084,212223994,mA1/gps,0,1,63.43465782655411,10.392567888058856,0.0,1.4400000000000002e-10,0.0,0.0,0.0,1.4400000000000002e-10,0.0,0.0,0.0,1.0,2
2025/05/06 15:28:04.364535802,1746538084,264747443,mA1/gps,0,1,63.434657827301535,10.39256788838664,0.0,1.4400000000000002e-10,0.0,0.0,0.0,1.4400000000000002e-10,0.0,0.0,0.0,1.0,2
2025/05/06 15:28:04.412907465,1746538084,310430738,mA1/gps,0,1,63.43465782667775,10.39256788844211,0.0,1.4400000000000002e-10,0.0,0.0,0.0,1.4400000000000002e-10,0.0,0.0,0.0,1.0,2
2025/05/06 15:28:04.453965701,1746538084,363620309,mA1/gps,0,1,63.434657826195156,10.39256788832554,0.0,1.4400000000000002e-10,0.0,0.0,0.0,1.4400000000000002e-10,0.0,0.0,0.0,1.0,2
2025/05/06 15:28:04.517940853,1746538084,407177599,mA1/gps,0,1,63.43465782650398,10.392567889559974,0.0,1.4400000000000002e-10,0.0,0.0,0.0,1.4400000000000002e-10,0.0,0.0,0.0,1.0,2
2025/05/06 15:28:04.651323121,1746538084,459609788,mA1/gps,0,1,63.43465782702597,10.392567890644047,0.0,1.4400000000000002e-10,0.0,0.0,0.0,1.4400000000000002e-10,0.0,0.0,0.0,1.0,2
2025/05/06 15:28:04.846244457,1746538084,508053491,mA1/gps,0,1,63.434657826248504,10.392567891965648,0.0,1.4400000000000002e-10,0.0,0.0,0.0,1.4400000000000002e-10,0.0,0.0,0.0,1.0,2
2025/05/06 15:28:04.873185344,1746538084,564379028,mA1/gps,0,1,63.43465782597868,10.392567893814899,0.0,1.4400000000000002e-10,0.0,0.0,0.0,1.4400000000000002e-10,0.0,0.0,0.0,1.0,2
2025/05/06 15:28:04.918040126,1746538084,607802313,mA1/gps,0,1,63.43465782634639,10.39256789663786,0.0,1.4400000000000002e-10,0.0,0.0,0.0,1.4400000000000002e-10,0.0,0.0,0.0,1.0,2
2025/05/06 15:28:05.31886327,1746538084,662760460,mA1/gps,0,1,63.434657826563964,10.392567900536719,0.0,1.4400000000000002e-10,0.0,0.0,0.0,1.4400000000000002e-10,0.0,0.0,0.0,1.0,2
2025/05/06 15:28:05.129052583,1746538084,806526194,mA1/gps,0,1,63.43465782507816,10.392567919070446,0.0,1.4400000000000002e-10,0.0,0.0,0.0,1.4400000000000002e-10,0.0,0.0,0.0,1.0,2
2025/05/06 15:28:05.137253462,1746538084,860303356,mA1/gps,0,1,63.43465782518902,10.392567927348843,0.0,1.4400000000000002e-10,0.0,0.0,0.0,1.4400000000000002e-10,0.0,0.0,0.0,1.0,2
2025/05/06 15:28:05.150442886,1746538084,915777032,mA1/gps,0,1,63.43465782411239,10.392567935513474,0.0,1.4400000000000002e-10,0.0,0.0,0.0,1.4400000000000002e-10,0.0,0.0,0.0,1.0,2
2025/05/06 15:28:05.156306772,1746538084,958598752,mA1/gps,0,1,63.43465782317434,10.392567944519543,0.0,1.4400000000000002e-10,0.0,0.0,0.0,1.4400000000000002e-10,0.0,0.0,0.0,1.0,2
2025/05/06 15:28:05.167757585,1746538085,58801160,mA1/gps,0,1,63.434657823459524,10.392567961917889,0.0,1.4400000000000002e-10,0.0,0.0,0.0,1.4400000000000002e-10,0.0,0.0,0.0,1.0,2
2025/05/06 15:28:05.172622115,1746538085,108776870,mA1/gps,0,1,63.434657822483075,10.392567970114461,0.0,1.4400000000000002e-10,0.0,0.0,0.0,1.4400000000000002e-10,0.0,0.0,0.0,1.0,2
2025/05/06 15:28:05.183011073,1746538085,159942169,mA1/gps,0,1,63.434657821412515,10.392567978173636,0.0,1.4400000000000002e-10,0.0,0.0,0.0,1.4400000000000002e-10,0.0,0.0,0.0,1.0,2
2025/05/06 15:28:05.210613081,1746538085,209854945,mA1/gps,0,1,63.43465782159713,10.392567986176772,0.0,1.4400000000000002e-10,0.0,0.0,0.0,1.4400000000000002e-10,0.0,0.0,0.0,1.0,2
2025/05/06 15:28:05.263179995,1746538085,260860376,mA1/gps,0,1,63.43465782154949,10.392567993636556,0.0,1.4400000000000002e-10,0.0,0.0,0.0,1.4400000000000002e-10,0.0,0.0,0.0,1.0,2
2025/05/06 15:28:05.312537336,1746538085,311087044,mA1/gps,0,1,63.434657820806166,10.392567999325205,0.0,1.4400000000000002e-10,0.0,0.0,0.0,1.4400000000000002e-10,0.0,0.0,0.0,1.0,2
2025/05/06 15:28:05.365521088,1746538085,362272635,mA1/gps,0,1,63.434657820037025,10.39256800458672,0.0,1.4400000000000002e-10,0.0,0.0,0.0,1.4400000000000002e-10,0.0,0.0,0.0,1.0,2
2025/05/06 15:28:05.415160610,1746538085,412333979,mA1/gps,0,1,63.43465782032622,10.392568009642924,0.0,1.4400000000000002e-10,0.0,0.0,0.0,1.4400000000000002e-10,0.0,0.0,0.0,1.0,2
2025/05/06 15:28:05.471066275,1746538085,465624096,mA1/gps,0,1,63.434657820538405,10.39256801412694,0.0,1.4400000000000002e-10,0.0,0.0,0.0,1.4400000000000002e-10,0.0,0.0,0.0,1.0,2
2025/05/06 15:28:05.559088609,1746538085,506501690,mA1/gps,0,1,63.43465781985438,10.392568017808054,0.0,1.4400000000000002e-10,0.0,0.0,0.0,1.4400000000000002e-10,0.0,0.0,0.0,1.0,2
2025/05/06 15:28:05.630965717,1746538085,558838776,mA1/gps,0,1,63.43465781889079,10.392568021696682,0.0,1.4400000000000002e-10,0.0,0.0,0.0,1.4400000000000002e-10,0.0,0.0,0.0,1.0,2
2025/05/06 15:28:05.648904977,1746538085,610459107,mA1/gps,0,1,63.43465781941163,10.392568025513183,0.0,1.4400000000000002e-10,0.0,0.0,0.0,1.4400000000000002e-10,0.0,0.0,0.0,1.0,2
2025/05/06 15:28:05.675400054,1746538085,663761305,mA1/gps,0,1,63.43465781969689,10.392568029227247,0.0,1.4400000000000002e-10,0.0,0.0,0.0,1.4400000000000002e-10,0.0,0.0,0.0,1.0,2
2025/05/06 15:28:05.708814022,1746538085,704979072,mA1/gps,0,1,63.43465781893954,10.392568033224828,0.0,1.4400000000000002e-10,0.0,0.0,0.0,1.4400000000000002e-10,0.0,0.0,0.0,1.0,2
2025/05/06 15:28:05.762337275,1746538085,759944173,mA1/gps,0,1,63.43465781815897,10.39256803670819,0.0,1.4400000000000002e-10,0.0,0.0,0.0,1.4400000000000002e-10,0.0,0.0,0.0,1.0,2
2025/05/06 15:28:05.816851192,1746538085,811612308,mA1/gps,0,1,63.43465781866681,10.392568041925221,0.0,1.4400000000000002e-10,0.0,0.0,0.0,1.4400000000000002e-10,0.0,0.0,0.0,1.0,2
2025/05/06 15:28:05.865789522,1746538085,863882134,mA1/gps,0,1,63.434657818623954,10.392568047323735,0.0,1.4400000000000002e-10,0.0,0.0,0.0,1.4400000000000002e-10,0.0,0.0,0.0,1.0,2
2025/05/06 15:28:05.915635408,1746538085,912464212,mA1/gps,0,1,63.434657817780376,10.392568053377369,0.0,1.4400000000000002e-10,0.0,0.0,0.0,1.4400000000000002e-10,0.0,0.0,0.0,1.0,2
2025/05/06 15:28:05.974300187,1746538085,966215222,mA1/gps,0,1,63.434657817023016,10.39256806058921,0.0,1.4400000000000002e-10,0.0,0.0,0.0,1.4400000000000002e-10,0.0,0.0,0.0,1.0,2
2025/05/06 15:28:06.9656914,1746538086,4529745,mA1/gps,0,1,63.43465781697934,10.392568068008364,0.0,1.4400000000000002e-10,0.0,0.0,0.0,1.4400000000000002e-10,0.0,0.0,0.0,1.0,2
2025/05/06 15:28:06.62845217,1746538086,57679962,mA1/gps,0,1,63.434657817043686,10.392568076897252,0.0,1.4400000000000002e-10,0.0,0.0,0.0,1.4400000000000002e-10,0.0,0.0,0.0,1.0,2
2025/05/06 15:28:06.117691049,1746538086,108610840,mA1/gps,0,1,63.434657815849114,10.392568086655949,0.0,1.4400000000000002e-10,0.0,0.0,0.0,1.4400000000000002e-10,0.0,0.0,0.0,1.0,2
2025/05/06 15:28:06.195747138,1746538086,161684000,mA1/gps,0,1,63.434657814906565,10.392568095943501,0.0,1.4400000000000002e-10,0.0,0.0,0.0,1.4400000000000002e-10,0.0,0.0,0.0,1.0,2
2025/05/06 15:28:06.216996485,1746538086,212994054,mA1/gps,0,1,63.43465781470495,10.392568107840214,0.0,1.4400000000000002e-10,0.0,0.0,0.0,1.4400000000000002e-10,0.0,0.0,0.0,1.0,2
2025/05/06 15:28:06.258373345,1746538086,254844527,mA1/gps,0,1,63.43465781469963,10.3925681193362,0.0,1.4400000000000002e-10,0.0,0.0,0.0,1.4400000000000002e-10,0.0,0.0,0.0,1.0,2
2025/05/06 15:28:06.310266888,1746538086,305946154,mA1/gps,0,1,63.43465781350018,10.392568130690124,0.0,1.4400000000000002e-10,0.0,0.0,0.0,1.4400000000000002e-10,0.0,0.0,0.0,1.0,2
2025/05/06 15:28:06.359302338,1746538086,356896924,mA1/gps,0,1,63.434657812294674,10.392568141722734,0.0,1.4400000000000002e-10,0.0,0.0,0.0,1.4400000000000002e-10,0.0,0.0,0.0,1.0,2
2025/05/06 15:28:06.413235509,1746538086,410490059,mA1/gps,0,1,63.43465781234241,10.392568152152757,0.0,1.4400000000000002e-10,0.0,0.0,0.0,1.4400000000000002e-10,0.0,0.0,0.0,1.0,2
2025/05/06 15:28:06.456962277,1746538086,454368715,mA1/gps,0,1,63.434657812107524,10.392568162032871,0.0,1.4400000000000002e-10,0.0,0.0,0.0,1.4400000000000002e-10,0.0,0.0,0.0,1.0,2
2025/05/06 15:28:06.512922785,1746538086,507460604,mA1/gps,0,1,63.43465781117607,10.392568170566872,0.0,1.4400000000000002e-10,0.0,0.0,0.0,1.4400000000000002e-10,0.0,0.0,0.0,1.0,2
2025/05/06 15:28:06.568444637,1746538086,559985512,mA1/gps,0,1,63.434657810284335,10.392568178645679,0.0,1.4400000000000002e-10,0.0,0.0,0.0,1.4400000000000002e-10,0.0,0.0,0.0,1.0,2
2025/05/06 15:28:06.616090208,1746538086,610834514,mA1/gps,0,1,63.434657810462,10.392568185084631,0.0,1.4400000000000002e-10,0.0,0.0,0.0,1.4400000000000002e-10,0.0,0.0,0.0,1.0,2
2025/05/06 15:28:06.668184088,1746538086,662100733,mA1/gps,0,1,63.43465781056295,10.392568190801576,0.0,1.4400000000000002e-10,0.0,0.0,0.0,1.4400000000000002e-10,0.0,0.0,0.0,1.0,2
2025/05/06 15:28:06.723235745,1746538086,714633525,mA1/gps,0,1,63.43465780984717,10.392568195224374,0.0,1.4400000000000002e-10,0.0,0.0,0.0,1.4400000000000002e-10,0.0,0.0,0.0,1.0,2
2025/05/06 15:28:06.765757301,1746538086,760465801,mA1/gps,0,1,63.43465780909088,10.39256819813521,0.0,1.4400000000000002e-10,0.0,0.0,0.0,1.4400000000000002e-10,0.0,0.0,0.0,1.0,2
2025/05/06 15:28:06.814390776,1746538086,811939638,mA1/gps,0,1,63.43465780937509,10.39256820056852,0.0,1.4400000000000002e-10,0.0,0.0,0.0,1.4400000000000002e-10,0.0,0.0,0.0,1.0,2
2025/05/06 15:28:06.879681683,1746538086,865911596,mA1/gps,0,1,63.43465780957446,10.392568201683355,0.0,1.4400000000000002e-10,0.0,0.0,0.0,1.4400000000000002e-10,0.0,0.0,0.0,1.0,2
2025/05/06 15:28:06.911651548,1746538086,908487507,mA1/gps,0,1,63.43465780860385,10.392568200335795,0.0,1.4400000000000002e-10,0.0,0.0,0.0,1.4400000000000002e-10,0.0,0.0,0.0,1.0,2
2025/05/06 15:28:06.962921425,1746538086,959446213,mA1/gps,0,1,63.434657807630096,10.39256820038107,0.0,1.4400000000000002e-10,0.0,0.0,0.0,1.4400000000000002e-10,0.0,0.0,0.0,1.0,2
2025/05/06 15:28:07.12374474,1746538087,10303353,mA1/gps,0,1,63.43465780750504,10.392568206858988,0.0,1.4400000000000002e-10,0.0,0.0,0.0,1.4400000000000002e-10,0.0,0.0,0.0,1.0,2
2025/05/06 15:28:07.66830417,1746538087,62249588,mA1/gps,0,1,63.43465780553315,10.392568211473765,0.0,1.4400000000000002e-10,0.0,0.0,0.0,1.4400000000000002e-10,0.0,0.0,0.0,1.0,2
2025/05/06 15:28:07.111692308,1746538087,106246802,mA1/gps,0,1,63.43465780301404,10.392568217077578,0.0,1.4400000000000002e-10,0.0,0.0,0.0,1.4400000000000002e-10,0.0,0.0,0.0,1.0,2
2025/05/06 15:28:07.158378191,1746538087,155622430,mA1/gps,0,1,63.43465780241693,10.392568223135351,0.0,1.4400000000000002e-10,0.0,0.0,0.0,1.4400000000000002e-10,0.0,0.0,0.0,1.0,2
2025/05/06 15:28:07.214917852,1746538087,208260209,mA1/gps,0,1,63.43465779989572,10.392568228878558,0.0,1.4400000000000002e-10,0.0,0.0,0.0,1.4400000000000002e-10,0.0,0.0,0.0,1.0,2
2025/05/06 15:28:07.266845257,1746538087,263069962,mA1/gps,0,1,63.43465779603911,10.392568234026713,0.0,1.4400000000000002e-10,0.0,0.0,0.0,1.4400000000000002e-10,0.0,0.0,0.0,1.0,2
2025/05/06 15:28:07.313718551,1746538087,310239944,mA1/gps,0,1,63.43465779240852,10.3925682399915,0.0,1.4400000000000002e-10,0.0,0.0,0.0,1.4400000000000002e-10,0.0,0.0,0.0,1.0,2
2025/05/06 15:28:07.370947829,1746538087,367335641,mA1/gps,0,1,63.434657788833334,10.392568246303112,0.0,1.4400000000000002e-10,0.0,0.0,0.0,1.4400000000000002e-10,0.0,0.0,0.0,1.0,2
2025/05/06 15:28:07.417087732,1746538087,413963878,mA1/gps,0,1,63.434657784164926,10.392568252188081,0.0,1.4400000000000002e-10,0.0,0.0,0.0,1.4400000000000002e-10,0.0,0.0,0.0,1.0,2
2025/05/06 15:28:07.462065619,1746538087,458086059,mA1/gps,0,1,63.434657778439245,10.392568258750016,0.0,1.4400000000000002e-10,0.0,0.0,0.0,1.4400000000000002e-10,0.0,0.0,0.0,1.0,2
2025/05/06 15:28:07.518753314,1746538087,514248970,mA1/gps,0,1,63.434657772301016,10.392568265447137,0.0,1.4400000000000002e-10,0.0,0.0,0.0,1.4400000000000002e-10,0.0,0.0,0.0,1.0,2
2025/05/06 15:28:07.559725205,1746538087,557012561,mA1/gps,0,1,63.434657766994206,10.392568272052898,0.0,1.4400000000000002e-10,0.0,0.0,0.0,1.4400000000000002e-10,0.0,0.0,0.0,1.0,2
2025/05/06 15:28:07.614966449,1746538087,611596988,mA1/gps,0,1,63.434657760326864,10.39256827849811,0.0,1.4400000000000002e-10,0.0,0.0,0.0,1.4400000000000002e-10,0.0,0.0,0.0,1.0,2
2025/05/06 15:28:07.668961917,1746538087,662174627,mA1/gps,0,1,63.43465775297315,10.392568285140113,0.0,1.4400000000000002e-10,0.0,0.0,0.0,1.4400000000000002e-10,0.0,0.0,0.0,1.0,2
2025/05/06 15:28:07.710666622,1746538087,708212075,mA1/gps,0,1,63.434657745475995,10.392568292006445,0.0,1.4400000000000002e-10,0.0,0.0,0.0,1.4400000000000002e-10,0.0,0.0,0.0,1.0,2
2025/05/06 15:28:07.765606863,1746538087,759222282,mA1/gps,0,1,63.43465773700001,10.392568298089524,0.0,1.4400000000000002e-10,0.0,0.0,0.0,1.4400000000000002e-10,0.0,0.0,0.0,1.0,2
2025/05/06 15:28:07.817569879,1746538087,812362475,mA1/gps,0,1,63.43465772978888,10.392568304435454,0.0,1.4400000000000002e-10,0.0,0.0,0.0,1.4400000000000002e-10,0.0,0.0,0.0,1.0,2
2025/05/06 15:28:07.867662020,1746538087,863417709,mA1/gps,0,1,63.434657722528584,10.39256831109271,0.0,1.4400000000000002e-10,0.0,0.0,0.0,1.4400000000000002e-10,0.0,0.0,0.0,1.0,2
2025/05/06 15:28:07.908929228,1746538087,906016936,mA1/gps,0,1,63.43465771269999,10.392568316498016,0.0,1.4400000000000002e-10,0.0,0.0,0.0,1.4400000000000002e-10,0.0,0.0,0.0,1.0,2
2025/05/06 15:28:07.969915415,1746538087,965910342,mA1/gps,0,1,63.43465770410817,10.3925683230354,0.0,1.4400000000000002e-10,0.0,0.0,0.0,1.4400000000000002e-10,0.0,0.0,0.0,1.0,2
2025/05/06 15:28:08.18360507,1746538088,8426447,mA1/gps,0,1,63.43465769644361,10.39256832981549,0.0,1.4400000000000002e-10,0.0,0.0,0.0,1.4400000000000002e-10,0.0,0.0,0.0,1.0,2
2025/05/06 15:28:08.66719703,1746538088,63862121,mA1/gps,0,1,63.434657687791756,10.392568336432024,0.0,1.4400000000000002e-10,0.0,0.0,0.0,1.4400000000000002e-10,0.0,0.0,0.0,1.0,2
2025/05/06 15:28:08.111891882,1746538088,109527283,mA1/gps,0,1,63.43465767873511,10.39256834348917,0.0,1.4400000000000002e-10,0.0,0.0,0.0,1.4400000000000002e-10,0.0,0.0,0.0,1.0,2
2025/05/06 15:28:08.172376629,1746538088,161880239,mA1/gps,0,1,63.434657669833996,10.39256834958659,0.0,1.4400000000000002e-10,0.0,0.0,0.0,1.4400000000000002e-10,0.0,0.0,0.0,1.0,2
2025/05/06 15:28:08.215517915,1746538088,211533057,mA1/gps,0,1,63.434657661720394,10.392568356893689,0.0,1.4400000000000002e-10,0.0,0.0,0.0,1.4400000000000002e-10,0.0,0.0,0.0,1.0,2
2025/05/06 15:28:08.267523026,1746538088,260351295,mA1/gps,0,1,63.434657653622025,10.392568363154243,0.0,1.4400000000000002e-10,0.0,0.0,0.0,1.4400000000000002e-10,0.0,0.0,0.0,1.0,2
2025/05/06 15:28:08.320190005,1746538088,314270875,mA1/gps,0,1,63.43465764434641,10.392568369244447,0.0,1.4400000000000002e-10,0.0,0.0,0.0,1.4400000000000002e-10,0.0,0.0,0.0,1.0,2
2025/05/06 15:28:08.358123304,1746538088,356726340,mA1/gps,0,1,63.43465763546826,10.392568376569244,0.0,1.4400000000000002e-10,0.0,0.0,0.0,1.4400000000000002e-10,0.0,0.0,0.0,1.0,2
2025/05/06 15:28:08.412345299,1746538088,407529558,mA1/gps,0,1,63.434657626580965,10.392568382568953,0.0,1.4400000000000002e-10,0.0,0.0,0.0,1.4400000000000002e-10,0.0,0.0,0.0,1.0,2
2025/05/06 15:28:08.468238076,1746538088,463268542,mA1/gps,0,1,63.434657617913224,10.392568388679607,0.0,1.4400000000000002e-10,0.0,0.0,0.0,1.4400000000000002e-10,0.0,0.0,0.0,1.0,2
2025/05/06 15:28:08.508768782,1746538088,506517753,mA1/gps,0,1,63.4346576083968,10.392568394085426,0.0,1.4400000000000002e-10,0.0,0.0,0.0,1.4400000000000002e-10,0.0,0.0,0.0,1.0,2
2025/05/06 15:28:08.568667771,1746538088,562474272,mA1/gps,0,1,63.43465759913621,10.392568400338773,0.0,1.4400000000000002e-10,0.0,0.0,0.0,1.4400000000000002e-10,0.0,0.0,0.0,1.0,2
2025/05/06 15:28:08.618621985,1746538088,611703105,mA1/gps,0,1,63.434657590398444,10.392568405877281,0.0,1.4400000000000002e-10,0.0,0.0,0.0,1.4400000000000002e-10,0.0,0.0,0.0,1.0,2
2025/05/06 15:28:08.662728074,1746538088,659090762,mA1/gps,0,1,63.43465757985182,10.392568410822339,0.0,1.4400000000000002e-10,0.0,0.0,0.0,1.4400000000000002e-10,0.0,0.0,0.0,1.0,2
2025/05/06 15:28:08.754859357,1746538088,715016620,mA1/gps,0,1,63.43465756889872,10.392568416434573,0.0,1.4400000000000002e-10,0.0,0.0,0.0,1.4400000000000002e-10,0.0,0.0,0.0,1.0,2
2025/05/06 15:28:08.771416849,1746538088,760430663,mA1/gps,0,1,63.43465755757237,10.392568422085235,0.0,1.4400000000000002e-10,0.0,0.0,0.0,1.4400000000000002e-10,0.0,0.0,0.0,1.0,2
2025/05/06 15:28:08.811708479,1746538088,807926071,mA1/gps,0,1,63.43465754581694,10.392568427855254,0.0,1.4400000000000002e-10,0.0,0.0,0.0,1.4400000000000002e-10,0.0,0.0,0.0,1.0,2
2025/05/06 15:28:08.861113582,1746538088,859401448,mA1/gps,0,1,63.434657533622165,10.392568433381763,0.0,1.4400000000000002e-10,0.0,0.0,0.0,1.4400000000000002e-10,0.0,0.0,0.0,1.0,2
2025/05/06 15:28:08.910701098,1746538088,909130704,mA1/gps,0,1,63.43465752102476,10.392568439506347,0.0,1.4400000000000002e-10,0.0,0.0,0.0,1.4400000000000002e-10,0.0,0.0,0.0,1.0,2
2025/05/06 15:28:08.967560919,1746538088,961308625,mA1/gps,0,1,63.4346575078914,10.392568445989935,0.0,1.4400000000000002e-10,0.0,0.0,0.0,1.4400000000000002e-10,0.0,0.0,0.0,1.0,2
2025/05/06 15:28:09.15143611,1746538089,12721295,mA1/gps,0,1,63.43465749340026,10.392568452376114,0.0,1.4400000000000002e-10,0.0,0.0,0.0,1.4400000000000002e-10,0.0,0.0,0.0,1.0,2
2025/05/06 15:28:09.60223392,1746538089,56096921,mA1/gps,0,1,63.43465747881847,10.392568457278367,0.0,1.4400000000000002e-10,0.0,0.0,0.0,1.4400000000000002e-10,0.0,0.0,0.0,1.0,2
2025/05/06 15:28:09.108178476,1746538089,105090152,mA1/gps,0,1,63.43465746546739,10.392568460652173,0.0,1.4400000000000002e-10,0.0,0.0,0.0,1.4400000000000002e-10,0.0,0.0,0.0,1.0,2
2025/05/06 15:28:09.159362668,1746538089,156897284,mA1/gps,0,1,63.4346574508444,10.392568462565674,0.0,1.4400000000000002e-10,0.0,0.0,0.0,1.4400000000000002e-10,0.0,0.0,0.0,1.0,2
2025/05/06 15:28:09.212628904,1746538089,208949522,mA1/gps,0,1,63.43465743551439,10.392568464456376,0.0,1.4400000000000002e-10,0.0,0.0,0.0,1.4400000000000002e-10,0.0,0.0,0.0,1.0,2
2025/05/06 15:28:09.265421880,1746538089,263206214,mA1/gps,0,1,63.434657419853195,10.392568465517074,0.0,1.4400000000000002e-10,0.0,0.0,0.0,1.4400000000000002e-10,0.0,0.0,0.0,1.0,2
2025/05/06 15:28:09.311912825,1746538089,310993708,mA1/gps,0,1,63.43465740334549,10.392568467656131,0.0,1.4400000000000002e-10,0.0,0.0,0.0,1.4400000000000002e-10,0.0,0.0,0.0,1.0,2
2025/05/06 15:28:09.364193472,1746538089,362556445,mA1/gps,0,1,63.43465738653289,10.392568471640951,0.0,1.4400000000000002e-10,0.0,0.0,0.0,1.4400000000000002e-10,0.0,0.0,0.0,1.0,2
2025/05/06 15:28:09.412705154,1746538089,411907902,mA1/gps,0,1,63.43465737008038,10.392568478951247,0.0,1.4400000000000002e-10,0.0,0.0,0.0,1.4400000000000002e-10,0.0,0.0,0.0,1.0,2
2025/05/06 15:28:09.466261198,1746538089,462970507,mA1/gps,0,1,63.43465735349758,10.392568489042986,0.0,1.4400000000000002e-10,0.0,0.0,0.0,1.4400000000000002e-10,0.0,0.0,0.0,1.0,2
2025/05/06 15:28:09.507467970,1746538089,503788951,mA1/gps,0,1,63.43465733746605,10.392568501922918,0.0,1.4400000000000002e-10,0.0,0.0,0.0,1.4400000000000002e-10,0.0,0.0,0.0,1.0,2
2025/05/06 15:28:09.560096717,1746538089,556757407,mA1/gps,0,1,63.434657319817525,10.392568517663856,0.0,1.4400000000000002e-10,0.0,0.0,0.0,1.4400000000000002e-10,0.0,0.0,0.0,1.0,2
2025/05/06 15:28:09.607115907,1746538089,605353601,mA1/gps,0,1,63.434657303370635,10.392568536203841,0.0,1.4400000000000002e-10,0.0,0.0,0.0,1.4400000000000002e-10,0.0,0.0,0.0,1.0,2
2025/05/06 15:28:09.657271044,1746538089,656422055,mA1/gps,0,1,63.43465728387507,10.39256855519828,0.0,1.4400000000000002e-10,0.0,0.0,0.0,1.4400000000000002e-10,0.0,0.0,0.0,1.0,2
2025/05/06 15:28:09.713285442,1746538089,706991527,mA1/gps,0,1,63.43465726556689,10.39256857535002,0.0,1.4400000000000002e-10,0.0,0.0,0.0,1.4400000000000002e-10,0.0,0.0,0.0,1.0,2
2025/05/06 15:28:09.761006424,1746538089,759079848,mA1/gps,0,1,63.43465724802031,10.39256859755248,0.0,1.4400000000000002e-10,0.0,0.0,0.0,1.4400000000000002e-10,0.0,0.0,0.0,1.0,2
2025/05/06 15:28:09.814617735,1746538089,812006213,mA1/gps,0,1,63.434657230584314,10.392568618438895,0.0,1.4400000000000002e-10,0.0,0.0,0.0,1.4400000000000002e-10,0.0,0.0,0.0,1.0,2
2025/05/06 15:28:09.864929285,1746538089,863429690,mA1/gps,0,1,63.434657212482925,10.392568638444828,0.0,1.4400000000000002e-10,0.0,0.0,0.0,1.4400000000000002e-10,0.0,0.0,0.0,1.0,2
2025/05/06 15:28:09.905713089,1746538089,904585390,mA1/gps,0,1,63.43465719428743,10.39256865674713,0.0,1.4400000000000002e-10,0.0,0.0,0.0,1.4400000000000002e-10,0.0,0.0,0.0,1.0,2
2025/05/06 15:28:09.960582980,1746538089,957691122,mA1/gps,0,1,63.43465717776152,10.392568672933265,0.0,1.4400000000000002e-10,0.0,0.0,0.0,1.4400000000000002e-10,0.0,0.0,0.0,1.0,2
2025/05/06 15:28:10.17733319,1746538090,13048883,mA1/gps,0,1,63.43465715851994,10.392568685430431,0.0,1.4400000000000002e-10,0.0,0.0,0.0,1.4400000000000002e-10,0.0,0.0,0.0,1.0,2
2025/05/06 15:28:10.58179655,1746538090,54455429,mA1/gps,0,1,63.434657140067635,10.392568694620124,0.0,1.4400000000000002e-10,0.0,0.0,0.0,1.4400000000000002e-10,0.0,0.0,0.0,1.0,2
2025/05/06 15:28:10.108006302,1746538090,104668094,mA1/gps,0,1,63.43465712295653,10.392568701739732,0.0,1.4400000000000002e-10,0.0,0.0,0.0,1.4400000000000002e-10,0.0,0.0,0.0,1.0,2
2025/05/06 15:28:10.157411471,1746538090,155598612,mA1/gps,0,1,63.434657103997466,10.392568705323214,0.0,1.4400000000000002e-10,0.0,0.0,0.0,1.4400000000000002e-10,0.0,0.0,0.0,1.0,2
2025/05/06 15:28:10.209737770,1746538090,207160462,mA1/gps,0,1,63.43465708625596,10.3925687065939,0.0,1.4400000000000002e-10,0.0,0.0,0.0,1.4400000000000002e-10,0.0,0.0,0.0,1.0,2
2025/05/06 15:28:10.261353524,1746538090,258033393,mA1/gps,0,1,63.43465706675155,10.392568705355883,0.0,1.4400000000000002e-10,0.0,0.0,0.0,1.4400000000000002e-10,0.0,0.0,0.0,1.0,2
2025/05/06 15:28:10.311105533,1746538090,308243298,mA1/gps,0,1,63.43465704888767,10.392568702477407,0.0,1.4400000000000002e-10,0.0,0.0,0.0,1.4400000000000002e-10,0.0,0.0,0.0,1.0,2
2025/05/06 15:28:10.360998967,1746538090,359000969,mA1/gps,0,1,63.43465702971009,10.39256869775812,0.0,1.4400000000000002e-10,0.0,0.0,0.0,1.4400000000000002e-10,0.0,0.0,0.0,1.0,2
2025/05/06 15:28:10.413599741,1746538090,409460973,mA1/gps,0,1,63.43465700991,10.392568692775761,0.0,1.4400000000000002e-10,0.0,0.0,0.0,1.4400000000000002e-10,0.0,0.0,0.0,1.0,2
2025/05/06 15:28:10.465337843,1746538090,462220966,mA1/gps,0,1,63.43465699013426,10.392568687712295,0.0,1.4400000000000002e-10,0.0,0.0,0.0,1.4400000000000002e-10,0.0,0.0,0.0,1.0,2
2025/05/06 15:28:10.553756207,1746538090,514362216,mA1/gps,0,1,63.43465696986167,10.392568683092085,0.0,1.4400000000000002e-10,0.0,0.0,0.0,1.4400000000000002e-10,0.0,0.0,0.0,1.0,2
2025/05/06 15:28:10.567487039,1746538090,562999989,mA1/gps,0,1,63.43465694910253,10.392568679609251,0.0,1.4400000000000002e-10,0.0,0.0,0.0,1.4400000000000002e-10,0.0,0.0,0.0,1.0,2
2025/05/06 15:28:10.607358064,1746538090,606226445,mA1/gps,0,1,63.434656928045854,10.392568677721474,0.0,1.4400000000000002e-10,0.0,0.0,0.0,1.4400000000000002e-10,0.0,0.0,0.0,1.0,2
2025/05/06 15:28:10.658559578,1746538090,657029171,mA1/gps,0,1,63.434656906444985,10.392568678698114,0.0,1.4400000000000002e-10,0.0,0.0,0.0,1.4400000000000002e-10,0.0,0.0,0.0,1.0,2
2025/05/06 15:28:10.710100307,1746538090,707648150,mA1/gps,0,1,63.4346568846059,10.392568681131214,0.0,1.4400000000000002e-10,0.0,0.0,0.0,1.4400000000000002e-10,0.0,0.0,0.0,1.0,2
2025/05/06 15:28:10.761790649,1746538090,760576544,mA1/gps,0,1,63.43465686231304,10.392568685115393,0.0,1.4400000000000002e-10,0.0,0.0,0.0,1.4400000000000002e-10,0.0,0.0,0.0,1.0,2
2025/05/06 15:28:10.811864180,1746538090,810466417,mA1/gps,0,1,63.43465683921603,10.392568691182507,0.0,1.4400000000000002e-10,0.0,0.0,0.0,1.4400000000000002e-10,0.0,0.0,0.0,1.0,2
2025/05/06 15:28:10.863920145,1746538090,861353690,mA1/gps,0,1,63.434656815892,10.392568699607459,0.0,1.4400000000000002e-10,0.0,0.0,0.0,1.4400000000000002e-10,0.0,0.0,0.0,1.0,2
2025/05/06 15:28:10.914670165,1746538090,911355071,mA1/gps,0,1,63.43465679166446,10.392568708214183,0.0,1.4400000000000002e-10,0.0,0.0,0.0,1.4400000000000002e-10,0.0,0.0,0.0,1.0,2
2025/05/06 15:28:10.966321156,1746538090,964828726,mA1/gps,0,1,63.434656766939874,10.392568720380046,0.0,1.4400000000000002e-10,0.0,0.0,0.0,1.4400000000000002e-10,0.0,0.0,0.0,1.0,2
2025/05/06 15:28:11.16430408,1746538091,13864679,mA1/gps,0,1,63.43465674307792,10.392568733149092,0.0,1.4400000000000002e-10,0.0,0.0,0.0,1.4400000000000002e-10,0.0,0.0,0.0,1.0,2
2025/05/06 15:28:11.56274976,1746538091,54414662,mA1/gps,0,1,63.4346567191495,10.39256874572244,0.0,1.4400000000000002e-10,0.0,0.0,0.0,1.4400000000000002e-10,0.0,0.0,0.0,1.0,2
2025/05/06 15:28:11.106507179,1746538091,104180667,mA1/gps,0,1,63.43465669558085,10.392568757321053,0.0,1.4400000000000002e-10,0.0,0.0,0.0,1.4400000000000002e-10,0.0,0.0,0.0,1.0,2
2025/05/06 15:28:11.158700373,1746538091,156908959,mA1/gps,0,1,63.434656671451556,10.392568766005942,0.0,1.4400000000000002e-10,0.0,0.0,0.0,1.4400000000000002e-10,0.0,0.0,0.0,1.0,2
2025/05/06 15:28:11.208127443,1746538091,205602839,mA1/gps,0,1,63.43465664627561,10.392568772639793,0.0,1.4400000000000002e-10,0.0,0.0,0.0,1.4400000000000002e-10,0.0,0.0,0.0,1.0,2
2025/05/06 15:28:11.262917552,1746538091,257583293,mA1/gps,0,1,63.43465662104261,10.392568776121927,0.0,1.4400000000000002e-10,0.0,0.0,0.0,1.4400000000000002e-10,0.0,0.0,0.0,1.0,2
2025/05/06 15:28:11.307489390,1746538091,306581454,mA1/gps,0,1,63.43465659554024,10.392568777464707,0.0,1.4400000000000002e-10,0.0,0.0,0.0,1.4400000000000002e-10,0.0,0.0,0.0,1.0,2
2025/05/06 15:28:11.359574703,1746538091,357898430,mA1/gps,0,1,63.43465657077351,10.392568775515025,0.0,1.4400000000000002e-10,0.0,0.0,0.0,1.4400000000000002e-10,0.0,0.0,0.0,1.0,2
2025/05/06 15:28:11.414985943,1746538091,412741764,mA1/gps,0,1,63.43465654651693,10.392568771358539,0.0,1.4400000000000002e-10,0.0,0.0,0.0,1.4400000000000002e-10,0.0,0.0,0.0,1.0,2
2025/05/06 15:28:11.458271919,1746538091,455167558,mA1/gps,0,1,63.434656520892354,10.392568764904446,0.0,1.4400000000000002e-10,0.0,0.0,0.0,1.4400000000000002e-10,0.0,0.0,0.0,1.0,2
2025/05/06 15:28:11.510089130,1746538091,506190300,mA1/gps,0,1,63.43465649540312,10.392568755727119,0.0,1.4400000000000002e-10,0.0,0.0,0.0,1.4400000000000002e-10,0.0,0.0,0.0,1.0,2
2025/05/06 15:28:11.558735346,1746538091,556464680,mA1/gps,0,1,63.43465646991182,10.392568745185828,0.0,1.4400000000000002e-10,0.0,0.0,0.0,1.4400000000000002e-10,0.0,0.0,0.0,1.0,2
2025/05/06 15:28:11.606706877,1746538091,605579083,mA1/gps,0,1,63.4346564427276,10.392568733254636,0.0,1.4400000000000002e-10,0.0,0.0,0.0,1.4400000000000002e-10,0.0,0.0,0.0,1.0,2
2025/05/06 15:28:11.659494769,1746538091,657567319,mA1/gps,0,1,63.43465641563486,10.39256872122779,0.0,1.4400000000000002e-10,0.0,0.0,0.0,1.4400000000000002e-10,0.0,0.0,0.0,1.0,2
2025/05/06 15:28:11.710060349,1746538091,708158756,mA1/gps,0,1,63.43465638799463,10.392568709706639,0.0,1.4400000000000002e-10,0.0,0.0,0.0,1.4400000000000002e-10,0.0,0.0,0.0,1.0,2
2025/05/06 15:28:11.760901462,1746538091,759086425,mA1/gps,0,1,63.4346563594789,10.392568698848136,0.0,1.4400000000000002e-10,0.0,0.0,0.0,1.4400000000000002e-10,0.0,0.0,0.0,1.0,2
2025/05/06 15:28:11.811820075,1746538091,809589528,mA1/gps,0,1,63.434656333282526,10.392568690460259,0.0,1.4400000000000002e-10,0.0,0.0,0.0,1.4400000000000002e-10,0.0,0.0,0.0,1.0,2
2025/05/06 15:28:11.862657164,1746538091,860486959,mA1/gps,0,1,63.434656302547516,10.39256868328708,0.0,1.4400000000000002e-10,0.0,0.0,0.0,1.4400000000000002e-10,0.0,0.0,0.0,1.0,2
2025/05/06 15:28:11.912428273,1746538091,910420633,mA1/gps,0,1,63.43465627218063,10.392568678399774,0.0,1.4400000000000002e-10,0.0,0.0,0.0,1.4400000000000002e-10,0.0,0.0,0.0,1.0,2
2025/05/06 15:28:11.965427151,1746538091,962046913,mA1/gps,0,1,63.43465624136632,10.392568675319101,0.0,1.4400000000000002e-10,0.0,0.0,0.0,1.4400000000000002e-10,0.0,0.0,0.0,1.0,2
2025/05/06 15:28:12.16583212,1746538092,13047843,mA1/gps,0,1,63.43465620985718,10.392568675297058,0.0,1.4400000000000002e-10,0.0,0.0,0.0,1.4400000000000002e-10,0.0,0.0,0.0,1.0,2
2025/05/06 15:28:12.67547240,1746538092,65419549,mA1/gps,0,1,63.434656177666476,10.392568672359092,0.0,1.4400000000000002e-10,0.0,0.0,0.0,1.4400000000000002e-10,0.0,0.0,0.0,1.0,2
2025/05/06 15:28:12.119091336,1746538092,112985345,mA1/gps,0,1,63.43465614499545,10.392568665980026,0.0,1.4400000000000002e-10,0.0,0.0,0.0,1.4400000000000002e-10,0.0,0.0,0.0,1.0,2
2025/05/06 15:28:12.156828917,1746538092,154449429,mA1/gps,0,1,63.43465611494442,10.39256866020949,0.0,1.4400000000000002e-10,0.0,0.0,0.0,1.4400000000000002e-10,0.0,0.0,0.0,1.0,2
2025/05/06 15:28:12.206701098,1746538092,205234651,mA1/gps,0,1,63.43465608119345,10.39256865520509,0.0,1.4400000000000002e-10,0.0,0.0,0.0,1.4400000000000002e-10,0.0,0.0,0.0,1.0,2
2025/05/06 15:28:12.258986193,1746538092,256644706,mA1/gps,0,1,63.43465604739902,10.392568652672194,0.0,1.4400000000000002e-10,0.0,0.0,0.0,1.4400000000000002e-10,0.0,0.0,0.0,1.0,2
2025/05/06 15:28:12.307225812,1746538092,306336397,mA1/gps,0,1,63.43465601252717,10.392568655627683,0.0,1.4400000000000002e-10,0.0,0.0,0.0,1.4400000000000002e-10,0.0,0.0,0.0,1.0,2
2025/05/06 15:28:12.361259489,1746538092,359498267,mA1/gps,0,1,63.43465597675463,10.392568664845921,0.0,1.4400000000000002e-10,0.0,0.0,0.0,1.4400000000000002e-10,0.0,0.0,0.0,1.0,2
2025/05/06 15:28:12.412160868,1746538092,410164925,mA1/gps,0,1,63.43465594154494,10.392568679885338,0.0,1.4400000000000002e-10,0.0,0.0,0.0,1.4400000000000002e-10,0.0,0.0,0.0,1.0,2
2025/05/06 15:28:12.462052020,1746538092,460880283,mA1/gps,0,1,63.434655906850914,10.392568700920384,0.0,1.4400000000000002e-10,0.0,0.0,0.0,1.4400000000000002e-10,0.0,0.0,0.0,1.0,2
2025/05/06 15:28:12.512292203,1746538092,511429707,mA1/gps,0,1,63.434655870871985,10.392568725115677,0.0,1.4400000000000002e-10,0.0,0.0,0.0,1.4400000000000002e-10,0.0,0.0,0.0,1.0,2
2025/05/06 15:28:12.564621135,1746538092,562379639,mA1/gps,0,1,63.43465583587312,10.392568752169469,0.0,1.4400000000000002e-10,0.0,0.0,0.0,1.4400000000000002e-10,0.0,0.0,0.0,1.0,2
2025/05/06 15:28:12.608072700,1746538092,606397483,mA1/gps,0,1,63.43465579921762,10.392568779787451,0.0,1.4400000000000002e-10,0.0,0.0,0.0,1.4400000000000002e-10,0.0,0.0,0.0,1.0,2
2025/05/06 15:28:12.659258504,1746538092,657190776,mA1/gps,0,1,63.434655762923875,10.392568806882576,0.0,1.4400000000000002e-10,0.0,0.0,0.0,1.4400000000000002e-10,0.0,0.0,0.0,1.0,2
2025/05/06 15:28:12.712219619,1746538092,707394586,mA1/gps,0,1,63.4346557267352,10.392568831539606,0.0,1.4400000000000002e-10,0.0,0.0,0.0,1.4400000000000002e-10,0.0,0.0,0.0,1.0,2
2025/05/06 15:28:12.768029253,1746538092,762400953,mA1/gps,0,1,63.434655692467935,10.392568853707346,0.0,1.4400000000000002e-10,0.0,0.0,0.0,1.4400000000000002e-10,0.0,0.0,0.0,1.0,2
2025/05/06 15:28:12.816290162,1746538092,812586863,mA1/gps,0,1,63.43465565869107,10.392568871273335,0.0,1.4400000000000002e-10,0.0,0.0,0.0,1.4400000000000002e-10,0.0,0.0,0.0,1.0,2
2025/05/06 15:28:12.864214788,1746538092,855108640,mA1/gps,0,1,63.43465562447898,10.39256888245168,0.0,1.4400000000000002e-10,0.0,0.0,0.0,1.4400000000000002e-10,0.0,0.0,0.0,1.0,2
2025/05/06 15:28:12.909264099,1746538092,905471694,mA1/gps,0,1,63.43465559036424,10.392568887917918,0.0,1.4400000000000002e-10,0.0,0.0,0.0,1.4400000000000002e-10,0.0,0.0,0.0,1.0,2
2025/05/06 15:28:12.958191205,1746538092,956778650,mA1/gps,0,1,63.43465555690034,10.392568887312342,0.0,1.4400000000000002e-10,0.0,0.0,0.0,1.4400000000000002e-10,0.0,0.0,0.0,1.0,2
2025/05/06 15:28:13.7437251,1746538093,6569716,mA1/gps,0,1,63.43465552279072,10.3925688796344,0.0,1.4400000000000002e-10,0.0,0.0,0.0,1.4400000000000002e-10,0.0,0.0,0.0,1.0,2
2025/05/06 15:28:13.60643433,1746538093,57813559,mA1/gps,0,1,63.434655490153574,10.392568866142884,0.0,1.4400000000000002e-10,0.0,0.0,0.0,1.4400000000000002e-10,0.0,0.0,0.0,1.0,2
2025/05/06 15:28:13.111893682,1746538093,107587861,mA1/gps,0,1,63.434655456552846,10.392568846546549,0.0,1.4400000000000002e-10,0.0,0.0,0.0,1.4400000000000002e-10,0.0,0.0,0.0,1.0,2
2025/05/06 15:28:13.160650544,1746538093,158830452,mA1/gps,0,1,63.434655423022626,10.392568822865822,0.0,1.4400000000000002e-10,0.0,0.0,0.0,1.4400000000000002e-10,0.0,0.0,0.0,1.0,2
2025/05/06 15:28:13.209808100,1746538093,208334119,mA1/gps,0,1,63.434655390856236,10.392568795972505,0.0,1.4400000000000002e-10,0.0,0.0,0.0,1.4400000000000002e-10,0.0,0.0,0.0,1.0,2
2025/05/06 15:28:13.262357316,1746538093,259994245,mA1/gps,0,1,63.43465535837981,10.392568767261047,0.0,1.4400000000000002e-10,0.0,0.0,0.0,1.4400000000000002e-10,0.0,0.0,0.0,1.0,2
2025/05/06 15:28:13.312185046,1746538093,311174719,mA1/gps,0,1,63.4346553251392,10.392568737724133,0.0,1.4400000000000002e-10,0.0,0.0,0.0,1.4400000000000002e-10,0.0,0.0,0.0,1.0,2
2025/05/06 15:28:13.365346476,1746538093,363093085,mA1/gps,0,1,63.434655291935556,10.392568709650325,0.0,1.4400000000000002e-10,0.0,0.0,0.0,1.4400000000000002e-10,0.0,0.0,0.0,1.0,2
2025/05/06 15:28:13.415368622,1746538093,413722629,mA1/gps,0,1,63.43465525738158,10.392568684143844,0.0,1.4400000000000002e-10,0.0,0.0,0.0,1.4400000000000002e-10,0.0,0.0,0.0,1.0,2
2025/05/06 15:28:13.465027795,1746538093,463348545,mA1/gps,0,1,63.43465522357724,10.392568663925253,0.0,1.4400000000000002e-10,0.0,0.0,0.0,1.4400000000000002e-10,0.0,0.0,0.0,1.0,2
2025/05/06 15:28:13.507793125,1746538093,504316306,mA1/gps,0,1,63.43465518914397,10.392568648353924,0.0,1.4400000000000002e-10,0.0,0.0,0.0,1.4400000000000002e-10,0.0,0.0,0.0,1.0,2
2025/05/06 15:28:13.559668902,1746538093,555608369,mA1/gps,0,1,63.43465515450115,10.392568638270914,0.0,1.4400000000000002e-10,0.0,0.0,0.0,1.4400000000000002e-10,0.0,0.0,0.0,1.0,2
2025/05/06 15:28:13.608752226,1746538093,606215886,mA1/gps,0,1,63.43465512052206,10.392568632564078,0.0,1.4400000000000002e-10,0.0,0.0,0.0,1.4400000000000002e-10,0.0,0.0,0.0,1.0,2
2025/05/06 15:28:13.658842975,1746538093,657124465,mA1/gps,0,1,63.43465508560155,10.392568628892366,0.0,1.4400000000000002e-10,0.0,0.0,0.0,1.4400000000000002e-10,0.0,0.0,0.0,1.0,2
2025/05/06 15:28:13.707974711,1746538093,706803974,mA1/gps,0,1,63.43465505047713,10.392568628419397,0.0,1.4400000000000002e-10,0.0,0.0,0.0,1.4400000000000002e-10,0.0,0.0,0.0,1.0,2
2025/05/06 15:28:13.760341732,1746538093,758229647,mA1/gps,0,1,63.434655014252556,10.392568630288764,0.0,1.4400000000000002e-10,0.0,0.0,0.0,1.4400000000000002e-10,0.0,0.0,0.0,1.0,2
2025/05/06 15:28:13.815730929,1746538093,812174632,mA1/gps,0,1,63.434654978901236,10.39256863398741,0.0,1.4400000000000002e-10,0.0,0.0,0.0,1.4400000000000002e-10,0.0,0.0,0.0,1.0,2
2025/05/06 15:28:13.866218295,1746538093,863146235,mA1/gps,0,1,63.434654944777655,10.39256863876903,0.0,1.4400000000000002e-10,0.0,0.0,0.0,1.4400000000000002e-10,0.0,0.0,0.0,1.0,2
2025/05/06 15:28:13.914932741,1746538093,912926005,mA1/gps,0,1,63.43465491074165,10.392568644860528,0.0,1.4400000000000002e-10,0.0,0.0,0.0,1.4400000000000002e-10,0.0,0.0,0.0,1.0,2
2025/05/06 15:28:13.959727171,1746538093,954674377,mA1/gps,0,1,63.43465487552683,10.39256865034911,0.0,1.4400000000000002e-10,0.0,0.0,0.0,1.4400000000000002e-10,0.0,0.0,0.0,1.0,2
2025/05/06 15:28:14.8679681,1746538094,5403015,mA1/gps,0,1,63.43465483911161,10.392568655126988,0.0,1.4400000000000002e-10,0.0,0.0,0.0,1.4400000000000002e-10,0.0,0.0,0.0,1.0,2
2025/05/06 15:28:14.57889136,1746538094,56646362,mA1/gps,0,1,63.43465480262065,10.392568658391387,0.0,1.4400000000000002e-10,0.0,0.0,0.0,1.4400000000000002e-10,0.0,0.0,0.0,1.0,2
2025/05/06 15:28:14.107674397,1746538094,106835381,mA1/gps,0,1,63.43465476677533,10.392568659048182,0.0,1.4400000000000002e-10,0.0,0.0,0.0,1.4400000000000002e-10,0.0,0.0,0.0,1.0,2
2025/05/06 15:28:14.159505874,1746538094,157790101,mA1/gps,0,1,63.43465473130421,10.392568657571752,0.0,1.4400000000000002e-10,0.0,0.0,0.0,1.4400000000000002e-10,0.0,0.0,0.0,1.0,2
2025/05/06 15:28:14.210080084,1746538094,208052636,mA1/gps,0,1,63.434654695549604,10.392568653383904,0.0,1.4400000000000002e-10,0.0,0.0,0.0,1.4400000000000002e-10,0.0,0.0,0.0,1.0,2
2025/05/06 15:28:14.264094697,1746538094,260153299,mA1/gps,0,1,63.43465465906451,10.392568646176201,0.0,1.4400000000000002e-10,0.0,0.0,0.0,1.4400000000000002e-10,0.0,0.0,0.0,1.0,2
2025/05/06 15:28:14.311369866,1746538094,309012797,mA1/gps,0,1,63.434654622315655,10.392568637013419,0.0,1.4400000000000002e-10,0.0,0.0,0.0,1.4400000000000002e-10,0.0,0.0,0.0,1.0,2
2025/05/06 15:28:14.364629061,1746538094,362374424,mA1/gps,0,1,63.434654584140155,10.392568625667563,0.0,1.4400000000000002e-10,0.0,0.0,0.0,1.4400000000000002e-10,0.0,0.0,0.0,1.0,2
2025/05/06 15:28:14.415461339,1746538094,411831325,mA1/gps,0,1,63.434654546607156,10.392568613076818,0.0,1.4400000000000002e-10,0.0,0.0,0.0,1.4400000000000002e-10,0.0,0.0,0.0,1.0,2
2025/05/06 15:28:14.467507318,1746538094,462973115,mA1/gps,0,1,63.43465450683162,10.392568603112618,0.0,1.4400000000000002e-10,0.0,0.0,0.0,1.4400000000000002e-10,0.0,0.0,0.0,1.0,2
2025/05/06 15:28:14.513880783,1746538094,512862137,mA1/gps,0,1,63.43465446662923,10.392568594461958,0.0,1.4400000000000002e-10,0.0,0.0,0.0,1.4400000000000002e-10,0.0,0.0,0.0,1.0,2
2025/05/06 15:28:14.569771624,1746538094,566283426,mA1/gps,0,1,63.4346544247364,10.392568590933445,0.0,1.4400000000000002e-10,0.0,0.0,0.0,1.4400000000000002e-10,0.0,0.0,0.0,1.0,2
2025/05/06 15:28:14.605240963,1746538094,604563151,mA1/gps,0,1,63.43465438292693,10.392568591030075,0.0,1.4400000000000002e-10,0.0,0.0,0.0,1.4400000000000002e-10,0.0,0.0,0.0,1.0,2
2025/05/06 15:28:14.659826006,1746538094,656383909,mA1/gps,0,1,63.43465433980343,10.392568596915694,0.0,1.4400000000000002e-10,0.0,0.0,0.0,1.4400000000000002e-10,0.0,0.0,0.0,1.0,2
2025/05/06 15:28:14.711644786,1746538094,707192364,mA1/gps,0,1,63.43465429567622,10.392568606713645,0.0,1.4400000000000002e-10,0.0,0.0,0.0,1.4400000000000002e-10,0.0,0.0,0.0,1.0,2
2025/05/06 15:28:14.759983940,1746538094,758137808,mA1/gps,0,1,63.43465425210585,10.392568619638608,0.0,1.4400000000000002e-10,0.0,0.0,0.0,1.4400000000000002e-10,0.0,0.0,0.0,1.0,2
2025/05/06 15:28:14.810076658,1746538094,808220279,mA1/gps,0,1,63.43465420692116,10.392568635460936,0.0,1.4400000000000002e-10,0.0,0.0,0.0,1.4400000000000002e-10,0.0,0.0,0.0,1.0,2
2025/05/06 15:28:14.860607805,1746538094,859192516,mA1/gps,0,1,63.43465416233103,10.392568653215037,0.0,1.4400000000000002e-10,0.0,0.0,0.0,1.4400000000000002e-10,0.0,0.0,0.0,1.0,2
2025/05/06 15:28:14.914491566,1746538094,911438662,mA1/gps,0,1,63.434654118148615,10.392568671015825,0.0,1.4400000000000002e-10,0.0,0.0,0.0,1.4400000000000002e-10,0.0,0.0,0.0,1.0,2
2025/05/06 15:28:14.970787106,1746538094,962067833,mA1/gps,0,1,63.43465407316741,10.39256868834923,0.0,1.4400000000000002e-10,0.0,0.0,0.0,1.4400000000000002e-10,0.0,0.0,0.0,1.0,2
2025/05/06 15:28:15.13005585,1746538095,12076348,mA1/gps,0,1,63.43465402773342,10.392568704135032,0.0,1.4400000000000002e-10,0.0,0.0,0.0,1.4400000000000002e-10,0.0,0.0,0.0,1.0,2
2025/05/06 15:28:15.65674311,1746538095,64468510,mA1/gps,0,1,63.43465398411849,10.392568716544153,0.0,1.4400000000000002e-10,0.0,0.0,0.0,1.4400000000000002e-10,0.0,0.0,0.0,1.0,2
2025/05/06 15:28:15.105553747,1746538095,104284058,mA1/gps,0,1,63.43465394099131,10.392568726273884,0.0,1.4400000000000002e-10,0.0,0.0,0.0,1.4400000000000002e-10,0.0,0.0,0.0,1.0,2
2025/05/06 15:28:15.158863242,1746538095,155429888,mA1/gps,0,1,63.43465389810024,10.392568731194027,0.0,1.4400000000000002e-10,0.0,0.0,0.0,1.4400000000000002e-10,0.0,0.0,0.0,1.0,2
2025/05/06 15:28:15.206711449,1746538095,206013879,mA1/gps,0,1,63.434653854659096,10.39256873108969,0.0,1.4400000000000002e-10,0.0,0.0,0.0,1.4400000000000002e-10,0.0,0.0,0.0,1.0,2
2025/05/06 15:28:15.259433562,1746538095,257246831,mA1/gps,0,1,63.43465381259083,10.392568726494893,0.0,1.4400000000000002e-10,0.0,0.0,0.0,1.4400000000000002e-10,0.0,0.0,0.0,1.0,2
2025/05/06 15:28:15.308825563,1746538095,307165583,mA1/gps,0,1,63.434653771394366,10.39256871668189,0.0,1.4400000000000002e-10,0.0,0.0,0.0,1.4400000000000002e-10,0.0,0.0,0.0,1.0,2
2025/05/06 15:28:15.360571930,1746538095,359405895,mA1/gps,0,1,63.43465372900787,10.392568701670339,0.0,1.4400000000000002e-10,0.0,0.0,0.0,1.4400000000000002e-10,0.0,0.0,0.0,1.0,2
2025/05/06 15:28:15.410367397,1746538095,408547814,mA1/gps,0,1,63.43465368692744,10.39256868269381,0.0,1.4400000000000002e-10,0.0,0.0,0.0,1.4400000000000002e-10,0.0,0.0,0.0,1.0,2
2025/05/06 15:28:15.463184760,1746538095,459777058,mA1/gps,0,1,63.43465364584843,10.392568660792392,0.0,1.4400000000000002e-10,0.0,0.0,0.0,1.4400000000000002e-10,0.0,0.0,0.0,1.0,2
2025/05/06 15:28:15.512899063,1746538095,510426683,mA1/gps,0,1,63.43465360546318,10.39256863678841,0.0,1.4400000000000002e-10,0.0,0.0,0.0,1.4400000000000002e-10,0.0,0.0,0.0,1.0,2
2025/05/06 15:28:15.566763852,1746538095,561417441,mA1/gps,0,1,63.43465356376868,10.39256861024642,0.0,1.4400000000000002e-10,0.0,0.0,0.0,1.4400000000000002e-10,0.0,0.0,0.0,1.0,2
2025/05/06 15:28:15.614990250,1746538095,613217848,mA1/gps,0,1,63.43465352071596,10.39256858331598,0.0,1.4400000000000002e-10,0.0,0.0,0.0,1.4400000000000002e-10,0.0,0.0,0.0,1.0,2
2025/05/06 15:28:15.656532696,1746538095,654183748,mA1/gps,0,1,63.434653478483106,10.392568556850579,0.0,1.4400000000000002e-10,0.0,0.0,0.0,1.4400000000000002e-10,0.0,0.0,0.0,1.0,2
