time,header_stamp_secs,header_stamp_nsecs,header_frame_id,quaternion_x,quaternion_y,quaternion_z,quaternion_w
2025/05/06 15:27:58.922916930,1746538078,820281052,,1.8039922321749785e-05,-0.0004004031155659177,0.9984563689197464,-0.0555402441073272
2025/05/06 15:27:58.925931848,1746538078,924505663,,2.621183013928145e-05,-0.0003997006643461829,0.9984563685170005,-0.05554025315176974
2025/05/06 15:27:59.38618552,1746538079,37539766,,1.8465866600761468e-05,-0.0004003571969352416,0.998456368246125,-0.05554025640817
2025/05/06 15:27:59.130881725,1746538079,130684893,,2.6610399381796207e-05,-0.0004003883094629189,0.9984563674642235,-0.055540266935224264
2025/05/06 15:27:59.225800939,1746538079,225584013,,1.8604113714443688e-05,-0.00040159809899048814,0.9984563669077209,-0.05554027146394494
2025/05/06 15:27:59.330899928,1746538079,328671020,,2.6573012634012808e-05,-0.0004018698621110781,0.9984563659708261,-0.05554028309993353
2025/05/06 15:27:59.441982390,1746538079,424945090,,1.86473793104051e-05,-0.0004029573751012668,0.9984563653935804,-0.05554028882415226
2025/05/06 15:27:59.529846383,1746538079,524718397,,2.6564189655287753e-05,-0.0004028152225434825,0.9984563645489143,-0.05554030181774286
2025/05/06 15:27:59.627679080,1746538079,627052020,,1.8616311063906376e-05,-0.00040327343692244023,0.9984563641469686,-0.055540308951104636
2025/05/06 15:27:59.725955214,1746538079,724552870,,2.6486670359964597e-05,-0.0004024518464934317,0.9984563635175318,-0.05554032303033934
2025/05/06 15:27:59.838345396,1746538079,823935833,,1.840528875029565e-05,-0.00040235221137040195,0.9984563632882275,-0.05554033114044748
2025/05/06 15:27:59.945623845,1746538079,930840378,,2.619885291031716e-05,-0.0004011925386818919,0.998456362725282,-0.0555403465200483
2025/05/06 15:28:00.33566008,1746538080,28382251,,1.812971265431076e-05,-0.00040107812008194463,0.998456362419919,-0.05554035605610314
2025/05/06 15:28:00.149780700,1746538080,127098329,,2.5988520369676168e-05,-0.0004002193822658766,0.998456361659004,-0.05554037280850163
2025/05/06 15:28:00.228902674,1746538080,225291099,,1.8036565223492534e-05,-0.0004005914526666036,0.9984563610856655,-0.05554038358475404
2025/05/06 15:28:00.364572364,1746538080,322270370,,2.5998487567115595e-05,-0.0004002962283257225,0.9984563600434504,-0.05554040129304161
2025/05/06 15:28:00.439469550,1746538080,438680579,,1.8033127629242676e-05,-0.0004012092918307498,0.998456359207668,-0.05554041288718411
2025/05/06 15:28:00.532099352,1746538080,531080789,,2.6030334485140062e-05,-0.000401303650041764,0.9984563579776567,-0.05554043114520913
2025/05/06 15:28:00.639567373,1746538080,628758365,,1.8238823538901137e-05,-0.0004023663285775115,0.9984563570555314,-0.05554044313903219
2025/05/06 15:28:00.725025233,1746538080,722786269,,2.6357438327916544e-05,-0.00040235015070377736,0.9984563558228949,-0.05554046215603999
2025/05/06 15:28:00.825619087,1746538080,825261384,,1.8708579438453735e-05,-0.00040358132406541103,0.9984563762412864,-0.05554008926192739
2025/05/06 15:28:01.65672247,1746538081,23670565,,2.0401228043962565e-05,-0.00042358769348722273,0.9984566266736477,-0.05553543741374958
2025/05/06 15:28:01.220901430,1746538081,219038499,,2.20247116455032e-05,-0.0004585052485796386,0.9984568427170776,-0.05553127514557911
2025/05/06 15:28:01.322904022,1746538081,321491076,,3.017243360857863e-05,-0.0004701207952682477,0.9984569427910919,-0.05552937482385711
2025/05/06 15:28:01.430903818,1746538081,427553412,,2.185128683765878e-05,-0.0004747831100599788,0.9984570406525914,-0.05552757940689587
2025/05/06 15:28:01.534386860,1746538081,522763265,,2.918816890084194e-05,-0.00046959730895188625,0.9984571363676018,-0.055525899029431273
2025/05/06 15:28:01.647562746,1746538081,627926952,,2.0101805348154934e-05,-0.00045680434147136486,0.9984572309423996,-0.055524309131650414
2025/05/06 15:28:01.798070509,1746538081,719864216,,2.572254349973723e-05,-0.00041913291142246854,0.9984573365822444,-0.055522704284321524
2025/05/06 15:28:01.873880863,1746538081,826902152,,1.4490478164697982e-05,-0.000360917277632519,0.9984574529224403,-0.055521025138030346
2025/05/06 15:28:01.925454520,1746538081,922437447,,1.9017425932691224e-05,-0.00029529238858876696,0.9984575706593245,-0.05551929424824444
2025/05/06 15:28:02.51823326,1746538082,31564021,,8.394627853457922e-06,-0.0002401713054217027,0.9984576850697485,-0.055517505099140003
2025/05/06 15:28:02.145027364,1746538082,127929616,,1.5033760553820821e-05,-0.00020672870950385485,0.9984577946898244,-0.05551566680099565
2025/05/06 15:28:02.245786069,1746538082,221570145,,7.48927248873396e-06,-0.00020416368674122228,0.9984579008375238,-0.05551376870854239
2025/05/06 15:28:02.356537201,1746538082,323286868,,1.7240030830441615e-05,-0.00023069741200431156,0.9984580037778209,-0.055511811117046
2025/05/06 15:28:02.449281496,1746538082,428056675,,1.2443924813485249e-05,-0.00028153369157940766,0.9984581036200553,-0.055509782015173814
2025/05/06 15:28:02.527313623,1746538082,525026876,,2.4028702114481607e-05,-0.0003429160272459105,0.9984582003689225,-0.055507692685539615
2025/05/06 15:28:02.625677425,1746538082,623907930,,1.9384058861820667e-05,-0.0004027088961054122,0.9984582981391916,-0.055505534199685624
2025/05/06 15:28:02.786591750,1746538082,723394033,,2.985766147875635e-05,-0.0004510204039813998,0.9984583974220476,-0.05550337202829831
2025/05/06 15:28:02.859797532,1746538082,819060864,,2.3305659190744095e-05,-0.00048218750367670844,0.9984585022805842,-0.05550122679428168
2025/05/06 15:28:02.950398408,1746538082,921741512,,3.1211573455429474e-05,-0.0004882745835338882,0.9984586162303476,-0.05549911971507464
2025/05/06 15:28:03.29677389,1746538083,23775531,,2.188370794932651e-05,-0.00047108480780497935,0.9984587404510152,-0.05549703791356224
2025/05/06 15:28:03.172427496,1746538083,126630611,,2.7545913164511724e-05,-0.0004369044566676765,0.9984588692249846,-0.055494998168155445
2025/05/06 15:28:03.357082075,1746538083,222473115,,1.703611188862813e-05,-0.0003972365879205125,0.9984589979137709,-0.05549298512328084
2025/05/06 15:28:03.466200064,1746538083,319620596,,2.2830372659354625e-05,-0.0003596260549024026,0.9984591217746788,-0.055491010918996525
2025/05/06 15:28:03.556102860,1746538083,426452083,,1.3586343093943223e-05,-0.0003343727436231757,0.9984592390588023,-0.05548906152024303
2025/05/06 15:28:03.775195252,1746538083,524799787,,2.1333210788127893e-05,-0.00032498145381115815,0.998459348464768,-0.055487146216577674
2025/05/06 15:28:03.870752132,1746538083,625343540,,1.43290702288815e-05,-0.0003347006010325654,0.9984594506826115,-0.0554852513084614
2025/05/06 15:28:03.924640524,1746538083,720006755,,2.4026006933249703e-05,-0.00035866568393039846,0.9984595459279191,-0.055483384243318105
2025/05/06 15:28:04.16258370,1746538083,929364965,,2.8342714176396726e-05,-0.00042535688982655483,0.9984597246055381,-0.0554796954645562
2025/05/06 15:28:04.91252036,1746538084,23719173,,2.0955542002397562e-05,-0.0004332795020723668,0.9984598310401208,-0.055477721916747935
2025/05/06 15:28:04.269882883,1746538084,137327313,,2.756189760822028e-05,-0.00040844299654152575,0.9984599121299021,-0.05547644801362561
2025/05/06 15:28:04.343778726,1746538084,225448288,,1.78956339065334e-05,-0.00037820606202822155,0.9984593358563916,-0.05548703705492101
2025/05/06 15:28:04.422735102,1746538084,325017099,,2.2897116421213217e-05,-0.00032986440619351114,0.9984588002672361,-0.05549698040530853
2025/05/06 15:28:04.542786959,1746538084,424274772,,1.1551035074426843e-05,-0.0002778002126835448,0.9984582971356081,-0.055506320132732705
2025/05/06 15:28:04.846235974,1746538084,520051899,,1.6417838861549054e-05,-0.00023322755344206455,0.9984578179977451,-0.055515142209530105
2025/05/06 15:28:04.918027906,1746538084,620910011,,6.554626699549967e-06,-0.0002061237823958607,0.9984574666164096,-0.05552157083480999
2025/05/06 15:28:05.147239508,1746538084,918599189,,2.0348051020135242e-05,-0.0003101722082295071,0.9984549779775895,-0.05556581980794975
2025/05/06 15:28:05.163778205,1746538085,21436022,,1.6128823060175104e-05,-0.000371456362828444,0.9984540236847632,-0.05558259032950888
2025/05/06 15:28:05.221743438,1746538085,221124597,,2.1559843613305804e-05,-0.0004598333473957659,0.9984522790668668,-0.05561325844297456
2025/05/06 15:28:05.324595353,1746538085,322916699,,3.033131819476771e-05,-0.000467719533029255,0.998451570146607,-0.055625914736073215
2025/05/06 15:28:05.426177854,1746538085,423866652,,2.156154268580105e-05,-0.00045043734267362075,0.9984509211223471,-0.05563770979503905
2025/05/06 15:28:05.609502927,1746538085,520388418,,2.726775394043994e-05,-0.00041117664158919434,0.9984503221024613,-0.05564875994782264
2025/05/06 15:28:05.655240412,1746538085,622745554,,1.6091292904183054e-05,-0.0003616088198402452,0.998449765392651,-0.05565909599959365
2025/05/06 15:28:05.723338573,1746538085,718155606,,2.0753660125356415e-05,-0.0003118291562641623,0.9984492429872451,-0.05566876601883562
2025/05/06 15:28:05.827345550,1746538085,826829486,,1.0317295590652894e-05,-0.00027528970309672316,0.9984487507981119,-0.05567778855901858
2025/05/06 15:28:05.929344711,1746538085,924816873,,1.7024120099506435e-05,-0.00025851697605927423,0.998448285275997,-0.05568621470861283
2025/05/06 15:28:06.20698956,1746538086,16154760,,9.502094700389445e-06,-0.00026730877167254353,0.9984478452421838,-0.055694064198717225
2025/05/06 15:28:06.124243230,1746538086,123346575,,1.991212458751735e-05,-0.00030870937368339185,0.9984474197690224,-0.05570147447430614
2025/05/06 15:28:06.228784671,1746538086,223850876,,1.6187459498869475e-05,-0.0003782425363090564,0.9984470024406141,-0.05570852706635112
2025/05/06 15:28:06.319074075,1746538086,317188272,,2.907066363689403e-05,-0.0004568460630739484,0.9984465940342327,-0.05571525202322134
2025/05/06 15:28:06.437527623,1746538086,428357024,,2.5648061023754642e-05,-0.0005275576864954417,0.9984462022988051,-0.05572164875663681
2025/05/06 15:28:06.524954887,1746538086,519912944,,3.6662769733623746e-05,-0.000572188269416141,0.9984458366925621,-0.05572775293976118
2025/05/06 15:28:06.627117956,1746538086,624122672,,2.9722247350761537e-05,-0.0005827270991308306,0.998445506199899,-0.05573356883372394
2025/05/06 15:28:06.729757882,1746538086,725401041,,3.536425879428227e-05,-0.0005543755215230616,0.9984451904120426,-0.05573951166103144
2025/05/06 15:28:06.850875027,1746538086,824986275,,1.3889380859383153e-05,-0.0004840774600093074,0.9984447958323202,-0.05574724344265354
2025/05/06 15:28:06.923040037,1746538086,922504047,,-1.9917849358763852e-05,-0.0003488239828376611,0.9984467320824304,-0.05571356315138828
2025/05/06 15:28:07.29387884,1746538087,25727528,,-7.391804578751658e-05,-0.000322067206602617,0.9984453766318685,-0.05573796454198141
2025/05/06 15:28:07.120324510,1746538087,119104592,,-0.00011367366193613486,-0.00033025851780049237,0.9984426224986888,-0.05578716326853998
2025/05/06 15:28:07.221927101,1746538087,220936492,,-0.00015832700153542095,-0.00033331294866754843,0.9984400923810214,-0.05583230033964487
2025/05/06 15:28:07.323691182,1746538087,322010960,,-0.00017897198980180445,-0.0003410984942257828,0.9984372457385544,-0.05588307384936491
2025/05/06 15:28:07.431896720,1746538087,428913623,,-0.00017569923248482103,-0.00034686566996036585,0.9984343052448842,-0.05593556046158795
2025/05/06 15:28:07.520720015,1746538087,519553105,,-0.00016096385327829378,-0.00036452537431356624,0.9984306118356948,-0.05600137999451304
2025/05/06 15:28:07.625744829,1746538087,624077348,,-0.0001221151696534172,-0.00037800536621512143,0.9984266557647076,-0.05607187582318366
2025/05/06 15:28:07.721261183,1746538087,720605560,,-7.871717641523504e-05,-0.0003946217129613681,0.9984220605417725,-0.05615360274132892
2025/05/06 15:28:07.829522429,1746538087,825306119,,-1.589328111731195e-05,-0.0003922665513454019,0.9984176098697652,-0.05623275003324552
2025/05/06 15:28:07.921509340,1746538087,919407542,,2.7258091474133866e-05,-0.00039437753386160494,0.9984125010565426,-0.056323365110554406
2025/05/06 15:28:08.34197913,1746538088,25250552,,5.5635969792142735e-05,-0.0004030371496617888,0.9984068418880685,-0.0564235104968511
2025/05/06 15:28:08.124542728,1746538088,121413524,,6.971493691643762e-05,-0.0004127654822049931,0.9984010050853814,-0.056526611511609
2025/05/06 15:28:08.224392046,1746538088,221501339,,5.9009377817993766e-05,-0.0004186412114363792,0.9983953618777766,-0.05662616566900056
2025/05/06 15:28:08.328041748,1746538088,326608054,,3.851391932999802e-05,-0.00042575093124479197,0.9983894857222493,-0.056729639978457994
2025/05/06 15:28:08.427713655,1746538088,424113340,,-6.8368359631470445e-06,-0.0004307871668054373,0.9983834207127534,-0.056836252705256114
2025/05/06 15:28:08.525933148,1746538088,520988494,,-5.9920523883099515e-05,-0.00041906788004197746,0.9983777989043756,-0.05693497559933822
2025/05/06 15:28:08.623165401,1746538088,622719902,,-0.00010519467727086986,-0.00041024631397785713,0.998371942166865,-0.05703758169841758
2025/05/06 15:28:08.754824053,1746538088,724359678,,-0.00014683019865619604,-0.0003917807730287905,0.9983665318866372,-0.05713224096223653
2025/05/06 15:28:08.824596737,1746538088,820114494,,-0.00016110186735231977,-0.0003798602433671402,0.998360957536083,-0.057229609644128536
2025/05/06 15:28:08.924590630,1746538088,921078498,,-0.00015691176979523228,-0.0003860280687016723,0.9983550730101475,-0.05733214243275712
2025/05/06 15:28:09.26905984,1746538089,25428974,,-0.00013688960995412024,-0.0003964389286831012,0.9983493729054814,-0.05743129562044305
2025/05/06 15:28:09.122952286,1746538089,119248838,,-0.00010607421711217051,-0.0003368326812325539,0.9983471275826908,-0.05747075899443003
2025/05/06 15:28:09.225406660,1746538089,221887761,,-7.964334693744223e-05,-0.00021690947140062995,0.9983486894982446,-0.05744424065436137
2025/05/06 15:28:09.325044859,1746538089,322411442,,-5.410088668873767e-05,-8.379915022253442e-05,0.9983533489949232,-0.057363582536460955
2025/05/06 15:28:09.425166160,1746538089,423519872,,-2.7367862162820124e-05,-2.7269123804948138e-05,0.9983590933501026,-0.05726359430350459
2025/05/06 15:28:09.520575080,1746538089,519069847,,2.4426646411483937e-06,-6.842183543861624e-05,0.9983655668573259,-0.05715059252655266
2025/05/06 15:28:09.617988456,1746538089,617259806,,1.822525504647338e-05,-0.0002153820015933264,0.9983717088107267,-0.05704282886378453
2025/05/06 15:28:09.721745506,1746538089,720446335,,4.638584696883043e-05,-0.00041222414226945635,0.9983784347788006,-0.05692388679844372
2025/05/06 15:28:09.824041065,1746538089,823561571,,3.9627933050020796e-05,-0.0006295958093472827,0.9983851688609592,-0.05680366746274356
2025/05/06 15:28:09.916736384,1746538089,915486776,,2.6248351641583168e-05,-0.0008190732319776494,0.9983914648724544,-0.05669048685537558
2025/05/06 15:28:10.27085623,1746538090,26439222,,8.395681548613417e-06,-0.0009188885138784165,0.9983983456817709,-0.056567648999359676
2025/05/06 15:28:10.117902360,1746538090,116100689,,-2.907010873519371e-05,-0.0009176289517726072,0.9984056853544355,-0.05643797094134219
2025/05/06 15:28:10.221913359,1746538090,220254462,,-5.059422385559651e-05,-0.0008319368248625645,0.9984129930790321,-0.056309862123012984
2025/05/06 15:28:10.319988350,1746538090,319340123,,-7.928321872283065e-05,-0.0006763202631851603,0.9984203182944431,-0.05618188606566924
2025/05/06 15:28:10.430265908,1746538090,425647756,,-9.392086251497114e-05,-0.0004955916488626486,0.9984275804378208,-0.05605454654948446
2025/05/06 15:28:10.543736011,1746538090,517529544,,-0.00010088231373815851,-0.0003253759184522277,0.9984348431865343,-0.05592627168291299
2025/05/06 15:28:10.618506364,1746538090,617832978,,-8.549924277337179e-05,-0.00020979172157714165,0.9984420436018903,-0.05579815629027785
2025/05/06 15:28:10.721582922,1746538090,719829013,,-7.2458585955731e-05,-0.00018530308937016215,0.9984484233080264,-0.05568398698220633
2025/05/06 15:28:10.822914752,1746538090,821804180,,-5.441333807521788e-05,-0.00022417578868663294,0.9984552824871198,-0.05556073845774806
2025/05/06 15:28:10.923225698,1746538090,922748927,,-3.490001419321549e-05,-0.00033090720326695125,0.9984618047285976,-0.05544288755578937
2025/05/06 15:28:11.27856696,1746538091,25988983,,-3.39138814626704e-06,-0.0005305203765832341,0.9984660026401568,-0.0553656943279409
2025/05/06 15:28:11.116522343,1746538091,115899978,,-1.8421739754666496e-06,-0.0007145012819808195,0.9984699851554278,-0.05529175551783748
2025/05/06 15:28:11.222625643,1746538091,220416622,,-1.6907925959467074e-05,-0.0008270733687196488,0.9984740630572975,-0.0552164926957221
2025/05/06 15:28:11.319954482,1746538091,318327703,,-3.266792532029929e-05,-0.0008533916272781889,0.9984781627448659,-0.05514190037688702
2025/05/06 15:28:11.432653330,1746538091,431517305,,-7.031062549099964e-05,-0.0007913823886811372,0.9984820234447698,-0.05507283929460169
2025/05/06 15:28:11.522603390,1746538091,520528368,,-0.00011338290064536254,-0.000658494467602016,0.9984857270688299,-0.055007330140484256
2025/05/06 15:28:11.618781022,1746538091,617990488,,-0.0001615336636994239,-0.0004745635837292788,0.9984897336297214,-0.054936331624242
2025/05/06 15:28:11.723631936,1746538091,721756203,,-0.00018710173995352874,-0.0002930414585862513,0.9984937361163576,-0.05486472506119215
2025/05/06 15:28:11.822242846,1746538091,821463801,,-0.00020361760366481197,-0.00015793511684066456,0.9984973936491999,-0.05479861742895672
2025/05/06 15:28:11.923574156,1746538091,922386773,,-0.0001874781500102341,-9.627613540599345e-05,0.9985009388015539,-0.05473418306017452
2025/05/06 15:28:12.25447477,1746538092,24718251,,-0.0001515512043399556,-0.0001163900055611626,0.9985044915007492,-0.0546694058722924
2025/05/06 15:28:12.125867733,1746538092,124268511,,-0.00010063671089414354,-9.932533795527082e-06,0.9985155699283975,-0.05446692927056563
2025/05/06 15:28:12.221250358,1746538092,217867157,,-6.67501331497636e-05,0.0001700880646497972,0.9985349147057071,-0.05411091135932
2025/05/06 15:28:12.318736743,1746538092,317864592,,-7.3526804703829415e-06,0.000245324194466388,0.9985582488885112,-0.05367833211537133
2025/05/06 15:28:12.426046150,1746538092,424235686,,6.994664901113559e-05,9.307864828079162e-05,0.9985820419244479,-0.05323431214763517
2025/05/06 15:28:12.524171424,1746538092,523036613,,0.00014135415061768388,-0.00024348773370462515,0.9986058813020636,-0.05278460534717051
2025/05/06 15:28:12.619574907,1746538092,618451271,,0.00019165248293410346,-0.0006740991258524967,0.9986296485243303,-0.052329092748362914
2025/05/06 15:28:12.723605941,1746538092,721851762,,0.00023281391931692275,-0.0010912007608390962,0.9986531875380331,-0.05187066703547277
2025/05/06 15:28:12.828413147,1746538092,825668441,,0.0002245862759831319,-0.0014003421703422758,0.9986767732424842,-0.05140711223936337
2025/05/06 15:28:12.921729834,1746538092,918359418,,0.00019389271086678878,-0.0015295221309086775,0.9987005662518157,-0.05093919842292726
2025/05/06 15:28:13.19097787,1746538093,18248907,,0.00014113925083018462,-0.0014582558311569858,0.9987239571572601,-0.05048079803039901
2025/05/06 15:28:13.121888691,1746538093,120776281,,8.851065884714221e-05,-0.00119531986675844,0.9987463574774155,-0.0500427497433361
2025/05/06 15:28:13.220684372,1746538093,219700533,,4.137663162692526e-05,-0.0008016003831211846,0.9987672160567937,-0.049632689378694056
2025/05/06 15:28:13.324290344,1746538093,322853383,,1.92575942503408e-06,-0.0003673563999841385,0.9987858433261728,-0.04926158966976842
2025/05/06 15:28:13.427950298,1746538093,425541763,,-7.309179310889774e-06,-1.05003374895124e-06,0.998801399156911,-0.04894655235734393
2025/05/06 15:28:13.516484148,1746538093,516113655,,1.6114181167488213e-05,0.00017449790510942862,0.9988121435864133,-0.048726492949201804
2025/05/06 15:28:13.619053174,1746538093,618458056,,3.299072421084405e-05,0.00016952568324981741,0.9988188822150746,-0.048588174521005945
2025/05/06 15:28:13.718846828,1746538093,718424118,,3.394619952740434e-05,6.766824836307777e-05,0.9988241045684464,-0.04848094885318225
2025/05/06 15:28:13.824983568,1746538093,823942986,,4.472883423901295e-05,-9.698033628316521e-05,0.9988281227412571,-0.04839803524237455
2025/05/06 15:28:13.925026715,1746538093,924780567,,1.4354151190134097e-05,-0.00028661835379804944,0.9988310314914386,-0.048337233822661835
2025/05/06 15:28:14.22279487,1746538094,17624939,,-3.794629082958826e-05,-0.0004586819406468782,0.998833265528072,-0.04828970744873621
2025/05/06 15:28:14.122006927,1746538094,120846888,,-8.40015767009402e-05,-0.0005478395776149465,0.9988364185147007,-0.04822345761409047
2025/05/06 15:28:14.222674654,1746538094,220255217,,-0.00016133897723052084,-0.0005260250876854844,0.9988418335909076,-0.04811121216613745
2025/05/06 15:28:14.321566521,1746538094,320930673,,-0.00021251904320482754,-0.00037392750929972693,0.9988509805816863,-0.047922161938688625
2025/05/06 15:28:14.426294594,1746538094,425074146,,-0.00025373557089329287,-0.00014155993333667737,0.9988642459850853,-0.04764591978011059
2025/05/06 15:28:14.527544246,1746538094,525384189,,-0.00022958409521957868,4.7979164925842374e-05,0.9988802990251521,-0.04730848981489206
2025/05/06 15:28:14.616675899,1746538094,615897672,,-0.00016264065262256664,8.483056610319161e-05,0.9988970902280159,-0.04695284321312483
2025/05/06 15:28:14.723666364,1746538094,721266280,,-5.9456529677156e-05,-5.376402152877369e-05,0.9989140296433949,-0.04659136138755708
2025/05/06 15:28:14.821638226,1746538094,820140471,,6.182115760031933e-05,-0.0003255708381516813,0.9989310883013027,-0.046223057092200294
2025/05/06 15:28:14.955242428,1746538094,925532847,,0.00016649377532102828,-0.0006637494100087312,0.9989481219571015,-0.04584955130558554
2025/05/06 15:28:15.24694853,1746538095,24031954,,0.00024942528734766975,-0.000982886323268903,0.9989652714145496,-0.0454682111937217
2025/05/06 15:28:15.117310129,1746538095,116048259,,0.0002873224571140256,-0.001219422487104955,0.9989824847951281,-0.04508243035990219
2025/05/06 15:28:15.218355164,1746538095,217397593,,0.0002710111196325623,-0.0013249838121582949,0.9989998477049431,-0.04469312314407226
2025/05/06 15:28:15.320938400,1746538095,319345903,,0.00020213012921341134,-0.001276980071390746,0.999017481447526,-0.04429898675534529
2025/05/06 15:28:15.429099382,1746538095,424397788,,0.00011663979383460799,-0.0010894009630175376,0.9990353387999689,-0.04389978849073892
2025/05/06 15:28:15.523247595,1746538095,522071252,,2.572049421454652e-06,-0.0008133856964175164,0.9990532395433359,-0.043496700507734576
2025/05/06 15:28:15.628817616,1746538095,627347032,,-0.00010865993421168921,-0.0005106295787611167,0.9990711788705783,-0.04308720228333518
2025/05/06 15:28:15.716983049,1746538095,716261136,,-0.00020755212955644612,-0.00025422446893365243,0.9990887139004183,-0.04268060506648211
2025/05/06 15:28:15.817351461,1746538095,817036469,,-0.00026120039514737907,-9.451850166873503e-05,0.9991061811497219,-0.042270103253074724
2025/05/06 15:28:15.918939491,1746538095,917418788,,-0.00026842737943708474,-6.305954580134782e-05,0.9991237088804377,-0.04185377310630782
2025/05/06 15:28:16.22111422,1746538096,20182095,,-0.00022562976413507775,-0.00016320317613531274,0.9991411753253222,-0.041434698327206
2025/05/06 15:28:16.119932080,1746538096,119172612,,-0.00013315672480762922,-0.000361762725051178,0.9991578981732335,-0.041028598746044614
2025/05/06 15:28:16.226623442,1746538096,225881985,,-9.407820304686021e-06,-0.0006122975577303628,0.9991726583493146,-0.040664773580555105
2025/05/06 15:28:16.324394325,1746538096,323471949,,0.00013252959644287829,-0.0008869276503936786,0.9991839153432976,-0.040381915686195174
2025/05/06 15:28:16.428590851,1746538096,425929870,,0.0002516957278979887,-0.0011212261728023266,0.9991910381394854,-0.04019886569130353
2025/05/06 15:28:16.520157645,1746538096,516945308,,0.00031397911404989055,-0.001153342526316506,0.9991969427082448,-0.04005047940574249
2025/05/06 15:28:16.616860877,1746538096,616704001,,0.00030328885950881517,-0.000973839968726321,0.9992023086863377,-0.039921247068144046
2025/05/06 15:28:16.723860249,1746538096,721641714,,0.0002076754972994996,-0.0006257194485959541,0.9992069735508363,-0.03981192476429566
2025/05/06 15:28:16.823148266,1746538096,821786035,,4.820859586670858e-05,-0.00020228674581734067,0.9992107916889695,-0.03972090794917328
2025/05/06 15:28:16.925483183,1746538096,924700562,,-0.00012854069464307593,0.00019555383902727846,0.9992136976953996,-0.03964759228342159
2025/05/06 15:28:17.26425421,1746538097,25477711,,-0.0003235560757936589,0.0004799900003799589,0.9992159798328226,-0.03958649476523145
2025/05/06 15:28:17.121675150,1746538097,119970966,,-0.0004788840337193619,0.000571241794692422,0.9992169651834985,-0.03955882761626782
2025/05/06 15:28:17.221245528,1746538097,219923431,,-0.0005529958929942345,0.0004935420813829618,0.9992173439969428,-0.039549337130366964
2025/05/06 15:28:17.323391294,1746538097,321090008,,-0.0005639011656040948,0.0002828997435380258,0.9992169978097106,-0.039559995846302855
2025/05/06 15:28:17.429728626,1746538097,426708931,,-0.0004934960634763699,-5.373463660641388e-06,0.9992153990492664,-0.03960230720017162
2025/05/06 15:28:17.525433079,1746538097,524657156,,-0.000372785121856066,-0.00028370149448337485,0.999212617172866,-0.03967273909458012
2025/05/06 15:28:17.620887234,1746538097,618345182,,-0.00020173907523844654,-0.00047570439013684636,0.9992090298604398,-0.0397623899185848
2025/05/06 15:28:17.719164699,1746538097,718844861,,-3.7415548058370036e-05,-0.0005110579339236332,0.999205524815272,-0.03985042783335786
2025/05/06 15:28:17.821332105,1746538097,819850637,,0.0001060439505683509,-0.00041171060913976725,0.9992016399919726,-0.039948740736187906
2025/05/06 15:28:17.923054737,1746538097,922173332,,0.0001967918962961463,-0.00018008691969401407,0.9991981270507312,-0.04003787881446627
2025/05/06 15:28:18.29116664,1746538098,28123165,,0.00022452637182897566,7.16109281430786e-05,0.999194107600743,-0.04013825850405045
2025/05/06 15:28:18.118791605,1746538098,116616715,,0.00018648937928294058,0.00026981902082743605,0.9991903617495103,-0.04023075199757393
2025/05/06 15:28:18.220244857,1746538098,219968546,,9.292139470709863e-05,0.0003487367994960349,0.9991866267556024,-0.040323128115508755
2025/05/06 15:28:18.324325167,1746538098,322243008,,-4.07648166898137e-05,0.00027093591083651074,0.9991825206622191,-0.04042542931195687
2025/05/06 15:28:18.423429804,1746538098,422889156,,-0.00018260035819415928,6.370459860733324e-05,0.9991783475711927,-0.04052890750728657
2025/05/06 15:28:18.523702530,1746538098,522054527,,-0.0003219252427367132,-0.0002475587536529313,0.999173137145422,-0.04065559107647235
2025/05/06 15:28:18.624877228,1746538098,622830865,,-0.0004196948117835064,-0.000572595087649442,0.9991674953449098,-0.04078985458799983
2025/05/06 15:28:18.727192847,1746538098,724283426,,-0.0004699345472424783,-0.0008493014029053921,0.999161192471295,-0.04093860412847429
2025/05/06 15:28:18.826550696,1746538098,824757493,,-0.000455943247021532,-0.0010125117860009768,0.99915412840192,-0.04110711170878462
2025/05/06 15:28:18.917064131,1746538098,916277611,,-0.0003800812322749318,-0.001021287742790141,0.9991467813627896,-0.04128585474446976
2025/05/06 15:28:19.23167603,1746538099,22567167,,-0.00028264468609441313,-0.0006821268297404874,0.9991451449315981,-0.04133320910097916
2025/05/06 15:28:19.124842718,1746538099,124210438,,-0.00016056968239852427,-0.00014403224508906001,0.9991486265304925,-0.041255006657618144
2025/05/06 15:28:19.227072464,1746538099,226103451,,-1.5157544413678681e-05,0.0002988179750136797,0.9991537921098718,-0.0411291890332136
2025/05/06 15:28:19.328471804,1746538099,325831043,,0.00010430922602728861,0.0004941365656123177,0.9991594717182574,-0.040988962225615
2025/05/06 15:28:19.419323986,1746538099,418535054,,0.00021011261401998949,0.0004120747579657367,0.9991658832061329,-0.040832877488511575
2025/05/06 15:28:19.524281603,1746538099,522729496,,0.00024268516525187165,7.88755433355842e-05,0.9991728988848498,-0.04066267350537722
2025/05/06 15:28:19.626479447,1746538099,624563940,,0.00022761440444059186,-0.0004166398045766649,0.9991803355731027,-0.04047754447811995
2025/05/06 15:28:19.716098253,1746538099,715511892,,0.00013790593075282137,-0.0009572491077474726,0.9991880213897949,-0.04027856212983636
2025/05/06 15:28:19.821885326,1746538099,820152949,,1.4565846125022074e-05,-0.0014136784275018007,0.9991960861765735,-0.04006473100567974
2025/05/06 15:28:19.923720786,1746538099,923357327,,-0.0001394685281633131,-0.0016825426002551585,0.9992047727387587,-0.03983681381603879
2025/05/06 15:28:20.25110891,1746538100,24079842,,-0.00027914474110389445,-0.0017086376789573103,0.9992142096292609,-0.039597549298752456
2025/05/06 15:28:20.123276055,1746538100,121431020,,-0.0003931182519151517,-0.001551990366504001,0.9992217970356555,-0.03941112930096806
2025/05/06 15:28:20.220294876,1746538100,219766565,,-0.0004532411414416422,-0.0011672097002028538,0.9992293785611762,-0.039231125579430884
2025/05/06 15:28:20.322637660,1746538100,321105663,,-0.0004345709749659514,-0.0006494701005824097,0.9992368001371059,-0.03905389338355044
2025/05/06 15:28:20.425844926,1746538100,424780089,,-0.00036011735295667124,-0.00012410786060106546,0.999243845575393,-0.038879197425244635
2025/05/06 15:28:20.520167982,1746538100,518185563,,-0.0002410463217297341,0.0002927824307547656,0.9992506052196696,-0.03870509195497745
2025/05/06 15:28:20.618405175,1746538100,617696961,,-8.727118468423271e-05,0.0005095414542582723,0.9992571914833153,-0.03853307696154005
2025/05/06 15:28:20.724935211,1746538100,720959563,,5.7346743281265044e-05,0.0004899308170078053,0.9992635253348149,-0.038368784377192273
2025/05/06 15:28:20.822023185,1746538100,821565427,,0.00016198531379714144,0.00024521061551571185,0.9992697543328648,-0.03820826753529029
2025/05/06 15:28:20.924199284,1746538100,922657962,,0.00021219421932263757,-0.00016172573240861858,0.9992757741272458,-0.03805070381470882
2025/05/06 15:28:21.28044517,1746538101,24395689,,0.0002103265719111871,-0.0006293413581154998,0.9992815030332943,-0.037895083951724556
2025/05/06 15:28:21.117124959,1746538101,115936880,,0.00013116950946883376,-0.0010493279214409605,0.9992868602212124,-0.03774457172500644
2025/05/06 15:28:21.217928295,1746538101,217184945,,1.5049233691204479e-05,-0.0013252964301841018,0.99929197125981,-0.03760052577526063
2025/05/06 15:28:21.318234285,1746538101,317493433,,-0.00013181060321919066,-0.0013909849422771112,0.9992969301527669,-0.037465893478086626
2025/05/06 15:28:21.422897286,1746538101,420415182,,-0.0002986187496766773,-0.0012402998841571325,0.9993017938061474,-0.03734029162789361
2025/05/06 15:28:21.523544653,1746538101,521932417,,-0.00042604640026146955,-0.0009108770808138845,0.9993065498206002,-0.03722107297025309
2025/05/06 15:28:21.625102795,1746538101,623648441,,-0.0005026883447627457,-0.000487364905222271,0.9993109277784438,-0.03711036785674779
2025/05/06 15:28:21.716873007,1746538101,716269587,,-0.0005229613900183598,-6.717797879397137e-05,0.9993148992419558,-0.03700613667411811
2025/05/06 15:28:21.822604461,1746538101,820419989,,-0.0004767592489246221,0.0002521625809984675,0.999318464128948,-0.03690957010873971
2025/05/06 15:28:21.926017995,1746538101,925064654,,-0.000367786736643272,0.00039551715595232393,0.9993216491497227,-0.03682322419037054
2025/05/06 15:28:22.20999996,1746538102,19034623,,-0.00021046638101253172,0.0002598594284532648,0.9993220297309316,-0.036815337448283025
2025/05/06 15:28:22.121478352,1746538102,120916841,,-5.1055663402674955e-05,-4.182149251848939e-05,0.9993207821020729,-0.0368506458991326
2025/05/06 15:28:22.220075582,1746538102,219882928,,8.675391352515934e-05,-0.0004035145702942009,0.9993186016430562,-0.03690747972859625
2025/05/06 15:28:22.323022911,1746538102,322306809,,0.00018171170602022162,-0.0007378600887509504,0.9993155861507592,-0.03698353443777129
2025/05/06 15:28:22.423981309,1746538102,423150511,,0.0002146229467569667,-0.0009720460785257578,0.999311813192539,-0.03707976641312683
2025/05/06 15:28:22.525187625,1746538102,524095318,,0.0001787082976174506,-0.0010527629258755135,0.9993074865193325,-0.037194181533948246
2025/05/06 15:28:22.627089628,1746538102,625179088,,7.313424585041145e-05,-0.0009666434857633604,0.9993026590045786,-0.0373263440231256
2025/05/06 15:28:22.719828928,1746538102,718552559,,-6.205469600926852e-05,-0.0007396903884844071,0.9992972107547045,-0.037477107481924836
2025/05/06 15:28:22.819149801,1746538102,818922832,,-0.00022027308900989618,-0.0004269061869917514,0.9992910666064478,-0.03764483273201737
2025/05/06 15:28:22.923316670,1746538102,922829066,,-0.00037257739136080733,-0.0001042148732264603,0.9992841519690473,-0.03782900935591233
2025/05/06 15:28:23.27211381,1746538103,24384154,,-0.0004870403513803847,0.00023917842300734364,0.9992792731514213,-0.03795576155665142
2025/05/06 15:28:23.115320212,1746538103,114952557,,-0.0005396270000211139,0.0004434639858974235,0.999275209858642,-0.03806004603729555
2025/05/06 15:28:23.216461808,1746538103,216177157,,-0.0005227737023171589,0.00043132775625696597,0.9992713068907333,-0.03816275525835262
2025/05/06 15:28:23.319158164,1746538103,318633974,,-0.00045816433361500503,0.00020971130932202024,0.9992674753700496,-0.03826563437573923
2025/05/06 15:28:23.424525321,1746538103,421109682,,-0.0003291309887779333,-0.0001630812486332983,0.9992635956374513,-0.03836836601956106
2025/05/06 15:28:23.524605260,1746538103,523487896,,-0.00018064837733628374,-0.0005942251312347531,0.9992595905303813,-0.03846927339724589
2025/05/06 15:28:23.628729049,1746538103,624832502,,-3.842785238974134e-05,-0.0009839824552494208,0.999255423739545,-0.0385697864776332
2025/05/06 15:28:23.722994645,1746538103,720011473,,8.459941095947867e-05,-0.0012405193908777076,0.9992513406155549,-0.0386679742499775
2025/05/06 15:28:23.819943288,1746538103,819140868,,0.00015542191937530922,-0.001311126644711353,0.9992474259334924,-0.03876646174515426
2025/05/06 15:28:23.924535533,1746538103,924181190,,0.00016003667745448862,-0.0011813329942355828,0.9992438416614358,-0.03886288386512388
2025/05/06 15:28:24.24121833,1746538104,23307255,,0.00011767417028712797,-0.0009431552269412754,0.9992387332264714,-0.039000649109527774
2025/05/06 15:28:24.120275326,1746538104,117124249,,2.6052282700830458e-05,-0.000597929648496553,0.9992332697848525,-0.03914734162732284
2025/05/06 15:28:24.218889784,1746538104,218238852,,-9.91264913055402e-05,-0.0002193423865917583,0.9992275703073937,-0.0392963713393338
2025/05/06 15:28:24.322071945,1746538104,318856385,,-0.000230457540274024,0.00010582632930908366,0.9992216326748681,-0.03944698321394208
2025/05/06 15:28:24.422146076,1746538104,420313662,,-0.0003376806249382405,0.00030519581779279206,0.9992155830121099,-0.039598124868205284
2025/05/06 15:28:24.524221806,1746538104,522157415,,-0.00041925315822715877,0.0003327548420374242,0.9992094679680182,-0.03975113361999157
2025/05/06 15:28:24.624801640,1746538104,624101185,,-0.00044552249991560767,0.00019034311867262402,0.9992033805722459,-0.039904505161634976
2025/05/06 15:28:24.719556684,1746538104,716799515,,-0.0004255435307611186,-8.781606018454238e-05,0.9991971710479315,-0.040060261742203604
2025/05/06 15:28:24.819643570,1746538104,818003613,,-0.00034196510980519755,-0.00043023541122989606,0.9991908567064401,-0.04021603948183857
2025/05/06 15:28:24.918759242,1746538104,917168013,,-0.00023929691506061293,-0.0007605400094205786,0.9991843234449561,-0.040373903672124754
2025/05/06 15:28:25.19305826,1746538105,18864186,,-0.00010596251152976967,-0.001015025004559437,0.9991767569517681,-0.040555725410031086
2025/05/06 15:28:25.122508350,1746538105,121120471,,2.66873792500708e-05,-0.0011498555937783424,0.9991671139247996,-0.040789159970315965
2025/05/06 15:28:25.223796198,1746538105,222781105,,0.0001423994910450488,-0.0011312401958147378,0.9991548760802967,-0.04108812021705629
2025/05/06 15:28:25.324954487,1746538105,324560319,,0.00020939658898030337,-0.000901232690890932,0.9991417162891701,-0.04141225305917057
2025/05/06 15:28:25.421056717,1746538105,416360832,,0.00023610939512629656,-0.0005226384586336851,0.9991273963895729,-0.041762625458518894
2025/05/06 15:28:25.519934831,1746538105,518479081,,0.00019726462375875718,-7.087490813974263e-05,0.9991124652433299,-0.042121702942923195
2025/05/06 15:28:25.628264149,1746538105,624611670,,0.00011914088350979132,0.0003222840906191813,0.9990962896529693,-0.04250277567506803
2025/05/06 15:28:25.722221913,1746538105,721845289,,1.131088469903377e-05,0.0005667319696954763,0.9990790084801489,-0.04290470255416315
2025/05/06 15:28:25.826078041,1746538105,825200092,,-0.00010782968910702334,0.0006097233712569122,0.9990607560308121,-0.04332692430014704
2025/05/06 15:28:25.926090448,1746538105,925551298,,-0.00021500083769747564,0.00044769795067722845,0.9990416142639411,-0.04376763998759015
2025/05/06 15:28:26.21085138,1746538106,18180113,,-0.00028975626797048164,0.0002965688610099502,0.9990274659577904,-0.04409025232601704
2025/05/06 15:28:26.120365177,1746538106,120031182,,-0.00032423899703658374,0.00019111433998950244,0.9990203848811959,-0.044250750685258966
2025/05/06 15:28:26.218509566,1746538106,218165745,,-0.0003298143792772348,5.756710449317127e-05,0.9990193363888158,-0.044274749347161524
2025/05/06 15:28:26.320721507,1746538106,319707360,,-0.00027583799111804643,-0.00023214282222719176,0.9990207972162681,-0.04424157267192182
2025/05/06 15:28:26.424775556,1746538106,423087857,,-0.00020131519381072583,-0.0006296687881085166,0.9990241173642195,-0.044163060515009865
2025/05/06 15:28:26.522087737,1746538106,521380878,,-0.00010150841983840168,-0.0010354231061759183,0.9990291858609123,-0.0440409286132209
2025/05/06 15:28:26.624271572,1746538106,624071826,,6.417499398954481e-06,-0.0013526718250861623,0.9990360573282535,-0.04387626232677333
2025/05/06 15:28:26.719474190,1746538106,717920492,,8.750335805332709e-05,-0.0015089853354107732,0.9990448505008074,-0.043670378911103945
2025/05/06 15:28:26.821145763,1746538106,818664367,,0.00016007876054594612,-0.0014689041359984341,0.9990556120166282,-0.04342465651574301
2025/05/06 15:28:26.924012936,1746538106,921518143,,0.00018044186489882638,-0.0012470240910651797,0.9990682319082465,-0.04314024065046278
2025/05/06 15:28:27.25166108,1746538107,23885679,,0.00018821327036547803,-0.0009024772559727805,0.9990813710743258,-0.04284348355132521
2025/05/06 15:28:27.127638201,1746538107,124483747,,0.00017727603118953148,-0.0005548839438353539,0.9990917509081866,-0.04260673590210504
2025/05/06 15:28:27.216236029,1746538107,215153147,,0.0001540165649731174,-0.0002476323477689355,0.9990989187796743,-0.042441317727001444
2025/05/06 15:28:27.318481070,1746538107,316144706,,0.00010086734405282888,3.847838120380556e-05,0.9991050645668779,-0.04229726116438463
2025/05/06 15:28:27.418796054,1746538107,418487573,,1.1619979888792081e-05,0.0002284198347770859,0.9991104625692202,-0.0421690795971896
2025/05/06 15:28:27.521682291,1746538107,521208162,,-7.305070599603453e-05,0.0002794286474799163,0.9991151336658344,-0.04205789180554709
2025/05/06 15:28:27.624125797,1746538107,620578296,,-0.00016949682294354595,0.00019446562399756835,0.9991195583532546,-0.041952849366233
2025/05/06 15:28:27.724690181,1746538107,724504090,,-0.00023441172244804306,-1.9337246985389102e-05,0.9991234430427628,-0.041860365975350006
2025/05/06 15:28:27.828384928,1746538107,824056812,,-0.00028578935936257426,-0.0003105506444049487,0.9991267770962816,-0.041779243314551864
2025/05/06 15:28:27.916306732,1746538107,915350437,,-0.00029151388635786555,-0.000610490847158608,0.9991295181423766,-0.041710290063272204
2025/05/06 15:28:28.19757515,1746538108,18090595,,-0.0002709518890177449,-0.0008193882049263107,0.9991330782739276,-0.04162147386757124
2025/05/06 15:28:28.118510375,1746538108,118024753,,-0.00018527489905830803,-0.0009081802948009938,0.9991378734701383,-0.041504827181112036
2025/05/06 15:28:28.221101780,1746538108,220167480,,-8.094263205771079e-05,-0.0008935252125005958,0.9991431666507292,-0.041377863600459905
2025/05/06 15:28:28.321281941,1746538108,320746345,,4.090572913476723e-05,-0.0007805975885694513,0.9991488710032734,-0.04124224250704695
2025/05/06 15:28:28.423601646,1746538108,423070236,,0.00016715535997975932,-0.0005999872764330521,0.999154852791892,-0.04109978365838715
2025/05/06 15:28:28.523351097,1746538108,522820309,,0.0002533366314930754,-0.0003927788850226111,0.9991611130045817,-0.040949381005631585
2025/05/06 15:28:28.630024430,1746538108,624794822,,0.00031582954019890655,-0.00020593057286818713,0.999167618623656,-0.0407912703679723
2025/05/06 15:28:28.718848647,1746538108,716137654,,0.00030781454242746954,-8.308873498070366e-05,0.999174381207621,-0.04062578349813523
2025/05/06 15:28:28.818451633,1746538108,817049140,,0.0002525041347331767,-5.0713851859163227e-05,0.9991813460472202,-0.04045455945913257
2025/05/06 15:28:28.922058887,1746538108,920386049,,0.00014114005100360612,-0.00011240486066892073,0.9991885562624112,-0.04027650033048755
2025/05/06 15:28:29.23843084,1746538109,20988366,,3.449882842147183e-05,-0.00022744396816082053,0.999196989760637,-0.04006647891135371
2025/05/06 15:28:29.127768177,1746538109,124772331,,-6.791068443998934e-05,-0.0003941152770008684,0.9992059671739666,-0.03984062280167555
2025/05/06 15:28:29.217405276,1746538109,216196714,,-0.0001390681985114768,-0.0005785314917899242,0.9992152728610293,-0.03960409628571236
2025/05/06 15:28:29.318483901,1746538109,316745748,,-0.00017258570449331956,-0.0007366735425245123,0.9992249200393988,-0.03935716832450525
2025/05/06 15:28:29.421039199,1746538109,419244166,,-0.00015699873404450104,-0.0008304307720954046,0.9992349406368224,-0.039100116964739313
2025/05/06 15:28:29.524748286,1746538109,520461495,,-0.0001012207260616307,-0.0008438236984001018,0.9992452510429748,-0.038835627766177605
2025/05/06 15:28:29.622739160,1746538109,621025088,,-1.9536504306681986e-05,-0.0007718555280857149,0.9992559200108294,-0.03856177097437068
2025/05/06 15:28:29.727733361,1746538109,724633510,,8.45521333992808e-05,-0.0006316576259088894,0.999266892069679,-0.03827887502245763
2025/05/06 15:28:29.836828339,1746538109,823589877,,0.00018111993374366514,-0.00045751061484308026,0.9992780932588157,-0.037987500742125146
2025/05/06 15:28:29.915821248,1746538109,915290845,,0.0002617192384404441,-0.0002898420569716799,0.9992894590193189,-0.037688520632938746
2025/05/06 15:28:30.18927904,1746538110,17364353,,0.00031986024648813485,-0.00018032543302895206,0.9993003996987108,-0.03739754449369519
2025/05/06 15:28:30.117930738,1746538110,116941474,,0.000359559246266395,-0.00018261105892938693,0.9993094155926192,-0.037155474405366234
2025/05/06 15:28:30.218168959,1746538110,217741045,,0.0003585474545249322,-0.00023385015556422642,0.9993179220989122,-0.0369257001252531
2025/05/06 15:28:30.323626704,1746538110,322485204,,0.0003182306670845472,-0.00031640711745172705,0.9993260545923855,-0.03670470308550799
2025/05/06 15:28:30.427309491,1746538110,424878176,,0.00024377281410001303,-0.0004120344450530829,0.9993337845011886,-0.03649325906195841
2025/05/06 15:28:30.519065343,1746538110,517258319,,0.00013668519183027372,-0.0004970459323749868,0.9993411784672307,-0.03628971317365455
2025/05/06 15:28:30.620300998,1746538110,618785331,,3.511498167691979e-05,-0.000551775266275792,0.9993482554763456,-0.03609374720610638
2025/05/06 15:28:30.723240086,1746538110,721412584,,-7.577612596498e-05,-0.0005656803529486292,0.9993550456299279,-0.03590497232586997
2025/05/06 15:28:30.823411945,1746538110,820847403,,-0.00014178063991793737,-0.0005356808384194446,0.999361572320295,-0.035723111759720885
2025/05/06 15:28:30.922312156,1746538110,915115923,,-0.00018868010922145487,-0.0004719333828587999,0.9993678307023814,-0.035548285977173806
2025/05/06 15:28:31.19665162,1746538111,18825412,,-0.00016282661291305188,-0.00040418153512660713,0.9993733228282272,-0.03539451573406254
2025/05/06 15:28:31.124854607,1746538111,124021456,,-9.864226754661156e-05,-0.0003827571021815787,0.9993767409486186,-0.03529834865290119
2025/05/06 15:28:31.225474191,1746538111,224066221,,1.7666351314135298e-05,-0.0003515370083454764,0.9993793665253755,-0.035224393152629305
2025/05/06 15:28:31.317969718,1746538111,316462974,,0.00013038744958353052,-0.0003152503057098331,0.9993813179597001,-0.03516909054113485
2025/05/06 15:28:31.424296342,1746538111,420441238,,0.000234602002406403,-0.0002816847877316736,0.9993826112454801,-0.03513206449593292
2025/05/06 15:28:31.520951233,1746538111,520591670,,0.00031155159666081166,-0.00025799651090891037,0.9993832676149864,-0.035112971742585077
2025/05/06 15:28:31.624252495,1746538111,622108558,,0.0003298810610435511,-0.00025092812306464103,0.999383311653889,-0.03511160208917247
2025/05/06 15:28:31.724292808,1746538111,723324858,,0.00029166892709931624,-0.00026475824257904943,0.9993826856082768,-0.03512965326755004
2025/05/06 15:28:31.825963609,1746538111,823956286,,0.00021764162848090618,-0.0002943414056703357,0.9993814640407831,-0.035164688637314666
2025/05/06 15:28:31.926735087,1746538111,925190308,,0.00010393565269253094,-0.00033298047501809384,0.9993796468308185,-0.03521647088639209
2025/05/06 15:28:32.19853884,1746538112,17287691,,-7.123772440943284e-06,-0.0003863493556382098,0.9993765731963662,-0.03530319574366943
2025/05/06 15:28:32.119062872,1746538112,117601829,,-8.940151595465333e-05,-0.00041834622184395564,0.9993724604506341,-0.035418953776945886
2025/05/06 15:28:32.218973720,1746538112,217604537,,-0.00015023412079938665,-0.00042566260629184354,0.9993667867406435,-0.03557838951857639
2025/05/06 15:28:32.320136053,1746538112,319664186,,-0.0001600253504865884,-0.0003963774553093418,0.9993594963435048,-0.0357828778168643
2025/05/06 15:28:32.424613415,1746538112,421632498,,-0.00011625891646944745,-0.00032012879009396013,0.9993509044484676,-0.03602296183619455
2025/05/06 15:28:32.522833245,1746538112,522472638,,-4.496325095297463e-05,-0.00021733232928295004,0.9993410137452389,-0.036297231183702976
2025/05/06 15:28:32.624145643,1746538112,623040312,,5.84555269610036e-05,-0.0001149056494389808,0.9993297265419434,-0.03660711719389771
2025/05/06 15:28:32.718205551,1746538112,716331103,,0.00017289344859521775,-3.513095567231026e-05,0.9993170997148789,-0.03695000799883818
2025/05/06 15:28:32.817718742,1746538112,815830074,,0.00026879612913860104,1.3342648887516575e-05,0.9993034315998587,-0.037317277008933225
2025/05/06 15:28:32.919999602,1746538112,918360398,,0.0003496755798365229,5.6145298637287444e-05,0.9992897687023146,-0.037680668008530684
2025/05/06 15:28:33.22299753,1746538113,20861111,,0.0003879480187231174,2.7129297876734367e-05,0.9992749955034415,-0.03807009485059293
2025/05/06 15:28:33.122994599,1746538113,121986161,,0.0003868078314686367,-5.9131868845709795e-05,0.9992594681044022,-0.03847547643410014
2025/05/06 15:28:33.223789523,1746538113,222740055,,0.00034017267015074286,-0.000189878055997256,0.9992430396909835,-0.03889981822581916
2025/05/06 15:28:33.326819986,1746538113,325465982,,0.00027330766425148425,-0.0002799787231319809,0.9992272123246816,-0.03930426267825449
2025/05/06 15:28:33.416530091,1746538113,416208955,,0.00017808923649772658,-0.0003707013019535805,0.9992105850246991,-0.03972452188972723
2025/05/06 15:28:33.518219121,1746538113,517850937,,9.541388565243173e-05,-0.00044723160362908744,0.999192977794779,-0.04016446197431082
2025/05/06 15:28:33.621719513,1746538113,618879470,,1.0277969546300537e-05,-0.0004911051801831139,0.9991745015151251,-0.04062110574647817
2025/05/06 15:28:33.720764223,1746538113,720382009,,-4.4184282509320004e-05,-0.0004920777813966591,0.9991552559016177,-0.04109173288362457
2025/05/06 15:28:33.824726061,1746538113,822830227,,-6.848840444252821e-05,-0.00040031459478916055,0.9991368912304321,-0.04153682269928116
2025/05/06 15:28:33.924243114,1746538113,923575895,,-3.145429099379996e-05,-0.00029377030861469847,0.9991179476846075,-0.04199094335843463
2025/05/06 15:28:34.27018626,1746538114,26593434,,1.742446809796772e-05,-0.00013722877141554354,0.9991009321682198,-0.04239467189690583
2025/05/06 15:28:34.116625687,1746538114,115855189,,0.00010330270892221863,-3.42814661116467e-05,0.9990842253762576,-0.042786665652451976
2025/05/06 15:28:34.220875369,1746538114,218242902,,0.00020187432291172286,-2.8424164419460676e-05,0.999067320073633,-0.043179258906489076
2025/05/06 15:28:34.323720047,1746538114,320872157,,0.00029534818006407115,-0.00012949409607058157,0.9990499125042882,-0.04357944843508365
2025/05/06 15:28:34.432712302,1746538114,423341802,,0.00035794909080922167,-0.00030687398511628774,0.9990316807066346,-0.043994075115662674
2025/05/06 15:28:34.518034465,1746538114,517267078,,0.00040430195881340435,-0.0005153092917733205,0.9990128104853384,-0.0444181886443522
2025/05/06 15:28:34.618928537,1746538114,617650394,,0.00038171492202206255,-0.0007064229323809275,0.9989933704934555,-0.04485087480177629
2025/05/06 15:28:34.725766085,1746538114,720577327,,0.00032871911902680197,-0.0008348149568030338,0.998973396247932,-0.04529181622104687
2025/05/06 15:28:34.824844866,1746538114,824474088,,0.0002503262453529995,-0.0008734328834771352,0.998952956630397,-0.04574018901532036
2025/05/06 15:28:34.926692625,1746538114,924542849,,0.0001339854930031261,-0.0008003775659059019,0.9989327708096375,-0.04618074107482391
2025/05/06 15:28:35.17124114,1746538115,16155458,,3.534509918917261e-05,-0.0006103516447572407,0.9989141793217311,-0.04658420946614905
2025/05/06 15:28:35.118930979,1746538115,117177276,,-4.0388482401679204e-05,-0.00041060425515921143,0.9988955822161126,-0.04698346094158755
2025/05/06 15:28:35.219241794,1746538115,218645876,,-7.37093677129089e-05,-0.000250847013258218,0.9988767293775981,-0.04738365910963232
2025/05/06 15:28:35.320011368,1746538115,318572760,,-6.12732804644524e-05,-0.00016583846819194536,0.9988576390316223,-0.0477847851450753
2025/05/06 15:28:35.425013877,1746538115,422956853,,-8.474841733314245e-06,-0.00017127803237471253,0.9988383238951635,-0.048186858273944366
2025/05/06 15:28:35.525165869,1746538115,523724016,,7.596031288310546e-05,-0.0002641787349368206,0.9988186840337567,-0.04859177774790034
2025/05/06 15:28:35.617162472,1746538115,616237851,,0.00017526766613161664,-0.00041635505473718997,0.9987987884768765,-0.048997714914447106
2025/05/06 15:28:35.717216237,1746538115,716753403,,0.000265801711279267,-0.0005891998298393089,0.9987786626902989,-0.049404100513916235
2025/05/06 15:28:35.821734705,1746538115,820235806,,0.0003381419751854506,-0.000723414260963973,0.9987589954688999,-0.04979790459212009
2025/05/06 15:28:35.923569090,1746538115,922000262,,0.00036261305907363196,-0.0008084962251469603,0.9987392564394111,-0.05019076102706197
2025/05/06 15:28:36.26313715,1746538116,25843374,,0.00036875927449610296,-0.0008456554595343257,0.998717980260558,-0.05061170603440349
2025/05/06 15:28:36.118050257,1746538116,117243939,,0.0003445344548231596,-0.0007989112841802712,0.99869541084468,-0.051056041704635034
2025/05/06 15:28:36.218848611,1746538116,217429319,,0.0002843940162625455,-0.0006427267233759168,0.9986729067084859,-0.051496906983105786
2025/05/06 15:28:36.323484021,1746538116,320624444,,0.00020524397259617105,-0.0004149846750591861,0.9986504977971897,-0.05193234937932538
2025/05/06 15:28:36.423228675,1746538116,421404003,,0.00011920861627692542,-0.00017287724527329044,0.9986281117051037,-0.05236268151138763
2025/05/06 15:28:36.525916181,1746538116,523946795,,3.785140162507205e-05,2.8561633980044013e-05,0.998605779054855,-0.05278726920149165
2025/05/06 15:28:36.618036400,1746538116,616218453,,-2.140056488743688e-05,0.00013985672605513032,0.998583454783751,-0.05320774205189069
2025/05/06 15:28:36.722230325,1746538116,718624260,,-5.9045061790316354e-05,0.00013661870830186188,0.9985612242433981,-0.053623309171809984
2025/05/06 15:28:36.819928375,1746538116,819066476,,-4.1797486325061236e-05,3.0429129501275954e-05,0.9985393467051703,-0.054029347660785355
2025/05/06 15:28:36.919140732,1746538116,918890105,,-1.2927876704178277e-05,-0.00012325993020614043,0.9985191497812553,-0.05440121469212568
2025/05/06 15:28:37.25979753,1746538117,22897613,,5.8117576813145295e-05,-0.0003611564069082356,0.9984979317579682,-0.05478819638806278
2025/05/06 15:28:37.125353697,1746538117,124232677,,0.00013860218121755129,-0.0005839663191400513,0.9984768702381384,-0.05516864482861106
2025/05/06 15:28:37.219064389,1746538117,217238084,,0.00022953333146552172,-0.0007076192968641166,0.9984563602443501,-0.055536864126319474
2025/05/06 15:28:37.316781083,1746538117,316192392,,0.0002969234559789345,-0.0007098807639389743,0.9984357290079103,-0.05590619774412487
2025/05/06 15:28:37.422353614,1746538117,419561760,,0.00033534079677856223,-0.0005738579742198981,0.9984152603845778,-0.05627189409262285
2025/05/06 15:28:37.523652352,1746538117,522505792,,0.00033682611388375527,-0.0003171559948544194,0.9983956705308974,-0.05662041173820656
2025/05/06 15:28:37.617961356,1746538117,616645792,,0.00030067748328269924,-6.233728718151521e-06,0.9983769479316241,-0.056950675087542986
2025/05/06 15:28:37.721736116,1746538117,717211264,,0.0002317408515535968,0.0003129576095680085,0.9983603744144885,-0.057239943681617084
2025/05/06 15:28:37.820352515,1746538117,819935409,,0.0001426464747872706,0.0005353844367877958,0.9983450467980025,-0.057505308879983064
2025/05/06 15:28:37.926062055,1746538117,925081959,,5.7833818555165e-05,0.0005957543426343348,0.9983304456623427,-0.05775779597284656
2025/05/06 15:28:38.18508887,1746538118,17841622,,-2.5884692269437187e-05,0.0005001896949111217,0.9983175617701703,-0.057980988276454176
2025/05/06 15:28:38.124005263,1746538118,122150364,,-8.375270271846609e-05,0.0002658429003400714,0.9983063493992211,-0.05817521003174302
2025/05/06 15:28:38.222251753,1746538118,220785957,,-0.00010469859553865717,-6.931395777026391e-05,0.9982961175150876,-0.058351058157346355
2025/05/06 15:28:38.323294394,1746538118,322746710,,-0.0001048542048061114,-0.0004386973439039257,0.9982863855097048,-0.0585157163179721
2025/05/06 15:28:38.423633274,1746538118,422815239,,-6.275206973480815e-05,-0.0007559918711668437,0.998277202088823,-0.05866900653820459
2025/05/06 15:28:38.518685845,1746538118,517920886,,-8.13678185056594e-07,-0.0009515700940315012,0.9982686773848419,-0.05881107264803483
2025/05/06 15:28:38.626424639,1746538118,621127792,,6.0725394657566195e-05,-0.0009868760269297196,0.9982609067542205,-0.05894221266949015
2025/05/06 15:28:38.726911470,1746538118,722743173,,0.00013111370545933567,-0.0008582413674813582,0.9982538887392589,-0.05906284659495101
2025/05/06 15:28:38.827983767,1746538118,825460898,,0.0001935043516291235,-0.0006015527959505003,0.9982475139150422,-0.05917348775200824
2025/05/06 15:28:38.917801910,1746538118,916717706,,0.00021096444520463345,-0.000278300610169076,0.9982418869846597,-0.05927067666290918
2025/05/06 15:28:39.21251626,1746538119,18576338,,0.00020356723117326964,9.255931608801544e-05,0.9982398394870298,-0.0593057573433191
2025/05/06 15:28:39.124199601,1746538119,122749109,,0.0001643681994150574,0.0004117209485911396,0.9982419027474239,-0.05926978208293155
2025/05/06 15:28:39.226482291,1746538119,224689573,,0.00011108327388873718,0.0005402764791517016,0.9982460891932438,-0.05919832068755738
2025/05/06 15:28:39.322121591,1746538119,319085804,,4.554655912183177e-05,0.00042579253730380825,0.998251555615676,-0.059107092105001355
2025/05/06 15:28:39.419480086,1746538119,418880269,,-1.9191243815332273e-05,8.465941239603113e-05,0.9982575131485157,-0.0590078800417462
2025/05/06 15:28:39.522664203,1746538119,520636426,,-5.639313925784034e-05,-0.0003843353610550255,0.9982642517738587,-0.05889255247076755
2025/05/06 15:28:39.622004428,1746538119,621222840,,-7.813938245401417e-05,-0.0008817494039419548,0.9982712779346611,-0.05876795098456468
2025/05/06 15:28:39.725478821,1746538119,724023862,,-8.69014516304166e-05,-0.0012908395516223585,0.9982786254191043,-0.05863541773308593
2025/05/06 15:28:39.823987444,1746538119,823668212,,-7.068226844146082e-05,-0.0015157429051957851,0.9982861890574815,-0.05850113045534001
2025/05/06 15:28:39.926118962,1746538119,924817611,,-2.8342920336355415e-05,-0.0015093566246721115,0.9982944761071599,-0.058359746514094826
2025/05/06 15:28:40.26737172,1746538120,24555817,,1.879640730862696e-05,-0.001283820312566522,0.9983034702491869,-0.05821110495885711
2025/05/06 15:28:40.121316995,1746538120,118468119,,8.70439704581667e-05,-0.0009595872660371784,0.9983102381381492,-0.058101119130168334
2025/05/06 15:28:40.219777797,1746538120,219311854,,0.00017530754127101006,-0.0005444209636067782,0.9983170023296857,-0.05798996234307194
2025/05/06 15:28:40.322298957,1746538120,321616632,,0.00022367468898066054,-0.00013251463873184495,0.9983238464584323,-0.05787426027125292
2025/05/06 15:28:40.427960521,1746538120,425105216,,0.0002413430325413061,0.0001829280329583045,0.9983307462830717,-0.05775490729592282
2025/05/06 15:28:40.516696483,1746538120,515493960,,0.0002625282377993024,0.0002709601905565639,0.9983347183920568,-0.05768576698417279
2025/05/06 15:28:40.618241887,1746538120,616972948,,0.00025366801793912303,0.00018030521479467826,0.9983380398581759,-0.05762865012041831
2025/05/06 15:28:40.719127006,1746538120,716876998,,0.00020069251252874366,-4.6474482267175145e-05,0.9983409200274834,-0.057579205980250125
2025/05/06 15:28:40.822060921,1746538120,821345442,,0.00011110357419489948,-0.0003281787816472488,0.9983440068799961,-0.05752498484552095
2025/05/06 15:28:40.924748595,1746538120,924335675,,3.3025206753021235e-05,-0.0005957573913339817,0.9983473181231548,-0.05746543638371588
2025/05/06 15:28:41.16820500,1746538121,15447705,,-6.641279869713591e-05,-0.0007926789068957395,0.9983508857488493,-0.0574010119595362
2025/05/06 15:28:41.119220837,1746538121,117058541,,-0.00015085424223878374,-0.0008758543825073597,0.9983547719263668,-0.057332011075406315
2025/05/06 15:28:41.218413891,1746538121,217698239,,-0.0001806285602646379,-0.0008291185019306636,0.9983590165486268,-0.05725865883769748
2025/05/06 15:28:41.321596214,1746538121,321054634,,-0.0001935653648276047,-0.0006720472871251869,0.9983635751904889,-0.05718113865391604
2025/05/06 15:28:41.421068037,1746538121,420526879,,-0.00015725944614948395,-0.00044463427102395183,0.9983683558251901,-0.05709994445477354
2025/05/06 15:28:41.523336336,1746538121,522148105,,-7.476510688906312e-05,-0.00022943542037219685,0.9983723350978111,-0.0570317655426414
2025/05/06 15:28:41.625198282,1746538121,623581595,,3.761427410472381e-05,-6.914018717837621e-05,0.9983755021422914,-0.05697675426810952
2025/05/06 15:28:41.725371040,1746538121,724170039,,0.0001586223553519799,2.4747238694070096e-05,0.9983785375611058,-0.05692336922451149
2025/05/06 15:28:41.825666406,1746538121,825439971,,0.0002578970440456055,4.4651384667914095e-05,0.9983817564138866,-0.05686650996229025
2025/05/06 15:28:41.918417916,1746538121,916716210,,0.0003332427033744137,-9.091859759982651e-06,0.9983852264676066,-0.05680517967461038
2025/05/06 15:28:42.20054658,1746538122,18527768,,0.000345462337358395,-0.00012408257171849595,0.9983889301323542,-0.056739840046143596
2025/05/06 15:28:42.121633217,1746538122,119669208,,0.00032052733777510295,-0.0002712074205964034,0.9983928265022217,-0.05667087168612875
2025/05/06 15:28:42.224384396,1746538122,223057898,,0.0002415571845088148,-0.0004169576297031013,0.9983969018549398,-0.05659853498916277
2025/05/06 15:28:42.323644717,1746538122,322935735,,0.00013006879576847014,-0.0005290063776136394,0.9984011473369397,-0.05652302389861225
2025/05/06 15:28:42.426401889,1746538122,425155130,,3.420425646983599e-06,-0.0005845300219749279,0.9984055659336427,-0.0564445234338731
