time,header_stamp_secs,header_stamp_nsecs,header_frame_id,vessel_state_pose_position_x,vessel_state_pose_position_y,vessel_state_pose_position_z,vessel_state_pose_orientation_x,vessel_state_pose_orientation_y,vessel_state_pose_orientation_z,vessel_state_pose_orientation_w,vessel_state_velocity_linear_x,vessel_state_velocity_linear_y,vessel_state_velocity_linear_z,vessel_state_velocity_angular_x,vessel_state_velocity_angular_y,vessel_state_velocity_angular_z,vessel_state_vessel_frame_id,vessel_state_w_1,vessel_state_w_2,vessel_state_w_3,vessel_state_w_4,vessel_state_a_1,vessel_state_a_2,vessel_state_a_3,vessel_state_a_4
2025/04/09 08:48:15.782527060,1744181295,757509519,world_ned,1.843259778575035,11.382867739754525,0.4336450833857919,-0.0003674484338075349,-2.6388231861590334e-05,-0.005564195791328504,0.9999844518843808,-0.0024987926324931357,-0.0018862005605717739,0.0001844171036422533,0.0021706148806067815,0.00048402561009214685,-0.00024407725750752554,,0.0,3.0,1.0,0.0,2.356194490192345,-2.356194490192345,-0.7853981633974483,0.7853981633974483
2025/04/09 08:48:15.859655158,1744181295,856742419,world_ned,1.8431797130755736,11.382694425195794,0.43366898265183124,-0.0002697806300166171,-2.3239602938589134e-05,-0.005576338166302917,0.9999844154440546,-0.002999444669570682,-0.0015798178478210673,0.00027389514113568253,0.0016982967408374257,0.0007384654894914966,-0.00024185095334184906,,0.0,3.0,1.0,0.0,2.356194490192345,-2.356194490192345,-0.7853981633974483,0.7853981633974483
2025/04/09 08:48:15.965675351,1744181295,962554040,world_ned,1.8430592786860818,11.382569133326019,0.43369837676394907,-0.00020862128909721273,-8.896346555906062e-06,-0.005590318509446079,0.9999843522460617,0.0038494603339555185,-0.0009504701939230648,0.0002965769852261662,0.0007664191877855309,-0.0010490669919472355,-0.0003474555169389442,,3.0,1.0,0.0,2.0,2.356194490192345,-2.356194490192345,-0.7853981633974483,0.8028514559173916
2025/04/09 08:48:16.66554331,1744181296,65342457,world_ned,1.84293617663516,11.382524177124571,0.433725273925229,-0.000203137800748293,1.1275804334828379e-05,-0.005608215965715464,0.9999842531368042,-0.007740697322912838,-2.005196773930284e-06,0.00023787570456392185,-0.0004755742660148208,0.0022896686838965565,-0.00040934249351799544,,5.0,1.0,0.0,4.0,2.3387411976724017,-2.3736477827122884,-0.7853981633974483,0.8278514559173916
2025/04/09 08:48:16.168084293,1744181296,159506937,world_ned,1.842965851802174,11.382563065624835,0.43374228743127086,-0.00025451604196372307,1.4060987884239809e-05,-0.005631200085328391,0.9999841121785246,0.003087248698458247,0.0006907664172751366,0.00011089439604530338,-0.0014441230609178826,-0.000775488191018484,-0.00045434092643527075,,5.0,1.0,0.0,4.0,2.3387411976724017,-2.3736477827122884,-0.7853981633974483,0.8377580409572782
2025/04/09 08:48:16.266765139,1744181296,261445816,world_ned,1.8428071216145654,11.382651216875457,0.43374561426379055,-0.00034168799577662654,3.670962543024219e-05,-0.0056523429164333895,0.9999839663320967,-0.0019192791004700718,0.0008581493581776179,-3.364404417159432e-05,-0.0018508419312484431,0.00041325066685322237,-0.00036157481395006146,,0.0,2.0,0.0,0.0,2.356194490192345,-2.356194490192345,-0.7853981633974483,0.8077580409572782
2025/04/09 08:48:16.367955884,1744181296,361703954,world_ned,1.8427132156983628,11.382738242446667,0.4337348196141959,-0.0004365559774169847,3.5926582979000315e-05,-0.0056643405314172595,0.999983861557027,-0.0026016679021685814,0.000805013449245666,-0.00016559128811987204,-0.001850990845888037,0.00035130720552221874,-0.00020522002192211583,,0.0,2.0,0.0,0.0,2.356194490192345,-2.356194490192345,-0.7853981633974483,0.7853981633974483
2025/04/09 08:48:16.746077164,1744181296,463308752,world_ned,1.8426192543412874,11.382803209706724,0.4337122256740223,-0.0005181467451756259,2.751065118318651e-05,-0.005674598168394901,0.9999837647195787,-0.003212555919281512,0.00047430384982282396,-0.0002626975388621824,-0.0013989274793477845,0.00039809354022160234,-0.0002052769414914228,,0.0,2.0,0.0,0.0,2.356194490192345,-2.356194490192345,-0.7853981633974483,0.7853981633974483
2025/04/09 08:48:16.768616835,1744181296,564149541,world_ned,1.8424691986610835,11.3828264055493,0.43368395912027835,-0.0005686392644573162,2.1038162817590906e-05,-0.005684860306600473,0.9999836791518535,0.003407343432385846,-1.5992324349615775e-05,-0.00028738529788638215,-0.0006532146136562698,-0.0015478832372817788,-0.0002055481222916649,,0.0,2.0,0.0,0.0,2.356194490192345,-2.356194490192345,-0.7853981633974483,0.7853981633974483
2025/04/09 08:48:16.781009217,1744181296,664942042,world_ned,1.8422916798007418,11.382800114883345,0.4336576455731816,-0.0005789225679750175,1.3721206271473441e-05,-0.0056935182524249055,0.9999836241210643,-0.008508816438037784,-0.0004236889033739993,-0.00022447904280016795,0.00011750012174737558,0.0016863794653928842,-9.573309643697345e-05,,0.0,8.0,6.0,0.0,2.356194490192345,-2.3261944901923455,-0.8153981633974483,0.7853981633974483
2025/04/09 08:48:16.786249711,1744181296,760683681,world_ned,1.8422385549214222,11.382823568547682,0.4336411598722802,-0.0005795258129134279,-1.4133795074511831e-05,-0.005676817856250928,0.9999837187120073,0.0023488460271893774,0.0012853237983161147,-0.0001066889299221647,-0.0004452825361875078,-0.0013417743898399644,0.0008915966455108735,,0.0,7.0,5.0,0.0,2.356194490192345,-2.3387411976724017,-0.8653981633974484,0.7853981633974483
2025/04/09 08:48:16.867995960,1744181296,866347201,world_ned,1.8420182683037676,11.38295647067923,0.43363872998379294,-0.0005865698119389251,-1.5449415966288768e-05,-0.005623522036184055,0.9999840157207913,-0.0023255199268619256,0.0009221409450877637,3.7070236498673336e-05,0.0003722449079736657,5.676238888633873e-05,0.0010563394768405801,,0.0,7.0,5.0,0.0,2.356194490192345,-2.3387411976724017,-0.8726646259971648,0.7853981633974483
2025/04/09 08:48:16.966949151,1744181296,960721339,world_ned,1.8419223689190276,11.382982665336897,0.43365025582719263,-0.0005328619473063756,-2.5864401716182083e-05,-0.005579500879621216,0.9999842921561879,-0.0022128969827593164,-0.000609233744985442,0.00018692822584500722,0.0018009855533570815,0.0003249268430049508,0.0005333915694637651,,2.0,1.0,0.0,2.0,2.356194490192345,-2.356194490192345,-0.8426646259971647,0.8028514559173916
2025/04/09 08:48:17.66778075,1744181297,65396257,world_ned,1.8418737346561362,11.382811194159004,0.43367417136812697,-0.00040114989710312107,-3.0014226122523054e-05,-0.00557430791048249,0.9999843825126598,-0.002661899328597952,-0.0025501154455594174,0.00028211316929665104,0.0031990425148218523,0.0006019237082053167,-0.0002460769949259941,,2.0,1.0,0.0,2.0,2.356194490192345,-2.356194490192345,-0.7976646259971647,0.8028514559173916
2025/04/09 08:48:17.161449554,1744181297,158464570,world_ned,1.8417825590538262,11.382530884750432,0.4337041197619325,-0.00023909785303148425,-2.2220655092266898e-05,-0.005596813225395676,0.9999843088869841,0.00407576496481196,-0.00257172405842823,0.00028991550057589705,0.0029140914612078243,-0.0011594501244168358,-0.00046393509646272546,,2.0,1.0,0.0,2.0,2.356194490192345,-2.356194490192345,-0.7853981633974483,0.8028514559173916
2025/04/09 08:48:17.260924253,1744181297,259869825,world_ned,1.8416761570921292,11.3823248330746,0.43372961760522905,-0.00012763332170402913,-7.17061165281834e-06,-0.0056194744125229274,0.9999842024580411,-0.0076786193118239515,-0.00162715163821453,0.00021789052611131694,0.0015923961533538618,0.002205948225859358,-0.00044434152097311605,,2.0,1.0,0.0,2.0,2.356194490192345,-2.356194490192345,-0.7853981633974483,0.8028514559173916
2025/04/09 08:48:17.364097780,1744181297,360779030,world_ned,1.8417060568868522,11.382219920891172,0.43374420130596897,-9.139780084229895e-05,-8.062916259235635e-06,-0.005641121192621552,0.9999840845399098,0.003134276419726759,-0.0005669003723272413,8.253377136834952e-05,-4.541191075349325e-06,-0.0008072999812332336,-0.0004237096372529667,,2.0,1.0,0.0,2.0,2.356194490192345,-2.356194490192345,-0.7853981633974483,0.8028514559173916
2025/04/09 08:48:17.462946585,1744181297,461932147,world_ned,1.8415434681054696,11.382244955582177,0.433745600504858,-0.00014234584493178637,1.3715943616188632e-05,-0.005654778919494782,0.9999840013844746,-0.0020908784955241586,0.0010811051754657222,-4.633406441911564e-05,-0.001944095417574602,0.0004004897082398959,-1.3864393085132923e-05,,0.0,4.0,2.0,0.0,2.356194490192345,-2.3387411976724017,-0.8028514559173916,0.7853981633974483
2025/04/09 08:48:17.568273572,1744181297,566077043,world_ned,1.8414558313835838,11.382369495122482,0.43373339208092554,-0.00026259081194935404,1.6284819526087565e-05,-0.005657301620618006,0.9999839627310247,-0.0024333144231701194,0.001224919836532854,-0.00017154286425176516,-0.0026432669147315358,0.0004584131800463943,-0.00011469629259906064,,0.0,3.0,1.0,0.0,2.356194490192345,-2.356194490192345,-0.7853981633974483,0.7853981633974483
2025/04/09 08:48:17.689192781,1744181297,656575044,world_ned,1.8413804881157856,11.382496214155884,0.4337105033595214,-0.0004028734289779077,1.519322836968944e-05,-0.005663182013395177,0.9999838827859423,-0.0030255288302065714,0.0012264766802238284,-0.00026275908931063457,-0.002839928743514479,0.0005599790342310426,-0.00012012977268785844,,0.0,3.0,1.0,0.0,2.356194490192345,-2.356194490192345,-0.7853981633974483,0.7853981633974483
2025/04/09 08:48:17.767570568,1744181297,761377058,world_ned,1.8412575961869238,11.382612395702036,0.4336824708358616,-0.0005384667475486995,1.8466414203066993e-05,-0.005670333473680024,0.9999837783838549,0.003822150663309765,0.0011212298857499038,-0.00028190397392615973,-0.002568012480088444,-0.0013316639098465723,-0.00019753740591271898,,4.0,1.0,0.0,3.0,2.3387411976724017,-2.3736477827122884,-0.7853981633974483,0.8103981633974483
2025/04/09 08:48:17.909902543,1744181297,863409004,world_ned,1.8411384370340487,11.382701326970542,0.4336569310390097,-0.0006450850290541495,2.3612519053645812e-05,-0.005685524511524215,0.9999836289253855,-0.007841260019889282,0.000636080753637556,-0.00022047350358461991,-0.0016959011320704705,0.0019407085469407897,-0.0003297844844211746,,4.0,1.0,0.0,3.0,2.3387411976724017,-2.3736477827122884,-0.7853981633974483,0.8377580409572782
2025/04/09 08:48:17.993149523,1744181297,969103713,world_ned,1.8411429419713223,11.38271914136459,0.43364037894394863,-0.0006934642385207811,7.284014156157292e-06,-0.005700692792585054,0.999983510442036,0.0026810092928498536,-0.00032290653987335503,-0.00010896277989363331,-0.0002734913469855056,-0.00118161003575889,-0.00025656985895047325,,0.0,3.0,1.0,0.0,2.356194490192345,-2.343647782712289,-0.7853981633974483,0.8077580409572782
2025/04/09 08:48:18.66206452,1744181298,60824500,world_ned,1.8409357280954655,11.382633173699832,0.43363790947650666,-0.0006663938274149314,9.70420745848348e-06,-0.005709830582099994,0.9999834766933996,-0.0022314423219394496,-0.0012627115443670882,3.861380640690832e-05,0.0011493682714155842,7.877295602984524e-05,-0.0001544115949617279,,0.0,3.0,1.0,0.0,2.356194490192345,-2.3387411976724017,-0.7853981633974483,0.7853981633974483
2025/04/09 08:48:18.164094099,1744181298,162889155,world_ned,1.8408283382797181,11.38247163492479,0.43364954631814484,-0.0005786473534447986,-3.5790066008060177e-06,-0.005717637603752023,0.9999834867509879,-0.0026323322967324275,-0.001878693236108648,0.00017090000812460917,0.002183199326659044,0.00019480244056030148,-0.0001579067279655718,,0.0,3.0,1.0,0.0,2.356194490192345,-2.3387411976724017,-0.7853981633974483,0.7853981633974483
2025/04/09 08:48:18.266561588,1744181298,265645926,world_ned,1.8407333866295381,11.382291747478586,0.43367082802762663,-0.00046065082974919633,-1.637544254855021e-05,-0.00572037670069711,0.9999835322759371,-0.003156571421159913,-0.0014410229874644669,0.0002305258572189409,0.00225703345900298,0.0004121611694434658,0.00013465914708222154,,0.0,3.0,2.0,0.0,2.356194490192345,-2.3387411976724017,-0.8028514559173916,0.7853981633974483
2025/04/09 08:48:18.358149713,1744181298,356769828,world_ned,1.8405899818566187,11.382153826556852,0.43369602232050325,-0.0003480269896132507,-1.907158128564567e-05,-0.005711450434445721,0.9999836287897038,0.0034880137507928644,-0.0010638469525711077,0.00025219590858236525,0.0020179395814547496,-0.0013923480813524943,0.00032605488535714105,,0.0,7.0,6.0,0.0,2.356194490192345,-2.321287905152458,-0.8378514559173916,0.7853981633974483
2025/04/09 08:48:18.461622431,1744181298,457724761,world_ned,1.8404228950371957,11.382159128631416,0.43372139045524244,-0.0002898526453737434,-1.627917303863605e-05,-0.0056747025800180755,0.9999838566052258,-0.0083396886346462,0.0009318027893801069,0.00024539861329805684,0.00044511924636882904,0.0019481357648858627,0.001064416505764513,,0.0,7.0,6.0,0.0,2.356194490192345,-2.321287905152458,-0.8878514559173917,0.7853981633974483
2025/04/09 08:48:18.562194619,1744181298,559884406,world_ned,1.8404039649040669,11.382324331682101,0.43374090036314517,-0.0002989861212824236,-3.087075526500932e-05,-0.005608168240215187,0.9999842289272792,0.0026819672234284658,0.001782239825096798,0.00015189662030566428,-0.0004013518462087874,-0.0010797829431669044,0.0013733290081258248,,0.0,7.0,6.0,0.0,2.356194490192345,-2.321287905152458,-0.9075712110370514,0.7853981633974483
2025/04/09 08:48:18.663229995,1744181298,660252239,world_ned,1.840202595588068,11.382498660146428,0.43374859206717425,-0.0003235606264605993,-1.6049401894919184e-05,-0.005539959146213839,0.9999846018332462,-0.0022597282234469865,0.0017515665053587897,8.905262778499812e-06,-0.0006019771541400354,0.000381490056166678,0.0014074858616827497,,0.0,10.0,9.0,0.0,2.3387411976724017,-2.291287905152459,-0.9375712110370514,0.7853981633974483
2025/04/09 08:48:18.765553411,1744181298,763532040,world_ned,1.840094033645897,11.382656424856357,0.43374188063763347,-0.00035213121107090516,-1.2237558563615857e-05,-0.005471602956012243,0.9999849685945005,-0.00260757275789596,0.0012038674189641023,-0.00012344580381072758,-0.0004040647162496398,0.0005505141435379945,0.0012430888583422474,,0.0,7.0,5.0,0.0,2.356194490192345,-2.3012879051524586,-0.9124777960769379,0.7853981633974483
2025/04/09 08:48:18.866804673,1744181298,864251268,world_ned,1.840012856435877,11.38273034046872,0.4337223050593087,-0.0003599947221187348,-5.69038630357536e-06,-0.005417532241254543,0.9999852602492871,-0.003039717672467519,0.0004084154288867583,-0.00024284419168512899,-7.086267349509308e-07,0.000794641504728298,0.0009715742720966279,,0.0,7.0,5.0,0.0,2.356194490192345,-2.3387411976724017,-0.8726646259971648,0.7853981633974483
2025/04/09 08:48:18.957414537,1744181298,956568822,world_ned,1.8399019387803834,11.38274001931723,0.4336956484623993,-0.00035349628218695156,1.0232811787500033e-05,-0.0053780470482276774,0.9999854756673294,0.0041450501805758615,-0.0005211546081813013,-0.0002805108736604929,0.00044703287230309427,-0.0010227861070702046,0.00044570968261963586,,2.0,1.0,0.0,2.0,2.356194490192345,-2.356194490192345,-0.8476646259971647,0.8028514559173916
2025/04/09 08:48:19.60401385,1744181299,57448709,world_ned,1.8397884241726827,11.382590936928342,0.43367060780546246,-0.000306590891816956,2.7780574344676587e-05,-0.005377753239146256,0.9999854923949465,-0.00801292468148074,-0.002373904808547166,-0.0002153731783485782,0.001356952816755583,0.0021439548033243393,-0.0003518971641253902,,0.0,2.0,1.0,0.0,2.356194490192345,-2.3387411976724017,-0.7976646259971647,0.7853981633974483
2025/04/09 08:48:19.159435683,1744181299,158739387,world_ned,1.839785039439439,11.382330038285017,0.43365136147586225,-0.00024163338432449497,2.0995639492768325e-05,-0.005404461072855838,0.9999853663794299,0.0028016751449886647,-0.002401174117779646,-0.00015489515754557817,0.000954857707847197,-0.0009696160337958465,-0.0005435528285718366,,0.0,2.0,1.0,0.0,2.356194490192345,-2.3387411976724017,-0.7853981633974483,0.7853981633974483
2025/04/09 08:48:19.260331028,1744181299,259629974,world_ned,1.8396043843625465,11.382127511725395,0.4336426413040734,-0.00022037787933580137,3.404955004529887e-05,-0.0054309121910479955,0.9999852276243842,-0.0019349245424664153,-0.0017453715353182768,-3.467371826004795e-05,-2.0662143221485964e-05,0.00026467826408135863,-0.0005169828165652257,,0.0,1.0,0.0,0.0,2.3387411976724017,-2.3387411976724017,-0.7853981633974483,0.7853981633974483
2025/04/09 08:48:19.361718322,1744181299,360945643,world_ned,1.8395245533734397,11.38199414545147,0.4336467021472578,-0.0002497361140189968,2.7966777189269653e-05,-0.005455041617234743,0.9999850895741831,-0.0023674597002107025,-0.0009691623715633969,0.00010615009692230887,-0.001065176245732023,0.0002762096562171271,-0.0004320076649222541,,1.0,1.0,0.0,1.0,2.356194490192345,-2.356194490192345,-0.7853981633974483,0.7853981633974483
2025/04/09 08:48:19.464934138,1744181299,461938814,world_ned,1.8394528554317044,11.381923463483579,0.4336627368608329,-0.0003219875789416433,1.6627292140578525e-05,-0.005476135938349328,0.9999849538781656,-0.00296771578526142,-0.000541706442057323,0.0002012084239601658,-0.0017000854229347255,0.0003574999431647029,-0.0004138255183140179,,1.0,1.0,0.0,1.0,2.356194490192345,-2.356194490192345,-0.7853981633974483,0.7853981633974483
2025/04/09 08:48:19.565659170,1744181299,564641062,world_ned,1.8393338756888704,11.381887667222781,0.4336861386414923,-0.00041701811278049817,9.794590517681174e-06,-0.005498460205020269,0.9999847963520913,0.003869042220318974,-0.00022318419240996553,0.0002483776571793377,-0.0020236432650805646,-0.0015217795888001929,-0.0005308592088405992,,6.0,0.0,0.0,6.0,2.3387411976724017,-2.356194490192345,-0.7853981633974483,0.8153981633974483
2025/04/09 08:48:19.668020008,1744181299,665539049,world_ned,1.8392109397580167,11.3818679971825,0.4337109454507872,-0.0005153816392144508,6.430766736116212e-06,-0.005527409685681542,0.9999845909225691,-0.008050808751644836,-0.00028814723524995465,0.00024148983056473174,-0.0018151709355142037,0.0017814580018922844,-0.0004911421495509133,,1.0,1.0,0.0,0.0,2.356194490192345,-2.356194490192345,-0.7853981633974483,0.8003981633974483
2025/04/09 08:48:19.757738273,1744181299,756452746,world_ned,1.839199533529822,11.381818173900053,0.4337301397604102,-0.0005877535727787542,-1.665987886234315e-05,-0.005547877613422651,0.9999844375399912,0.002733227506008395,-0.0006964483725055753,0.00014810658618149,-0.0011027876195390555,-0.0012632424152872162,-0.0003923572163174431,,1.0,1.0,0.0,0.0,2.356194490192345,-2.356194490192345,-0.7853981633974483,0.7853981633974483
2025/04/09 08:48:19.859972079,1744181299,858857742,world_ned,1.8390187031696024,11.381694118355798,0.43374004817289,-0.0006096670425539865,-1.4200983774447513e-05,-0.005572647108764855,0.9999842867308618,-0.0018774504865842281,-0.002011663432132952,4.629898929220727e-05,0.00029914491509374074,0.00012248584007375763,-0.0006892636453168778,,0.0,1.0,0.0,0.0,2.356194490192345,-2.356194490192345,-0.767944870877505,0.7853981633974483
2025/04/09 08:48:19.961071608,1744181299,959628113,world_ned,1.8389479857292654,11.38147211964357,0.43373766880151554,-0.0005732557561836871,-2.2625365459092782e-05,-0.005606076577744171,0.9999841212596005,-0.0022426295348119633,-0.002382137704255117,-8.356514196357477e-05,0.0010490821592448428,0.0003233902882524656,-0.0006524408475031631,,0.0,1.0,0.0,0.0,2.356194490192345,-2.356194490192345,-0.767944870877505,0.7853981633974483
2025/04/09 08:48:20.61515113,1744181300,60734054,world_ned,1.838892735023967,11.381247552280344,0.43372174488414134,-0.00051373361005736,-2.7086322625917733e-05,-0.00563258700363568,0.9999840045259502,-0.0027510750601208046,-0.0018542103550389032,-0.0002207408469308839,0.0010972670812099373,0.0005944101142952579,-0.0003275861943525663,,0.0,1.0,0.0,0.0,2.356194490192345,-2.356194490192345,-0.7853981633974483,0.7853981633974483
2025/04/09 08:48:20.163833041,1744181300,163018891,world_ned,1.8387984170732339,11.381063180029525,0.4336966115724108,-0.00045286584726515777,-1.9109213938150418e-05,-0.005650739960919486,0.9999839317135333,0.004166798447542624,-0.0017705545994935261,-0.00027102519118014863,0.0012323152870306203,-0.001154938877876769,-0.0004494105278129206,,5.0,0.0,0.0,5.0,2.3387411976724017,-2.356194490192345,-0.7853981633974483,0.8103981633974483
2025/04/09 08:48:20.265085417,1744181300,263809754,world_ned,1.8387204224903146,11.380905804199687,0.43367051606614937,-0.00039695602796887473,-2.3578677069883556e-06,-0.0056798135553298625,0.9999837909377977,-0.0072514828255161425,-0.00140389010641504,-0.00024015122873633624,0.0009807232061014807,0.0022538961532163043,-0.0006907320779410348,,5.0,0.0,0.0,5.0,2.3387411976724017,-2.356194490192345,-0.7853981633974483,0.8653981633974484
2025/04/09 08:48:20.365978867,1744181300,364551550,world_ned,1.8387864866039443,11.380788095358056,0.43364977089698814,-0.0003579985855292802,3.3974444555210134e-07,-0.005714587583554989,0.999983607528467,0.0033875365834635848,-0.0009585206667173295,-0.00016660456146827898,0.0005753455934336835,-0.0007737857231284172,-0.0005901460108254959,,4.0,0.0,0.0,4.0,2.3387411976724017,-2.356194490192345,-0.7853981633974483,0.8426646259971647
2025/04/09 08:48:20.467198920,1744181300,465902953,world_ned,1.838654937267189,11.380718476996813,0.43364052558690286,-0.0003425801207055975,2.272947709195355e-05,-0.005738009045860526,0.9999834785507316,-0.0015130412478573294,-0.0005309884357946272,-3.302524509001203e-05,0.00010003506438513066,0.0004489228567647381,-0.00040668245491397656,,3.0,1.0,0.0,3.0,2.3387411976724017,-2.356194490192345,-0.7853981633974483,0.8203047484373349
2025/04/09 08:48:20.557706613,1744181300,556635004,world_ned,1.8386179548220736,11.38068508393665,0.4336448389965159,-0.00034930192265365177,2.6149055751176685e-05,-0.0057578721740854325,0.9999833619677982,-0.001973925670490356,-0.00018887690496166708,0.00010359446798158646,-0.0003164777873848204,0.00047156139718192706,-0.00038987729123957245,,3.0,1.0,0.0,3.0,2.3387411976724017,-2.356194490192345,-0.7853981633974483,0.8203047484373349
2025/04/09 08:48:20.662440807,1744181300,659720563,world_ned,1.838569129575164,11.380706620148993,0.4336605992539588,-0.00038134231884632777,2.3010415286193456e-05,-0.005769354838188743,0.9999832841569442,-0.0031723471838770367,0.0012180487165871527,0.00022253717378188756,-0.001344723722566147,0.00043576005767770635,0.00022740557820400976,,0.0,4.0,3.0,0.0,2.356194490192345,-2.3387411976724017,-0.8103981633974483,0.7953047484373349
2025/04/09 08:48:20.761860485,1744181300,760800364,world_ned,1.838406588775213,11.380946467427556,0.43368755492949845,-0.0004839686712786967,1.5615981930427338e-05,-0.005731100020266101,0.9999834598747241,0.0033300595480322353,0.002034885495934131,0.0002814933159027284,-0.0017378254220954661,-0.0015569225995686973,0.0006825033243055243,,2.0,1.0,0.0,1.0,2.356194490192345,-2.356194490192345,-0.7903047484373349,0.7853981633974483
2025/04/09 08:48:20.864073345,1744181300,862716597,world_ned,1.8382270693265166,11.381078746554824,0.43371691525743733,-0.0005396546528625149,8.48879589791062e-06,-0.005708412900664369,0.9999835612263591,-0.008464746991073547,0.0010604638084567985,0.00028046117830466386,-0.0007944464368664058,0.0017118367287260764,0.00041742670209847705,,2.0,1.0,0.0,1.0,2.356194490192345,-2.356194490192345,-0.7853981633974483,0.7853981633974483
2025/04/09 08:48:20.964864332,1744181300,963620144,world_ned,1.8381807315387824,11.381160330812678,0.43373913271357756,-0.0005592053448984621,-1.693404619704897e-05,-0.0056881735627384395,0.9999836657086657,0.0023610226479553117,0.0006081024368716508,0.00016943952167382595,-5.378247124356005e-05,-0.001293377008951773,0.0003940748003227797,,2.0,1.0,0.0,1.0,2.356194490192345,-2.356194490192345,-0.7853981633974483,0.7853981633974483
2025/04/09 08:48:21.65971627,1744181301,65025701,world_ned,1.8379637969435676,11.381199895663045,0.43374813378384436,-0.0005419012713144748,-1.5501881661916773e-05,-0.005669105736555022,0.999983783539939,-0.0022772127842243545,0.00018151658820080144,1.88738009770589e-05,0.0006641875815824742,0.00011352173847588812,0.0003704491350309711,,1.0,1.0,0.0,1.0,2.356194490192345,-2.356194490192345,-0.7853981633974483,0.7853981633974483
2025/04/09 08:48:21.158585247,1744181301,156499519,world_ned,1.837856588099017,11.38120149706822,0.4337415328500856,-0.0004934153430621646,-2.4243682582138874e-05,-0.005651261883241494,0.9999839094668824,-0.0026251867652613415,-0.00011574343055603575,-0.00013261682834083107,0.001181777873875286,0.00031978622298258776,0.00034552231352471315,,1.0,1.0,0.0,1.0,2.356194490192345,-2.356194490192345,-0.7853981633974483,0.7853981633974483
2025/04/09 08:48:21.258289983,1744181301,257144353,world_ned,1.8377636307106533,11.381185766179769,0.43372097092222545,-0.00042727368317834044,-2.8975452072374272e-05,-0.005633032472696473,0.9999840426440736,-0.003204563288245225,-9.185318128436284e-05,-0.00025072271464779113,0.0013298149386897363,0.0005736938758378981,0.0004301518763867928,,0.0,5.0,4.0,0.0,2.3387411976724017,-2.3261944901923455,-0.8153981633974483,0.7853981633974483
2025/04/09 08:48:21.358761945,1744181301,357826137,world_ned,1.8376149686078203,11.381209912192782,0.43369290250280074,-0.0003706304202265246,-2.257626910259288e-05,-0.005603950871957851,0.9999842288046489,0.0034676915365270487,0.00032352926810357973,-0.00029324210482812446,0.0010521607728100945,-0.0012022788089563973,0.0006378495814064056,,0.0,5.0,4.0,0.0,2.3387411976724017,-2.321287905152458,-0.8377580409572782,0.7853981633974483
2025/04/09 08:48:21.461126144,1744181301,459152361,world_ned,1.837455515769922,11.381231633965232,0.43366473058661414,-0.00031819191735349254,-8.767603565527982e-06,-0.005574731291725746,0.9999844104025112,-0.008171757122824747,4.8622155859191076e-05,-0.00025138418764874794,0.0010455450885138665,0.0021846083950497423,0.0005076489518881267,,0.0,4.0,3.0,0.0,2.3387411976724017,-2.3387411976724017,-0.8203047484373349,0.7853981633974483
2025/04/09 08:48:21.560658663,1744181301,559879230,world_ned,1.8374399978136546,11.38121587207126,0.43364339293406634,-0.0002671511018375203,-9.819317394093728e-06,-0.0055553505924269804,0.9999845331872214,0.002715825195754782,-0.0005707072914170038,-0.00017719991381987826,0.0011312506188332998,-0.0007862145850218342,0.0001882683541998445,,0.0,4.0,3.0,0.0,2.3387411976724017,-2.3387411976724017,-0.8028514559173916,0.7853981633974483
2025/04/09 08:48:21.663492609,1744181301,661404985,world_ned,1.8372554618785701,11.381177464944361,0.43363348024937265,-0.00022825374101369763,1.503364973246529e-05,-0.005546345680043732,0.9999845927432165,-0.0019731641569626004,-0.0002587348572647334,-3.3703008297477674e-05,0.000464228474812426,0.0005408243557607272,0.00017376838332340495,,0.0,4.0,3.0,0.0,2.3387411976724017,-2.3387411976724017,-0.8028514559173916,0.7853981633974483
2025/04/09 08:48:21.766175745,1744181301,764121658,world_ned,1.8371898281925756,11.3811537376735,0.433639238774192,-0.00022063366994164963,2.491478731634349e-05,-0.0055446245253377695,0.9999846038009336,-0.001930746286558093,-0.0004258818216721997,0.00014613633646119416,-5.167645906009369e-06,0.0006487728916306993,-0.00024139860951741048,,4.0,0.0,0.0,4.0,2.3387411976724017,-2.356194490192345,-0.7853981633974483,0.8153981633974483
2025/04/09 08:48:21.859826186,1744181301,856806122,world_ned,1.8371742108977789,11.381151850037568,0.4336604378879667,-0.00024882109992535167,3.289513528952068e-05,-0.005561947971186299,0.9999845007502547,-0.0024029199406067807,0.00029504964943910864,0.0002596731598098129,-0.0009997301986775986,0.0007369072028430628,-0.00037467833074723183,,4.0,0.0,0.0,4.0,2.3387411976724017,-2.356194490192345,-0.7853981633974483,0.8377580409572782
2025/04/09 08:48:21.958832947,1744181301,957642070,world_ned,1.8371062427063267,11.381197271381998,0.43369048841316304,-0.0003151934490186814,4.201998294063481e-05,-0.0055864549405558106,0.9999843450817657,0.004302730865642199,0.0003695705767353422,0.0003195657012754969,-0.0014358305901794317,-0.0012567735018658049,-0.0007221134485865501,,7.0,0.0,0.0,8.0,2.321287905152458,-2.3387411976724017,-0.7853981633974483,0.8677580409572783
2025/04/09 08:48:22.59459823,1744181302,58384012,world_ned,1.8370280131636336,11.381276390235,0.4337215121831066,-0.0004057348997490224,4.759639303395318e-05,-0.005621050012793409,0.9999841183291504,-0.00757699023416403,0.0012260272102912375,0.00030643691747914105,-0.002147272415095371,0.0018716732917919473,-0.0004578885855721974,,1.0,0.0,0.0,1.0,2.3512879051524576,-2.356194490192345,-0.7853981633974483,0.8577580409572783
2025/04/09 08:48:22.162083866,1744181302,161206480,world_ned,1.8370458874696065,11.381391408367575,0.43374577633806294,-0.0005070911885280328,2.443551075217543e-05,-0.005636079455107143,0.9999839883067169,0.0027957352336610676,0.001059743227265384,0.00018598675211273992,-0.0018682132240561834,-0.001363647290341511,-0.00017157837860486486,,1.0,0.0,0.0,1.0,2.3387411976724017,-2.356194490192345,-0.7853981633974483,0.8077580409572782
2025/04/09 08:48:22.264655515,1744181302,263585168,world_ned,1.8368543278555658,11.381456605104242,0.433756167547362,-0.0005763739021973521,1.6990444921327094e-05,-0.005643113560893232,0.9999839112574704,-0.0020783345295725965,-2.786380961217377e-05,2.481642561284788e-05,-0.000754623109517656,-0.00014327155873601277,-0.0002770220701964322,,0.0,0.0,0.0,0.0,2.356194490192345,-2.356194490192345,-0.767944870877505,0.7853981633974483
2025/04/09 08:48:22.358229125,1744181302,356467305,world_ned,1.836764261123952,11.381427004426248,0.4337489576362087,-0.0005908899334687668,-7.048319676000992e-06,-0.005656570595113705,0.9999838268734701,-0.002466266811583216,-0.0005341667173093931,-0.00014872877603428527,0.00010024154161286357,-2.9196374894496292e-05,-0.00026325556899178636,,0.0,0.0,0.0,0.0,2.356194490192345,-2.356194490192345,-0.767944870877505,0.7853981633974483
2025/04/09 08:48:22.459067831,1744181302,457670628,world_ned,1.8366886696168427,11.381348446311431,0.4337260088995116,-0.0005632302938556161,-2.992237545036232e-05,-0.0056693519329890744,0.9999837700307678,-0.0029525552230813402,-0.0009822481963029381,-0.000284753867326562,0.0008947216712876729,0.00021366088412192678,-0.00024971430496779006,,0.0,0.0,0.0,0.0,2.356194490192345,-2.356194490192345,-0.767944870877505,0.7853981633974483
2025/04/09 08:48:22.562947356,1744181302,559137238,world_ned,1.8365762691985428,11.38125260630051,0.43369399482016296,-0.0005083861090397453,-3.9866972498294954e-05,-0.0056809244113818986,0.9999837333937092,0.003979006078555494,-0.0007642382646645771,-0.00033820152108552087,0.0011151255608240118,-0.0014871239231284276,-0.0002229833119688777,,4.0,0.0,0.0,4.0,2.3387411976724017,-2.356194490192345,-0.7853981633974483,0.8153981633974483
2025/04/09 08:48:22.662686364,1744181302,659860536,world_ned,1.8364714257834744,11.381169435580537,0.43366181903279377,-0.0004447298893390367,-3.8077836246169575e-05,-0.005696080372050642,0.9999836775836889,-0.007788676600605063,-0.000980312928567097,-0.0002926946097203987,0.0014225552454074223,0.0019580482450944417,-0.000266828660617939,,0.0,2.0,1.0,0.0,2.356194490192345,-2.3387411976724017,-0.7853981633974483,0.8053981633974483
2025/04/09 08:48:22.762916914,1744181302,761570222,world_ned,1.8364808300708801,11.381071407120121,0.43363815824976515,-0.0003728924507597173,-4.933005432695177e-05,-0.00570390254283652,0.9999836618733067,0.0029378943989229506,-0.0009522275361087337,-0.00017982648620828922,0.0013985793676931078,-0.0009559029182082611,-0.0001272113363110283,,0.0,2.0,1.0,0.0,2.356194490192345,-2.3387411976724017,-0.7853981633974483,0.7853981633974483
2025/04/09 08:48:22.867374220,1744181302,866059579,world_ned,1.83632346167051,11.38098593698013,0.43362890797371023,-0.00031004771348183013,-2.9032100353224875e-05,-0.005710199699882404,0.9999836481897791,-0.0016469729807468316,-0.0007897636438587083,-2.105569520779625e-05,0.0011002695081933451,0.0005231561885267049,-0.00012356520186228393,,0.0,2.0,2.0,0.0,2.356194490192345,-2.3387411976724017,-0.7853981633974483,0.7853981633974483
2025/04/09 08:48:22.961937271,1744181302,957421974,world_ned,1.8362790373303786,11.380922791185764,0.4336359841784045,-0.0002691604889389101,-1.6895231929066288e-05,-0.005716229993494546,0.9999836258568656,-0.001993375405159134,-0.0004968782361137884,0.0001423392201176462,0.0005574350461680167,0.0007305580793216389,-0.00011815809455304904,,0.0,2.0,2.0,0.0,2.356194490192345,-2.3387411976724017,-0.7853981633974483,0.7853981633974483
2025/04/09 08:48:23.60580775,1744181303,58394426,world_ned,1.836249508701539,11.380892260702533,0.4336572140334082,-0.00025860433766315184,-2.3507433881342505e-06,-0.00572205019087252,0.999983595495388,-0.0025280062206505857,-0.0001451799203388075,0.0002622037462719429,-8.95306418822942e-05,0.0009265760906424586,-0.00011602467188688705,,0.0,2.0,1.0,0.0,2.356194490192345,-2.3387411976724017,-0.7853981633974483,0.7853981633974483
2025/04/09 08:48:23.161199115,1744181303,159863303,world_ned,1.8361764609041404,11.380907795376372,0.43368699008453,-0.0002839441992762831,1.9669165914056437e-05,-0.005728924931465126,0.999983549068656,0.0043390098444366434,0.0004697162150067638,0.00031318115493719084,-0.000892606424884338,-0.0009374881056962715,-0.00019138299312911636,,4.0,0.0,0.0,4.0,2.3387411976724017,-2.356194490192345,-0.7853981633974483,0.8153981633974483
2025/04/09 08:48:23.265762696,1744181303,261704704,world_ned,1.8361028619910036,11.380980641778619,0.4337175130837654,-0.00034532050620447025,4.2774616547471735e-05,-0.00574182214581301,0.9999834550643956,-0.0074232688284774475,0.000891728479871689,0.0002866691663436075,-0.0014491914648432837,0.0022717534672854825,-0.0002607075363042053,,4.0,0.0,0.0,4.0,2.3387411976724017,-2.356194490192345,-0.7853981633974483,0.8203047484373349
2025/04/09 08:48:23.363496482,1744181303,362538223,world_ned,1.8361547197645514,11.381079748599236,0.4337403222323329,-0.00042342087072689297,4.098616275235797e-05,-0.0057544913922762024,0.9999833522932854,0.003284876133041039,0.001038688848929729,0.00017405980364401034,-0.0015929615160386278,-0.0009167530705319445,-0.0002477802456650431,,3.0,0.0,0.0,3.0,2.3387411976724017,-2.356194490192345,-0.7853981633974483,0.8203047484373349
2025/04/09 08:48:23.466215047,1744181303,465146748,world_ned,1.8360166625332752,11.381181952285905,0.4337498919775962,-0.0004981479327151311,5.441852303262695e-05,-0.0057645423114609665,0.9999832593294754,-0.0016677618427793606,0.0009397013618110714,2.6333941830053258e-05,-0.0013544151321353423,0.0002068031104817578,-0.000124392314722581,,2.0,0.0,0.0,2.0,2.3387411976724017,-2.356194490192345,-0.7853981633974483,0.8028514559173916
2025/04/09 08:48:23.559579467,1744181303,556574356,world_ned,1.8359632285301104,11.381260751772272,0.43374364967269685,-0.0005516347867959322,4.3640874118476084e-05,-0.0057706053042816405,0.9999831968133056,-0.0021633706854095026,0.0006318096843382035,-0.00013135436177432215,-0.0007966653778534459,0.00015076215738985216,-0.00011902374619223527,,2.0,0.0,0.0,2.0,2.3387411976724017,-2.356194490192345,-0.7853981633974483,0.8028514559173916
2025/04/09 08:48:23.660696430,1744181303,658974616,world_ned,1.835884460144024,11.381322065820493,0.43372256698745065,-0.0005771079684850799,2.5676663624568427e-05,-0.005769885902411524,0.9999831872105525,-0.002932393622793171,0.0008246717680363498,-0.00026334147536181203,-0.00040984056885223736,5.759072283797372e-05,0.0002721437696850849,,0.0,4.0,4.0,0.0,2.3387411976724017,-2.3261944901923455,-0.8153981633974483,0.7853981633974483
2025/04/09 08:48:23.759653610,1744181303,758516014,world_ned,1.8357458826799722,11.381380036279468,0.43369300042444725,-0.0005746189570512517,4.115436831614737e-06,-0.005753658508533651,0.9999832824652043,0.0034796743444829967,0.0002361185009061159,-0.0003134668496256797,0.0005055531785036757,-0.0018028935179494972,0.000323108708075141,,0.0,4.0,4.0,0.0,2.3387411976724017,-2.321287905152458,-0.8203047484373349,0.7853981633974483
2025/04/09 08:48:23.863542872,1744181303,859678309,world_ned,1.835582782905866,11.381366155108251,0.4336628227075673,-0.000524357905005739,-1.3035722260329601e-05,-0.005739584868570486,0.9999833908842656,-0.008209439984994037,-0.0005265291205040877,-0.000272006374877553,0.0014163662246680722,0.0015707182260703628,0.00019614840830943877,,1.0,0.0,0.0,1.0,2.3387411976724017,-2.3512879051524576,-0.7903047484373349,0.7853981633974483
2025/04/09 08:48:23.961426509,1744181303,960471670,world_ned,1.8355694592834397,11.381288813452393,0.4336402885106548,-0.00043846999400081675,-4.324982619838783e-05,-0.005732685342815318,0.999983470959534,0.0027462846048773143,-0.0008364539639889511,-0.00017418513256099832,0.0018359751939096293,-0.0013347497614266935,0.00012913520936567294,,0.0,0.0,0.0,0.0,2.356194490192345,-2.356194490192345,-0.7853981633974483,0.7853981633974483
2025/04/09 08:48:24.65438586,1744181304,63718026,world_ned,1.8353933180439943,11.3812105996826,0.4336312679330032,-0.0003479295317132545,-4.1768942110618756e-05,-0.005726380034418627,0.9999835427506284,-0.0018288892653025074,-0.0007378752211377711,-2.1000417830819154e-05,0.0017286266110970797,0.00016400345373867415,0.00012358344762868677,,0.0,0.0,0.0,0.0,2.356194490192345,-2.356194490192345,-0.7853981633974483,0.7853981633974483
2025/04/09 08:48:24.167464642,1744181304,165496058,world_ned,1.8353406926269287,11.381160278605961,0.4336381014890783,-0.00027642964640223807,-4.581853627045025e-05,-0.005722277077386868,0.9999835883815104,-0.0017189499005987297,-0.00023203698213730998,0.0001402703954734614,0.0010891368969249352,0.00040513132593280357,-1.3928296032542866e-05,,6.0,0.0,0.0,6.0,2.3387411976724017,-2.356194490192345,-0.7853981633974483,0.8153981633974483
2025/04/09 08:48:24.267628225,1744181304,266313480,world_ned,1.8353954113734596,11.381170900931101,0.4336591695573063,-0.00024533507197785885,-3.647768176610188e-05,-0.005729201425584173,0.9999835572303708,-0.0008766449071572118,0.00029494786197363266,0.00026531488660258746,0.0002794272257448768,0.0010611537256976081,-0.0002295044463486292,,-20.0,-26.000000000000004,24.0,33.0,2.378741197672401,-2.3911010752322315,-0.7453981633974482,0.8203047484373349
2025/04/09 08:48:24.359500848,1744181304,357085296,world_ned,1.835613575687763,11.38117656735814,0.4336880189202694,-0.00023811800698560052,1.1575251784570158e-05,-0.005753279339628946,0.9999834213339082,0.008671672601582702,0.0001402450286808661,0.0002959498300392346,-0.00013013495229220853,-0.00010447265577774176,-0.0005517831991507953,,-45.0,-53.00000000000001,50.0,58.00000000000001,2.4187411976724,-2.416101075232231,-0.7053981633974482,0.7953047484373349
2025/04/09 08:48:24.459902873,1744181304,458169673,world_ned,1.8361946828929716,11.38120828947967,0.43371565713362054,-0.00026573342159744634,0.00010114598055185835,-0.005781326605200405,0.9999832475686397,0.008223712733352151,0.0005649970550603625,0.0002512413862392763,-0.0008923832857039846,0.0021637880290919535,-0.0005694878745459079,,-72.0,-80.0,76.0,84.0,2.473741197672399,-2.4711010752322298,-0.6503981633974482,0.7403047484373348
2025/04/09 08:48:24.560107582,1744181304,559013766,world_ned,1.8373446212794822,11.381270990061221,0.4337355737918197,-0.00032595173879169476,0.00023582453415520272,-0.005811411278577818,0.9999830326766571,0.013559994765736416,0.000908210716246419,0.0001495823765055709,-0.001455412318896133,0.0034277776936392445,-0.000636233018848376,,-99.0,-108.0,102.0,108.99999999999999,2.523741197672398,-2.5211010752322287,-0.6003981633974481,0.6903047484373348
2025/04/09 08:48:24.660496270,1744181304,659706066,world_ned,1.8392538275028394,11.381350471232556,0.43374144597760556,-0.00040628931753809396,0.00041343690952171303,-0.0058457183283398525,0.9999827456392125,0.02590135346849224,0.0010827659224187168,4.394589353948103e-06,-0.0017177871806772528,0.003106178701209999,-0.0007346743469971639,,-126.0,-135.0,127.0,135.0,2.568741197672397,-2.5661010752322277,-0.5553981633974481,0.6453047484373348
2025/04/09 08:48:24.762728138,1744181304,760628728,world_ned,1.8420086233183044,11.38142673053708,0.43373089986879887,-0.0004892777842601193,0.0006373017716558374,-0.005886105190569008,0.9999823539540021,0.03258243371212478,0.0010416995203685676,-0.00013872745938721927,-0.0015866046098558162,0.004645580687532044,-0.0008675357434279118,,-154.0,-162.0,152.0,159.00000000000003,2.6237411976723957,-2.6211010752322266,-0.500398163397448,0.5903047484373347
2025/04/09 08:48:24.864312925,1744181304,862961973,world_ned,1.845827931577029,11.381473580438515,0.4337038643061674,-0.000555742945556239,0.0008759143803895067,-0.0059334666153435635,0.9999818587842988,0.04317385389111819,0.0008166447218899289,-0.0002472080801271719,-0.0011273595721947723,0.0046577885834154275,-0.001022342348691666,,-142.0,-150.0,176.0,184.0,2.6737411976723946,-2.6711010752322255,-0.450398163397448,0.5403047484373347
2025/04/09 08:48:24.968074099,1744181304,965737807,world_ned,1.8506203873003502,11.381481300737823,0.4336681250806525,-0.0005924818963567153,0.0011023519469845603,-0.005990055431907424,0.9999812763353673,0.051337938943731586,0.00047532447680134933,-0.00027569732114522444,-0.00042527424645639924,0.004345439275092053,-0.0012178917915691989,,-115.0,-122.99999999999999,199.0,200.0,2.7237411976723935,-2.7211010752322244,-0.40039816339744794,0.4903047484373346
2025/04/09 08:48:25.57977255,1744181305,56407068,world_ned,1.8563591434455444,11.381437306792114,0.433627547229299,-0.0005918822569342247,0.001262361248785587,-0.0060563002447103125,0.9999806884869414,0.06045191532759329,8.122362568682623e-05,-0.00023286228891651904,0.00034276089597119774,0.002679130429053041,-0.0014131647546487918,,-88.0,-96.0,220.00000000000003,221.0,2.7737411976723925,-2.7711010752322234,-0.3503981633974479,0.4403047484373346
2025/04/09 08:48:25.159658890,1744181305,157305776,world_ned,1.8629511214131818,11.381348504992665,0.43359595189355893,-0.0005557726546342151,0.0013277637650749184,-0.006132926120233006,0.9999801574918096,0.06491186297674892,-0.0002267374069687413,-3.4951711752502664e-05,0.001026859704486212,0.0016899322365895606,-0.0016279672858359447,,-61.99999999999999,-69.0,242.0,244.0,2.8237411976723914,-2.8211010752322223,-0.30039816339744785,0.39030474843733454
2025/04/09 08:48:25.259269630,1744181305,258276561,world_ned,1.8704358785909334,11.381219179717716,0.4335849490125212,-0.0004896851176004411,0.0012732062472110156,-0.006220122603218966,0.9999797244090195,0.08101810452528942,-0.0004293682039316546,0.00018338412591298984,0.001508880906525551,-0.0028031886508109055,-0.0018426227905329624,,-36.0,-42.0,264.0,266.0,2.8737411976723903,-2.8711010752322212,-0.2503981633974478,0.3403047484373345
2025/04/09 08:48:25.360366055,1744181305,359036754,world_ned,1.8786559279844843,11.381073076908933,0.4335947432311947,-0.00041115705054084705,0.001120138847126745,-0.0063178633766718725,0.9999793302069782,0.08774673506312433,-0.00037596901992908885,0.00038837153246758525,0.0015912266383661794,-0.0044760781853384855,-0.0020500084658637884,,-12.0,-14.999999999999998,285.0,287.0,2.9237411976723893,-2.92110107523222,-0.20039816339744776,0.29030474843733445
2025/04/09 08:48:25.462619610,1744181305,460163783,world_ned,1.8876169284641415,11.380937614099706,0.4336208752685949,-0.00034174346658826253,0.0008884778277773101,-0.006426763747995866,0.9999788950404304,0.09184873379498536,-5.896435855817762e-05,0.00046864287431228177,0.001234375370254765,-0.004818331292892675,-0.0022788970766415358,,-3.0,-3.0,295.0,294.0,2.9071531433504743,-2.966101075232219,-0.15539816339744772,0.2453047484373344
2025/04/09 08:48:25.562670474,1744181305,561797193,world_ned,1.8974434844650039,11.380809917696471,0.4336592232028489,-0.0002906441016567933,0.0006018985241316655,-0.006552239988166609,0.9999783104624371,0.10317096824659858,-0.00026641091834253035,0.0005477253258616998,0.0010931894510696448,-0.006261772373197163,-0.002858780818396501,,-3.0,-3.0,291.0,298.0,2.8571531433504753,-2.966101075232219,-0.10539816339744768,0.19530474843733436
2025/04/09 08:48:25.663795445,1744181305,662419325,world_ned,1.9080225640426247,11.380598289264075,0.43370266097778415,-0.00023472998685459396,0.0003205884295300687,-0.006719546130274487,0.9999773446557153,0.1091280133819941,-0.0010567787531387976,0.0004891746873976209,0.0011613491992656863,-0.005278059822765649,-0.0037452834921424074,,-3.0,-3.0,292.0,299.0,2.8099800957108707,-2.9111010752322204,-0.05039816339744765,0.14030474843733431
2025/04/09 08:48:25.764614037,1744181305,763264966,world_ned,1.9193946208434287,11.380296588236405,0.433741374344878,-0.00018085125580489565,8.639767388893411e-05,-0.006931968901027801,0.9999759535285938,0.11513180454082934,-0.0017435457946036656,0.0003618023766939125,0.0010043654607850157,-0.0033890077305803266,-0.00465061495751199,,-3.0,-3.0,301.0,289.0,2.83998009571087,-2.8611010752322215,-0.00039816339744764943,0.09030474843733427
2025/04/09 08:48:25.864867031,1744181305,864083856,world_ned,1.9316881216277892,11.379993520641259,0.43376669766490633,-0.00016546047261815526,-7.637531710461266e-05,-0.007167456188556871,0.9999742968503881,0.12463378676989312,-0.0008426575100110292,0.00014048657230355488,-0.0002882094638631452,-0.0017304742144751972,-0.004662156712590153,,-3.0,-3.0,299.0,291.0,2.884980095710869,-2.8161010752322224,6.722053469410129e-20,0.04530474843733426
2025/04/09 08:48:25.966172466,1744181305,965084524,world_ned,1.9448099322739305,11.379776689220002,0.4337708045889451,-0.00021725422879893813,-0.00012615138338651887,-0.007390393662238395,0.9999726591102107,0.13230946990793804,0.000419682608820667,-0.00010526238810403325,-0.0017237889591938322,0.0008759530461280925,-0.0041832658584749745,,-3.0,-3.0,299.0,294.0,2.8797932657906435,-2.8225268031909265,-2.1684043449709988e-21,1.5178830414797064e-20
2025/04/09 08:48:26.68326105,1744181306,65996844,world_ned,1.9588277265237455,11.379628309937983,0.4337520450055451,-0.000320352329402088,-5.73905662441048e-05,-0.007601512334760609,0.9999710551265634,0.1437212426677915,0.0005066753309317857,-0.00029747822516268445,-0.0021353680256440094,0.0024967687260772802,-0.004459628335410605,,-2.0,-3.0,303.0,287.0,2.914793265790643,-2.7924333882308146,0.0,0.03490658503988659
2025/04/09 08:48:26.157559263,1744181306,156711113,world_ned,1.9737054886243315,11.37945698388853,0.4337158740224734,-0.00043164297520469595,0.00011145731754762638,-0.007832534969019294,0.9999692258552597,0.15815810038631525,0.0006864853094542522,-0.00037694373253252143,-0.0023141762398341393,0.0024636896046927414,-0.00469926631575854,,-2.0,-3.0,305.00000000000006,288.0,2.949606435870417,-2.7576202181510405,0.0,0.03490658503988659
2025/04/09 08:48:26.258488004,1744181306,257791181,world_ned,1.989307209862262,11.379276739571146,0.433671218536643,-0.0005393066486672045,0.000353799862556435,-0.00807481993147688,0.99996719009029,0.15550343521263502,0.00048255946015337924,-0.0003487605828481722,-0.0019103096515167822,0.006246784573952155,-0.00509190608653068,,-2.0,-3.0,311.0,281.0,2.9746064358704163,-2.732620218151041,2.7755575615628914e-19,0.05235987755982989
2025/04/09 08:48:26.359603117,1744181306,358534067,world_ned,2.0056432233782453,11.379064766906126,0.4336302876019153,-0.0006214676588174347,0.000606911897350773,-0.00833134363722327,0.9999649164591208,0.17024702292301014,0.0008531027717286672,-0.0001483425933165006,-0.0015788963650105597,0.003744496446525211,-0.004913641443835448,,-2.0,-3.0,304.0,287.0,2.9696064358704164,-2.737620218151041,0.0,0.022359877559829898
2025/04/09 08:48:26.461701206,1744181306,459319290,world_ned,2.022494487207431,11.378877723464665,0.43360152825448306,-0.0006821722947824948,0.0008386547811083345,-0.008567649449707983,0.9999627126458392,0.17013627008618357,0.00084573225258369,5.9069960480780305e-05,-0.0007963681358451087,0.004390408106128757,-0.004777081712006395,,-2.0,-3.0,306.00000000000006,288.0,2.949606435870417,-2.7576202181510405,5.421010862427407e-22,0.03490658503988659
2025/04/09 08:48:26.560888881,1744181306,560108704,world_ned,2.039918859934948,11.378623546155417,0.43359187122114257,-0.0006849745140948378,0.0009949902568506279,-0.008814462325136366,0.999960422245912,0.17854233926905272,6.101956636487561e-05,0.0003733118344592712,0.0006049475178909446,0.0017299340503475378,-0.005196229989685506,,-2.0,-3.0,312.0,279.99999999999994,2.9746064358704163,-2.732620218151041,2.7755575615628914e-19,0.05235987755982989
2025/04/09 08:48:26.665135208,1744181306,663839684,world_ned,2.0577781358628364,11.37828184063735,0.4336065789704946,-0.0006228442596713128,0.0010534177947903569,-0.009084930649731246,0.9999579823227911,0.17602513789231694,-0.0004041373519618678,0.0006211931839347261,0.0016952937471379432,0.0014167199936684345,-0.005579197647052715,,-2.0,-3.0,313.0,282.0,3.024606435870415,-2.682620218151042,0.0,0.05235987755982989
2025/04/09 08:48:26.767590144,1744181306,765072740,world_ned,2.076112495857996,11.37790428314405,0.433636843350502,-0.000523177285499384,0.000988034275670504,-0.00937053537526376,0.9999554705788548,0.18596959335573207,-0.00025308679590527086,0.0007113821840671896,0.0021536308027955337,-0.002486126858836224,-0.0057780408867426645,,-2.0,-3.0,312.0,282.0,3.0543261909900767,-2.6878070480712677,0.0,0.05235987755982989
2025/04/09 08:48:26.867115815,1744181306,866168124,world_ned,2.0948938382810103,11.377544797328579,0.4336747163554824,-0.0004167551551967562,0.0008141840045952724,-0.009664005535300044,0.9999528840983264,0.1879067241664776,0.00023184740103404644,0.0007017389240245352,0.0020904948505741693,-0.0037508879586987376,-0.005943180950198024,,-2.0,-3.0,312.0,282.0,3.0543261909900767,-2.6878070480712677,0.0,0.05235987755982989
2025/04/09 08:48:26.960423611,1744181306,959298060,world_ned,2.114028326862887,11.37723035135442,0.43371311533503537,-0.00032676875838226715,0.0005757935137247466,-0.009965555825844945,0.9999501234467097,0.19000171576323752,0.0009722239873199163,0.0005867305184991974,0.0015842355765767523,-0.00423375354313125,-0.006104828251185294,,-2.0,-3.0,314.0,283.0,3.0543261909900767,-2.6878070480712677,0.0,0.05235987755982989
2025/04/09 08:48:27.61189262,1744181307,60323091,world_ned,2.1338289151981282,11.376979037225452,0.43374284255508244,-0.00027367170146946836,0.0002772248048985841,-0.01027415818979537,0.9999471435649478,0.20013425903767765,0.0019958500547079903,0.00034338144635775205,0.0006762745193660565,-0.00596681725018073,-0.006208832804308894,,-2.0,-3.0,312.0,284.0,3.036872898470133,-2.705260340591211,0.0,0.05235987755982989
2025/04/09 08:48:27.162196662,1744181307,161415562,world_ned,2.153985715324217,11.376810835126438,0.43375772997442924,-0.0002691673332201076,1.4126519764145703e-05,-0.010588332578792391,0.9999439057080097,0.20745484591486876,0.0029575663098433177,7.548484326764482e-05,-0.00027875437103122976,-0.005844039851903396,-0.00634654570046386,,-2.0,-3.0,312.0,284.0,3.036872898470133,-2.705260340591211,0.0,0.05235987755982989
2025/04/09 08:48:27.264092587,1744181307,263182149,world_ned,2.174735194677013,11.376708683954183,0.43375385145704803,-0.0003092030657798351,-0.00019560763872521772,-0.010909269268833276,0.9999404252129903,0.21127408749603324,0.0038193365640758195,-0.00019389858462514036,-0.0011077656429449858,-0.0037869577495262385,-0.006480311565197418,,-2.0,-3.0,313.0,285.0,3.036872898470133,-2.705260340591211,0.0,0.05235987755982989
2025/04/09 08:48:27.359154870,1744181307,356728934,world_ned,2.196104066793748,11.376666176061427,0.4337345592449122,-0.00038530589967761166,-0.0003182487098868488,-0.011230386115842437,0.9999368123460659,0.21193468304183224,0.004849347334217712,-0.0003978227717477156,-0.0018724927976415025,-0.0003630698392169814,-0.006181360504673065,,-3.0,-3.0,305.00000000000006,291.0,3.006872898470134,-2.73526034059121,0.0,0.022359877559829898
2025/04/09 08:48:27.461716869,1744181307,457403570,world_ned,2.2180336284436923,11.376684646367675,0.43370030151307465,-0.00048707104842807204,-0.0003340255983746666,-0.011526992479321152,0.9999333875979315,0.22405009260423708,0.0052326555988469175,-0.0005263052834198962,-0.001959188049286491,9.557585658292604e-05,-0.005857549000625022,,-3.0,-3.0,307.0,292.0,2.956872898470135,-2.775073510670984,0.0,0.017453292519943295
2025/04/09 08:48:27.561260133,1744181307,558370718,world_ned,2.240533080527547,11.376652200001503,0.4336629274878048,-0.0005622080784795051,-0.00023578716917224102,-0.011824148489701859,0.9999299064629384,0.22501229972806902,0.004538436372564893,-0.00046629643502829854,-0.0010577703550423956,0.00353252908704647,-0.006141409095565432,,-2.0,-3.0,312.0,286.0,2.979606435870416,-2.7450735106709847,0.0,0.03490658503988659
2025/04/09 08:48:27.661425719,1744181307,659964071,world_ned,2.263469314384554,11.376513998573566,0.43363088463494487,-0.0005838285657770751,-3.793865705551398e-05,-0.012143582512684456,0.9999260928231755,0.23662371868404317,0.003726088055553265,-0.00027985621237910463,2.896883230617691e-05,0.0031058819047135515,-0.006684578445028772,,-2.0,-3.0,314.0,283.0,3.029606435870415,-2.6950735106709858,0.0,0.05235987755982989
2025/04/09 08:48:27.761476043,1744181307,760661073,world_ned,2.2868417191353747,11.376300839330783,0.43361441369942283,-0.0005606140634986485,0.00021206940879411272,-0.012484877657896958,0.9999218812328816,0.23015196649879782,0.0036451720289067575,1.9292986927031748e-05,0.0006478685944245974,0.006747734088894065,-0.0068971493992822435,,-3.0,-3.0,316.0,284.0,3.0543261909900767,-2.6878070480712677,0.0,0.05235987755982989
2025/04/09 08:48:27.864420299,1744181307,861703486,world_ned,2.310621767090141,11.376081424180578,0.4336156686583168,-0.0005166749517045569,0.0004651908640404396,-0.012826599715324577,0.9999174940884858,0.2355772937245179,0.00417236485234724,0.00029473845697399826,0.0007961771378685177,0.005830835547828197,-0.006605423627176861,,-3.0,-3.0,311.0,289.0,3.0293261909900773,-2.712807048071267,0.0,0.03490658503988659
2025/04/09 08:48:27.964431858,1744181307,963245062,world_ned,2.3346930837782827,11.375871693507486,0.43363197932485087,-0.0004633857124566084,0.0006790104230867606,-0.013161884814967243,0.9999130407223642,0.23778365685577732,0.003911624069470944,0.0005645281112134058,0.001323420419336226,0.004868358865367191,-0.0070190349539811,,-2.0,-3.0,319.0,279.99999999999994,3.034326190990077,-2.7078070480712673,-1.0842021724854813e-21,0.06490658503988658
2025/04/09 08:48:28.58832454,1744181308,56571990,world_ned,2.3591718058845257,11.375600891706272,0.4336618854842429,-0.00038733385203732124,0.0007923119821867452,-0.01353147516923001,0.9999080564701709,0.25104536594744703,0.003938819002844977,0.000741099301724328,0.0014781812837991511,-0.00013044031573077416,-0.007598474552313623,,-3.0,-3.0,321.0,282.0,3.084326190990076,-2.6578070480712683,2.3133728824182618e-35,0.06981317007977318
2025/04/09 08:48:28.159387330,1744181308,158394195,world_ned,2.383693132572969,11.375367674260916,0.4336965729050398,-0.00032907508278182514,0.0008193221923354667,-0.01391351824821543,0.99990281249264,0.24437635768472388,0.00510992164537227,0.00069895826011051,0.0006746037608786688,-8.67554664117702e-05,-0.007400040924425646,,-3.0,-3.0,315.0,288.0,3.0743261909900763,-2.6829004630313804,2.3133728824182618e-35,0.03981317007977319
2025/04/09 08:48:28.260554817,1744181308,259456033,world_ned,2.4083222171068157,11.375236552669739,0.43372379002662786,-0.00031467101603878416,0.0007448862592032025,-0.014272053192683631,0.9998978220919764,0.24669604122150018,0.005890679458215707,0.0005875367631023023,0.00011714103148532278,-0.0022325826444171285,-0.007154920121113914,,-3.0,-3.0,318.00000000000006,290.0,3.036872898470133,-2.705260340591211,0.0,0.03490658503988659
2025/04/09 08:48:28.365677737,1744181308,362100875,world_ned,2.4333244382064256,11.375126797089912,0.43373811645525795,-0.0003225411140890008,0.0005579828434942966,-0.01463099635969015,0.9998927535330471,0.25450110221358585,0.00633288616442362,0.00036405423620848847,-0.0002672610696998024,-0.005396901943288536,-0.007204673585422422,,-3.0,-3.0,318.00000000000006,288.0,3.036872898470133,-2.705260340591211,0.0,0.03490658503988659
2025/04/09 08:48:28.463884804,1744181308,463060538,world_ned,2.4584726833709873,11.375021062354545,0.43373807194111524,-0.000343850041483856,0.00032363453778928863,-0.014998278186391845,0.9998874080011602,0.25594121880570797,0.006280238701297356,0.00010420697841356493,-0.00030146848987988004,-0.005962460083731554,-0.007602562452820846,,-3.0,-3.0,323.0,282.0,3.0618728984701327,-2.6802603405912113,0.0,0.05235987755982989
2025/04/09 08:48:28.565820166,1744181308,564670488,world_ned,2.483954968669807,11.374884050013515,0.43372360925018455,-0.00036693287855938864,5.949296697411447e-05,-0.01538757421422209,0.9998815351733681,0.2567554173534385,0.006487062193345394,-0.00016893705262330957,-0.00045100515636470025,-0.005406718072292242,-0.007928649353612722,,-3.0,-3.0,326.0,284.0,3.1168728984701315,-2.6354471705114375,0.0,0.05235987755982989
2025/04/09 08:48:28.666618284,1744181308,665490666,world_ned,2.5096730468656228,11.374741158239283,0.43369978699505163,-0.0003949024200359987,-0.00016690291882933295,-0.01579387219374297,0.9998751771079338,0.2550435112983704,0.006552162347975091,-0.0003565481418782118,-0.00043972623452088474,-0.003051668104937768,-0.008428449669420803,,-3.0,-4.0,327.99999999999994,281.0,3.141592653589793,-2.6179938779914944,0.0,0.06981317007977318
2025/04/09 08:48:28.767567089,1744181308,766354576,world_ned,2.5359225067143982,11.374578140906324,0.4336714785948629,-0.0004229654585705788,-0.0003517181562306661,-0.016225868017794243,0.9998682006152754,0.2595625451298607,0.006937839999265072,-0.00047683591537324953,-0.0005283942565856292,-0.0016563908081033746,-0.00888296643539679,,-3.0,-4.0,329.99999999999994,278.0,3.141592653589793,-2.600540585471551,1.0842021724855045e-21,0.08726646259971647
2025/04/09 08:48:28.859378859,1744181308,857465381,world_ned,2.5624657236810835,11.37443704465241,0.4336465730485306,-0.00045771214625705506,-0.0004309964273873268,-0.016677940253120475,0.9998607158252514,0.26680905478554323,0.007641542068408951,-0.0004360839781253879,-0.0007642696200222891,-0.0005783965152241527,-0.009175035195014754,,-3.0,-4.0,332.00000000000006,279.99999999999994,3.141592653589793,-2.600540585471551,0.0,0.08726646259971647
2025/04/09 08:48:28.960166122,1744181308,958544447,world_ned,2.589412031546789,11.37432155728594,0.4336338833558011,-0.0004973852215842774,-0.0004072034334112718,-0.017144338044212993,0.9998528184019541,0.2684498336665913,0.008220871361367918,-0.0002837509161911026,-0.0008101253018627767,0.002124159591271745,-0.009451604726764824,,-3.0,-4.0,331.0,281.0,3.141592653589793,-2.600540585471551,0.0,0.08726646259971647
2025/04/09 08:48:29.61048759,1744181309,59310873,world_ned,2.616720214516699,11.374228211663842,0.4336356612447579,-0.0005345326954538599,-0.0002862446987928124,-0.017618977620997733,0.9998445899070318,0.26851253080381793,0.008941008125210622,-6.71144231464218e-05,-0.0008054004766024458,0.004811307959327509,-0.00940283179666129,,-3.0,-4.0,329.0,283.0,3.141592653589793,-2.6305405854715502,0.0,0.06981317007977318
2025/04/09 08:48:29.161695842,1744181309,160646069,world_ned,2.644419026834062,11.374144440725512,0.43365122158102476,-0.0005596471703091775,-0.00010062993876334359,-0.018093097948069754,0.9998361448133898,0.2785077318788954,0.009119075838245191,0.00015477275993755295,-0.0003377553370905434,0.004114598237302478,-0.009562212692433106,,-3.0,-4.0,331.0,285.0,3.141592653589793,-2.6354471705114375,1.0842021724855045e-21,0.06981317007977318
2025/04/09 08:48:29.263066282,1744181309,261464660,world_ned,2.672328399921672,11.374019151119358,0.43367594951913724,-0.000550390909932657,0.0001346920685341847,-0.018582368763336545,0.9998271723148138,0.2758052671050205,0.008724261300605857,0.00035781337705739313,0.000554740180632547,0.006009100449462063,-0.010112550739484992,,-3.0,-4.0,336.0,278.0,3.141592653589793,-2.605447170511438,1.0842021724854813e-21,0.08726646259971647
