time,header_stamp_secs,header_stamp_nsecs,header_frame_id,status_status,status_service,latitude,longitude,altitude,position_covariance_0,position_covariance_1,position_covariance_2,position_covariance_3,position_covariance_4,position_covariance_5,position_covariance_6,position_covariance_7,position_covariance_8,position_covariance_type
2025/05/06 15:12:23.370205274,1746537143,363443636,mA1/gps,0,1,63.43461191991109,10.39285732546881,0.0,1.4400000000000002e-10,0.0,0.0,0.0,1.4400000000000002e-10,0.0,0.0,0.0,1.0,2
2025/05/06 15:12:23.414983412,1746537143,414176487,mA1/gps,0,1,63.434611920535026,10.392857325310802,0.0,1.4400000000000002e-10,0.0,0.0,0.0,1.4400000000000002e-10,0.0,0.0,0.0,1.0,2
2025/05/06 15:12:23.459504183,1746537143,459049787,mA1/gps,0,1,63.43461191977906,10.392857325749128,0.0,1.4400000000000002e-10,0.0,0.0,0.0,1.4400000000000002e-10,0.0,0.0,0.0,1.0,2
2025/05/06 15:12:23.509628367,1746537143,508917766,mA1/gps,0,1,63.434611919544665,10.392857326111491,0.0,1.4400000000000002e-10,0.0,0.0,0.0,1.4400000000000002e-10,0.0,0.0,0.0,1.0,2
2025/05/06 15:12:23.562970512,1746537143,561241033,mA1/gps,0,1,63.43461192000114,10.392857324999655,0.0,1.4400000000000002e-10,0.0,0.0,0.0,1.4400000000000002e-10,0.0,0.0,0.0,1.0,2
2025/05/06 15:12:23.619349308,1746537143,618236416,mA1/gps,0,1,63.434611920566496,10.392857325132702,0.0,1.4400000000000002e-10,0.0,0.0,0.0,1.4400000000000002e-10,0.0,0.0,0.0,1.0,2
2025/05/06 15:12:23.668918707,1746537143,664159201,mA1/gps,0,1,63.434611920011896,10.392857324622925,0.0,1.4400000000000002e-10,0.0,0.0,0.0,1.4400000000000002e-10,0.0,0.0,0.0,1.0,2
2025/05/06 15:12:23.708567870,1746537143,706981830,mA1/gps,0,1,63.434611919783585,10.392857325080058,0.0,1.4400000000000002e-10,0.0,0.0,0.0,1.4400000000000002e-10,0.0,0.0,0.0,1.0,2
2025/05/06 15:12:23.767441282,1746537143,764161060,mA1/gps,0,1,63.43461192015518,10.392857324139229,0.0,1.4400000000000002e-10,0.0,0.0,0.0,1.4400000000000002e-10,0.0,0.0,0.0,1.0,2
2025/05/06 15:12:23.826951870,1746537143,806666350,mA1/gps,0,1,63.434611920835714,10.392857323461168,0.0,1.4400000000000002e-10,0.0,0.0,0.0,1.4400000000000002e-10,0.0,0.0,0.0,1.0,2
2025/05/06 15:12:23.864015920,1746537143,859392264,mA1/gps,0,1,63.43461192062835,10.392857323047034,0.0,1.4400000000000002e-10,0.0,0.0,0.0,1.4400000000000002e-10,0.0,0.0,0.0,1.0,2
2025/05/06 15:12:23.915079100,1746537143,911016310,mA1/gps,0,1,63.43461192062215,10.392857323095019,0.0,1.4400000000000002e-10,0.0,0.0,0.0,1.4400000000000002e-10,0.0,0.0,0.0,1.0,2
2025/05/06 15:12:23.964385966,1746537143,959622127,mA1/gps,0,1,63.43461192141804,10.392857322969784,0.0,1.4400000000000002e-10,0.0,0.0,0.0,1.4400000000000002e-10,0.0,0.0,0.0,1.0,2
2025/05/06 15:12:24.10890168,1746537144,10435261,mA1/gps,0,1,63.434611922385976,10.392857322877303,0.0,1.4400000000000002e-10,0.0,0.0,0.0,1.4400000000000002e-10,0.0,0.0,0.0,1.0,2
2025/05/06 15:12:24.71631391,1746537144,63173565,mA1/gps,0,1,63.43461192221072,10.392857322834368,0.0,1.4400000000000002e-10,0.0,0.0,0.0,1.4400000000000002e-10,0.0,0.0,0.0,1.0,2
2025/05/06 15:12:24.114521717,1746537144,109206340,mA1/gps,0,1,63.43461192256734,10.39285732285364,0.0,1.4400000000000002e-10,0.0,0.0,0.0,1.4400000000000002e-10,0.0,0.0,0.0,1.0,2
2025/05/06 15:12:24.166720571,1746537144,160401081,mA1/gps,0,1,63.43461192382755,10.392857322952427,0.0,1.4400000000000002e-10,0.0,0.0,0.0,1.4400000000000002e-10,0.0,0.0,0.0,1.0,2
2025/05/06 15:12:24.218994176,1746537144,206808686,mA1/gps,0,1,63.434611925044706,10.392857322945792,0.0,1.4400000000000002e-10,0.0,0.0,0.0,1.4400000000000002e-10,0.0,0.0,0.0,1.0,2
2025/05/06 15:12:24.281050341,1746537144,255774706,mA1/gps,0,1,63.43461192543106,10.392857323301696,0.0,1.4400000000000002e-10,0.0,0.0,0.0,1.4400000000000002e-10,0.0,0.0,0.0,1.0,2
2025/05/06 15:12:24.312567096,1746537144,310167523,mA1/gps,0,1,63.43461192573104,10.392857322758495,0.0,1.4400000000000002e-10,0.0,0.0,0.0,1.4400000000000002e-10,0.0,0.0,0.0,1.0,2
2025/05/06 15:12:24.362416210,1746537144,356809813,mA1/gps,0,1,63.43461192695125,10.392857322162392,0.0,1.4400000000000002e-10,0.0,0.0,0.0,1.4400000000000002e-10,0.0,0.0,0.0,1.0,2
2025/05/06 15:12:24.418631539,1746537144,408312014,mA1/gps,0,1,63.43461192794904,10.392857321072174,0.0,1.4400000000000002e-10,0.0,0.0,0.0,1.4400000000000002e-10,0.0,0.0,0.0,1.0,2
2025/05/06 15:12:24.465545438,1746537144,463142005,mA1/gps,0,1,63.434611928125,10.392857320622694,0.0,1.4400000000000002e-10,0.0,0.0,0.0,1.4400000000000002e-10,0.0,0.0,0.0,1.0,2
2025/05/06 15:12:24.546449747,1746537144,505710961,mA1/gps,0,1,63.43461192806109,10.392857320606636,0.0,1.4400000000000002e-10,0.0,0.0,0.0,1.4400000000000002e-10,0.0,0.0,0.0,1.0,2
2025/05/06 15:12:24.590348591,1746537144,563828394,mA1/gps,0,1,63.43461192924105,10.392857320193228,0.0,1.4400000000000002e-10,0.0,0.0,0.0,1.4400000000000002e-10,0.0,0.0,0.0,1.0,2
2025/05/06 15:12:24.611882924,1746537144,609174108,mA1/gps,0,1,63.4346119303042,10.392857320597845,0.0,1.4400000000000002e-10,0.0,0.0,0.0,1.4400000000000002e-10,0.0,0.0,0.0,1.0,2
2025/05/06 15:12:24.662568807,1746537144,660872845,mA1/gps,0,1,63.434611929375805,10.392857323461639,0.0,1.4400000000000002e-10,0.0,0.0,0.0,1.4400000000000002e-10,0.0,0.0,0.0,1.0,2
2025/05/06 15:12:24.726776640,1746537144,713480724,mA1/gps,0,1,63.43461192940542,10.392857326466626,0.0,1.4400000000000002e-10,0.0,0.0,0.0,1.4400000000000002e-10,0.0,0.0,0.0,1.0,2
2025/05/06 15:12:24.777371426,1746537144,757478033,mA1/gps,0,1,63.43461192986753,10.392857330522984,0.0,1.4400000000000002e-10,0.0,0.0,0.0,1.4400000000000002e-10,0.0,0.0,0.0,1.0,2
2025/05/06 15:12:24.848916339,1746537144,816393540,mA1/gps,0,1,63.43461192938142,10.392857336164615,0.0,1.4400000000000002e-10,0.0,0.0,0.0,1.4400000000000002e-10,0.0,0.0,0.0,1.0,2
2025/05/06 15:12:24.869249344,1746537144,864178786,mA1/gps,0,1,63.434611928482724,10.39285734323236,0.0,1.4400000000000002e-10,0.0,0.0,0.0,1.4400000000000002e-10,0.0,0.0,0.0,1.0,2
2025/05/06 15:12:24.911270002,1746537144,909628229,mA1/gps,0,1,63.43461192784915,10.39285735108928,0.0,1.4400000000000002e-10,0.0,0.0,0.0,1.4400000000000002e-10,0.0,0.0,0.0,1.0,2
2025/05/06 15:12:24.966989464,1746537144,956858569,mA1/gps,0,1,63.43461192611434,10.392857360323319,0.0,1.4400000000000002e-10,0.0,0.0,0.0,1.4400000000000002e-10,0.0,0.0,0.0,1.0,2
2025/05/06 15:12:25.8216661,1746537145,6739300,mA1/gps,0,1,63.43461192510327,10.3928573706397,0.0,1.4400000000000002e-10,0.0,0.0,0.0,1.4400000000000002e-10,0.0,0.0,0.0,1.0,2
2025/05/06 15:12:25.59139774,1746537145,58201372,mA1/gps,0,1,63.43461192309791,10.392857383106497,0.0,1.4400000000000002e-10,0.0,0.0,0.0,1.4400000000000002e-10,0.0,0.0,0.0,1.0,2
2025/05/06 15:12:25.110495631,1746537145,109514888,mA1/gps,0,1,63.43461192094465,10.392857396879872,0.0,1.4400000000000002e-10,0.0,0.0,0.0,1.4400000000000002e-10,0.0,0.0,0.0,1.0,2
2025/05/06 15:12:25.189659986,1746537145,163511495,mA1/gps,0,1,63.43461191964978,10.392857410848496,0.0,1.4400000000000002e-10,0.0,0.0,0.0,1.4400000000000002e-10,0.0,0.0,0.0,1.0,2
2025/05/06 15:12:25.224048071,1746537145,205541064,mA1/gps,0,1,63.43461191818911,10.392857424689444,0.0,1.4400000000000002e-10,0.0,0.0,0.0,1.4400000000000002e-10,0.0,0.0,0.0,1.0,2
2025/05/06 15:12:25.269031102,1746537145,263882941,mA1/gps,0,1,63.434611915485455,10.392857438674856,0.0,1.4400000000000002e-10,0.0,0.0,0.0,1.4400000000000002e-10,0.0,0.0,0.0,1.0,2
2025/05/06 15:12:25.306655283,1746537145,306400925,mA1/gps,0,1,63.43461191316943,10.392857452064376,0.0,1.4400000000000002e-10,0.0,0.0,0.0,1.4400000000000002e-10,0.0,0.0,0.0,1.0,2
2025/05/06 15:12:25.369812545,1746537145,363608368,mA1/gps,0,1,63.43461191123431,10.39285746486031,0.0,1.4400000000000002e-10,0.0,0.0,0.0,1.4400000000000002e-10,0.0,0.0,0.0,1.0,2
2025/05/06 15:12:25.420325697,1746537145,412282654,mA1/gps,0,1,63.434611909262735,10.392857475186023,0.0,1.4400000000000002e-10,0.0,0.0,0.0,1.4400000000000002e-10,0.0,0.0,0.0,1.0,2
2025/05/06 15:12:25.517221988,1746537145,459211757,mA1/gps,0,1,63.434611906638224,10.392857484792133,0.0,1.4400000000000002e-10,0.0,0.0,0.0,1.4400000000000002e-10,0.0,0.0,0.0,1.0,2
2025/05/06 15:12:25.553966680,1746537145,508628420,mA1/gps,0,1,63.43461190450883,10.392857492831652,0.0,1.4400000000000002e-10,0.0,0.0,0.0,1.4400000000000002e-10,0.0,0.0,0.0,1.0,2
2025/05/06 15:12:26.72118209,1746537145,559715859,mA1/gps,0,1,63.43461190246007,10.392857498176555,0.0,1.4400000000000002e-10,0.0,0.0,0.0,1.4400000000000002e-10,0.0,0.0,0.0,1.0,2
2025/05/06 15:12:26.72314351,1746537145,612579309,mA1/gps,0,1,63.43461190073965,10.392857502147244,0.0,1.4400000000000002e-10,0.0,0.0,0.0,1.4400000000000002e-10,0.0,0.0,0.0,1.0,2
2025/05/06 15:12:26.72358404,1746537145,657307919,mA1/gps,0,1,63.43461189847861,10.392857505340478,0.0,1.4400000000000002e-10,0.0,0.0,0.0,1.4400000000000002e-10,0.0,0.0,0.0,1.0,2
2025/05/06 15:12:26.74160587,1746537145,710659274,mA1/gps,0,1,63.43461189728684,10.392857507131707,0.0,1.4400000000000002e-10,0.0,0.0,0.0,1.4400000000000002e-10,0.0,0.0,0.0,1.0,2
2025/05/06 15:12:26.74278652,1746537145,762732596,mA1/gps,0,1,63.43461189694966,10.392857510193659,0.0,1.4400000000000002e-10,0.0,0.0,0.0,1.4400000000000002e-10,0.0,0.0,0.0,1.0,2
2025/05/06 15:12:26.74318250,1746537145,806255455,mA1/gps,0,1,63.43461189582085,10.392857514183179,0.0,1.4400000000000002e-10,0.0,0.0,0.0,1.4400000000000002e-10,0.0,0.0,0.0,1.0,2
2025/05/06 15:12:26.74354604,1746537145,859757798,mA1/gps,0,1,63.434611894730786,10.392857518203419,0.0,1.4400000000000002e-10,0.0,0.0,0.0,1.4400000000000002e-10,0.0,0.0,0.0,1.0,2
2025/05/06 15:12:26.74390351,1746537145,912795312,mA1/gps,0,1,63.43461189520954,10.392857520909654,0.0,1.4400000000000002e-10,0.0,0.0,0.0,1.4400000000000002e-10,0.0,0.0,0.0,1.0,2
2025/05/06 15:12:26.74426207,1746537145,960952323,mA1/gps,0,1,63.43461189423364,10.392857523228242,0.0,1.4400000000000002e-10,0.0,0.0,0.0,1.4400000000000002e-10,0.0,0.0,0.0,1.0,2
2025/05/06 15:12:26.74461969,1746537146,4377456,mA1/gps,0,1,63.43461189448605,10.392857524444347,0.0,1.4400000000000002e-10,0.0,0.0,0.0,1.4400000000000002e-10,0.0,0.0,0.0,1.0,2
2025/05/06 15:12:26.74497549,1746537146,56561830,mA1/gps,0,1,63.4346118945292,10.392857525229186,0.0,1.4400000000000002e-10,0.0,0.0,0.0,1.4400000000000002e-10,0.0,0.0,0.0,1.0,2
2025/05/06 15:12:26.146379967,1746537146,109052266,mA1/gps,0,1,63.43461189493603,10.392857526400283,0.0,1.4400000000000002e-10,0.0,0.0,0.0,1.4400000000000002e-10,0.0,0.0,0.0,1.0,2
2025/05/06 15:12:26.230469164,1746537146,161621502,mA1/gps,0,1,63.43461189357576,10.392857527481274,0.0,1.4400000000000002e-10,0.0,0.0,0.0,1.4400000000000002e-10,0.0,0.0,0.0,1.0,2
2025/05/06 15:12:26.363967244,1746537146,211536276,mA1/gps,0,1,63.434611893331876,10.392857528415322,0.0,1.4400000000000002e-10,0.0,0.0,0.0,1.4400000000000002e-10,0.0,0.0,0.0,1.0,2
2025/05/06 15:12:26.433588003,1746537146,257569640,mA1/gps,0,1,63.434611892856616,10.392857529440231,0.0,1.4400000000000002e-10,0.0,0.0,0.0,1.4400000000000002e-10,0.0,0.0,0.0,1.0,2
2025/05/06 15:12:26.458611575,1746537146,308889196,mA1/gps,0,1,63.43461189274731,10.392857530353144,0.0,1.4400000000000002e-10,0.0,0.0,0.0,1.4400000000000002e-10,0.0,0.0,0.0,1.0,2
2025/05/06 15:12:26.485752539,1746537146,363575988,mA1/gps,0,1,63.43461189102067,10.392857532346145,0.0,1.4400000000000002e-10,0.0,0.0,0.0,1.4400000000000002e-10,0.0,0.0,0.0,1.0,2
2025/05/06 15:12:26.543547776,1746537146,409569745,mA1/gps,0,1,63.43461188997592,10.392857534815938,0.0,1.4400000000000002e-10,0.0,0.0,0.0,1.4400000000000002e-10,0.0,0.0,0.0,1.0,2
2025/05/06 15:12:26.613854834,1746537146,463932239,mA1/gps,0,1,63.4346118892138,10.392857536822149,0.0,1.4400000000000002e-10,0.0,0.0,0.0,1.4400000000000002e-10,0.0,0.0,0.0,1.0,2
2025/05/06 15:12:26.675749334,1746537146,511434073,mA1/gps,0,1,63.434611888380736,10.39285753962201,0.0,1.4400000000000002e-10,0.0,0.0,0.0,1.4400000000000002e-10,0.0,0.0,0.0,1.0,2
2025/05/06 15:12:26.704568157,1746537146,554296694,mA1/gps,0,1,63.43461188554699,10.392857543264887,0.0,1.4400000000000002e-10,0.0,0.0,0.0,1.4400000000000002e-10,0.0,0.0,0.0,1.0,2
2025/05/06 15:12:26.738628812,1746537146,610842311,mA1/gps,0,1,63.43461188376279,10.392857547161157,0.0,1.4400000000000002e-10,0.0,0.0,0.0,1.4400000000000002e-10,0.0,0.0,0.0,1.0,2
2025/05/06 15:12:26.758902739,1746537146,656776215,mA1/gps,0,1,63.43461188197746,10.392857551319752,0.0,1.4400000000000002e-10,0.0,0.0,0.0,1.4400000000000002e-10,0.0,0.0,0.0,1.0,2
2025/05/06 15:12:26.793179547,1746537146,704882278,mA1/gps,0,1,63.43461188012473,10.39285755567502,0.0,1.4400000000000002e-10,0.0,0.0,0.0,1.4400000000000002e-10,0.0,0.0,0.0,1.0,2
2025/05/06 15:12:26.821999611,1746537146,767747281,mA1/gps,0,1,63.434611878045224,10.39285755988749,0.0,1.4400000000000002e-10,0.0,0.0,0.0,1.4400000000000002e-10,0.0,0.0,0.0,1.0,2
2025/05/06 15:12:26.859271820,1746537146,808819380,mA1/gps,0,1,63.4346118757153,10.392857564601613,0.0,1.4400000000000002e-10,0.0,0.0,0.0,1.4400000000000002e-10,0.0,0.0,0.0,1.0,2
2025/05/06 15:12:26.893383226,1746537146,864307258,mA1/gps,0,1,63.43461187456892,10.392857568710959,0.0,1.4400000000000002e-10,0.0,0.0,0.0,1.4400000000000002e-10,0.0,0.0,0.0,1.0,2
2025/05/06 15:12:26.915720888,1746537146,906653606,mA1/gps,0,1,63.43461187365394,10.392857570759565,0.0,1.4400000000000002e-10,0.0,0.0,0.0,1.4400000000000002e-10,0.0,0.0,0.0,1.0,2
2025/05/06 15:12:26.963828825,1746537146,962661498,mA1/gps,0,1,63.43461187176323,10.392857574151684,0.0,1.4400000000000002e-10,0.0,0.0,0.0,1.4400000000000002e-10,0.0,0.0,0.0,1.0,2
2025/05/06 15:12:27.10279080,1746537147,9444850,mA1/gps,0,1,63.434611869401635,10.392857576944767,0.0,1.4400000000000002e-10,0.0,0.0,0.0,1.4400000000000002e-10,0.0,0.0,0.0,1.0,2
2025/05/06 15:12:27.67374211,1746537147,62608549,mA1/gps,0,1,63.434611868365025,10.392857580447332,0.0,1.4400000000000002e-10,0.0,0.0,0.0,1.4400000000000002e-10,0.0,0.0,0.0,1.0,2
2025/05/06 15:12:27.114197981,1746537147,111769418,mA1/gps,0,1,63.43461186858987,10.392857583542757,0.0,1.4400000000000002e-10,0.0,0.0,0.0,1.4400000000000002e-10,0.0,0.0,0.0,1.0,2
2025/05/06 15:12:27.158900107,1746537147,156828598,mA1/gps,0,1,63.4346118677727,10.392857587071923,0.0,1.4400000000000002e-10,0.0,0.0,0.0,1.4400000000000002e-10,0.0,0.0,0.0,1.0,2
2025/05/06 15:12:27.212427373,1746537147,211060880,mA1/gps,0,1,63.43461186704172,10.392857590734566,0.0,1.4400000000000002e-10,0.0,0.0,0.0,1.4400000000000002e-10,0.0,0.0,0.0,1.0,2
2025/05/06 15:12:27.272098229,1746537147,270322333,mA1/gps,0,1,63.43461186689186,10.39285759398642,0.0,1.4400000000000002e-10,0.0,0.0,0.0,1.4400000000000002e-10,0.0,0.0,0.0,1.0,2
2025/05/06 15:12:27.310631953,1746537147,307365483,mA1/gps,0,1,63.43461186759388,10.392857597314965,0.0,1.4400000000000002e-10,0.0,0.0,0.0,1.4400000000000002e-10,0.0,0.0,0.0,1.0,2
2025/05/06 15:12:27.367523229,1746537147,366200511,mA1/gps,0,1,63.434611868539704,10.392857599116278,0.0,1.4400000000000002e-10,0.0,0.0,0.0,1.4400000000000002e-10,0.0,0.0,0.0,1.0,2
2025/05/06 15:12:27.405632806,1746537147,404171261,mA1/gps,0,1,63.4346118673322,10.392857603003486,0.0,1.4400000000000002e-10,0.0,0.0,0.0,1.4400000000000002e-10,0.0,0.0,0.0,1.0,2
2025/05/06 15:12:27.461263674,1746537147,459588349,mA1/gps,0,1,63.43461186786027,10.392857604064172,0.0,1.4400000000000002e-10,0.0,0.0,0.0,1.4400000000000002e-10,0.0,0.0,0.0,1.0,2
2025/05/06 15:12:27.513070825,1746537147,512171108,mA1/gps,0,1,63.43461186982227,10.3928576028067,0.0,1.4400000000000002e-10,0.0,0.0,0.0,1.4400000000000002e-10,0.0,0.0,0.0,1.0,2
2025/05/06 15:12:27.558656230,1746537147,557270278,mA1/gps,0,1,63.434611868715116,10.39285760372676,0.0,1.4400000000000002e-10,0.0,0.0,0.0,1.4400000000000002e-10,0.0,0.0,0.0,1.0,2
2025/05/06 15:12:27.610872413,1746537147,610483590,mA1/gps,0,1,63.434611868126446,10.3928576026323,0.0,1.4400000000000002e-10,0.0,0.0,0.0,1.4400000000000002e-10,0.0,0.0,0.0,1.0,2
2025/05/06 15:12:27.655901497,1746537147,655437998,mA1/gps,0,1,63.43461186875776,10.392857600226693,0.0,1.4400000000000002e-10,0.0,0.0,0.0,1.4400000000000002e-10,0.0,0.0,0.0,1.0,2
2025/05/06 15:12:27.710288411,1746537147,708581856,mA1/gps,0,1,63.434611868956196,10.392857597441685,0.0,1.4400000000000002e-10,0.0,0.0,0.0,1.4400000000000002e-10,0.0,0.0,0.0,1.0,2
2025/05/06 15:12:27.756461999,1746537147,756217418,mA1/gps,0,1,63.434611867727554,10.39285759436228,0.0,1.4400000000000002e-10,0.0,0.0,0.0,1.4400000000000002e-10,0.0,0.0,0.0,1.0,2
2025/05/06 15:12:27.814509667,1746537147,810092300,mA1/gps,0,1,63.434611866517265,10.392857589959839,0.0,1.4400000000000002e-10,0.0,0.0,0.0,1.4400000000000002e-10,0.0,0.0,0.0,1.0,2
2025/05/06 15:12:27.868811459,1746537147,861425056,mA1/gps,0,1,63.434611866332105,10.392857584683183,0.0,1.4400000000000002e-10,0.0,0.0,0.0,1.4400000000000002e-10,0.0,0.0,0.0,1.0,2
2025/05/06 15:12:27.912038360,1746537147,911146930,mA1/gps,0,1,63.434611865595784,10.392857578290714,0.0,1.4400000000000002e-10,0.0,0.0,0.0,1.4400000000000002e-10,0.0,0.0,0.0,1.0,2
2025/05/06 15:12:27.964172127,1746537147,964038137,mA1/gps,0,1,63.43461186344268,10.392857573242326,0.0,1.4400000000000002e-10,0.0,0.0,0.0,1.4400000000000002e-10,0.0,0.0,0.0,1.0,2
2025/05/06 15:12:28.6808024,1746537148,4694877,mA1/gps,0,1,63.434611861269325,10.392857568072998,0.0,1.4400000000000002e-10,0.0,0.0,0.0,1.4400000000000002e-10,0.0,0.0,0.0,1.0,2
2025/05/06 15:12:28.60407472,1746537148,58146253,mA1/gps,0,1,63.43461186004021,10.392857561729402,0.0,1.4400000000000002e-10,0.0,0.0,0.0,1.4400000000000002e-10,0.0,0.0,0.0,1.0,2
2025/05/06 15:12:28.111437698,1746537148,107985105,mA1/gps,0,1,63.43461185869876,10.392857555663241,0.0,1.4400000000000002e-10,0.0,0.0,0.0,1.4400000000000002e-10,0.0,0.0,0.0,1.0,2
2025/05/06 15:12:28.163332720,1746537148,161212433,mA1/gps,0,1,63.4346118562715,10.392857551386196,0.0,1.4400000000000002e-10,0.0,0.0,0.0,1.4400000000000002e-10,0.0,0.0,0.0,1.0,2
2025/05/06 15:12:28.209075784,1746537148,207416283,mA1/gps,0,1,63.43461185380719,10.39285754659824,0.0,1.4400000000000002e-10,0.0,0.0,0.0,1.4400000000000002e-10,0.0,0.0,0.0,1.0,2
2025/05/06 15:12:28.263322830,1746537148,261362567,mA1/gps,0,1,63.43461185247127,10.39285754281313,0.0,1.4400000000000002e-10,0.0,0.0,0.0,1.4400000000000002e-10,0.0,0.0,0.0,1.0,2
2025/05/06 15:12:28.307183107,1746537148,305203965,mA1/gps,0,1,63.43461185130455,10.392857539201557,0.0,1.4400000000000002e-10,0.0,0.0,0.0,1.4400000000000002e-10,0.0,0.0,0.0,1.0,2
2025/05/06 15:12:28.358136429,1746537148,357373055,mA1/gps,0,1,63.43461184918779,10.392857536922763,0.0,1.4400000000000002e-10,0.0,0.0,0.0,1.4400000000000002e-10,0.0,0.0,0.0,1.0,2
2025/05/06 15:12:28.409424930,1746537148,408774794,mA1/gps,0,1,63.43461184732221,10.392857534204275,0.0,1.4400000000000002e-10,0.0,0.0,0.0,1.4400000000000002e-10,0.0,0.0,0.0,1.0,2
2025/05/06 15:12:28.460762854,1746537148,460445971,mA1/gps,0,1,63.43461184663326,10.392857532526827,0.0,1.4400000000000002e-10,0.0,0.0,0.0,1.4400000000000002e-10,0.0,0.0,0.0,1.0,2
2025/05/06 15:12:28.511614056,1746537148,510186314,mA1/gps,0,1,63.43461184590769,10.39285753053469,0.0,1.4400000000000002e-10,0.0,0.0,0.0,1.4400000000000002e-10,0.0,0.0,0.0,1.0,2
2025/05/06 15:12:28.567207144,1746537148,564170925,mA1/gps,0,1,63.43461184471054,10.392857529367319,0.0,1.4400000000000002e-10,0.0,0.0,0.0,1.4400000000000002e-10,0.0,0.0,0.0,1.0,2
2025/05/06 15:12:28.604606621,1746537148,604160017,mA1/gps,0,1,63.43461184369354,10.39285752803669,0.0,1.4400000000000002e-10,0.0,0.0,0.0,1.4400000000000002e-10,0.0,0.0,0.0,1.0,2
2025/05/06 15:12:28.656473466,1746537148,655139664,mA1/gps,0,1,63.4346118436705,10.392857525385974,0.0,1.4400000000000002e-10,0.0,0.0,0.0,1.4400000000000002e-10,0.0,0.0,0.0,1.0,2
2025/05/06 15:12:28.706882202,1746537148,705270224,mA1/gps,0,1,63.434611844187636,10.392857522419696,0.0,1.4400000000000002e-10,0.0,0.0,0.0,1.4400000000000002e-10,0.0,0.0,0.0,1.0,2
2025/05/06 15:12:28.757922051,1746537148,756290038,mA1/gps,0,1,63.43461184317333,10.392857518940994,0.0,1.4400000000000002e-10,0.0,0.0,0.0,1.4400000000000002e-10,0.0,0.0,0.0,1.0,2
2025/05/06 15:12:28.806694204,1746537148,806044208,mA1/gps,0,1,63.43461184283822,10.39285751519224,0.0,1.4400000000000002e-10,0.0,0.0,0.0,1.4400000000000002e-10,0.0,0.0,0.0,1.0,2
2025/05/06 15:12:28.857900578,1746537148,857690704,mA1/gps,0,1,63.43461184354254,10.392857510686307,0.0,1.4400000000000002e-10,0.0,0.0,0.0,1.4400000000000002e-10,0.0,0.0,0.0,1.0,2
2025/05/06 15:12:28.909953182,1746537148,908261853,mA1/gps,0,1,63.43461184393686,10.392857504640803,0.0,1.4400000000000002e-10,0.0,0.0,0.0,1.4400000000000002e-10,0.0,0.0,0.0,1.0,2
2025/05/06 15:12:28.961779685,1746537148,960291323,mA1/gps,0,1,63.434611843422786,10.392857498996518,0.0,1.4400000000000002e-10,0.0,0.0,0.0,1.4400000000000002e-10,0.0,0.0,0.0,1.0,2
2025/05/06 15:12:29.9446685,1746537149,9121820,mA1/gps,0,1,63.43461184311255,10.392857492856669,0.0,1.4400000000000002e-10,0.0,0.0,0.0,1.4400000000000002e-10,0.0,0.0,0.0,1.0,2
2025/05/06 15:12:29.61904398,1746537149,60788365,mA1/gps,0,1,63.43461184346353,10.392857485752442,0.0,1.4400000000000002e-10,0.0,0.0,0.0,1.4400000000000002e-10,0.0,0.0,0.0,1.0,2
2025/05/06 15:12:29.113150804,1746537149,112968573,mA1/gps,0,1,63.434611843715295,10.392857478465192,0.0,1.4400000000000002e-10,0.0,0.0,0.0,1.4400000000000002e-10,0.0,0.0,0.0,1.0,2
2025/05/06 15:12:29.164305874,1746537149,164017070,mA1/gps,0,1,63.434611842902626,10.392857471936066,0.0,1.4400000000000002e-10,0.0,0.0,0.0,1.4400000000000002e-10,0.0,0.0,0.0,1.0,2
2025/05/06 15:12:29.214530093,1746537149,213076851,mA1/gps,0,1,63.43461184196285,10.392857466163658,0.0,1.4400000000000002e-10,0.0,0.0,0.0,1.4400000000000002e-10,0.0,0.0,0.0,1.0,2
2025/05/06 15:12:29.257482074,1746537149,256890061,mA1/gps,0,1,63.434611842050415,10.392857459592559,0.0,1.4400000000000002e-10,0.0,0.0,0.0,1.4400000000000002e-10,0.0,0.0,0.0,1.0,2
2025/05/06 15:12:29.307876333,1746537149,305983760,mA1/gps,0,1,63.43461184184212,10.392857454961854,0.0,1.4400000000000002e-10,0.0,0.0,0.0,1.4400000000000002e-10,0.0,0.0,0.0,1.0,2
2025/05/06 15:12:29.358186726,1746537149,357430356,mA1/gps,0,1,63.43461184061462,10.392857450686039,0.0,1.4400000000000002e-10,0.0,0.0,0.0,1.4400000000000002e-10,0.0,0.0,0.0,1.0,2
2025/05/06 15:12:29.407593645,1746537149,407058606,mA1/gps,0,1,63.434611839384665,10.39285744765816,0.0,1.4400000000000002e-10,0.0,0.0,0.0,1.4400000000000002e-10,0.0,0.0,0.0,1.0,2
2025/05/06 15:12:29.461753490,1746537149,459368675,mA1/gps,0,1,63.43461183916494,10.392857445877311,0.0,1.4400000000000002e-10,0.0,0.0,0.0,1.4400000000000002e-10,0.0,0.0,0.0,1.0,2
2025/05/06 15:12:29.512967957,1746537149,511476808,mA1/gps,0,1,63.434611838426775,10.392857446249606,0.0,1.4400000000000002e-10,0.0,0.0,0.0,1.4400000000000002e-10,0.0,0.0,0.0,1.0,2
2025/05/06 15:12:29.565540638,1746537149,562527363,mA1/gps,0,1,63.43461183705953,10.392857446802989,0.0,1.4400000000000002e-10,0.0,0.0,0.0,1.4400000000000002e-10,0.0,0.0,0.0,1.0,2
2025/05/06 15:12:29.612957311,1746537149,612580457,mA1/gps,0,1,63.43461183573259,10.392857449966135,0.0,1.4400000000000002e-10,0.0,0.0,0.0,1.4400000000000002e-10,0.0,0.0,0.0,1.0,2
2025/05/06 15:12:29.656620948,1746537149,655526662,mA1/gps,0,1,63.43461183534595,10.392857451502262,0.0,1.4400000000000002e-10,0.0,0.0,0.0,1.4400000000000002e-10,0.0,0.0,0.0,1.0,2
2025/05/06 15:12:29.708719617,1746537149,707003387,mA1/gps,0,1,63.434611834603196,10.392857452224117,0.0,1.4400000000000002e-10,0.0,0.0,0.0,1.4400000000000002e-10,0.0,0.0,0.0,1.0,2
2025/05/06 15:12:29.759219100,1746537149,757851012,mA1/gps,0,1,63.434611832727526,10.39285745095362,0.0,1.4400000000000002e-10,0.0,0.0,0.0,1.4400000000000002e-10,0.0,0.0,0.0,1.0,2
2025/05/06 15:12:29.809141628,1746537149,807702735,mA1/gps,0,1,63.43461183094671,10.392857448537846,0.0,1.4400000000000002e-10,0.0,0.0,0.0,1.4400000000000002e-10,0.0,0.0,0.0,1.0,2
2025/05/06 15:12:29.857251660,1746537149,856020446,mA1/gps,0,1,63.43461182980999,10.392857442601423,0.0,1.4400000000000002e-10,0.0,0.0,0.0,1.4400000000000002e-10,0.0,0.0,0.0,1.0,2
2025/05/06 15:12:29.905487572,1746537149,905164332,mA1/gps,0,1,63.4346118286144,10.392857435084704,0.0,1.4400000000000002e-10,0.0,0.0,0.0,1.4400000000000002e-10,0.0,0.0,0.0,1.0,2
2025/05/06 15:12:29.958755103,1746537149,957951058,mA1/gps,0,1,63.43461182666963,10.392857423995526,0.0,1.4400000000000002e-10,0.0,0.0,0.0,1.4400000000000002e-10,0.0,0.0,0.0,1.0,2
2025/05/06 15:12:30.6861496,1746537150,6207045,mA1/gps,0,1,63.434611824213555,10.392857410348924,0.0,1.4400000000000002e-10,0.0,0.0,0.0,1.4400000000000002e-10,0.0,0.0,0.0,1.0,2
2025/05/06 15:12:30.59236822,1746537150,57621931,mA1/gps,0,1,63.434611823485994,10.392857393679797,0.0,1.4400000000000002e-10,0.0,0.0,0.0,1.4400000000000002e-10,0.0,0.0,0.0,1.0,2
2025/05/06 15:12:30.109704965,1746537150,109084226,mA1/gps,0,1,63.43461182190554,10.392857375340345,0.0,1.4400000000000002e-10,0.0,0.0,0.0,1.4400000000000002e-10,0.0,0.0,0.0,1.0,2
2025/05/06 15:12:30.162770244,1746537150,160491880,mA1/gps,0,1,63.4346118198736,10.392857354613545,0.0,1.4400000000000002e-10,0.0,0.0,0.0,1.4400000000000002e-10,0.0,0.0,0.0,1.0,2
2025/05/06 15:12:30.213502124,1746537150,210569154,mA1/gps,0,1,63.43461181937047,10.392857332095845,0.0,1.4400000000000002e-10,0.0,0.0,0.0,1.4400000000000002e-10,0.0,0.0,0.0,1.0,2
2025/05/06 15:12:30.262750757,1746537150,261655258,mA1/gps,0,1,63.4346118189182,10.392857308353276,0.0,1.4400000000000002e-10,0.0,0.0,0.0,1.4400000000000002e-10,0.0,0.0,0.0,1.0,2
2025/05/06 15:12:30.313059301,1746537150,311353649,mA1/gps,0,1,63.43461181733093,10.392857285020591,0.0,1.4400000000000002e-10,0.0,0.0,0.0,1.4400000000000002e-10,0.0,0.0,0.0,1.0,2
2025/05/06 15:12:30.366335421,1746537150,362180647,mA1/gps,0,1,63.4346118171399,10.392857261121407,0.0,1.4400000000000002e-10,0.0,0.0,0.0,1.4400000000000002e-10,0.0,0.0,0.0,1.0,2
2025/05/06 15:12:30.415300836,1746537150,413017372,mA1/gps,0,1,63.4346118173207,10.392857238209354,0.0,1.4400000000000002e-10,0.0,0.0,0.0,1.4400000000000002e-10,0.0,0.0,0.0,1.0,2
2025/05/06 15:12:30.456531408,1746537150,456058705,mA1/gps,0,1,63.434611819234696,10.392857214770167,0.0,1.4400000000000002e-10,0.0,0.0,0.0,1.4400000000000002e-10,0.0,0.0,0.0,1.0,2
2025/05/06 15:12:30.508196740,1746537150,505976429,mA1/gps,0,1,63.43461181946826,10.392857193890373,0.0,1.4400000000000002e-10,0.0,0.0,0.0,1.4400000000000002e-10,0.0,0.0,0.0,1.0,2
2025/05/06 15:12:30.560967144,1746537150,559168610,mA1/gps,0,1,63.434611821722605,10.392857174068016,0.0,1.4400000000000002e-10,0.0,0.0,0.0,1.4400000000000002e-10,0.0,0.0,0.0,1.0,2
2025/05/06 15:12:30.609314653,1746537150,609001057,mA1/gps,0,1,63.43461182243688,10.39285715491144,0.0,1.4400000000000002e-10,0.0,0.0,0.0,1.4400000000000002e-10,0.0,0.0,0.0,1.0,2
2025/05/06 15:12:30.660693643,1746537150,660442089,mA1/gps,0,1,63.43461182463104,10.392857137867809,0.0,1.4400000000000002e-10,0.0,0.0,0.0,1.4400000000000002e-10,0.0,0.0,0.0,1.0,2
2025/05/06 15:12:30.712042876,1746537150,711114258,mA1/gps,0,1,63.43461182829979,10.392857120643827,0.0,1.4400000000000002e-10,0.0,0.0,0.0,1.4400000000000002e-10,0.0,0.0,0.0,1.0,2
2025/05/06 15:12:30.763207182,1746537150,762191589,mA1/gps,0,1,63.43461183159583,10.392857105390386,0.0,1.4400000000000002e-10,0.0,0.0,0.0,1.4400000000000002e-10,0.0,0.0,0.0,1.0,2
2025/05/06 15:12:30.806734702,1746537150,805289745,mA1/gps,0,1,63.43461183412972,10.392857091171594,0.0,1.4400000000000002e-10,0.0,0.0,0.0,1.4400000000000002e-10,0.0,0.0,0.0,1.0,2
2025/05/06 15:12:30.856358092,1746537150,855809043,mA1/gps,0,1,63.43461183727786,10.392857078136863,0.0,1.4400000000000002e-10,0.0,0.0,0.0,1.4400000000000002e-10,0.0,0.0,0.0,1.0,2
2025/05/06 15:12:30.907224196,1746537150,905936161,mA1/gps,0,1,63.43461184152699,10.392857064643595,0.0,1.4400000000000002e-10,0.0,0.0,0.0,1.4400000000000002e-10,0.0,0.0,0.0,1.0,2
2025/05/06 15:12:30.961615212,1746537150,959878970,mA1/gps,0,1,63.434611846010306,10.392857051154184,0.0,1.4400000000000002e-10,0.0,0.0,0.0,1.4400000000000002e-10,0.0,0.0,0.0,1.0,2
2025/05/06 15:12:31.12346103,1746537151,10720245,mA1/gps,0,1,63.43461184962496,10.392857037166332,0.0,1.4400000000000002e-10,0.0,0.0,0.0,1.4400000000000002e-10,0.0,0.0,0.0,1.0,2
2025/05/06 15:12:31.65419717,1746537151,61741598,mA1/gps,0,1,63.43461185468246,10.392857021309732,0.0,1.4400000000000002e-10,0.0,0.0,0.0,1.4400000000000002e-10,0.0,0.0,0.0,1.0,2
2025/05/06 15:12:31.113188518,1746537151,112869259,mA1/gps,0,1,63.43461185882788,10.392857003506142,0.0,1.4400000000000002e-10,0.0,0.0,0.0,1.4400000000000002e-10,0.0,0.0,0.0,1.0,2
2025/05/06 15:12:31.168150414,1746537151,164482694,mA1/gps,0,1,63.43461186308002,10.392856984008793,0.0,1.4400000000000002e-10,0.0,0.0,0.0,1.4400000000000002e-10,0.0,0.0,0.0,1.0,2
2025/05/06 15:12:31.206048059,1746537151,204234071,mA1/gps,0,1,63.434611867320065,10.392856962247821,0.0,1.4400000000000002e-10,0.0,0.0,0.0,1.4400000000000002e-10,0.0,0.0,0.0,1.0,2
2025/05/06 15:12:31.257082743,1746537151,255795373,mA1/gps,0,1,63.43461187273856,10.392856937146249,0.0,1.4400000000000002e-10,0.0,0.0,0.0,1.4400000000000002e-10,0.0,0.0,0.0,1.0,2
2025/05/06 15:12:31.308054094,1746537151,305603326,mA1/gps,0,1,63.43461187777656,10.392856909308549,0.0,1.4400000000000002e-10,0.0,0.0,0.0,1.4400000000000002e-10,0.0,0.0,0.0,1.0,2
2025/05/06 15:12:31.358894817,1746537151,357277979,mA1/gps,0,1,63.43461188229567,10.392856879442245,0.0,1.4400000000000002e-10,0.0,0.0,0.0,1.4400000000000002e-10,0.0,0.0,0.0,1.0,2
2025/05/06 15:12:31.408253462,1746537151,407802155,mA1/gps,0,1,63.43461188732093,10.392856847477939,0.0,1.4400000000000002e-10,0.0,0.0,0.0,1.4400000000000002e-10,0.0,0.0,0.0,1.0,2
2025/05/06 15:12:31.460402493,1746537151,457900709,mA1/gps,0,1,63.43461189325275,10.39285681371677,0.0,1.4400000000000002e-10,0.0,0.0,0.0,1.4400000000000002e-10,0.0,0.0,0.0,1.0,2
2025/05/06 15:12:31.509060191,1746537151,508066419,mA1/gps,0,1,63.43461189837349,10.392856778356137,0.0,1.4400000000000002e-10,0.0,0.0,0.0,1.4400000000000002e-10,0.0,0.0,0.0,1.0,2
2025/05/06 15:12:31.561840456,1746537151,560193579,mA1/gps,0,1,63.434611903405745,10.392856741681792,0.0,1.4400000000000002e-10,0.0,0.0,0.0,1.4400000000000002e-10,0.0,0.0,0.0,1.0,2
2025/05/06 15:12:31.611836212,1746537151,610130033,mA1/gps,0,1,63.434611909508966,10.39285670324898,0.0,1.4400000000000002e-10,0.0,0.0,0.0,1.4400000000000002e-10,0.0,0.0,0.0,1.0,2
2025/05/06 15:12:31.662802525,1746537151,661209098,mA1/gps,0,1,63.43461191631518,10.392856663634525,0.0,1.4400000000000002e-10,0.0,0.0,0.0,1.4400000000000002e-10,0.0,0.0,0.0,1.0,2
2025/05/06 15:12:31.713179870,1746537151,712776225,mA1/gps,0,1,63.434611924868236,10.392856622911903,0.0,1.4400000000000002e-10,0.0,0.0,0.0,1.4400000000000002e-10,0.0,0.0,0.0,1.0,2
2025/05/06 15:12:31.755448698,1746537151,754251377,mA1/gps,0,1,63.43461193139124,10.392856584804319,0.0,1.4400000000000002e-10,0.0,0.0,0.0,1.4400000000000002e-10,0.0,0.0,0.0,1.0,2
2025/05/06 15:12:31.805201547,1746537151,804817211,mA1/gps,0,1,63.43461193906905,10.392856547241074,0.0,1.4400000000000002e-10,0.0,0.0,0.0,1.4400000000000002e-10,0.0,0.0,0.0,1.0,2
2025/05/06 15:12:31.858281005,1746537151,856475050,mA1/gps,0,1,63.4346119481188,10.392856510737351,0.0,1.4400000000000002e-10,0.0,0.0,0.0,1.4400000000000002e-10,0.0,0.0,0.0,1.0,2
2025/05/06 15:12:31.907105359,1746537151,906342925,mA1/gps,0,1,63.43461195693076,10.39285647691088,0.0,1.4400000000000002e-10,0.0,0.0,0.0,1.4400000000000002e-10,0.0,0.0,0.0,1.0,2
2025/05/06 15:12:31.958353378,1746537151,957879240,mA1/gps,0,1,63.43461196700321,10.392856444971835,0.0,1.4400000000000002e-10,0.0,0.0,0.0,1.4400000000000002e-10,0.0,0.0,0.0,1.0,2
2025/05/06 15:12:32.8020070,1746537152,7757015,mA1/gps,0,1,63.43461197773811,10.392856415938345,0.0,1.4400000000000002e-10,0.0,0.0,0.0,1.4400000000000002e-10,0.0,0.0,0.0,1.0,2
2025/05/06 15:12:32.61320374,1746537152,60073546,mA1/gps,0,1,63.434611988406154,10.39285638929267,0.0,1.4400000000000002e-10,0.0,0.0,0.0,1.4400000000000002e-10,0.0,0.0,0.0,1.0,2
2025/05/06 15:12:32.114095327,1746537152,112824076,mA1/gps,0,1,63.434612000062316,10.392856364750898,0.0,1.4400000000000002e-10,0.0,0.0,0.0,1.4400000000000002e-10,0.0,0.0,0.0,1.0,2
2025/05/06 15:12:32.166990344,1746537152,164325591,mA1/gps,0,1,63.43461201199304,10.392856342409367,0.0,1.4400000000000002e-10,0.0,0.0,0.0,1.4400000000000002e-10,0.0,0.0,0.0,1.0,2
2025/05/06 15:12:32.205627924,1746537152,205054080,mA1/gps,0,1,63.434612023817394,10.392856321645592,0.0,1.4400000000000002e-10,0.0,0.0,0.0,1.4400000000000002e-10,0.0,0.0,0.0,1.0,2
2025/05/06 15:12:32.257870153,1746537152,257323563,mA1/gps,0,1,63.434612036408474,10.392856303041242,0.0,1.4400000000000002e-10,0.0,0.0,0.0,1.4400000000000002e-10,0.0,0.0,0.0,1.0,2
2025/05/06 15:12:32.310014639,1746537152,307581547,mA1/gps,0,1,63.43461204983085,10.392856283867047,0.0,1.4400000000000002e-10,0.0,0.0,0.0,1.4400000000000002e-10,0.0,0.0,0.0,1.0,2
2025/05/06 15:12:32.358629091,1746537152,358156792,mA1/gps,0,1,63.43461206320559,10.392856264984166,0.0,1.4400000000000002e-10,0.0,0.0,0.0,1.4400000000000002e-10,0.0,0.0,0.0,1.0,2
2025/05/06 15:12:32.413179539,1746537152,412138872,mA1/gps,0,1,63.434612076847046,10.392856244740337,0.0,1.4400000000000002e-10,0.0,0.0,0.0,1.4400000000000002e-10,0.0,0.0,0.0,1.0,2
2025/05/06 15:12:32.466147798,1746537152,463123991,mA1/gps,0,1,63.43461208889325,10.392856224894487,0.0,1.4400000000000002e-10,0.0,0.0,0.0,1.4400000000000002e-10,0.0,0.0,0.0,1.0,2
2025/05/06 15:12:32.513401172,1746537152,513078915,mA1/gps,0,1,63.434612101993864,10.392856202888945,0.0,1.4400000000000002e-10,0.0,0.0,0.0,1.4400000000000002e-10,0.0,0.0,0.0,1.0,2
2025/05/06 15:12:32.555245392,1746537152,554424105,mA1/gps,0,1,63.43461211543378,10.39285618102329,0.0,1.4400000000000002e-10,0.0,0.0,0.0,1.4400000000000002e-10,0.0,0.0,0.0,1.0,2
2025/05/06 15:12:32.605820940,1746537152,604922421,mA1/gps,0,1,63.43461212962462,10.392856155785582,0.0,1.4400000000000002e-10,0.0,0.0,0.0,1.4400000000000002e-10,0.0,0.0,0.0,1.0,2
2025/05/06 15:12:32.659206569,1746537152,657301953,mA1/gps,0,1,63.43461214264718,10.392856130269504,0.0,1.4400000000000002e-10,0.0,0.0,0.0,1.4400000000000002e-10,0.0,0.0,0.0,1.0,2
2025/05/06 15:12:32.707850947,1746537152,707158735,mA1/gps,0,1,63.43461215633561,10.392856104372502,0.0,1.4400000000000002e-10,0.0,0.0,0.0,1.4400000000000002e-10,0.0,0.0,0.0,1.0,2
2025/05/06 15:12:32.758617869,1746537152,758003103,mA1/gps,0,1,63.43461217072072,10.392856077197838,0.0,1.4400000000000002e-10,0.0,0.0,0.0,1.4400000000000002e-10,0.0,0.0,0.0,1.0,2
2025/05/06 15:12:32.809026050,1746537152,808540685,mA1/gps,0,1,63.434612184474474,10.392856049927262,0.0,1.4400000000000002e-10,0.0,0.0,0.0,1.4400000000000002e-10,0.0,0.0,0.0,1.0,2
2025/05/06 15:12:32.859954859,1746537152,859342600,mA1/gps,0,1,63.43461219940446,10.392856021540556,0.0,1.4400000000000002e-10,0.0,0.0,0.0,1.4400000000000002e-10,0.0,0.0,0.0,1.0,2
2025/05/06 15:12:32.909657117,1746537152,909229735,mA1/gps,0,1,63.43461221359622,10.392855994641089,0.0,1.4400000000000002e-10,0.0,0.0,0.0,1.4400000000000002e-10,0.0,0.0,0.0,1.0,2
2025/05/06 15:12:32.962363341,1746537152,961871349,mA1/gps,0,1,63.43461222858278,10.392855967494649,0.0,1.4400000000000002e-10,0.0,0.0,0.0,1.4400000000000002e-10,0.0,0.0,0.0,1.0,2
2025/05/06 15:12:33.11359377,1746537153,10758441,mA1/gps,0,1,63.43461224324066,10.39285594161676,0.0,1.4400000000000002e-10,0.0,0.0,0.0,1.4400000000000002e-10,0.0,0.0,0.0,1.0,2
2025/05/06 15:12:33.62270739,1746537153,61710621,mA1/gps,0,1,63.43461225880797,10.392855917101372,0.0,1.4400000000000002e-10,0.0,0.0,0.0,1.4400000000000002e-10,0.0,0.0,0.0,1.0,2
2025/05/06 15:12:33.112282130,1746537153,111577458,mA1/gps,0,1,63.434612276243605,10.392855892609793,0.0,1.4400000000000002e-10,0.0,0.0,0.0,1.4400000000000002e-10,0.0,0.0,0.0,1.0,2
2025/05/06 15:12:33.164849196,1746537153,162989572,mA1/gps,0,1,63.434612293286776,10.392855870668546,0.0,1.4400000000000002e-10,0.0,0.0,0.0,1.4400000000000002e-10,0.0,0.0,0.0,1.0,2
2025/05/06 15:12:33.214549303,1746537153,213360797,mA1/gps,0,1,63.43461230982279,10.392855850700524,0.0,1.4400000000000002e-10,0.0,0.0,0.0,1.4400000000000002e-10,0.0,0.0,0.0,1.0,2
2025/05/06 15:12:33.256311822,1746537153,254503921,mA1/gps,0,1,63.43461232873229,10.392855831778526,0.0,1.4400000000000002e-10,0.0,0.0,0.0,1.4400000000000002e-10,0.0,0.0,0.0,1.0,2
2025/05/06 15:12:33.309531870,1746537153,306345077,mA1/gps,0,1,63.43461234840175,10.392855814294995,0.0,1.4400000000000002e-10,0.0,0.0,0.0,1.4400000000000002e-10,0.0,0.0,0.0,1.0,2
2025/05/06 15:12:33.359633309,1746537153,358552580,mA1/gps,0,1,63.43461236791781,10.392855798592981,0.0,1.4400000000000002e-10,0.0,0.0,0.0,1.4400000000000002e-10,0.0,0.0,0.0,1.0,2
2025/05/06 15:12:33.411489636,1746537153,409703977,mA1/gps,0,1,63.434612388085704,10.39285578356919,0.0,1.4400000000000002e-10,0.0,0.0,0.0,1.4400000000000002e-10,0.0,0.0,0.0,1.0,2
2025/05/06 15:12:33.461508845,1746537153,460648544,mA1/gps,0,1,63.43461240838101,10.39285576912445,0.0,1.4400000000000002e-10,0.0,0.0,0.0,1.4400000000000002e-10,0.0,0.0,0.0,1.0,2
2025/05/06 15:12:33.513976970,1746537153,512162620,mA1/gps,0,1,63.434612430199316,10.392855755064543,0.0,1.4400000000000002e-10,0.0,0.0,0.0,1.4400000000000002e-10,0.0,0.0,0.0,1.0,2
2025/05/06 15:12:33.567033807,1746537153,563147964,mA1/gps,0,1,63.4346124527329,10.392855741726896,0.0,1.4400000000000002e-10,0.0,0.0,0.0,1.4400000000000002e-10,0.0,0.0,0.0,1.0,2
2025/05/06 15:12:33.617837282,1746537153,614218941,mA1/gps,0,1,63.434612473890006,10.392855728149314,0.0,1.4400000000000002e-10,0.0,0.0,0.0,1.4400000000000002e-10,0.0,0.0,0.0,1.0,2
2025/05/06 15:12:33.665666213,1746537153,665008263,mA1/gps,0,1,63.43461249746918,10.392855712964352,0.0,1.4400000000000002e-10,0.0,0.0,0.0,1.4400000000000002e-10,0.0,0.0,0.0,1.0,2
2025/05/06 15:12:33.707630300,1746537153,705736352,mA1/gps,0,1,63.4346125199176,10.392855697792326,0.0,1.4400000000000002e-10,0.0,0.0,0.0,1.4400000000000002e-10,0.0,0.0,0.0,1.0,2
2025/05/06 15:12:33.759232065,1746537153,757403185,mA1/gps,0,1,63.43461254299084,10.392855681191476,0.0,1.4400000000000002e-10,0.0,0.0,0.0,1.4400000000000002e-10,0.0,0.0,0.0,1.0,2
2025/05/06 15:12:33.807631424,1746537153,807009616,mA1/gps,0,1,63.434612565821965,10.392855663121972,0.0,1.4400000000000002e-10,0.0,0.0,0.0,1.4400000000000002e-10,0.0,0.0,0.0,1.0,2
2025/05/06 15:12:33.859289537,1746537153,857918439,mA1/gps,0,1,63.43461258858753,10.392855644261857,0.0,1.4400000000000002e-10,0.0,0.0,0.0,1.4400000000000002e-10,0.0,0.0,0.0,1.0,2
2025/05/06 15:12:33.908973185,1746537153,907773912,mA1/gps,0,1,63.43461261309871,10.392855622781692,0.0,1.4400000000000002e-10,0.0,0.0,0.0,1.4400000000000002e-10,0.0,0.0,0.0,1.0,2
2025/05/06 15:12:33.959847282,1746537153,959105483,mA1/gps,0,1,63.434612636880544,10.392855600348597,0.0,1.4400000000000002e-10,0.0,0.0,0.0,1.4400000000000002e-10,0.0,0.0,0.0,1.0,2
2025/05/06 15:12:34.10003322,1746537154,9348051,mA1/gps,0,1,63.434612660722784,10.392855576483308,0.0,1.4400000000000002e-10,0.0,0.0,0.0,1.4400000000000002e-10,0.0,0.0,0.0,1.0,2
2025/05/06 15:12:34.62960698,1746537154,62254457,mA1/gps,0,1,63.43461268526817,10.392855552584694,0.0,1.4400000000000002e-10,0.0,0.0,0.0,1.4400000000000002e-10,0.0,0.0,0.0,1.0,2
2025/05/06 15:12:34.114275061,1746537154,112735761,mA1/gps,0,1,63.43461270935231,10.392855527757478,0.0,1.4400000000000002e-10,0.0,0.0,0.0,1.4400000000000002e-10,0.0,0.0,0.0,1.0,2
2025/05/06 15:12:34.165386820,1746537154,163657661,mA1/gps,0,1,63.434612733617854,10.3928555019669,0.0,1.4400000000000002e-10,0.0,0.0,0.0,1.4400000000000002e-10,0.0,0.0,0.0,1.0,2
2025/05/06 15:12:34.213648077,1746537154,213317038,mA1/gps,0,1,63.4346127592124,10.392855476520594,0.0,1.4400000000000002e-10,0.0,0.0,0.0,1.4400000000000002e-10,0.0,0.0,0.0,1.0,2
2025/05/06 15:12:34.257931069,1746537154,255755897,mA1/gps,0,1,63.43461278414086,10.392855451711874,0.0,1.4400000000000002e-10,0.0,0.0,0.0,1.4400000000000002e-10,0.0,0.0,0.0,1.0,2
2025/05/06 15:12:34.309666696,1746537154,305724846,mA1/gps,0,1,63.434612810510046,10.392855426725648,0.0,1.4400000000000002e-10,0.0,0.0,0.0,1.4400000000000002e-10,0.0,0.0,0.0,1.0,2
2025/05/06 15:12:34.357548157,1746537154,356521082,mA1/gps,0,1,63.434612837120014,10.392855402575506,0.0,1.4400000000000002e-10,0.0,0.0,0.0,1.4400000000000002e-10,0.0,0.0,0.0,1.0,2
2025/05/06 15:12:34.408025736,1746537154,406366825,mA1/gps,0,1,63.43461286483117,10.392855379373891,0.0,1.4400000000000002e-10,0.0,0.0,0.0,1.4400000000000002e-10,0.0,0.0,0.0,1.0,2
2025/05/06 15:12:34.461343544,1746537154,458484834,mA1/gps,0,1,63.434612892409845,10.392855357878847,0.0,1.4400000000000002e-10,0.0,0.0,0.0,1.4400000000000002e-10,0.0,0.0,0.0,1.0,2
2025/05/06 15:12:34.511872544,1746537154,511416793,mA1/gps,0,1,63.43461291973258,10.392855337581224,0.0,1.4400000000000002e-10,0.0,0.0,0.0,1.4400000000000002e-10,0.0,0.0,0.0,1.0,2
2025/05/06 15:12:34.554600913,1746537154,554166850,mA1/gps,0,1,63.43461294913317,10.392855318269559,0.0,1.4400000000000002e-10,0.0,0.0,0.0,1.4400000000000002e-10,0.0,0.0,0.0,1.0,2
2025/05/06 15:12:34.606347110,1746537154,605606068,mA1/gps,0,1,63.434612978877865,10.39285529994482,0.0,1.4400000000000002e-10,0.0,0.0,0.0,1.4400000000000002e-10,0.0,0.0,0.0,1.0,2
2025/05/06 15:12:34.658069311,1746537154,657404694,mA1/gps,0,1,63.43461300856137,10.392855283767734,0.0,1.4400000000000002e-10,0.0,0.0,0.0,1.4400000000000002e-10,0.0,0.0,0.0,1.0,2
2025/05/06 15:12:34.708796155,1746537154,708488094,mA1/gps,0,1,63.434613039471266,10.392855266392981,0.0,1.4400000000000002e-10,0.0,0.0,0.0,1.4400000000000002e-10,0.0,0.0,0.0,1.0,2
2025/05/06 15:12:34.761044931,1746537154,759549246,mA1/gps,0,1,63.43461306989636,10.392855249802494,0.0,1.4400000000000002e-10,0.0,0.0,0.0,1.4400000000000002e-10,0.0,0.0,0.0,1.0,2
2025/05/06 15:12:34.810616348,1746537154,809598969,mA1/gps,0,1,63.43461310137815,10.392855234173211,0.0,1.4400000000000002e-10,0.0,0.0,0.0,1.4400000000000002e-10,0.0,0.0,0.0,1.0,2
2025/05/06 15:12:34.862268797,1746537154,861007823,mA1/gps,0,1,63.434613132016636,10.39285521806691,0.0,1.4400000000000002e-10,0.0,0.0,0.0,1.4400000000000002e-10,0.0,0.0,0.0,1.0,2
2025/05/06 15:12:34.911705377,1746537154,911386248,mA1/gps,0,1,63.43461316517784,10.392855199879094,0.0,1.4400000000000002e-10,0.0,0.0,0.0,1.4400000000000002e-10,0.0,0.0,0.0,1.0,2
2025/05/06 15:12:34.956774419,1746537154,955828401,mA1/gps,0,1,63.43461319624928,10.392855181851969,0.0,1.4400000000000002e-10,0.0,0.0,0.0,1.4400000000000002e-10,0.0,0.0,0.0,1.0,2
2025/05/06 15:12:35.7474155,1746537155,6734401,mA1/gps,0,1,63.434613227739696,10.392855163097428,0.0,1.4400000000000002e-10,0.0,0.0,0.0,1.4400000000000002e-10,0.0,0.0,0.0,1.0,2
2025/05/06 15:12:35.60310047,1746537155,59865956,mA1/gps,0,1,63.434613261163385,10.392855142397517,0.0,1.4400000000000002e-10,0.0,0.0,0.0,1.4400000000000002e-10,0.0,0.0,0.0,1.0,2
2025/05/06 15:12:35.110755583,1746537155,109221843,mA1/gps,0,1,63.434613294284595,10.392855121009513,0.0,1.4400000000000002e-10,0.0,0.0,0.0,1.4400000000000002e-10,0.0,0.0,0.0,1.0,2
2025/05/06 15:12:35.160949115,1746537155,160116671,mA1/gps,0,1,63.43461332354913,10.392855100769946,0.0,1.4400000000000002e-10,0.0,0.0,0.0,1.4400000000000002e-10,0.0,0.0,0.0,1.0,2
2025/05/06 15:12:35.213336412,1746537155,211463770,mA1/gps,0,1,63.43461335625259,10.392855079155645,0.0,1.4400000000000002e-10,0.0,0.0,0.0,1.4400000000000002e-10,0.0,0.0,0.0,1.0,2
2025/05/06 15:12:35.261758527,1746537155,261096217,mA1/gps,0,1,63.434613388321,10.39285505739269,0.0,1.4400000000000002e-10,0.0,0.0,0.0,1.4400000000000002e-10,0.0,0.0,0.0,1.0,2
2025/05/06 15:12:35.312727442,1746537155,311472327,mA1/gps,0,1,63.434613421490376,10.392855036125685,0.0,1.4400000000000002e-10,0.0,0.0,0.0,1.4400000000000002e-10,0.0,0.0,0.0,1.0,2
2025/05/06 15:12:35.358522381,1746537155,357722307,mA1/gps,0,1,63.4346134540707,10.392855015581542,0.0,1.4400000000000002e-10,0.0,0.0,0.0,1.4400000000000002e-10,0.0,0.0,0.0,1.0,2
2025/05/06 15:12:35.407464190,1746537155,406917915,mA1/gps,0,1,63.43461348663137,10.392854995942889,0.0,1.4400000000000002e-10,0.0,0.0,0.0,1.4400000000000002e-10,0.0,0.0,0.0,1.0,2
2025/05/06 15:12:35.460345183,1746537155,459078838,mA1/gps,0,1,63.434613518473824,10.3928549779176,0.0,1.4400000000000002e-10,0.0,0.0,0.0,1.4400000000000002e-10,0.0,0.0,0.0,1.0,2
2025/05/06 15:12:35.510477123,1746537155,509756776,mA1/gps,0,1,63.43461355096967,10.392854961678431,0.0,1.4400000000000002e-10,0.0,0.0,0.0,1.4400000000000002e-10,0.0,0.0,0.0,1.0,2
2025/05/06 15:12:35.562826236,1746537155,561023048,mA1/gps,0,1,63.43461358342458,10.392854946229013,0.0,1.4400000000000002e-10,0.0,0.0,0.0,1.4400000000000002e-10,0.0,0.0,0.0,1.0,2
2025/05/06 15:12:35.612336665,1746537155,610866724,mA1/gps,0,1,63.43461361699029,10.392854932273044,0.0,1.4400000000000002e-10,0.0,0.0,0.0,1.4400000000000002e-10,0.0,0.0,0.0,1.0,2
2025/05/06 15:12:35.662251181,1746537155,661986831,mA1/gps,0,1,63.43461364939421,10.392854920526801,0.0,1.4400000000000002e-10,0.0,0.0,0.0,1.4400000000000002e-10,0.0,0.0,0.0,1.0,2
2025/05/06 15:12:35.714304683,1746537155,713484696,mA1/gps,0,1,63.43461368349824,10.39285490976595,0.0,1.4400000000000002e-10,0.0,0.0,0.0,1.4400000000000002e-10,0.0,0.0,0.0,1.0,2
2025/05/06 15:12:35.756352862,1746537155,755023591,mA1/gps,0,1,63.434613715940316,10.392854901466443,0.0,1.4400000000000002e-10,0.0,0.0,0.0,1.4400000000000002e-10,0.0,0.0,0.0,1.0,2
2025/05/06 15:12:35.805549271,1746537155,804770189,mA1/gps,0,1,63.43461375057277,10.392854894124792,0.0,1.4400000000000002e-10,0.0,0.0,0.0,1.4400000000000002e-10,0.0,0.0,0.0,1.0,2
2025/05/06 15:12:35.856687396,1746537155,855668942,mA1/gps,0,1,63.43461378505005,10.392854889284992,0.0,1.4400000000000002e-10,0.0,0.0,0.0,1.4400000000000002e-10,0.0,0.0,0.0,1.0,2
2025/05/06 15:12:35.906755875,1746537155,906336141,mA1/gps,0,1,63.434613819089776,10.3928548849559,0.0,1.4400000000000002e-10,0.0,0.0,0.0,1.4400000000000002e-10,0.0,0.0,0.0,1.0,2
2025/05/06 15:12:35.958773026,1746537155,957141126,mA1/gps,0,1,63.434613853343286,10.3928548835785,0.0,1.4400000000000002e-10,0.0,0.0,0.0,1.4400000000000002e-10,0.0,0.0,0.0,1.0,2
2025/05/06 15:12:36.8378081,1746537156,7190541,mA1/gps,0,1,63.43461388796944,10.392854882801144,0.0,1.4400000000000002e-10,0.0,0.0,0.0,1.4400000000000002e-10,0.0,0.0,0.0,1.0,2
2025/05/06 15:12:36.59537660,1746537156,58735597,mA1/gps,0,1,63.43461392321457,10.392854883138572,0.0,1.4400000000000002e-10,0.0,0.0,0.0,1.4400000000000002e-10,0.0,0.0,0.0,1.0,2
2025/05/06 15:12:36.110986951,1746537156,109582365,mA1/gps,0,1,63.43461395799249,10.392854883318224,0.0,1.4400000000000002e-10,0.0,0.0,0.0,1.4400000000000002e-10,0.0,0.0,0.0,1.0,2
2025/05/06 15:12:36.161234227,1746537156,160588839,mA1/gps,0,1,63.43461399300518,10.392854883759304,0.0,1.4400000000000002e-10,0.0,0.0,0.0,1.4400000000000002e-10,0.0,0.0,0.0,1.0,2
2025/05/06 15:12:36.211418848,1746537156,210511674,mA1/gps,0,1,63.434614027496856,10.392854883090441,0.0,1.4400000000000002e-10,0.0,0.0,0.0,1.4400000000000002e-10,0.0,0.0,0.0,1.0,2
2025/05/06 15:12:36.257323649,1746537156,256735201,mA1/gps,0,1,63.434614062272715,10.392854879482062,0.0,1.4400000000000002e-10,0.0,0.0,0.0,1.4400000000000002e-10,0.0,0.0,0.0,1.0,2
2025/05/06 15:12:36.306826217,1746537156,306514405,mA1/gps,0,1,63.43461409630713,10.392854873346552,0.0,1.4400000000000002e-10,0.0,0.0,0.0,1.4400000000000002e-10,0.0,0.0,0.0,1.0,2
2025/05/06 15:12:36.358922549,1746537156,357529616,mA1/gps,0,1,63.43461413048012,10.392854862079759,0.0,1.4400000000000002e-10,0.0,0.0,0.0,1.4400000000000002e-10,0.0,0.0,0.0,1.0,2
2025/05/06 15:12:36.410381176,1746537156,407335718,mA1/gps,0,1,63.43461416392487,10.392854847475336,0.0,1.4400000000000002e-10,0.0,0.0,0.0,1.4400000000000002e-10,0.0,0.0,0.0,1.0,2
2025/05/06 15:12:36.463141118,1746537156,461298365,mA1/gps,0,1,63.43461419698714,10.392854828113816,0.0,1.4400000000000002e-10,0.0,0.0,0.0,1.4400000000000002e-10,0.0,0.0,0.0,1.0,2
2025/05/06 15:12:36.513054454,1746537156,511375349,mA1/gps,0,1,63.43461422979508,10.392854804941143,0.0,1.4400000000000002e-10,0.0,0.0,0.0,1.4400000000000002e-10,0.0,0.0,0.0,1.0,2
2025/05/06 15:12:36.562690455,1746537156,562236979,mA1/gps,0,1,63.43461426244535,10.392854779055238,0.0,1.4400000000000002e-10,0.0,0.0,0.0,1.4400000000000002e-10,0.0,0.0,0.0,1.0,2
2025/05/06 15:12:36.606815970,1746537156,604050795,mA1/gps,0,1,63.43461429537375,10.392854748228281,0.0,1.4400000000000002e-10,0.0,0.0,0.0,1.4400000000000002e-10,0.0,0.0,0.0,1.0,2
2025/05/06 15:12:36.656085353,1746537156,655088301,mA1/gps,0,1,63.43461432759969,10.392854715007777,0.0,1.4400000000000002e-10,0.0,0.0,0.0,1.4400000000000002e-10,0.0,0.0,0.0,1.0,2
2025/05/06 15:12:36.706430216,1746537156,704952264,mA1/gps,0,1,63.434614360163586,10.392854679986879,0.0,1.4400000000000002e-10,0.0,0.0,0.0,1.4400000000000002e-10,0.0,0.0,0.0,1.0,2
2025/05/06 15:12:36.756172395,1746537156,755859531,mA1/gps,0,1,63.434614393132904,10.392854643345935,0.0,1.4400000000000002e-10,0.0,0.0,0.0,1.4400000000000002e-10,0.0,0.0,0.0,1.0,2
2025/05/06 15:12:36.807345239,1746537156,806481537,mA1/gps,0,1,63.434614425980435,10.392854606444732,0.0,1.4400000000000002e-10,0.0,0.0,0.0,1.4400000000000002e-10,0.0,0.0,0.0,1.0,2
2025/05/06 15:12:36.861846766,1746537156,860560666,mA1/gps,0,1,63.43461446032566,10.39285456894212,0.0,1.4400000000000002e-10,0.0,0.0,0.0,1.4400000000000002e-10,0.0,0.0,0.0,1.0,2
2025/05/06 15:12:36.913669604,1746537156,912088942,mA1/gps,0,1,63.434614493431,10.392854531885797,0.0,1.4400000000000002e-10,0.0,0.0,0.0,1.4400000000000002e-10,0.0,0.0,0.0,1.0,2
2025/05/06 15:12:36.959207185,1746537156,957594226,mA1/gps,0,1,63.43461452891254,10.392854494884235,0.0,1.4400000000000002e-10,0.0,0.0,0.0,1.4400000000000002e-10,0.0,0.0,0.0,1.0,2
2025/05/06 15:12:37.8487952,1746537157,7835878,mA1/gps,0,1,63.434614564656606,10.392854460857924,0.0,1.4400000000000002e-10,0.0,0.0,0.0,1.4400000000000002e-10,0.0,0.0,0.0,1.0,2
2025/05/06 15:12:37.59117998,1746537157,58884612,mA1/gps,0,1,63.434614602134985,10.392854428222465,0.0,1.4400000000000002e-10,0.0,0.0,0.0,1.4400000000000002e-10,0.0,0.0,0.0,1.0,2
2025/05/06 15:12:37.110425542,1746537157,109086692,mA1/gps,0,1,63.434614639265845,10.392854399412801,0.0,1.4400000000000002e-10,0.0,0.0,0.0,1.4400000000000002e-10,0.0,0.0,0.0,1.0,2
2025/05/06 15:12:37.162195955,1746537157,161849733,mA1/gps,0,1,63.43461467662248,10.39285437445486,0.0,1.4400000000000002e-10,0.0,0.0,0.0,1.4400000000000002e-10,0.0,0.0,0.0,1.0,2
2025/05/06 15:12:37.219378565,1746537157,214679801,mA1/gps,0,1,63.43461471586395,10.392854353478667,0.0,1.4400000000000002e-10,0.0,0.0,0.0,1.4400000000000002e-10,0.0,0.0,0.0,1.0,2
2025/05/06 15:12:37.257366545,1746537157,255853848,mA1/gps,0,1,63.43461475631964,10.392854337021463,0.0,1.4400000000000002e-10,0.0,0.0,0.0,1.4400000000000002e-10,0.0,0.0,0.0,1.0,2
2025/05/06 15:12:37.310044476,1746537157,306292727,mA1/gps,0,1,63.43461479663156,10.392854323868914,0.0,1.4400000000000002e-10,0.0,0.0,0.0,1.4400000000000002e-10,0.0,0.0,0.0,1.0,2
2025/05/06 15:12:37.361204696,1746537157,359763315,mA1/gps,0,1,63.43461483753262,10.392854314764005,0.0,1.4400000000000002e-10,0.0,0.0,0.0,1.4400000000000002e-10,0.0,0.0,0.0,1.0,2
2025/05/06 15:12:37.416419042,1746537157,412685529,mA1/gps,0,1,63.434614880406954,10.392854308074567,0.0,1.4400000000000002e-10,0.0,0.0,0.0,1.4400000000000002e-10,0.0,0.0,0.0,1.0,2
2025/05/06 15:12:37.462531936,1746537157,461957880,mA1/gps,0,1,63.434614923511944,10.392854303634449,0.0,1.4400000000000002e-10,0.0,0.0,0.0,1.4400000000000002e-10,0.0,0.0,0.0,1.0,2
2025/05/06 15:12:37.512582470,1746537157,511891912,mA1/gps,0,1,63.434614966159195,10.392854300780368,0.0,1.4400000000000002e-10,0.0,0.0,0.0,1.4400000000000002e-10,0.0,0.0,0.0,1.0,2
2025/05/06 15:12:37.558931796,1746537157,555835107,mA1/gps,0,1,63.43461500792758,10.39285429919445,0.0,1.4400000000000002e-10,0.0,0.0,0.0,1.4400000000000002e-10,0.0,0.0,0.0,1.0,2
2025/05/06 15:12:37.605150174,1746537157,604362039,mA1/gps,0,1,63.434615050636715,10.392854296742533,0.0,1.4400000000000002e-10,0.0,0.0,0.0,1.4400000000000002e-10,0.0,0.0,0.0,1.0,2
2025/05/06 15:12:37.656198475,1746537157,655337390,mA1/gps,0,1,63.43461509466678,10.392854292759628,0.0,1.4400000000000002e-10,0.0,0.0,0.0,1.4400000000000002e-10,0.0,0.0,0.0,1.0,2
2025/05/06 15:12:37.705868131,1746537157,705529595,mA1/gps,0,1,63.43461513714596,10.392854286990977,0.0,1.4400000000000002e-10,0.0,0.0,0.0,1.4400000000000002e-10,0.0,0.0,0.0,1.0,2
2025/05/06 15:12:37.759368986,1746537157,758049961,mA1/gps,0,1,63.434615179718115,10.392854279105109,0.0,1.4400000000000002e-10,0.0,0.0,0.0,1.4400000000000002e-10,0.0,0.0,0.0,1.0,2
2025/05/06 15:12:37.809975287,1746537157,809231880,mA1/gps,0,1,63.43461522175095,10.392854268127657,0.0,1.4400000000000002e-10,0.0,0.0,0.0,1.4400000000000002e-10,0.0,0.0,0.0,1.0,2
2025/05/06 15:12:37.860042994,1746537157,859671606,mA1/gps,0,1,63.43461526372637,10.39285425424665,0.0,1.4400000000000002e-10,0.0,0.0,0.0,1.4400000000000002e-10,0.0,0.0,0.0,1.0,2
2025/05/06 15:12:37.911012289,1746537157,910672021,mA1/gps,0,1,63.43461530569487,10.392854237524721,0.0,1.4400000000000002e-10,0.0,0.0,0.0,1.4400000000000002e-10,0.0,0.0,0.0,1.0,2
2025/05/06 15:12:37.965989337,1746537157,965578971,mA1/gps,0,1,63.434615348187684,10.392854218007827,0.0,1.4400000000000002e-10,0.0,0.0,0.0,1.4400000000000002e-10,0.0,0.0,0.0,1.0,2
2025/05/06 15:12:38.4529178,1746537158,3929583,mA1/gps,0,1,63.434615390008865,10.39285419562923,0.0,1.4400000000000002e-10,0.0,0.0,0.0,1.4400000000000002e-10,0.0,0.0,0.0,1.0,2
2025/05/06 15:12:38.57573861,1746537158,55929445,mA1/gps,0,1,63.434615431226824,10.392854172446603,0.0,1.4400000000000002e-10,0.0,0.0,0.0,1.4400000000000002e-10,0.0,0.0,0.0,1.0,2
2025/05/06 15:12:38.110385196,1746537158,108090935,mA1/gps,0,1,63.43461547254824,10.39285414797389,0.0,1.4400000000000002e-10,0.0,0.0,0.0,1.4400000000000002e-10,0.0,0.0,0.0,1.0,2
2025/05/06 15:12:38.175208896,1746537158,163242370,mA1/gps,0,1,63.43461551507381,10.392854122093913,0.0,1.4400000000000002e-10,0.0,0.0,0.0,1.4400000000000002e-10,0.0,0.0,0.0,1.0,2
2025/05/06 15:12:38.215618899,1746537158,214629431,mA1/gps,0,1,63.43461555752937,10.392854097018905,0.0,1.4400000000000002e-10,0.0,0.0,0.0,1.4400000000000002e-10,0.0,0.0,0.0,1.0,2
2025/05/06 15:12:38.256867674,1746537158,254989487,mA1/gps,0,1,63.434615600856915,10.392854072653613,0.0,1.4400000000000002e-10,0.0,0.0,0.0,1.4400000000000002e-10,0.0,0.0,0.0,1.0,2
2025/05/06 15:12:38.305707399,1746537158,304779246,mA1/gps,0,1,63.43461564415701,10.392854050317803,0.0,1.4400000000000002e-10,0.0,0.0,0.0,1.4400000000000002e-10,0.0,0.0,0.0,1.0,2
2025/05/06 15:12:38.357095610,1746537158,355252172,mA1/gps,0,1,63.43461568803185,10.392854030324974,0.0,1.4400000000000002e-10,0.0,0.0,0.0,1.4400000000000002e-10,0.0,0.0,0.0,1.0,2
2025/05/06 15:12:38.408021381,1746537158,405535691,mA1/gps,0,1,63.43461573388567,10.392854012498036,0.0,1.4400000000000002e-10,0.0,0.0,0.0,1.4400000000000002e-10,0.0,0.0,0.0,1.0,2
2025/05/06 15:12:38.457975175,1746537158,456393230,mA1/gps,0,1,63.43461578066593,10.392853997908382,0.0,1.4400000000000002e-10,0.0,0.0,0.0,1.4400000000000002e-10,0.0,0.0,0.0,1.0,2
2025/05/06 15:12:38.529594193,1746537158,509170024,mA1/gps,0,1,63.43461582776647,10.392853986625985,0.0,1.4400000000000002e-10,0.0,0.0,0.0,1.4400000000000002e-10,0.0,0.0,0.0,1.0,2
2025/05/06 15:12:38.561223413,1746537158,560535106,mA1/gps,0,1,63.43461587480572,10.392853978333315,0.0,1.4400000000000002e-10,0.0,0.0,0.0,1.4400000000000002e-10,0.0,0.0,0.0,1.0,2
2025/05/06 15:12:38.612272231,1746537158,611111426,mA1/gps,0,1,63.43461592349116,10.392853972954066,0.0,1.4400000000000002e-10,0.0,0.0,0.0,1.4400000000000002e-10,0.0,0.0,0.0,1.0,2
2025/05/06 15:12:38.664014529,1746537158,662218732,mA1/gps,0,1,63.43461597401883,10.392853971206135,0.0,1.4400000000000002e-10,0.0,0.0,0.0,1.4400000000000002e-10,0.0,0.0,0.0,1.0,2
2025/05/06 15:12:38.716555649,1746537158,713977950,mA1/gps,0,1,63.43461602458796,10.392853972512,0.0,1.4400000000000002e-10,0.0,0.0,0.0,1.4400000000000002e-10,0.0,0.0,0.0,1.0,2
2025/05/06 15:12:38.755836610,1746537158,754848714,mA1/gps,0,1,63.43461607475712,10.392853977533436,0.0,1.4400000000000002e-10,0.0,0.0,0.0,1.4400000000000002e-10,0.0,0.0,0.0,1.0,2
2025/05/06 15:12:38.804986447,1746537158,804672751,mA1/gps,0,1,63.43461612610292,10.392853983501789,0.0,1.4400000000000002e-10,0.0,0.0,0.0,1.4400000000000002e-10,0.0,0.0,0.0,1.0,2
2025/05/06 15:12:38.861211274,1746537158,860222536,mA1/gps,0,1,63.434616178647346,10.3928539902035,0.0,1.4400000000000002e-10,0.0,0.0,0.0,1.4400000000000002e-10,0.0,0.0,0.0,1.0,2
2025/05/06 15:12:38.913067159,1746537158,911921241,mA1/gps,0,1,63.43461623073869,10.392853996407439,0.0,1.4400000000000002e-10,0.0,0.0,0.0,1.4400000000000002e-10,0.0,0.0,0.0,1.0,2
2025/05/06 15:12:38.964469860,1746537158,963719749,mA1/gps,0,1,63.434616283132776,10.392854000684402,0.0,1.4400000000000002e-10,0.0,0.0,0.0,1.4400000000000002e-10,0.0,0.0,0.0,1.0,2
2025/05/06 15:12:39.14895697,1746537159,13014310,mA1/gps,0,1,63.43461633475204,10.392854002237355,0.0,1.4400000000000002e-10,0.0,0.0,0.0,1.4400000000000002e-10,0.0,0.0,0.0,1.0,2
2025/05/06 15:12:39.56985693,1746537159,54668010,mA1/gps,0,1,63.434616386312065,10.392854000530095,0.0,1.4400000000000002e-10,0.0,0.0,0.0,1.4400000000000002e-10,0.0,0.0,0.0,1.0,2
2025/05/06 15:12:39.105298652,1746537159,104722878,mA1/gps,0,1,63.43461643666679,10.392853994919948,0.0,1.4400000000000002e-10,0.0,0.0,0.0,1.4400000000000002e-10,0.0,0.0,0.0,1.0,2
2025/05/06 15:12:39.157988969,1746537159,156201588,mA1/gps,0,1,63.43461648696638,10.392853984390298,0.0,1.4400000000000002e-10,0.0,0.0,0.0,1.4400000000000002e-10,0.0,0.0,0.0,1.0,2
2025/05/06 15:12:39.210177211,1746537159,207522754,mA1/gps,0,1,63.434616537529244,10.392853967772126,0.0,1.4400000000000002e-10,0.0,0.0,0.0,1.4400000000000002e-10,0.0,0.0,0.0,1.0,2
2025/05/06 15:12:39.260462954,1746537159,259939727,mA1/gps,0,1,63.434616587549186,10.392853946754302,0.0,1.4400000000000002e-10,0.0,0.0,0.0,1.4400000000000002e-10,0.0,0.0,0.0,1.0,2
2025/05/06 15:12:39.312365044,1746537159,311196620,mA1/gps,0,1,63.43461663697332,10.392853920395176,0.0,1.4400000000000002e-10,0.0,0.0,0.0,1.4400000000000002e-10,0.0,0.0,0.0,1.0,2
2025/05/06 15:12:39.363582189,1746537159,362705749,mA1/gps,0,1,63.43461668516887,10.392853890762712,0.0,1.4400000000000002e-10,0.0,0.0,0.0,1.4400000000000002e-10,0.0,0.0,0.0,1.0,2
2025/05/06 15:12:39.413936348,1746537159,413286399,mA1/gps,0,1,63.43461673503917,10.392853857699196,0.0,1.4400000000000002e-10,0.0,0.0,0.0,1.4400000000000002e-10,0.0,0.0,0.0,1.0,2
2025/05/06 15:12:39.457913811,1746537159,455892430,mA1/gps,0,1,63.43461678479839,10.392853823006513,0.0,1.4400000000000002e-10,0.0,0.0,0.0,1.4400000000000002e-10,0.0,0.0,0.0,1.0,2
2025/05/06 15:12:39.505928515,1746537159,505564634,mA1/gps,0,1,63.43461683431011,10.392853786687654,0.0,1.4400000000000002e-10,0.0,0.0,0.0,1.4400000000000002e-10,0.0,0.0,0.0,1.0,2
2025/05/06 15:12:39.557957699,1746537159,556444456,mA1/gps,0,1,63.43461688365169,10.39285375055465,0.0,1.4400000000000002e-10,0.0,0.0,0.0,1.4400000000000002e-10,0.0,0.0,0.0,1.0,2
2025/05/06 15:12:39.610297425,1746537159,607351121,mA1/gps,0,1,63.43461693481485,10.392853714087417,0.0,1.4400000000000002e-10,0.0,0.0,0.0,1.4400000000000002e-10,0.0,0.0,0.0,1.0,2
2025/05/06 15:12:39.660889112,1746537159,660192026,mA1/gps,0,1,63.43461698580661,10.392853678940416,0.0,1.4400000000000002e-10,0.0,0.0,0.0,1.4400000000000002e-10,0.0,0.0,0.0,1.0,2
2025/05/06 15:12:39.710061244,1746537159,708927446,mA1/gps,0,1,63.43461703709097,10.392853646317363,0.0,1.4400000000000002e-10,0.0,0.0,0.0,1.4400000000000002e-10,0.0,0.0,0.0,1.0,2
2025/05/06 15:12:39.762537125,1746537159,759901399,mA1/gps,0,1,63.43461709102393,10.392853614990404,0.0,1.4400000000000002e-10,0.0,0.0,0.0,1.4400000000000002e-10,0.0,0.0,0.0,1.0,2
2025/05/06 15:12:39.811960164,1746537159,811099674,mA1/gps,0,1,63.43461714566789,10.392853587148052,0.0,1.4400000000000002e-10,0.0,0.0,0.0,1.4400000000000002e-10,0.0,0.0,0.0,1.0,2
