time,header_stamp_secs,header_stamp_nsecs,header_frame_id,orientation_x,orientation_y,orientation_z,orientation_w,orientation_covariance_0,orientation_covariance_1,orientation_covariance_2,orientation_covariance_3,orientation_covariance_4,orientation_covariance_5,orientation_covariance_6,orientation_covariance_7,orientation_covariance_8,angular_velocity_x,angular_velocity_y,angular_velocity_z,angular_velocity_covariance_0,angular_velocity_covariance_1,angular_velocity_covariance_2,angular_velocity_covariance_3,angular_velocity_covariance_4,angular_velocity_covariance_5,angular_velocity_covariance_6,angular_velocity_covariance_7,angular_velocity_covariance_8,linear_acceleration_x,linear_acceleration_y,linear_acceleration_z,linear_acceleration_covariance_0,linear_acceleration_covariance_1,linear_acceleration_covariance_2,linear_acceleration_covariance_3,linear_acceleration_covariance_4,linear_acceleration_covariance_5,linear_acceleration_covariance_6,linear_acceleration_covariance_7,linear_acceleration_covariance_8
2025/05/06 15:12:23.210504422,1746537143,209952297,mA1/imu,0.7765928393655833,0.630002189807334,0.00019183469457153206,0.0008751477104012796,0.0,0.0,0.0,0.0,0.0,0.0,0.0,0.0,0.0,-0.0007397794922020225,5.919811313621777e-06,-1.6215613988569062e-06,0.0,0.0,0.0,0.0,0.0,0.0,0.0,0.0,0.0,0.007488707080805313,-0.06343315960777965,9.8103705462888,0.0,0.0,0.0,0.0,0.0,0.0,0.0,0.0,0.0
2025/05/06 15:12:23.261951578,1746537143,261574800,mA1/imu,0.7765928174764029,0.6300022218327064,0.0001893116886581881,0.0008720613512001739,0.0,0.0,0.0,0.0,0.0,0.0,0.0,0.0,0.0,0.0008539457030990252,-9.826374154330854e-07,-1.592486184867555e-06,0.0,0.0,0.0,0.0,0.0,0.0,0.0,0.0,0.0,0.007799808773070084,-0.5850906151001274,9.808850633692638,0.0,0.0,0.0,0.0,0.0,0.0,0.0,0.0,0.0
2025/05/06 15:12:23.315675460,1746537143,314241960,mA1/imu,0.7765927949332968,0.630002253758949,0.00018720819151753486,0.0008695225287992399,0.0,0.0,0.0,0.0,0.0,0.0,0.0,0.0,0.0,0.0007141539568469245,-6.478316411194012e-06,-1.6097445646857669e-06,0.0,0.0,0.0,0.0,0.0,0.0,0.0,0.0,0.0,0.008292100610514224,0.03228398291196096,9.809782322531452,0.0,0.0,0.0,0.0,0.0,0.0,0.0,0.0,0.0
2025/05/06 15:12:23.364020616,1746537143,361351462,mA1/imu,0.7765927653573266,0.6300022843305839,0.00019015944506596143,0.0008731393312795264,0.0,0.0,0.0,0.0,0.0,0.0,0.0,0.0,0.0,-0.0008822446943585876,1.2774297068223578e-06,-1.6375232006986595e-06,0.0,0.0,0.0,0.0,0.0,0.0,0.0,0.0,0.0,0.00797913685469278,0.5535931425020721,9.811059896086471,0.0,0.0,0.0,0.0,0.0,0.0,0.0,0.0,0.0
2025/05/06 15:12:23.414975754,1746537143,413940040,mA1/imu,0.7765927363671664,0.6300023149897704,0.000192735682092962,0.0008762318435815179,0.0,0.0,0.0,0.0,0.0,0.0,0.0,0.0,0.0,-0.0007424809053762334,7.421447278149612e-06,-1.6210602958445775e-06,0.0,0.0,0.0,0.0,0.0,0.0,0.0,0.0,0.0,0.007492282453649928,-0.06380426980862494,9.81038723837652,0.0,0.0,0.0,0.0,0.0,0.0,0.0,0.0,0.0
2025/05/06 15:12:23.459488840,1746537143,458990518,mA1/imu,0.7765927144810467,0.6300023470654189,0.00019022683482790368,0.0008731098294874678,0.0,0.0,0.0,0.0,0.0,0.0,0.0,0.0,0.0,0.0008566747287690508,2.515521159542898e-07,-1.5940580330919995e-06,0.0,0.0,0.0,0.0,0.0,0.0,0.0,0.0,0.0,0.007801989829150929,-0.5852384138212415,9.808846312606903,0.0,0.0,0.0,0.0,0.0,0.0,0.0,0.0,0.0
2025/05/06 15:12:23.509616153,1746537143,507232223,mA1/imu,0.7765926917880613,0.6300023792449312,0.00018792644303572246,0.0008705692110340067,0.0,0.0,0.0,0.0,0.0,0.0,0.0,0.0,0.0,0.0007206373875235841,-2.9342601430082038e-05,-1.6655821545254332e-06,0.0,0.0,0.0,0.0,0.0,0.0,0.0,0.0,0.0,0.010013761278679948,0.032227233514520434,9.809774956891891,0.0,0.0,0.0,0.0,0.0,0.0,0.0,0.0,0.0
2025/05/06 15:12:23.562942800,1746537143,559851936,mA1/imu,0.7765939602102879,0.6300008100094312,0.00018955459387367434,0.0008743119684853855,0.0,0.0,0.0,0.0,0.0,0.0,0.0,0.0,0.0,-0.0008393354122331917,-6.088797107219377e-05,0.00013524880716330348,0.0,0.0,0.0,0.0,0.0,0.0,0.0,0.0,0.0,0.008899717658304716,0.5576234965436134,9.811286396591136,0.0,0.0,0.0,0.0,0.0,0.0,0.0,0.0,0.0
2025/05/06 15:12:23.619124658,1746537143,614170129,mA1/imu,0.7765973541760834,0.6299966219758328,0.00018938990768132923,0.0008774492631758109,0.0,0.0,0.0,0.0,0.0,0.0,0.0,0.0,0.0,-0.000656600516499016,-9.075776543014796e-05,0.0002684016710668861,0.0,0.0,0.0,0.0,0.0,0.0,0.0,0.0,0.0,0.008430963621098287,-0.059481167194534605,9.810600330168597,0.0,0.0,0.0,0.0,0.0,0.0,0.0,0.0,0.0
2025/05/06 15:12:23.668014069,1746537143,664075033,mA1/imu,0.7766028099763074,0.6299899026445727,0.00018294467298976194,0.0008744335490063788,0.0,0.0,0.0,0.0,0.0,0.0,0.0,0.0,0.0,0.0009620103509794659,-0.00013832308872546384,0.00039702009926729153,0.0,0.0,0.0,0.0,0.0,0.0,0.0,0.0,0.0,0.009432731777226666,-0.5823317918190546,9.808607406616954,0.0,0.0,0.0,0.0,0.0,0.0,0.0,0.0,0.0
2025/05/06 15:12:23.708269643,1746537143,706881367,mA1/imu,0.7766102464119459,0.6299807408800174,0.0001759149921719802,0.0008719760067017706,0.0,0.0,0.0,0.0,0.0,0.0,0.0,0.0,0.0,0.0008410870083541375,-0.00017642972392880053,0.0005211979590310587,0.0,0.0,0.0,0.0,0.0,0.0,0.0,0.0,0.0,0.009944149122584999,0.03493533613229384,9.809557236371655,0.0,0.0,0.0,0.0,0.0,0.0,0.0,0.0,0.0
2025/05/06 15:12:23.767417620,1746537143,761469284,mA1/imu,0.776619584510622,0.6299692248381913,0.0001732387292651018,0.0008756138760635557,0.0,0.0,0.0,0.0,0.0,0.0,0.0,0.0,0.0,-0.0007352432068812988,-0.00018079721670298621,0.0006403724688365072,0.0,0.0,0.0,0.0,0.0,0.0,0.0,0.0,0.0,0.008914494160327493,0.5571489759721562,9.811263881259572,0.0,0.0,0.0,0.0,0.0,0.0,0.0,0.0,0.0
2025/05/06 15:12:23.827013487,1746537143,805973166,mA1/imu,0.7766307669065557,0.6299554358597536,0.0001697283798462305,0.00087858816283169,0.0,0.0,0.0,0.0,0.0,0.0,0.0,0.0,0.0,-0.0005775775616767263,-0.00017746545120238114,0.0007557689826227275,0.0,0.0,0.0,0.0,0.0,0.0,0.0,0.0,0.0,0.008450715059200685,-0.059886217249754584,9.810520056986626,0.0,0.0,0.0,0.0,0.0,0.0,0.0,0.0,0.0
2025/05/06 15:12:23.863988225,1746537143,859350616,mA1/imu,0.7766437385962757,0.6299394503123328,0.0001610825817875772,0.0008753809443745418,0.0,0.0,0.0,0.0,0.0,0.0,0.0,0.0,0.0,0.001011459905878289,-0.00018703801215945454,0.0008675065434440007,0.0,0.0,0.0,0.0,0.0,0.0,0.0,0.0,0.0,0.009374087227650483,-0.5827865305895549,9.808529347351566,0.0,0.0,0.0,0.0,0.0,0.0,0.0,0.0,0.0
2025/05/06 15:12:23.915065009,1746537143,910959491,mA1/imu,0.7766584325642877,0.629921339577581,0.00015308296393548435,0.0008727182683978029,0.0,0.0,0.0,0.0,0.0,0.0,0.0,0.0,0.0,0.0008597937400617,-0.00018566536680802263,0.0009755610153147674,0.0,0.0,0.0,0.0,0.0,0.0,0.0,0.0,0.0,0.009895545510549395,0.03454356502503504,9.809532356390548,0.0,0.0,0.0,0.0,0.0,0.0,0.0,0.0,0.0
2025/05/06 15:12:23.964374577,1746537143,959429690,mA1/imu,0.7766747842060494,0.6299011741690339,0.00015067874546669207,0.0008761591605778604,0.0,0.0,0.0,0.0,0.0,0.0,0.0,0.0,0.0,-0.0007481443054374045,-0.00015255156511581825,0.001079814049207112,0.0,0.0,0.0,0.0,0.0,0.0,0.0,0.0,0.0,0.00898726572114223,0.5568107444912553,9.811254101631075,0.0,0.0,0.0,0.0,0.0,0.0,0.0,0.0,0.0
2025/05/06 15:12:24.10875134,1746537144,9114648,mA1/imu,0.776692746833224,0.6298790219984697,0.00014863857038137823,0.0008789593210827805,0.0,0.0,0.0,0.0,0.0,0.0,0.0,0.0,0.0,-0.0006212734412431744,-0.0001142766996985455,0.0011808984786058014,0.0,0.0,0.0,0.0,0.0,0.0,0.0,0.0,0.0,0.008523697133775814,-0.06024362307681561,9.810454457301786,0.0,0.0,0.0,0.0,0.0,0.0,0.0,0.0,0.0
2025/05/06 15:12:24.71605855,1746537144,63088208,mA1/imu,0.7767122717952936,0.6298549514179556,0.00014255721739763372,0.0008756108259920532,0.0,0.0,0.0,0.0,0.0,0.0,0.0,0.0,0.0,0.0009405712605607166,-9.225979153951621e-05,0.001278273814956925,0.0,0.0,0.0,0.0,0.0,0.0,0.0,0.0,0.0,0.009397868371454296,-0.5831146369006035,9.808471808709584,0.0,0.0,0.0,0.0,0.0,0.0,0.0,0.0,0.0
2025/05/06 15:12:24.114499386,1746537144,107613319,mA1/imu,0.7767332980616946,0.6298290265936988,0.0001380519811398865,0.0008728596032668485,0.0,0.0,0.0,0.0,0.0,0.0,0.0,0.0,0.0,0.0007659139736351871,-6.531796134222139e-05,0.0013723053950939492,0.0,0.0,0.0,0.0,0.0,0.0,0.0,0.0,0.0,0.009942042474220598,0.034246263388530596,9.809556230278227,0.0,0.0,0.0,0.0,0.0,0.0,0.0,0.0,0.0
2025/05/06 15:12:24.166695790,1746537144,159794712,mA1/imu,0.7767557694041503,0.6298013077573352,0.00013987023858981555,0.0008762880993407973,0.0,0.0,0.0,0.0,0.0,0.0,0.0,0.0,0.0,-0.0008606863411384917,-1.4348026576362558e-05,0.0014636262020541314,0.0,0.0,0.0,0.0,0.0,0.0,0.0,0.0,0.0,0.009034375048404849,0.5565536324658478,9.81131375657592,0.0,0.0,0.0,0.0,0.0,0.0,0.0,0.0,0.0
2025/05/06 15:12:24.218967206,1746537144,205962264,mA1/imu,0.7767796515264724,0.6297718474969083,0.00014269751860623918,0.0008790404776631239,0.0,0.0,0.0,0.0,0.0,0.0,0.0,0.0,0.0,-0.0007470557886867153,6.719118683323413e-05,0.0015527523847424442,0.0,0.0,0.0,0.0,0.0,0.0,0.0,0.0,0.0,0.0040604874976258466,-0.06049657240098738,9.810465431317049,0.0,0.0,0.0,0.0,0.0,0.0,0.0,0.0,0.0
2025/05/06 15:12:24.281023416,1746537144,255523496,mA1/imu,0.7767994806869363,0.6297473874945259,0.00013871140830635403,0.0008806290199799763,0.0,0.0,0.0,0.0,0.0,0.0,0.0,0.0,0.0,0.0006852231147833118,-0.00029848790294422314,0.0010671398695379062,0.0,0.0,0.0,0.0,0.0,0.0,0.0,0.0,0.0,0.022338306577557233,-0.5981968509338699,9.807658451778613,0.0,0.0,0.0,0.0,0.0,0.0,0.0,0.0,0.0
2025/05/06 15:12:24.312545637,1746537144,309897695,mA1/imu,0.7768118029794289,0.6297321750114163,0.00013138519984283822,0.0008906431210072008,0.0,0.0,0.0,0.0,0.0,0.0,0.0,0.0,0.0,0.0003906214435764715,-0.0006046805282608548,0.0005947653385614483,0.0,0.0,0.0,0.0,0.0,0.0,0.0,0.0,0.0,0.021395182737919544,0.019838988601647817,9.80880795970466,0.0,0.0,0.0,0.0,0.0,0.0,0.0,0.0,0.0
2025/05/06 15:12:24.362399970,1746537144,356496528,mA1/imu,0.7768168104690809,0.629725966820325,0.00012672165246357025,0.0009130314748112712,0.0,0.0,0.0,0.0,0.0,0.0,0.0,0.0,0.0,-0.0013227861321310722,-0.0007865148660019057,0.00013651046105825208,0.0,0.0,0.0,0.0,0.0,0.0,0.0,0.0,0.0,0.01851067300414789,0.5448292178723996,9.812118947084334,0.0,0.0,0.0,0.0,0.0,0.0,0.0,0.0,0.0
2025/05/06 15:12:24.413427481,1746537144,407477356,mA1/imu,0.7768147132820461,0.6297285157877412,0.00011988870877757332,0.0009398185987534976,0.0,0.0,0.0,0.0,0.0,0.0,0.0,0.0,0.0,-0.0012721617531457807,-0.0009308889513968785,-0.0003105868037939359,0.0,0.0,0.0,0.0,0.0,0.0,0.0,0.0,0.0,0.01776993426766037,-0.07186656764967879,9.811312290767345,0.0,0.0,0.0,0.0,0.0,0.0,0.0,0.0,0.0
2025/05/06 15:12:24.464611921,1746537144,463072182,mA1/imu,0.7768056804620982,0.6297396240234217,0.00010710580787887369,0.0009639839221137787,0.0,0.0,0.0,0.0,0.0,0.0,0.0,0.0,0.0,0.00023877537971419446,-0.0010295406944674935,-0.0007468566862446481,0.0,0.0,0.0,0.0,0.0,0.0,0.0,0.0,0.0,0.019259981365955414,-0.5962249017322487,9.807825455599604,0.0,0.0,0.0,0.0,0.0,0.0,0.0,0.0,0.0
2025/05/06 15:12:24.546434722,1746537144,505601451,mA1/imu,0.7767898764508844,0.6297590794888543,9.50000312848749e-05,0.0009902624726897391,0.0,0.0,0.0,0.0,0.0,0.0,0.0,0.0,0.0,4.771973464892653e-05,-0.0010472615057844584,-0.0011722831760927908,0.0,0.0,0.0,0.0,0.0,0.0,0.0,0.0,0.0,0.01943663452563165,0.021364367107050256,9.808830599590571,0.0,0.0,0.0,0.0,0.0,0.0,0.0,0.0,0.0
2025/05/06 15:12:24.590321481,1746537144,563765603,mA1/imu,0.7767674414963314,0.6297866993701219,9.006010838270774e-05,0.0010232384415042347,0.0,0.0,0.0,0.0,0.0,0.0,0.0,0.0,0.0,-0.0016114272284027129,-0.0009482740549408606,-0.0015899162117531133,0.0,0.0,0.0,0.0,0.0,0.0,0.0,0.0,0.0,0.016741068860100308,0.5410799695541839,9.81231277390913,0.0,0.0,0.0,0.0,0.0,0.0,0.0,0.0,0.0
2025/05/06 15:12:24.610870334,1746537144,608206239,mA1/imu,0.7767385239971524,0.629822311771319,8.778010145763589e-05,0.0010550963986712463,0.0,0.0,0.0,0.0,0.0,0.0,0.0,0.0,0.0,-0.0015157542423059594,-0.000798020159657097,-0.001994945338789221,0.0,0.0,0.0,0.0,0.0,0.0,0.0,0.0,0.0,0.01569125886407024,-0.08146806410002143,9.811197269715734,0.0,0.0,0.0,0.0,0.0,0.0,0.0,0.0,0.0
2025/05/06 15:12:24.662555011,1746537144,660822174,mA1/imu,0.7767032693801615,0.6298657587053648,7.89605207697396e-05,0.0010728979073841365,0.0,0.0,0.0,0.0,0.0,0.0,0.0,0.0,0.0,0.0006193321545056765,-0.0006250474372612374,-0.002392364554925434,0.0,0.0,0.0,0.0,0.0,0.0,0.0,0.0,0.0,0.01591734664460695,-0.5702688472332705,9.808305549315431,0.0,0.0,0.0,0.0,0.0,0.0,0.0,0.0,0.0
2025/05/06 15:12:24.726717568,1746537144,712771782,mA1/imu,0.7766621406124569,0.6299164374398014,7.939506681097283e-05,0.001093105140559921,0.0,0.0,0.0,0.0,0.0,0.0,0.0,0.0,0.0,-0.0009887396628156283,-0.00040133332638332323,-0.0027553682609001893,0.0,0.0,0.0,0.0,0.0,0.0,0.0,0.0,0.0,0.016747612425047645,0.5699813702117793,9.81046237480017,0.0,0.0,0.0,0.0,0.0,0.0,0.0,0.0,0.0
2025/05/06 15:12:24.777355811,1746537144,756662966,mA1/imu,0.7766153517350157,0.6299740931746984,8.490464534443079e-05,0.0011091300263350074,0.0,0.0,0.0,0.0,0.0,0.0,0.0,0.0,0.0,-0.0013850116444860609,-9.153800325785315e-05,-0.003108738831697963,0.0,0.0,0.0,0.0,0.0,0.0,0.0,0.0,0.0,0.014856208246133465,0.3672329799147189,9.810939449210975,0.0,0.0,0.0,0.0,0.0,0.0,0.0,0.0,0.0
2025/05/06 15:12:24.848902454,1746537144,816327158,mA1/imu,0.7765629118265184,0.6300387261004629,9.103175602944791e-05,0.001113239616844975,0.0,0.0,0.0,0.0,0.0,0.0,0.0,0.0,0.0,0.0004967044302493354,0.00015134654144009958,-0.003487548447955369,0.0,0.0,0.0,0.0,0.0,0.0,0.0,0.0,0.0,0.019932459309549157,-0.6044840015176044,9.80734137273377,0.0,0.0,0.0,0.0,0.0,0.0,0.0,0.0,0.0
2025/05/06 15:12:24.869237510,1746537144,864118751,mA1/imu,0.776504543937363,0.6301106624990005,0.00010102930690091547,0.0011117746075162767,0.0,0.0,0.0,0.0,0.0,0.0,0.0,0.0,0.0,0.00035932734288284527,0.0004200775467494062,-0.003853276908451147,0.0,0.0,0.0,0.0,0.0,0.0,0.0,0.0,0.0,0.022030676780066108,-0.6260354487267716,9.80672444629733,0.0,0.0,0.0,0.0,0.0,0.0,0.0,0.0,0.0
2025/05/06 15:12:24.909820046,1746537144,909551162,mA1/imu,0.776440347786487,0.6301897770905056,0.00011177932440742307,0.0011039407595884237,0.0,0.0,0.0,0.0,0.0,0.0,0.0,0.0,0.0,-0.0012255704281210493,0.0006618192509086071,-0.004208072144345089,0.0,0.0,0.0,0.0,0.0,0.0,0.0,0.0,0.0,0.014792099326534355,0.5180146571439773,9.81123829705852,0.0,0.0,0.0,0.0,0.0,0.0,0.0,0.0,0.0
2025/05/06 15:12:24.966960843,1746537144,956824239,mA1/imu,0.7763717645734538,0.630274292689941,0.00012402861486601784,0.0010880092826069296,0.0,0.0,0.0,0.0,0.0,0.0,0.0,0.0,0.0,-0.0011194502842429746,0.0010174229736841693,-0.004360782285018265,0.0,0.0,0.0,0.0,0.0,0.0,0.0,0.0,0.0,0.002991076444036034,0.5230360443877469,9.810871293152328,0.0,0.0,0.0,0.0,0.0,0.0,0.0,0.0,0.0
2025/05/06 15:12:25.7849312,1746537145,6678993,mA1/imu,0.776303195088924,0.6303587865162882,0.00014636730115250842,0.0010621360806909938,0.0,0.0,0.0,0.0,0.0,0.0,0.0,0.0,0.0,-0.0003033466879677055,0.00156855438726316,-0.004347288253816839,0.0,0.0,0.0,0.0,0.0,0.0,0.0,0.0,0.0,0.00331039676062957,-0.03897134202352426,9.811101806735767,0.0,0.0,0.0,0.0,0.0,0.0,0.0,0.0,0.0
2025/05/06 15:12:25.59107107,1746537145,55882928,mA1/imu,0.7762347667447113,0.6304431133764269,0.0001700300725988043,0.001019206944569512,0.0,0.0,0.0,0.0,0.0,0.0,0.0,0.0,0.0,0.0015171495138332225,0.0019801681716130493,-0.004339767238920566,0.0,0.0,0.0,0.0,0.0,0.0,0.0,0.0,0.0,0.005472695133553713,-0.5860949448050803,9.808702904177293,0.0,0.0,0.0,0.0,0.0,0.0,0.0,0.0,0.0
2025/05/06 15:12:25.110476728,1746537145,109056987,mA1/imu,0.7761664328580937,0.6305273139726991,0.00019761428256160078,0.0009673610034548522,0.0,0.0,0.0,0.0,0.0,0.0,0.0,0.0,0.0,0.00156333070693303,0.0022667730013757755,-0.0043342676506740565,0.0,0.0,0.0,0.0,0.0,0.0,0.0,0.0,0.0,0.006256691695420294,0.03176217263889618,9.809748394445116,0.0,0.0,0.0,0.0,0.0,0.0,0.0,0.0,0.0
2025/05/06 15:12:25.189630886,1746537145,163454753,mA1/imu,0.7760981636788004,0.6306114088988232,0.00023173762835265683,0.0009152041886605579,0.0,0.0,0.0,0.0,0.0,0.0,0.0,0.0,0.0,0.0001152349772576703,0.002426443438894639,-0.0043292235485313125,0.0,0.0,0.0,0.0,0.0,0.0,0.0,0.0,0.0,0.006091668813151809,0.5548455638501324,9.811735055929024,0.0,0.0,0.0,0.0,0.0,0.0,0.0,0.0,0.0
2025/05/06 15:12:25.224007227,1746537145,205487878,mA1/imu,0.7760299500980877,0.6306954163711653,0.0002648223660608501,0.0008591788383096531,0.0,0.0,0.0,0.0,0.0,0.0,0.0,0.0,0.0,0.00036146414393517165,0.0024438900487295818,-0.004324928164910913,0.0,0.0,0.0,0.0,0.0,0.0,0.0,0.0,0.0,0.005844830366571162,-0.06206643478468794,9.810878195595372,0.0,0.0,0.0,0.0,0.0,0.0,0.0,0.0,0.0
2025/05/06 15:12:25.269004477,1746537145,263801514,mA1/imu,0.775961786037054,0.6307793473023627,0.00029100132189193784,0.000798088479548847,0.0,0.0,0.0,0.0,0.0,0.0,0.0,0.0,0.0,0.0019432630880583848,0.0022874521960610152,-0.004322100852956291,0.0,0.0,0.0,0.0,0.0,0.0,0.0,0.0,0.0,0.008107764459501739,-0.5891420658064951,9.80848681448346,0.0,0.0,0.0,0.0,0.0,0.0,0.0,0.0,0.0
2025/05/06 15:12:25.305756981,1746537145,305152358,mA1/imu,0.7758936563058276,0.6308632086511571,0.0003126751086410822,0.0007404789109183919,0.0,0.0,0.0,0.0,0.0,0.0,0.0,0.0,0.0,0.0018225026335453364,0.001989921684130513,-0.004319947796212362,0.0,0.0,0.0,0.0,0.0,0.0,0.0,0.0,0.0,0.010876571138333388,0.030385249333862066,9.80947292350519,0.0,0.0,0.0,0.0,0.0,0.0,0.0,0.0,0.0
2025/05/06 15:12:25.369797064,1746537145,362225825,mA1/imu,0.7758255912918093,0.6309469572327913,0.0003299638168250338,0.0006929496923804127,0.0,0.0,0.0,0.0,0.0,0.0,0.0,0.0,0.0,0.00031639112504717456,0.0015557221731653137,-0.004313289863022829,0.0,0.0,0.0,0.0,0.0,0.0,0.0,0.0,0.0,0.009870709904046803,0.5629228614066567,9.811706341408563,0.0,0.0,0.0,0.0,0.0,0.0,0.0,0.0,0.0
2025/05/06 15:12:25.420395784,1746537145,412154817,mA1/imu,0.7757576384744356,0.631030539268183,0.00033956012583532576,0.000655407044470215,0.0,0.0,0.0,0.0,0.0,0.0,0.0,0.0,0.0,0.0011270172021315534,0.0010381224614247387,-0.0043008283464026405,0.0,0.0,0.0,0.0,0.0,0.0,0.0,0.0,0.0,0.008696617398161067,-0.07074886683421046,9.810240160514715,0.0,0.0,0.0,0.0,0.0,0.0,0.0,0.0,0.0
2025/05/06 15:12:25.517190742,1746537145,458449363,mA1/imu,0.775690036548263,0.6311136684024438,0.0003379856658220208,0.0006249168378329266,0.0,0.0,0.0,0.0,0.0,0.0,0.0,0.0,0.0,0.0008957352526116954,0.0005100872977893501,-0.004275637398351398,0.0,0.0,0.0,0.0,0.0,0.0,0.0,0.0,0.0,0.008489152958743017,-0.010125448690666311,9.8095900902338,0.0,0.0,0.0,0.0,0.0,0.0,0.0,0.0,0.0
2025/05/06 15:12:25.551964788,1746537145,508550538,mA1/imu,0.7756227584310746,0.6311963725220938,0.00032862004822222993,0.0006065703459661288,0.0,0.0,0.0,0.0,0.0,0.0,0.0,0.0,0.0,-4.210150757454358e-05,-3.615250833060219e-05,-0.004260081379947216,0.0,0.0,0.0,0.0,0.0,0.0,0.0,0.0,0.0,0.009114084723788952,0.5670121270870594,9.811253791664623,0.0,0.0,0.0,0.0,0.0,0.0,0.0,0.0,0.0
2025/05/06 15:12:26.72048360,1746537145,612511424,mA1/imu,0.7754887515026613,0.6313610176082444,0.0002928526315768207,0.0006131678906874872,0.0,0.0,0.0,0.0,0.0,0.0,0.0,0.0,0.0,0.0007739174761876851,-0.0010710532600326777,-0.00423278856620396,0.0,0.0,0.0,0.0,0.0,0.0,0.0,0.0,0.0,0.007307800408258337,-0.603729949630878,9.809267409339185,0.0,0.0,0.0,0.0,0.0,0.0,0.0,0.0,0.0
2025/05/06 15:12:26.72306437,1746537145,657141476,mA1/imu,0.7754221505256209,0.6314428144075915,0.0002612937432584758,0.0006263647665565095,0.0,0.0,0.0,0.0,0.0,0.0,0.0,0.0,0.0,0.0009250235925147068,-0.00145919218685375,-0.004214017785438275,0.0,0.0,0.0,0.0,0.0,0.0,0.0,0.0,0.0,0.006992142353032358,0.04978323102326512,9.810607659729769,0.0,0.0,0.0,0.0,0.0,0.0,0.0,0.0,0.0
2025/05/06 15:12:26.72352332,1746537145,710576464,mA1/imu,0.7753557774315414,0.6315242916747479,0.00023342122068922746,0.0006579838688691554,0.0,0.0,0.0,0.0,0.0,0.0,0.0,0.0,0.0,0.000832841332523933,-0.0017975421345295427,-0.004196636930121336,0.0,0.0,0.0,0.0,0.0,0.0,0.0,0.0,0.0,0.008611481485192108,0.055705191339425864,9.809542274047082,0.0,0.0,0.0,0.0,0.0,0.0,0.0,0.0,0.0
2025/05/06 15:12:26.72394428,1746537145,762676688,mA1/imu,0.7753014421940254,0.6315909748383971,0.0002282310080743147,0.0006798125876761633,0.0,0.0,0.0,0.0,0.0,0.0,0.0,0.0,0.0,-0.0008985306558482118,-0.00015140536229092178,-0.0029855735227129255,0.0,0.0,0.0,0.0,0.0,0.0,0.0,0.0,0.0,-0.037572485692721154,-0.05053520195540215,9.808129114879295,0.0,0.0,0.0,0.0,0.0,0.0,0.0,0.0,0.0
2025/05/06 15:12:26.72431093,1746537145,806034085,mA1/imu,0.7752584307692335,0.6316437574623828,0.00023625623587457997,0.0006880138217871218,0.0,0.0,0.0,0.0,0.0,0.0,0.0,0.0,0.0,0.00017201365512859755,-6.404691197899251e-07,-0.002656156255851966,0.0,0.0,0.0,0.0,0.0,0.0,0.0,0.0,0.0,0.0018981162242910988,-0.5876925871599269,9.807922901031398,0.0,0.0,0.0,0.0,0.0,0.0,0.0,0.0,0.0
2025/05/06 15:12:26.72466624,1746537145,859258881,mA1/imu,0.7752174028902602,0.6316940948850506,0.00024277194536273525,0.00069986085710219,0.0,0.0,0.0,0.0,0.0,0.0,0.0,0.0,0.0,3.648917919794652e-05,-0.00017180418638830232,-0.0025644012971603428,0.0,0.0,0.0,0.0,0.0,0.0,0.0,0.0,0.0,0.004838350332217196,0.04561442162296332,9.809915424999536,0.0,0.0,0.0,0.0,0.0,0.0,0.0,0.0,0.0
2025/05/06 15:12:26.72501900,1746537145,912704499,mA1/imu,0.7751776344888989,0.6317428602500595,0.00025559328729868493,0.0007267622310106781,0.0,0.0,0.0,0.0,0.0,0.0,0.0,0.0,0.0,-0.001983614771184125,-0.00034872618609325175,-0.00248552283565668,0.0,0.0,0.0,0.0,0.0,0.0,0.0,0.0,0.0,0.005324080085977907,0.5419437857581331,9.810969267398402,0.0,0.0,0.0,0.0,0.0,0.0,0.0,0.0,0.0
2025/05/06 15:12:26.72537495,1746537145,960447831,mA1/imu,0.7751390954478345,0.631790121584462,0.00025765386944202905,0.0007473895150634258,0.0,0.0,0.0,0.0,0.0,0.0,0.0,0.0,0.0,-3.799870381899175e-05,-0.0005108186924706481,-0.002409238256210961,0.0,0.0,0.0,0.0,0.0,0.0,0.0,0.0,0.0,0.004665897130485962,-0.3728290635450939,9.808757666175449,0.0,0.0,0.0,0.0,0.0,0.0,0.0,0.0,0.0
2025/05/06 15:12:26.72573024,1746537146,4345727,mA1/imu,0.7751017387619717,0.6318359133518263,0.0002626897604376063,0.0007772780207604632,0.0,0.0,0.0,0.0,0.0,0.0,0.0,0.0,0.0,-0.0012095981667599072,-0.0006504281110409513,-0.0023341341703257087,0.0,0.0,0.0,0.0,0.0,0.0,0.0,0.0,0.0,0.005353989126161015,0.5114596710372171,9.810803928062088,0.0,0.0,0.0,0.0,0.0,0.0,0.0,0.0,0.0
2025/05/06 15:12:26.72609104,1746537146,56500040,mA1/imu,0.775065541648603,0.6318802702255544,0.00026780693888111423,0.0008114974315490515,0.0,0.0,0.0,0.0,0.0,0.0,0.0,0.0,0.0,-0.0024973728621054056,-0.000732018554609216,-0.0022614287335706402,0.0,0.0,0.0,0.0,0.0,0.0,0.0,0.0,0.0,0.005048895134531709,0.5115272562743564,9.810517198024122,0.0,0.0,0.0,0.0,0.0,0.0,0.0,0.0,0.0
2025/05/06 15:12:26.146300917,1746537146,107559882,mA1/imu,0.7750304721123012,0.6319232393055412,0.00027035614658856754,0.0008448849208464832,0.0,0.0,0.0,0.0,0.0,0.0,0.0,0.0,0.0,-0.000937199833427307,-0.0007800304881971201,-0.002190688857025493,0.0,0.0,0.0,0.0,0.0,0.0,0.0,0.0,0.0,0.004279332556545206,-0.6411627520822696,9.809495088085027,0.0,0.0,0.0,0.0,0.0,0.0,0.0,0.0,0.0
2025/05/06 15:12:26.230449655,1746537146,160686735,mA1/imu,0.7749965042246171,0.6319648693872532,0.00026386453438446766,0.0008675687191530557,0.0,0.0,0.0,0.0,0.0,0.0,0.0,0.0,0.0,-0.0011208316866054497,-0.0007600815562641435,-0.0021226708914689947,0.0,0.0,0.0,0.0,0.0,0.0,0.0,0.0,0.0,0.004563308690300411,-0.0352929559330462,9.810349863608137,0.0,0.0,0.0,0.0,0.0,0.0,0.0,0.0,0.0
2025/05/06 15:12:26.363926858,1746537146,211047790,mA1/imu,0.7749635871113699,0.6320052002239133,0.0002606290910976173,0.0008930923168301317,0.0,0.0,0.0,0.0,0.0,0.0,0.0,0.0,0.0,-0.0003936241973101245,-0.0007242911981307163,-0.002056320434923497,0.0,0.0,0.0,0.0,0.0,0.0,0.0,0.0,0.0,0.004428810833082373,0.006082003497276511,9.810511677484893,0.0,0.0,0.0,0.0,0.0,0.0,0.0,0.0,0.0
2025/05/06 15:12:26.433565711,1746537146,257521711,mA1/imu,0.7749316982625131,0.63204426807053,0.0002577433207549549,0.0009164035933988078,0.0,0.0,0.0,0.0,0.0,0.0,0.0,0.0,0.0,-0.001456800217018159,-0.0006408818788500927,-0.001992071187604943,0.0,0.0,0.0,0.0,0.0,0.0,0.0,0.0,0.0,0.004561251224375732,0.5510479898798912,9.810517692242303,0.0,0.0,0.0,0.0,0.0,0.0,0.0,0.0,0.0
2025/05/06 15:12:26.458602648,1746537146,308749589,mA1/imu,0.7749007986820952,0.6320821216870819,0.000255903079067463,0.0009371013937689943,0.0,0.0,0.0,0.0,0.0,0.0,0.0,0.0,0.0,-0.0010865172621784289,-0.0005279426389135275,-0.0019301469627168997,0.0,0.0,0.0,0.0,0.0,0.0,0.0,0.0,0.0,0.004131633942538408,-0.06309794599114893,9.809705977740693,0.0,0.0,0.0,0.0,0.0,0.0,0.0,0.0,0.0
2025/05/06 15:12:26.485718742,1746537146,363487681,mA1/imu,0.7748708683185694,0.6321188098459772,0.00024522084788384754,0.0009420917509863418,0.0,0.0,0.0,0.0,0.0,0.0,0.0,0.0,0.0,0.0011171619450193863,-0.0003973457438496291,-0.0018704224492433008,0.0,0.0,0.0,0.0,0.0,0.0,0.0,0.0,0.0,0.004134474341901288,-0.5569231520859179,9.80979668042087,0.0,0.0,0.0,0.0,0.0,0.0,0.0,0.0,0.0
2025/05/06 15:12:27.84077210,1746537146,610784926,mA1/imu,0.7747344568052461,0.6322860484776682,0.00021650193676397126,0.0009096516295696718,0.0,0.0,0.0,0.0,0.0,0.0,0.0,0.0,0.0,1.9783358711520045e-05,0.00034337025796059864,-0.0016020555384239328,0.0,0.0,0.0,0.0,0.0,0.0,0.0,0.0,0.0,0.005133605574325503,0.5676732281782896,9.80968594743095,0.0,0.0,0.0,0.0,0.0,0.0,0.0,0.0,0.0
2025/05/06 15:12:27.84117476,1746537146,656727281,mA1/imu,0.7747095863116941,0.6323165485575769,0.00021376138307497883,0.0008908440204042035,0.0,0.0,0.0,0.0,0.0,0.0,0.0,0.0,0.0,0.00022226514600806515,0.00043294689153796577,-0.0015550761262724546,0.0,0.0,0.0,0.0,0.0,0.0,0.0,0.0,0.0,0.005442555538565401,0.5755111744361449,9.809907610596836,0.0,0.0,0.0,0.0,0.0,0.0,0.0,0.0,0.0
2025/05/06 15:12:27.84158855,1746537146,704846991,mA1/imu,0.7746854584316629,0.6323461449382827,0.00020886562107153483,0.000865939587376203,0.0,0.0,0.0,0.0,0.0,0.0,0.0,0.0,0.0,0.001004567917867019,0.0005031719852178015,-0.0015090633824082727,0.0,0.0,0.0,0.0,0.0,0.0,0.0,0.0,0.0,0.005500351449311002,-0.004379249571577702,9.809765737164787,0.0,0.0,0.0,0.0,0.0,0.0,0.0,0.0,0.0
2025/05/06 15:12:27.84194107,1746537146,767693117,mA1/imu,0.7746620474333283,0.6323748620064455,0.00020386702540934004,0.0008394087018480682,0.0,0.0,0.0,0.0,0.0,0.0,0.0,0.0,0.0,0.0028489382599524806,0.0005193665861540136,-0.0014637304479308286,0.0,0.0,0.0,0.0,0.0,0.0,0.0,0.0,0.0,0.005237582286624014,-0.5052064234841633,9.808167791615968,0.0,0.0,0.0,0.0,0.0,0.0,0.0,0.0,0.0
2025/05/06 15:12:27.84228437,1746537146,808713840,mA1/imu,0.7746393398184014,0.6324027133283129,0.00019993800061894308,0.000813268402726578,0.0,0.0,0.0,0.0,0.0,0.0,0.0,0.0,0.0,0.0017141831296482485,0.0005618983702374149,-0.0014202263397068825,0.0,0.0,0.0,0.0,0.0,0.0,0.0,0.0,0.0,0.0033056365658357626,0.0431878433810759,9.810488026172633,0.0,0.0,0.0,0.0,0.0,0.0,0.0,0.0,0.0
2025/05/06 15:12:27.84262848,1746537146,864231159,mA1/imu,0.774613959793858,0.6324338239308969,0.00019493044314515035,0.000796016799307307,0.0,0.0,0.0,0.0,0.0,0.0,0.0,0.0,0.0,0.0009505898077006445,8.6178250088323e-05,-0.0017266727555574181,0.0,0.0,0.0,0.0,0.0,0.0,0.0,0.0,0.0,0.019891275474522782,-0.0020529114941195033,9.809140765182722,0.0,0.0,0.0,0.0,0.0,0.0,0.0,0.0,0.0
2025/05/06 15:12:27.84296868,1746537146,905783092,mA1/imu,0.7745860881048617,0.6324679721702022,0.00018928694189974493,0.00078769522883017,0.0,0.0,0.0,0.0,0.0,0.0,0.0,0.0,0.0,0.001252336430431339,7.865233273009606e-05,-0.0017412700694859546,0.0,0.0,0.0,0.0,0.0,0.0,0.0,0.0,0.0,-0.0005369164526510452,-0.6040970353975157,9.809499023536317,0.0,0.0,0.0,0.0,0.0,0.0,0.0,0.0,0.0
2025/05/06 15:12:27.84331043,1746537146,962567856,mA1/imu,0.7745559421280033,0.6325049124404183,0.00017438974483928872,0.0007732018862888006,0.0,0.0,0.0,0.0,0.0,0.0,0.0,0.0,0.0,0.0011411078655988254,-0.00013962579162660513,-0.0019689722692157294,0.0,0.0,0.0,0.0,0.0,0.0,0.0,0.0,0.0,-0.0010363600454175934,-0.6028444745884928,9.809532842186876,0.0,0.0,0.0,0.0,0.0,0.0,0.0,0.0,0.0
2025/05/06 15:12:27.84364844,1746537147,9374970,mA1/imu,0.774525390447077,0.6325423420638187,0.00016356883350322797,0.0007604567437435624,0.0,0.0,0.0,0.0,0.0,0.0,0.0,0.0,0.0,0.0013372359154694982,6.971947879941989e-05,-0.0019098239608800567,0.0,0.0,0.0,0.0,0.0,0.0,0.0,0.0,0.0,-0.0002528146083672009,-0.010418961106938317,9.810303851465466,0.0,0.0,0.0,0.0,0.0,0.0,0.0,0.0,0.0
2025/05/06 15:12:27.84398804,1746537147,62540939,mA1/imu,0.7744957612756308,0.6325786310038105,0.00016380116233500355,0.0007513538482365045,0.0,0.0,0.0,0.0,0.0,0.0,0.0,0.0,0.0,0.0009336078320967717,0.0003416914259259477,-0.0018503551471225918,0.0,0.0,0.0,0.0,0.0,0.0,0.0,0.0,0.0,-0.0028612188199531492,0.27986402410315286,9.809959513203761,0.0,0.0,0.0,0.0,0.0,0.0,0.0,0.0,0.0
2025/05/06 15:12:27.114168227,1746537147,111698887,mA1/imu,0.774467010896971,0.6326138308167968,0.00017659769739464764,0.0007475993989758165,0.0,0.0,0.0,0.0,0.0,0.0,0.0,0.0,0.0,-0.0011439845156170653,0.0005881719108118493,-0.0017954303572779078,0.0,0.0,0.0,0.0,0.0,0.0,0.0,0.0,0.0,-0.0019631333406732975,0.5312537405223039,9.809560028742542,0.0,0.0,0.0,0.0,0.0,0.0,0.0,0.0,0.0
2025/05/06 15:12:27.158884961,1746537147,156762837,mA1/imu,0.7744391119896264,0.6326479934755965,0.00018943213743128273,0.0007364017148182521,0.0,0.0,0.0,0.0,0.0,0.0,0.0,0.0,0.0,0.00015722745048901807,0.0007450581285328836,-0.0017430058246638213,0.0,0.0,0.0,0.0,0.0,0.0,0.0,0.0,0.0,-0.0012834035026723558,-0.38797965255632216,9.80982864520781,0.0,0.0,0.0,0.0,0.0,0.0,0.0,0.0,0.0
2025/05/06 15:12:27.211922125,1746537147,210902247,mA1/imu,0.7744120215536557,0.6326811606415873,0.0002072577852517087,0.0007258695507859966,0.0,0.0,0.0,0.0,0.0,0.0,0.0,0.0,0.0,-0.00027236716661299936,0.0008657126501301227,-0.0016919402436819885,0.0,0.0,0.0,0.0,0.0,0.0,0.0,0.0,0.0,-0.0010297128958223819,-0.011149942592966023,9.810582360144837,0.0,0.0,0.0,0.0,0.0,0.0,0.0,0.0,0.0
2025/05/06 15:12:27.272089723,1746537147,266354323,mA1/imu,0.7743857267664593,0.6327133445569944,0.00023059741947656866,0.0007187661058966096,0.0,0.0,0.0,0.0,0.0,0.0,0.0,0.0,0.0,-0.0003612376596616549,0.0009239792949138778,-0.001641581842502154,0.0,0.0,0.0,0.0,0.0,0.0,0.0,0.0,0.0,-0.0005342224327415804,0.20866232797115142,9.809553649298087,0.0,0.0,0.0,0.0,0.0,0.0,0.0,0.0,0.0
2025/05/06 15:12:27.310610905,1746537147,307269404,mA1/imu,0.7743601939893919,0.6327445815393544,0.00026034467933355905,0.0007188309582931913,0.0,0.0,0.0,0.0,0.0,0.0,0.0,0.0,0.0,-0.0010953594772828241,0.0009160987180699527,-0.0015937187383038899,0.0,0.0,0.0,0.0,0.0,0.0,0.0,0.0,0.0,-0.0005100425305840173,-0.045686950197636536,9.809073552559472,0.0,0.0,0.0,0.0,0.0,0.0,0.0,0.0,0.0
2025/05/06 15:12:27.367508566,1746537147,363061444,mA1/imu,0.7743354143511887,0.6327748883027038,0.0002914352500170267,0.0007224130180666281,0.0,0.0,0.0,0.0,0.0,0.0,0.0,0.0,0.0,-0.0009994323533541237,0.0008312377453571207,-0.0015459234983692019,0.0,0.0,0.0,0.0,0.0,0.0,0.0,0.0,0.0,0.0011202288378401194,-0.66465362943639,9.809865911515175,0.0,0.0,0.0,0.0,0.0,0.0,0.0,0.0,0.0
2025/05/06 15:12:27.405618499,1746537147,404071857,mA1/imu,0.7743113844654799,0.6328042900581119,0.000311001667105987,0.0007166932146267945,0.0,0.0,0.0,0.0,0.0,0.0,0.0,0.0,0.0,0.0002620216511976416,0.000696133664854971,-0.0014999718024644683,0.0,0.0,0.0,0.0,0.0,0.0,0.0,0.0,0.0,0.0005983960945542266,-0.571197673262882,9.810226076076308,0.0,0.0,0.0,0.0,0.0,0.0,0.0,0.0,0.0
2025/05/06 15:12:27.461241204,1746537147,459509028,mA1/imu,0.7742880578409824,0.6328328105819062,0.00033657765622693766,0.0007239138940782353,0.0,0.0,0.0,0.0,0.0,0.0,0.0,0.0,0.0,-0.0006206373330500322,0.0005383732215254364,-0.0014549369818133541,0.0,0.0,0.0,0.0,0.0,0.0,0.0,0.0,0.0,0.0009585667034878943,-0.00045937364686383583,9.80949521749933,0.0,0.0,0.0,0.0,0.0,0.0,0.0,0.0,0.0
2025/05/06 15:12:27.512580195,1746537147,512101095,mA1/imu,0.7742654346428058,0.6328604542046155,0.00036430544073871114,0.000741284601668067,0.0,0.0,0.0,0.0,0.0,0.0,0.0,0.0,0.0,-0.0019755099919524645,0.00033689300103675776,-0.001410483162105817,0.0,0.0,0.0,0.0,0.0,0.0,0.0,0.0,0.0,0.0010881423926198566,-0.09263368542207269,9.80957227895747,0.0,0.0,0.0,0.0,0.0,0.0,0.0,0.0,0.0
2025/05/06 15:12:27.558628364,1746537147,556722631,mA1/imu,0.7742434901618506,0.6328872903627616,0.0003740634878335975,0.000745463470075243,0.0,0.0,0.0,0.0,0.0,0.0,0.0,0.0,0.0,-0.001347959202494531,0.00011597638189964433,-0.0013707817171816556,0.0,0.0,0.0,0.0,0.0,0.0,0.0,0.0,0.0,0.0017453655772487805,-0.05623844245172832,9.811230656169284,0.0,0.0,0.0,0.0,0.0,0.0,0.0,0.0,0.0
2025/05/06 15:12:27.610612922,1746537147,610301170,mA1/imu,0.7742221908864099,0.6329133279655216,0.0003817025663007312,0.000756786499887737,0.0,0.0,0.0,0.0,0.0,0.0,0.0,0.0,0.0,0.0002972823968030928,-0.00017044426149527458,-0.0013288967390905832,0.0,0.0,0.0,0.0,0.0,0.0,0.0,0.0,0.0,0.0036824285434526338,0.051729972211856184,9.811951671213947,0.0,0.0,0.0,0.0,0.0,0.0,0.0,0.0,0.0
2025/05/06 15:12:27.655890096,1746537147,655375621,mA1/imu,0.7742038179151768,0.632935774002903,0.00039314379353545267,0.0007744358380835868,0.0,0.0,0.0,0.0,0.0,0.0,0.0,0.0,0.0,-0.0015272463185606424,-0.0001716767487155788,-0.0011177114488884715,0.0,0.0,0.0,0.0,0.0,0.0,0.0,0.0,0.0,0.0038453884142707574,0.5500373222914973,9.810458110629455,0.0,0.0,0.0,0.0,0.0,0.0,0.0,0.0,0.0
2025/05/06 15:12:27.710274246,1746537147,708397260,mA1/imu,0.7741864477472717,0.632956994133241,0.00039728557964683556,0.0007936412549116235,0.0,0.0,0.0,0.0,0.0,0.0,0.0,0.0,0.0,-0.0012112856702799451,-0.00047222404011164316,-0.0010834422514126945,0.0,0.0,0.0,0.0,0.0,0.0,0.0,0.0,0.0,0.0033012432466730853,-0.06389435788857306,9.809487853116703,0.0,0.0,0.0,0.0,0.0,0.0,0.0,0.0,0.0
2025/05/06 15:12:27.756449652,1746537147,756179065,mA1/imu,0.7741696129461489,0.6329775762313592,0.0003863586422740672,0.0008056712003880757,0.0,0.0,0.0,0.0,0.0,0.0,0.0,0.0,0.0,0.00047910432547636217,-0.0007444835718651076,-0.0010515692721240703,0.0,0.0,0.0,0.0,0.0,0.0,0.0,0.0,0.0,0.003527706501978157,-0.5905062950075659,9.810198459513504,0.0,0.0,0.0,0.0,0.0,0.0,0.0,0.0,0.0
2025/05/06 15:12:27.811783356,1746537147,808438277,mA1/imu,0.7741532783214148,0.6329975420211733,0.00037108326850576756,0.0008220441392570912,0.0,0.0,0.0,0.0,0.0,0.0,0.0,0.0,0.0,0.0005376644928999668,-0.000978918857212301,-0.0010203182956107736,0.0,0.0,0.0,0.0,0.0,0.0,0.0,0.0,0.0,0.003929601913207453,0.030085272438849432,9.811110907317026,0.0,0.0,0.0,0.0,0.0,0.0,0.0,0.0,0.0
2025/05/06 15:12:27.865296490,1746537147,861291326,mA1/imu,0.7741374333076525,0.6330169007988956,0.00035417512584759903,0.0008439281850122065,0.0,0.0,0.0,0.0,0.0,0.0,0.0,0.0,0.0,-0.0008725491754608724,-0.001137511982433139,-0.0009893232645438726,0.0,0.0,0.0,0.0,0.0,0.0,0.0,0.0,0.0,0.0031731071482414943,0.5545348535930057,9.81010296031281,0.0,0.0,0.0,0.0,0.0,0.0,0.0,0.0,0.0
2025/05/06 15:12:27.912023804,1746537147,911051776,mA1/imu,0.7741220765412365,0.6330356658937073,0.0003316231806870378,0.0008639120676088169,0.0,0.0,0.0,0.0,0.0,0.0,0.0,0.0,0.0,-0.000562837588729759,-0.0012334184740534397,-0.0009586486325804436,0.0,0.0,0.0,0.0,0.0,0.0,0.0,0.0,0.0,0.0026652017153488148,-0.062245228120600515,9.80900829990533,0.0,0.0,0.0,0.0,0.0,0.0,0.0,0.0,0.0
2025/05/06 15:12:27.964162973,1746537147,963729741,mA1/imu,0.7741072079797287,0.6330538474131174,0.0003003289919322939,0.0008755751112641949,0.0,0.0,0.0,0.0,0.0,0.0,0.0,0.0,0.0,0.001187126616279265,-0.001270163576537172,-0.0009286348578065747,0.0,0.0,0.0,0.0,0.0,0.0,0.0,0.0,0.0,0.002760849428030218,-0.5847452089586002,9.809534402533917,0.0,0.0,0.0,0.0,0.0,0.0,0.0,0.0,0.0
2025/05/06 15:12:28.4914439,1746537148,4424060,mA1/imu,0.7740928151610948,0.6330714485546537,0.0002674166478284817,0.000884889382888021,0.0,0.0,0.0,0.0,0.0,0.0,0.0,0.0,0.0,0.0011766787704701402,-0.0012394428037884075,-0.0008989039088748245,0.0,0.0,0.0,0.0,0.0,0.0,0.0,0.0,0.0,0.0032714196557845736,0.032307033999059584,9.810695158339959,0.0,0.0,0.0,0.0,0.0,0.0,0.0,0.0,0.0
2025/05/06 15:12:28.59734133,1746537148,55964994,mA1/imu,0.7740788857886034,0.6330884750830914,0.00023912356111289887,0.0008967235709040208,0.0,0.0,0.0,0.0,0.0,0.0,0.0,0.0,0.0,-0.00030321996604671547,-0.0011280270043387425,-0.0008693515161434977,0.0,0.0,0.0,0.0,0.0,0.0,0.0,0.0,0.0,0.002684956344762033,0.5554935978753729,9.80962658271215,0.0,0.0,0.0,0.0,0.0,0.0,0.0,0.0,0.0
2025/05/06 15:12:28.111410685,1746537148,107926588,mA1/imu,0.7740654186332648,0.6331049405011961,0.00021157888127050457,0.0009040041273739618,0.0,0.0,0.0,0.0,0.0,0.0,0.0,0.0,0.0,-7.842688587654927e-05,-0.0009636375449509174,-0.0008403144137246031,0.0,0.0,0.0,0.0,0.0,0.0,0.0,0.0,0.0,0.002303547590320573,-0.06192185807364008,9.808585087587982,0.0,0.0,0.0,0.0,0.0,0.0,0.0,0.0,0.0
2025/05/06 15:12:28.162604952,1746537148,160709152,mA1/imu,0.7740524079063869,0.633120861452748,0.00018156623353388513,0.0009009114038819186,0.0,0.0,0.0,0.0,0.0,0.0,0.0,0.0,0.0,0.0015695807755984898,-0.0007654750852676836,-0.0008123088484709356,0.0,0.0,0.0,0.0,0.0,0.0,0.0,0.0,0.0,0.002631084108563152,-0.5848411267684499,9.809296963141664,0.0,0.0,0.0,0.0,0.0,0.0,0.0,0.0,0.0
2025/05/06 15:12:28.209060089,1746537148,206775908,mA1/imu,0.7740398312084742,0.6331362537583279,0.00015583273395656106,0.0008942011999912006,0.0,0.0,0.0,0.0,0.0,0.0,0.0,0.0,0.0,0.0014441259532113155,-0.0005346674839717557,-0.000785255705387116,0.0,0.0,0.0,0.0,0.0,0.0,0.0,0.0,0.0,0.0032591611130861203,0.03213647968291239,9.810531715121405,0.0,0.0,0.0,0.0,0.0,0.0,0.0,0.0,0.0
2025/05/06 15:12:28.263300663,1746537148,261310798,mA1/imu,0.7740276657104063,0.6331511364360276,0.00014001187782897905,0.0008896860910521554,0.0,0.0,0.0,0.0,0.0,0.0,0.0,0.0,0.0,-0.00016263934982198625,-0.0002710455082402812,-0.0007591174711595547,0.0,0.0,0.0,0.0,0.0,0.0,0.0,0.0,0.0,0.0031025425585020187,0.5552006053121362,9.80959308355702,0.0,0.0,0.0,0.0,0.0,0.0,0.0,0.0,0.0
2025/05/06 15:12:28.307170852,1746537148,305177644,mA1/imu,0.7740159007990749,0.6331655330161915,0.0001293102352584955,0.0008811296053798864,0.0,0.0,0.0,0.0,0.0,0.0,0.0,0.0,0.0,-6.617362638246944e-05,-4.769660706166386e-06,-0.0007340737607295166,0.0,0.0,0.0,0.0,0.0,0.0,0.0,0.0,0.0,0.0028052147819836934,-0.06215471396315858,9.808669274246402,0.0,0.0,0.0,0.0,0.0,0.0,0.0,0.0,0.0
2025/05/06 15:12:28.358111799,1746537148,357216312,mA1/imu,0.7740045224331332,0.6331794683640941,0.00011946920437773292,0.0008636100566385144,0.0,0.0,0.0,0.0,0.0,0.0,0.0,0.0,0.0,0.0014550201386176532,0.00023748614856146903,-0.0007105015581113647,0.0,0.0,0.0,0.0,0.0,0.0,0.0,0.0,0.0,0.0033971050295099683,-0.585017900933388,9.809492666953094,0.0,0.0,0.0,0.0,0.0,0.0,0.0,0.0,0.0
2025/05/06 15:12:28.409410012,1746537148,408708691,mA1/imu,0.7739935032168016,0.6331929642863524,0.00011608682272845389,0.0008446776274946847,0.0,0.0,0.0,0.0,0.0,0.0,0.0,0.0,0.0,0.0012091966303460423,0.00045852558894328454,-0.0006881389644432318,0.0,0.0,0.0,0.0,0.0,0.0,0.0,0.0,0.0,0.0040496847767363345,0.03197812716921446,9.810837990373697,0.0,0.0,0.0,0.0,0.0,0.0,0.0,0.0,0.0
2025/05/06 15:12:28.460743581,1746537148,460398968,mA1/imu,0.7739828185851768,0.63320604218378,0.0001231916427454493,0.0008303617993730004,0.0,0.0,0.0,0.0,0.0,0.0,0.0,0.0,0.0,-0.0004888660667300533,0.0006567941517270533,-0.0006668274951532455,0.0,0.0,0.0,0.0,0.0,0.0,0.0,0.0,0.0,0.004231419568911937,0.556255853650487,9.810017035828874,0.0,0.0,0.0,0.0,0.0,0.0,0.0,0.0,0.0
2025/05/06 15:12:28.511599897,1746537148,509752415,mA1/imu,0.7739724564975179,0.6332187244174816,0.00013537927814783975,0.000815660926074315,0.0,0.0,0.0,0.0,0.0,0.0,0.0,0.0,0.0,-0.0004943223900166392,0.0008102853167126585,-0.0006465045528007175,0.0,0.0,0.0,0.0,0.0,0.0,0.0,0.0,0.0,0.003932668232257911,-0.06179504273022387,9.809188406631254,0.0,0.0,0.0,0.0,0.0,0.0,0.0,0.0,0.0
2025/05/06 15:12:28.567295813,1746537148,564105711,mA1/imu,0.7739624053361448,0.6332310321625332,0.00014709631575508683,0.0007958613797816218,0.0,0.0,0.0,0.0,0.0,0.0,0.0,0.0,0.0,0.000951124866808343,0.0008974459743634731,-0.0006275688851450218,0.0,0.0,0.0,0.0,0.0,0.0,0.0,0.0,0.0,0.004467281855955883,-0.5848129008502418,9.810033602780555,0.0,0.0,0.0,0.0,0.0,0.0,0.0,0.0,0.0
2025/05/06 15:12:28.604586169,1746537148,604079566,mA1/imu,0.7739526398899671,0.633242985042031,0.00016244969859617006,0.0007789175208204999,0.0,0.0,0.0,0.0,0.0,0.0,0.0,0.0,0.0,0.0006545729276440658,0.000863787880924309,-0.0006101546404798897,0.0,0.0,0.0,0.0,0.0,0.0,0.0,0.0,0.0,0.010035454423924367,0.03198597557869184,9.811278423616736,0.0,0.0,0.0,0.0,0.0,0.0,0.0,0.0,0.0
2025/05/06 15:12:28.656449937,1746537148,655084271,mA1/imu,0.7739431282514981,0.633254611517919,0.00018246584500514028,0.0007732591997398387,0.0,0.0,0.0,0.0,0.0,0.0,0.0,0.0,0.0,-0.0010839817910710883,0.0006880144388155297,-0.0005937886395823626,0.0,0.0,0.0,0.0,0.0,0.0,0.0,0.0,0.0,0.010177954285054091,0.5551088468163324,9.81048863207067,0.0,0.0,0.0,0.0,0.0,0.0,0.0,0.0,0.0
2025/05/06 15:12:28.706296016,1746537148,705169261,mA1/imu,0.7739338666328934,0.6332659255682764,0.00020035912288163363,0.000772948274273602,0.0,0.0,0.0,0.0,0.0,0.0,0.0,0.0,0.0,-0.001077875253954294,0.00047850054762917235,-0.0005778821635529796,0.0,0.0,0.0,0.0,0.0,0.0,0.0,0.0,0.0,0.009634885558614036,-0.0623104603408971,9.809584649141502,0.0,0.0,0.0,0.0,0.0,0.0,0.0,0.0,0.0
2025/05/06 15:12:28.757200102,1746537148,756241599,mA1/imu,0.7739248512286986,0.6332769405896875,0.00021074037196314557,0.0007725001602341163,0.0,0.0,0.0,0.0,0.0,0.0,0.0,0.0,0.0,0.0004014128937103289,0.00023756600127295386,-0.0005630192254484614,0.0,0.0,0.0,0.0,0.0,0.0,0.0,0.0,0.0,0.00956477064089532,-0.5849782053567145,9.810239247712401,0.0,0.0,0.0,0.0,0.0,0.0,0.0,0.0,0.0
2025/05/06 15:12:28.806679318,1746537148,805943357,mA1/imu,0.7739160690725626,0.63328766312813,0.00021857438671120518,0.0007784511689356921,0.0,0.0,0.0,0.0,0.0,0.0,0.0,0.0,0.0,0.00016024880153556415,-9.238926616073985e-06,-0.0005484804306980454,0.0,0.0,0.0,0.0,0.0,0.0,0.0,0.0,0.0,0.00999092329806591,0.03197867293876612,9.81147088243726,0.0,0.0,0.0,0.0,0.0,0.0,0.0,0.0,0.0
2025/05/06 15:12:28.857881988,1746537148,857612985,mA1/imu,0.7739075129261154,0.6332980941102277,0.00022810125074536835,0.0007958659982479362,0.0,0.0,0.0,0.0,0.0,0.0,0.0,0.0,0.0,-0.001499859652091006,-0.00023814185643805392,-0.0005337229675533589,0.0,0.0,0.0,0.0,0.0,0.0,0.0,0.0,0.0,0.009754956787689537,0.5552191634467448,9.810584383319595,0.0,0.0,0.0,0.0,0.0,0.0,0.0,0.0,0.0
2025/05/06 15:12:28.909932773,1746537148,907702760,mA1/imu,0.7738991861455536,0.6333082402470611,0.00023367509563906988,0.0008172602829769282,0.0,0.0,0.0,0.0,0.0,0.0,0.0,0.0,0.0,-0.0013981940457527045,-0.0004480103358551799,-0.0005192063146654004,0.0,0.0,0.0,0.0,0.0,0.0,0.0,0.0,0.0,0.009131012160764493,-0.06218633728891904,9.809509485223646,0.0,0.0,0.0,0.0,0.0,0.0,0.0,0.0,0.0
2025/05/06 15:12:28.961494866,1746537148,960076555,mA1/imu,0.7738910901564524,0.6333181099929183,0.0002307103942821181,0.0008360048859208551,0.0,0.0,0.0,0.0,0.0,0.0,0.0,0.0,0.0,0.00018992461672585643,-0.0006360976919521388,-0.0005052636230464788,0.0,0.0,0.0,0.0,0.0,0.0,0.0,0.0,0.0,0.00897442817179799,-0.5849056878247235,9.809958793597039,0.0,0.0,0.0,0.0,0.0,0.0,0.0,0.0,0.0
2025/05/06 15:12:29.9423886,1746537149,9051274,mA1/imu,0.7738832137633213,0.6333277076682382,0.00022499862876708632,0.0008576308444051676,0.0,0.0,0.0,0.0,0.0,0.0,0.0,0.0,0.0,6.524611209496264e-05,-0.00078154279584555,-0.0004916392175980326,0.0,0.0,0.0,0.0,0.0,0.0,0.0,0.0,0.0,0.009345613963708673,0.032016260191839604,9.811169390731697,0.0,0.0,0.0,0.0,0.0,0.0,0.0,0.0,0.0
2025/05/06 15:12:29.61885271,1746537149,60666599,mA1/imu,0.773875546477165,0.6333370382155818,0.00022157112188570595,0.0008862816832334779,0.0,0.0,0.0,0.0,0.0,0.0,0.0,0.0,0.0,-0.001458410540756022,-0.0008616622014899862,-0.00047812394221937213,0.0,0.0,0.0,0.0,0.0,0.0,0.0,0.0,0.0,0.008746807141296966,0.5494063037556317,9.810191197153442,0.0,0.0,0.0,0.0,0.0,0.0,0.0,0.0,0.0
2025/05/06 15:12:29.112319401,1746537149,111588371,mA1/imu,0.7738680902344155,0.6333461118865581,0.00021546010117549978,0.0009138118312617287,0.0,0.0,0.0,0.0,0.0,0.0,0.0,0.0,0.0,-0.001248670142172665,-0.0008905964445736641,-0.0004649280392409564,0.0,0.0,0.0,0.0,0.0,0.0,0.0,0.0,0.0,0.008156727665625642,-0.06163569458388016,9.809060450989044,0.0,0.0,0.0,0.0,0.0,0.0,0.0,0.0,0.0
2025/05/06 15:12:29.164291196,1746537149,163070548,mA1/imu,0.7738608447379655,0.6333549402437162,0.00020290337871072255,0.0009335312207629134,0.0,0.0,0.0,0.0,0.0,0.0,0.0,0.0,0.0,0.00044385949696412367,-0.000875529354456702,-0.00045236123657169114,0.0,0.0,0.0,0.0,0.0,0.0,0.0,0.0,0.0,0.008045826505857766,-0.5847508641309095,9.809501119386848,0.0,0.0,0.0,0.0,0.0,0.0,0.0,0.0,0.0
2025/05/06 15:12:29.214514768,1746537149,212920340,mA1/imu,0.7738531928224758,0.6333642691796108,0.00019165874056062778,0.000949606215577675,0.0,0.0,0.0,0.0,0.0,0.0,0.0,0.0,0.0,0.0004068226253671353,-0.0006549801303532085,-0.0005097706038132264,0.0,0.0,0.0,0.0,0.0,0.0,0.0,0.0,0.0,0.002319627992732205,0.030016196716412192,9.811464988829027,0.0,0.0,0.0,0.0,0.0,0.0,0.0,0.0,0.0
2025/05/06 15:12:29.257467647,1746537149,256785624,mA1/imu,0.7738445091729715,0.6333748562754367,0.000189272741382414,0.000965006083868358,0.0,0.0,0.0,0.0,0.0,0.0,0.0,0.0,0.0,-0.0010619430110318095,-0.00034352149655111284,-0.0005736841252093094,0.0,0.0,0.0,0.0,0.0,0.0,0.0,0.0,0.0,0.0017205578898119474,0.5544751211429434,9.809015823156866,0.0,0.0,0.0,0.0,0.0,0.0,0.0,0.0,0.0
2025/05/06 15:12:29.307861350,1746537149,305661680,mA1/imu,0.7738347427465937,0.6333867766975254,0.00019037672216043938,0.0009725120747740446,0.0,0.0,0.0,0.0,0.0,0.0,0.0,0.0,0.0,-0.0007836251271966879,-1.6568002367470655e-05,-0.0006482378201688525,0.0,0.0,0.0,0.0,0.0,0.0,0.0,0.0,0.0,0.0008749062687487714,-0.061770919873475424,9.808013484923723,0.0,0.0,0.0,0.0,0.0,0.0,0.0,0.0,0.0
2025/05/06 15:12:29.358165775,1746537149,357335659,mA1/imu,0.7738236936459285,0.6334002852296651,0.00019024104217483845,0.0009662460851990926,0.0,0.0,0.0,0.0,0.0,0.0,0.0,0.0,0.0,0.0009487281412357355,0.00027551426545025263,-0.0007306429403576006,0.0,0.0,0.0,0.0,0.0,0.0,0.0,0.0,0.0,0.0019552878821783148,-0.5856263605032246,9.810127345998486,0.0,0.0,0.0,0.0,0.0,0.0,0.0,0.0,0.0
2025/05/06 15:12:29.407585521,1746537149,406988085,mA1/imu,0.7738120451673666,0.6334145361451785,0.00019600448683412342,0.000951701700555876,0.0,0.0,0.0,0.0,0.0,0.0,0.0,0.0,0.0,0.0009244421060118554,0.0008305070284062283,-0.0006646423021160335,0.0,0.0,0.0,0.0,0.0,0.0,0.0,0.0,0.0,-0.016702373223492814,0.026202483693659153,9.811277124245178,0.0,0.0,0.0,0.0,0.0,0.0,0.0,0.0,0.0
2025/05/06 15:12:29.461740294,1746537149,457975647,mA1/imu,0.7738040315022696,0.6334243520159354,0.0002205663512044007,0.0009286842907746635,0.0,0.0,0.0,0.0,0.0,0.0,0.0,0.0,0.0,-0.0005672878959783601,0.001666873579642369,-0.0003993281832832307,0.0,0.0,0.0,0.0,0.0,0.0,0.0,0.0,0.0,-0.015726236689706866,0.5528263931131342,9.808962079263038,0.0,0.0,0.0,0.0,0.0,0.0,0.0,0.0,0.0
2025/05/06 15:12:29.512938504,1746537149,511377898,mA1/imu,0.773800120070178,0.6334291706507564,0.0002589513411923216,0.0008904449877074791,0.0,0.0,0.0,0.0,0.0,0.0,0.0,0.0,0.0,-0.00033020457491984785,0.0024915280614564088,-0.00014846768309391116,0.0,0.0,0.0,0.0,0.0,0.0,0.0,0.0,0.0,-0.01888625029339972,-0.06296971110425723,9.808101603259,0.0,0.0,0.0,0.0,0.0,0.0,0.0,0.0,0.0
2025/05/06 15:12:29.565521116,1746537149,562476176,mA1/imu,0.7738001507070201,0.6334291912275669,0.0003054042793981441,0.0008325832146991443,0.0,0.0,0.0,0.0,0.0,0.0,0.0,0.0,0.0,0.0013393191997283227,0.003163626905627872,0.00010047622037483506,0.0,0.0,0.0,0.0,0.0,0.0,0.0,0.0,0.0,-0.017506374952230126,-0.5881815798874591,9.81034454481822,0.0,0.0,0.0,0.0,0.0,0.0,0.0,0.0,0.0
2025/05/06 15:12:29.612938310,1746537149,612478412,mA1/imu,0.7738034396479878,0.6334252284175275,0.00036109982264677994,0.0007657676305655513,0.0,0.0,0.0,0.0,0.0,0.0,0.0,0.0,0.0,0.0012672567281725626,0.0034568286243135903,0.00021908299313208037,0.0,0.0,0.0,0.0,0.0,0.0,0.0,0.0,0.0,-0.0024772758724390647,0.03442602452177673,9.81155311353521,0.0,0.0,0.0,0.0,0.0,0.0,0.0,0.0,0.0
2025/05/06 15:12:29.656607729,1746537149,655415713,mA1/imu,0.7738062964892429,0.6334217737252273,0.0004199564602457001,0.0007040745417965948,0.0,0.0,0.0,0.0,0.0,0.0,0.0,0.0,0.0,-0.00024779262584891007,0.003301167173978038,0.0001575207228354726,0.0,0.0,0.0,0.0,0.0,0.0,0.0,0.0,0.0,-0.0016722521027273162,0.5584194013423032,9.809182274026027,0.0,0.0,0.0,0.0,0.0,0.0,0.0,0.0,0.0
2025/05/06 15:12:29.708705536,1746537149,706842159,mA1/imu,0.7738079553999317,0.6334197735114404,0.00047223951238774904,0.0006447281101447786,0.0,0.0,0.0,0.0,0.0,0.0,0.0,0.0,0.0,-4.323503720320632e-05,0.0029950399903208836,6.748816454364721e-05,0.0,0.0,0.0,0.0,0.0,0.0,0.0,0.0,0.0,-0.003162216430817183,-0.05749178284951674,9.808457694573297,0.0,0.0,0.0,0.0,0.0,0.0,0.0,0.0,0.0
2025/05/06 15:12:29.759193688,1746537149,757794645,mA1/imu,0.7738080939551926,0.6334196324905566,0.0005105627149309309,0.0005850048499685747,0.0,0.0,0.0,0.0,0.0,0.0,0.0,0.0,0.0,0.0015846364378029505,0.0024921153344478744,-2.8297242725971162e-05,0.0,0.0,0.0,0.0,0.0,0.0,0.0,0.0,0.0,-0.0013242292030107255,-0.5814384951545828,9.810814300269366,0.0,0.0,0.0,0.0,0.0,0.0,0.0,0.0,0.0
2025/05/06 15:12:29.809128997,1746537149,807604273,mA1/imu,0.7738067276436947,0.6334213234909349,0.0005379364938048889,0.0005346257359394992,0.0,0.0,0.0,0.0,0.0,0.0,0.0,0.0,0.0,0.0014428174915149042,0.001846927221864154,-0.00012293626092829064,0.0,0.0,0.0,0.0,0.0,0.0,0.0,0.0,0.0,-0.00047298942208907945,0.03573417918876726,9.81197547928648,0.0,0.0,0.0,0.0,0.0,0.0,0.0,0.0,0.0
2025/05/06 15:12:29.855837998,1746537149,854797901,mA1/imu,0.7738038766886172,0.6334248167143615,0.0005569679172534077,0.000501775631059401,0.0,0.0,0.0,0.0,0.0,0.0,0.0,0.0,0.0,-0.00017226199943280905,0.0011143946305583864,-0.00021641905009708344,0.0,0.0,0.0,0.0,0.0,0.0,0.0,0.0,0.0,-0.0010491867132002186,0.5599710057160613,9.809590911278047,0.0,0.0,0.0,0.0,0.0,0.0,0.0,0.0,0.0
2025/05/06 15:12:29.905472498,1746537149,905097151,mA1/imu,0.7737993613707185,0.633430344821555,0.0005611485158446289,0.00048136665589103983,0.0,0.0,0.0,0.0,0.0,0.0,0.0,0.0,0.0,-7.070909132876535e-05,0.0003464029505180426,-0.00033508775755768425,0.0,0.0,0.0,0.0,0.0,0.0,0.0,0.0,0.0,-0.002696190252500906,-0.05564763495519966,9.80875098867767,0.0,0.0,0.0,0.0,0.0,0.0,0.0,0.0,0.0
2025/05/06 15:12:29.958267907,1746537149,956828982,mA1/imu,0.773792908195147,0.6334382510444528,0.0005456625237351764,0.0004686075667982044,0.0,0.0,0.0,0.0,0.0,0.0,0.0,0.0,0.0,0.0014536297326027093,-0.00047861460929959703,-0.0004567149123943689,0.0,0.0,0.0,0.0,0.0,0.0,0.0,0.0,0.0,-0.0009996719757623756,-0.5796372192154351,9.81090546434614,0.0,0.0,0.0,0.0,0.0,0.0,0.0,0.0,0.0
2025/05/06 15:12:30.6847760,1746537150,6107732,mA1/imu,0.7737843726725026,0.6334487024807992,0.0005156999785110702,0.0004690274467748475,0.0,0.0,0.0,0.0,0.0,0.0,0.0,0.0,0.0,0.0013181366365218766,-0.0012439721387230655,-0.0005989101285276878,0.0,0.0,0.0,0.0,0.0,0.0,0.0,0.0,0.0,-0.0016249773178075612,0.04582044618653284,9.811863836544697,0.0,0.0,0.0,0.0,0.0,0.0,0.0,0.0,0.0
2025/05/06 15:12:30.59218376,1746537150,57575102,mA1/imu,0.7737735217140249,0.633461968182323,0.00048072886744984165,0.0004907755178000655,0.0,0.0,0.0,0.0,0.0,0.0,0.0,0.0,0.0,-0.000696175819263776,-0.0019046230656494748,-0.0007425565624719476,0.0,0.0,0.0,0.0,0.0,0.0,0.0,0.0,0.0,-0.00319248935307669,0.5466545806601443,9.810161346719129,0.0,0.0,0.0,0.0,0.0,0.0,0.0,0.0,0.0
2025/05/06 15:12:30.109685272,1746537150,108992718,mA1/imu,0.7737605619177697,0.633477812792057,0.0004296786529453302,0.0005185529327134731,0.0,0.0,0.0,0.0,0.0,0.0,0.0,0.0,0.0,0.00023208598153270343,-0.0025316875702374665,-0.0008695131080597411,0.0,0.0,0.0,0.0,0.0,0.0,0.0,0.0,0.0,-0.001545035987659209,-0.04187624732733493,9.810376313930165,0.0,0.0,0.0,0.0,0.0,0.0,0.0,0.0,0.0
2025/05/06 15:12:30.162749686,1746537150,159991336,mA1/imu,0.7737458396184075,0.633495800702168,0.00036953861174924256,0.0005564235248614205,0.0,0.0,0.0,0.0,0.0,0.0,0.0,0.0,0.0,-0.0001045731468687594,-0.002972649732717599,-0.0009726586672924557,0.0,0.0,0.0,0.0,0.0,0.0,0.0,0.0,0.0,-0.005139127999883376,0.5254328827485408,9.811078999057345,0.0,0.0,0.0,0.0,0.0,0.0,0.0,0.0,0.0
2025/05/06 15:12:30.213479887,1746537150,210422149,mA1/imu,0.7737293022105662,0.6335159849976616,0.00030988478914911196,0.0006063205509478525,0.0,0.0,0.0,0.0,0.0,0.0,0.0,0.0,0.0,-8.067493705260705e-05,-0.003177553988630105,-0.0010992337998197094,0.0,0.0,0.0,0.0,0.0,0.0,0.0,0.0,0.0,-0.006218906416625011,-0.2574584851186458,9.809626570315274,0.0,0.0,0.0,0.0,0.0,0.0,0.0,0.0,0.0
2025/05/06 15:12:30.262731349,1746537150,261594835,mA1/imu,0.7737107292117493,0.6335386409455784,0.00024893896173820186,0.000660273311674592,0.0,0.0,0.0,0.0,0.0,0.0,0.0,0.0,0.0,-0.00037854583603751595,-0.003283476628934288,-0.0012278812853064999,0.0,0.0,0.0,0.0,0.0,0.0,0.0,0.0,0.0,-0.005896856629075543,-0.18075711886791387,9.813306443879974,0.0,0.0,0.0,0.0,0.0,0.0,0.0,0.0,0.0
2025/05/06 15:12:30.313025205,1746537150,311281229,mA1/imu,0.7736898817028836,0.6335640719261458,0.0001831636321353583,0.0007072241676848217,0.0,0.0,0.0,0.0,0.0,0.0,0.0,0.0,0.0,-0.00030498551143941954,-0.003124609157007962,-0.0013866785784453356,0.0,0.0,0.0,0.0,0.0,0.0,0.0,0.0,0.0,-0.008696087220433125,-0.009297467895737148,9.808062936188401,0.0,0.0,0.0,0.0,0.0,0.0,0.0,0.0,0.0
2025/05/06 15:12:30.366308586,1746537150,362142632,mA1/imu,0.7736664388893129,0.6335926551125799,0.00012830146528173083,0.0007564803066602907,0.0,0.0,0.0,0.0,0.0,0.0,0.0,0.0,0.0,-0.0009029963628922825,-0.0027922241637456566,-0.0015415370168751288,0.0,0.0,0.0,0.0,0.0,0.0,0.0,0.0,0.0,-0.00931358682695866,0.5833341166805688,9.810895529714555,0.0,0.0,0.0,0.0,0.0,0.0,0.0,0.0,0.0
2025/05/06 15:12:30.415284049,1746537150,412743538,mA1/imu,0.7736402856558046,0.6336245404415398,8.302447139257462e-05,0.0008020396436201605,0.0,0.0,0.0,0.0,0.0,0.0,0.0,0.0,0.0,-0.00020345949993749284,-0.002360610015575679,-0.0017278936446813355,0.0,0.0,0.0,0.0,0.0,0.0,0.0,0.0,0.0,-0.008091390046966202,0.3448156091639697,9.810254770293163,0.0,0.0,0.0,0.0,0.0,0.0,0.0,0.0,0.0
2025/05/06 15:12:30.456514139,1746537150,455945465,mA1/imu,0.7736113343018004,0.6336598294326082,5.537951396915943e-05,0.0008490796990644181,0.0,0.0,0.0,0.0,0.0,0.0,0.0,0.0,0.0,0.0001231755304019163,-0.0018483848024753793,-0.001892531382787882,0.0,0.0,0.0,0.0,0.0,0.0,0.0,0.0,0.0,-0.0044826133459697475,-0.5971952302197413,9.808404886455,0.0,0.0,0.0,0.0,0.0,0.0,0.0,0.0,0.0
2025/05/06 15:12:30.508180552,1746537150,505899934,mA1/imu,0.7735797039973858,0.6336984127255114,2.8216522557099008e-05,0.0008731988959473995,0.0,0.0,0.0,0.0,0.0,0.0,0.0,0.0,0.0,0.00018148440198374716,-0.0012072954686918006,-0.002061994344662144,0.0,0.0,0.0,0.0,0.0,0.0,0.0,0.0,0.0,-0.0036817986970072974,-0.09281873874551781,9.809858149799316,0.0,0.0,0.0,0.0,0.0,0.0,0.0,0.0,0.0
2025/05/06 15:12:30.560939903,1746537150,559109002,mA1/imu,0.773545677797415,0.6337399133414938,2.1157963382101904e-05,0.0008978592285920574,0.0,0.0,0.0,0.0,0.0,0.0,0.0,0.0,0.0,-0.001794863962857406,-0.000609893519930846,-0.0022051642119759896,0.0,0.0,0.0,0.0,0.0,0.0,0.0,0.0,0.0,-0.002826931508086621,0.5342264247452401,9.810891683604122,0.0,0.0,0.0,0.0,0.0,0.0,0.0,0.0,0.0
2025/05/06 15:12:30.609295777,1746537150,608939973,mA1/imu,0.7735093470454583,0.6337842498724944,1.780228325700225e-05,0.0009024023199686923,0.0,0.0,0.0,0.0,0.0,0.0,0.0,0.0,0.0,-0.0006012713575744237,9.627100616706512e-05,-0.0023581867583258023,0.0,0.0,0.0,0.0,0.0,0.0,0.0,0.0,0.0,-0.008427598282901537,-0.011021119979145379,9.806323290211795,0.0,0.0,0.0,0.0,0.0,0.0,0.0,0.0,0.0
2025/05/06 15:12:30.660676235,1746537150,660393242,mA1/imu,0.7734705621690261,0.6338315831164409,3.075327243537272e-05,0.0009015299624761199,0.0,0.0,0.0,0.0,0.0,0.0,0.0,0.0,0.0,0.00046870838788339004,0.000657597364362021,-0.0025090393375600873,0.0,0.0,0.0,0.0,0.0,0.0,0.0,0.0,0.0,-0.00496962255785322,0.05932370465612615,9.808319770259265,0.0,0.0,0.0,0.0,0.0,0.0,0.0,0.0,0.0
2025/05/06 15:12:30.711931128,1746537150,711039628,mA1/imu,0.7734293163898505,0.633881914348748,6.0516838406176124e-05,0.0008986367494943857,0.0,0.0,0.0,0.0,0.0,0.0,0.0,0.0,0.0,-0.0016254529028536628,0.001222151828911798,-0.0026638997654645294,0.0,0.0,0.0,0.0,0.0,0.0,0.0,0.0,0.0,-0.0039052929412834603,0.5377251849373957,9.808869057218347,0.0,0.0,0.0,0.0,0.0,0.0,0.0,0.0,0.0
2025/05/06 15:12:30.763187084,1746537150,762147299,mA1/imu,0.773385975137484,0.6339348135103172,9.496015935229633e-05,0.0008812847726709823,0.0,0.0,0.0,0.0,0.0,0.0,0.0,0.0,0.0,-0.001045725573851794,0.0017426667270991467,-0.0027320458275364107,0.0,0.0,0.0,0.0,0.0,0.0,0.0,0.0,0.0,-0.009781690510198107,-0.26451351921833754,9.809256807044997,0.0,0.0,0.0,0.0,0.0,0.0,0.0,0.0,0.0
2025/05/06 15:12:30.806719795,1746537150,805252067,mA1/imu,0.7733446241729262,0.6339852955712202,0.00013542665465788917,0.0008478926403442485,0.0,0.0,0.0,0.0,0.0,0.0,0.0,0.0,0.0,-0.0002828237964327814,0.0023383206196869004,-0.002528248693718186,0.0,0.0,0.0,0.0,0.0,0.0,0.0,0.0,0.0,-0.010081110168259907,-0.0038259051602957117,9.811432335912112,0.0,0.0,0.0,0.0,0.0,0.0,0.0,0.0,0.0
2025/05/06 15:12:30.856338610,1746537150,855762981,mA1/imu,0.773306718840558,0.6340315742779592,0.00018440810829720074,0.0008046168730110164,0.0,0.0,0.0,0.0,0.0,0.0,0.0,0.0,0.0,-0.0007931379179234828,0.002785512703785553,-0.0023085053996326865,0.0,0.0,0.0,0.0,0.0,0.0,0.0,0.0,0.0,-0.0078042212524016275,0.5861105322902374,9.809937688883643,0.0,0.0,0.0,0.0,0.0,0.0,0.0,0.0,0.0
2025/05/06 15:12:30.907215852,1746537150,905826485,mA1/imu,0.773272297248725,0.6340735875839099,0.0002439634353925242,0.0007617860537361624,0.0,0.0,0.0,0.0,0.0,0.0,0.0,0.0,0.0,-0.0006165891079234538,0.003030700141141839,-0.002081254379138611,0.0,0.0,0.0,0.0,0.0,0.0,0.0,0.0,0.0,-0.008796144487590194,0.594786759733056,9.811165174296539,0.0,0.0,0.0,0.0,0.0,0.0,0.0,0.0,0.0
2025/05/06 15:12:30.961599866,1746537150,959724862,mA1/imu,0.7732410495293972,0.6341117223631547,0.0003039269200003056,0.0007145017402153696,0.0,0.0,0.0,0.0,0.0,0.0,0.0,0.0,0.0,-0.0003145794872341064,0.0030601783675497773,-0.001893486281275432,0.0,0.0,0.0,0.0,0.0,0.0,0.0,0.0,0.0,-0.0036352523958944945,-0.026980778445540796,9.81179903711968,0.0,0.0,0.0,0.0,0.0,0.0,0.0,0.0,0.0
2025/05/06 15:12:31.10752740,1746537151,10450533,mA1/imu,0.7732128619688473,0.6341461267384645,0.00035496833678748483,0.0006588065174389158,0.0,0.0,0.0,0.0,0.0,0.0,0.0,0.0,0.0,0.0012366240914607489,0.002905269716384522,-0.0017013245617512427,0.0,0.0,0.0,0.0,0.0,0.0,0.0,0.0,0.0,-0.0023083802323621205,-0.38941199771448476,9.810846679115693,0.0,0.0,0.0,0.0,0.0,0.0,0.0,0.0,0.0
2025/05/06 15:12:31.65397868,1746537151,61686986,mA1/imu,0.773187706201836,0.6341768135018877,0.0004056783791237138,0.0006128784447146423,0.0,0.0,0.0,0.0,0.0,0.0,0.0,0.0,0.0,-0.0001912072873238243,0.0025699938104795845,-0.001508812460008731,0.0,0.0,0.0,0.0,0.0,0.0,0.0,0.0,0.0,-0.0006757044825164728,-0.03302408391266367,9.810588909284034,0.0,0.0,0.0,0.0,0.0,0.0,0.0,0.0,0.0
2025/05/06 15:12:31.112881404,1746537151,112001934,mA1/imu,0.7731654820986581,0.6342039233848349,0.00044289008451276325,0.0005698269957593625,0.0,0.0,0.0,0.0,0.0,0.0,0.0,0.0,0.0,0.0005515050858585715,0.0020116386154872793,-0.001330411173733613,0.0,0.0,0.0,0.0,0.0,0.0,0.0,0.0,0.0,-0.00021697381328524142,-0.16162782512605073,9.810926267629261,0.0,0.0,0.0,0.0,0.0,0.0,0.0,0.0,0.0
2025/05/06 15:12:31.166139287,1746537151,164301222,mA1/imu,0.7731460645250825,0.6342276094893788,0.0004662189732243084,0.0005337702073378405,0.0,0.0,0.0,0.0,0.0,0.0,0.0,0.0,0.0,0.0009398822633888179,0.0013690544652612466,-0.0011522059247871799,0.0,0.0,0.0,0.0,0.0,0.0,0.0,0.0,0.0,0.0005113388671900052,-0.2822676796946065,9.810656518528408,0.0,0.0,0.0,0.0,0.0,0.0,0.0,0.0,0.0
2025/05/06 15:12:31.206033806,1746537151,204080129,mA1/imu,0.7731295661551273,0.6342477338529101,0.0004763583136787947,0.0005090402634900962,0.0,0.0,0.0,0.0,0.0,0.0,0.0,0.0,0.0,0.0011042222265922302,0.000641877522325732,-0.0009644201504790097,0.0,0.0,0.0,0.0,0.0,0.0,0.0,0.0,0.0,0.0012543874295282492,0.12535274897889825,9.81137652524346,0.0,0.0,0.0,0.0,0.0,0.0,0.0,0.0,0.0
