time,header_stamp_secs,header_stamp_nsecs,header_frame_id,child_frame_id,pose_pose_position_x,pose_pose_position_y,pose_pose_position_z,pose_pose_orientation_x,pose_pose_orientation_y,pose_pose_orientation_z,pose_pose_orientation_w,pose_covariance_0,pose_covariance_1,pose_covariance_2,pose_covariance_3,pose_covariance_4,pose_covariance_5,pose_covariance_6,pose_covariance_7,pose_covariance_8,pose_covariance_9,pose_covariance_10,pose_covariance_11,pose_covariance_12,pose_covariance_13,pose_covariance_14,pose_covariance_15,pose_covariance_16,pose_covariance_17,pose_covariance_18,pose_covariance_19,pose_covariance_20,pose_covariance_21,pose_covariance_22,pose_covariance_23,pose_covariance_24,pose_covariance_25,pose_covariance_26,pose_covariance_27,pose_covariance_28,pose_covariance_29,pose_covariance_30,pose_covariance_31,pose_covariance_32,pose_covariance_33,pose_covariance_34,pose_covariance_35,twist_twist_linear_x,twist_twist_linear_y,twist_twist_linear_z,twist_twist_angular_x,twist_twist_angular_y,twist_twist_angular_z,twist_covariance_0,twist_covariance_1,twist_covariance_2,twist_covariance_3,twist_covariance_4,twist_covariance_5,twist_covariance_6,twist_covariance_7,twist_covariance_8,twist_covariance_9,twist_covariance_10,twist_covariance_11,twist_covariance_12,twist_covariance_13,twist_covariance_14,twist_covariance_15,twist_covariance_16,twist_covariance_17,twist_covariance_18,twist_covariance_19,twist_covariance_20,twist_covariance_21,twist_covariance_22,twist_covariance_23,twist_covariance_24,twist_covariance_25,twist_covariance_26,twist_covariance_27,twist_covariance_28,twist_covariance_29,twist_covariance_30,twist_covariance_31,twist_covariance_32,twist_covariance_33,twist_covariance_34,twist_covariance_35
2025/05/06 15:12:23.224885707,1746537143,223025242,world_ned,mA1/odom,3.489187040513788,-0.336271952723561,0.4336888864014941,-0.00040017906957223243,4.197185606763551e-05,-0.10325956129216758,0.994654362628961,0.0,0.0,0.0,0.0,0.0,0.0,0.0,0.0,0.0,0.0,0.0,0.0,0.0,0.0,0.0,0.0,0.0,0.0,0.0,0.0,0.0,0.0,0.0,0.0,0.0,0.0,0.0,0.0,0.0,0.0,0.0,0.0,0.0,0.0,0.0,0.0,-0.0030921863613093416,1.781100782892752e-06,6.2253578771634106e-06,-6.282077402077613e-07,0.0008536560193181989,1.5911018708500201e-06,0.0,0.0,0.0,0.0,0.0,0.0,0.0,0.0,0.0,0.0,0.0,0.0,0.0,0.0,0.0,0.0,0.0,0.0,0.0,0.0,0.0,0.0,0.0,0.0,0.0,0.0,0.0,0.0,0.0,0.0,0.0,0.0,0.0,0.0,0.0,0.0
2025/05/06 15:12:23.316992956,1746537143,316615696,world_ned,mA1/odom,3.489190977344629,-0.3362725871722328,0.43368945842291595,-0.0004003626632454231,4.058260814327126e-05,-0.10325948037434565,0.9946543710131726,0.0,0.0,0.0,0.0,0.0,0.0,0.0,0.0,0.0,0.0,0.0,0.0,0.0,0.0,0.0,0.0,0.0,0.0,0.0,0.0,0.0,0.0,0.0,0.0,0.0,0.0,0.0,0.0,0.0,0.0,0.0,0.0,0.0,0.0,0.0,0.0,0.003076537706065777,1.2812710912683675e-06,5.159522817997282e-06,1.9924593958519645e-07,-0.000883144985289862,1.6388754373281522e-06,0.0,0.0,0.0,0.0,0.0,0.0,0.0,0.0,0.0,0.0,0.0,0.0,0.0,0.0,0.0,0.0,0.0,0.0,0.0,0.0,0.0,0.0,0.0,0.0,0.0,0.0,0.0,0.0,0.0,0.0,0.0,0.0,0.0,0.0,0.0,0.0
2025/05/06 15:12:23.420924251,1746537143,419477437,world_ned,mA1/odom,3.4891865183476045,-0.33627158342311686,0.43368961390564387,-0.00040030279918374626,4.056053262131032e-05,-0.1032594000275014,0.9946543793793262,0.0,0.0,0.0,0.0,0.0,0.0,0.0,0.0,0.0,0.0,0.0,0.0,0.0,0.0,0.0,0.0,0.0,0.0,0.0,0.0,0.0,0.0,0.0,0.0,0.0,0.0,0.0,0.0,0.0,0.0,0.0,0.0,0.0,0.0,0.0,0.0,-0.003074554593288694,9.24489506887578e-07,-3.527572535368048e-07,8.162087924948003e-07,0.0008522585233084078,1.5933063141478239e-06,0.0,0.0,0.0,0.0,0.0,0.0,0.0,0.0,0.0,0.0,0.0,0.0,0.0,0.0,0.0,0.0,0.0,0.0,0.0,0.0,0.0,0.0,0.0,0.0,0.0,0.0,0.0,0.0,0.0,0.0,0.0,0.0,0.0,0.0,0.0,0.0
2025/05/06 15:12:23.517832415,1746537143,517199656,world_ned,mA1/odom,3.4891920411724975,-0.3362716552660962,0.4336894549965832,-0.00040071768326033024,3.942959177551923e-05,-0.10325945586151652,0.9946543734613693,0.0,0.0,0.0,0.0,0.0,0.0,0.0,0.0,0.0,0.0,0.0,0.0,0.0,0.0,0.0,0.0,0.0,0.0,0.0,0.0,0.0,0.0,0.0,0.0,0.0,0.0,0.0,0.0,0.0,0.0,0.0,0.0,0.0,0.0,0.0,0.0,0.0031269200795165666,4.386398121485816e-05,-4.278881975785894e-06,-2.6061351582943843e-05,-0.000866783207366635,-2.589823595226865e-05,0.0,0.0,0.0,0.0,0.0,0.0,0.0,0.0,0.0,0.0,0.0,0.0,0.0,0.0,0.0,0.0,0.0,0.0,0.0,0.0,0.0,0.0,0.0,0.0,0.0,0.0,0.0,0.0,0.0,0.0,0.0,0.0,0.0,0.0,0.0,0.0
2025/05/06 15:12:23.619794941,1746537143,619066720,world_ned,mA1/odom,3.4892134240494554,-0.33626471278883996,0.4336886331668033,-0.00040402867858343756,4.2551965254495345e-05,-0.10326816791307415,0.9946534675182278,0.0,0.0,0.0,0.0,0.0,0.0,0.0,0.0,0.0,0.0,0.0,0.0,0.0,0.0,0.0,0.0,0.0,0.0,0.0,0.0,0.0,0.0,0.0,0.0,0.0,0.0,0.0,0.0,0.0,0.0,0.0,0.0,0.0,0.0,0.0,0.0,-0.002687533701875662,0.00016801658912018853,-9.50859760817019e-06,-0.00010980767677904085,0.0009385730290521843,-0.00029479051479833467,0.0,0.0,0.0,0.0,0.0,0.0,0.0,0.0,0.0,0.0,0.0,0.0,0.0,0.0,0.0,0.0,0.0,0.0,0.0,0.0,0.0,0.0,0.0,0.0,0.0,0.0,0.0,0.0,0.0,0.0,0.0,0.0,0.0,0.0,0.0,0.0
2025/05/06 15:12:23.725530318,1746537143,721245469,world_ned,mA1/odom,3.489279121391975,-0.33625476307753066,0.43368768706365024,-0.0004108226107711439,4.7593271160094565e-05,-0.10328976169266114,0.9946512223333043,0.0,0.0,0.0,0.0,0.0,0.0,0.0,0.0,0.0,0.0,0.0,0.0,0.0,0.0,0.0,0.0,0.0,0.0,0.0,0.0,0.0,0.0,0.0,0.0,0.0,0.0,0.0,0.0,0.0,0.0,0.0,0.0,0.0,0.0,0.0,0.0,0.003799626183412589,0.0002812785490552951,-9.21165731179822e-06,-0.0001674244078586426,-0.000747820272204599,-0.0005453447521696253,0.0,0.0,0.0,0.0,0.0,0.0,0.0,0.0,0.0,0.0,0.0,0.0,0.0,0.0,0.0,0.0,0.0,0.0,0.0,0.0,0.0,0.0,0.0,0.0,0.0,0.0,0.0,0.0,0.0,0.0,0.0,0.0,0.0,0.0,0.0,0.0
2025/05/06 15:12:23.828782298,1746537143,816621224,world_ned,mA1/odom,3.4893668030396845,-0.3362389439739616,0.43368663003022356,-0.0004190398549381933,5.605482026093332e-05,-0.10332333841857602,0.9946477311096112,0.0,0.0,0.0,0.0,0.0,0.0,0.0,0.0,0.0,0.0,0.0,0.0,0.0,0.0,0.0,0.0,0.0,0.0,0.0,0.0,0.0,0.0,0.0,0.0,0.0,0.0,0.0,0.0,0.0,0.0,0.0,0.0,0.0,0.0,0.0,0.0,-0.0020889031865392376,0.0003773582601804813,-9.081660448240465e-06,-0.00018787772454004518,0.0010118899114726686,-0.0007787978067383444,0.0,0.0,0.0,0.0,0.0,0.0,0.0,0.0,0.0,0.0,0.0,0.0,0.0,0.0,0.0,0.0,0.0,0.0,0.0,0.0,0.0,0.0,0.0,0.0,0.0,0.0,0.0,0.0,0.0,0.0,0.0,0.0,0.0,0.0,0.0,0.0
2025/05/06 15:12:23.926019567,1746537143,922828977,world_ned,mA1/odom,3.489491418323549,-0.336221948953593,0.4336859540046462,-0.0004274268312968039,6.327404163496341e-05,-0.1033680993329739,0.9946430763560303,0.0,0.0,0.0,0.0,0.0,0.0,0.0,0.0,0.0,0.0,0.0,0.0,0.0,0.0,0.0,0.0,0.0,0.0,0.0,0.0,0.0,0.0,0.0,0.0,0.0,0.0,0.0,0.0,0.0,0.0,0.0,0.0,0.0,0.0,0.0,0.0,0.004332312299763957,0.00045563914887372143,-4.3309500793703884e-06,-0.00016889879780106976,-0.0007355933430934304,-0.0009968606066354394,0.0,0.0,0.0,0.0,0.0,0.0,0.0,0.0,0.0,0.0,0.0,0.0,0.0,0.0,0.0,0.0,0.0,0.0,0.0,0.0,0.0,0.0,0.0,0.0,0.0,0.0,0.0,0.0,0.0,0.0,0.0,0.0,0.0,0.0,0.0,0.0
2025/05/06 15:12:24.24047545,1746537144,22383301,world_ned,mA1/odom,3.4896310494264458,-0.33620110512195894,0.43368562143771494,-0.00043380331018282584,7.04203028522265e-05,-0.10342331192077328,0.9946373336080883,0.0,0.0,0.0,0.0,0.0,0.0,0.0,0.0,0.0,0.0,0.0,0.0,0.0,0.0,0.0,0.0,0.0,0.0,0.0,0.0,0.0,0.0,0.0,0.0,0.0,0.0,0.0,0.0,0.0,0.0,0.0,0.0,0.0,0.0,0.0,0.0,-0.001618396935627181,0.0005197606452914407,2.2728882620820763e-07,-0.00011686785498514012,0.0009626172233859851,-0.0012007128830123352,0.0,0.0,0.0,0.0,0.0,0.0,0.0,0.0,0.0,0.0,0.0,0.0,0.0,0.0,0.0,0.0,0.0,0.0,0.0,0.0,0.0,0.0,0.0,0.0,0.0,0.0,0.0,0.0,0.0,0.0,0.0,0.0,0.0,0.0,0.0,0.0
2025/05/06 15:12:24.123560036,1746537144,118743382,world_ned,mA1/odom,3.4898014299233897,-0.3361804633467924,0.43368592499302816,-0.0004374893283435508,7.324329556531536e-05,-0.10348828555968664,0.994630573625416,0.0,0.0,0.0,0.0,0.0,0.0,0.0,0.0,0.0,0.0,0.0,0.0,0.0,0.0,0.0,0.0,0.0,0.0,0.0,0.0,0.0,0.0,0.0,0.0,0.0,0.0,0.0,0.0,0.0,0.0,0.0,0.0,0.0,0.0,0.0,0.0,0.004749535780482887,0.0005781091096529234,5.840734741677007e-06,-4.4414365084926454e-05,-0.0008338297023727521,-0.0013909873439802544,0.0,0.0,0.0,0.0,0.0,0.0,0.0,0.0,0.0,0.0,0.0,0.0,0.0,0.0,0.0,0.0,0.0,0.0,0.0,0.0,0.0,0.0,0.0,0.0,0.0,0.0,0.0,0.0,0.0,0.0,0.0,0.0,0.0,0.0,0.0,0.0
2025/05/06 15:12:24.232461180,1746537144,214635499,world_ned,mA1/odom,3.4899805958160655,-0.33615546996412504,0.43368664943260926,-0.00043756918747553077,7.372627446572501e-05,-0.10356181311828935,0.9946229204886117,0.0,0.0,0.0,0.0,0.0,0.0,0.0,0.0,0.0,0.0,0.0,0.0,0.0,0.0,0.0,0.0,0.0,0.0,0.0,0.0,0.0,0.0,0.0,0.0,0.0,0.0,0.0,0.0,0.0,0.0,0.0,0.0,0.0,0.0,0.0,0.0,-0.0014007654622137957,0.0007279876304977745,1.7367546141651727e-05,-2.3947879835306048e-05,0.0008059432789267226,-0.00145363614076047,0.0,0.0,0.0,0.0,0.0,0.0,0.0,0.0,0.0,0.0,0.0,0.0,0.0,0.0,0.0,0.0,0.0,0.0,0.0,0.0,0.0,0.0,0.0,0.0,0.0,0.0,0.0,0.0,0.0,0.0,0.0,0.0,0.0,0.0,0.0,0.0
2025/05/06 15:12:24.323051492,1746537144,322470081,world_ned,mA1/odom,3.490113231234377,-0.33603692668779445,0.43368850791082775,-0.0004577798481251098,6.375149437554225e-05,-0.1036078842633764,0.9946181139974399,0.0,0.0,0.0,0.0,0.0,0.0,0.0,0.0,0.0,0.0,0.0,0.0,0.0,0.0,0.0,0.0,0.0,0.0,0.0,0.0,0.0,0.0,0.0,0.0,0.0,0.0,0.0,0.0,0.0,0.0,0.0,0.0,0.0,0.0,0.0,0.0,0.003571038981802298,0.001963750134246292,1.9628847456277197e-05,-0.0006267166595390056,-0.0012221643031310931,-0.0005032689902346295,0.0,0.0,0.0,0.0,0.0,0.0,0.0,0.0,0.0,0.0,0.0,0.0,0.0,0.0,0.0,0.0,0.0,0.0,0.0,0.0,0.0,0.0,0.0,0.0,0.0,0.0,0.0,0.0,0.0,0.0,0.0,0.0,0.0,0.0,0.0,0.0
2025/05/06 15:12:24.427321412,1746537144,419003388,world_ned,mA1/odom,3.4901512883118366,-0.33578736262674036,0.43369000218665893,-0.0005016335499437623,4.485229190820605e-05,-0.10360809037115766,0.9946180724085479,0.0,0.0,0.0,0.0,0.0,0.0,0.0,0.0,0.0,0.0,0.0,0.0,0.0,0.0,0.0,0.0,0.0,0.0,0.0,0.0,0.0,0.0,0.0,0.0,0.0,0.0,0.0,0.0,0.0,0.0,0.0,0.0,0.0,0.0,0.0,0.0,-0.0036369679022095506,0.002954324621276316,1.7258364160293598e-05,-0.0009748739641593781,0.00029493806657937267,0.00039700220664229294,0.0,0.0,0.0,0.0,0.0,0.0,0.0,0.0,0.0,0.0,0.0,0.0,0.0,0.0,0.0,0.0,0.0,0.0,0.0,0.0,0.0,0.0,0.0,0.0,0.0,0.0,0.0,0.0,0.0,0.0,0.0,0.0,0.0,0.0,0.0,0.0
2025/05/06 15:12:24.565395514,1746537144,516189230,world_ned,mA1/odom,3.490122356394306,-0.3354336339128487,0.43369116208597813,-0.0005560929454715048,1.7701544560767345e-05,-0.10356468525357987,0.994622564803161,0.0,0.0,0.0,0.0,0.0,0.0,0.0,0.0,0.0,0.0,0.0,0.0,0.0,0.0,0.0,0.0,0.0,0.0,0.0,0.0,0.0,0.0,0.0,0.0,0.0,0.0,0.0,0.0,0.0,0.0,0.0,0.0,0.0,0.0,0.0,0.0,0.0016307878783411224,0.003733165703057309,1.1685880142049304e-05,-0.0010155576768845157,-0.0015405932171547359,0.0012550047021381344,0.0,0.0,0.0,0.0,0.0,0.0,0.0,0.0,0.0,0.0,0.0,0.0,0.0,0.0,0.0,0.0,0.0,0.0,0.0,0.0,0.0,0.0,0.0,0.0,0.0,0.0,0.0,0.0,0.0,0.0,0.0,0.0,0.0,0.0,0.0,0.0
2025/05/06 15:12:24.629883215,1746537144,618812956,world_ned,mA1/odom,3.4900506520586876,-0.3350011262947961,0.4336908865914669,-0.0006051914758793191,-1.497587265774421e-05,-0.10347961617771903,0.9946313902922593,0.0,0.0,0.0,0.0,0.0,0.0,0.0,0.0,0.0,0.0,0.0,0.0,0.0,0.0,0.0,0.0,0.0,0.0,0.0,0.0,0.0,0.0,0.0,0.0,0.0,0.0,0.0,0.0,0.0,0.0,0.0,0.0,0.0,0.0,0.0,0.0,-0.004925225981120918,0.004358406400326173,3.0108115887837144e-06,-0.0007975489648338451,9.726274473692337e-05,0.0020768872904190416,0.0,0.0,0.0,0.0,0.0,0.0,0.0,0.0,0.0,0.0,0.0,0.0,0.0,0.0,0.0,0.0,0.0,0.0,0.0,0.0,0.0,0.0,0.0,0.0,0.0,0.0,0.0,0.0,0.0,0.0,0.0,0.0,0.0,0.0,0.0,0.0
2025/05/06 15:12:24.738752224,1746537144,727022808,world_ned,mA1/odom,3.489900152067535,-0.33449789272747,0.43369115982831263,-0.0006366191990545265,-4.279642413060516e-05,-0.10335533301465623,0.9946442922079687,0.0,0.0,0.0,0.0,0.0,0.0,0.0,0.0,0.0,0.0,0.0,0.0,0.0,0.0,0.0,0.0,0.0,0.0,0.0,0.0,0.0,0.0,0.0,0.0,0.0,0.0,0.0,0.0,0.0,0.0,0.0,0.0,0.0,0.0,0.0,0.0,-0.0003928829579829839,0.004799303903978011,2.5846972167448373e-05,-0.0003600267858317285,-0.0012444531766621668,0.0028272779417034353,0.0,0.0,0.0,0.0,0.0,0.0,0.0,0.0,0.0,0.0,0.0,0.0,0.0,0.0,0.0,0.0,0.0,0.0,0.0,0.0,0.0,0.0,0.0,0.0,0.0,0.0,0.0,0.0,0.0,0.0,0.0,0.0,0.0,0.0,0.0,0.0
2025/05/06 15:12:24.852834940,1746537144,817171386,world_ned,mA1/odom,3.489619109793949,-0.3339319264910591,0.4336919364562364,-0.0006383927029033419,-5.138073909125385e-05,-0.10319504446152329,0.9946609334910871,0.0,0.0,0.0,0.0,0.0,0.0,0.0,0.0,0.0,0.0,0.0,0.0,0.0,0.0,0.0,0.0,0.0,0.0,0.0,0.0,0.0,0.0,0.0,0.0,0.0,0.0,0.0,0.0,0.0,0.0,0.0,0.0,0.0,0.0,0.0,0.0,-0.01004638837336658,0.005149864445157218,1.3367986946639692e-05,0.00022284289435815793,0.0016036773094833818,0.0035630321626438977,0.0,0.0,0.0,0.0,0.0,0.0,0.0,0.0,0.0,0.0,0.0,0.0,0.0,0.0,0.0,0.0,0.0,0.0,0.0,0.0,0.0,0.0,0.0,0.0,0.0,0.0,0.0,0.0,0.0,0.0,0.0,0.0,0.0,0.0,0.0,0.0
2025/05/06 15:12:24.929523667,1746537144,923512712,world_ned,mA1/odom,3.489461774855926,-0.33334720498376347,0.43369312706191915,-0.0006166092074971536,-7.274906399424093e-05,-0.10299790617944302,0.9946813790472352,0.0,0.0,0.0,0.0,0.0,0.0,0.0,0.0,0.0,0.0,0.0,0.0,0.0,0.0,0.0,0.0,0.0,0.0,0.0,0.0,0.0,0.0,0.0,0.0,0.0,0.0,0.0,0.0,0.0,0.0,0.0,0.0,0.0,0.0,0.0,0.0,-0.0003674925904102974,0.005645091070191021,3.666315732736839e-05,0.0006351134451184461,-0.0010243883635800107,0.0042928265821983395,0.0,0.0,0.0,0.0,0.0,0.0,0.0,0.0,0.0,0.0,0.0,0.0,0.0,0.0,0.0,0.0,0.0,0.0,0.0,0.0,0.0,0.0,0.0,0.0,0.0,0.0,0.0,0.0,0.0,0.0,0.0,0.0,0.0,0.0,0.0,0.0
2025/05/06 15:12:25.21671937,1746537145,20574362,world_ned,mA1/odom,3.489113904553956,-0.33272584421959567,0.4336968638455841,-0.0005565317133125848,-5.643765200551673e-05,-0.10278109471652626,0.9947038421842533,0.0,0.0,0.0,0.0,0.0,0.0,0.0,0.0,0.0,0.0,0.0,0.0,0.0,0.0,0.0,0.0,0.0,0.0,0.0,0.0,0.0,0.0,0.0,0.0,0.0,0.0,0.0,0.0,0.0,0.0,0.0,0.0,0.0,0.0,0.0,0.0,-0.006924966764781535,0.005042829829206283,3.164490096616572e-05,0.0016437480378699975,0.0013342715398179832,0.004348403417557445,0.0,0.0,0.0,0.0,0.0,0.0,0.0,0.0,0.0,0.0,0.0,0.0,0.0,0.0,0.0,0.0,0.0,0.0,0.0,0.0,0.0,0.0,0.0,0.0,0.0,0.0,0.0,0.0,0.0,0.0,0.0,0.0,0.0,0.0,0.0,0.0
2025/05/06 15:12:25.136646870,1746537145,119609556,world_ned,mA1/odom,3.488849892978602,-0.3321838274288683,0.4336976487592223,-0.00045080691318158416,-3.265574625250362e-05,-0.10256518651589178,0.9947261825355205,0.0,0.0,0.0,0.0,0.0,0.0,0.0,0.0,0.0,0.0,0.0,0.0,0.0,0.0,0.0,0.0,0.0,0.0,0.0,0.0,0.0,0.0,0.0,0.0,0.0,0.0,0.0,0.0,0.0,0.0,0.0,0.0,0.0,0.0,0.0,0.0,-0.000566862631003529,0.0045918936923493164,-2.06952321169574e-06,0.0023104271259972945,9.106684184400734e-07,0.004336462908344855,0.0,0.0,0.0,0.0,0.0,0.0,0.0,0.0,0.0,0.0,0.0,0.0,0.0,0.0,0.0,0.0,0.0,0.0,0.0,0.0,0.0,0.0,0.0,0.0,0.0,0.0,0.0,0.0,0.0,0.0,0.0,0.0,0.0,0.0,0.0,0.0
2025/05/06 15:12:25.224184039,1746537145,218166251,world_ned,mA1/odom,3.488587979102911,-0.33166890403364113,0.43369533785960324,-0.00032546238019230553,5.978451430144622e-06,-0.10234974619568413,0.9947484222114535,0.0,0.0,0.0,0.0,0.0,0.0,0.0,0.0,0.0,0.0,0.0,0.0,0.0,0.0,0.0,0.0,0.0,0.0,0.0,0.0,0.0,0.0,0.0,0.0,0.0,0.0,0.0,0.0,0.0,0.0,0.0,0.0,0.0,0.0,0.0,0.0,-0.006598168610855031,0.004494658428088264,-3.0575885936324096e-05,0.0024072192919815465,0.0019596853205680253,0.004328758568589068,0.0,0.0,0.0,0.0,0.0,0.0,0.0,0.0,0.0,0.0,0.0,0.0,0.0,0.0,0.0,0.0,0.0,0.0,0.0,0.0,0.0,0.0,0.0,0.0,0.0,0.0,0.0,0.0,0.0,0.0,0.0,0.0,0.0,0.0,0.0,0.0
2025/05/06 15:12:25.317569129,1746537145,317265033,world_ned,mA1/odom,3.488359002341772,-0.33115083257153816,0.43369123850082414,-0.00021120808712826882,4.7661293614069754e-05,-0.1021346554198228,0.9947705591149243,0.0,0.0,0.0,0.0,0.0,0.0,0.0,0.0,0.0,0.0,0.0,0.0,0.0,0.0,0.0,0.0,0.0,0.0,0.0,0.0,0.0,0.0,0.0,0.0,0.0,0.0,0.0,0.0,0.0,0.0,0.0,0.0,0.0,0.0,0.0,0.0,-0.0003453212280890875,0.004776180164729882,-4.456463296876642e-05,0.0019092216997732365,0.00022275922192230955,0.004321489269676677,0.0,0.0,0.0,0.0,0.0,0.0,0.0,0.0,0.0,0.0,0.0,0.0,0.0,0.0,0.0,0.0,0.0,0.0,0.0,0.0,0.0,0.0,0.0,0.0,0.0,0.0,0.0,0.0,0.0,0.0,0.0,0.0,0.0,0.0,0.0,0.0
2025/05/06 15:12:25.468821881,1746537145,426831858,world_ned,mA1/odom,3.488108378049891,-0.33057623335675684,0.4336857557573845,-0.00013663687996707497,9.353325157550393e-05,-0.10192020579103589,0.9947925634188299,0.0,0.0,0.0,0.0,0.0,0.0,0.0,0.0,0.0,0.0,0.0,0.0,0.0,0.0,0.0,0.0,0.0,0.0,0.0,0.0,0.0,0.0,0.0,0.0,0.0,0.0,0.0,0.0,0.0,0.0,0.0,0.0,0.0,0.0,0.0,0.0,-0.004036210096256602,0.0054004932348151215,-5.343754850115282e-05,0.000929052930856579,0.0010755080262822357,0.004296986778909188,0.0,0.0,0.0,0.0,0.0,0.0,0.0,0.0,0.0,0.0,0.0,0.0,0.0,0.0,0.0,0.0,0.0,0.0,0.0,0.0,0.0,0.0,0.0,0.0,0.0,0.0,0.0,0.0,0.0,0.0,0.0,0.0,0.0,0.0,0.0,0.0
2025/05/06 15:12:25.570705663,1746537145,523174318,world_ned,mA1/odom,3.487916558029788,-0.3299501149458112,0.4336804402337259,-0.00011672651917890657,0.00012374146300852266,-0.10170773148186826,0.9948143085117856,0.0,0.0,0.0,0.0,0.0,0.0,0.0,0.0,0.0,0.0,0.0,0.0,0.0,0.0,0.0,0.0,0.0,0.0,0.0,0.0,0.0,0.0,0.0,0.0,0.0,0.0,0.0,0.0,0.0,0.0,0.0,0.0,0.0,0.0,0.0,0.0,0.0037028075174880496,0.006042934594156624,-4.951092057753242e-05,-0.00016522093144246222,-0.001462512704763763,0.004257853605439862,0.0,0.0,0.0,0.0,0.0,0.0,0.0,0.0,0.0,0.0,0.0,0.0,0.0,0.0,0.0,0.0,0.0,0.0,0.0,0.0,0.0,0.0,0.0,0.0,0.0,0.0,0.0,0.0,0.0,0.0,0.0,0.0,0.0,0.0,0.0,0.0
2025/05/06 15:12:25.668845254,1746537145,623356166,world_ned,mA1/odom,3.4876114547520864,-0.3292354263061591,0.4336762866500748,-0.0001506942581263287,0.00015539255386295064,-0.10149672519662417,0.9948358497354002,0.0,0.0,0.0,0.0,0.0,0.0,0.0,0.0,0.0,0.0,0.0,0.0,0.0,0.0,0.0,0.0,0.0,0.0,0.0,0.0,0.0,0.0,0.0,0.0,0.0,0.0,0.0,0.0,0.0,0.0,0.0,0.0,0.0,0.0,0.0,0.0,-0.005477282053437179,0.00661491279335591,-3.767975862046933e-05,-0.001155123025944771,0.0006469632732753922,0.004226255676851771,0.0,0.0,0.0,0.0,0.0,0.0,0.0,0.0,0.0,0.0,0.0,0.0,0.0,0.0,0.0,0.0,0.0,0.0,0.0,0.0,0.0,0.0,0.0,0.0,0.0,0.0,0.0,0.0,0.0,0.0,0.0,0.0,0.0,0.0,0.0,0.0
2025/05/06 15:12:25.867256231,1746537145,721199587,world_ned,mA1/odom,3.487370930844092,-0.32849432101027753,0.43367358969470554,-0.00022649180545638548,0.0001585273907005802,-0.10128875191113881,0.9948570310887953,0.0,0.0,0.0,0.0,0.0,0.0,0.0,0.0,0.0,0.0,0.0,0.0,0.0,0.0,0.0,0.0,0.0,0.0,0.0,0.0,0.0,0.0,0.0,0.0,0.0,0.0,0.0,0.0,0.0,0.0,0.0,0.0,0.0,0.0,0.0,0.0,-0.001960423484608735,0.006334993003205165,-4.10481173923565e-05,-0.0013903290848780452,-0.00083376500304071,0.003933226367996176,0.0,0.0,0.0,0.0,0.0,0.0,0.0,0.0,0.0,0.0,0.0,0.0,0.0,0.0,0.0,0.0,0.0,0.0,0.0,0.0,0.0,0.0,0.0,0.0,0.0,0.0,0.0,0.0,0.0,0.0,0.0,0.0,0.0,0.0,0.0,0.0
2025/05/06 15:12:25.867317018,1746537145,814466510,world_ned,mA1/odom,3.487009876993541,-0.32799593083191303,0.4336724883525645,-0.0002386505493972916,0.0001388307889811148,-0.10114191413278197,0.9948719701436383,0.0,0.0,0.0,0.0,0.0,0.0,0.0,0.0,0.0,0.0,0.0,0.0,0.0,0.0,0.0,0.0,0.0,0.0,0.0,0.0,0.0,0.0,0.0,0.0,0.0,0.0,0.0,0.0,0.0,0.0,0.0,0.0,0.0,0.0,0.0,0.0,-0.006826038383730578,0.003600288600086156,2.556625998205153e-05,-2.839748992407617e-05,1.3259830600142677e-05,0.002634385512072263,0.0,0.0,0.0,0.0,0.0,0.0,0.0,0.0,0.0,0.0,0.0,0.0,0.0,0.0,0.0,0.0,0.0,0.0,0.0,0.0,0.0,0.0,0.0,0.0,0.0,0.0,0.0,0.0,0.0,0.0,0.0,0.0,0.0,0.0,0.0,0.0
2025/05/06 15:12:25.943675867,1746537145,925942685,world_ned,mA1/odom,3.4866974737812644,-0.3275639808259592,0.43367707524917753,-0.0002547833855422781,9.347292236247873e-05,-0.10101553236167726,0.9948848117093386,0.0,0.0,0.0,0.0,0.0,0.0,0.0,0.0,0.0,0.0,0.0,0.0,0.0,0.0,0.0,0.0,0.0,0.0,0.0,0.0,0.0,0.0,0.0,0.0,0.0,0.0,0.0,0.0,0.0,0.0,0.0,0.0,0.0,0.0,0.0,0.0,-0.0044289406496247396,0.0036136576584516206,5.923711088337813e-05,-0.00039688254374362146,-0.0008887887117815061,0.002469190694277899,0.0,0.0,0.0,0.0,0.0,0.0,0.0,0.0,0.0,0.0,0.0,0.0,0.0,0.0,0.0,0.0,0.0,0.0,0.0,0.0,0.0,0.0,0.0,0.0,0.0,0.0,0.0,0.0,0.0,0.0,0.0,0.0,0.0,0.0,0.0,0.0
2025/05/06 15:12:26.16623029,1746537146,15902255,world_ned,mA1/odom,3.4863717780302577,-0.32712980986184614,0.433684632238346,-0.00028776249295976974,4.523053222498166e-05,-0.10089683513291399,0.9948968508378686,0.0,0.0,0.0,0.0,0.0,0.0,0.0,0.0,0.0,0.0,0.0,0.0,0.0,0.0,0.0,0.0,0.0,0.0,0.0,0.0,0.0,0.0,0.0,0.0,0.0,0.0,0.0,0.0,0.0,0.0,0.0,0.0,0.0,0.0,0.0,0.0,0.0008909503860589963,0.0035734788709319157,8.894735400950098e-05,-0.0006759083366751137,-0.0024300486107840568,0.002318329799398975,0.0,0.0,0.0,0.0,0.0,0.0,0.0,0.0,0.0,0.0,0.0,0.0,0.0,0.0,0.0,0.0,0.0,0.0,0.0,0.0,0.0,0.0,0.0,0.0,0.0,0.0,0.0,0.0,0.0,0.0,0.0,0.0,0.0,0.0,0.0,0.0
2025/05/06 15:12:26.157200061,1746537146,119682124,world_ned,mA1/odom,3.4860070234903313,-0.3266976134320628,0.4336938086713723,-0.0003292963014231484,6.991293952165961e-06,-0.10078543698361798,0.9949081300336674,0.0,0.0,0.0,0.0,0.0,0.0,0.0,0.0,0.0,0.0,0.0,0.0,0.0,0.0,0.0,0.0,0.0,0.0,0.0,0.0,0.0,0.0,0.0,0.0,0.0,0.0,0.0,0.0,0.0,0.0,0.0,0.0,0.0,0.0,0.0,0.0,-0.009134087043687377,0.0034303819676052335,8.917566582585417e-05,-0.0007864340245055179,0.000566330106537506,0.0021755865192737834,0.0,0.0,0.0,0.0,0.0,0.0,0.0,0.0,0.0,0.0,0.0,0.0,0.0,0.0,0.0,0.0,0.0,0.0,0.0,0.0,0.0,0.0,0.0,0.0,0.0,0.0,0.0,0.0,0.0,0.0,0.0,0.0,0.0,0.0,0.0,0.0
2025/05/06 15:12:26.363950868,1746537146,221221479,world_ned,mA1/odom,3.485725481978485,-0.3263030746912072,0.4337023061323988,-0.00037089644948492704,-2.9236664568714007e-05,-0.100680875924768,0.9949187016053436,0.0,0.0,0.0,0.0,0.0,0.0,0.0,0.0,0.0,0.0,0.0,0.0,0.0,0.0,0.0,0.0,0.0,0.0,0.0,0.0,0.0,0.0,0.0,0.0,0.0,0.0,0.0,0.0,0.0,0.0,0.0,0.0,0.0,0.0,0.0,0.0,-0.0013774188644611837,0.003185261862035879,7.435907422395544e-05,-0.0007115894620881904,-0.0012439162818588293,0.0020421662986994183,0.0,0.0,0.0,0.0,0.0,0.0,0.0,0.0,0.0,0.0,0.0,0.0,0.0,0.0,0.0,0.0,0.0,0.0,0.0,0.0,0.0,0.0,0.0,0.0,0.0,0.0,0.0,0.0,0.0,0.0,0.0,0.0,0.0,0.0,0.0,0.0
2025/05/06 15:12:26.464052946,1746537146,319255075,world_ned,mA1/odom,3.4854576354802873,-0.32593972633774637,0.43370687587201157,-0.00040355310377943444,-4.815070379432834e-05,-0.10058273314797805,0.9949286148357,0.0,0.0,0.0,0.0,0.0,0.0,0.0,0.0,0.0,0.0,0.0,0.0,0.0,0.0,0.0,0.0,0.0,0.0,0.0,0.0,0.0,0.0,0.0,0.0,0.0,0.0,0.0,0.0,0.0,0.0,0.0,0.0,0.0,0.0,0.0,0.0,-0.006134160130619705,0.0028857604481330864,2.4953283211651254e-05,-0.0005126667873014541,0.0005535856826250769,0.0019174935102802902,0.0,0.0,0.0,0.0,0.0,0.0,0.0,0.0,0.0,0.0,0.0,0.0,0.0,0.0,0.0,0.0,0.0,0.0,0.0,0.0,0.0,0.0,0.0,0.0,0.0,0.0,0.0,0.0,0.0,0.0,0.0,0.0,0.0,0.0,0.0,0.0
2025/05/06 15:12:26.557802311,1746537146,423277649,world_ned,mA1/odom,3.4852343316330594,-0.32561857110864423,0.43370557436393115,-0.0004220211513456767,-5.162629194736676e-05,-0.10049056733134586,0.9949379202293468,0.0,0.0,0.0,0.0,0.0,0.0,0.0,0.0,0.0,0.0,0.0,0.0,0.0,0.0,0.0,0.0,0.0,0.0,0.0,0.0,0.0,0.0,0.0,0.0,0.0,0.0,0.0,0.0,0.0,0.0,0.0,0.0,0.0,0.0,0.0,0.0,-0.0001564254852464836,0.002546848513416331,-4.675020903836417e-05,-0.00023381920543253399,-0.0006527942318223738,0.0018009692514759372,0.0,0.0,0.0,0.0,0.0,0.0,0.0,0.0,0.0,0.0,0.0,0.0,0.0,0.0,0.0,0.0,0.0,0.0,0.0,0.0,0.0,0.0,0.0,0.0,0.0,0.0,0.0,0.0,0.0,0.0,0.0,0.0,0.0,0.0,0.0,0.0
2025/05/06 15:12:26.676713050,1746537146,523053397,world_ned,mA1/odom,3.4850328494940235,-0.3253370171182355,0.43369856363221826,-0.0004235284382064721,-3.7368662421213916e-05,-0.10040397287423125,0.9949466626198189,0.0,0.0,0.0,0.0,0.0,0.0,0.0,0.0,0.0,0.0,0.0,0.0,0.0,0.0,0.0,0.0,0.0,0.0,0.0,0.0,0.0,0.0,0.0,0.0,0.0,0.0,0.0,0.0,0.0,0.0,0.0,0.0,0.0,0.0,0.0,0.0,-0.006809644433740638,0.0022095967151972186,-8.57566888816136e-05,7.547647792912497e-05,0.0016751268066259105,0.0016937187084672975,0.0,0.0,0.0,0.0,0.0,0.0,0.0,0.0,0.0,0.0,0.0,0.0,0.0,0.0,0.0,0.0,0.0,0.0,0.0,0.0,0.0,0.0,0.0,0.0,0.0,0.0,0.0,0.0,0.0,0.0,0.0,0.0,0.0,0.0,0.0,0.0
2025/05/06 15:12:26.745411411,1746537146,622948272,world_ned,mA1/odom,3.4848747017621013,-0.32509736374654197,0.43368981213203883,-0.00040882090982928684,-1.0692225414843096e-05,-0.10032251801399418,0.9949548859774858,0.0,0.0,0.0,0.0,0.0,0.0,0.0,0.0,0.0,0.0,0.0,0.0,0.0,0.0,0.0,0.0,0.0,0.0,0.0,0.0,0.0,0.0,0.0,0.0,0.0,0.0,0.0,0.0,0.0,0.0,0.0,0.0,0.0,0.0,0.0,0.0,0.00524942877008553,0.001901363336386885,-8.103701695015426e-05,0.0003559101745629879,-0.001335936821520229,0.00159339301077328,0.0,0.0,0.0,0.0,0.0,0.0,0.0,0.0,0.0,0.0,0.0,0.0,0.0,0.0,0.0,0.0,0.0,0.0,0.0,0.0,0.0,0.0,0.0,0.0,0.0,0.0,0.0,0.0,0.0,0.0,0.0,0.0,0.0,0.0,0.0,0.0
2025/05/06 15:12:26.798006294,1746537146,716617058,world_ned,mA1/odom,3.484650064161215,-0.32487054509665975,0.4336814368211109,-0.0003814204485096361,3.7088684580766317e-05,-0.10024581809536491,0.9949626269851858,0.0,0.0,0.0,0.0,0.0,0.0,0.0,0.0,0.0,0.0,0.0,0.0,0.0,0.0,0.0,0.0,0.0,0.0,0.0,0.0,0.0,0.0,0.0,0.0,0.0,0.0,0.0,0.0,0.0,0.0,0.0,0.0,0.0,0.0,0.0,0.0,-0.002327171096400277,0.0016803912074349167,-7.04628620777109e-05,0.00051129975543059,0.0009866089869675972,0.0015008244234211681,0.0,0.0,0.0,0.0,0.0,0.0,0.0,0.0,0.0,0.0,0.0,0.0,0.0,0.0,0.0,0.0,0.0,0.0,0.0,0.0,0.0,0.0,0.0,0.0,0.0,0.0,0.0,0.0,0.0,0.0,0.0,0.0,0.0,0.0,0.0,0.0
2025/05/06 15:12:26.859256028,1746537146,822632350,world_ned,mA1/odom,3.4845042088298013,-0.32467697870286405,0.4336741749482965,-0.00035116374639782775,7.618787417713004e-05,-0.1001732635437887,0.9949699433402085,0.0,0.0,0.0,0.0,0.0,0.0,0.0,0.0,0.0,0.0,0.0,0.0,0.0,0.0,0.0,0.0,0.0,0.0,0.0,0.0,0.0,0.0,0.0,0.0,0.0,0.0,0.0,0.0,0.0,0.0,0.0,0.0,0.0,0.0,0.0,0.0,0.0008039028003171002,0.0016396916735844144,-5.402251868432635e-05,0.00047429208104945146,8.812603208047974e-05,0.0014836675341614765,0.0,0.0,0.0,0.0,0.0,0.0,0.0,0.0,0.0,0.0,0.0,0.0,0.0,0.0,0.0,0.0,0.0,0.0,0.0,0.0,0.0,0.0,0.0,0.0,0.0,0.0,0.0,0.0,0.0,0.0,0.0,0.0,0.0,0.0,0.0,0.0
2025/05/06 15:12:26.925579093,1746537146,918125441,world_ned,mA1/odom,3.484344436678907,-0.3244270287147938,0.43367048681772236,-0.00034170347471261525,0.0001146330985203277,-0.10008787132190171,0.9949785365083201,0.0,0.0,0.0,0.0,0.0,0.0,0.0,0.0,0.0,0.0,0.0,0.0,0.0,0.0,0.0,0.0,0.0,0.0,0.0,0.0,0.0,0.0,0.0,0.0,0.0,0.0,0.0,0.0,0.0,0.0,0.0,0.0,0.0,0.0,0.0,0.0,-0.009019087682707054,0.0022216661685614193,-2.9752267646261063e-05,1.1520255085645887e-05,0.0026200354999942,0.001802258580342009,0.0,0.0,0.0,0.0,0.0,0.0,0.0,0.0,0.0,0.0,0.0,0.0,0.0,0.0,0.0,0.0,0.0,0.0,0.0,0.0,0.0,0.0,0.0,0.0,0.0,0.0,0.0,0.0,0.0,0.0,0.0,0.0,0.0,0.0,0.0,0.0
2025/05/06 15:12:27.22538053,1746537147,21140503,world_ned,mA1/odom,3.4842088437436005,-0.32416813876687667,0.433669936474923,-0.0003415625861436686,0.00013737697423654762,-0.09999187819172782,0.9949881852355119,0.0,0.0,0.0,0.0,0.0,0.0,0.0,0.0,0.0,0.0,0.0,0.0,0.0,0.0,0.0,0.0,0.0,0.0,0.0,0.0,0.0,0.0,0.0,0.0,0.0,0.0,0.0,0.0,0.0,0.0,0.0,0.0,0.0,0.0,0.0,0.0,0.0003926400167143561,0.0019539871224050157,1.6245640602809847e-05,0.00013215366722604813,-0.0003245942464728152,0.001897988651672619,0.0,0.0,0.0,0.0,0.0,0.0,0.0,0.0,0.0,0.0,0.0,0.0,0.0,0.0,0.0,0.0,0.0,0.0,0.0,0.0,0.0,0.0,0.0,0.0,0.0,0.0,0.0,0.0,0.0,0.0,0.0,0.0,0.0,0.0,0.0,0.0
2025/05/06 15:12:27.128489579,1746537147,124889501,world_ned,mA1/odom,3.4840508466868845,-0.32398815558287514,0.4336738526245145,-0.0003205406937802575,0.00014095719006246404,-0.09990058803544588,0.9949973617527367,0.0,0.0,0.0,0.0,0.0,0.0,0.0,0.0,0.0,0.0,0.0,0.0,0.0,0.0,0.0,0.0,0.0,0.0,0.0,0.0,0.0,0.0,0.0,0.0,0.0,0.0,0.0,0.0,0.0,0.0,0.0,0.0,0.0,0.0,0.0,0.0,-0.0037891790354746924,0.0010578694689186675,5.7498142927558654e-05,0.0006135308843744497,0.0004678015023201501,0.0017859735910673838,0.0,0.0,0.0,0.0,0.0,0.0,0.0,0.0,0.0,0.0,0.0,0.0,0.0,0.0,0.0,0.0,0.0,0.0,0.0,0.0,0.0,0.0,0.0,0.0,0.0,0.0,0.0,0.0,0.0,0.0,0.0,0.0,0.0,0.0,0.0,0.0
2025/05/06 15:12:27.225347588,1746537147,222944293,world_ned,mA1/odom,3.4838325984834344,-0.3238783018790131,0.4336819316544566,-0.0002827830784758896,0.00012919950536982545,-0.0998145726232543,0.9950060072347581,0.0,0.0,0.0,0.0,0.0,0.0,0.0,0.0,0.0,0.0,0.0,0.0,0.0,0.0,0.0,0.0,0.0,0.0,0.0,0.0,0.0,0.0,0.0,0.0,0.0,0.0,0.0,0.0,0.0,0.0,0.0,0.0,0.0,0.0,0.0,0.0,-0.0013757465072685912,0.0003257190198126214,9.39469072231543e-05,0.0008780648395396834,-0.0005981337807089054,0.001683103674839522,0.0,0.0,0.0,0.0,0.0,0.0,0.0,0.0,0.0,0.0,0.0,0.0,0.0,0.0,0.0,0.0,0.0,0.0,0.0,0.0,0.0,0.0,0.0,0.0,0.0,0.0,0.0,0.0,0.0,0.0,0.0,0.0,0.0,0.0,0.0,0.0
2025/05/06 15:12:27.318582641,1746537147,317945445,world_ned,mA1/odom,3.4835894500207134,-0.3238286445632683,0.43369205045498904,-0.00023972930838892014,0.00010177957914352153,-0.09973352916527582,0.995014148306955,0.0,0.0,0.0,0.0,0.0,0.0,0.0,0.0,0.0,0.0,0.0,0.0,0.0,0.0,0.0,0.0,0.0,0.0,0.0,0.0,0.0,0.0,0.0,0.0,0.0,0.0,0.0,0.0,0.0,0.0,0.0,0.0,0.0,0.0,0.0,0.0,-0.006120333703602985,-0.00023158309550741043,9.934784871984559e-05,0.0008979930477597906,0.0004393563133705736,0.0015855340043570687,0.0,0.0,0.0,0.0,0.0,0.0,0.0,0.0,0.0,0.0,0.0,0.0,0.0,0.0,0.0,0.0,0.0,0.0,0.0,0.0,0.0,0.0,0.0,0.0,0.0,0.0,0.0,0.0,0.0,0.0,0.0,0.0,0.0,0.0,0.0,0.0
2025/05/06 15:12:27.418332763,1746537147,416559310,world_ned,mA1/odom,3.483359546971225,-0.3238286711866754,0.4337012740589391,-0.00020436632520270639,5.9956814626573913e-05,-0.09965722474768272,0.9950218048842826,0.0,0.0,0.0,0.0,0.0,0.0,0.0,0.0,0.0,0.0,0.0,0.0,0.0,0.0,0.0,0.0,0.0,0.0,0.0,0.0,0.0,0.0,0.0,0.0,0.0,0.0,0.0,0.0,0.0,0.0,0.0,0.0,0.0,0.0,0.0,0.0,-0.0012725905048323923,-0.0006222140471899913,7.879319271824618e-05,0.0006708271760346547,-0.001092060642953145,0.0014922371490260192,0.0,0.0,0.0,0.0,0.0,0.0,0.0,0.0,0.0,0.0,0.0,0.0,0.0,0.0,0.0,0.0,0.0,0.0,0.0,0.0,0.0,0.0,0.0,0.0,0.0,0.0,0.0,0.0,0.0,0.0,0.0,0.0,0.0,0.0,0.0,0.0
2025/05/06 15:12:27.523793491,1746537147,522791769,world_ned,mA1/odom,3.483181162185437,-0.3238728257182408,0.43370670171154363,-0.00018570312151528,8.993151644476351e-06,-0.09958544693774658,0.9950289966587321,0.0,0.0,0.0,0.0,0.0,0.0,0.0,0.0,0.0,0.0,0.0,0.0,0.0,0.0,0.0,0.0,0.0,0.0,0.0,0.0,0.0,0.0,0.0,0.0,0.0,0.0,0.0,0.0,0.0,0.0,0.0,0.0,0.0,0.0,0.0,0.0,-0.0040039047552763996,-0.0008991857541249556,3.618441637595508e-05,0.00027831978130794615,-0.00030346015342981386,0.0014025688832371129,0.0,0.0,0.0,0.0,0.0,0.0,0.0,0.0,0.0,0.0,0.0,0.0,0.0,0.0,0.0,0.0,0.0,0.0,0.0,0.0,0.0,0.0,0.0,0.0,0.0,0.0,0.0,0.0,0.0,0.0,0.0,0.0,0.0,0.0,0.0,0.0
2025/05/06 15:12:27.624372775,1746537147,622486450,world_ned,mA1/odom,3.482890598634088,-0.32391969785675045,0.4337068571489799,-0.0001867831780422104,-1.9091689935063037e-05,-0.0995182494654041,0.9950357193442321,0.0,0.0,0.0,0.0,0.0,0.0,0.0,0.0,0.0,0.0,0.0,0.0,0.0,0.0,0.0,0.0,0.0,0.0,0.0,0.0,0.0,0.0,0.0,0.0,0.0,0.0,0.0,0.0,0.0,0.0,0.0,0.0,0.0,0.0,0.0,0.0,0.00027646369889632196,-0.001262096749997386,-2.4451950187909772e-05,-9.461975339966619e-05,-0.0013108924879499178,0.0012472726448512629,0.0,0.0,0.0,0.0,0.0,0.0,0.0,0.0,0.0,0.0,0.0,0.0,0.0,0.0,0.0,0.0,0.0,0.0,0.0,0.0,0.0,0.0,0.0,0.0,0.0,0.0,0.0,0.0,0.0,0.0,0.0,0.0,0.0,0.0,0.0,0.0
2025/05/06 15:12:27.721251410,1746537147,719758816,world_ned,mA1/odom,3.4826964030765275,-0.32403478521036805,0.4337017538718294,-0.00020322930973565656,-4.73324280944499e-05,-0.099462962101127,0.9950412431791753,0.0,0.0,0.0,0.0,0.0,0.0,0.0,0.0,0.0,0.0,0.0,0.0,0.0,0.0,0.0,0.0,0.0,0.0,0.0,0.0,0.0,0.0,0.0,0.0,0.0,0.0,0.0,0.0,0.0,0.0,0.0,0.0,0.0,0.0,0.0,0.0,-0.004765055717259603,-0.0015222161061336952,-6.95174624070832e-05,-0.0005379960439564419,0.00041918994443071206,0.0010760223735987128,0.0,0.0,0.0,0.0,0.0,0.0,0.0,0.0,0.0,0.0,0.0,0.0,0.0,0.0,0.0,0.0,0.0,0.0,0.0,0.0,0.0,0.0,0.0,0.0,0.0,0.0,0.0,0.0,0.0,0.0,0.0,0.0,0.0,0.0,0.0,0.0
2025/05/06 15:12:27.824258292,1746537147,820185233,world_ned,mA1/odom,3.4825041203859937,-0.3241548097059808,0.4336927946710188,-0.0002449513326087693,-5.577189087273632e-05,-0.09941118047113248,0.995046408006017,0.0,0.0,0.0,0.0,0.0,0.0,0.0,0.0,0.0,0.0,0.0,0.0,0.0,0.0,0.0,0.0,0.0,0.0,0.0,0.0,0.0,0.0,0.0,0.0,0.0,0.0,0.0,0.0,0.0,0.0,0.0,0.0,0.0,0.0,0.0,0.0,0.0016887776048218795,-0.0016011298416575264,-9.874733601327907e-05,-0.0010113210681404671,-0.0010155682779183872,0.0010122598779176595,0.0,0.0,0.0,0.0,0.0,0.0,0.0,0.0,0.0,0.0,0.0,0.0,0.0,0.0,0.0,0.0,0.0,0.0,0.0,0.0,0.0,0.0,0.0,0.0,0.0,0.0,0.0,0.0,0.0,0.0,0.0,0.0,0.0,0.0,0.0,0.0
2025/05/06 15:12:27.923665839,1746537147,923315986,world_ned,mA1/odom,3.4823370605540167,-0.32429506391906987,0.43368280813955973,-0.00030266045026494876,-4.696949087566792e-05,-0.09936251250342956,0.9950512536043179,0.0,0.0,0.0,0.0,0.0,0.0,0.0,0.0,0.0,0.0,0.0,0.0,0.0,0.0,0.0,0.0,0.0,0.0,0.0,0.0,0.0,0.0,0.0,0.0,0.0,0.0,0.0,0.0,0.0,0.0,0.0,0.0,0.0,0.0,0.0,0.0,-0.0043083893332207185,-0.0018132566294260547,-9.83499942491478e-05,-0.001251813401805946,0.0010664915196606174,0.0009507633975433754,0.0,0.0,0.0,0.0,0.0,0.0,0.0,0.0,0.0,0.0,0.0,0.0,0.0,0.0,0.0,0.0,0.0,0.0,0.0,0.0,0.0,0.0,0.0,0.0,0.0,0.0,0.0,0.0,0.0,0.0,0.0,0.0,0.0,0.0,0.0,0.0
2025/05/06 15:12:28.21369102,1746537148,15612843,world_ned,mA1/odom,3.4821940294422054,-0.3244703786736578,0.4336741215690347,-0.0003634673845822203,-2.3626540536988264e-05,-0.09931686070168445,0.9950557916587437,0.0,0.0,0.0,0.0,0.0,0.0,0.0,0.0,0.0,0.0,0.0,0.0,0.0,0.0,0.0,0.0,0.0,0.0,0.0,0.0,0.0,0.0,0.0,0.0,0.0,0.0,0.0,0.0,0.0,0.0,0.0,0.0,0.0,0.0,0.0,0.0,0.0020692463154287862,-0.002178720728398862,-7.379574841966395e-05,-0.0012168710467272614,-0.000387687658787152,0.0008909447113944623,0.0,0.0,0.0,0.0,0.0,0.0,0.0,0.0,0.0,0.0,0.0,0.0,0.0,0.0,0.0,0.0,0.0,0.0,0.0,0.0,0.0,0.0,0.0,0.0,0.0,0.0,0.0,0.0,0.0,0.0,0.0,0.0,0.0,0.0,0.0,0.0
2025/05/06 15:12:28.121844724,1746537148,119280908,world_ned,mA1/odom,3.482051922114894,-0.3246909247500133,0.433669371490918,-0.00041412330082272363,1.177089654495839e-05,-0.09927413729696835,0.9950600353884586,0.0,0.0,0.0,0.0,0.0,0.0,0.0,0.0,0.0,0.0,0.0,0.0,0.0,0.0,0.0,0.0,0.0,0.0,0.0,0.0,0.0,0.0,0.0,0.0,0.0,0.0,0.0,0.0,0.0,0.0,0.0,0.0,0.0,0.0,0.0,0.0,-0.003920794552679017,-0.002674908703083989,-2.846326056896722e-05,-0.0009325185022367884,0.0015312131152963868,0.0008332446817079709,0.0,0.0,0.0,0.0,0.0,0.0,0.0,0.0,0.0,0.0,0.0,0.0,0.0,0.0,0.0,0.0,0.0,0.0,0.0,0.0,0.0,0.0,0.0,0.0,0.0,0.0,0.0,0.0,0.0,0.0,0.0,0.0,0.0,0.0,0.0,0.0
2025/05/06 15:12:28.223808828,1746537148,220458408,world_ned,mA1/odom,3.4819215803643457,-0.3249693404847179,0.4336693287793264,-0.00044519657698526666,4.9553184011125074e-05,-0.09923419239494577,0.9950640051796732,0.0,0.0,0.0,0.0,0.0,0.0,0.0,0.0,0.0,0.0,0.0,0.0,0.0,0.0,0.0,0.0,0.0,0.0,0.0,0.0,0.0,0.0,0.0,0.0,0.0,0.0,0.0,0.0,0.0,0.0,0.0,0.0,0.0,0.0,0.0,0.0,0.0023482586749432387,-0.003249791345330818,1.9913886096187673e-05,-0.00047811631463566523,-0.00014876993046268315,0.0007791269583593039,0.0,0.0,0.0,0.0,0.0,0.0,0.0,0.0,0.0,0.0,0.0,0.0,0.0,0.0,0.0,0.0,0.0,0.0,0.0,0.0,0.0,0.0,0.0,0.0,0.0,0.0,0.0,0.0,0.0,0.0,0.0,0.0,0.0,0.0,0.0,0.0
2025/05/06 15:12:28.320539089,1746537148,317996008,world_ned,mA1/odom,3.4817756472863595,-0.32530455702081235,0.43367426881596755,-0.00045132765218620935,8.558951481701683e-05,-0.09919682481919781,0.9950677257973825,0.0,0.0,0.0,0.0,0.0,0.0,0.0,0.0,0.0,0.0,0.0,0.0,0.0,0.0,0.0,0.0,0.0,0.0,0.0,0.0,0.0,0.0,0.0,0.0,0.0,0.0,0.0,0.0,0.0,0.0,0.0,0.0,0.0,0.0,0.0,0.0,-0.003805221510094573,-0.0038355562727145445,6.467620207224785e-05,3.893642709323552e-05,0.001517229147125921,0.0007294075636819626,0.0,0.0,0.0,0.0,0.0,0.0,0.0,0.0,0.0,0.0,0.0,0.0,0.0,0.0,0.0,0.0,0.0,0.0,0.0,0.0,0.0,0.0,0.0,0.0,0.0,0.0,0.0,0.0,0.0,0.0,0.0,0.0,0.0,0.0,0.0,0.0
2025/05/06 15:12:28.419938458,1746537148,419407973,world_ned,mA1/odom,3.4816247140423227,-0.32569585731900585,0.4336825757421599,-0.0004335363464514847,0.00011106707107436399,-0.09916179541934088,0.9950712225964304,0.0,0.0,0.0,0.0,0.0,0.0,0.0,0.0,0.0,0.0,0.0,0.0,0.0,0.0,0.0,0.0,0.0,0.0,0.0,0.0,0.0,0.0,0.0,0.0,0.0,0.0,0.0,0.0,0.0,0.0,0.0,0.0,0.0,0.0,0.0,0.0,0.002200393284819116,-0.004365532410185238,8.974263347367289e-05,0.000504947988526812,-0.00037476796185727755,0.0006845104587558529,0.0,0.0,0.0,0.0,0.0,0.0,0.0,0.0,0.0,0.0,0.0,0.0,0.0,0.0,0.0,0.0,0.0,0.0,0.0,0.0,0.0,0.0,0.0,0.0,0.0,0.0,0.0,0.0,0.0,0.0,0.0,0.0,0.0,0.0,0.0,0.0
2025/05/06 15:12:28.521622784,1746537148,520462857,world_ned,mA1/odom,3.4814440810827287,-0.3261296694437567,0.4336923729966633,-0.00039708774278170253,0.00012496828644921237,-0.09912887373379799,0.9950745163536853,0.0,0.0,0.0,0.0,0.0,0.0,0.0,0.0,0.0,0.0,0.0,0.0,0.0,0.0,0.0,0.0,0.0,0.0,0.0,0.0,0.0,0.0,0.0,0.0,0.0,0.0,0.0,0.0,0.0,0.0,0.0,0.0,0.0,0.0,0.0,0.0,-0.00396770770197513,-0.00478816638463852,9.163609940441127e-05,0.0008256539333243587,0.0010713867589269017,0.0006440904997368082,0.0,0.0,0.0,0.0,0.0,0.0,0.0,0.0,0.0,0.0,0.0,0.0,0.0,0.0,0.0,0.0,0.0,0.0,0.0,0.0,0.0,0.0,0.0,0.0,0.0,0.0,0.0,0.0,0.0,0.0,0.0,0.0,0.0,0.0,0.0,0.0
2025/05/06 15:12:28.617457092,1746537148,614746647,world_ned,mA1/odom,3.4812600725065237,-0.3265951244150602,0.43370063993017816,-0.0003529544051588408,0.00012164091285885106,-0.09909784491817485,0.9950776239868172,0.0,0.0,0.0,0.0,0.0,0.0,0.0,0.0,0.0,0.0,0.0,0.0,0.0,0.0,0.0,0.0,0.0,0.0,0.0,0.0,0.0,0.0,0.0,0.0,0.0,0.0,0.0,0.0,0.0,0.0,0.0,0.0,0.0,0.0,0.0,0.0,0.0021060535933303958,-0.004922909615608001,6.703094373411249e-05,0.0008342980948329562,-0.0009681336750414141,0.0006080092848373196,0.0,0.0,0.0,0.0,0.0,0.0,0.0,0.0,0.0,0.0,0.0,0.0,0.0,0.0,0.0,0.0,0.0,0.0,0.0,0.0,0.0,0.0,0.0,0.0,0.0,0.0,0.0,0.0,0.0,0.0,0.0,0.0,0.0,0.0,0.0,0.0
2025/05/06 15:12:28.719233549,1746537148,717311042,world_ned,mA1/odom,3.481059892848336,-0.32704001543040073,0.4337055845400497,-0.0003232673878153375,0.00010651956766489872,-0.0990684856400321,0.9950805592035091,0.0,0.0,0.0,0.0,0.0,0.0,0.0,0.0,0.0,0.0,0.0,0.0,0.0,0.0,0.0,0.0,0.0,0.0,0.0,0.0,0.0,0.0,0.0,0.0,0.0,0.0,0.0,0.0,0.0,0.0,0.0,0.0,0.0,0.0,0.0,0.0,-0.004166559050312821,-0.0046103713238132785,2.5932432585797626e-05,0.0004260035522294154,0.0004933657894588952,0.0005757541628090518,0.0,0.0,0.0,0.0,0.0,0.0,0.0,0.0,0.0,0.0,0.0,0.0,0.0,0.0,0.0,0.0,0.0,0.0,0.0,0.0,0.0,0.0,0.0,0.0,0.0,0.0,0.0,0.0,0.0,0.0,0.0,0.0,0.0,0.0,0.0,0.0
2025/05/06 15:12:28.817803970,1746537148,817320665,world_ned,mA1/odom,3.4808676328824015,-0.3274525051167502,0.43370561913549044,-0.0003176509466926535,8.032930789675635e-05,-0.09904067009345688,0.995083332345848,0.0,0.0,0.0,0.0,0.0,0.0,0.0,0.0,0.0,0.0,0.0,0.0,0.0,0.0,0.0,0.0,0.0,0.0,0.0,0.0,0.0,0.0,0.0,0.0,0.0,0.0,0.0,0.0,0.0,0.0,0.0,0.0,0.0,0.0,0.0,0.0,0.0019452661374507265,-0.004270693651254609,-2.42947063189777e-05,-5.285653575487009e-05,-0.001447130725096869,0.0005452810088356441,0.0,0.0,0.0,0.0,0.0,0.0,0.0,0.0,0.0,0.0,0.0,0.0,0.0,0.0,0.0,0.0,0.0,0.0,0.0,0.0,0.0,0.0,0.0,0.0,0.0,0.0,0.0,0.0,0.0,0.0,0.0,0.0,0.0,0.0,0.0,0.0
2025/05/06 15:12:28.922551201,1746537148,918362968,world_ned,mA1/odom,3.4806700231260894,-0.32783076454559484,0.4337011115957171,-0.0003358351581386632,5.06059534038497e-05,-0.09901434380340852,0.9950859482351082,0.0,0.0,0.0,0.0,0.0,0.0,0.0,0.0,0.0,0.0,0.0,0.0,0.0,0.0,0.0,0.0,0.0,0.0,0.0,0.0,0.0,0.0,0.0,0.0,0.0,0.0,0.0,0.0,0.0,0.0,0.0,0.0,0.0,0.0,0.0,0.0,-0.004222668436608698,-0.0039663836778217505,-6.588859378253957e-05,-0.0004943360435365839,0.00019480387289092416,0.0005157072912673354,0.0,0.0,0.0,0.0,0.0,0.0,0.0,0.0,0.0,0.0,0.0,0.0,0.0,0.0,0.0,0.0,0.0,0.0,0.0,0.0,0.0,0.0,0.0,0.0,0.0,0.0,0.0,0.0,0.0,0.0,0.0,0.0,0.0,0.0,0.0,0.0
2025/05/06 15:12:29.20104749,1746537149,19691507,world_ned,mA1/odom,3.4804907669810174,-0.3281864601043698,0.4336930505358753,-0.0003729001771674105,1.9840774117614005e-05,-0.09898944760777124,0.9950884130639397,0.0,0.0,0.0,0.0,0.0,0.0,0.0,0.0,0.0,0.0,0.0,0.0,0.0,0.0,0.0,0.0,0.0,0.0,0.0,0.0,0.0,0.0,0.0,0.0,0.0,0.0,0.0,0.0,0.0,0.0,0.0,0.0,0.0,0.0,0.0,0.0,0.00202071498555731,-0.0037557150782958778,-9.249722439799553e-05,-0.0007972289959600255,-0.0015175593160567534,0.0004875677256535271,0.0,0.0,0.0,0.0,0.0,0.0,0.0,0.0,0.0,0.0,0.0,0.0,0.0,0.0,0.0,0.0,0.0,0.0,0.0,0.0,0.0,0.0,0.0,0.0,0.0,0.0,0.0,0.0,0.0,0.0,0.0,0.0,0.0,0.0,0.0,0.0
2025/05/06 15:12:29.122516546,1746537149,122275930,world_ned,mA1/odom,3.4803131706484374,-0.32852807336734435,0.43368396410784243,-0.00041896641479086707,-3.7005720184310556e-06,-0.0989659114108277,0.9950907359794248,0.0,0.0,0.0,0.0,0.0,0.0,0.0,0.0,0.0,0.0,0.0,0.0,0.0,0.0,0.0,0.0,0.0,0.0,0.0,0.0,0.0,0.0,0.0,0.0,0.0,0.0,0.0,0.0,0.0,0.0,0.0,0.0,0.0,0.0,0.0,0.0,-0.0040349080799675354,-0.0036730058501235146,-9.19389532376576e-05,-0.0008968288449121327,0.0003657366660902595,0.00046109050820856707,0.0,0.0,0.0,0.0,0.0,0.0,0.0,0.0,0.0,0.0,0.0,0.0,0.0,0.0,0.0,0.0,0.0,0.0,0.0,0.0,0.0,0.0,0.0,0.0,0.0,0.0,0.0,0.0,0.0,0.0,0.0,0.0,0.0,0.0,0.0,0.0
2025/05/06 15:12:29.224227169,1746537149,223605334,world_ned,mA1/odom,3.4801591597177146,-0.3288829485836142,0.4336762760993265,-0.00046032225574654594,-1.9897031903470384e-05,-0.09894226844369323,0.9950930686236062,0.0,0.0,0.0,0.0,0.0,0.0,0.0,0.0,0.0,0.0,0.0,0.0,0.0,0.0,0.0,0.0,0.0,0.0,0.0,0.0,0.0,0.0,0.0,0.0,0.0,0.0,0.0,0.0,0.0,0.0,0.0,0.0,0.0,0.0,0.0,0.0,0.002268322525565976,-0.0040364014289600465,-6.543874266324844e-05,-0.0005832028008796391,-0.0011576814908220872,0.0005211881746965841,0.0,0.0,0.0,0.0,0.0,0.0,0.0,0.0,0.0,0.0,0.0,0.0,0.0,0.0,0.0,0.0,0.0,0.0,0.0,0.0,0.0,0.0,0.0,0.0,0.0,0.0,0.0,0.0,0.0,0.0,0.0,0.0,0.0,0.0,0.0,0.0
2025/05/06 15:12:29.322692564,1746537149,316300460,world_ned,mA1/odom,3.4799917596592027,-0.3293023988413019,0.43367208586065187,-0.00047341259840609246,-2.5559574061512336e-05,-0.0989126070423724,0.9950960111443021,0.0,0.0,0.0,0.0,0.0,0.0,0.0,0.0,0.0,0.0,0.0,0.0,0.0,0.0,0.0,0.0,0.0,0.0,0.0,0.0,0.0,0.0,0.0,0.0,0.0,0.0,0.0,0.0,0.0,0.0,0.0,0.0,0.0,0.0,0.0,0.0,-0.003785494049597043,-0.004781514081863023,-3.065286535977672e-05,3.0972416882301236e-05,0.0008365359382764025,0.0006653083804953845,0.0,0.0,0.0,0.0,0.0,0.0,0.0,0.0,0.0,0.0,0.0,0.0,0.0,0.0,0.0,0.0,0.0,0.0,0.0,0.0,0.0,0.0,0.0,0.0,0.0,0.0,0.0,0.0,0.0,0.0,0.0,0.0,0.0,0.0,0.0,0.0
2025/05/06 15:12:29.418918042,1746537149,417657256,world_ned,mA1/odom,3.479831338147797,-0.32981336542848905,0.43367143931981067,-0.00045059181854688514,-2.2675290966957406e-05,-0.09887716020200853,0.9950995445900026,0.0,0.0,0.0,0.0,0.0,0.0,0.0,0.0,0.0,0.0,0.0,0.0,0.0,0.0,0.0,0.0,0.0,0.0,0.0,0.0,0.0,0.0,0.0,0.0,0.0,0.0,0.0,0.0,0.0,0.0,0.0,0.0,0.0,0.0,0.0,0.0,0.0024620359978499984,-0.006128026871580459,8.174447994130738e-06,0.001012170093988065,-0.0006430340636588652,0.0006147585277613046,0.0,0.0,0.0,0.0,0.0,0.0,0.0,0.0,0.0,0.0,0.0,0.0,0.0,0.0,0.0,0.0,0.0,0.0,0.0,0.0,0.0,0.0,0.0,0.0,0.0,0.0,0.0,0.0,0.0,0.0,0.0,0.0,0.0,0.0,0.0,0.0
2025/05/06 15:12:29.524872802,1746537149,522077601,world_ned,mA1/odom,3.4796090767175403,-0.3305347005239793,0.4336750299395023,-0.0003538005966430219,-1.5155595550719003e-05,-0.0988608722887187,0.9951012021527054,0.0,0.0,0.0,0.0,0.0,0.0,0.0,0.0,0.0,0.0,0.0,0.0,0.0,0.0,0.0,0.0,0.0,0.0,0.0,0.0,0.0,0.0,0.0,0.0,0.0,0.0,0.0,0.0,0.0,0.0,0.0,0.0,0.0,0.0,0.0,0.0,-0.0038364506360644077,-0.008656445647645334,4.4325028506633814e-05,0.002626652552099889,0.001275849927279423,0.00010031224255707902,0.0,0.0,0.0,0.0,0.0,0.0,0.0,0.0,0.0,0.0,0.0,0.0,0.0,0.0,0.0,0.0,0.0,0.0,0.0,0.0,0.0,0.0,0.0,0.0,0.0,0.0,0.0,0.0,0.0,0.0,0.0,0.0,0.0,0.0,0.0,0.0
2025/05/06 15:12:29.627448951,1746537149,623500350,world_ned,mA1/odom,3.4793468803647207,-0.3314864269635275,0.43368124481743414,-0.0001900826104975887,-7.578288034160467e-06,-0.09886737669629907,0.9951006007617335,0.0,0.0,0.0,0.0,0.0,0.0,0.0,0.0,0.0,0.0,0.0,0.0,0.0,0.0,0.0,0.0,0.0,0.0,0.0,0.0,0.0,0.0,0.0,0.0,0.0,0.0,0.0,0.0,0.0,0.0,0.0,0.0,0.0,0.0,0.0,0.0,0.0024362508640845375,-0.010474420258905446,6.848763741195087e-05,0.003450787146659126,-0.0003080975273458301,-0.00020107501629866838,0.0,0.0,0.0,0.0,0.0,0.0,0.0,0.0,0.0,0.0,0.0,0.0,0.0,0.0,0.0,0.0,0.0,0.0,0.0,0.0,0.0,0.0,0.0,0.0,0.0,0.0,0.0,0.0,0.0,0.0,0.0,0.0,0.0,0.0,0.0,0.0
2025/05/06 15:12:29.719784960,1746537149,717495700,world_ned,mA1/odom,3.4790892524779196,-0.3325289077530805,0.4336888582643401,-2.7758396424661975e-05,8.908061802484251e-06,-0.09887351477402645,0.9951000086555865,0.0,0.0,0.0,0.0,0.0,0.0,0.0,0.0,0.0,0.0,0.0,0.0,0.0,0.0,0.0,0.0,0.0,0.0,0.0,0.0,0.0,0.0,0.0,0.0,0.0,0.0,0.0,0.0,0.0,0.0,0.0,0.0,0.0,0.0,0.0,0.0,-0.0033095105391767674,-0.010890176061746037,7.262453178687509e-05,0.0028918054667620876,0.0015561557909818157,-4.379737557328351e-05,0.0,0.0,0.0,0.0,0.0,0.0,0.0,0.0,0.0,0.0,0.0,0.0,0.0,0.0,0.0,0.0,0.0,0.0,0.0,0.0,0.0,0.0,0.0,0.0,0.0,0.0,0.0,0.0,0.0,0.0,0.0,0.0,0.0,0.0,0.0,0.0
2025/05/06 15:12:29.823954479,1746537149,819739730,world_ned,mA1/odom,3.478879795297402,-0.3336050114645119,0.4336950788782228,8.9891668517465e-05,3.234521799332519e-05,-0.09887051379445996,0.9951003026706877,0.0,0.0,0.0,0.0,0.0,0.0,0.0,0.0,0.0,0.0,0.0,0.0,0.0,0.0,0.0,0.0,0.0,0.0,0.0,0.0,0.0,0.0,0.0,0.0,0.0,0.0,0.0,0.0,0.0,0.0,0.0,0.0,0.0,0.0,0.0,0.0,0.003291459402996396,-0.01097091578474484,5.541318050566412e-05,0.0017208617828194134,-0.0001505502111218731,0.00014467507105829014,0.0,0.0,0.0,0.0,0.0,0.0,0.0,0.0,0.0,0.0,0.0,0.0,0.0,0.0,0.0,0.0,0.0,0.0,0.0,0.0,0.0,0.0,0.0,0.0,0.0,0.0,0.0,0.0,0.0,0.0,0.0,0.0,0.0,0.0,0.0,0.0
2025/05/06 15:12:29.916245478,1746537149,915767923,world_ned,mA1/odom,3.478703624472785,-0.3346825785266738,0.433698847315771,0.00013705218847530576,6.259931750114717e-05,-0.09885781168777436,0.9951015578152451,0.0,0.0,0.0,0.0,0.0,0.0,0.0,0.0,0.0,0.0,0.0,0.0,0.0,0.0,0.0,0.0,0.0,0.0,0.0,0.0,0.0,0.0,0.0,0.0,0.0,0.0,0.0,0.0,0.0,0.0,0.0,0.0,0.0,0.0,0.0,0.0,-0.002425274003365282,-0.010868047231317157,2.4318984011707207e-05,0.00016672280147935284,0.001509602547623097,0.0003596232988369953,0.0,0.0,0.0,0.0,0.0,0.0,0.0,0.0,0.0,0.0,0.0,0.0,0.0,0.0,0.0,0.0,0.0,0.0,0.0,0.0,0.0,0.0,0.0,0.0,0.0,0.0,0.0,0.0,0.0,0.0,0.0,0.0,0.0,0.0,0.0,0.0
2025/05/06 15:12:30.17130851,1746537150,16794081,world_ned,mA1/odom,3.478575172449524,-0.33576253762266106,0.43369889873764006,0.00010513292976945585,9.521910150577707e-05,-0.09883292086342488,0.9951040315635314,0.0,0.0,0.0,0.0,0.0,0.0,0.0,0.0,0.0,0.0,0.0,0.0,0.0,0.0,0.0,0.0,0.0,0.0,0.0,0.0,0.0,0.0,0.0,0.0,0.0,0.0,0.0,0.0,0.0,0.0,0.0,0.0,0.0,0.0,0.0,0.0,0.004064189050268493,-0.010864043702042081,-5.893135047320924e-06,-0.001362792186210963,-0.00030112711293439094,0.0006268502959015555,0.0,0.0,0.0,0.0,0.0,0.0,0.0,0.0,0.0,0.0,0.0,0.0,0.0,0.0,0.0,0.0,0.0,0.0,0.0,0.0,0.0,0.0,0.0,0.0,0.0,0.0,0.0,0.0,0.0,0.0,0.0,0.0,0.0,0.0,0.0,0.0
2025/05/06 15:12:30.120102002,1746537150,119664604,world_ned,mA1/odom,3.4784978539028484,-0.3368635526762508,0.4336959949752009,3.436926213369739e-06,0.00012672241102900186,-0.09879427623030083,0.9951078709937677,0.0,0.0,0.0,0.0,0.0,0.0,0.0,0.0,0.0,0.0,0.0,0.0,0.0,0.0,0.0,0.0,0.0,0.0,0.0,0.0,0.0,0.0,0.0,0.0,0.0,0.0,0.0,0.0,0.0,0.0,0.0,0.0,0.0,0.0,0.0,0.0,0.00027650368340313843,-0.011028981177005175,-5.997372422820956e-05,-0.00263498565287979,0.0007092625176591443,0.000887615644287416,0.0,0.0,0.0,0.0,0.0,0.0,0.0,0.0,0.0,0.0,0.0,0.0,0.0,0.0,0.0,0.0,0.0,0.0,0.0,0.0,0.0,0.0,0.0,0.0,0.0,0.0,0.0,0.0,0.0,0.0,0.0,0.0,0.0,0.0,0.0,0.0
2025/05/06 15:12:30.224196154,1746537150,221527542,world_ned,mA1/odom,3.478463988978726,-0.3380107959584805,0.43369074861544005,-0.00014588158051433148,0.00015316148007187425,-0.0987441509356211,0.9951128317513189,0.0,0.0,0.0,0.0,0.0,0.0,0.0,0.0,0.0,0.0,0.0,0.0,0.0,0.0,0.0,0.0,0.0,0.0,0.0,0.0,0.0,0.0,0.0,0.0,0.0,0.0,0.0,0.0,0.0,0.0,0.0,0.0,0.0,0.0,0.0,0.0,-0.0021886816880584575,-0.011643934719155312,-3.6475671161013504e-05,-0.0032102777073809334,0.0014019549586689393,0.0011176809193969301,0.0,0.0,0.0,0.0,0.0,0.0,0.0,0.0,0.0,0.0,0.0,0.0,0.0,0.0,0.0,0.0,0.0,0.0,0.0,0.0,0.0,0.0,0.0,0.0,0.0,0.0,0.0,0.0,0.0,0.0,0.0,0.0,0.0,0.0,0.0,0.0
2025/05/06 15:12:30.322850573,1746537150,321903994,world_ned,mA1/odom,3.4785567638940336,-0.3392708969687538,0.43368513586493007,-0.0003073196770873192,0.00016003068376834766,-0.09868091874500927,0.9951190663535883,0.0,0.0,0.0,0.0,0.0,0.0,0.0,0.0,0.0,0.0,0.0,0.0,0.0,0.0,0.0,0.0,0.0,0.0,0.0,0.0,0.0,0.0,0.0,0.0,0.0,0.0,0.0,0.0,0.0,0.0,0.0,0.0,0.0,0.0,0.0,0.0,0.006028160672526746,-0.012741252047972324,-6.811267391139743e-05,-0.0030719248549694552,-0.0008867473232698989,0.0014148174271319746,0.0,0.0,0.0,0.0,0.0,0.0,0.0,0.0,0.0,0.0,0.0,0.0,0.0,0.0,0.0,0.0,0.0,0.0,0.0,0.0,0.0,0.0,0.0,0.0,0.0,0.0,0.0,0.0,0.0,0.0,0.0,0.0,0.0,0.0,0.0,0.0
2025/05/06 15:12:30.425960013,1746537150,424821102,world_ned,mA1/odom,3.478643388243235,-0.34067039879160976,0.4336770746440621,-0.00044089463796942826,0.00016632984424406883,-0.09860149480475812,0.9951268879738746,0.0,0.0,0.0,0.0,0.0,0.0,0.0,0.0,0.0,0.0,0.0,0.0,0.0,0.0,0.0,0.0,0.0,0.0,0.0,0.0,0.0,0.0,0.0,0.0,0.0,0.0,0.0,0.0,0.0,0.0,0.0,0.0,0.0,0.0,0.0,0.0,0.004499519116224181,-0.01425326387281049,-9.202925797948193e-05,-0.0022571981164116227,-0.0003089448094012582,0.0017573850882873394,0.0,0.0,0.0,0.0,0.0,0.0,0.0,0.0,0.0,0.0,0.0,0.0,0.0,0.0,0.0,0.0,0.0,0.0,0.0,0.0,0.0,0.0,0.0,0.0,0.0,0.0,0.0,0.0,0.0,0.0,0.0,0.0,0.0,0.0,0.0,0.0
2025/05/06 15:12:30.517123936,1746537150,516541139,world_ned,mA1/odom,3.478854557227394,-0.3422537394894011,0.43367181746553607,-0.0005240310739673203,0.00015594337833392131,-0.09850484727256724,0.995136420867463,0.0,0.0,0.0,0.0,0.0,0.0,0.0,0.0,0.0,0.0,0.0,0.0,0.0,0.0,0.0,0.0,0.0,0.0,0.0,0.0,0.0,0.0,0.0,0.0,0.0,0.0,0.0,0.0,0.0,0.0,0.0,0.0,0.0,0.0,0.0,0.0,0.004168790942125152,-0.0158281758515033,-4.8841623096241096e-05,-0.0010821759281618314,3.490843837192634e-05,0.0020876271021569256,0.0,0.0,0.0,0.0,0.0,0.0,0.0,0.0,0.0,0.0,0.0,0.0,0.0,0.0,0.0,0.0,0.0,0.0,0.0,0.0,0.0,0.0,0.0,0.0,0.0,0.0,0.0,0.0,0.0,0.0,0.0,0.0,0.0,0.0,0.0,0.0
2025/05/06 15:12:30.621381798,1746537150,620204164,world_ned,mA1/odom,3.479155036082137,-0.3440100825932063,0.43367060865013657,-0.0005460434484153618,0.0001390472466770676,-0.09839292703334845,0.9951474837491304,0.0,0.0,0.0,0.0,0.0,0.0,0.0,0.0,0.0,0.0,0.0,0.0,0.0,0.0,0.0,0.0,0.0,0.0,0.0,0.0,0.0,0.0,0.0,0.0,0.0,0.0,0.0,0.0,0.0,0.0,0.0,0.0,0.0,0.0,0.0,0.0,0.007821373731617693,-0.01733760076424835,2.3407999149997095e-05,0.0002023166270239636,-0.0005677363975496037,0.0023873917637279927,0.0,0.0,0.0,0.0,0.0,0.0,0.0,0.0,0.0,0.0,0.0,0.0,0.0,0.0,0.0,0.0,0.0,0.0,0.0,0.0,0.0,0.0,0.0,0.0,0.0,0.0,0.0,0.0,0.0,0.0,0.0,0.0,0.0,0.0,0.0,0.0
2025/05/06 15:12:30.724142561,1746537150,721679892,world_ned,mA1/odom,3.4795926878496033,-0.3459422467954444,0.4336748399494822,-0.000507567799468745,0.00011405906942302112,-0.09826572548740638,0.9951600758470425,0.0,0.0,0.0,0.0,0.0,0.0,0.0,0.0,0.0,0.0,0.0,0.0,0.0,0.0,0.0,0.0,0.0,0.0,0.0,0.0,0.0,0.0,0.0,0.0,0.0,0.0,0.0,0.0,0.0,0.0,0.0,0.0,0.0,0.0,0.0,0.0,0.0070448672712528845,-0.01870005516161889,4.261347945874756e-05,0.0012905582143438981,5.332825095554818e-05,0.002693503543054867,0.0,0.0,0.0,0.0,0.0,0.0,0.0,0.0,0.0,0.0,0.0,0.0,0.0,0.0,0.0,0.0,0.0,0.0,0.0,0.0,0.0,0.0,0.0,0.0,0.0,0.0,0.0,0.0,0.0,0.0,0.0,0.0,0.0,0.0,0.0,0.0
2025/05/06 15:12:30.815359444,1746537150,814474616,world_ned,mA1/odom,3.4800944460510395,-0.3480437750722521,0.43368400540616664,-0.0004133197237347161,9.481820510033504e-05,-0.098133703377828,0.9951731489734168,0.0,0.0,0.0,0.0,0.0,0.0,0.0,0.0,0.0,0.0,0.0,0.0,0.0,0.0,0.0,0.0,0.0,0.0,0.0,0.0,0.0,0.0,0.0,0.0,0.0,0.0,0.0,0.0,0.0,0.0,0.0,0.0,0.0,0.0,0.0,0.0,0.010287269086875047,-0.020471120084273924,9.741758990597082e-05,0.002429070095991258,-0.0002619627384669534,0.0024840331163206476,0.0,0.0,0.0,0.0,0.0,0.0,0.0,0.0,0.0,0.0,0.0,0.0,0.0,0.0,0.0,0.0,0.0,0.0,0.0,0.0,0.0,0.0,0.0,0.0,0.0,0.0,0.0,0.0,0.0,0.0,0.0,0.0,0.0,0.0,0.0,0.0
2025/05/06 15:12:30.918282617,1746537150,917539465,world_ned,mA1/odom,3.480743582511,-0.3503497660353974,0.43369740029971954,-0.0002729024025864082,7.739124005795903e-05,-0.09802217425147684,0.9951841904340561,0.0,0.0,0.0,0.0,0.0,0.0,0.0,0.0,0.0,0.0,0.0,0.0,0.0,0.0,0.0,0.0,0.0,0.0,0.0,0.0,0.0,0.0,0.0,0.0,0.0,0.0,0.0,0.0,0.0,0.0,0.0,0.0,0.0,0.0,0.0,0.0,0.013446361543423158,-0.021970970187707713,0.0001268397270613533,0.0030322055136532554,-0.000507958330251385,0.0020499557522867975,0.0,0.0,0.0,0.0,0.0,0.0,0.0,0.0,0.0,0.0,0.0,0.0,0.0,0.0,0.0,0.0,0.0,0.0,0.0,0.0,0.0,0.0,0.0,0.0,0.0,0.0,0.0,0.0,0.0,0.0,0.0,0.0,0.0,0.0,0.0,0.0
2025/05/06 15:12:31.26386942,1746537151,21115573,world_ned,mA1/odom,3.481517391996247,-0.35279599102098275,0.4337068559561135,-0.00012245752367726295,7.235058485966541e-05,-0.0979306366583287,0.9951932325801066,0.0,0.0,0.0,0.0,0.0,0.0,0.0,0.0,0.0,0.0,0.0,0.0,0.0,0.0,0.0,0.0,0.0,0.0,0.0,0.0,0.0,0.0,0.0,0.0,0.0,0.0,0.0,0.0,0.0,0.0,0.0,0.0,0.0,0.0,0.0,0.0,0.015556923095244325,-0.02281633919333155,5.223234865987156e-05,0.0028617968676095907,-0.0003865867125163275,0.0016668446202043003,0.0,0.0,0.0,0.0,0.0,0.0,0.0,0.0,0.0,0.0,0.0,0.0,0.0,0.0,0.0,0.0,0.0,0.0,0.0,0.0,0.0,0.0,0.0,0.0,0.0,0.0,0.0,0.0,0.0,0.0,0.0,0.0,0.0,0.0,0.0,0.0
2025/05/06 15:12:31.125947578,1746537151,122919565,world_ned,mA1/odom,3.4824417191851333,-0.3553236823044427,0.43370803513378164,-1.707200500191194e-06,7.918881180432824e-05,-0.09785799794705842,0.9952003848291112,0.0,0.0,0.0,0.0,0.0,0.0,0.0,0.0,0.0,0.0,0.0,0.0,0.0,0.0,0.0,0.0,0.0,0.0,0.0,0.0,0.0,0.0,0.0,0.0,0.0,0.0,0.0,0.0,0.0,0.0,0.0,0.0,0.0,0.0,0.0,0.0,0.013484579062902721,-0.023043357408448786,-2.58814837472929e-05,0.0018900598904933,0.0007506128516024973,0.001298086573506899,0.0,0.0,0.0,0.0,0.0,0.0,0.0,0.0,0.0,0.0,0.0,0.0,0.0,0.0,0.0,0.0,0.0,0.0,0.0,0.0,0.0,0.0,0.0,0.0,0.0,0.0,0.0,0.0,0.0,0.0,0.0,0.0,0.0,0.0,0.0,0.0
2025/05/06 15:12:31.217826777,1746537151,215093855,world_ned,mA1/odom,3.4835344870739466,-0.3578870164227966,0.4337025468149276,5.749546556879622e-05,9.408637199064714e-05,-0.09780341487230962,0.9952057475122121,0.0,0.0,0.0,0.0,0.0,0.0,0.0,0.0,0.0,0.0,0.0,0.0,0.0,0.0,0.0,0.0,0.0,0.0,0.0,0.0,0.0,0.0,0.0,0.0,0.0,0.0,0.0,0.0,0.0,0.0,0.0,0.0,0.0,0.0,0.0,0.0,0.01889797699261362,-0.02296451368159614,-6.197475844282669e-05,0.0005015459731270437,-0.00026962295405092205,0.0009267540413417353,0.0,0.0,0.0,0.0,0.0,0.0,0.0,0.0,0.0,0.0,0.0,0.0,0.0,0.0,0.0,0.0,0.0,0.0,0.0,0.0,0.0,0.0,0.0,0.0,0.0,0.0,0.0,0.0,0.0,0.0,0.0,0.0,0.0,0.0,0.0,0.0
2025/05/06 15:12:31.318676686,1746537151,317232875,world_ned,mA1/odom,3.4847474374764897,-0.3604595877356432,0.4336934420216882,4.441211798655459e-05,0.00012131806357061736,-0.09776807423257665,0.9952092176875899,0.0,0.0,0.0,0.0,0.0,0.0,0.0,0.0,0.0,0.0,0.0,0.0,0.0,0.0,0.0,0.0,0.0,0.0,0.0,0.0,0.0,0.0,0.0,0.0,0.0,0.0,0.0,0.0,0.0,0.0,0.0,0.0,0.0,0.0,0.0,0.0,0.01195898096467906,-0.022789184518102374,-9.59521382264217e-05,-0.0009782450969535175,0.0020675384978946177,0.0005333333121401811,0.0,0.0,0.0,0.0,0.0,0.0,0.0,0.0,0.0,0.0,0.0,0.0,0.0,0.0,0.0,0.0,0.0,0.0,0.0,0.0,0.0,0.0,0.0,0.0,0.0,0.0,0.0,0.0,0.0,0.0,0.0,0.0,0.0,0.0,0.0,0.0
2025/05/06 15:12:31.417850885,1746537151,417501052,world_ned,mA1/odom,3.4861453172914265,-0.3630576286615718,0.433680376576081,-3.621085149993634e-05,0.00014647539189396308,-0.09775293582698105,0.9952107016963493,0.0,0.0,0.0,0.0,0.0,0.0,0.0,0.0,0.0,0.0,0.0,0.0,0.0,0.0,0.0,0.0,0.0,0.0,0.0,0.0,0.0,0.0,0.0,0.0,0.0,0.0,0.0,0.0,0.0,0.0,0.0,0.0,0.0,0.0,0.0,0.0,0.018915592569607096,-0.022794832776394845,-0.00016262182601217806,-0.0021259087809012388,0.00044809910100907554,0.00010641211858378999,0.0,0.0,0.0,0.0,0.0,0.0,0.0,0.0,0.0,0.0,0.0,0.0,0.0,0.0,0.0,0.0,0.0,0.0,0.0,0.0,0.0,0.0,0.0,0.0,0.0,0.0,0.0,0.0,0.0,0.0,0.0,0.0,0.0,0.0,0.0,0.0
2025/05/06 15:12:31.519689526,1746537151,519177259,world_ned,mA1/odom,3.4876701715923675,-0.3656873700169243,0.4336622875570372,-0.00016306185714974866,0.00017333332586480784,-0.09775811959453716,0.9952101755004965,0.0,0.0,0.0,0.0,0.0,0.0,0.0,0.0,0.0,0.0,0.0,0.0,0.0,0.0,0.0,0.0,0.0,0.0,0.0,0.0,0.0,0.0,0.0,0.0,0.0,0.0,0.0,0.0,0.0,0.0,0.0,0.0,0.0,0.0,0.0,0.0,0.02102695911395818,-0.022612459706752273,-0.00017898060396041187,-0.0030562476867210656,0.00013563368777312336,-0.0001730817243978743,0.0,0.0,0.0,0.0,0.0,0.0,0.0,0.0,0.0,0.0,0.0,0.0,0.0,0.0,0.0,0.0,0.0,0.0,0.0,0.0,0.0,0.0,0.0,0.0,0.0,0.0,0.0,0.0,0.0,0.0,0.0,0.0,0.0,0.0,0.0,0.0
2025/05/06 15:12:31.621911173,1746537151,620848334,world_ned,mA1/odom,3.4893003524593165,-0.36827144718335725,0.4336493786406412,-0.000341109543108576,0.0002031397169602467,-0.09776551938590533,0.995209397864459,0.0,0.0,0.0,0.0,0.0,0.0,0.0,0.0,0.0,0.0,0.0,0.0,0.0,0.0,0.0,0.0,0.0,0.0,0.0,0.0,0.0,0.0,0.0,0.0,0.0,0.0,0.0,0.0,0.0,0.0,0.0,0.0,0.0,0.0,0.0,0.0,0.024911656722533867,-0.02188129383453889,-0.0001066019505889525,-0.003923350801105806,-0.0007591380122202164,-0.00012907455845424307,0.0,0.0,0.0,0.0,0.0,0.0,0.0,0.0,0.0,0.0,0.0,0.0,0.0,0.0,0.0,0.0,0.0,0.0,0.0,0.0,0.0,0.0,0.0,0.0,0.0,0.0,0.0,0.0,0.0,0.0,0.0,0.0,0.0,0.0,0.0,0.0
2025/05/06 15:12:31.723629069,1746537151,722639093,world_ned,mA1/odom,3.4911324992261226,-0.37084739398399774,0.4336472312711189,-0.0005410823742673235,0.0002153888913730276,-0.09777151511474591,0.995208717641509,0.0,0.0,0.0,0.0,0.0,0.0,0.0,0.0,0.0,0.0,0.0,0.0,0.0,0.0,0.0,0.0,0.0,0.0,0.0,0.0,0.0,0.0,0.0,0.0,0.0,0.0,0.0,0.0,0.0,0.0,0.0,0.0,0.0,0.0,0.0,0.0,0.019383964875444193,-0.021637215598741807,3.0754131437970145e-05,-0.003930004365300284,0.0009300689561299861,-0.00012308270168001704,0.0,0.0,0.0,0.0,0.0,0.0,0.0,0.0,0.0,0.0,0.0,0.0,0.0,0.0,0.0,0.0,0.0,0.0,0.0,0.0,0.0,0.0,0.0,0.0,0.0,0.0,0.0,0.0,0.0,0.0,0.0,0.0,0.0,0.0,0.0,0.0
2025/05/06 15:12:31.816712718,1746537151,815685495,world_ned,mA1/odom,3.493093231685703,-0.3734563669905148,0.4336558288098087,-0.000715164160137918,0.0002167246736629088,-0.09777865927390181,0.9952079055962317,0.0,0.0,0.0,0.0,0.0,0.0,0.0,0.0,0.0,0.0,0.0,0.0,0.0,0.0,0.0,0.0,0.0,0.0,0.0,0.0,0.0,0.0,0.0,0.0,0.0,0.0,0.0,0.0,0.0,0.0,0.0,0.0,0.0,0.0,0.0,0.0,0.032152696540678545,-0.021914560771722626,0.00011415711304665015,-0.0030125542537961848,-0.00243924377995112,-0.00016478149463529257,0.0,0.0,0.0,0.0,0.0,0.0,0.0,0.0,0.0,0.0,0.0,0.0,0.0,0.0,0.0,0.0,0.0,0.0,0.0,0.0,0.0,0.0,0.0,0.0,0.0,0.0,0.0,0.0,0.0,0.0,0.0,0.0,0.0,0.0,0.0,0.0
2025/05/06 15:12:31.922552651,1746537151,918704090,world_ned,mA1/odom,3.495085126415378,-0.37611062771310544,0.4336721270414131,-0.0008283600266370465,0.00021739923817409558,-0.09778832209010956,0.9952068682540522,0.0,0.0,0.0,0.0,0.0,0.0,0.0,0.0,0.0,0.0,0.0,0.0,0.0,0.0,0.0,0.0,0.0,0.0,0.0,0.0,0.0,0.0,0.0,0.0,0.0,0.0,0.0,0.0,0.0,0.0,0.0,0.0,0.0,0.0,0.0,0.0,0.027705229660807056,-0.022391563527997517,0.00015646955125556958,-0.0015582990889975621,-0.000924674530955633,-0.0002248344728255558,0.0,0.0,0.0,0.0,0.0,0.0,0.0,0.0,0.0,0.0,0.0,0.0,0.0,0.0,0.0,0.0,0.0,0.0,0.0,0.0,0.0,0.0,0.0,0.0,0.0,0.0,0.0,0.0,0.0,0.0,0.0,0.0,0.0,0.0,0.0,0.0
2025/05/06 15:12:32.19622899,1746537152,18342034,world_ned,mA1/odom,3.497242215718668,-0.3788512755604475,0.4336942412905488,-0.0008616695350567857,0.00020022061925335265,-0.09780170121882209,0.99520552886126,0.0,0.0,0.0,0.0,0.0,0.0,0.0,0.0,0.0,0.0,0.0,0.0,0.0,0.0,0.0,0.0,0.0,0.0,0.0,0.0,0.0,0.0,0.0,0.0,0.0,0.0,0.0,0.0,0.0,0.0,0.0,0.0,0.0,0.0,0.0,0.0,0.02535484942917245,-0.02289375220594622,0.00019275140170789743,0.00010969441116102986,3.8123997556157945e-05,-0.00030748911948080165,0.0,0.0,0.0,0.0,0.0,0.0,0.0,0.0,0.0,0.0,0.0,0.0,0.0,0.0,0.0,0.0,0.0,0.0,0.0,0.0,0.0,0.0,0.0,0.0,0.0,0.0,0.0,0.0,0.0,0.0,0.0,0.0,0.0,0.0,0.0,0.0
2025/05/06 15:12:32.123683097,1746537152,123222856,world_ned,mA1/odom,3.499534991769247,-0.3816612325915645,0.4337150082640742,-0.0008159480816683153,0.00017061724687808224,-0.09782026506859444,0.9952037484155659,0.0,0.0,0.0,0.0,0.0,0.0,0.0,0.0,0.0,0.0,0.0,0.0,0.0,0.0,0.0,0.0,0.0,0.0,0.0,0.0,0.0,0.0,0.0,0.0,0.0,0.0,0.0,0.0,0.0,0.0,0.0,0.0,0.0,0.0,0.0,0.0,0.028415563529243033,-0.023232852330375857,0.00014939429420442359,0.0016361458723714423,-0.0004229564553458172,-0.0004339683336102572,0.0,0.0,0.0,0.0,0.0,0.0,0.0,0.0,0.0,0.0,0.0,0.0,0.0,0.0,0.0,0.0,0.0,0.0,0.0,0.0,0.0,0.0,0.0,0.0,0.0,0.0,0.0,0.0,0.0,0.0,0.0,0.0,0.0,0.0,0.0,0.0
2025/05/06 15:12:32.216656852,1746537152,215945313,world_ned,mA1/odom,3.5019520467542784,-0.3845152631493504,0.4337298296543702,-0.0007035365336069571,0.0001409835701684168,-0.09784657438733114,0.9952012525316893,0.0,0.0,0.0,0.0,0.0,0.0,0.0,0.0,0.0,0.0,0.0,0.0,0.0,0.0,0.0,0.0,0.0,0.0,0.0,0.0,0.0,0.0,0.0,0.0,0.0,0.0,0.0,0.0,0.0,0.0,0.0,0.0,0.0,0.0,0.0,0.0,0.030085119710685997,-0.023254458097401273,7.878622850084407e-05,0.002722874448942056,-0.00036907156327966434,-0.00061052846387606,0.0,0.0,0.0,0.0,0.0,0.0,0.0,0.0,0.0,0.0,0.0,0.0,0.0,0.0,0.0,0.0,0.0,0.0,0.0,0.0,0.0,0.0,0.0,0.0,0.0,0.0,0.0,0.0,0.0,0.0,0.0,0.0,0.0,0.0,0.0,0.0
