time,header_stamp_secs,header_stamp_nsecs,header_frame_id,name_0,name_1,name_2,name_3,position_0,position_1,position_2,position_3
2025/05/06 15:12:23.167801516,0,0,,mA1/azimuth_1_joint,mA1/azimuth_2_joint,mA1/azimuth_3_joint,mA1/azimuth_4_joint,2.356194490192345,-2.356194490192345,-0.7853981633974483,0.7853981633974483
2025/05/06 15:12:23.266013473,0,0,,mA1/azimuth_1_joint,mA1/azimuth_2_joint,mA1/azimuth_3_joint,mA1/azimuth_4_joint,2.356194490192345,-2.356194490192345,-0.7853981633974483,0.7853981633974483
2025/05/06 15:12:23.368870442,0,0,,mA1/azimuth_1_joint,mA1/azimuth_2_joint,mA1/azimuth_3_joint,mA1/azimuth_4_joint,2.356194490192345,-2.356194490192345,-0.7853981633974483,0.7853981633974483
2025/05/06 15:12:23.471186715,0,0,,mA1/azimuth_1_joint,mA1/azimuth_2_joint,mA1/azimuth_3_joint,mA1/azimuth_4_joint,1.5533430342749532,-2.356194490192345,-0.7853981633974483,1.5533430342749532
2025/05/06 15:12:23.564542544,0,0,,mA1/azimuth_1_joint,mA1/azimuth_2_joint,mA1/azimuth_3_joint,mA1/azimuth_4_joint,1.5533430342749532,-2.356194490192345,-0.7853981633974483,1.5533430342749532
2025/05/06 15:12:23.669275345,0,0,,mA1/azimuth_1_joint,mA1/azimuth_2_joint,mA1/azimuth_3_joint,mA1/azimuth_4_joint,1.5533430342749532,-2.356194490192345,-0.7853981633974483,1.5533430342749532
2025/05/06 15:12:23.767518148,0,0,,mA1/azimuth_1_joint,mA1/azimuth_2_joint,mA1/azimuth_3_joint,mA1/azimuth_4_joint,1.5533430342749532,-2.356194490192345,-0.7853981633974483,1.5533430342749532
2025/05/06 15:12:23.868813055,0,0,,mA1/azimuth_1_joint,mA1/azimuth_2_joint,mA1/azimuth_3_joint,mA1/azimuth_4_joint,1.5533430342749532,-2.356194490192345,-0.7853981633974483,1.5533430342749532
2025/05/06 15:12:23.967143452,0,0,,mA1/azimuth_1_joint,mA1/azimuth_2_joint,mA1/azimuth_3_joint,mA1/azimuth_4_joint,1.5533430342749532,-2.356194490192345,-0.7853981633974483,1.5533430342749532
2025/05/06 15:12:24.71594843,0,0,,mA1/azimuth_1_joint,mA1/azimuth_2_joint,mA1/azimuth_3_joint,mA1/azimuth_4_joint,1.5533430342749532,-2.356194490192345,-0.7853981633974483,1.5533430342749532
2025/05/06 15:12:24.173281853,0,0,,mA1/azimuth_1_joint,mA1/azimuth_2_joint,mA1/azimuth_3_joint,mA1/azimuth_4_joint,2.356194490192345,-1.5533430342749532,-1.53588974175501,0.7853981633974483
2025/05/06 15:12:24.281010450,0,0,,mA1/azimuth_1_joint,mA1/azimuth_2_joint,mA1/azimuth_3_joint,mA1/azimuth_4_joint,2.356194490192345,-1.5533430342749532,-1.5533430342749532,0.7853981633974483
2025/05/06 15:12:24.366568728,0,0,,mA1/azimuth_1_joint,mA1/azimuth_2_joint,mA1/azimuth_3_joint,mA1/azimuth_4_joint,2.356194490192345,-1.5533430342749532,-1.5533430342749532,0.7853981633974483
2025/05/06 15:12:24.466216291,0,0,,mA1/azimuth_1_joint,mA1/azimuth_2_joint,mA1/azimuth_3_joint,mA1/azimuth_4_joint,2.356194490192345,-1.5533430342749532,-1.5533430342749532,0.7853981633974483
2025/05/06 15:12:24.590308823,0,0,,mA1/azimuth_1_joint,mA1/azimuth_2_joint,mA1/azimuth_3_joint,mA1/azimuth_4_joint,2.356194490192345,-1.5533430342749532,-1.5533430342749532,0.7853981633974483
2025/05/06 15:12:24.664886762,0,0,,mA1/azimuth_1_joint,mA1/azimuth_2_joint,mA1/azimuth_3_joint,mA1/azimuth_4_joint,2.356194490192345,-1.5533430342749532,-1.5533430342749532,0.7853981633974483
2025/05/06 15:12:24.785394172,0,0,,mA1/azimuth_1_joint,mA1/azimuth_2_joint,mA1/azimuth_3_joint,mA1/azimuth_4_joint,2.356194490192345,-1.5533430342749532,-1.5533430342749532,0.7853981633974483
2025/05/06 15:12:24.869886673,0,0,,mA1/azimuth_1_joint,mA1/azimuth_2_joint,mA1/azimuth_3_joint,mA1/azimuth_4_joint,2.356194490192345,-1.5533430342749532,-1.5533430342749532,0.7853981633974483
2025/05/06 15:12:24.966947118,0,0,,mA1/azimuth_1_joint,mA1/azimuth_2_joint,mA1/azimuth_3_joint,mA1/azimuth_4_joint,2.356194490192345,-1.5533430342749532,-1.5533430342749532,0.7853981633974483
2025/05/06 15:12:25.76275303,0,0,,mA1/azimuth_1_joint,mA1/azimuth_2_joint,mA1/azimuth_3_joint,mA1/azimuth_4_joint,2.356194490192345,-1.5533430342749532,-1.5533430342749532,0.7853981633974483
2025/05/06 15:12:25.189617287,0,0,,mA1/azimuth_1_joint,mA1/azimuth_2_joint,mA1/azimuth_3_joint,mA1/azimuth_4_joint,2.356194490192345,-1.5533430342749532,-1.5533430342749532,0.7853981633974483
2025/05/06 15:12:25.268990912,0,0,,mA1/azimuth_1_joint,mA1/azimuth_2_joint,mA1/azimuth_3_joint,mA1/azimuth_4_joint,2.356194490192345,-1.5533430342749532,-1.53588974175501,0.7853981633974483
2025/05/06 15:12:25.370994969,0,0,,mA1/azimuth_1_joint,mA1/azimuth_2_joint,mA1/azimuth_3_joint,mA1/azimuth_4_joint,2.356194490192345,-1.5533430342749532,-1.53588974175501,0.7853981633974483
2025/05/06 15:12:25.517182884,0,0,,mA1/azimuth_1_joint,mA1/azimuth_2_joint,mA1/azimuth_3_joint,mA1/azimuth_4_joint,2.356194490192345,-1.5533430342749532,-1.53588974175501,0.7853981633974483
2025/05/06 15:12:25.727127422,0,0,,mA1/azimuth_1_joint,mA1/azimuth_2_joint,mA1/azimuth_3_joint,mA1/azimuth_4_joint,2.356194490192345,-1.5533430342749532,-1.5009831567151235,0.7853981633974483
2025/05/06 15:12:25.923319264,0,0,,mA1/azimuth_1_joint,mA1/azimuth_2_joint,mA1/azimuth_3_joint,mA1/azimuth_4_joint,2.356194490192345,-1.5533430342749532,-1.5009831567151235,0.7853981633974483
2025/05/06 15:12:25.965376374,0,0,,mA1/azimuth_1_joint,mA1/azimuth_2_joint,mA1/azimuth_3_joint,mA1/azimuth_4_joint,2.356194490192345,-1.5533430342749532,-1.5009831567151235,0.7853981633974483
2025/05/06 15:12:26.65450003,0,0,,mA1/azimuth_1_joint,mA1/azimuth_2_joint,mA1/azimuth_3_joint,mA1/azimuth_4_joint,2.356194490192345,-1.5533430342749532,-1.5009831567151235,0.7853981633974483
2025/05/06 15:12:26.242373902,0,0,,mA1/azimuth_1_joint,mA1/azimuth_2_joint,mA1/azimuth_3_joint,mA1/azimuth_4_joint,2.356194490192345,-1.5533430342749532,-1.5009831567151235,0.7853981633974483
2025/05/06 15:12:26.441384841,0,0,,mA1/azimuth_1_joint,mA1/azimuth_2_joint,mA1/azimuth_3_joint,mA1/azimuth_4_joint,2.356194490192345,-1.5533430342749532,-1.5009831567151235,0.7853981633974483
2025/05/06 15:12:26.485035117,0,0,,mA1/azimuth_1_joint,mA1/azimuth_2_joint,mA1/azimuth_3_joint,mA1/azimuth_4_joint,2.356194490192345,-1.5533430342749532,-1.5009831567151235,0.7853981633974483
2025/05/06 15:12:26.611978404,0,0,,mA1/azimuth_1_joint,mA1/azimuth_2_joint,mA1/azimuth_3_joint,mA1/azimuth_4_joint,2.356194490192345,-1.5533430342749532,-1.5009831567151235,0.7853981633974483
2025/05/06 15:12:26.727442951,0,0,,mA1/azimuth_1_joint,mA1/azimuth_2_joint,mA1/azimuth_3_joint,mA1/azimuth_4_joint,2.356194490192345,-1.5533430342749532,-1.5009831567151235,0.7853981633974483
2025/05/06 15:12:26.768588751,0,0,,mA1/azimuth_1_joint,mA1/azimuth_2_joint,mA1/azimuth_3_joint,mA1/azimuth_4_joint,2.356194490192345,-1.5533430342749532,-1.5009831567151235,0.7853981633974483
2025/05/06 15:12:26.813916418,0,0,,mA1/azimuth_1_joint,mA1/azimuth_2_joint,mA1/azimuth_3_joint,mA1/azimuth_4_joint,2.356194490192345,-1.5533430342749532,-1.53588974175501,0.7853981633974483
2025/05/06 15:12:26.902263262,0,0,,mA1/azimuth_1_joint,mA1/azimuth_2_joint,mA1/azimuth_3_joint,mA1/azimuth_4_joint,2.356194490192345,-1.5533430342749532,-1.5533430342749532,0.7853981633974483
2025/05/06 15:12:26.970614901,0,0,,mA1/azimuth_1_joint,mA1/azimuth_2_joint,mA1/azimuth_3_joint,mA1/azimuth_4_joint,2.356194490192345,-1.5533430342749532,-1.5533430342749532,0.7853981633974483
2025/05/06 15:12:27.67351345,0,0,,mA1/azimuth_1_joint,mA1/azimuth_2_joint,mA1/azimuth_3_joint,mA1/azimuth_4_joint,2.356194490192345,-1.5533430342749532,-1.5533430342749532,0.7853981633974483
2025/05/06 15:12:27.167050856,0,0,,mA1/azimuth_1_joint,mA1/azimuth_2_joint,mA1/azimuth_3_joint,mA1/azimuth_4_joint,2.356194490192345,-1.5533430342749532,-1.5533430342749532,0.7853981633974483
2025/05/06 15:12:27.272082225,0,0,,mA1/azimuth_1_joint,mA1/azimuth_2_joint,mA1/azimuth_3_joint,mA1/azimuth_4_joint,2.356194490192345,-1.5533430342749532,-1.5533430342749532,0.7853981633974483
2025/05/06 15:12:27.366032271,0,0,,mA1/azimuth_1_joint,mA1/azimuth_2_joint,mA1/azimuth_3_joint,mA1/azimuth_4_joint,2.356194490192345,-1.5533430342749532,-1.5533430342749532,0.7853981633974483
2025/05/06 15:12:27.467972862,0,0,,mA1/azimuth_1_joint,mA1/azimuth_2_joint,mA1/azimuth_3_joint,mA1/azimuth_4_joint,2.356194490192345,-1.5533430342749532,-1.5533430342749532,0.7853981633974483
2025/05/06 15:12:27.563990035,0,0,,mA1/azimuth_1_joint,mA1/azimuth_2_joint,mA1/azimuth_3_joint,mA1/azimuth_4_joint,2.356194490192345,-1.5533430342749532,-1.53588974175501,0.7853981633974483
2025/05/06 15:12:27.664112220,0,0,,mA1/azimuth_1_joint,mA1/azimuth_2_joint,mA1/azimuth_3_joint,mA1/azimuth_4_joint,2.356194490192345,-1.5533430342749532,-1.53588974175501,0.7853981633974483
2025/05/06 15:12:27.763945042,0,0,,mA1/azimuth_1_joint,mA1/azimuth_2_joint,mA1/azimuth_3_joint,mA1/azimuth_4_joint,2.356194490192345,-1.5533430342749532,-1.53588974175501,0.7853981633974483
2025/05/06 15:12:27.868782564,0,0,,mA1/azimuth_1_joint,mA1/azimuth_2_joint,mA1/azimuth_3_joint,mA1/azimuth_4_joint,2.356194490192345,-1.5533430342749532,-1.53588974175501,0.7853981633974483
2025/05/06 15:12:27.963904861,0,0,,mA1/azimuth_1_joint,mA1/azimuth_2_joint,mA1/azimuth_3_joint,mA1/azimuth_4_joint,2.356194490192345,-1.5533430342749532,-1.53588974175501,0.7853981633974483
2025/05/06 15:12:28.65796037,0,0,,mA1/azimuth_1_joint,mA1/azimuth_2_joint,mA1/azimuth_3_joint,mA1/azimuth_4_joint,2.356194490192345,-1.5533430342749532,-1.53588974175501,0.7853981633974483
2025/05/06 15:12:28.166985273,0,0,,mA1/azimuth_1_joint,mA1/azimuth_2_joint,mA1/azimuth_3_joint,mA1/azimuth_4_joint,2.356194490192345,-1.5533430342749532,-1.53588974175501,0.7853981633974483
2025/05/06 15:12:28.266290298,0,0,,mA1/azimuth_1_joint,mA1/azimuth_2_joint,mA1/azimuth_3_joint,mA1/azimuth_4_joint,2.356194490192345,-1.5533430342749532,-1.53588974175501,0.7853981633974483
2025/05/06 15:12:28.363525747,0,0,,mA1/azimuth_1_joint,mA1/azimuth_2_joint,mA1/azimuth_3_joint,mA1/azimuth_4_joint,2.356194490192345,-1.5533430342749532,-1.53588974175501,0.7853981633974483
2025/05/06 15:12:28.462944916,0,0,,mA1/azimuth_1_joint,mA1/azimuth_2_joint,mA1/azimuth_3_joint,mA1/azimuth_4_joint,2.356194490192345,-1.5533430342749532,-1.53588974175501,0.7853981633974483
2025/05/06 15:12:28.564751459,0,0,,mA1/azimuth_1_joint,mA1/azimuth_2_joint,mA1/azimuth_3_joint,mA1/azimuth_4_joint,2.356194490192345,-1.5533430342749532,-1.53588974175501,0.7853981633974483
2025/05/06 15:12:28.663108209,0,0,,mA1/azimuth_1_joint,mA1/azimuth_2_joint,mA1/azimuth_3_joint,mA1/azimuth_4_joint,2.356194490192345,-1.5533430342749532,-1.53588974175501,0.7853981633974483
2025/05/06 15:12:28.763276742,0,0,,mA1/azimuth_1_joint,mA1/azimuth_2_joint,mA1/azimuth_3_joint,mA1/azimuth_4_joint,2.356194490192345,-1.5533430342749532,-1.53588974175501,0.7853981633974483
2025/05/06 15:12:28.863056584,0,0,,mA1/azimuth_1_joint,mA1/azimuth_2_joint,mA1/azimuth_3_joint,mA1/azimuth_4_joint,2.356194490192345,-1.5533430342749532,-1.53588974175501,0.7853981633974483
2025/05/06 15:12:28.963102138,0,0,,mA1/azimuth_1_joint,mA1/azimuth_2_joint,mA1/azimuth_3_joint,mA1/azimuth_4_joint,2.356194490192345,-1.5533430342749532,-1.53588974175501,0.7853981633974483
2025/05/06 15:12:29.66211176,0,0,,mA1/azimuth_1_joint,mA1/azimuth_2_joint,mA1/azimuth_3_joint,mA1/azimuth_4_joint,2.356194490192345,-1.5533430342749532,-1.53588974175501,0.7853981633974483
2025/05/06 15:12:29.163186174,0,0,,mA1/azimuth_1_joint,mA1/azimuth_2_joint,mA1/azimuth_3_joint,mA1/azimuth_4_joint,2.356194490192345,-2.356194490192345,-0.17453292519943295,0.0
2025/05/06 15:12:29.263233574,0,0,,mA1/azimuth_1_joint,mA1/azimuth_2_joint,mA1/azimuth_3_joint,mA1/azimuth_4_joint,2.356194490192345,-2.356194490192345,-0.13962634015954636,0.0
2025/05/06 15:12:29.363002972,0,0,,mA1/azimuth_1_joint,mA1/azimuth_2_joint,mA1/azimuth_3_joint,mA1/azimuth_4_joint,2.356194490192345,-1.53588974175501,-0.4886921905584123,0.0
2025/05/06 15:12:29.463771526,0,0,,mA1/azimuth_1_joint,mA1/azimuth_2_joint,mA1/azimuth_3_joint,mA1/azimuth_4_joint,2.356194490192345,-1.5533430342749532,-0.4537856055185257,0.0
2025/05/06 15:12:29.565507835,0,0,,mA1/azimuth_1_joint,mA1/azimuth_2_joint,mA1/azimuth_3_joint,mA1/azimuth_4_joint,2.356194490192345,-1.5533430342749532,-0.4537856055185257,0.0
2025/05/06 15:12:29.664839740,0,0,,mA1/azimuth_1_joint,mA1/azimuth_2_joint,mA1/azimuth_3_joint,mA1/azimuth_4_joint,2.356194490192345,-1.5533430342749532,-0.3839724354387525,0.0
2025/05/06 15:12:29.763189506,0,0,,mA1/azimuth_1_joint,mA1/azimuth_2_joint,mA1/azimuth_3_joint,mA1/azimuth_4_joint,2.356194490192345,-1.5533430342749532,-0.3839724354387525,0.0
2025/05/06 15:12:29.866432577,0,0,,mA1/azimuth_1_joint,mA1/azimuth_2_joint,mA1/azimuth_3_joint,mA1/azimuth_4_joint,2.356194490192345,-1.5533430342749532,-0.33161255787892263,0.0
2025/05/06 15:12:29.963496298,0,0,,mA1/azimuth_1_joint,mA1/azimuth_2_joint,mA1/azimuth_3_joint,mA1/azimuth_4_joint,2.356194490192345,-1.5533430342749532,-0.29670597283903605,0.0
2025/05/06 15:12:30.65336139,0,0,,mA1/azimuth_1_joint,mA1/azimuth_2_joint,mA1/azimuth_3_joint,mA1/azimuth_4_joint,2.356194490192345,-1.5533430342749532,-0.29670597283903605,0.0
2025/05/06 15:12:30.164946587,0,0,,mA1/azimuth_1_joint,mA1/azimuth_2_joint,mA1/azimuth_3_joint,mA1/azimuth_4_joint,2.356194490192345,-1.5533430342749532,-0.2617993877991494,0.0
2025/05/06 15:12:30.264007898,0,0,,mA1/azimuth_1_joint,mA1/azimuth_2_joint,mA1/azimuth_3_joint,mA1/azimuth_4_joint,2.356194490192345,-1.5533430342749532,-0.22689280275926285,0.0
2025/05/06 15:12:30.366296615,0,0,,mA1/azimuth_1_joint,mA1/azimuth_2_joint,mA1/azimuth_3_joint,mA1/azimuth_4_joint,2.356194490192345,-1.5533430342749532,-0.13962634015954636,0.0
2025/05/06 15:12:30.463504136,0,0,,mA1/azimuth_1_joint,mA1/azimuth_2_joint,mA1/azimuth_3_joint,mA1/azimuth_4_joint,2.356194490192345,-1.5533430342749532,-0.10471975511965978,0.0
2025/05/06 15:12:30.563512291,0,0,,mA1/azimuth_1_joint,mA1/azimuth_2_joint,mA1/azimuth_3_joint,mA1/azimuth_4_joint,2.356194490192345,-1.5533430342749532,-0.08726646259971647,0.0
2025/05/06 15:12:30.666327505,0,0,,mA1/azimuth_1_joint,mA1/azimuth_2_joint,mA1/azimuth_3_joint,mA1/azimuth_4_joint,2.356194490192345,-1.5533430342749532,-0.08726646259971647,0.0
2025/05/06 15:12:30.765514567,0,0,,mA1/azimuth_1_joint,mA1/azimuth_2_joint,mA1/azimuth_3_joint,mA1/azimuth_4_joint,2.356194490192345,-1.5533430342749532,-0.08726646259971647,0.0
2025/05/06 15:12:30.863185751,0,0,,mA1/azimuth_1_joint,mA1/azimuth_2_joint,mA1/azimuth_3_joint,mA1/azimuth_4_joint,2.356194490192345,-1.5533430342749532,-0.08726646259971647,0.0
2025/05/06 15:12:30.965776652,0,0,,mA1/azimuth_1_joint,mA1/azimuth_2_joint,mA1/azimuth_3_joint,mA1/azimuth_4_joint,2.356194490192345,-1.5533430342749532,-0.08726646259971647,0.0
2025/05/06 15:12:31.65998113,0,0,,mA1/azimuth_1_joint,mA1/azimuth_2_joint,mA1/azimuth_3_joint,mA1/azimuth_4_joint,2.356194490192345,-1.5533430342749532,-0.08726646259971647,0.0
2025/05/06 15:12:31.163808303,0,0,,mA1/azimuth_1_joint,mA1/azimuth_2_joint,mA1/azimuth_3_joint,mA1/azimuth_4_joint,2.356194490192345,-1.5533430342749532,-0.08726646259971647,0.0
2025/05/06 15:12:31.262963760,0,0,,mA1/azimuth_1_joint,mA1/azimuth_2_joint,mA1/azimuth_3_joint,mA1/azimuth_4_joint,2.356194490192345,-1.5533430342749532,-0.08726646259971647,0.0
2025/05/06 15:12:31.363292161,0,0,,mA1/azimuth_1_joint,mA1/azimuth_2_joint,mA1/azimuth_3_joint,mA1/azimuth_4_joint,2.356194490192345,-1.5533430342749532,-0.06981317007977318,0.0
2025/05/06 15:12:31.463568767,0,0,,mA1/azimuth_1_joint,mA1/azimuth_2_joint,mA1/azimuth_3_joint,mA1/azimuth_4_joint,1.5533430342749532,-2.356194490192345,0.0,0.0
2025/05/06 15:12:31.563686561,0,0,,mA1/azimuth_1_joint,mA1/azimuth_2_joint,mA1/azimuth_3_joint,mA1/azimuth_4_joint,1.5533430342749532,-2.356194490192345,0.0,0.0
2025/05/06 15:12:31.663073384,0,0,,mA1/azimuth_1_joint,mA1/azimuth_2_joint,mA1/azimuth_3_joint,mA1/azimuth_4_joint,1.5533430342749532,-2.356194490192345,0.0,0.0
2025/05/06 15:12:31.763125337,0,0,,mA1/azimuth_1_joint,mA1/azimuth_2_joint,mA1/azimuth_3_joint,mA1/azimuth_4_joint,1.5533430342749532,-2.356194490192345,0.0,0.0
2025/05/06 15:12:31.864071585,0,0,,mA1/azimuth_1_joint,mA1/azimuth_2_joint,mA1/azimuth_3_joint,mA1/azimuth_4_joint,1.5533430342749532,-2.356194490192345,0.0,0.0
2025/05/06 15:12:31.963087001,0,0,,mA1/azimuth_1_joint,mA1/azimuth_2_joint,mA1/azimuth_3_joint,mA1/azimuth_4_joint,1.5533430342749532,-2.356194490192345,0.0,0.0
2025/05/06 15:12:32.63936127,0,0,,mA1/azimuth_1_joint,mA1/azimuth_2_joint,mA1/azimuth_3_joint,mA1/azimuth_4_joint,1.5533430342749532,-2.356194490192345,0.0,0.0
2025/05/06 15:12:32.166183512,0,0,,mA1/azimuth_1_joint,mA1/azimuth_2_joint,mA1/azimuth_3_joint,mA1/azimuth_4_joint,1.5533430342749532,-2.356194490192345,0.0,0.0
2025/05/06 15:12:32.264753900,0,0,,mA1/azimuth_1_joint,mA1/azimuth_2_joint,mA1/azimuth_3_joint,mA1/azimuth_4_joint,1.5707963267948966,-2.356194490192345,0.0,0.0
2025/05/06 15:12:32.363001883,0,0,,mA1/azimuth_1_joint,mA1/azimuth_2_joint,mA1/azimuth_3_joint,mA1/azimuth_4_joint,1.5707963267948966,-2.356194490192345,0.0,0.017453292519943295
2025/05/06 15:12:32.464918583,0,0,,mA1/azimuth_1_joint,mA1/azimuth_2_joint,mA1/azimuth_3_joint,mA1/azimuth_4_joint,1.5707963267948966,-2.356194490192345,0.0,0.017453292519943295
2025/05/06 15:12:32.563075399,0,0,,mA1/azimuth_1_joint,mA1/azimuth_2_joint,mA1/azimuth_3_joint,mA1/azimuth_4_joint,1.5533430342749532,-2.356194490192345,0.0,0.017453292519943295
2025/05/06 15:12:32.663937918,0,0,,mA1/azimuth_1_joint,mA1/azimuth_2_joint,mA1/azimuth_3_joint,mA1/azimuth_4_joint,1.5533430342749532,-2.356194490192345,0.0,0.017453292519943295
2025/05/06 15:12:32.762984296,0,0,,mA1/azimuth_1_joint,mA1/azimuth_2_joint,mA1/azimuth_3_joint,mA1/azimuth_4_joint,1.5533430342749532,-2.356194490192345,0.0,0.017453292519943295
2025/05/06 15:12:32.863270486,0,0,,mA1/azimuth_1_joint,mA1/azimuth_2_joint,mA1/azimuth_3_joint,mA1/azimuth_4_joint,1.5707963267948966,-2.356194490192345,0.0,0.017453292519943295
2025/05/06 15:12:32.964192936,0,0,,mA1/azimuth_1_joint,mA1/azimuth_2_joint,mA1/azimuth_3_joint,mA1/azimuth_4_joint,1.5707963267948966,-2.356194490192345,0.0,0.017453292519943295
2025/05/06 15:12:33.63533891,0,0,,mA1/azimuth_1_joint,mA1/azimuth_2_joint,mA1/azimuth_3_joint,mA1/azimuth_4_joint,1.5533430342749532,-2.356194490192345,0.0,0.017453292519943295
2025/05/06 15:12:33.167406409,0,0,,mA1/azimuth_1_joint,mA1/azimuth_2_joint,mA1/azimuth_3_joint,mA1/azimuth_4_joint,1.5533430342749532,-2.356194490192345,0.0,0.017453292519943295
2025/05/06 15:12:33.263032825,0,0,,mA1/azimuth_1_joint,mA1/azimuth_2_joint,mA1/azimuth_3_joint,mA1/azimuth_4_joint,1.5533430342749532,-2.356194490192345,0.0,0.017453292519943295
2025/05/06 15:12:33.364262777,0,0,,mA1/azimuth_1_joint,mA1/azimuth_2_joint,mA1/azimuth_3_joint,mA1/azimuth_4_joint,1.5533430342749532,-2.356194490192345,0.0,0.017453292519943295
2025/05/06 15:12:33.462974561,0,0,,mA1/azimuth_1_joint,mA1/azimuth_2_joint,mA1/azimuth_3_joint,mA1/azimuth_4_joint,2.356194490192345,-2.356194490192345,0.0,0.0
2025/05/06 15:12:33.567001747,0,0,,mA1/azimuth_1_joint,mA1/azimuth_2_joint,mA1/azimuth_3_joint,mA1/azimuth_4_joint,2.356194490192345,-2.356194490192345,0.0,0.0
2025/05/06 15:12:33.663163641,0,0,,mA1/azimuth_1_joint,mA1/azimuth_2_joint,mA1/azimuth_3_joint,mA1/azimuth_4_joint,2.356194490192345,-2.356194490192345,0.0,0.0
2025/05/06 15:12:33.763521905,0,0,,mA1/azimuth_1_joint,mA1/azimuth_2_joint,mA1/azimuth_3_joint,mA1/azimuth_4_joint,2.356194490192345,-2.356194490192345,0.0,0.0
2025/05/06 15:12:33.863196704,0,0,,mA1/azimuth_1_joint,mA1/azimuth_2_joint,mA1/azimuth_3_joint,mA1/azimuth_4_joint,2.356194490192345,-2.356194490192345,0.0,0.0
2025/05/06 15:12:33.963397891,0,0,,mA1/azimuth_1_joint,mA1/azimuth_2_joint,mA1/azimuth_3_joint,mA1/azimuth_4_joint,2.356194490192345,-2.356194490192345,0.0,0.0
2025/05/06 15:12:34.64481810,0,0,,mA1/azimuth_1_joint,mA1/azimuth_2_joint,mA1/azimuth_3_joint,mA1/azimuth_4_joint,2.356194490192345,-2.356194490192345,0.0,0.0
2025/05/06 15:12:34.163276386,0,0,,mA1/azimuth_1_joint,mA1/azimuth_2_joint,mA1/azimuth_3_joint,mA1/azimuth_4_joint,2.356194490192345,-2.356194490192345,0.0,0.0
2025/05/06 15:12:34.263428750,0,0,,mA1/azimuth_1_joint,mA1/azimuth_2_joint,mA1/azimuth_3_joint,mA1/azimuth_4_joint,2.356194490192345,-2.356194490192345,0.0,0.0
2025/05/06 15:12:34.363182262,0,0,,mA1/azimuth_1_joint,mA1/azimuth_2_joint,mA1/azimuth_3_joint,mA1/azimuth_4_joint,2.356194490192345,-2.356194490192345,0.0,0.0
2025/05/06 15:12:34.464933313,0,0,,mA1/azimuth_1_joint,mA1/azimuth_2_joint,mA1/azimuth_3_joint,mA1/azimuth_4_joint,2.356194490192345,-2.356194490192345,0.0,0.0
2025/05/06 15:12:34.563911721,0,0,,mA1/azimuth_1_joint,mA1/azimuth_2_joint,mA1/azimuth_3_joint,mA1/azimuth_4_joint,1.5533430342749532,-2.356194490192345,0.0,0.19198621771937624
2025/05/06 15:12:34.663966438,0,0,,mA1/azimuth_1_joint,mA1/azimuth_2_joint,mA1/azimuth_3_joint,mA1/azimuth_4_joint,1.5533430342749532,-2.356194490192345,0.0,0.19198621771937624
2025/05/06 15:12:34.763125355,0,0,,mA1/azimuth_1_joint,mA1/azimuth_2_joint,mA1/azimuth_3_joint,mA1/azimuth_4_joint,1.5533430342749532,-2.356194490192345,0.0,0.24434609527920614
2025/05/06 15:12:34.863708967,0,0,,mA1/azimuth_1_joint,mA1/azimuth_2_joint,mA1/azimuth_3_joint,mA1/azimuth_4_joint,1.5533430342749532,-2.356194490192345,0.0,0.24434609527920614
2025/05/06 15:12:34.963368495,0,0,,mA1/azimuth_1_joint,mA1/azimuth_2_joint,mA1/azimuth_3_joint,mA1/azimuth_4_joint,1.5533430342749532,-2.356194490192345,0.0,0.22689280275926285
2025/05/06 15:12:35.63008704,0,0,,mA1/azimuth_1_joint,mA1/azimuth_2_joint,mA1/azimuth_3_joint,mA1/azimuth_4_joint,1.5533430342749532,-2.356194490192345,0.0,0.22689280275926285
2025/05/06 15:12:35.163926428,0,0,,mA1/azimuth_1_joint,mA1/azimuth_2_joint,mA1/azimuth_3_joint,mA1/azimuth_4_joint,1.5533430342749532,-2.356194490192345,0.0,0.20943951023931956
2025/05/06 15:12:35.263637110,0,0,,mA1/azimuth_1_joint,mA1/azimuth_2_joint,mA1/azimuth_3_joint,mA1/azimuth_4_joint,1.5533430342749532,-2.356194490192345,0.0,0.20943951023931956
2025/05/06 15:12:35.368114333,0,0,,mA1/azimuth_1_joint,mA1/azimuth_2_joint,mA1/azimuth_3_joint,mA1/azimuth_4_joint,1.5533430342749532,-2.356194490192345,0.0,0.20943951023931956
2025/05/06 15:12:35.463361522,0,0,,mA1/azimuth_1_joint,mA1/azimuth_2_joint,mA1/azimuth_3_joint,mA1/azimuth_4_joint,2.356194490192345,-1.5707963267948966,-0.15707963267948966,0.0
2025/05/06 15:12:35.563969545,0,0,,mA1/azimuth_1_joint,mA1/azimuth_2_joint,mA1/azimuth_3_joint,mA1/azimuth_4_joint,2.356194490192345,-1.5533430342749532,-0.22689280275926285,0.0
2025/05/06 15:12:35.663676855,0,0,,mA1/azimuth_1_joint,mA1/azimuth_2_joint,mA1/azimuth_3_joint,mA1/azimuth_4_joint,2.356194490192345,-1.5533430342749532,-0.22689280275926285,0.0
2025/05/06 15:12:35.763146866,0,0,,mA1/azimuth_1_joint,mA1/azimuth_2_joint,mA1/azimuth_3_joint,mA1/azimuth_4_joint,2.356194490192345,-1.5533430342749532,-0.20943951023931956,0.0
2025/05/06 15:12:35.862957235,0,0,,mA1/azimuth_1_joint,mA1/azimuth_2_joint,mA1/azimuth_3_joint,mA1/azimuth_4_joint,2.356194490192345,-1.5533430342749532,-0.20943951023931956,0.0
2025/05/06 15:12:35.963577967,0,0,,mA1/azimuth_1_joint,mA1/azimuth_2_joint,mA1/azimuth_3_joint,mA1/azimuth_4_joint,2.356194490192345,-1.5533430342749532,-0.20943951023931956,0.0
2025/05/06 15:12:36.63369311,0,0,,mA1/azimuth_1_joint,mA1/azimuth_2_joint,mA1/azimuth_3_joint,mA1/azimuth_4_joint,2.356194490192345,-1.5533430342749532,-0.19198621771937624,0.0
2025/05/06 15:12:36.163363692,0,0,,mA1/azimuth_1_joint,mA1/azimuth_2_joint,mA1/azimuth_3_joint,mA1/azimuth_4_joint,2.356194490192345,-1.5533430342749532,-0.19198621771937624,0.0
2025/05/06 15:12:36.263637879,0,0,,mA1/azimuth_1_joint,mA1/azimuth_2_joint,mA1/azimuth_3_joint,mA1/azimuth_4_joint,2.356194490192345,-1.5533430342749532,-0.19198621771937624,0.0
2025/05/06 15:12:36.363421748,0,0,,mA1/azimuth_1_joint,mA1/azimuth_2_joint,mA1/azimuth_3_joint,mA1/azimuth_4_joint,2.356194490192345,-1.5533430342749532,-0.19198621771937624,0.0
2025/05/06 15:12:36.465044805,0,0,,mA1/azimuth_1_joint,mA1/azimuth_2_joint,mA1/azimuth_3_joint,mA1/azimuth_4_joint,1.5533430342749532,-2.356194490192345,0.0,0.15707963267948966
2025/05/06 15:12:36.564611853,0,0,,mA1/azimuth_1_joint,mA1/azimuth_2_joint,mA1/azimuth_3_joint,mA1/azimuth_4_joint,1.5707963267948966,-2.356194490192345,0.0,0.19198621771937624
2025/05/06 15:12:36.663725136,0,0,,mA1/azimuth_1_joint,mA1/azimuth_2_joint,mA1/azimuth_3_joint,mA1/azimuth_4_joint,1.5533430342749532,-2.356194490192345,0.0,0.17453292519943295
2025/05/06 15:12:36.763485451,0,0,,mA1/azimuth_1_joint,mA1/azimuth_2_joint,mA1/azimuth_3_joint,mA1/azimuth_4_joint,1.5533430342749532,-2.356194490192345,0.0,0.15707963267948966
2025/05/06 15:12:36.863318428,0,0,,mA1/azimuth_1_joint,mA1/azimuth_2_joint,mA1/azimuth_3_joint,mA1/azimuth_4_joint,1.5533430342749532,-2.356194490192345,0.0,0.15707963267948966
2025/05/06 15:12:36.963272540,0,0,,mA1/azimuth_1_joint,mA1/azimuth_2_joint,mA1/azimuth_3_joint,mA1/azimuth_4_joint,1.5707963267948966,-2.356194490192345,0.0,0.15707963267948966
2025/05/06 15:12:37.64173065,0,0,,mA1/azimuth_1_joint,mA1/azimuth_2_joint,mA1/azimuth_3_joint,mA1/azimuth_4_joint,1.5707963267948966,-2.356194490192345,0.0,0.15707963267948966
2025/05/06 15:12:37.164836302,0,0,,mA1/azimuth_1_joint,mA1/azimuth_2_joint,mA1/azimuth_3_joint,mA1/azimuth_4_joint,1.5707963267948966,-2.356194490192345,0.0,0.15707963267948966
2025/05/06 15:12:37.263082137,0,0,,mA1/azimuth_1_joint,mA1/azimuth_2_joint,mA1/azimuth_3_joint,mA1/azimuth_4_joint,1.5707963267948966,-2.356194490192345,0.0,0.15707963267948966
2025/05/06 15:12:37.363546804,0,0,,mA1/azimuth_1_joint,mA1/azimuth_2_joint,mA1/azimuth_3_joint,mA1/azimuth_4_joint,1.5707963267948966,-2.356194490192345,0.0,0.13962634015954636
2025/05/06 15:12:37.463925249,0,0,,mA1/azimuth_1_joint,mA1/azimuth_2_joint,mA1/azimuth_3_joint,mA1/azimuth_4_joint,1.5533430342749532,-2.356194490192345,0.0,0.22689280275926285
2025/05/06 15:12:37.563171925,0,0,,mA1/azimuth_1_joint,mA1/azimuth_2_joint,mA1/azimuth_3_joint,mA1/azimuth_4_joint,1.5707963267948966,-2.356194490192345,0.0,0.20943951023931956
2025/05/06 15:12:37.662997118,0,0,,mA1/azimuth_1_joint,mA1/azimuth_2_joint,mA1/azimuth_3_joint,mA1/azimuth_4_joint,1.5707963267948966,-2.356194490192345,0.0,0.20943951023931956
2025/05/06 15:12:37.766448169,0,0,,mA1/azimuth_1_joint,mA1/azimuth_2_joint,mA1/azimuth_3_joint,mA1/azimuth_4_joint,1.5533430342749532,-2.356194490192345,0.0,0.20943951023931956
2025/05/06 15:12:37.863062031,0,0,,mA1/azimuth_1_joint,mA1/azimuth_2_joint,mA1/azimuth_3_joint,mA1/azimuth_4_joint,1.5533430342749532,-2.356194490192345,0.0,0.19198621771937624
2025/05/06 15:12:37.965957689,0,0,,mA1/azimuth_1_joint,mA1/azimuth_2_joint,mA1/azimuth_3_joint,mA1/azimuth_4_joint,1.5533430342749532,-2.356194490192345,0.0,0.19198621771937624
2025/05/06 15:12:38.63226197,0,0,,mA1/azimuth_1_joint,mA1/azimuth_2_joint,mA1/azimuth_3_joint,mA1/azimuth_4_joint,1.5533430342749532,-2.356194490192345,0.0,0.19198621771937624
2025/05/06 15:12:38.176085358,0,0,,mA1/azimuth_1_joint,mA1/azimuth_2_joint,mA1/azimuth_3_joint,mA1/azimuth_4_joint,1.5533430342749532,-2.356194490192345,0.0,0.19198621771937624
2025/05/06 15:12:38.263647488,0,0,,mA1/azimuth_1_joint,mA1/azimuth_2_joint,mA1/azimuth_3_joint,mA1/azimuth_4_joint,1.5533430342749532,-2.356194490192345,0.0,0.19198621771937624
2025/05/06 15:12:38.363116090,0,0,,mA1/azimuth_1_joint,mA1/azimuth_2_joint,mA1/azimuth_3_joint,mA1/azimuth_4_joint,1.5533430342749532,-2.356194490192345,0.0,0.17453292519943295
2025/05/06 15:12:38.463220776,0,0,,mA1/azimuth_1_joint,mA1/azimuth_2_joint,mA1/azimuth_3_joint,mA1/azimuth_4_joint,2.356194490192345,-1.5533430342749532,-0.05235987755982989,0.0
2025/05/06 15:12:38.562965658,0,0,,mA1/azimuth_1_joint,mA1/azimuth_2_joint,mA1/azimuth_3_joint,mA1/azimuth_4_joint,2.356194490192345,-1.5533430342749532,-0.05235987755982989,0.0
2025/05/06 15:12:38.663974157,0,0,,mA1/azimuth_1_joint,mA1/azimuth_2_joint,mA1/azimuth_3_joint,mA1/azimuth_4_joint,2.356194490192345,-1.5533430342749532,-0.05235987755982989,0.0
2025/05/06 15:12:38.763063049,0,0,,mA1/azimuth_1_joint,mA1/azimuth_2_joint,mA1/azimuth_3_joint,mA1/azimuth_4_joint,2.356194490192345,-1.5533430342749532,-0.05235987755982989,0.0
2025/05/06 15:12:38.863213233,0,0,,mA1/azimuth_1_joint,mA1/azimuth_2_joint,mA1/azimuth_3_joint,mA1/azimuth_4_joint,2.356194490192345,-1.5533430342749532,-0.05235987755982989,0.0
2025/05/06 15:12:38.963847021,0,0,,mA1/azimuth_1_joint,mA1/azimuth_2_joint,mA1/azimuth_3_joint,mA1/azimuth_4_joint,2.356194490192345,-1.5533430342749532,-0.05235987755982989,0.0
2025/05/06 15:12:39.65128977,0,0,,mA1/azimuth_1_joint,mA1/azimuth_2_joint,mA1/azimuth_3_joint,mA1/azimuth_4_joint,2.356194490192345,-1.5533430342749532,-0.05235987755982989,0.0
2025/05/06 15:12:39.163568241,0,0,,mA1/azimuth_1_joint,mA1/azimuth_2_joint,mA1/azimuth_3_joint,mA1/azimuth_4_joint,2.356194490192345,-1.5533430342749532,-0.05235987755982989,0.0
2025/05/06 15:12:39.263121490,0,0,,mA1/azimuth_1_joint,mA1/azimuth_2_joint,mA1/azimuth_3_joint,mA1/azimuth_4_joint,2.356194490192345,-1.5533430342749532,-0.05235987755982989,0.0
2025/05/06 15:12:39.364291188,0,0,,mA1/azimuth_1_joint,mA1/azimuth_2_joint,mA1/azimuth_3_joint,mA1/azimuth_4_joint,2.356194490192345,-1.5533430342749532,-0.03490658503988659,0.0
2025/05/06 15:12:39.464238673,0,0,,mA1/azimuth_1_joint,mA1/azimuth_2_joint,mA1/azimuth_3_joint,mA1/azimuth_4_joint,2.356194490192345,-1.5533430342749532,-0.03490658503988659,0.0
2025/05/06 15:12:39.563576462,0,0,,mA1/azimuth_1_joint,mA1/azimuth_2_joint,mA1/azimuth_3_joint,mA1/azimuth_4_joint,2.356194490192345,-1.5533430342749532,-0.03490658503988659,0.0
2025/05/06 15:12:39.663887075,0,0,,mA1/azimuth_1_joint,mA1/azimuth_2_joint,mA1/azimuth_3_joint,mA1/azimuth_4_joint,2.356194490192345,-1.5533430342749532,-0.24434609527920614,0.0
2025/05/06 15:12:39.763671308,0,0,,mA1/azimuth_1_joint,mA1/azimuth_2_joint,mA1/azimuth_3_joint,mA1/azimuth_4_joint,2.356194490192345,-1.5533430342749532,-0.2792526803190927,0.0
2025/05/06 15:12:39.863631788,0,0,,mA1/azimuth_1_joint,mA1/azimuth_2_joint,mA1/azimuth_3_joint,mA1/azimuth_4_joint,2.356194490192345,-1.5533430342749532,-0.29670597283903605,0.0
2025/05/06 15:12:39.966086847,0,0,,mA1/azimuth_1_joint,mA1/azimuth_2_joint,mA1/azimuth_3_joint,mA1/azimuth_4_joint,2.356194490192345,-1.5533430342749532,-0.2792526803190927,0.0
2025/05/06 15:12:40.63179191,0,0,,mA1/azimuth_1_joint,mA1/azimuth_2_joint,mA1/azimuth_3_joint,mA1/azimuth_4_joint,2.356194490192345,-1.5533430342749532,-0.2792526803190927,0.0
2025/05/06 15:12:40.163564057,0,0,,mA1/azimuth_1_joint,mA1/azimuth_2_joint,mA1/azimuth_3_joint,mA1/azimuth_4_joint,2.356194490192345,-1.5533430342749532,-0.2792526803190927,0.0
2025/05/06 15:12:40.263032860,0,0,,mA1/azimuth_1_joint,mA1/azimuth_2_joint,mA1/azimuth_3_joint,mA1/azimuth_4_joint,2.356194490192345,-1.5533430342749532,-0.2617993877991494,0.0
2025/05/06 15:12:40.363849187,0,0,,mA1/azimuth_1_joint,mA1/azimuth_2_joint,mA1/azimuth_3_joint,mA1/azimuth_4_joint,2.356194490192345,-1.5533430342749532,-0.08726646259971647,0.0
2025/05/06 15:12:40.463411566,0,0,,mA1/azimuth_1_joint,mA1/azimuth_2_joint,mA1/azimuth_3_joint,mA1/azimuth_4_joint,2.356194490192345,-1.5533430342749532,-0.06981317007977318,0.0
2025/05/06 15:12:40.565010086,0,0,,mA1/azimuth_1_joint,mA1/azimuth_2_joint,mA1/azimuth_3_joint,mA1/azimuth_4_joint,2.356194490192345,-1.5533430342749532,-0.06981317007977318,0.0
2025/05/06 15:12:40.663127597,0,0,,mA1/azimuth_1_joint,mA1/azimuth_2_joint,mA1/azimuth_3_joint,mA1/azimuth_4_joint,2.356194490192345,-1.5533430342749532,-0.05235987755982989,0.0
2025/05/06 15:12:40.765817549,0,0,,mA1/azimuth_1_joint,mA1/azimuth_2_joint,mA1/azimuth_3_joint,mA1/azimuth_4_joint,2.356194490192345,-1.5533430342749532,-0.05235987755982989,0.0
2025/05/06 15:12:40.863045354,0,0,,mA1/azimuth_1_joint,mA1/azimuth_2_joint,mA1/azimuth_3_joint,mA1/azimuth_4_joint,2.356194490192345,-1.5707963267948966,-0.05235987755982989,0.0
2025/05/06 15:12:40.963838616,0,0,,mA1/azimuth_1_joint,mA1/azimuth_2_joint,mA1/azimuth_3_joint,mA1/azimuth_4_joint,2.356194490192345,-1.5707963267948966,-0.05235987755982989,0.0
2025/05/06 15:12:41.64273400,0,0,,mA1/azimuth_1_joint,mA1/azimuth_2_joint,mA1/azimuth_3_joint,mA1/azimuth_4_joint,2.356194490192345,-1.5533430342749532,-0.05235987755982989,0.0
2025/05/06 15:12:41.163058484,0,0,,mA1/azimuth_1_joint,mA1/azimuth_2_joint,mA1/azimuth_3_joint,mA1/azimuth_4_joint,2.356194490192345,-1.5533430342749532,-0.05235987755982989,0.0
2025/05/06 15:12:41.263874324,0,0,,mA1/azimuth_1_joint,mA1/azimuth_2_joint,mA1/azimuth_3_joint,mA1/azimuth_4_joint,2.356194490192345,-1.5533430342749532,-0.05235987755982989,0.0
2025/05/06 15:12:41.362928110,0,0,,mA1/azimuth_1_joint,mA1/azimuth_2_joint,mA1/azimuth_3_joint,mA1/azimuth_4_joint,1.5533430342749532,-2.356194490192345,0.0,0.06981317007977318
2025/05/06 15:12:41.463308272,0,0,,mA1/azimuth_1_joint,mA1/azimuth_2_joint,mA1/azimuth_3_joint,mA1/azimuth_4_joint,1.5533430342749532,-2.356194490192345,0.0,0.08726646259971647
2025/05/06 15:12:41.564522579,0,0,,mA1/azimuth_1_joint,mA1/azimuth_2_joint,mA1/azimuth_3_joint,mA1/azimuth_4_joint,1.5533430342749532,-2.356194490192345,0.0,0.08726646259971647
2025/05/06 15:12:41.663890984,0,0,,mA1/azimuth_1_joint,mA1/azimuth_2_joint,mA1/azimuth_3_joint,mA1/azimuth_4_joint,1.5533430342749532,-2.356194490192345,0.0,0.08726646259971647
2025/05/06 15:12:41.764162713,0,0,,mA1/azimuth_1_joint,mA1/azimuth_2_joint,mA1/azimuth_3_joint,mA1/azimuth_4_joint,1.5533430342749532,-2.356194490192345,0.0,0.08726646259971647
2025/05/06 15:12:41.863355760,0,0,,mA1/azimuth_1_joint,mA1/azimuth_2_joint,mA1/azimuth_3_joint,mA1/azimuth_4_joint,1.5533430342749532,-2.356194490192345,0.0,0.08726646259971647
2025/05/06 15:12:41.963547563,0,0,,mA1/azimuth_1_joint,mA1/azimuth_2_joint,mA1/azimuth_3_joint,mA1/azimuth_4_joint,1.5533430342749532,-2.356194490192345,0.0,0.08726646259971647
2025/05/06 15:12:42.63120021,0,0,,mA1/azimuth_1_joint,mA1/azimuth_2_joint,mA1/azimuth_3_joint,mA1/azimuth_4_joint,1.5533430342749532,-2.356194490192345,0.0,0.08726646259971647
2025/05/06 15:12:42.163465305,0,0,,mA1/azimuth_1_joint,mA1/azimuth_2_joint,mA1/azimuth_3_joint,mA1/azimuth_4_joint,1.5533430342749532,-2.356194490192345,0.0,0.08726646259971647
2025/05/06 15:12:42.263617465,0,0,,mA1/azimuth_1_joint,mA1/azimuth_2_joint,mA1/azimuth_3_joint,mA1/azimuth_4_joint,1.5533430342749532,-2.356194490192345,0.0,0.06981317007977318
2025/05/06 15:12:42.363912574,0,0,,mA1/azimuth_1_joint,mA1/azimuth_2_joint,mA1/azimuth_3_joint,mA1/azimuth_4_joint,1.5533430342749532,-2.356194490192345,0.0,0.06981317007977318
2025/05/06 15:12:42.463092212,0,0,,mA1/azimuth_1_joint,mA1/azimuth_2_joint,mA1/azimuth_3_joint,mA1/azimuth_4_joint,2.356194490192345,-2.356194490192345,0.0,0.05235987755982989
2025/05/06 15:12:42.564424861,0,0,,mA1/azimuth_1_joint,mA1/azimuth_2_joint,mA1/azimuth_3_joint,mA1/azimuth_4_joint,2.356194490192345,-2.356194490192345,0.0,0.05235987755982989
2025/05/06 15:12:42.663109333,0,0,,mA1/azimuth_1_joint,mA1/azimuth_2_joint,mA1/azimuth_3_joint,mA1/azimuth_4_joint,2.356194490192345,-2.356194490192345,0.0,0.03490658503988659
2025/05/06 15:12:42.767203393,0,0,,mA1/azimuth_1_joint,mA1/azimuth_2_joint,mA1/azimuth_3_joint,mA1/azimuth_4_joint,2.356194490192345,-2.356194490192345,0.0,0.03490658503988659
2025/05/06 15:12:42.863508634,0,0,,mA1/azimuth_1_joint,mA1/azimuth_2_joint,mA1/azimuth_3_joint,mA1/azimuth_4_joint,2.356194490192345,-2.356194490192345,0.0,0.03490658503988659
2025/05/06 15:12:42.964679776,0,0,,mA1/azimuth_1_joint,mA1/azimuth_2_joint,mA1/azimuth_3_joint,mA1/azimuth_4_joint,2.356194490192345,-2.356194490192345,0.0,0.03490658503988659
2025/05/06 15:12:43.63103099,0,0,,mA1/azimuth_1_joint,mA1/azimuth_2_joint,mA1/azimuth_3_joint,mA1/azimuth_4_joint,2.356194490192345,-2.356194490192345,0.0,0.03490658503988659
2025/05/06 15:12:43.164042763,0,0,,mA1/azimuth_1_joint,mA1/azimuth_2_joint,mA1/azimuth_3_joint,mA1/azimuth_4_joint,2.356194490192345,-2.356194490192345,0.0,0.03490658503988659
2025/05/06 15:12:43.263204684,0,0,,mA1/azimuth_1_joint,mA1/azimuth_2_joint,mA1/azimuth_3_joint,mA1/azimuth_4_joint,2.356194490192345,-2.356194490192345,0.0,0.03490658503988659
2025/05/06 15:12:43.363874348,0,0,,mA1/azimuth_1_joint,mA1/azimuth_2_joint,mA1/azimuth_3_joint,mA1/azimuth_4_joint,2.356194490192345,-2.356194490192345,0.0,0.03490658503988659
2025/05/06 15:12:43.468305065,0,0,,mA1/azimuth_1_joint,mA1/azimuth_2_joint,mA1/azimuth_3_joint,mA1/azimuth_4_joint,2.356194490192345,-2.356194490192345,0.0,0.03490658503988659
2025/05/06 15:12:43.564794817,0,0,,mA1/azimuth_1_joint,mA1/azimuth_2_joint,mA1/azimuth_3_joint,mA1/azimuth_4_joint,2.356194490192345,-1.5533430342749532,0.0,0.03490658503988659
2025/05/06 15:12:43.662970625,0,0,,mA1/azimuth_1_joint,mA1/azimuth_2_joint,mA1/azimuth_3_joint,mA1/azimuth_4_joint,2.356194490192345,-1.5533430342749532,0.0,0.03490658503988659
2025/05/06 15:12:43.767592807,0,0,,mA1/azimuth_1_joint,mA1/azimuth_2_joint,mA1/azimuth_3_joint,mA1/azimuth_4_joint,2.356194490192345,-1.5533430342749532,0.0,0.03490658503988659
2025/05/06 15:12:43.863997525,0,0,,mA1/azimuth_1_joint,mA1/azimuth_2_joint,mA1/azimuth_3_joint,mA1/azimuth_4_joint,2.356194490192345,-1.5533430342749532,0.0,0.03490658503988659
2025/05/06 15:12:43.963313197,0,0,,mA1/azimuth_1_joint,mA1/azimuth_2_joint,mA1/azimuth_3_joint,mA1/azimuth_4_joint,2.356194490192345,-1.5533430342749532,0.0,0.03490658503988659
2025/05/06 15:12:44.63434845,0,0,,mA1/azimuth_1_joint,mA1/azimuth_2_joint,mA1/azimuth_3_joint,mA1/azimuth_4_joint,2.356194490192345,-1.5533430342749532,0.0,0.03490658503988659
2025/05/06 15:12:44.163386542,0,0,,mA1/azimuth_1_joint,mA1/azimuth_2_joint,mA1/azimuth_3_joint,mA1/azimuth_4_joint,2.356194490192345,-1.5533430342749532,0.0,0.03490658503988659
2025/05/06 15:12:44.263620107,0,0,,mA1/azimuth_1_joint,mA1/azimuth_2_joint,mA1/azimuth_3_joint,mA1/azimuth_4_joint,2.356194490192345,-1.5533430342749532,0.0,0.017453292519943295
2025/05/06 15:12:44.363670897,0,0,,mA1/azimuth_1_joint,mA1/azimuth_2_joint,mA1/azimuth_3_joint,mA1/azimuth_4_joint,2.356194490192345,-1.5533430342749532,0.0,0.017453292519943295
2025/05/06 15:12:44.463389079,0,0,,mA1/azimuth_1_joint,mA1/azimuth_2_joint,mA1/azimuth_3_joint,mA1/azimuth_4_joint,2.356194490192345,-1.5707963267948966,0.0,0.0
2025/05/06 15:12:44.562964324,0,0,,mA1/azimuth_1_joint,mA1/azimuth_2_joint,mA1/azimuth_3_joint,mA1/azimuth_4_joint,2.356194490192345,-1.5707963267948966,0.0,0.0
2025/05/06 15:12:44.663358217,0,0,,mA1/azimuth_1_joint,mA1/azimuth_2_joint,mA1/azimuth_3_joint,mA1/azimuth_4_joint,2.356194490192345,-1.5533430342749532,0.0,0.0
2025/05/06 15:12:44.763209226,0,0,,mA1/azimuth_1_joint,mA1/azimuth_2_joint,mA1/azimuth_3_joint,mA1/azimuth_4_joint,2.356194490192345,-1.5707963267948966,0.0,0.0
2025/05/06 15:12:44.863123853,0,0,,mA1/azimuth_1_joint,mA1/azimuth_2_joint,mA1/azimuth_3_joint,mA1/azimuth_4_joint,2.356194490192345,-1.5533430342749532,0.0,0.0
2025/05/06 15:12:44.968011450,0,0,,mA1/azimuth_1_joint,mA1/azimuth_2_joint,mA1/azimuth_3_joint,mA1/azimuth_4_joint,2.356194490192345,-1.5707963267948966,0.0,0.0
2025/05/06 15:12:45.63161179,0,0,,mA1/azimuth_1_joint,mA1/azimuth_2_joint,mA1/azimuth_3_joint,mA1/azimuth_4_joint,2.356194490192345,-1.5707963267948966,0.0,0.0
2025/05/06 15:12:45.163152456,0,0,,mA1/azimuth_1_joint,mA1/azimuth_2_joint,mA1/azimuth_3_joint,mA1/azimuth_4_joint,2.356194490192345,-1.5707963267948966,0.0,0.0
2025/05/06 15:12:45.264122281,0,0,,mA1/azimuth_1_joint,mA1/azimuth_2_joint,mA1/azimuth_3_joint,mA1/azimuth_4_joint,2.356194490192345,-1.5533430342749532,0.0,0.0
2025/05/06 15:12:45.364263561,0,0,,mA1/azimuth_1_joint,mA1/azimuth_2_joint,mA1/azimuth_3_joint,mA1/azimuth_4_joint,2.356194490192345,-1.5533430342749532,0.0,0.017453292519943295
2025/05/06 15:12:45.463495074,0,0,,mA1/azimuth_1_joint,mA1/azimuth_2_joint,mA1/azimuth_3_joint,mA1/azimuth_4_joint,2.356194490192345,-1.5533430342749532,0.0,0.017453292519943295
2025/05/06 15:12:45.566447904,0,0,,mA1/azimuth_1_joint,mA1/azimuth_2_joint,mA1/azimuth_3_joint,mA1/azimuth_4_joint,2.356194490192345,-1.5533430342749532,0.0,0.017453292519943295
2025/05/06 15:12:45.663484028,0,0,,mA1/azimuth_1_joint,mA1/azimuth_2_joint,mA1/azimuth_3_joint,mA1/azimuth_4_joint,2.356194490192345,-1.5707963267948966,0.0,0.017453292519943295
2025/05/06 15:12:45.763246850,0,0,,mA1/azimuth_1_joint,mA1/azimuth_2_joint,mA1/azimuth_3_joint,mA1/azimuth_4_joint,2.356194490192345,-1.5707963267948966,0.0,0.017453292519943295
2025/05/06 15:12:45.863288865,0,0,,mA1/azimuth_1_joint,mA1/azimuth_2_joint,mA1/azimuth_3_joint,mA1/azimuth_4_joint,2.356194490192345,-1.5533430342749532,0.0,0.017453292519943295
2025/05/06 15:12:45.962946994,0,0,,mA1/azimuth_1_joint,mA1/azimuth_2_joint,mA1/azimuth_3_joint,mA1/azimuth_4_joint,2.356194490192345,-1.5533430342749532,0.0,0.017453292519943295
2025/05/06 15:12:46.64109735,0,0,,mA1/azimuth_1_joint,mA1/azimuth_2_joint,mA1/azimuth_3_joint,mA1/azimuth_4_joint,2.356194490192345,-1.5707963267948966,0.0,0.017453292519943295
2025/05/06 15:12:46.163031574,0,0,,mA1/azimuth_1_joint,mA1/azimuth_2_joint,mA1/azimuth_3_joint,mA1/azimuth_4_joint,2.356194490192345,-1.5707963267948966,0.0,0.017453292519943295
2025/05/06 15:12:46.263181593,0,0,,mA1/azimuth_1_joint,mA1/azimuth_2_joint,mA1/azimuth_3_joint,mA1/azimuth_4_joint,2.356194490192345,-1.5707963267948966,0.0,0.017453292519943295
2025/05/06 15:12:46.362963146,0,0,,mA1/azimuth_1_joint,mA1/azimuth_2_joint,mA1/azimuth_3_joint,mA1/azimuth_4_joint,2.356194490192345,-2.356194490192345,0.0,0.0
2025/05/06 15:12:46.464716119,0,0,,mA1/azimuth_1_joint,mA1/azimuth_2_joint,mA1/azimuth_3_joint,mA1/azimuth_4_joint,2.356194490192345,-2.356194490192345,0.0,0.0
2025/05/06 15:12:46.564301632,0,0,,mA1/azimuth_1_joint,mA1/azimuth_2_joint,mA1/azimuth_3_joint,mA1/azimuth_4_joint,2.356194490192345,-2.356194490192345,0.0,0.0
2025/05/06 15:12:46.663283787,0,0,,mA1/azimuth_1_joint,mA1/azimuth_2_joint,mA1/azimuth_3_joint,mA1/azimuth_4_joint,2.356194490192345,-2.356194490192345,0.0,0.0
2025/05/06 15:12:46.763168451,0,0,,mA1/azimuth_1_joint,mA1/azimuth_2_joint,mA1/azimuth_3_joint,mA1/azimuth_4_joint,2.356194490192345,-2.356194490192345,0.0,0.0
2025/05/06 15:12:46.863685319,0,0,,mA1/azimuth_1_joint,mA1/azimuth_2_joint,mA1/azimuth_3_joint,mA1/azimuth_4_joint,2.356194490192345,-2.356194490192345,0.0,0.0
2025/05/06 15:12:46.963973905,0,0,,mA1/azimuth_1_joint,mA1/azimuth_2_joint,mA1/azimuth_3_joint,mA1/azimuth_4_joint,2.356194490192345,-2.356194490192345,0.0,0.0
2025/05/06 15:12:47.63192388,0,0,,mA1/azimuth_1_joint,mA1/azimuth_2_joint,mA1/azimuth_3_joint,mA1/azimuth_4_joint,2.356194490192345,-2.356194490192345,0.0,0.0
2025/05/06 15:12:47.163268097,0,0,,mA1/azimuth_1_joint,mA1/azimuth_2_joint,mA1/azimuth_3_joint,mA1/azimuth_4_joint,2.356194490192345,-1.5533430342749532,0.0,0.0
2025/05/06 15:12:47.263074350,0,0,,mA1/azimuth_1_joint,mA1/azimuth_2_joint,mA1/azimuth_3_joint,mA1/azimuth_4_joint,2.356194490192345,-1.5533430342749532,0.0,0.0
2025/05/06 15:12:47.363680651,0,0,,mA1/azimuth_1_joint,mA1/azimuth_2_joint,mA1/azimuth_3_joint,mA1/azimuth_4_joint,2.356194490192345,-1.5533430342749532,-0.10471975511965978,0.0
2025/05/06 15:12:47.463543730,0,0,,mA1/azimuth_1_joint,mA1/azimuth_2_joint,mA1/azimuth_3_joint,mA1/azimuth_4_joint,2.356194490192345,-1.5533430342749532,-0.08726646259971647,0.0
2025/05/06 15:12:47.565836361,0,0,,mA1/azimuth_1_joint,mA1/azimuth_2_joint,mA1/azimuth_3_joint,mA1/azimuth_4_joint,2.356194490192345,-1.5533430342749532,-0.08726646259971647,0.0
2025/05/06 15:12:47.663063897,0,0,,mA1/azimuth_1_joint,mA1/azimuth_2_joint,mA1/azimuth_3_joint,mA1/azimuth_4_joint,2.356194490192345,-1.5533430342749532,-0.08726646259971647,0.0
2025/05/06 15:12:47.763886816,0,0,,mA1/azimuth_1_joint,mA1/azimuth_2_joint,mA1/azimuth_3_joint,mA1/azimuth_4_joint,2.356194490192345,-1.5707963267948966,-0.06981317007977318,0.0
2025/05/06 15:12:47.863329412,0,0,,mA1/azimuth_1_joint,mA1/azimuth_2_joint,mA1/azimuth_3_joint,mA1/azimuth_4_joint,2.356194490192345,-1.5533430342749532,-0.06981317007977318,0.0
2025/05/06 15:12:47.963826304,0,0,,mA1/azimuth_1_joint,mA1/azimuth_2_joint,mA1/azimuth_3_joint,mA1/azimuth_4_joint,2.356194490192345,-1.5533430342749532,-0.06981317007977318,0.0
2025/05/06 15:12:48.63754250,0,0,,mA1/azimuth_1_joint,mA1/azimuth_2_joint,mA1/azimuth_3_joint,mA1/azimuth_4_joint,2.356194490192345,-1.5533430342749532,-0.06981317007977318,0.0
2025/05/06 15:12:48.163051335,0,0,,mA1/azimuth_1_joint,mA1/azimuth_2_joint,mA1/azimuth_3_joint,mA1/azimuth_4_joint,2.356194490192345,-1.5533430342749532,-0.06981317007977318,0.0
2025/05/06 15:12:48.263253090,0,0,,mA1/azimuth_1_joint,mA1/azimuth_2_joint,mA1/azimuth_3_joint,mA1/azimuth_4_joint,2.356194490192345,-1.5533430342749532,-0.06981317007977318,0.0
2025/05/06 15:12:48.363623665,0,0,,mA1/azimuth_1_joint,mA1/azimuth_2_joint,mA1/azimuth_3_joint,mA1/azimuth_4_joint,2.356194490192345,-1.5533430342749532,-0.06981317007977318,0.0
2025/05/06 15:12:48.465770229,0,0,,mA1/azimuth_1_joint,mA1/azimuth_2_joint,mA1/azimuth_3_joint,mA1/azimuth_4_joint,1.5533430342749532,-2.356194490192345,0.0,0.06981317007977318
2025/05/06 15:12:48.563430291,0,0,,mA1/azimuth_1_joint,mA1/azimuth_2_joint,mA1/azimuth_3_joint,mA1/azimuth_4_joint,1.5533430342749532,-2.356194490192345,0.0,0.08726646259971647
2025/05/06 15:12:48.663338168,0,0,,mA1/azimuth_1_joint,mA1/azimuth_2_joint,mA1/azimuth_3_joint,mA1/azimuth_4_joint,1.5533430342749532,-2.356194490192345,0.0,0.06981317007977318
2025/05/06 15:12:48.763963567,0,0,,mA1/azimuth_1_joint,mA1/azimuth_2_joint,mA1/azimuth_3_joint,mA1/azimuth_4_joint,1.5533430342749532,-2.356194490192345,0.0,0.06981317007977318
2025/05/06 15:12:48.864589379,0,0,,mA1/azimuth_1_joint,mA1/azimuth_2_joint,mA1/azimuth_3_joint,mA1/azimuth_4_joint,1.5533430342749532,-2.356194490192345,0.0,0.06981317007977318
2025/05/06 15:12:48.963736845,0,0,,mA1/azimuth_1_joint,mA1/azimuth_2_joint,mA1/azimuth_3_joint,mA1/azimuth_4_joint,1.5533430342749532,-2.356194490192345,0.0,0.05235987755982989
2025/05/06 15:12:49.63297701,0,0,,mA1/azimuth_1_joint,mA1/azimuth_2_joint,mA1/azimuth_3_joint,mA1/azimuth_4_joint,1.5533430342749532,-2.356194490192345,0.0,0.05235987755982989
2025/05/06 15:12:49.165172791,0,0,,mA1/azimuth_1_joint,mA1/azimuth_2_joint,mA1/azimuth_3_joint,mA1/azimuth_4_joint,1.5707963267948966,-2.356194490192345,0.0,0.05235987755982989
2025/05/06 15:12:49.263205683,0,0,,mA1/azimuth_1_joint,mA1/azimuth_2_joint,mA1/azimuth_3_joint,mA1/azimuth_4_joint,1.5533430342749532,-2.356194490192345,0.0,0.05235987755982989
2025/05/06 15:12:49.367429975,0,0,,mA1/azimuth_1_joint,mA1/azimuth_2_joint,mA1/azimuth_3_joint,mA1/azimuth_4_joint,2.356194490192345,-2.356194490192345,-0.05235987755982989,0.0
2025/05/06 15:12:49.463792599,0,0,,mA1/azimuth_1_joint,mA1/azimuth_2_joint,mA1/azimuth_3_joint,mA1/azimuth_4_joint,2.356194490192345,-1.5533430342749532,-0.05235987755982989,0.0
2025/05/06 15:12:49.564334642,0,0,,mA1/azimuth_1_joint,mA1/azimuth_2_joint,mA1/azimuth_3_joint,mA1/azimuth_4_joint,2.356194490192345,-1.5533430342749532,-0.05235987755982989,0.0
2025/05/06 15:12:49.663064932,0,0,,mA1/azimuth_1_joint,mA1/azimuth_2_joint,mA1/azimuth_3_joint,mA1/azimuth_4_joint,2.356194490192345,-1.5533430342749532,-0.05235987755982989,0.0
2025/05/06 15:12:49.763814239,0,0,,mA1/azimuth_1_joint,mA1/azimuth_2_joint,mA1/azimuth_3_joint,mA1/azimuth_4_joint,2.356194490192345,-1.5533430342749532,-0.05235987755982989,0.0
2025/05/06 15:12:49.863170705,0,0,,mA1/azimuth_1_joint,mA1/azimuth_2_joint,mA1/azimuth_3_joint,mA1/azimuth_4_joint,2.356194490192345,-1.5533430342749532,-0.05235987755982989,0.0
2025/05/06 15:12:49.962951113,0,0,,mA1/azimuth_1_joint,mA1/azimuth_2_joint,mA1/azimuth_3_joint,mA1/azimuth_4_joint,2.356194490192345,-1.5707963267948966,-0.05235987755982989,0.0
2025/05/06 15:12:50.63302639,0,0,,mA1/azimuth_1_joint,mA1/azimuth_2_joint,mA1/azimuth_3_joint,mA1/azimuth_4_joint,2.356194490192345,-1.5707963267948966,-0.05235987755982989,0.0
2025/05/06 15:12:50.163625742,0,0,,mA1/azimuth_1_joint,mA1/azimuth_2_joint,mA1/azimuth_3_joint,mA1/azimuth_4_joint,2.356194490192345,-1.5707963267948966,-0.05235987755982989,0.0
2025/05/06 15:12:50.268712634,0,0,,mA1/azimuth_1_joint,mA1/azimuth_2_joint,mA1/azimuth_3_joint,mA1/azimuth_4_joint,2.356194490192345,-1.5533430342749532,-0.05235987755982989,0.0
2025/05/06 15:12:50.364001091,0,0,,mA1/azimuth_1_joint,mA1/azimuth_2_joint,mA1/azimuth_3_joint,mA1/azimuth_4_joint,2.356194490192345,-1.5533430342749532,-0.05235987755982989,0.0
2025/05/06 15:12:50.467887804,0,0,,mA1/azimuth_1_joint,mA1/azimuth_2_joint,mA1/azimuth_3_joint,mA1/azimuth_4_joint,1.5533430342749532,-2.356194490192345,0.0,0.0
2025/05/06 15:12:50.563459639,0,0,,mA1/azimuth_1_joint,mA1/azimuth_2_joint,mA1/azimuth_3_joint,mA1/azimuth_4_joint,1.5707963267948966,-2.356194490192345,0.0,0.0
2025/05/06 15:12:50.663681664,0,0,,mA1/azimuth_1_joint,mA1/azimuth_2_joint,mA1/azimuth_3_joint,mA1/azimuth_4_joint,1.5707963267948966,-2.356194490192345,0.0,0.0
2025/05/06 15:12:50.763105024,0,0,,mA1/azimuth_1_joint,mA1/azimuth_2_joint,mA1/azimuth_3_joint,mA1/azimuth_4_joint,1.5707963267948966,-2.356194490192345,0.0,0.0
2025/05/06 15:12:50.873260808,0,0,,mA1/azimuth_1_joint,mA1/azimuth_2_joint,mA1/azimuth_3_joint,mA1/azimuth_4_joint,1.5707963267948966,-2.356194490192345,0.0,0.0
2025/05/06 15:12:50.963185955,0,0,,mA1/azimuth_1_joint,mA1/azimuth_2_joint,mA1/azimuth_3_joint,mA1/azimuth_4_joint,1.5707963267948966,-2.356194490192345,0.0,0.0
2025/05/06 15:12:51.63579062,0,0,,mA1/azimuth_1_joint,mA1/azimuth_2_joint,mA1/azimuth_3_joint,mA1/azimuth_4_joint,1.5707963267948966,-2.356194490192345,0.0,0.0
2025/05/06 15:12:51.163770198,0,0,,mA1/azimuth_1_joint,mA1/azimuth_2_joint,mA1/azimuth_3_joint,mA1/azimuth_4_joint,1.5707963267948966,-2.356194490192345,0.0,0.0
2025/05/06 15:12:51.263140988,0,0,,mA1/azimuth_1_joint,mA1/azimuth_2_joint,mA1/azimuth_3_joint,mA1/azimuth_4_joint,1.5707963267948966,-2.356194490192345,0.0,0.0
2025/05/06 15:12:51.363712775,0,0,,mA1/azimuth_1_joint,mA1/azimuth_2_joint,mA1/azimuth_3_joint,mA1/azimuth_4_joint,1.5533430342749532,-2.356194490192345,0.0,0.017453292519943295
2025/05/06 15:12:51.462959268,0,0,,mA1/azimuth_1_joint,mA1/azimuth_2_joint,mA1/azimuth_3_joint,mA1/azimuth_4_joint,1.5707963267948966,-2.356194490192345,0.0,0.017453292519943295
2025/05/06 15:12:51.565012677,0,0,,mA1/azimuth_1_joint,mA1/azimuth_2_joint,mA1/azimuth_3_joint,mA1/azimuth_4_joint,1.5707963267948966,-2.356194490192345,0.0,0.017453292519943295
2025/05/06 15:12:51.663540469,0,0,,mA1/azimuth_1_joint,mA1/azimuth_2_joint,mA1/azimuth_3_joint,mA1/azimuth_4_joint,1.5533430342749532,-2.356194490192345,0.0,0.017453292519943295
2025/05/06 15:12:51.766948260,0,0,,mA1/azimuth_1_joint,mA1/azimuth_2_joint,mA1/azimuth_3_joint,mA1/azimuth_4_joint,1.5533430342749532,-2.356194490192345,0.0,0.017453292519943295
2025/05/06 15:12:51.863463947,0,0,,mA1/azimuth_1_joint,mA1/azimuth_2_joint,mA1/azimuth_3_joint,mA1/azimuth_4_joint,1.5533430342749532,-2.356194490192345,0.0,0.017453292519943295
2025/05/06 15:12:51.963802322,0,0,,mA1/azimuth_1_joint,mA1/azimuth_2_joint,mA1/azimuth_3_joint,mA1/azimuth_4_joint,1.5533430342749532,-2.356194490192345,0.0,0.017453292519943295
2025/05/06 15:12:52.63492822,0,0,,mA1/azimuth_1_joint,mA1/azimuth_2_joint,mA1/azimuth_3_joint,mA1/azimuth_4_joint,1.5707963267948966,-2.356194490192345,0.0,0.017453292519943295
2025/05/06 15:12:52.165660009,0,0,,mA1/azimuth_1_joint,mA1/azimuth_2_joint,mA1/azimuth_3_joint,mA1/azimuth_4_joint,1.5533430342749532,-2.356194490192345,0.0,0.017453292519943295
2025/05/06 15:12:52.263958412,0,0,,mA1/azimuth_1_joint,mA1/azimuth_2_joint,mA1/azimuth_3_joint,mA1/azimuth_4_joint,1.5533430342749532,-2.356194490192345,0.0,0.017453292519943295
2025/05/06 15:12:52.363177860,0,0,,mA1/azimuth_1_joint,mA1/azimuth_2_joint,mA1/azimuth_3_joint,mA1/azimuth_4_joint,2.356194490192345,-2.356194490192345,0.0,0.0
2025/05/06 15:12:52.463703628,0,0,,mA1/azimuth_1_joint,mA1/azimuth_2_joint,mA1/azimuth_3_joint,mA1/azimuth_4_joint,2.356194490192345,-2.356194490192345,0.0,0.0
2025/05/06 15:12:52.563017653,0,0,,mA1/azimuth_1_joint,mA1/azimuth_2_joint,mA1/azimuth_3_joint,mA1/azimuth_4_joint,2.356194490192345,-2.356194490192345,0.0,0.0
2025/05/06 15:12:52.663939815,0,0,,mA1/azimuth_1_joint,mA1/azimuth_2_joint,mA1/azimuth_3_joint,mA1/azimuth_4_joint,2.356194490192345,-2.356194490192345,0.0,0.0
2025/05/06 15:12:52.764183502,0,0,,mA1/azimuth_1_joint,mA1/azimuth_2_joint,mA1/azimuth_3_joint,mA1/azimuth_4_joint,2.356194490192345,-2.356194490192345,0.0,0.0
2025/05/06 15:12:52.862945413,0,0,,mA1/azimuth_1_joint,mA1/azimuth_2_joint,mA1/azimuth_3_joint,mA1/azimuth_4_joint,2.356194490192345,-2.356194490192345,0.0,0.0
2025/05/06 15:12:52.963329281,0,0,,mA1/azimuth_1_joint,mA1/azimuth_2_joint,mA1/azimuth_3_joint,mA1/azimuth_4_joint,2.356194490192345,-2.356194490192345,0.0,0.0
2025/05/06 15:12:53.63931815,0,0,,mA1/azimuth_1_joint,mA1/azimuth_2_joint,mA1/azimuth_3_joint,mA1/azimuth_4_joint,2.356194490192345,-2.356194490192345,0.0,0.0
2025/05/06 15:12:53.163916146,0,0,,mA1/azimuth_1_joint,mA1/azimuth_2_joint,mA1/azimuth_3_joint,mA1/azimuth_4_joint,2.356194490192345,-2.356194490192345,0.0,0.0
2025/05/06 15:12:53.264408725,0,0,,mA1/azimuth_1_joint,mA1/azimuth_2_joint,mA1/azimuth_3_joint,mA1/azimuth_4_joint,2.356194490192345,-2.356194490192345,0.0,0.0
2025/05/06 15:12:53.364227028,0,0,,mA1/azimuth_1_joint,mA1/azimuth_2_joint,mA1/azimuth_3_joint,mA1/azimuth_4_joint,2.356194490192345,-1.5533430342749532,-0.017453292519943295,0.0
2025/05/06 15:12:53.463631479,0,0,,mA1/azimuth_1_joint,mA1/azimuth_2_joint,mA1/azimuth_3_joint,mA1/azimuth_4_joint,2.356194490192345,-1.5533430342749532,0.0,0.0
2025/05/06 15:12:53.563415871,0,0,,mA1/azimuth_1_joint,mA1/azimuth_2_joint,mA1/azimuth_3_joint,mA1/azimuth_4_joint,2.356194490192345,-1.5533430342749532,0.0,0.0
2025/05/06 15:12:53.663204552,0,0,,mA1/azimuth_1_joint,mA1/azimuth_2_joint,mA1/azimuth_3_joint,mA1/azimuth_4_joint,2.356194490192345,-1.5533430342749532,0.0,0.0
2025/05/06 15:12:53.765374356,0,0,,mA1/azimuth_1_joint,mA1/azimuth_2_joint,mA1/azimuth_3_joint,mA1/azimuth_4_joint,2.356194490192345,-1.5533430342749532,0.0,0.0
2025/05/06 15:12:53.863364006,0,0,,mA1/azimuth_1_joint,mA1/azimuth_2_joint,mA1/azimuth_3_joint,mA1/azimuth_4_joint,2.356194490192345,-1.5533430342749532,0.0,0.0
2025/05/06 15:12:53.964672258,0,0,,mA1/azimuth_1_joint,mA1/azimuth_2_joint,mA1/azimuth_3_joint,mA1/azimuth_4_joint,2.356194490192345,-1.5533430342749532,0.0,0.0
2025/05/06 15:12:54.63006998,0,0,,mA1/azimuth_1_joint,mA1/azimuth_2_joint,mA1/azimuth_3_joint,mA1/azimuth_4_joint,2.356194490192345,-1.5533430342749532,0.0,0.0
2025/05/06 15:12:54.167148902,0,0,,mA1/azimuth_1_joint,mA1/azimuth_2_joint,mA1/azimuth_3_joint,mA1/azimuth_4_joint,2.356194490192345,-1.5533430342749532,0.0,0.0
2025/05/06 15:12:54.263377202,0,0,,mA1/azimuth_1_joint,mA1/azimuth_2_joint,mA1/azimuth_3_joint,mA1/azimuth_4_joint,2.356194490192345,-1.5533430342749532,0.0,0.0
2025/05/06 15:12:54.362944913,0,0,,mA1/azimuth_1_joint,mA1/azimuth_2_joint,mA1/azimuth_3_joint,mA1/azimuth_4_joint,2.356194490192345,-1.5707963267948966,-0.08726646259971647,0.0
2025/05/06 15:12:54.464624160,0,0,,mA1/azimuth_1_joint,mA1/azimuth_2_joint,mA1/azimuth_3_joint,mA1/azimuth_4_joint,2.356194490192345,-1.5533430342749532,-0.12217304763960307,0.0
2025/05/06 15:12:54.563029466,0,0,,mA1/azimuth_1_joint,mA1/azimuth_2_joint,mA1/azimuth_3_joint,mA1/azimuth_4_joint,2.356194490192345,-1.5533430342749532,-0.10471975511965978,0.0
2025/05/06 15:12:54.664295005,0,0,,mA1/azimuth_1_joint,mA1/azimuth_2_joint,mA1/azimuth_3_joint,mA1/azimuth_4_joint,2.356194490192345,-1.5707963267948966,-0.10471975511965978,0.0
2025/05/06 15:12:54.764690138,0,0,,mA1/azimuth_1_joint,mA1/azimuth_2_joint,mA1/azimuth_3_joint,mA1/azimuth_4_joint,2.356194490192345,-1.5707963267948966,-0.08726646259971647,0.0
2025/05/06 15:12:54.864243089,0,0,,mA1/azimuth_1_joint,mA1/azimuth_2_joint,mA1/azimuth_3_joint,mA1/azimuth_4_joint,2.356194490192345,-1.5533430342749532,-0.08726646259971647,0.0
2025/05/06 15:12:54.963190600,0,0,,mA1/azimuth_1_joint,mA1/azimuth_2_joint,mA1/azimuth_3_joint,mA1/azimuth_4_joint,2.356194490192345,-1.5533430342749532,-0.08726646259971647,0.0
2025/05/06 15:12:55.64452712,0,0,,mA1/azimuth_1_joint,mA1/azimuth_2_joint,mA1/azimuth_3_joint,mA1/azimuth_4_joint,2.356194490192345,-1.5533430342749532,-0.08726646259971647,0.0
2025/05/06 15:12:55.164977153,0,0,,mA1/azimuth_1_joint,mA1/azimuth_2_joint,mA1/azimuth_3_joint,mA1/azimuth_4_joint,2.356194490192345,-1.5533430342749532,-0.08726646259971647,0.0
2025/05/06 15:12:55.263278552,0,0,,mA1/azimuth_1_joint,mA1/azimuth_2_joint,mA1/azimuth_3_joint,mA1/azimuth_4_joint,2.356194490192345,-1.5533430342749532,-0.08726646259971647,0.0
2025/05/06 15:12:55.363413150,0,0,,mA1/azimuth_1_joint,mA1/azimuth_2_joint,mA1/azimuth_3_joint,mA1/azimuth_4_joint,2.356194490192345,-1.5533430342749532,-0.05235987755982989,0.0
2025/05/06 15:12:55.463973304,0,0,,mA1/azimuth_1_joint,mA1/azimuth_2_joint,mA1/azimuth_3_joint,mA1/azimuth_4_joint,2.356194490192345,-1.5533430342749532,-0.05235987755982989,0.0
2025/05/06 15:12:55.563775723,0,0,,mA1/azimuth_1_joint,mA1/azimuth_2_joint,mA1/azimuth_3_joint,mA1/azimuth_4_joint,2.356194490192345,-1.5533430342749532,-0.05235987755982989,0.0
2025/05/06 15:12:55.664451378,0,0,,mA1/azimuth_1_joint,mA1/azimuth_2_joint,mA1/azimuth_3_joint,mA1/azimuth_4_joint,2.356194490192345,-1.5533430342749532,-0.05235987755982989,0.0
2025/05/06 15:12:55.763341595,0,0,,mA1/azimuth_1_joint,mA1/azimuth_2_joint,mA1/azimuth_3_joint,mA1/azimuth_4_joint,2.356194490192345,-1.5533430342749532,-0.05235987755982989,0.0
2025/05/06 15:12:55.863073758,0,0,,mA1/azimuth_1_joint,mA1/azimuth_2_joint,mA1/azimuth_3_joint,mA1/azimuth_4_joint,2.356194490192345,-1.5533430342749532,-0.05235987755982989,0.0
2025/05/06 15:12:55.963259977,0,0,,mA1/azimuth_1_joint,mA1/azimuth_2_joint,mA1/azimuth_3_joint,mA1/azimuth_4_joint,2.356194490192345,-1.5533430342749532,-0.05235987755982989,0.0
2025/05/06 15:12:56.63064881,0,0,,mA1/azimuth_1_joint,mA1/azimuth_2_joint,mA1/azimuth_3_joint,mA1/azimuth_4_joint,2.356194490192345,-1.5533430342749532,-0.05235987755982989,0.0
2025/05/06 15:12:56.164143100,0,0,,mA1/azimuth_1_joint,mA1/azimuth_2_joint,mA1/azimuth_3_joint,mA1/azimuth_4_joint,2.356194490192345,-1.5533430342749532,-0.05235987755982989,0.0
2025/05/06 15:12:56.269023722,0,0,,mA1/azimuth_1_joint,mA1/azimuth_2_joint,mA1/azimuth_3_joint,mA1/azimuth_4_joint,2.356194490192345,-1.5533430342749532,-0.05235987755982989,0.0
2025/05/06 15:12:56.363561036,0,0,,mA1/azimuth_1_joint,mA1/azimuth_2_joint,mA1/azimuth_3_joint,mA1/azimuth_4_joint,2.356194490192345,-1.5533430342749532,-0.05235987755982989,0.0
2025/05/06 15:12:56.463527820,0,0,,mA1/azimuth_1_joint,mA1/azimuth_2_joint,mA1/azimuth_3_joint,mA1/azimuth_4_joint,2.356194490192345,-1.5533430342749532,0.0,0.0
2025/05/06 15:12:56.565244279,0,0,,mA1/azimuth_1_joint,mA1/azimuth_2_joint,mA1/azimuth_3_joint,mA1/azimuth_4_joint,2.356194490192345,-1.5533430342749532,0.0,0.0
2025/05/06 15:12:56.663800881,0,0,,mA1/azimuth_1_joint,mA1/azimuth_2_joint,mA1/azimuth_3_joint,mA1/azimuth_4_joint,2.356194490192345,-1.5533430342749532,0.0,0.0
2025/05/06 15:12:56.763395008,0,0,,mA1/azimuth_1_joint,mA1/azimuth_2_joint,mA1/azimuth_3_joint,mA1/azimuth_4_joint,2.356194490192345,-1.5533430342749532,0.0,0.0
2025/05/06 15:12:56.868671024,0,0,,mA1/azimuth_1_joint,mA1/azimuth_2_joint,mA1/azimuth_3_joint,mA1/azimuth_4_joint,2.356194490192345,-1.5533430342749532,0.0,0.0
2025/05/06 15:12:56.963406723,0,0,,mA1/azimuth_1_joint,mA1/azimuth_2_joint,mA1/azimuth_3_joint,mA1/azimuth_4_joint,2.356194490192345,-1.5533430342749532,0.0,0.0
2025/05/06 15:12:57.63916104,0,0,,mA1/azimuth_1_joint,mA1/azimuth_2_joint,mA1/azimuth_3_joint,mA1/azimuth_4_joint,2.356194490192345,-1.5533430342749532,0.0,0.0
