time,header_stamp_secs,header_stamp_nsecs,header_frame_id,status_status,status_service,latitude,longitude,altitude,position_covariance_0,position_covariance_1,position_covariance_2,position_covariance_3,position_covariance_4,position_covariance_5,position_covariance_6,position_covariance_7,position_covariance_8,position_covariance_type
2025/04/05 15:42:02.367334004,1743860522,344876043,mA1/gps,0,1,63.43649524541375,10.393075416342445,0.0,1.4400000000000002e-10,0.0,0.0,0.0,1.4400000000000002e-10,0.0,0.0,0.0,1.0,2
2025/04/05 15:42:02.396989444,1743860522,394617719,mA1/gps,0,1,63.43649524646121,10.393075441792,0.0,1.4400000000000002e-10,0.0,0.0,0.0,1.4400000000000002e-10,0.0,0.0,0.0,1.0,2
2025/04/05 15:42:02.446970858,1743860522,446856869,mA1/gps,0,1,63.43649524841633,10.393075484235437,0.0,1.4400000000000002e-10,0.0,0.0,0.0,1.4400000000000002e-10,0.0,0.0,0.0,1.0,2
2025/04/05 15:42:02.496942045,1743860522,496653319,mA1/gps,0,1,63.43649524951258,10.393075541270068,0.0,1.4400000000000002e-10,0.0,0.0,0.0,1.4400000000000002e-10,0.0,0.0,0.0,1.0,2
2025/04/05 15:42:02.547826387,1743860522,547600369,mA1/gps,0,1,63.436495249896566,10.393075610453762,0.0,1.4400000000000002e-10,0.0,0.0,0.0,1.4400000000000002e-10,0.0,0.0,0.0,1.0,2
2025/04/05 15:42:02.599512197,1743860522,599149167,mA1/gps,0,1,63.43649525220619,10.393075686047412,0.0,1.4400000000000002e-10,0.0,0.0,0.0,1.4400000000000002e-10,0.0,0.0,0.0,1.0,2
2025/04/05 15:42:02.650438914,1743860522,650204481,mA1/gps,0,1,63.43649525334875,10.393075763614977,0.0,1.4400000000000002e-10,0.0,0.0,0.0,1.4400000000000002e-10,0.0,0.0,0.0,1.0,2
2025/04/05 15:42:02.693469420,1743860522,693182458,mA1/gps,0,1,63.436495254164825,10.393075839816545,0.0,1.4400000000000002e-10,0.0,0.0,0.0,1.4400000000000002e-10,0.0,0.0,0.0,1.0,2
2025/04/05 15:42:02.746413552,1743860522,746189712,mA1/gps,0,1,63.43649525388257,10.39307590991077,0.0,1.4400000000000002e-10,0.0,0.0,0.0,1.4400000000000002e-10,0.0,0.0,0.0,1.0,2
2025/04/05 15:42:02.796481426,1743860522,796180239,mA1/gps,0,1,63.43649525401637,10.393075971051859,0.0,1.4400000000000002e-10,0.0,0.0,0.0,1.4400000000000002e-10,0.0,0.0,0.0,1.0,2
2025/04/05 15:42:02.850547374,1743860522,849223461,mA1/gps,0,1,63.436495254962956,10.393076020707278,0.0,1.4400000000000002e-10,0.0,0.0,0.0,1.4400000000000002e-10,0.0,0.0,0.0,1.0,2
2025/04/05 15:42:02.891187298,1743860522,890929662,mA1/gps,0,1,63.43649525723624,10.393076056912124,0.0,1.4400000000000002e-10,0.0,0.0,0.0,1.4400000000000002e-10,0.0,0.0,0.0,1.0,2
2025/04/05 15:42:02.944957567,1743860522,944629322,mA1/gps,0,1,63.43649525863527,10.393076078207928,0.0,1.4400000000000002e-10,0.0,0.0,0.0,1.4400000000000002e-10,0.0,0.0,0.0,1.0,2
2025/04/05 15:42:02.996974330,1743860522,996462607,mA1/gps,0,1,63.436495258787275,10.393076084307072,0.0,1.4400000000000002e-10,0.0,0.0,0.0,1.4400000000000002e-10,0.0,0.0,0.0,1.0,2
2025/04/05 15:42:03.51577435,1743860523,51340599,mA1/gps,0,1,63.4364952598607,10.39307607681213,0.0,1.4400000000000002e-10,0.0,0.0,0.0,1.4400000000000002e-10,0.0,0.0,0.0,1.0,2
2025/04/05 15:42:03.91716894,1743860523,91318304,mA1/gps,0,1,63.43649526116108,10.393076058269095,0.0,1.4400000000000002e-10,0.0,0.0,0.0,1.4400000000000002e-10,0.0,0.0,0.0,1.0,2
2025/04/05 15:42:03.143058059,1743860523,142892730,mA1/gps,0,1,63.43649526295608,10.393076028766805,0.0,1.4400000000000002e-10,0.0,0.0,0.0,1.4400000000000002e-10,0.0,0.0,0.0,1.0,2
2025/04/05 15:42:03.193966265,1743860523,193527645,mA1/gps,0,1,63.43649526640407,10.393075990113129,0.0,1.4400000000000002e-10,0.0,0.0,0.0,1.4400000000000002e-10,0.0,0.0,0.0,1.0,2
2025/04/05 15:42:03.245469065,1743860523,245211058,mA1/gps,0,1,63.43649526886116,10.393075945532251,0.0,1.4400000000000002e-10,0.0,0.0,0.0,1.4400000000000002e-10,0.0,0.0,0.0,1.0,2
2025/04/05 15:42:03.297523472,1743860523,296063289,mA1/gps,0,1,63.43649526996929,10.393075897812482,0.0,1.4400000000000002e-10,0.0,0.0,0.0,1.4400000000000002e-10,0.0,0.0,0.0,1.0,2
2025/04/05 15:42:03.347220947,1743860523,346967967,mA1/gps,0,1,63.4364952711901,10.393075850350865,0.0,1.4400000000000002e-10,0.0,0.0,0.0,1.4400000000000002e-10,0.0,0.0,0.0,1.0,2
2025/04/05 15:42:03.398806881,1743860523,397377294,mA1/gps,0,1,63.436495273375385,10.393075808013867,0.0,1.4400000000000002e-10,0.0,0.0,0.0,1.4400000000000002e-10,0.0,0.0,0.0,1.0,2
2025/04/05 15:42:03.448715424,1743860523,448281401,mA1/gps,0,1,63.436495275040365,10.393075775222572,0.0,1.4400000000000002e-10,0.0,0.0,0.0,1.4400000000000002e-10,0.0,0.0,0.0,1.0,2
2025/04/05 15:42:03.498560456,1743860523,498127058,mA1/gps,0,1,63.43649527685897,10.393075752344034,0.0,1.4400000000000002e-10,0.0,0.0,0.0,1.4400000000000002e-10,0.0,0.0,0.0,1.0,2
2025/04/05 15:42:03.549393669,1743860523,549073270,mA1/gps,0,1,63.436495278442315,10.393075740755018,0.0,1.4400000000000002e-10,0.0,0.0,0.0,1.4400000000000002e-10,0.0,0.0,0.0,1.0,2
2025/04/05 15:42:03.599668244,1743860523,599384572,mA1/gps,0,1,63.43649527946418,10.393075741424965,0.0,1.4400000000000002e-10,0.0,0.0,0.0,1.4400000000000002e-10,0.0,0.0,0.0,1.0,2
2025/04/05 15:42:03.643426947,1743860523,642706364,mA1/gps,0,1,63.43649527916147,10.393075756947848,0.0,1.4400000000000002e-10,0.0,0.0,0.0,1.4400000000000002e-10,0.0,0.0,0.0,1.0,2
2025/04/05 15:42:03.693287057,1743860523,691786946,mA1/gps,0,1,63.436495278718354,10.393075785342425,0.0,1.4400000000000002e-10,0.0,0.0,0.0,1.4400000000000002e-10,0.0,0.0,0.0,1.0,2
2025/04/05 15:42:03.744045615,1743860523,743235455,mA1/gps,0,1,63.43649527910003,10.393075825890442,0.0,1.4400000000000002e-10,0.0,0.0,0.0,1.4400000000000002e-10,0.0,0.0,0.0,1.0,2
2025/04/05 15:42:03.793246937,1743860523,792791372,mA1/gps,0,1,63.43649528029764,10.393075873949307,0.0,1.4400000000000002e-10,0.0,0.0,0.0,1.4400000000000002e-10,0.0,0.0,0.0,1.0,2
2025/04/05 15:42:03.844175052,1743860523,843765434,mA1/gps,0,1,63.43649528027251,10.393075926567006,0.0,1.4400000000000002e-10,0.0,0.0,0.0,1.4400000000000002e-10,0.0,0.0,0.0,1.0,2
2025/04/05 15:42:03.894424926,1743860523,893865867,mA1/gps,0,1,63.436495279186545,10.393075984357699,0.0,1.4400000000000002e-10,0.0,0.0,0.0,1.4400000000000002e-10,0.0,0.0,0.0,1.0,2
2025/04/05 15:42:03.944672855,1743860523,944540148,mA1/gps,0,1,63.436495277881065,10.39307604885627,0.0,1.4400000000000002e-10,0.0,0.0,0.0,1.4400000000000002e-10,0.0,0.0,0.0,1.0,2
2025/04/05 15:42:04.2842322,1743860524,1286397,mA1/gps,0,1,63.43649527754525,10.393076113082671,0.0,1.4400000000000002e-10,0.0,0.0,0.0,1.4400000000000002e-10,0.0,0.0,0.0,1.0,2
2025/04/05 15:42:04.44059255,1743860524,43526532,mA1/gps,0,1,63.436495277325726,10.393076168844537,0.0,1.4400000000000002e-10,0.0,0.0,0.0,1.4400000000000002e-10,0.0,0.0,0.0,1.0,2
2025/04/05 15:42:04.94724285,1743860524,94566613,mA1/gps,0,1,63.43649527782302,10.39307621290225,0.0,1.4400000000000002e-10,0.0,0.0,0.0,1.4400000000000002e-10,0.0,0.0,0.0,1.0,2
2025/04/05 15:42:04.147667379,1743860524,147123220,mA1/gps,0,1,63.43649527830584,10.393076243059374,0.0,1.4400000000000002e-10,0.0,0.0,0.0,1.4400000000000002e-10,0.0,0.0,0.0,1.0,2
2025/04/05 15:42:04.201960721,1743860524,201056163,mA1/gps,0,1,63.43649527958105,10.393076257413227,0.0,1.4400000000000002e-10,0.0,0.0,0.0,1.4400000000000002e-10,0.0,0.0,0.0,1.0,2
2025/04/05 15:42:04.242510058,1743860524,242168030,mA1/gps,0,1,63.43649527999975,10.39307625618551,0.0,1.4400000000000002e-10,0.0,0.0,0.0,1.4400000000000002e-10,0.0,0.0,0.0,1.0,2
2025/04/05 15:42:04.295268092,1743860524,294670544,mA1/gps,0,1,63.436495280226104,10.393076241151741,0.0,1.4400000000000002e-10,0.0,0.0,0.0,1.4400000000000002e-10,0.0,0.0,0.0,1.0,2
2025/04/05 15:42:04.348291482,1743860524,347480954,mA1/gps,0,1,63.43649528238389,10.393076213246076,0.0,1.4400000000000002e-10,0.0,0.0,0.0,1.4400000000000002e-10,0.0,0.0,0.0,1.0,2
2025/04/05 15:42:04.399095289,1743860524,398543842,mA1/gps,0,1,63.436495285897976,10.393076174663559,0.0,1.4400000000000002e-10,0.0,0.0,0.0,1.4400000000000002e-10,0.0,0.0,0.0,1.0,2
2025/04/05 15:42:04.450998029,1743860524,450473652,mA1/gps,0,1,63.43649528883448,10.393076129040837,0.0,1.4400000000000002e-10,0.0,0.0,0.0,1.4400000000000002e-10,0.0,0.0,0.0,1.0,2
2025/04/05 15:42:04.503413028,1743860524,500971836,mA1/gps,0,1,63.43649529111385,10.393076076559199,0.0,1.4400000000000002e-10,0.0,0.0,0.0,1.4400000000000002e-10,0.0,0.0,0.0,1.0,2
2025/04/05 15:42:04.546874766,1743860524,544980351,mA1/gps,0,1,63.43649529254946,10.393076022819773,0.0,1.4400000000000002e-10,0.0,0.0,0.0,1.4400000000000002e-10,0.0,0.0,0.0,1.0,2
2025/04/05 15:42:04.596520345,1743860524,595655880,mA1/gps,0,1,63.436495295415966,10.393075968060048,0.0,1.4400000000000002e-10,0.0,0.0,0.0,1.4400000000000002e-10,0.0,0.0,0.0,1.0,2
2025/04/05 15:42:04.647055835,1743860524,646791248,mA1/gps,0,1,63.43649529806012,10.393075914255688,0.0,1.4400000000000002e-10,0.0,0.0,0.0,1.4400000000000002e-10,0.0,0.0,0.0,1.0,2
2025/04/05 15:42:04.699135029,1743860524,697908169,mA1/gps,0,1,63.43649530196489,10.393075863703594,0.0,1.4400000000000002e-10,0.0,0.0,0.0,1.4400000000000002e-10,0.0,0.0,0.0,1.0,2
2025/04/05 15:42:04.749435669,1743860524,748839501,mA1/gps,0,1,63.43649530402988,10.393075820095124,0.0,1.4400000000000002e-10,0.0,0.0,0.0,1.4400000000000002e-10,0.0,0.0,0.0,1.0,2
2025/04/05 15:42:04.799480425,1743860524,798916797,mA1/gps,0,1,63.43649530732549,10.393075785793009,0.0,1.4400000000000002e-10,0.0,0.0,0.0,1.4400000000000002e-10,0.0,0.0,0.0,1.0,2
2025/04/05 15:42:04.849997114,1743860524,849593788,mA1/gps,0,1,63.436495309954346,10.393075763247875,0.0,1.4400000000000002e-10,0.0,0.0,0.0,1.4400000000000002e-10,0.0,0.0,0.0,1.0,2
2025/04/05 15:42:04.900022293,1743860524,899374869,mA1/gps,0,1,63.43649531156316,10.393075753727695,0.0,1.4400000000000002e-10,0.0,0.0,0.0,1.4400000000000002e-10,0.0,0.0,0.0,1.0,2
2025/04/05 15:42:04.946580990,1743860524,943555282,mA1/gps,0,1,63.43649531384292,10.393075757648917,0.0,1.4400000000000002e-10,0.0,0.0,0.0,1.4400000000000002e-10,0.0,0.0,0.0,1.0,2
2025/04/05 15:42:04.994590190,1743860524,994493371,mA1/gps,0,1,63.43649531533251,10.39307577610569,0.0,1.4400000000000002e-10,0.0,0.0,0.0,1.4400000000000002e-10,0.0,0.0,0.0,1.0,2
2025/04/05 15:42:05.45519605,1743860525,45226115,mA1/gps,0,1,63.4364953180634,10.39307580880814,0.0,1.4400000000000002e-10,0.0,0.0,0.0,1.4400000000000002e-10,0.0,0.0,0.0,1.0,2
2025/04/05 15:42:05.102692592,1743860525,97591626,mA1/gps,0,1,63.436495321734995,10.393075854021877,0.0,1.4400000000000002e-10,0.0,0.0,0.0,1.4400000000000002e-10,0.0,0.0,0.0,1.0,2
2025/04/05 15:42:05.149650579,1743860525,149456744,mA1/gps,0,1,63.43649532566455,10.393075910388358,0.0,1.4400000000000002e-10,0.0,0.0,0.0,1.4400000000000002e-10,0.0,0.0,0.0,1.0,2
2025/04/05 15:42:05.200359800,1743860525,199892409,mA1/gps,0,1,63.43649532955985,10.393075974306228,0.0,1.4400000000000002e-10,0.0,0.0,0.0,1.4400000000000002e-10,0.0,0.0,0.0,1.0,2
2025/04/05 15:42:05.241370456,1743860525,240993019,mA1/gps,0,1,63.436495335019416,10.393076042646637,0.0,1.4400000000000002e-10,0.0,0.0,0.0,1.4400000000000002e-10,0.0,0.0,0.0,1.0,2
2025/04/05 15:42:05.295046491,1743860525,293718635,mA1/gps,0,1,63.43649534114828,10.393076111471979,0.0,1.4400000000000002e-10,0.0,0.0,0.0,1.4400000000000002e-10,0.0,0.0,0.0,1.0,2
2025/04/05 15:42:05.345462469,1743860525,345194948,mA1/gps,0,1,63.43649535071928,10.39307617873516,0.0,1.4400000000000002e-10,0.0,0.0,0.0,1.4400000000000002e-10,0.0,0.0,0.0,1.0,2
2025/04/05 15:42:05.395403013,1743860525,395033861,mA1/gps,0,1,63.436495360872804,10.393076240778688,0.0,1.4400000000000002e-10,0.0,0.0,0.0,1.4400000000000002e-10,0.0,0.0,0.0,1.0,2
2025/04/05 15:42:05.447086156,1743860525,446868511,mA1/gps,0,1,63.436495371063,10.393076293561187,0.0,1.4400000000000002e-10,0.0,0.0,0.0,1.4400000000000002e-10,0.0,0.0,0.0,1.0,2
2025/04/05 15:42:05.500265730,1743860525,499990642,mA1/gps,0,1,63.43649538616273,10.393076335961203,0.0,1.4400000000000002e-10,0.0,0.0,0.0,1.4400000000000002e-10,0.0,0.0,0.0,1.0,2
2025/04/05 15:42:05.550166019,1743860525,549761202,mA1/gps,0,1,63.43649540264158,10.393076367291547,0.0,1.4400000000000002e-10,0.0,0.0,0.0,1.4400000000000002e-10,0.0,0.0,0.0,1.0,2
2025/04/05 15:42:05.591949580,1743860525,591039519,mA1/gps,0,1,63.436495422297924,10.3930763856846,0.0,1.4400000000000002e-10,0.0,0.0,0.0,1.4400000000000002e-10,0.0,0.0,0.0,1.0,2
2025/04/05 15:42:05.642477003,1743860525,642118509,mA1/gps,0,1,63.43649544370896,10.393076390901237,0.0,1.4400000000000002e-10,0.0,0.0,0.0,1.4400000000000002e-10,0.0,0.0,0.0,1.0,2
2025/04/05 15:42:05.692474859,1743860525,692217050,mA1/gps,0,1,63.436495466523816,10.393076386336773,0.0,1.4400000000000002e-10,0.0,0.0,0.0,1.4400000000000002e-10,0.0,0.0,0.0,1.0,2
2025/04/05 15:42:05.743612198,1743860525,743332132,mA1/gps,0,1,63.43649549330857,10.393076373849182,0.0,1.4400000000000002e-10,0.0,0.0,0.0,1.4400000000000002e-10,0.0,0.0,0.0,1.0,2
2025/04/05 15:42:05.795262864,1743860525,794411306,mA1/gps,0,1,63.43649552166164,10.39307635605264,0.0,1.4400000000000002e-10,0.0,0.0,0.0,1.4400000000000002e-10,0.0,0.0,0.0,1.0,2
2025/04/05 15:42:05.844817706,1743860525,844299403,mA1/gps,0,1,63.43649555323696,10.39307633540526,0.0,1.4400000000000002e-10,0.0,0.0,0.0,1.4400000000000002e-10,0.0,0.0,0.0,1.0,2
2025/04/05 15:42:05.896316608,1743860525,894390376,mA1/gps,0,1,63.43649558812339,10.393076315370402,0.0,1.4400000000000002e-10,0.0,0.0,0.0,1.4400000000000002e-10,0.0,0.0,0.0,1.0,2
2025/04/05 15:42:05.945764216,1743860525,945406477,mA1/gps,0,1,63.43649562169011,10.393076298367124,0.0,1.4400000000000002e-10,0.0,0.0,0.0,1.4400000000000002e-10,0.0,0.0,0.0,1.0,2
2025/04/05 15:42:05.999280911,1743860525,998724573,mA1/gps,0,1,63.43649566040026,10.393076285746991,0.0,1.4400000000000002e-10,0.0,0.0,0.0,1.4400000000000002e-10,0.0,0.0,0.0,1.0,2
2025/04/05 15:42:06.49360731,1743860526,49117300,mA1/gps,0,1,63.43649569990755,10.393076281488463,0.0,1.4400000000000002e-10,0.0,0.0,0.0,1.4400000000000002e-10,0.0,0.0,0.0,1.0,2
2025/04/05 15:42:06.99837942,1743860526,99454838,mA1/gps,0,1,63.436495740111816,10.393076286778099,0.0,1.4400000000000002e-10,0.0,0.0,0.0,1.4400000000000002e-10,0.0,0.0,0.0,1.0,2
2025/04/05 15:42:06.149990140,1743860526,149857698,mA1/gps,0,1,63.43649578286246,10.393076302214066,0.0,1.4400000000000002e-10,0.0,0.0,0.0,1.4400000000000002e-10,0.0,0.0,0.0,1.0,2
2025/04/05 15:42:06.201690334,1743860526,201470774,mA1/gps,0,1,63.436495827074424,10.39307632960165,0.0,1.4400000000000002e-10,0.0,0.0,0.0,1.4400000000000002e-10,0.0,0.0,0.0,1.0,2
2025/04/05 15:42:06.241701547,1743860526,241358120,mA1/gps,0,1,63.436495873347816,10.39307636778119,0.0,1.4400000000000002e-10,0.0,0.0,0.0,1.4400000000000002e-10,0.0,0.0,0.0,1.0,2
2025/04/05 15:42:06.293378667,1743860526,291719053,mA1/gps,0,1,63.43649591903696,10.393076416499909,0.0,1.4400000000000002e-10,0.0,0.0,0.0,1.4400000000000002e-10,0.0,0.0,0.0,1.0,2
2025/04/05 15:42:06.342968556,1743860526,342591917,mA1/gps,0,1,63.436495964357995,10.393076473564491,0.0,1.4400000000000002e-10,0.0,0.0,0.0,1.4400000000000002e-10,0.0,0.0,0.0,1.0,2
2025/04/05 15:42:06.392757126,1743860526,392442194,mA1/gps,0,1,63.43649601322366,10.39307653792206,0.0,1.4400000000000002e-10,0.0,0.0,0.0,1.4400000000000002e-10,0.0,0.0,0.0,1.0,2
2025/04/05 15:42:06.443787991,1743860526,443497517,mA1/gps,0,1,63.43649606234907,10.393076607129045,0.0,1.4400000000000002e-10,0.0,0.0,0.0,1.4400000000000002e-10,0.0,0.0,0.0,1.0,2
2025/04/05 15:42:06.494361358,1743860526,494054081,mA1/gps,0,1,63.43649611167179,10.39307667840547,0.0,1.4400000000000002e-10,0.0,0.0,0.0,1.4400000000000002e-10,0.0,0.0,0.0,1.0,2
2025/04/05 15:42:06.544384579,1743860526,544191652,mA1/gps,0,1,63.43649616222546,10.393076749435314,0.0,1.4400000000000002e-10,0.0,0.0,0.0,1.4400000000000002e-10,0.0,0.0,0.0,1.0,2
2025/04/05 15:42:06.598135450,1743860526,596537962,mA1/gps,0,1,63.436496214201405,10.393076817444236,0.0,1.4400000000000002e-10,0.0,0.0,0.0,1.4400000000000002e-10,0.0,0.0,0.0,1.0,2
2025/04/05 15:42:06.647697771,1743860526,647528729,mA1/gps,0,1,63.43649626607861,10.393076880849032,0.0,1.4400000000000002e-10,0.0,0.0,0.0,1.4400000000000002e-10,0.0,0.0,0.0,1.0,2
2025/04/05 15:42:06.700996567,1743860526,698756314,mA1/gps,0,1,63.43649631971293,10.393076936711756,0.0,1.4400000000000002e-10,0.0,0.0,0.0,1.4400000000000002e-10,0.0,0.0,0.0,1.0,2
2025/04/05 15:42:06.749070089,1743860526,748031653,mA1/gps,0,1,63.43649637382693,10.393076983437435,0.0,1.4400000000000002e-10,0.0,0.0,0.0,1.4400000000000002e-10,0.0,0.0,0.0,1.0,2
2025/04/05 15:42:06.798809051,1743860526,798592473,mA1/gps,0,1,63.43649642949074,10.393077022076767,0.0,1.4400000000000002e-10,0.0,0.0,0.0,1.4400000000000002e-10,0.0,0.0,0.0,1.0,2
2025/04/05 15:42:06.849591424,1743860526,849489386,mA1/gps,0,1,63.43649648664996,10.39307704988899,0.0,1.4400000000000002e-10,0.0,0.0,0.0,1.4400000000000002e-10,0.0,0.0,0.0,1.0,2
2025/04/05 15:42:06.900340263,1743860526,900225062,mA1/gps,0,1,63.436496546340656,10.39307706929813,0.0,1.4400000000000002e-10,0.0,0.0,0.0,1.4400000000000002e-10,0.0,0.0,0.0,1.0,2
2025/04/05 15:42:06.943075672,1743860526,942858709,mA1/gps,0,1,63.43649660697006,10.393077079243653,0.0,1.4400000000000002e-10,0.0,0.0,0.0,1.4400000000000002e-10,0.0,0.0,0.0,1.0,2
2025/04/05 15:42:06.992752117,1743860526,992560065,mA1/gps,0,1,63.436496668746,10.393077082256234,0.0,1.4400000000000002e-10,0.0,0.0,0.0,1.4400000000000002e-10,0.0,0.0,0.0,1.0,2
2025/04/05 15:42:07.44359626,1743860527,44256697,mA1/gps,0,1,63.43649673412442,10.393077079252206,0.0,1.4400000000000002e-10,0.0,0.0,0.0,1.4400000000000002e-10,0.0,0.0,0.0,1.0,2
2025/04/05 15:42:07.95428704,1743860527,95040346,mA1/gps,0,1,63.43649679976625,10.39307707130037,0.0,1.4400000000000002e-10,0.0,0.0,0.0,1.4400000000000002e-10,0.0,0.0,0.0,1.0,2
2025/04/05 15:42:07.146368650,1743860527,146063111,mA1/gps,0,1,63.436496868433295,10.393077059704734,0.0,1.4400000000000002e-10,0.0,0.0,0.0,1.4400000000000002e-10,0.0,0.0,0.0,1.0,2
2025/04/05 15:42:07.199837180,1743860527,198166356,mA1/gps,0,1,63.436496939448894,10.393077047839276,0.0,1.4400000000000002e-10,0.0,0.0,0.0,1.4400000000000002e-10,0.0,0.0,0.0,1.0,2
2025/04/05 15:42:07.251185810,1743860527,248498382,mA1/gps,0,1,63.43649701209995,10.393077035280362,0.0,1.4400000000000002e-10,0.0,0.0,0.0,1.4400000000000002e-10,0.0,0.0,0.0,1.0,2
2025/04/05 15:42:07.300603049,1743860527,299089220,mA1/gps,0,1,63.436497085880994,10.393077024720096,0.0,1.4400000000000002e-10,0.0,0.0,0.0,1.4400000000000002e-10,0.0,0.0,0.0,1.0,2
2025/04/05 15:42:07.349992828,1743860527,349896965,mA1/gps,0,1,63.43649716234577,10.393077016449102,0.0,1.4400000000000002e-10,0.0,0.0,0.0,1.4400000000000002e-10,0.0,0.0,0.0,1.0,2
2025/04/05 15:42:07.398741413,1743860527,398649091,mA1/gps,0,1,63.43649724064426,10.393077012335086,0.0,1.4400000000000002e-10,0.0,0.0,0.0,1.4400000000000002e-10,0.0,0.0,0.0,1.0,2
2025/04/05 15:42:07.451796786,1743860527,449843115,mA1/gps,0,1,63.43649732070891,10.39307701342768,0.0,1.4400000000000002e-10,0.0,0.0,0.0,1.4400000000000002e-10,0.0,0.0,0.0,1.0,2
2025/04/05 15:42:07.501711734,1743860527,501016504,mA1/gps,0,1,63.436497402987044,10.393077019061835,0.0,1.4400000000000002e-10,0.0,0.0,0.0,1.4400000000000002e-10,0.0,0.0,0.0,1.0,2
2025/04/05 15:42:07.541280754,1743860527,541012365,mA1/gps,0,1,63.43649748539349,10.393077032118992,0.0,1.4400000000000002e-10,0.0,0.0,0.0,1.4400000000000002e-10,0.0,0.0,0.0,1.0,2
2025/04/05 15:42:07.591647052,1743860527,590984701,mA1/gps,0,1,63.436497569272795,10.393077051826939,0.0,1.4400000000000002e-10,0.0,0.0,0.0,1.4400000000000002e-10,0.0,0.0,0.0,1.0,2
2025/04/05 15:42:07.642453450,1743860527,642222140,mA1/gps,0,1,63.43649765499725,10.393077077121283,0.0,1.4400000000000002e-10,0.0,0.0,0.0,1.4400000000000002e-10,0.0,0.0,0.0,1.0,2
2025/04/05 15:42:07.693104573,1743860527,692151630,mA1/gps,0,1,63.436497741892495,10.393077109122391,0.0,1.4400000000000002e-10,0.0,0.0,0.0,1.4400000000000002e-10,0.0,0.0,0.0,1.0,2
2025/04/05 15:42:07.743172601,1743860527,743034990,mA1/gps,0,1,63.43649782836991,10.39307714541582,0.0,1.4400000000000002e-10,0.0,0.0,0.0,1.4400000000000002e-10,0.0,0.0,0.0,1.0,2
2025/04/05 15:42:07.793316732,1743860527,792922244,mA1/gps,0,1,63.43649791769557,10.393077184445595,0.0,1.4400000000000002e-10,0.0,0.0,0.0,1.4400000000000002e-10,0.0,0.0,0.0,1.0,2
2025/04/05 15:42:07.844270997,1743860527,843814626,mA1/gps,0,1,63.43649800552856,10.393077223588032,0.0,1.4400000000000002e-10,0.0,0.0,0.0,1.4400000000000002e-10,0.0,0.0,0.0,1.0,2
2025/04/05 15:42:07.894584650,1743860527,894380181,mA1/gps,0,1,63.43649809485429,10.393077262964546,0.0,1.4400000000000002e-10,0.0,0.0,0.0,1.4400000000000002e-10,0.0,0.0,0.0,1.0,2
2025/04/05 15:42:07.945429173,1743860527,945276433,mA1/gps,0,1,63.43649818514787,10.39307729959832,0.0,1.4400000000000002e-10,0.0,0.0,0.0,1.4400000000000002e-10,0.0,0.0,0.0,1.0,2
2025/04/05 15:42:07.996460570,1743860527,996219271,mA1/gps,0,1,63.43649827638027,10.393077333511297,0.0,1.4400000000000002e-10,0.0,0.0,0.0,1.4400000000000002e-10,0.0,0.0,0.0,1.0,2
2025/04/05 15:42:08.47448221,1743860528,47199875,mA1/gps,0,1,63.43649836634407,10.39307736259688,0.0,1.4400000000000002e-10,0.0,0.0,0.0,1.4400000000000002e-10,0.0,0.0,0.0,1.0,2
2025/04/05 15:42:08.99523356,1743860528,98180322,mA1/gps,0,1,63.43649845883601,10.393077384405501,0.0,1.4400000000000002e-10,0.0,0.0,0.0,1.4400000000000002e-10,0.0,0.0,0.0,1.0,2
2025/04/05 15:42:08.149494013,1743860528,149215628,mA1/gps,0,1,63.43649855092225,10.393077399453318,0.0,1.4400000000000002e-10,0.0,0.0,0.0,1.4400000000000002e-10,0.0,0.0,0.0,1.0,2
2025/04/05 15:42:08.200372485,1743860528,199421662,mA1/gps,0,1,63.43649864443992,10.393077406858133,0.0,1.4400000000000002e-10,0.0,0.0,0.0,1.4400000000000002e-10,0.0,0.0,0.0,1.0,2
2025/04/05 15:42:08.250969968,1743860528,250249447,mA1/gps,0,1,63.43649873793303,10.393077406877994,0.0,1.4400000000000002e-10,0.0,0.0,0.0,1.4400000000000002e-10,0.0,0.0,0.0,1.0,2
2025/04/05 15:42:08.301423873,1743860528,300102990,mA1/gps,0,1,63.4364988330859,10.393077400876065,0.0,1.4400000000000002e-10,0.0,0.0,0.0,1.4400000000000002e-10,0.0,0.0,0.0,1.0,2
2025/04/05 15:42:08.341317308,1743860528,340989226,mA1/gps,0,1,63.436498929133364,10.393077388211436,0.0,1.4400000000000002e-10,0.0,0.0,0.0,1.4400000000000002e-10,0.0,0.0,0.0,1.0,2
2025/04/05 15:42:08.391220738,1743860528,390823563,mA1/gps,0,1,63.43649902593267,10.393077371586687,0.0,1.4400000000000002e-10,0.0,0.0,0.0,1.4400000000000002e-10,0.0,0.0,0.0,1.0,2
2025/04/05 15:42:08.441978046,1743860528,441771806,mA1/gps,0,1,63.436499125478356,10.393077351895586,0.0,1.4400000000000002e-10,0.0,0.0,0.0,1.4400000000000002e-10,0.0,0.0,0.0,1.0,2
2025/04/05 15:42:08.492776139,1743860528,492188087,mA1/gps,0,1,63.43649922535539,10.393077330496792,0.0,1.4400000000000002e-10,0.0,0.0,0.0,1.4400000000000002e-10,0.0,0.0,0.0,1.0,2
2025/04/05 15:42:08.543851433,1743860528,543121636,mA1/gps,0,1,63.436499326970754,10.393077309482795,0.0,1.4400000000000002e-10,0.0,0.0,0.0,1.4400000000000002e-10,0.0,0.0,0.0,1.0,2
2025/04/05 15:42:08.594770667,1743860528,594068104,mA1/gps,0,1,63.43649942907662,10.393077290471984,0.0,1.4400000000000002e-10,0.0,0.0,0.0,1.4400000000000002e-10,0.0,0.0,0.0,1.0,2
2025/04/05 15:42:08.645202080,1743860528,644867810,mA1/gps,0,1,63.43649953431175,10.393077274461836,0.0,1.4400000000000002e-10,0.0,0.0,0.0,1.4400000000000002e-10,0.0,0.0,0.0,1.0,2
2025/04/05 15:42:08.695596161,1743860528,694920509,mA1/gps,0,1,63.436499639643756,10.393077262871426,0.0,1.4400000000000002e-10,0.0,0.0,0.0,1.4400000000000002e-10,0.0,0.0,0.0,1.0,2
2025/04/05 15:42:08.745075487,1743860528,744913538,mA1/gps,0,1,63.43649974735691,10.393077256667034,0.0,1.4400000000000002e-10,0.0,0.0,0.0,1.4400000000000002e-10,0.0,0.0,0.0,1.0,2
2025/04/05 15:42:08.799939622,1743860528,799651244,mA1/gps,0,1,63.43649985578359,10.393077257231178,0.0,1.4400000000000002e-10,0.0,0.0,0.0,1.4400000000000002e-10,0.0,0.0,0.0,1.0,2
2025/04/05 15:42:08.848926132,1743860528,848812745,mA1/gps,0,1,63.436499965719136,10.393077263399226,0.0,1.4400000000000002e-10,0.0,0.0,0.0,1.4400000000000002e-10,0.0,0.0,0.0,1.0,2
2025/04/05 15:42:08.899381415,1743860528,898937520,mA1/gps,0,1,63.43650007830843,10.393077275325515,0.0,1.4400000000000002e-10,0.0,0.0,0.0,1.4400000000000002e-10,0.0,0.0,0.0,1.0,2
2025/04/05 15:42:08.951186310,1743860528,949782832,mA1/gps,0,1,63.436500189875744,10.393077292367199,0.0,1.4400000000000002e-10,0.0,0.0,0.0,1.4400000000000002e-10,0.0,0.0,0.0,1.0,2
2025/04/05 15:42:08.999865127,1743860528,999670795,mA1/gps,0,1,63.43650030322129,10.39307731535925,0.0,1.4400000000000002e-10,0.0,0.0,0.0,1.4400000000000002e-10,0.0,0.0,0.0,1.0,2
2025/04/05 15:42:09.41406230,1743860529,41277512,mA1/gps,0,1,63.43650041783134,10.393077342118623,0.0,1.4400000000000002e-10,0.0,0.0,0.0,1.4400000000000002e-10,0.0,0.0,0.0,1.0,2
2025/04/05 15:42:09.92018178,1743860529,91806559,mA1/gps,0,1,63.43650053362372,10.39307736936728,0.0,1.4400000000000002e-10,0.0,0.0,0.0,1.4400000000000002e-10,0.0,0.0,0.0,1.0,2
2025/04/05 15:42:09.144569637,1743860529,144461321,mA1/gps,0,1,63.43650064830084,10.393077397949893,0.0,1.4400000000000002e-10,0.0,0.0,0.0,1.4400000000000002e-10,0.0,0.0,0.0,1.0,2
2025/04/05 15:42:09.194316572,1743860529,194092105,mA1/gps,0,1,63.436500764252706,10.393077424964604,0.0,1.4400000000000002e-10,0.0,0.0,0.0,1.4400000000000002e-10,0.0,0.0,0.0,1.0,2
2025/04/05 15:42:09.245320494,1743860529,245029693,mA1/gps,0,1,63.436500881180635,10.393077449468931,0.0,1.4400000000000002e-10,0.0,0.0,0.0,1.4400000000000002e-10,0.0,0.0,0.0,1.0,2
2025/04/05 15:42:09.297581732,1743860529,297269898,mA1/gps,0,1,63.436500997944805,10.393077470784196,0.0,1.4400000000000002e-10,0.0,0.0,0.0,1.4400000000000002e-10,0.0,0.0,0.0,1.0,2
2025/04/05 15:42:09.348295330,1743860529,348062007,mA1/gps,0,1,63.43650111495215,10.39307748820737,0.0,1.4400000000000002e-10,0.0,0.0,0.0,1.4400000000000002e-10,0.0,0.0,0.0,1.0,2
2025/04/05 15:42:09.402553325,1743860529,400127934,mA1/gps,0,1,63.43650123212946,10.3930775021622,0.0,1.4400000000000002e-10,0.0,0.0,0.0,1.4400000000000002e-10,0.0,0.0,0.0,1.0,2
2025/04/05 15:42:09.441481127,1743860529,441253437,mA1/gps,0,1,63.436501349792714,10.393077510446368,0.0,1.4400000000000002e-10,0.0,0.0,0.0,1.4400000000000002e-10,0.0,0.0,0.0,1.0,2
2025/04/05 15:42:09.493096360,1743860529,490889799,mA1/gps,0,1,63.43650146652732,10.393077512261824,0.0,1.4400000000000002e-10,0.0,0.0,0.0,1.4400000000000002e-10,0.0,0.0,0.0,1.0,2
2025/04/05 15:42:09.542138748,1743860529,541970350,mA1/gps,0,1,63.436501584459634,10.393077508464472,0.0,1.4400000000000002e-10,0.0,0.0,0.0,1.4400000000000002e-10,0.0,0.0,0.0,1.0,2
2025/04/05 15:42:09.592215762,1743860529,592037418,mA1/gps,0,1,63.436501701541545,10.393077501009328,0.0,1.4400000000000002e-10,0.0,0.0,0.0,1.4400000000000002e-10,0.0,0.0,0.0,1.0,2
2025/04/05 15:42:09.646524565,1743860529,643990054,mA1/gps,0,1,63.436501819654026,10.393077489541387,0.0,1.4400000000000002e-10,0.0,0.0,0.0,1.4400000000000002e-10,0.0,0.0,0.0,1.0,2
2025/04/05 15:42:09.695558764,1743860529,693697271,mA1/gps,0,1,63.436501939082184,10.393077476035902,0.0,1.4400000000000002e-10,0.0,0.0,0.0,1.4400000000000002e-10,0.0,0.0,0.0,1.0,2
2025/04/05 15:42:09.747357530,1743860529,746341213,mA1/gps,0,1,63.43650205941966,10.39307746181456,0.0,1.4400000000000002e-10,0.0,0.0,0.0,1.4400000000000002e-10,0.0,0.0,0.0,1.0,2
2025/04/05 15:42:09.796863519,1743860529,796516446,mA1/gps,0,1,63.436502179003774,10.393077447398449,0.0,1.4400000000000002e-10,0.0,0.0,0.0,1.4400000000000002e-10,0.0,0.0,0.0,1.0,2
2025/04/05 15:42:09.848275164,1743860529,847975195,mA1/gps,0,1,63.43650229960892,10.393077434049037,0.0,1.4400000000000002e-10,0.0,0.0,0.0,1.4400000000000002e-10,0.0,0.0,0.0,1.0,2
2025/04/05 15:42:09.898438108,1743860529,897921510,mA1/gps,0,1,63.436502421803404,10.393077422974539,0.0,1.4400000000000002e-10,0.0,0.0,0.0,1.4400000000000002e-10,0.0,0.0,0.0,1.0,2
2025/04/05 15:42:09.949059327,1743860529,948824736,mA1/gps,0,1,63.43650254568398,10.393077414988905,0.0,1.4400000000000002e-10,0.0,0.0,0.0,1.4400000000000002e-10,0.0,0.0,0.0,1.0,2
2025/04/05 15:42:09.999836910,1743860529,999711773,mA1/gps,0,1,63.43650266929544,10.393077410896897,0.0,1.4400000000000002e-10,0.0,0.0,0.0,1.4400000000000002e-10,0.0,0.0,0.0,1.0,2
2025/04/05 15:42:10.52879482,1743860530,50800625,mA1/gps,0,1,63.43650279439211,10.393077410637547,0.0,1.4400000000000002e-10,0.0,0.0,0.0,1.4400000000000002e-10,0.0,0.0,0.0,1.0,2
2025/04/05 15:42:10.90885123,1743860530,90404743,mA1/gps,0,1,63.43650292136174,10.393077413009788,0.0,1.4400000000000002e-10,0.0,0.0,0.0,1.4400000000000002e-10,0.0,0.0,0.0,1.0,2
2025/04/05 15:42:10.143754200,1743860530,143472377,mA1/gps,0,1,63.43650304868322,10.393077418760948,0.0,1.4400000000000002e-10,0.0,0.0,0.0,1.4400000000000002e-10,0.0,0.0,0.0,1.0,2
2025/04/05 15:42:10.195116119,1743860530,193217709,mA1/gps,0,1,63.43650317805225,10.393077428927443,0.0,1.4400000000000002e-10,0.0,0.0,0.0,1.4400000000000002e-10,0.0,0.0,0.0,1.0,2
2025/04/05 15:42:10.244788399,1743860530,244195100,mA1/gps,0,1,63.43650330790589,10.393077442899592,0.0,1.4400000000000002e-10,0.0,0.0,0.0,1.4400000000000002e-10,0.0,0.0,0.0,1.0,2
2025/04/05 15:42:10.295782459,1743860530,295450341,mA1/gps,0,1,63.43650343880635,10.393077460691986,0.0,1.4400000000000002e-10,0.0,0.0,0.0,1.4400000000000002e-10,0.0,0.0,0.0,1.0,2
2025/04/05 15:42:10.345997860,1743860530,345586958,mA1/gps,0,1,63.436503571154,10.393077480704038,0.0,1.4400000000000002e-10,0.0,0.0,0.0,1.4400000000000002e-10,0.0,0.0,0.0,1.0,2
2025/04/05 15:42:10.396769835,1743860530,395909682,mA1/gps,0,1,63.43650370417537,10.393077501644248,0.0,1.4400000000000002e-10,0.0,0.0,0.0,1.4400000000000002e-10,0.0,0.0,0.0,1.0,2
2025/04/05 15:42:10.447111433,1743860530,446806363,mA1/gps,0,1,63.436503837016275,10.393077523151796,0.0,1.4400000000000002e-10,0.0,0.0,0.0,1.4400000000000002e-10,0.0,0.0,0.0,1.0,2
2025/04/05 15:42:10.499989631,1743860530,499863717,mA1/gps,0,1,63.43650397171223,10.393077544665728,0.0,1.4400000000000002e-10,0.0,0.0,0.0,1.4400000000000002e-10,0.0,0.0,0.0,1.0,2
2025/04/05 15:42:10.541444036,1743860530,541325343,mA1/gps,0,1,63.436504106677745,10.393077563848427,0.0,1.4400000000000002e-10,0.0,0.0,0.0,1.4400000000000002e-10,0.0,0.0,0.0,1.0,2
2025/04/05 15:42:10.592889149,1743860530,591631034,mA1/gps,0,1,63.43650424225811,10.393077580342561,0.0,1.4400000000000002e-10,0.0,0.0,0.0,1.4400000000000002e-10,0.0,0.0,0.0,1.0,2
2025/04/05 15:42:10.645066475,1743860530,644559380,mA1/gps,0,1,63.43650437743645,10.393077592823147,0.0,1.4400000000000002e-10,0.0,0.0,0.0,1.4400000000000002e-10,0.0,0.0,0.0,1.0,2
2025/04/05 15:42:10.694543854,1743860530,694287898,mA1/gps,0,1,63.43650451396279,10.393077602358975,0.0,1.4400000000000002e-10,0.0,0.0,0.0,1.4400000000000002e-10,0.0,0.0,0.0,1.0,2
2025/04/05 15:42:10.745457738,1743860530,745140239,mA1/gps,0,1,63.43650465005299,10.393077606728719,0.0,1.4400000000000002e-10,0.0,0.0,0.0,1.4400000000000002e-10,0.0,0.0,0.0,1.0,2
2025/04/05 15:42:10.795257874,1743860530,794988939,mA1/gps,0,1,63.436504786372,10.39307760775934,0.0,1.4400000000000002e-10,0.0,0.0,0.0,1.4400000000000002e-10,0.0,0.0,0.0,1.0,2
2025/04/05 15:42:10.846486034,1743860530,845978551,mA1/gps,0,1,63.43650492223516,10.39307760436211,0.0,1.4400000000000002e-10,0.0,0.0,0.0,1.4400000000000002e-10,0.0,0.0,0.0,1.0,2
2025/04/05 15:42:10.896072638,1743860530,895789383,mA1/gps,0,1,63.4365050592694,10.393077598974868,0.0,1.4400000000000002e-10,0.0,0.0,0.0,1.4400000000000002e-10,0.0,0.0,0.0,1.0,2
2025/04/05 15:42:10.948051219,1743860530,947874387,mA1/gps,0,1,63.436505195831735,10.393077592342657,0.0,1.4400000000000002e-10,0.0,0.0,0.0,1.4400000000000002e-10,0.0,0.0,0.0,1.0,2
2025/04/05 15:42:11.780831,1743860530,999065591,mA1/gps,0,1,63.43650533232632,10.393077583745328,0.0,1.4400000000000002e-10,0.0,0.0,0.0,1.4400000000000002e-10,0.0,0.0,0.0,1.0,2
2025/04/05 15:42:11.50044755,1743860531,49855573,mA1/gps,0,1,63.43650546881812,10.39307757387515,0.0,1.4400000000000002e-10,0.0,0.0,0.0,1.4400000000000002e-10,0.0,0.0,0.0,1.0,2
2025/04/05 15:42:11.92622452,1743860531,90776067,mA1/gps,0,1,63.43650560482283,10.393077563441755,0.0,1.4400000000000002e-10,0.0,0.0,0.0,1.4400000000000002e-10,0.0,0.0,0.0,1.0,2
2025/04/05 15:42:11.145480348,1743860531,145361645,mA1/gps,0,1,63.43650574335905,10.393077553272065,0.0,1.4400000000000002e-10,0.0,0.0,0.0,1.4400000000000002e-10,0.0,0.0,0.0,1.0,2
2025/04/05 15:42:11.195667550,1743860531,195270760,mA1/gps,0,1,63.436505881662164,10.393077545339198,0.0,1.4400000000000002e-10,0.0,0.0,0.0,1.4400000000000002e-10,0.0,0.0,0.0,1.0,2
2025/04/05 15:42:11.246587050,1743860531,246121729,mA1/gps,0,1,63.43650601930593,10.393077538853662,0.0,1.4400000000000002e-10,0.0,0.0,0.0,1.4400000000000002e-10,0.0,0.0,0.0,1.0,2
2025/04/05 15:42:11.296743878,1743860531,296473660,mA1/gps,0,1,63.43650615852169,10.393077535558772,0.0,1.4400000000000002e-10,0.0,0.0,0.0,1.4400000000000002e-10,0.0,0.0,0.0,1.0,2
2025/04/05 15:42:11.347597136,1743860531,347468662,mA1/gps,0,1,63.43650629798581,10.393077533859792,0.0,1.4400000000000002e-10,0.0,0.0,0.0,1.4400000000000002e-10,0.0,0.0,0.0,1.0,2
2025/04/05 15:42:11.397657602,1743860531,397428214,mA1/gps,0,1,63.43650643766338,10.393077534617644,0.0,1.4400000000000002e-10,0.0,0.0,0.0,1.4400000000000002e-10,0.0,0.0,0.0,1.0,2
2025/04/05 15:42:11.448482439,1743860531,448186458,mA1/gps,0,1,63.43650657835142,10.393077537358371,0.0,1.4400000000000002e-10,0.0,0.0,0.0,1.4400000000000002e-10,0.0,0.0,0.0,1.0,2
2025/04/05 15:42:11.500100286,1743860531,498215108,mA1/gps,0,1,63.43650672015531,10.393077542210376,0.0,1.4400000000000002e-10,0.0,0.0,0.0,1.4400000000000002e-10,0.0,0.0,0.0,1.0,2
2025/04/05 15:42:11.549553981,1743860531,549259228,mA1/gps,0,1,63.43650686242132,10.393077548940603,0.0,1.4400000000000002e-10,0.0,0.0,0.0,1.4400000000000002e-10,0.0,0.0,0.0,1.0,2
2025/04/05 15:42:11.600260557,1743860531,599113865,mA1/gps,0,1,63.436507005777976,10.39307755703633,0.0,1.4400000000000002e-10,0.0,0.0,0.0,1.4400000000000002e-10,0.0,0.0,0.0,1.0,2
2025/04/05 15:42:11.650370022,1743860531,650111156,mA1/gps,0,1,63.43650715021176,10.393077567219912,0.0,1.4400000000000002e-10,0.0,0.0,0.0,1.4400000000000002e-10,0.0,0.0,0.0,1.0,2
2025/04/05 15:42:11.700330354,1743860531,699981510,mA1/gps,0,1,63.43650729502208,10.393077577992598,0.0,1.4400000000000002e-10,0.0,0.0,0.0,1.4400000000000002e-10,0.0,0.0,0.0,1.0,2
2025/04/05 15:42:11.741934318,1743860531,741791255,mA1/gps,0,1,63.43650744094581,10.393077588664962,0.0,1.4400000000000002e-10,0.0,0.0,0.0,1.4400000000000002e-10,0.0,0.0,0.0,1.0,2
2025/04/05 15:42:11.795174078,1743860531,794887751,mA1/gps,0,1,63.436507587753496,10.393077598953962,0.0,1.4400000000000002e-10,0.0,0.0,0.0,1.4400000000000002e-10,0.0,0.0,0.0,1.0,2
2025/04/05 15:42:11.848854577,1743860531,848115654,mA1/gps,0,1,63.43650773494704,10.393077609147754,0.0,1.4400000000000002e-10,0.0,0.0,0.0,1.4400000000000002e-10,0.0,0.0,0.0,1.0,2
2025/04/05 15:42:11.899212948,1743860531,898856765,mA1/gps,0,1,63.43650788357081,10.393077616889038,0.0,1.4400000000000002e-10,0.0,0.0,0.0,1.4400000000000002e-10,0.0,0.0,0.0,1.0,2
2025/04/05 15:42:11.950752570,1743860531,948655893,mA1/gps,0,1,63.4365080321192,10.393077623413772,0.0,1.4400000000000002e-10,0.0,0.0,0.0,1.4400000000000002e-10,0.0,0.0,0.0,1.0,2
2025/04/05 15:42:12.138490,1743860531,998510287,mA1/gps,0,1,63.436508181288126,10.393077627176995,0.0,1.4400000000000002e-10,0.0,0.0,0.0,1.4400000000000002e-10,0.0,0.0,0.0,1.0,2
2025/04/05 15:42:12.51402212,1743860532,49585083,mA1/gps,0,1,63.43650833094756,10.393077628016977,0.0,1.4400000000000002e-10,0.0,0.0,0.0,1.4400000000000002e-10,0.0,0.0,0.0,1.0,2
2025/04/05 15:42:12.99744482,1743860532,99431040,mA1/gps,0,1,63.436508481632,10.393077628310714,0.0,1.4400000000000002e-10,0.0,0.0,0.0,1.4400000000000002e-10,0.0,0.0,0.0,1.0,2
2025/04/05 15:42:12.153276856,1743860532,150422680,mA1/gps,0,1,63.436508632082365,10.39307762615833,0.0,1.4400000000000002e-10,0.0,0.0,0.0,1.4400000000000002e-10,0.0,0.0,0.0,1.0,2
2025/04/05 15:42:12.193213814,1743860532,190385248,mA1/gps,0,1,63.43650878364841,10.393077622432692,0.0,1.4400000000000002e-10,0.0,0.0,0.0,1.4400000000000002e-10,0.0,0.0,0.0,1.0,2
2025/04/05 15:42:12.241918746,1743860532,241696237,mA1/gps,0,1,63.43650893480526,10.393077617878014,0.0,1.4400000000000002e-10,0.0,0.0,0.0,1.4400000000000002e-10,0.0,0.0,0.0,1.0,2
2025/04/05 15:42:12.292618515,1743860532,292289380,mA1/gps,0,1,63.43650908668927,10.393077612872794,0.0,1.4400000000000002e-10,0.0,0.0,0.0,1.4400000000000002e-10,0.0,0.0,0.0,1.0,2
2025/04/05 15:42:12.343058983,1743860532,342770277,mA1/gps,0,1,63.436509238614065,10.393077608224381,0.0,1.4400000000000002e-10,0.0,0.0,0.0,1.4400000000000002e-10,0.0,0.0,0.0,1.0,2
2025/04/05 15:42:12.393169545,1743860532,392710304,mA1/gps,0,1,63.43650938968006,10.393077602789727,0.0,1.4400000000000002e-10,0.0,0.0,0.0,1.4400000000000002e-10,0.0,0.0,0.0,1.0,2
2025/04/05 15:42:12.444004893,1743860532,443607078,mA1/gps,0,1,63.43650954155724,10.393077597750798,0.0,1.4400000000000002e-10,0.0,0.0,0.0,1.4400000000000002e-10,0.0,0.0,0.0,1.0,2
2025/04/05 15:42:12.495316145,1743860532,493514632,mA1/gps,0,1,63.43650969346307,10.393077592637257,0.0,1.4400000000000002e-10,0.0,0.0,0.0,1.4400000000000002e-10,0.0,0.0,0.0,1.0,2
2025/04/05 15:42:12.544775371,1743860532,544397868,mA1/gps,0,1,63.43650984569705,10.393077588255556,0.0,1.4400000000000002e-10,0.0,0.0,0.0,1.4400000000000002e-10,0.0,0.0,0.0,1.0,2
2025/04/05 15:42:12.595215687,1743860532,595007167,mA1/gps,0,1,63.436509997430605,10.393077583795518,0.0,1.4400000000000002e-10,0.0,0.0,0.0,1.4400000000000002e-10,0.0,0.0,0.0,1.0,2
2025/04/05 15:42:12.647857930,1743860532,646002700,mA1/gps,0,1,63.436510149958245,10.393077579996719,0.0,1.4400000000000002e-10,0.0,0.0,0.0,1.4400000000000002e-10,0.0,0.0,0.0,1.0,2
2025/04/05 15:42:12.702682019,1743860532,698477772,mA1/gps,0,1,63.436510302188154,10.393077578623501,0.0,1.4400000000000002e-10,0.0,0.0,0.0,1.4400000000000002e-10,0.0,0.0,0.0,1.0,2
2025/04/05 15:42:12.749803411,1743860532,749305874,mA1/gps,0,1,63.43651045606121,10.393077578324942,0.0,1.4400000000000002e-10,0.0,0.0,0.0,1.4400000000000002e-10,0.0,0.0,0.0,1.0,2
2025/04/05 15:42:12.794803827,1743860532,794655973,mA1/gps,0,1,63.436510608853986,10.393077579924793,0.0,1.4400000000000002e-10,0.0,0.0,0.0,1.4400000000000002e-10,0.0,0.0,0.0,1.0,2
2025/04/05 15:42:12.844984080,1743860532,844586001,mA1/gps,0,1,63.43651076400903,10.393077583048928,0.0,1.4400000000000002e-10,0.0,0.0,0.0,1.4400000000000002e-10,0.0,0.0,0.0,1.0,2
2025/04/05 15:42:12.897108883,1743860532,896728942,mA1/gps,0,1,63.43651091900452,10.393077587241677,0.0,1.4400000000000002e-10,0.0,0.0,0.0,1.4400000000000002e-10,0.0,0.0,0.0,1.0,2
2025/04/05 15:42:12.950787683,1743860532,950523847,mA1/gps,0,1,63.43651107362764,10.39307759215362,0.0,1.4400000000000002e-10,0.0,0.0,0.0,1.4400000000000002e-10,0.0,0.0,0.0,1.0,2
2025/04/05 15:42:12.990777032,1743860532,990410034,mA1/gps,0,1,63.436511228888136,10.393077597529853,0.0,1.4400000000000002e-10,0.0,0.0,0.0,1.4400000000000002e-10,0.0,0.0,0.0,1.0,2
2025/04/05 15:42:13.41997074,1743860533,41399817,mA1/gps,0,1,63.436511386011034,10.393077602971035,0.0,1.4400000000000002e-10,0.0,0.0,0.0,1.4400000000000002e-10,0.0,0.0,0.0,1.0,2
2025/04/05 15:42:13.92499085,1743860533,91292604,mA1/gps,0,1,63.43651154215675,10.3930776085129,0.0,1.4400000000000002e-10,0.0,0.0,0.0,1.4400000000000002e-10,0.0,0.0,0.0,1.0,2
2025/04/05 15:42:13.142283862,1743860533,142131382,mA1/gps,0,1,63.43651170154489,10.39307761273212,0.0,1.4400000000000002e-10,0.0,0.0,0.0,1.4400000000000002e-10,0.0,0.0,0.0,1.0,2
2025/04/05 15:42:13.193759594,1743860533,192979476,mA1/gps,0,1,63.43651186033671,10.393077616083726,0.0,1.4400000000000002e-10,0.0,0.0,0.0,1.4400000000000002e-10,0.0,0.0,0.0,1.0,2
2025/04/05 15:42:13.244100228,1743860533,243888288,mA1/gps,0,1,63.43651201971417,10.393077618456063,0.0,1.4400000000000002e-10,0.0,0.0,0.0,1.4400000000000002e-10,0.0,0.0,0.0,1.0,2
2025/04/05 15:42:13.293965583,1743860533,293735499,mA1/gps,0,1,63.436512180874,10.393077619364302,0.0,1.4400000000000002e-10,0.0,0.0,0.0,1.4400000000000002e-10,0.0,0.0,0.0,1.0,2
2025/04/05 15:42:13.346259687,1743860533,344620100,mA1/gps,0,1,63.43651234154114,10.39307761810197,0.0,1.4400000000000002e-10,0.0,0.0,0.0,1.4400000000000002e-10,0.0,0.0,0.0,1.0,2
2025/04/05 15:42:13.397144927,1743860533,395045094,mA1/gps,0,1,63.43651250370813,10.393077615809194,0.0,1.4400000000000002e-10,0.0,0.0,0.0,1.4400000000000002e-10,0.0,0.0,0.0,1.0,2
2025/04/05 15:42:13.446058312,1743860533,445884795,mA1/gps,0,1,63.43651266547692,10.393077612313524,0.0,1.4400000000000002e-10,0.0,0.0,0.0,1.4400000000000002e-10,0.0,0.0,0.0,1.0,2
2025/04/05 15:42:13.496231375,1743860533,495891052,mA1/gps,0,1,63.436512829279245,10.393077606468427,0.0,1.4400000000000002e-10,0.0,0.0,0.0,1.4400000000000002e-10,0.0,0.0,0.0,1.0,2
2025/04/05 15:42:13.547503808,1743860533,547233425,mA1/gps,0,1,63.43651299185893,10.39307760089555,0.0,1.4400000000000002e-10,0.0,0.0,0.0,1.4400000000000002e-10,0.0,0.0,0.0,1.0,2
2025/04/05 15:42:13.598170272,1743860533,597689149,mA1/gps,0,1,63.436513154988326,10.393077593418676,0.0,1.4400000000000002e-10,0.0,0.0,0.0,1.4400000000000002e-10,0.0,0.0,0.0,1.0,2
2025/04/05 15:42:13.649428779,1743860533,649052178,mA1/gps,0,1,63.43651331865864,10.393077584165333,0.0,1.4400000000000002e-10,0.0,0.0,0.0,1.4400000000000002e-10,0.0,0.0,0.0,1.0,2
2025/04/05 15:42:13.693070112,1743860533,691044236,mA1/gps,0,1,63.43651348311285,10.393077575331418,0.0,1.4400000000000002e-10,0.0,0.0,0.0,1.4400000000000002e-10,0.0,0.0,0.0,1.0,2
2025/04/05 15:42:13.742430571,1743860533,742182787,mA1/gps,0,1,63.43651364709347,10.393077565178075,0.0,1.4400000000000002e-10,0.0,0.0,0.0,1.4400000000000002e-10,0.0,0.0,0.0,1.0,2
2025/04/05 15:42:13.792485538,1743860533,792127185,mA1/gps,0,1,63.436513810746405,10.393077555166778,0.0,1.4400000000000002e-10,0.0,0.0,0.0,1.4400000000000002e-10,0.0,0.0,0.0,1.0,2
2025/04/05 15:42:13.843687483,1743860533,843022194,mA1/gps,0,1,63.436513974278704,10.39307754424498,0.0,1.4400000000000002e-10,0.0,0.0,0.0,1.4400000000000002e-10,0.0,0.0,0.0,1.0,2
2025/04/05 15:42:13.894670726,1743860533,893881503,mA1/gps,0,1,63.436514139668624,10.393077533475898,0.0,1.4400000000000002e-10,0.0,0.0,0.0,1.4400000000000002e-10,0.0,0.0,0.0,1.0,2
2025/04/05 15:42:13.943856801,1743860533,943696329,mA1/gps,0,1,63.43651430322639,10.393077521793531,0.0,1.4400000000000002e-10,0.0,0.0,0.0,1.4400000000000002e-10,0.0,0.0,0.0,1.0,2
2025/04/05 15:42:13.993735602,1743860533,993644777,mA1/gps,0,1,63.436514467143255,10.39307751050352,0.0,1.4400000000000002e-10,0.0,0.0,0.0,1.4400000000000002e-10,0.0,0.0,0.0,1.0,2
2025/04/05 15:42:14.46165897,1743860534,44569273,mA1/gps,0,1,63.4365146298748,10.393077499987491,0.0,1.4400000000000002e-10,0.0,0.0,0.0,1.4400000000000002e-10,0.0,0.0,0.0,1.0,2
2025/04/05 15:42:14.94597307,1743860534,94447309,mA1/gps,0,1,63.43651479480087,10.39307748940447,0.0,1.4400000000000002e-10,0.0,0.0,0.0,1.4400000000000002e-10,0.0,0.0,0.0,1.0,2
2025/04/05 15:42:14.145626680,1743860534,145395723,mA1/gps,0,1,63.43651496002851,10.39307747970515,0.0,1.4400000000000002e-10,0.0,0.0,0.0,1.4400000000000002e-10,0.0,0.0,0.0,1.0,2
2025/04/05 15:42:14.196121429,1743860534,195976495,mA1/gps,0,1,63.43651512446349,10.393077471061583,0.0,1.4400000000000002e-10,0.0,0.0,0.0,1.4400000000000002e-10,0.0,0.0,0.0,1.0,2
2025/04/05 15:42:14.247174009,1743860534,246981460,mA1/gps,0,1,63.436515290235384,10.393077462586366,0.0,1.4400000000000002e-10,0.0,0.0,0.0,1.4400000000000002e-10,0.0,0.0,0.0,1.0,2
2025/04/05 15:42:14.297155351,1743860534,296956784,mA1/gps,0,1,63.436515456344495,10.393077455928726,0.0,1.4400000000000002e-10,0.0,0.0,0.0,1.4400000000000002e-10,0.0,0.0,0.0,1.0,2
2025/04/05 15:42:14.348070093,1743860534,347761154,mA1/gps,0,1,63.4365156226764,10.3930774502935,0.0,1.4400000000000002e-10,0.0,0.0,0.0,1.4400000000000002e-10,0.0,0.0,0.0,1.0,2
2025/04/05 15:42:14.397864627,1743860534,397693288,mA1/gps,0,1,63.436515789861744,10.393077445765721,0.0,1.4400000000000002e-10,0.0,0.0,0.0,1.4400000000000002e-10,0.0,0.0,0.0,1.0,2
2025/04/05 15:42:14.448912898,1743860534,448554653,mA1/gps,0,1,63.43651595789503,10.393077441744325,0.0,1.4400000000000002e-10,0.0,0.0,0.0,1.4400000000000002e-10,0.0,0.0,0.0,1.0,2
2025/04/05 15:42:14.498650691,1743860534,498439867,mA1/gps,0,1,63.43651612748934,10.39307743928712,0.0,1.4400000000000002e-10,0.0,0.0,0.0,1.4400000000000002e-10,0.0,0.0,0.0,1.0,2
2025/04/05 15:42:14.550783076,1743860534,550573558,mA1/gps,0,1,63.43651629693824,10.393077437201624,0.0,1.4400000000000002e-10,0.0,0.0,0.0,1.4400000000000002e-10,0.0,0.0,0.0,1.0,2
2025/04/05 15:42:14.600651155,1743860534,600356264,mA1/gps,0,1,63.436516467760626,10.393077436870112,0.0,1.4400000000000002e-10,0.0,0.0,0.0,1.4400000000000002e-10,0.0,0.0,0.0,1.0,2
2025/04/05 15:42:14.650611420,1743860534,650250453,mA1/gps,0,1,63.436516638629485,10.393077437034856,0.0,1.4400000000000002e-10,0.0,0.0,0.0,1.4400000000000002e-10,0.0,0.0,0.0,1.0,2
2025/04/05 15:42:14.700398544,1743860534,700103769,mA1/gps,0,1,63.436516811470966,10.393077437266225,0.0,1.4400000000000002e-10,0.0,0.0,0.0,1.4400000000000002e-10,0.0,0.0,0.0,1.0,2
2025/04/05 15:42:14.741745120,1743860534,741099891,mA1/gps,0,1,63.4365169849321,10.393077436880573,0.0,1.4400000000000002e-10,0.0,0.0,0.0,1.4400000000000002e-10,0.0,0.0,0.0,1.0,2
2025/04/05 15:42:14.793954472,1743860534,793779382,mA1/gps,0,1,63.4365171585537,10.393077435714128,0.0,1.4400000000000002e-10,0.0,0.0,0.0,1.4400000000000002e-10,0.0,0.0,0.0,1.0,2
2025/04/05 15:42:14.845266134,1743860534,844975510,mA1/gps,0,1,63.436517333686446,10.393077433012197,0.0,1.4400000000000002e-10,0.0,0.0,0.0,1.4400000000000002e-10,0.0,0.0,0.0,1.0,2
2025/04/05 15:42:14.896121170,1743860534,895662649,mA1/gps,0,1,63.4365175073326,10.393077431221919,0.0,1.4400000000000002e-10,0.0,0.0,0.0,1.4400000000000002e-10,0.0,0.0,0.0,1.0,2
2025/04/05 15:42:14.947247662,1743860534,947058025,mA1/gps,0,1,63.43651768300195,10.393077427700982,0.0,1.4400000000000002e-10,0.0,0.0,0.0,1.4400000000000002e-10,0.0,0.0,0.0,1.0,2
2025/04/05 15:42:14.997630314,1743860534,996956168,mA1/gps,0,1,63.436517859456494,10.393077422722794,0.0,1.4400000000000002e-10,0.0,0.0,0.0,1.4400000000000002e-10,0.0,0.0,0.0,1.0,2
2025/04/05 15:42:15.48123312,1743860535,47943000,mA1/gps,0,1,63.436518034091,10.39307741593326,0.0,1.4400000000000002e-10,0.0,0.0,0.0,1.4400000000000002e-10,0.0,0.0,0.0,1.0,2
2025/04/05 15:42:15.98045930,1743860535,97721794,mA1/gps,0,1,63.43651820891916,10.393077407525762,0.0,1.4400000000000002e-10,0.0,0.0,0.0,1.4400000000000002e-10,0.0,0.0,0.0,1.0,2
2025/04/05 15:42:15.149087746,1743860535,148680559,mA1/gps,0,1,63.436518385383344,10.393077397692146,0.0,1.4400000000000002e-10,0.0,0.0,0.0,1.4400000000000002e-10,0.0,0.0,0.0,1.0,2
2025/04/05 15:42:15.198632729,1743860535,198440643,mA1/gps,0,1,63.43651856048241,10.393077386922073,0.0,1.4400000000000002e-10,0.0,0.0,0.0,1.4400000000000002e-10,0.0,0.0,0.0,1.0,2
2025/04/05 15:42:15.250118394,1743860535,249723959,mA1/gps,0,1,63.43651873606033,10.39307737439508,0.0,1.4400000000000002e-10,0.0,0.0,0.0,1.4400000000000002e-10,0.0,0.0,0.0,1.0,2
2025/04/05 15:42:15.292149016,1743860535,291837320,mA1/gps,0,1,63.43651891182474,10.393077361597667,0.0,1.4400000000000002e-10,0.0,0.0,0.0,1.4400000000000002e-10,0.0,0.0,0.0,1.0,2
2025/04/05 15:42:15.344488005,1743860535,342710033,mA1/gps,0,1,63.436519087082445,10.393077347256991,0.0,1.4400000000000002e-10,0.0,0.0,0.0,1.4400000000000002e-10,0.0,0.0,0.0,1.0,2
2025/04/05 15:42:15.393902038,1743860535,393644046,mA1/gps,0,1,63.43651926157579,10.39307733154942,0.0,1.4400000000000002e-10,0.0,0.0,0.0,1.4400000000000002e-10,0.0,0.0,0.0,1.0,2
2025/04/05 15:42:15.444119520,1743860535,443842705,mA1/gps,0,1,63.436519435575384,10.393077315264941,0.0,1.4400000000000002e-10,0.0,0.0,0.0,1.4400000000000002e-10,0.0,0.0,0.0,1.0,2
2025/04/05 15:42:15.495577019,1743860535,493751952,mA1/gps,0,1,63.43651960916482,10.393077298554466,0.0,1.4400000000000002e-10,0.0,0.0,0.0,1.4400000000000002e-10,0.0,0.0,0.0,1.0,2
2025/04/05 15:42:15.544918495,1743860535,544696700,mA1/gps,0,1,63.436519783851644,10.39307728222387,0.0,1.4400000000000002e-10,0.0,0.0,0.0,1.4400000000000002e-10,0.0,0.0,0.0,1.0,2
2025/04/05 15:42:15.594894062,1743860535,594594342,mA1/gps,0,1,63.436519958106516,10.393077265562916,0.0,1.4400000000000002e-10,0.0,0.0,0.0,1.4400000000000002e-10,0.0,0.0,0.0,1.0,2
2025/04/05 15:42:15.646062357,1743860535,645801756,mA1/gps,0,1,63.43652013240557,10.393077250950958,0.0,1.4400000000000002e-10,0.0,0.0,0.0,1.4400000000000002e-10,0.0,0.0,0.0,1.0,2
2025/04/05 15:42:15.696188261,1743860535,695379290,mA1/gps,0,1,63.43652030748376,10.393077236500824,0.0,1.4400000000000002e-10,0.0,0.0,0.0,1.4400000000000002e-10,0.0,0.0,0.0,1.0,2
2025/04/05 15:42:15.746381026,1743860535,746246518,mA1/gps,0,1,63.436520482418466,10.39307722440208,0.0,1.4400000000000002e-10,0.0,0.0,0.0,1.4400000000000002e-10,0.0,0.0,0.0,1.0,2
2025/04/05 15:42:15.797020066,1743860535,796314713,mA1/gps,0,1,63.43652065792348,10.393077212987132,0.0,1.4400000000000002e-10,0.0,0.0,0.0,1.4400000000000002e-10,0.0,0.0,0.0,1.0,2
2025/04/05 15:42:15.847616450,1743860535,847306264,mA1/gps,0,1,63.43652083456583,10.393077203735968,0.0,1.4400000000000002e-10,0.0,0.0,0.0,1.4400000000000002e-10,0.0,0.0,0.0,1.0,2
2025/04/05 15:42:15.900534486,1743860535,899623476,mA1/gps,0,1,63.436521011650385,10.3930771951623,0.0,1.4400000000000002e-10,0.0,0.0,0.0,1.4400000000000002e-10,0.0,0.0,0.0,1.0,2
2025/04/05 15:42:15.950763729,1743860535,950574725,mA1/gps,0,1,63.43652118891992,10.393077188207009,0.0,1.4400000000000002e-10,0.0,0.0,0.0,1.4400000000000002e-10,0.0,0.0,0.0,1.0,2
2025/04/05 15:42:15.991930832,1743860535,990198518,mA1/gps,0,1,63.43652136815056,10.393077182601115,0.0,1.4400000000000002e-10,0.0,0.0,0.0,1.4400000000000002e-10,0.0,0.0,0.0,1.0,2
2025/04/05 15:42:16.41321266,1743860536,41140464,mA1/gps,0,1,63.43652154671331,10.393077177525267,0.0,1.4400000000000002e-10,0.0,0.0,0.0,1.4400000000000002e-10,0.0,0.0,0.0,1.0,2
2025/04/05 15:42:16.92000907,1743860536,91424855,mA1/gps,0,1,63.43652172735683,10.39307717293339,0.0,1.4400000000000002e-10,0.0,0.0,0.0,1.4400000000000002e-10,0.0,0.0,0.0,1.0,2
2025/04/05 15:42:16.142548075,1743860536,142014686,mA1/gps,0,1,63.43652190813206,10.393077167675042,0.0,1.4400000000000002e-10,0.0,0.0,0.0,1.4400000000000002e-10,0.0,0.0,0.0,1.0,2
2025/04/05 15:42:16.193649525,1743860536,191996004,mA1/gps,0,1,63.43652209016415,10.393077162063202,0.0,1.4400000000000002e-10,0.0,0.0,0.0,1.4400000000000002e-10,0.0,0.0,0.0,1.0,2
2025/04/05 15:42:16.244496571,1743860536,242835035,mA1/gps,0,1,63.436522272887785,10.393077155750712,0.0,1.4400000000000002e-10,0.0,0.0,0.0,1.4400000000000002e-10,0.0,0.0,0.0,1.0,2
2025/04/05 15:42:16.295096979,1743860536,293937931,mA1/gps,0,1,63.43652245576491,10.393077149286912,0.0,1.4400000000000002e-10,0.0,0.0,0.0,1.4400000000000002e-10,0.0,0.0,0.0,1.0,2
2025/04/05 15:42:16.343625736,1743860536,343479071,mA1/gps,0,1,63.4365226399857,10.393077141449343,0.0,1.4400000000000002e-10,0.0,0.0,0.0,1.4400000000000002e-10,0.0,0.0,0.0,1.0,2
2025/04/05 15:42:16.395509293,1743860536,394592370,mA1/gps,0,1,63.4365228236037,10.39307713321939,0.0,1.4400000000000002e-10,0.0,0.0,0.0,1.4400000000000002e-10,0.0,0.0,0.0,1.0,2
2025/04/05 15:42:16.445760565,1743860536,445376355,mA1/gps,0,1,63.43652300717518,10.393077124798443,0.0,1.4400000000000002e-10,0.0,0.0,0.0,1.4400000000000002e-10,0.0,0.0,0.0,1.0,2
2025/04/05 15:42:16.497776132,1743860536,496731527,mA1/gps,0,1,63.43652319118112,10.39307711504692,0.0,1.4400000000000002e-10,0.0,0.0,0.0,1.4400000000000002e-10,0.0,0.0,0.0,1.0,2
2025/04/05 15:42:16.547051541,1743860536,546752737,mA1/gps,0,1,63.436523375807845,10.393077104424451,0.0,1.4400000000000002e-10,0.0,0.0,0.0,1.4400000000000002e-10,0.0,0.0,0.0,1.0,2
2025/04/05 15:42:16.597024894,1743860536,596826098,mA1/gps,0,1,63.43652356026315,10.39307709366965,0.0,1.4400000000000002e-10,0.0,0.0,0.0,1.4400000000000002e-10,0.0,0.0,0.0,1.0,2
2025/04/05 15:42:16.648677186,1743860536,648064815,mA1/gps,0,1,63.43652374436808,10.393077082073908,0.0,1.4400000000000002e-10,0.0,0.0,0.0,1.4400000000000002e-10,0.0,0.0,0.0,1.0,2
2025/04/05 15:42:16.698280908,1743860536,698004936,mA1/gps,0,1,63.43652392746038,10.39307706925816,0.0,1.4400000000000002e-10,0.0,0.0,0.0,1.4400000000000002e-10,0.0,0.0,0.0,1.0,2
2025/04/05 15:42:16.751503419,1743860536,750513752,mA1/gps,0,1,63.43652411061597,10.39307705519602,0.0,1.4400000000000002e-10,0.0,0.0,0.0,1.4400000000000002e-10,0.0,0.0,0.0,1.0,2
2025/04/05 15:42:16.792797636,1743860536,792446004,mA1/gps,0,1,63.43652429446086,10.393077040129445,0.0,1.4400000000000002e-10,0.0,0.0,0.0,1.4400000000000002e-10,0.0,0.0,0.0,1.0,2
2025/04/05 15:42:16.843934470,1743860536,843335032,mA1/gps,0,1,63.43652447746856,10.393077024303356,0.0,1.4400000000000002e-10,0.0,0.0,0.0,1.4400000000000002e-10,0.0,0.0,0.0,1.0,2
2025/04/05 15:42:16.894654100,1743860536,893350911,mA1/gps,0,1,63.43652465948448,10.393077008800885,0.0,1.4400000000000002e-10,0.0,0.0,0.0,1.4400000000000002e-10,0.0,0.0,0.0,1.0,2
2025/04/05 15:42:16.944396104,1743860536,944156103,mA1/gps,0,1,63.436524842302234,10.393076993660733,0.0,1.4400000000000002e-10,0.0,0.0,0.0,1.4400000000000002e-10,0.0,0.0,0.0,1.0,2
2025/04/05 15:42:16.996943714,1743860536,995260077,mA1/gps,0,1,63.43652502372964,10.393076977964324,0.0,1.4400000000000002e-10,0.0,0.0,0.0,1.4400000000000002e-10,0.0,0.0,0.0,1.0,2
2025/04/05 15:42:17.45192940,1743860537,45016605,mA1/gps,0,1,63.436525204739894,10.393076961178911,0.0,1.4400000000000002e-10,0.0,0.0,0.0,1.4400000000000002e-10,0.0,0.0,0.0,1.0,2
2025/04/05 15:42:17.96443383,1743860537,94872077,mA1/gps,0,1,63.43652538645655,10.393076945586245,0.0,1.4400000000000002e-10,0.0,0.0,0.0,1.4400000000000002e-10,0.0,0.0,0.0,1.0,2
2025/04/05 15:42:17.146378140,1743860537,146101299,mA1/gps,0,1,63.436525568916196,10.393076929489245,0.0,1.4400000000000002e-10,0.0,0.0,0.0,1.4400000000000002e-10,0.0,0.0,0.0,1.0,2
2025/04/05 15:42:17.196130428,1743860537,195947136,mA1/gps,0,1,63.436525751718804,10.39307691425163,0.0,1.4400000000000002e-10,0.0,0.0,0.0,1.4400000000000002e-10,0.0,0.0,0.0,1.0,2
2025/04/05 15:42:17.247155346,1743860537,246869220,mA1/gps,0,1,63.43652593213923,10.393076899293305,0.0,1.4400000000000002e-10,0.0,0.0,0.0,1.4400000000000002e-10,0.0,0.0,0.0,1.0,2
2025/04/05 15:42:17.298363622,1743860537,296639262,mA1/gps,0,1,63.43652611557274,10.393076885481637,0.0,1.4400000000000002e-10,0.0,0.0,0.0,1.4400000000000002e-10,0.0,0.0,0.0,1.0,2
2025/04/05 15:42:17.347803037,1743860537,347663497,mA1/gps,0,1,63.4365262994666,10.393076871572806,0.0,1.4400000000000002e-10,0.0,0.0,0.0,1.4400000000000002e-10,0.0,0.0,0.0,1.0,2
2025/04/05 15:42:17.397816516,1743860537,397481604,mA1/gps,0,1,63.43652648463983,10.393076860105811,0.0,1.4400000000000002e-10,0.0,0.0,0.0,1.4400000000000002e-10,0.0,0.0,0.0,1.0,2
2025/04/05 15:42:17.448569943,1743860537,448361410,mA1/gps,0,1,63.436526669422136,10.393076849442165,0.0,1.4400000000000002e-10,0.0,0.0,0.0,1.4400000000000002e-10,0.0,0.0,0.0,1.0,2
2025/04/05 15:42:17.500420997,1743860537,499980433,mA1/gps,0,1,63.436526853793374,10.393076839189407,0.0,1.4400000000000002e-10,0.0,0.0,0.0,1.4400000000000002e-10,0.0,0.0,0.0,1.0,2
2025/04/05 15:42:17.549661815,1743860537,549248257,mA1/gps,0,1,63.43652704088179,10.393076828577627,0.0,1.4400000000000002e-10,0.0,0.0,0.0,1.4400000000000002e-10,0.0,0.0,0.0,1.0,2
2025/04/05 15:42:17.600187464,1743860537,600004057,mA1/gps,0,1,63.436527229101394,10.39307681746502,0.0,1.4400000000000002e-10,0.0,0.0,0.0,1.4400000000000002e-10,0.0,0.0,0.0,1.0,2
2025/04/05 15:42:17.644803301,1743860537,644534176,mA1/gps,0,1,63.43652741559777,10.393076805524702,0.0,1.4400000000000002e-10,0.0,0.0,0.0,1.4400000000000002e-10,0.0,0.0,0.0,1.0,2
2025/04/05 15:42:17.696402705,1743860537,694427507,mA1/gps,0,1,63.43652760379682,10.393076792620526,0.0,1.4400000000000002e-10,0.0,0.0,0.0,1.4400000000000002e-10,0.0,0.0,0.0,1.0,2
2025/04/05 15:42:17.746069901,1743860537,745785888,mA1/gps,0,1,63.43652779316358,10.393076779046003,0.0,1.4400000000000002e-10,0.0,0.0,0.0,1.4400000000000002e-10,0.0,0.0,0.0,1.0,2
2025/04/05 15:42:17.796469462,1743860537,795522920,mA1/gps,0,1,63.43652798304044,10.393076765135982,0.0,1.4400000000000002e-10,0.0,0.0,0.0,1.4400000000000002e-10,0.0,0.0,0.0,1.0,2
2025/04/05 15:42:17.846797049,1743860537,846606537,mA1/gps,0,1,63.43652817366076,10.393076750594751,0.0,1.4400000000000002e-10,0.0,0.0,0.0,1.4400000000000002e-10,0.0,0.0,0.0,1.0,2
2025/04/05 15:42:17.899072394,1743860537,898948807,mA1/gps,0,1,63.43652836333164,10.393076735809874,0.0,1.4400000000000002e-10,0.0,0.0,0.0,1.4400000000000002e-10,0.0,0.0,0.0,1.0,2
2025/04/05 15:42:17.949969110,1743860537,949783404,mA1/gps,0,1,63.436528552533325,10.39307672014704,0.0,1.4400000000000002e-10,0.0,0.0,0.0,1.4400000000000002e-10,0.0,0.0,0.0,1.0,2
2025/04/05 15:42:18.1857190,1743860537,999782388,mA1/gps,0,1,63.436528742467814,10.393076704666218,0.0,1.4400000000000002e-10,0.0,0.0,0.0,1.4400000000000002e-10,0.0,0.0,0.0,1.0,2
2025/04/05 15:42:18.40959332,1743860538,40747397,mA1/gps,0,1,63.43652893244419,10.393076689044188,0.0,1.4400000000000002e-10,0.0,0.0,0.0,1.4400000000000002e-10,0.0,0.0,0.0,1.0,2
2025/04/05 15:42:18.91070628,1743860538,90525256,mA1/gps,0,1,63.43652912249498,10.393076673307291,0.0,1.4400000000000002e-10,0.0,0.0,0.0,1.4400000000000002e-10,0.0,0.0,0.0,1.0,2
2025/04/05 15:42:18.141912312,1743860538,141535709,mA1/gps,0,1,63.43652931232926,10.393076657300677,0.0,1.4400000000000002e-10,0.0,0.0,0.0,1.4400000000000002e-10,0.0,0.0,0.0,1.0,2
2025/04/05 15:42:18.192561511,1743860538,191579762,mA1/gps,0,1,63.43652950138247,10.393076643172847,0.0,1.4400000000000002e-10,0.0,0.0,0.0,1.4400000000000002e-10,0.0,0.0,0.0,1.0,2
2025/04/05 15:42:18.242942160,1743860538,242728192,mA1/gps,0,1,63.436529690406914,10.393076628599891,0.0,1.4400000000000002e-10,0.0,0.0,0.0,1.4400000000000002e-10,0.0,0.0,0.0,1.0,2
2025/04/05 15:42:18.292852270,1743860538,292529794,mA1/gps,0,1,63.43652987814827,10.393076615251186,0.0,1.4400000000000002e-10,0.0,0.0,0.0,1.4400000000000002e-10,0.0,0.0,0.0,1.0,2
2025/04/05 15:42:18.345238330,1743860538,343373653,mA1/gps,0,1,63.43653006571773,10.393076602255533,0.0,1.4400000000000002e-10,0.0,0.0,0.0,1.4400000000000002e-10,0.0,0.0,0.0,1.0,2
2025/04/05 15:42:18.394131254,1743860538,393955695,mA1/gps,0,1,63.43653025438724,10.393076589917179,0.0,1.4400000000000002e-10,0.0,0.0,0.0,1.4400000000000002e-10,0.0,0.0,0.0,1.0,2
2025/04/05 15:42:18.445173389,1743860538,444971586,mA1/gps,0,1,63.436530442066754,10.393076578114846,0.0,1.4400000000000002e-10,0.0,0.0,0.0,1.4400000000000002e-10,0.0,0.0,0.0,1.0,2
2025/04/05 15:42:18.495616575,1743860538,494871976,mA1/gps,0,1,63.4365306301155,10.393076568136513,0.0,1.4400000000000002e-10,0.0,0.0,0.0,1.4400000000000002e-10,0.0,0.0,0.0,1.0,2
2025/04/05 15:42:18.546028842,1743860538,545763057,mA1/gps,0,1,63.43653081738771,10.393076557635986,0.0,1.4400000000000002e-10,0.0,0.0,0.0,1.4400000000000002e-10,0.0,0.0,0.0,1.0,2
2025/04/05 15:42:18.598255079,1743860538,597673807,mA1/gps,0,1,63.43653100561404,10.393076548747219,0.0,1.4400000000000002e-10,0.0,0.0,0.0,1.4400000000000002e-10,0.0,0.0,0.0,1.0,2
2025/04/05 15:42:18.648674972,1743860538,648590449,mA1/gps,0,1,63.43653119332858,10.393076539362223,0.0,1.4400000000000002e-10,0.0,0.0,0.0,1.4400000000000002e-10,0.0,0.0,0.0,1.0,2
2025/04/05 15:42:18.698608232,1743860538,698436716,mA1/gps,0,1,63.436531381879476,10.39307653056906,0.0,1.4400000000000002e-10,0.0,0.0,0.0,1.4400000000000002e-10,0.0,0.0,0.0,1.0,2
2025/04/05 15:42:18.749732685,1743860538,749486940,mA1/gps,0,1,63.436531571563954,10.39307652185822,0.0,1.4400000000000002e-10,0.0,0.0,0.0,1.4400000000000002e-10,0.0,0.0,0.0,1.0,2
2025/04/05 15:42:18.801080685,1743860538,799366821,mA1/gps,0,1,63.43653176104701,10.393076511897487,0.0,1.4400000000000002e-10,0.0,0.0,0.0,1.4400000000000002e-10,0.0,0.0,0.0,1.0,2
