time,header_stamp_secs,header_stamp_nsecs,header_frame_id,name_0,name_1,name_2,name_3,position_0,position_1,position_2,position_3
2025/04/05 15:42:02.223817612,0,0,,mA1/azimuth_1_joint,mA1/azimuth_2_joint,mA1/azimuth_3_joint,mA1/azimuth_4_joint,1.5533430342749532,-5.497787143782138,-0.17453292519943295,0.0
2025/04/05 15:42:02.223930454,0,0,,mA1/azimuth_1_joint,mA1/azimuth_2_joint,mA1/azimuth_3_joint,mA1/azimuth_4_joint,1.5533430342749532,-5.497787143782138,-0.17453292519943295,0.0
2025/04/05 15:42:02.224008001,0,0,,mA1/azimuth_1_joint,mA1/azimuth_2_joint,mA1/azimuth_3_joint,mA1/azimuth_4_joint,1.5533430342749532,-5.550147021341968,-0.12217304763960307,0.0
2025/04/05 15:42:02.235439991,0,0,,mA1/azimuth_1_joint,mA1/azimuth_2_joint,mA1/azimuth_3_joint,mA1/azimuth_4_joint,1.5533430342749532,-5.497787143782138,0.0,1.3788101090755203
2025/04/05 15:42:02.367306223,0,0,,mA1/azimuth_1_joint,mA1/azimuth_2_joint,mA1/azimuth_3_joint,mA1/azimuth_4_joint,1.5533430342749532,-3.141592653589793,2.356194490192345,1.5184364492350666
2025/04/05 15:42:02.430517621,0,0,,mA1/azimuth_1_joint,mA1/azimuth_2_joint,mA1/azimuth_3_joint,mA1/azimuth_4_joint,2.5132741228718345,-5.497787143782138,0.47123889803846897,1.5707963267948966
2025/04/05 15:42:02.530105094,0,0,,mA1/azimuth_1_joint,mA1/azimuth_2_joint,mA1/azimuth_3_joint,mA1/azimuth_4_joint,2.2165681500327987,-5.497787143782138,0.0,1.5707963267948966
2025/04/05 15:42:02.630539859,0,0,,mA1/azimuth_1_joint,mA1/azimuth_2_joint,mA1/azimuth_3_joint,mA1/azimuth_4_joint,1.6057029118347832,-5.480333851262195,0.0,1.5707963267948966
2025/04/05 15:42:02.730579481,0,0,,mA1/azimuth_1_joint,mA1/azimuth_2_joint,mA1/azimuth_3_joint,mA1/azimuth_4_joint,1.6406094968746698,-5.497787143782138,0.0,1.5707963267948966
2025/04/05 15:42:02.830333779,0,0,,mA1/azimuth_1_joint,mA1/azimuth_2_joint,mA1/azimuth_3_joint,mA1/azimuth_4_joint,3.141592653589793,-1.5533430342749532,-0.4188790204786391,-2.3387411976724017
2025/04/05 15:42:02.930550114,0,0,,mA1/azimuth_1_joint,mA1/azimuth_2_joint,mA1/azimuth_3_joint,mA1/azimuth_4_joint,2.6878070480712677,-5.497787143782138,0.0,1.5707963267948966
2025/04/05 15:42:03.33887059,0,0,,mA1/azimuth_1_joint,mA1/azimuth_2_joint,mA1/azimuth_3_joint,mA1/azimuth_4_joint,1.9198621771937625,-5.480333851262195,0.0,1.5707963267948966
2025/04/05 15:42:03.131604616,0,0,,mA1/azimuth_1_joint,mA1/azimuth_2_joint,mA1/azimuth_3_joint,mA1/azimuth_4_joint,3.141592653589793,-1.6755160819145565,-1.5707963267948966,-2.356194490192345
2025/04/05 15:42:03.231039850,0,0,,mA1/azimuth_1_joint,mA1/azimuth_2_joint,mA1/azimuth_3_joint,mA1/azimuth_4_joint,3.141592653589793,-1.5533430342749532,-1.2740903539558606,-2.321287905152458
2025/04/05 15:42:03.330918495,0,0,,mA1/azimuth_1_joint,mA1/azimuth_2_joint,mA1/azimuth_3_joint,mA1/azimuth_4_joint,2.6354471705114375,-5.497787143782138,0.0,1.5707963267948966
2025/04/05 15:42:03.430410280,0,0,,mA1/azimuth_1_joint,mA1/azimuth_2_joint,mA1/azimuth_3_joint,mA1/azimuth_4_joint,3.141592653589793,-1.5707963267948966,-1.5707963267948966,-2.356194490192345
2025/04/05 15:42:03.530667630,0,0,,mA1/azimuth_1_joint,mA1/azimuth_2_joint,mA1/azimuth_3_joint,mA1/azimuth_4_joint,2.3736477827122884,-5.515240436302081,0.0,1.5707963267948966
2025/04/05 15:42:03.630597108,0,0,,mA1/azimuth_1_joint,mA1/azimuth_2_joint,mA1/azimuth_3_joint,mA1/azimuth_4_joint,2.9321531433504737,-5.480333851262195,0.0,1.5707963267948966
2025/04/05 15:42:03.730941186,0,0,,mA1/azimuth_1_joint,mA1/azimuth_2_joint,mA1/azimuth_3_joint,mA1/azimuth_4_joint,3.141592653589793,-1.5533430342749532,-0.9424777960769379,-2.3387411976724017
2025/04/05 15:42:03.830929774,0,0,,mA1/azimuth_1_joint,mA1/azimuth_2_joint,mA1/azimuth_3_joint,mA1/azimuth_4_joint,3.141592653589793,-1.5533430342749532,0.0,1.5707963267948966
2025/04/05 15:42:03.930189605,0,0,,mA1/azimuth_1_joint,mA1/azimuth_2_joint,mA1/azimuth_3_joint,mA1/azimuth_4_joint,3.001966313430247,-5.497787143782138,0.0,1.5707963267948966
2025/04/05 15:42:04.35178926,0,0,,mA1/azimuth_1_joint,mA1/azimuth_2_joint,mA1/azimuth_3_joint,mA1/azimuth_4_joint,3.001966313430247,-5.497787143782138,0.0,1.5707963267948966
2025/04/05 15:42:04.130251914,0,0,,mA1/azimuth_1_joint,mA1/azimuth_2_joint,mA1/azimuth_3_joint,mA1/azimuth_4_joint,1.5882496193148399,-5.497787143782138,0.0,1.5707963267948966
2025/04/05 15:42:04.231038596,0,0,,mA1/azimuth_1_joint,mA1/azimuth_2_joint,mA1/azimuth_3_joint,mA1/azimuth_4_joint,3.141592653589793,-1.5533430342749532,0.0,1.5707963267948966
2025/04/05 15:42:04.332068259,0,0,,mA1/azimuth_1_joint,mA1/azimuth_2_joint,mA1/azimuth_3_joint,mA1/azimuth_4_joint,3.141592653589793,-1.5533430342749532,0.0,1.5707963267948966
2025/04/05 15:42:04.431906933,0,0,,mA1/azimuth_1_joint,mA1/azimuth_2_joint,mA1/azimuth_3_joint,mA1/azimuth_4_joint,3.141592653589793,-1.5533430342749532,0.0,1.5707963267948966
2025/04/05 15:42:04.531258349,0,0,,mA1/azimuth_1_joint,mA1/azimuth_2_joint,mA1/azimuth_3_joint,mA1/azimuth_4_joint,0.12217304763960307,-1.5533430342749532,-0.3490658503988659,0.0
2025/04/05 15:42:04.631002977,0,0,,mA1/azimuth_1_joint,mA1/azimuth_2_joint,mA1/azimuth_3_joint,mA1/azimuth_4_joint,0.12217304763960307,-1.5533430342749532,-0.3490658503988659,0.0
2025/04/05 15:42:04.730161368,0,0,,mA1/azimuth_1_joint,mA1/azimuth_2_joint,mA1/azimuth_3_joint,mA1/azimuth_4_joint,0.20943951023931956,-1.5533430342749532,-0.2617993877991494,0.0
2025/04/05 15:42:04.830771464,0,0,,mA1/azimuth_1_joint,mA1/azimuth_2_joint,mA1/azimuth_3_joint,mA1/azimuth_4_joint,0.20943951023931956,-1.5533430342749532,-0.2617993877991494,0.0
2025/04/05 15:42:04.931076810,0,0,,mA1/azimuth_1_joint,mA1/azimuth_2_joint,mA1/azimuth_3_joint,mA1/azimuth_4_joint,6.265732014659643,-1.5533430342749532,-0.20943951023931956,0.0
2025/04/05 15:42:05.30554501,0,0,,mA1/azimuth_1_joint,mA1/azimuth_2_joint,mA1/azimuth_3_joint,mA1/azimuth_4_joint,6.265732014659643,-1.5533430342749532,-0.20943951023931956,0.0
2025/04/05 15:42:05.130340635,0,0,,mA1/azimuth_1_joint,mA1/azimuth_2_joint,mA1/azimuth_3_joint,mA1/azimuth_4_joint,6.265732014659643,-1.5533430342749532,-0.19198621771937624,0.0
2025/04/05 15:42:05.235436720,0,0,,mA1/azimuth_1_joint,mA1/azimuth_2_joint,mA1/azimuth_3_joint,mA1/azimuth_4_joint,5.497787143782138,-1.5533430342749532,-0.12217304763960307,0.0
2025/04/05 15:42:05.330156029,0,0,,mA1/azimuth_1_joint,mA1/azimuth_2_joint,mA1/azimuth_3_joint,mA1/azimuth_4_joint,5.567600313861911,-1.5533430342749532,-0.10471975511965978,0.0
2025/04/05 15:42:05.430103107,0,0,,mA1/azimuth_1_joint,mA1/azimuth_2_joint,mA1/azimuth_3_joint,mA1/azimuth_4_joint,5.567600313861911,-1.5533430342749532,-0.06981317007977318,0.0
2025/04/05 15:42:05.530315976,0,0,,mA1/azimuth_1_joint,mA1/azimuth_2_joint,mA1/azimuth_3_joint,mA1/azimuth_4_joint,5.777039824101231,-1.5533430342749532,-0.10471975511965978,0.0
2025/04/05 15:42:05.630301835,0,0,,mA1/azimuth_1_joint,mA1/azimuth_2_joint,mA1/azimuth_3_joint,mA1/azimuth_4_joint,5.044001538263612,-1.5533430342749532,-0.08726646259971647,0.0
2025/04/05 15:42:05.730069983,0,0,,mA1/azimuth_1_joint,mA1/azimuth_2_joint,mA1/azimuth_3_joint,mA1/azimuth_4_joint,5.724679946541401,-1.5533430342749532,-0.06981317007977318,0.0
2025/04/05 15:42:05.833024022,0,0,,mA1/azimuth_1_joint,mA1/azimuth_2_joint,mA1/azimuth_3_joint,mA1/azimuth_4_joint,5.724679946541401,-1.5533430342749532,-0.06981317007977318,0.0
2025/04/05 15:42:05.930114196,0,0,,mA1/azimuth_1_joint,mA1/azimuth_2_joint,mA1/azimuth_3_joint,mA1/azimuth_4_joint,5.724679946541401,-1.5533430342749532,-0.08726646259971647,0.0
2025/04/05 15:42:06.30345233,0,0,,mA1/azimuth_1_joint,mA1/azimuth_2_joint,mA1/azimuth_3_joint,mA1/azimuth_4_joint,5.654866776461628,-1.5533430342749532,-0.08726646259971647,0.0
2025/04/05 15:42:06.130265457,0,0,,mA1/azimuth_1_joint,mA1/azimuth_2_joint,mA1/azimuth_3_joint,mA1/azimuth_4_joint,5.602506898901797,-1.5533430342749532,-0.08726646259971647,0.0
2025/04/05 15:42:06.231673659,0,0,,mA1/azimuth_1_joint,mA1/azimuth_2_joint,mA1/azimuth_3_joint,mA1/azimuth_4_joint,0.8028514559173916,-1.5707963267948966,-0.08726646259971647,0.0
2025/04/05 15:42:06.330749386,0,0,,mA1/azimuth_1_joint,mA1/azimuth_2_joint,mA1/azimuth_3_joint,mA1/azimuth_4_joint,6.126105674500097,-1.5533430342749532,-0.06981317007977318,0.0
2025/04/05 15:42:06.430689032,0,0,,mA1/azimuth_1_joint,mA1/azimuth_2_joint,mA1/azimuth_3_joint,mA1/azimuth_4_joint,0.8028514559173916,-1.5707963267948966,-0.06981317007977318,0.0
2025/04/05 15:42:06.531497604,0,0,,mA1/azimuth_1_joint,mA1/azimuth_2_joint,mA1/azimuth_3_joint,mA1/azimuth_4_joint,0.6632251157578453,-1.5533430342749532,-0.05235987755982989,0.0
2025/04/05 15:42:06.630223923,0,0,,mA1/azimuth_1_joint,mA1/azimuth_2_joint,mA1/azimuth_3_joint,mA1/azimuth_4_joint,5.602506898901797,-1.5533430342749532,-0.06981317007977318,0.0
2025/04/05 15:42:06.730152184,0,0,,mA1/azimuth_1_joint,mA1/azimuth_2_joint,mA1/azimuth_3_joint,mA1/azimuth_4_joint,0.8203047484373349,-1.5707963267948966,-0.06981317007977318,0.0
2025/04/05 15:42:06.830079773,0,0,,mA1/azimuth_1_joint,mA1/azimuth_2_joint,mA1/azimuth_3_joint,mA1/azimuth_4_joint,5.654866776461628,-1.5533430342749532,-0.06981317007977318,0.0
2025/04/05 15:42:06.932001839,0,0,,mA1/azimuth_1_joint,mA1/azimuth_2_joint,mA1/azimuth_3_joint,mA1/azimuth_4_joint,0.8028514559173916,-1.5707963267948966,-0.05235987755982989,0.0
2025/04/05 15:42:07.31347810,0,0,,mA1/azimuth_1_joint,mA1/azimuth_2_joint,mA1/azimuth_3_joint,mA1/azimuth_4_joint,0.8028514559173916,-1.5707963267948966,-0.05235987755982989,0.0
2025/04/05 15:42:07.131156640,0,0,,mA1/azimuth_1_joint,mA1/azimuth_2_joint,mA1/azimuth_3_joint,mA1/azimuth_4_joint,5.654866776461628,-1.5533430342749532,-0.03490658503988659,0.0
2025/04/05 15:42:07.230836056,0,0,,mA1/azimuth_1_joint,mA1/azimuth_2_joint,mA1/azimuth_3_joint,mA1/azimuth_4_joint,1.5533430342749532,-5.480333851262195,-0.017453292519943295,0.0
2025/04/05 15:42:07.331329515,0,0,,mA1/azimuth_1_joint,mA1/azimuth_2_joint,mA1/azimuth_3_joint,mA1/azimuth_4_joint,1.5533430342749532,-5.532693728822025,-0.017453292519943295,0.0
2025/04/05 15:42:07.431421392,0,0,,mA1/azimuth_1_joint,mA1/azimuth_2_joint,mA1/azimuth_3_joint,mA1/azimuth_4_joint,4.4505895925855405,-1.5533430342749532,-0.03490658503988659,0.0
2025/04/05 15:42:07.531880419,0,0,,mA1/azimuth_1_joint,mA1/azimuth_2_joint,mA1/azimuth_3_joint,mA1/azimuth_4_joint,0.9773843811168246,-1.5707963267948966,-0.05235987755982989,0.0
2025/04/05 15:42:07.631513822,0,0,,mA1/azimuth_1_joint,mA1/azimuth_2_joint,mA1/azimuth_3_joint,mA1/azimuth_4_joint,5.951572749300664,-1.5533430342749532,-0.03490658503988659,0.0
2025/04/05 15:42:07.730926233,0,0,,mA1/azimuth_1_joint,mA1/azimuth_2_joint,mA1/azimuth_3_joint,mA1/azimuth_4_joint,0.5585053606381855,-1.5533430342749532,-0.05235987755982989,0.0
2025/04/05 15:42:07.830101244,0,0,,mA1/azimuth_1_joint,mA1/azimuth_2_joint,mA1/azimuth_3_joint,mA1/azimuth_4_joint,5.375614096142535,-1.5533430342749532,-0.05235987755982989,0.0
2025/04/05 15:42:07.931728902,0,0,,mA1/azimuth_1_joint,mA1/azimuth_2_joint,mA1/azimuth_3_joint,mA1/azimuth_4_joint,5.358160803622591,-1.5533430342749532,-0.03490658503988659,0.0
2025/04/05 15:42:08.30626525,0,0,,mA1/azimuth_1_joint,mA1/azimuth_2_joint,mA1/azimuth_3_joint,mA1/azimuth_4_joint,5.724679946541401,-1.5533430342749532,-0.03490658503988659,0.0
2025/04/05 15:42:08.130163568,0,0,,mA1/azimuth_1_joint,mA1/azimuth_2_joint,mA1/azimuth_3_joint,mA1/azimuth_4_joint,0.5759586531581288,-1.5533430342749532,-0.05235987755982989,0.0
2025/04/05 15:42:08.231868083,0,0,,mA1/azimuth_1_joint,mA1/azimuth_2_joint,mA1/azimuth_3_joint,mA1/azimuth_4_joint,1.5533430342749532,-4.590215932745087,-0.03490658503988659,0.0
2025/04/05 15:42:08.330490832,0,0,,mA1/azimuth_1_joint,mA1/azimuth_2_joint,mA1/azimuth_3_joint,mA1/azimuth_4_joint,1.5533430342749532,-5.777039824101231,-0.03490658503988659,0.0
2025/04/05 15:42:08.430730605,0,0,,mA1/azimuth_1_joint,mA1/azimuth_2_joint,mA1/azimuth_3_joint,mA1/azimuth_4_joint,1.5533430342749532,-5.550147021341968,-0.03490658503988659,0.0
2025/04/05 15:42:08.530540595,0,0,,mA1/azimuth_1_joint,mA1/azimuth_2_joint,mA1/azimuth_3_joint,mA1/azimuth_4_joint,1.5533430342749532,-6.2482787221397,-0.03490658503988659,0.0
2025/04/05 15:42:08.630610465,0,0,,mA1/azimuth_1_joint,mA1/azimuth_2_joint,mA1/azimuth_3_joint,mA1/azimuth_4_joint,1.5533430342749532,-5.532693728822025,-0.03490658503988659,0.0
2025/04/05 15:42:08.730622049,0,0,,mA1/azimuth_1_joint,mA1/azimuth_2_joint,mA1/azimuth_3_joint,mA1/azimuth_4_joint,1.5533430342749532,-5.340707511102648,-0.017453292519943295,0.0
2025/04/05 15:42:08.830465028,0,0,,mA1/azimuth_1_joint,mA1/azimuth_2_joint,mA1/azimuth_3_joint,mA1/azimuth_4_joint,1.5533430342749532,-5.846852994181004,-0.017453292519943295,0.0
2025/04/05 15:42:08.931262407,0,0,,mA1/azimuth_1_joint,mA1/azimuth_2_joint,mA1/azimuth_3_joint,mA1/azimuth_4_joint,1.5533430342749532,-0.5410520681182421,0.0,0.0
2025/04/05 15:42:09.33309423,0,0,,mA1/azimuth_1_joint,mA1/azimuth_2_joint,mA1/azimuth_3_joint,mA1/azimuth_4_joint,1.5533430342749532,-5.724679946541401,-0.017453292519943295,0.0
2025/04/05 15:42:09.135699199,0,0,,mA1/azimuth_1_joint,mA1/azimuth_2_joint,mA1/azimuth_3_joint,mA1/azimuth_4_joint,1.5533430342749532,-5.82939970166106,-0.03490658503988659,0.0
2025/04/05 15:42:09.230190014,0,0,,mA1/azimuth_1_joint,mA1/azimuth_2_joint,mA1/azimuth_3_joint,mA1/azimuth_4_joint,1.5533430342749532,-5.811946409141117,-0.03490658503988659,0.0
2025/04/05 15:42:09.330639574,0,0,,mA1/azimuth_1_joint,mA1/azimuth_2_joint,mA1/azimuth_3_joint,mA1/azimuth_4_joint,1.5533430342749532,-5.375614096142535,-0.017453292519943295,0.0
2025/04/05 15:42:09.430526244,0,0,,mA1/azimuth_1_joint,mA1/azimuth_2_joint,mA1/azimuth_3_joint,mA1/azimuth_4_joint,1.5533430342749532,-5.532693728822025,-0.03490658503988659,0.0
2025/04/05 15:42:09.530318721,0,0,,mA1/azimuth_1_joint,mA1/azimuth_2_joint,mA1/azimuth_3_joint,mA1/azimuth_4_joint,1.5533430342749532,-5.724679946541401,-0.03490658503988659,0.0
2025/04/05 15:42:09.632652149,0,0,,mA1/azimuth_1_joint,mA1/azimuth_2_joint,mA1/azimuth_3_joint,mA1/azimuth_4_joint,1.5533430342749532,-5.759586531581287,-0.03490658503988659,0.0
2025/04/05 15:42:09.730187003,0,0,,mA1/azimuth_1_joint,mA1/azimuth_2_joint,mA1/azimuth_3_joint,mA1/azimuth_4_joint,1.5533430342749532,-5.480333851262195,-0.03490658503988659,0.0
2025/04/05 15:42:09.830216942,0,0,,mA1/azimuth_1_joint,mA1/azimuth_2_joint,mA1/azimuth_3_joint,mA1/azimuth_4_joint,1.5533430342749532,-5.724679946541401,-0.03490658503988659,0.0
2025/04/05 15:42:09.931008736,0,0,,mA1/azimuth_1_joint,mA1/azimuth_2_joint,mA1/azimuth_3_joint,mA1/azimuth_4_joint,1.5533430342749532,-5.6374134839416845,-0.017453292519943295,0.0
2025/04/05 15:42:10.30808937,0,0,,mA1/azimuth_1_joint,mA1/azimuth_2_joint,mA1/azimuth_3_joint,mA1/azimuth_4_joint,1.5533430342749532,-5.759586531581287,-0.03490658503988659,0.0
2025/04/05 15:42:10.130505037,0,0,,mA1/azimuth_1_joint,mA1/azimuth_2_joint,mA1/azimuth_3_joint,mA1/azimuth_4_joint,1.5533430342749532,-5.445427266222308,-0.017453292519943295,0.0
2025/04/05 15:42:10.230937525,0,0,,mA1/azimuth_1_joint,mA1/azimuth_2_joint,mA1/azimuth_3_joint,mA1/azimuth_4_joint,1.5533430342749532,-5.759586531581287,-0.017453292519943295,0.0
2025/04/05 15:42:10.330077024,0,0,,mA1/azimuth_1_joint,mA1/azimuth_2_joint,mA1/azimuth_3_joint,mA1/azimuth_4_joint,1.5533430342749532,-5.777039824101231,-0.017453292519943295,0.0
2025/04/05 15:42:10.430645661,0,0,,mA1/azimuth_1_joint,mA1/azimuth_2_joint,mA1/azimuth_3_joint,mA1/azimuth_4_joint,1.5533430342749532,-5.794493116621174,-0.017453292519943295,0.0
2025/04/05 15:42:10.531807043,0,0,,mA1/azimuth_1_joint,mA1/azimuth_2_joint,mA1/azimuth_3_joint,mA1/azimuth_4_joint,1.5533430342749532,-5.777039824101231,-0.017453292519943295,0.0
2025/04/05 15:42:10.630363128,0,0,,mA1/azimuth_1_joint,mA1/azimuth_2_joint,mA1/azimuth_3_joint,mA1/azimuth_4_joint,1.5533430342749532,-5.777039824101231,-0.03490658503988659,0.0
2025/04/05 15:42:10.731054396,0,0,,mA1/azimuth_1_joint,mA1/azimuth_2_joint,mA1/azimuth_3_joint,mA1/azimuth_4_joint,1.5533430342749532,-5.602506898901797,-0.03490658503988659,0.0
2025/04/05 15:42:10.830410957,0,0,,mA1/azimuth_1_joint,mA1/azimuth_2_joint,mA1/azimuth_3_joint,mA1/azimuth_4_joint,5.323254218582705,-1.5533430342749532,-0.03490658503988659,0.0
2025/04/05 15:42:10.931532231,0,0,,mA1/azimuth_1_joint,mA1/azimuth_2_joint,mA1/azimuth_3_joint,mA1/azimuth_4_joint,1.5533430342749532,-4.694935687864747,-0.03490658503988659,0.0
2025/04/05 15:42:11.31025902,0,0,,mA1/azimuth_1_joint,mA1/azimuth_2_joint,mA1/azimuth_3_joint,mA1/azimuth_4_joint,1.5533430342749532,-5.445427266222308,-0.03490658503988659,0.0
2025/04/05 15:42:11.130655570,0,0,,mA1/azimuth_1_joint,mA1/azimuth_2_joint,mA1/azimuth_3_joint,mA1/azimuth_4_joint,5.096361415823442,-1.5533430342749532,-0.03490658503988659,0.0
2025/04/05 15:42:11.230041765,0,0,,mA1/azimuth_1_joint,mA1/azimuth_2_joint,mA1/azimuth_3_joint,mA1/azimuth_4_joint,1.5533430342749532,-5.253441048502932,-0.017453292519943295,0.0
2025/04/05 15:42:11.331508009,0,0,,mA1/azimuth_1_joint,mA1/azimuth_2_joint,mA1/azimuth_3_joint,mA1/azimuth_4_joint,1.5533430342749532,-5.340707511102648,-0.017453292519943295,0.0
2025/04/05 15:42:11.430009172,0,0,,mA1/azimuth_1_joint,mA1/azimuth_2_joint,mA1/azimuth_3_joint,mA1/azimuth_4_joint,1.5533430342749532,-5.480333851262195,-0.03490658503988659,0.0
2025/04/05 15:42:11.530478569,0,0,,mA1/azimuth_1_joint,mA1/azimuth_2_joint,mA1/azimuth_3_joint,mA1/azimuth_4_joint,1.5533430342749532,-5.497787143782138,-0.017453292519943295,0.0
2025/04/05 15:42:11.631628143,0,0,,mA1/azimuth_1_joint,mA1/azimuth_2_joint,mA1/azimuth_3_joint,mA1/azimuth_4_joint,1.5533430342749532,-5.480333851262195,-0.017453292519943295,0.0
2025/04/05 15:42:11.730899145,0,0,,mA1/azimuth_1_joint,mA1/azimuth_2_joint,mA1/azimuth_3_joint,mA1/azimuth_4_joint,1.5533430342749532,-5.480333851262195,-0.017453292519943295,0.0
2025/04/05 15:42:11.831293569,0,0,,mA1/azimuth_1_joint,mA1/azimuth_2_joint,mA1/azimuth_3_joint,mA1/azimuth_4_joint,1.5533430342749532,-5.480333851262195,-0.017453292519943295,0.0
2025/04/05 15:42:11.931070587,0,0,,mA1/azimuth_1_joint,mA1/azimuth_2_joint,mA1/azimuth_3_joint,mA1/azimuth_4_joint,1.5533430342749532,-5.567600313861911,-0.03490658503988659,0.0
2025/04/05 15:42:12.31373289,0,0,,mA1/azimuth_1_joint,mA1/azimuth_2_joint,mA1/azimuth_3_joint,mA1/azimuth_4_joint,1.5533430342749532,-5.497787143782138,-0.017453292519943295,0.0
2025/04/05 15:42:12.131298240,0,0,,mA1/azimuth_1_joint,mA1/azimuth_2_joint,mA1/azimuth_3_joint,mA1/azimuth_4_joint,4.2062434973063345,-1.5533430342749532,-0.03490658503988659,0.0
2025/04/05 15:42:12.230403836,0,0,,mA1/azimuth_1_joint,mA1/azimuth_2_joint,mA1/azimuth_3_joint,mA1/azimuth_4_joint,5.497787143782138,-1.5533430342749532,-0.03490658503988659,0.0
2025/04/05 15:42:12.330751930,0,0,,mA1/azimuth_1_joint,mA1/azimuth_2_joint,mA1/azimuth_3_joint,mA1/azimuth_4_joint,1.5533430342749532,-5.602506898901797,-0.017453292519943295,0.0
2025/04/05 15:42:12.431041286,0,0,,mA1/azimuth_1_joint,mA1/azimuth_2_joint,mA1/azimuth_3_joint,mA1/azimuth_4_joint,1.5533430342749532,-5.98647933434055,-0.017453292519943295,0.0
2025/04/05 15:42:12.530248929,0,0,,mA1/azimuth_1_joint,mA1/azimuth_2_joint,mA1/azimuth_3_joint,mA1/azimuth_4_joint,1.5533430342749532,-6.003932626860494,-0.03490658503988659,0.0
2025/04/05 15:42:12.630850742,0,0,,mA1/azimuth_1_joint,mA1/azimuth_2_joint,mA1/azimuth_3_joint,mA1/azimuth_4_joint,6.126105674500097,-1.5533430342749532,-0.03490658503988659,0.0
2025/04/05 15:42:12.731469524,0,0,,mA1/azimuth_1_joint,mA1/azimuth_2_joint,mA1/azimuth_3_joint,mA1/azimuth_4_joint,1.5533430342749532,-5.218534463463046,-0.017453292519943295,0.0
2025/04/05 15:42:12.830511655,0,0,,mA1/azimuth_1_joint,mA1/azimuth_2_joint,mA1/azimuth_3_joint,mA1/azimuth_4_joint,1.5533430342749532,-5.672320068981571,-0.017453292519943295,0.0
2025/04/05 15:42:12.931642105,0,0,,mA1/azimuth_1_joint,mA1/azimuth_2_joint,mA1/azimuth_3_joint,mA1/azimuth_4_joint,5.480333851262195,-1.5533430342749532,-0.017453292519943295,0.0
2025/04/05 15:42:13.31535564,0,0,,mA1/azimuth_1_joint,mA1/azimuth_2_joint,mA1/azimuth_3_joint,mA1/azimuth_4_joint,5.480333851262195,-1.5533430342749532,-0.017453292519943295,0.0
2025/04/05 15:42:13.130087728,0,0,,mA1/azimuth_1_joint,mA1/azimuth_2_joint,mA1/azimuth_3_joint,mA1/azimuth_4_joint,0.29670597283903605,-1.5533430342749532,-0.03490658503988659,0.0
2025/04/05 15:42:13.230755585,0,0,,mA1/azimuth_1_joint,mA1/azimuth_2_joint,mA1/azimuth_3_joint,mA1/azimuth_4_joint,1.2042771838760873,-1.5707963267948966,-0.03490658503988659,0.0
2025/04/05 15:42:13.330685055,0,0,,mA1/azimuth_1_joint,mA1/azimuth_2_joint,mA1/azimuth_3_joint,mA1/azimuth_4_joint,5.550147021341968,-1.5533430342749532,-0.03490658503988659,0.0
2025/04/05 15:42:13.430765410,0,0,,mA1/azimuth_1_joint,mA1/azimuth_2_joint,mA1/azimuth_3_joint,mA1/azimuth_4_joint,0.24434609527920614,-1.5533430342749532,-0.017453292519943295,0.0
2025/04/05 15:42:13.530641979,0,0,,mA1/azimuth_1_joint,mA1/azimuth_2_joint,mA1/azimuth_3_joint,mA1/azimuth_4_joint,5.619960191421741,-1.5533430342749532,-0.03490658503988659,0.0
2025/04/05 15:42:13.630589805,0,0,,mA1/azimuth_1_joint,mA1/azimuth_2_joint,mA1/azimuth_3_joint,mA1/azimuth_4_joint,5.480333851262195,-1.5533430342749532,-0.017453292519943295,0.0
2025/04/05 15:42:13.730580924,0,0,,mA1/azimuth_1_joint,mA1/azimuth_2_joint,mA1/azimuth_3_joint,mA1/azimuth_4_joint,0.10471975511965978,-1.5707963267948966,-0.017453292519943295,0.0
2025/04/05 15:42:13.830317664,0,0,,mA1/azimuth_1_joint,mA1/azimuth_2_joint,mA1/azimuth_3_joint,mA1/azimuth_4_joint,5.899212871740834,-1.5533430342749532,-0.017453292519943295,0.0
2025/04/05 15:42:13.930352649,0,0,,mA1/azimuth_1_joint,mA1/azimuth_2_joint,mA1/azimuth_3_joint,mA1/azimuth_4_joint,1.5533430342749532,-4.694935687864747,-0.017453292519943295,0.0
2025/04/05 15:42:14.31278402,0,0,,mA1/azimuth_1_joint,mA1/azimuth_2_joint,mA1/azimuth_3_joint,mA1/azimuth_4_joint,1.5533430342749532,-5.724679946541401,-0.017453292519943295,0.0
2025/04/05 15:42:14.130088966,0,0,,mA1/azimuth_1_joint,mA1/azimuth_2_joint,mA1/azimuth_3_joint,mA1/azimuth_4_joint,1.5533430342749532,-5.480333851262195,-0.017453292519943295,0.0
2025/04/05 15:42:14.230290108,0,0,,mA1/azimuth_1_joint,mA1/azimuth_2_joint,mA1/azimuth_3_joint,mA1/azimuth_4_joint,1.5533430342749532,-5.497787143782138,-0.017453292519943295,0.0
2025/04/05 15:42:14.330086458,0,0,,mA1/azimuth_1_joint,mA1/azimuth_2_joint,mA1/azimuth_3_joint,mA1/azimuth_4_joint,1.5533430342749532,-5.497787143782138,0.0,0.0
2025/04/05 15:42:14.430321888,0,0,,mA1/azimuth_1_joint,mA1/azimuth_2_joint,mA1/azimuth_3_joint,mA1/azimuth_4_joint,1.5707963267948966,-0.9773843811168246,-0.017453292519943295,0.0
2025/04/05 15:42:14.530513384,0,0,,mA1/azimuth_1_joint,mA1/azimuth_2_joint,mA1/azimuth_3_joint,mA1/azimuth_4_joint,1.5707963267948966,-0.7853981633974483,0.0,0.0
2025/04/05 15:42:14.631143701,0,0,,mA1/azimuth_1_joint,mA1/azimuth_2_joint,mA1/azimuth_3_joint,mA1/azimuth_4_joint,5.026548245743669,-1.5533430342749532,-0.017453292519943295,0.0
2025/04/05 15:42:14.730350127,0,0,,mA1/azimuth_1_joint,mA1/azimuth_2_joint,mA1/azimuth_3_joint,mA1/azimuth_4_joint,5.8643062867009474,-1.5533430342749532,-0.03490658503988659,0.0
2025/04/05 15:42:14.830228818,0,0,,mA1/azimuth_1_joint,mA1/azimuth_2_joint,mA1/azimuth_3_joint,mA1/azimuth_4_joint,5.8817595792208905,-1.5533430342749532,-0.017453292519943295,0.0
2025/04/05 15:42:14.930104021,0,0,,mA1/azimuth_1_joint,mA1/azimuth_2_joint,mA1/azimuth_3_joint,mA1/azimuth_4_joint,5.916666164260777,-1.5533430342749532,-0.03490658503988659,0.0
2025/04/05 15:42:15.31000779,0,0,,mA1/azimuth_1_joint,mA1/azimuth_2_joint,mA1/azimuth_3_joint,mA1/azimuth_4_joint,5.742133239061344,-1.5533430342749532,-0.03490658503988659,0.0
2025/04/05 15:42:15.130692247,0,0,,mA1/azimuth_1_joint,mA1/azimuth_2_joint,mA1/azimuth_3_joint,mA1/azimuth_4_joint,5.811946409141117,-1.5533430342749532,-0.017453292519943295,0.0
2025/04/05 15:42:15.230639974,0,0,,mA1/azimuth_1_joint,mA1/azimuth_2_joint,mA1/azimuth_3_joint,mA1/azimuth_4_joint,5.654866776461628,-1.5533430342749532,-0.017453292519943295,0.0
2025/04/05 15:42:15.330781031,0,0,,mA1/azimuth_1_joint,mA1/azimuth_2_joint,mA1/azimuth_3_joint,mA1/azimuth_4_joint,5.8817595792208905,-1.5533430342749532,-0.017453292519943295,0.0
2025/04/05 15:42:15.430017379,0,0,,mA1/azimuth_1_joint,mA1/azimuth_2_joint,mA1/azimuth_3_joint,mA1/azimuth_4_joint,6.2482787221397,-1.5707963267948966,-0.017453292519943295,0.0
2025/04/05 15:42:15.531123664,0,0,,mA1/azimuth_1_joint,mA1/azimuth_2_joint,mA1/azimuth_3_joint,mA1/azimuth_4_joint,5.8643062867009474,-1.5533430342749532,-0.017453292519943295,0.0
2025/04/05 15:42:15.630095121,0,0,,mA1/azimuth_1_joint,mA1/azimuth_2_joint,mA1/azimuth_3_joint,mA1/azimuth_4_joint,5.497787143782138,-1.5533430342749532,-0.017453292519943295,0.0
2025/04/05 15:42:15.730423441,0,0,,mA1/azimuth_1_joint,mA1/azimuth_2_joint,mA1/azimuth_3_joint,mA1/azimuth_4_joint,5.846852994181004,-1.5533430342749532,-0.017453292519943295,0.0
2025/04/05 15:42:15.830776445,0,0,,mA1/azimuth_1_joint,mA1/azimuth_2_joint,mA1/azimuth_3_joint,mA1/azimuth_4_joint,4.71238898038469,-1.5533430342749532,-0.017453292519943295,0.0
2025/04/05 15:42:15.931877921,0,0,,mA1/azimuth_1_joint,mA1/azimuth_2_joint,mA1/azimuth_3_joint,mA1/azimuth_4_joint,0.3141592653589793,-1.5707963267948966,-0.017453292519943295,0.0
2025/04/05 15:42:16.31694685,0,0,,mA1/azimuth_1_joint,mA1/azimuth_2_joint,mA1/azimuth_3_joint,mA1/azimuth_4_joint,1.5533430342749532,-4.34586983746588,0.0,0.0
2025/04/05 15:42:16.131496021,0,0,,mA1/azimuth_1_joint,mA1/azimuth_2_joint,mA1/azimuth_3_joint,mA1/azimuth_4_joint,6.09119908946021,-1.5533430342749532,-0.017453292519943295,0.0
2025/04/05 15:42:16.230520693,0,0,,mA1/azimuth_1_joint,mA1/azimuth_2_joint,mA1/azimuth_3_joint,mA1/azimuth_4_joint,5.916666164260777,-1.5533430342749532,-0.03490658503988659,0.0
2025/04/05 15:42:16.330112632,0,0,,mA1/azimuth_1_joint,mA1/azimuth_2_joint,mA1/azimuth_3_joint,mA1/azimuth_4_joint,5.8643062867009474,-1.5533430342749532,-0.03490658503988659,0.0
2025/04/05 15:42:16.433217550,0,0,,mA1/azimuth_1_joint,mA1/azimuth_2_joint,mA1/azimuth_3_joint,mA1/azimuth_4_joint,5.8817595792208905,-1.5533430342749532,-0.03490658503988659,0.0
2025/04/05 15:42:16.530197586,0,0,,mA1/azimuth_1_joint,mA1/azimuth_2_joint,mA1/azimuth_3_joint,mA1/azimuth_4_joint,5.8643062867009474,-1.5533430342749532,-0.017453292519943295,0.0
2025/04/05 15:42:16.630294614,0,0,,mA1/azimuth_1_joint,mA1/azimuth_2_joint,mA1/azimuth_3_joint,mA1/azimuth_4_joint,5.899212871740834,-1.5533430342749532,-0.017453292519943295,0.0
2025/04/05 15:42:16.731566344,0,0,,mA1/azimuth_1_joint,mA1/azimuth_2_joint,mA1/azimuth_3_joint,mA1/azimuth_4_joint,5.899212871740834,-1.5533430342749532,-0.03490658503988659,0.0
2025/04/05 15:42:16.830517695,0,0,,mA1/azimuth_1_joint,mA1/azimuth_2_joint,mA1/azimuth_3_joint,mA1/azimuth_4_joint,5.8643062867009474,-1.5533430342749532,-0.017453292519943295,0.0
2025/04/05 15:42:16.930100825,0,0,,mA1/azimuth_1_joint,mA1/azimuth_2_joint,mA1/azimuth_3_joint,mA1/azimuth_4_joint,5.288347633542818,-1.5533430342749532,-0.017453292519943295,0.0
2025/04/05 15:42:17.30395083,0,0,,mA1/azimuth_1_joint,mA1/azimuth_2_joint,mA1/azimuth_3_joint,mA1/azimuth_4_joint,5.916666164260777,-1.5533430342749532,-0.017453292519943295,0.0
2025/04/05 15:42:17.130858484,0,0,,mA1/azimuth_1_joint,mA1/azimuth_2_joint,mA1/azimuth_3_joint,mA1/azimuth_4_joint,5.899212871740834,-1.5533430342749532,-0.017453292519943295,0.0
2025/04/05 15:42:17.232460854,0,0,,mA1/azimuth_1_joint,mA1/azimuth_2_joint,mA1/azimuth_3_joint,mA1/azimuth_4_joint,5.916666164260777,-1.5533430342749532,-0.03490658503988659,0.0
2025/04/05 15:42:17.330247939,0,0,,mA1/azimuth_1_joint,mA1/azimuth_2_joint,mA1/azimuth_3_joint,mA1/azimuth_4_joint,5.8643062867009474,-1.5533430342749532,-0.017453292519943295,0.0
2025/04/05 15:42:17.430625620,0,0,,mA1/azimuth_1_joint,mA1/azimuth_2_joint,mA1/azimuth_3_joint,mA1/azimuth_4_joint,4.572762640225143,-1.5533430342749532,-0.017453292519943295,0.0
2025/04/05 15:42:17.530375606,0,0,,mA1/azimuth_1_joint,mA1/azimuth_2_joint,mA1/azimuth_3_joint,mA1/azimuth_4_joint,1.5533430342749532,-5.6374134839416845,0.0,0.0
2025/04/05 15:42:17.630324614,0,0,,mA1/azimuth_1_joint,mA1/azimuth_2_joint,mA1/azimuth_3_joint,mA1/azimuth_4_joint,5.969026041820607,-1.5533430342749532,-0.017453292519943295,0.0
2025/04/05 15:42:17.730222870,0,0,,mA1/azimuth_1_joint,mA1/azimuth_2_joint,mA1/azimuth_3_joint,mA1/azimuth_4_joint,0.47123889803846897,-1.5533430342749532,-0.017453292519943295,0.0
2025/04/05 15:42:17.830432967,0,0,,mA1/azimuth_1_joint,mA1/azimuth_2_joint,mA1/azimuth_3_joint,mA1/azimuth_4_joint,5.934119456780721,-1.5533430342749532,-0.017453292519943295,0.0
2025/04/05 15:42:17.930275942,0,0,,mA1/azimuth_1_joint,mA1/azimuth_2_joint,mA1/azimuth_3_joint,mA1/azimuth_4_joint,5.916666164260777,-1.5533430342749532,-0.017453292519943295,0.0
2025/04/05 15:42:18.30242447,0,0,,mA1/azimuth_1_joint,mA1/azimuth_2_joint,mA1/azimuth_3_joint,mA1/azimuth_4_joint,6.09119908946021,-1.5533430342749532,-0.017453292519943295,0.0
2025/04/05 15:42:18.130472436,0,0,,mA1/azimuth_1_joint,mA1/azimuth_2_joint,mA1/azimuth_3_joint,mA1/azimuth_4_joint,6.126105674500097,-1.5533430342749532,-0.017453292519943295,0.0
2025/04/05 15:42:18.231882812,0,0,,mA1/azimuth_1_joint,mA1/azimuth_2_joint,mA1/azimuth_3_joint,mA1/azimuth_4_joint,1.5533430342749532,-5.689773361501515,-0.017453292519943295,0.0
2025/04/05 15:42:18.330124566,0,0,,mA1/azimuth_1_joint,mA1/azimuth_2_joint,mA1/azimuth_3_joint,mA1/azimuth_4_joint,6.14355896702004,-1.5533430342749532,-0.017453292519943295,0.0
2025/04/05 15:42:18.430730871,0,0,,mA1/azimuth_1_joint,mA1/azimuth_2_joint,mA1/azimuth_3_joint,mA1/azimuth_4_joint,6.126105674500097,-1.5533430342749532,-0.017453292519943295,0.0
2025/04/05 15:42:18.530138623,0,0,,mA1/azimuth_1_joint,mA1/azimuth_2_joint,mA1/azimuth_3_joint,mA1/azimuth_4_joint,6.09119908946021,-1.5533430342749532,-0.017453292519943295,0.0
2025/04/05 15:42:18.630160309,0,0,,mA1/azimuth_1_joint,mA1/azimuth_2_joint,mA1/azimuth_3_joint,mA1/azimuth_4_joint,1.5533430342749532,-5.742133239061344,0.0,0.0
2025/04/05 15:42:18.730314081,0,0,,mA1/azimuth_1_joint,mA1/azimuth_2_joint,mA1/azimuth_3_joint,mA1/azimuth_4_joint,1.5533430342749532,-5.707226654021458,0.0,0.0
2025/04/05 15:42:18.831641964,0,0,,mA1/azimuth_1_joint,mA1/azimuth_2_joint,mA1/azimuth_3_joint,mA1/azimuth_4_joint,1.5533430342749532,-5.585053606381854,0.0,0.0
2025/04/05 15:42:18.930871163,0,0,,mA1/azimuth_1_joint,mA1/azimuth_2_joint,mA1/azimuth_3_joint,mA1/azimuth_4_joint,5.82939970166106,-1.5533430342749532,-0.017453292519943295,0.0
2025/04/05 15:42:19.30175252,0,0,,mA1/azimuth_1_joint,mA1/azimuth_2_joint,mA1/azimuth_3_joint,mA1/azimuth_4_joint,6.126105674500097,-1.5533430342749532,-0.017453292519943295,0.0
2025/04/05 15:42:19.130823208,0,0,,mA1/azimuth_1_joint,mA1/azimuth_2_joint,mA1/azimuth_3_joint,mA1/azimuth_4_joint,5.899212871740834,-1.5533430342749532,-0.017453292519943295,0.0
2025/04/05 15:42:19.230160525,0,0,,mA1/azimuth_1_joint,mA1/azimuth_2_joint,mA1/azimuth_3_joint,mA1/azimuth_4_joint,5.899212871740834,-1.5533430342749532,-0.017453292519943295,0.0
2025/04/05 15:42:19.330178842,0,0,,mA1/azimuth_1_joint,mA1/azimuth_2_joint,mA1/azimuth_3_joint,mA1/azimuth_4_joint,1.5707963267948966,-4.39822971502571,0.0,0.0
2025/04/05 15:42:19.430592407,0,0,,mA1/azimuth_1_joint,mA1/azimuth_2_joint,mA1/azimuth_3_joint,mA1/azimuth_4_joint,1.5533430342749532,-5.689773361501515,0.0,0.0
2025/04/05 15:42:19.531386833,0,0,,mA1/azimuth_1_joint,mA1/azimuth_2_joint,mA1/azimuth_3_joint,mA1/azimuth_4_joint,1.5533430342749532,-5.724679946541401,0.0,0.0
2025/04/05 15:42:19.630237125,0,0,,mA1/azimuth_1_joint,mA1/azimuth_2_joint,mA1/azimuth_3_joint,mA1/azimuth_4_joint,6.1086523819801535,-1.5533430342749532,-0.017453292519943295,0.0
2025/04/05 15:42:19.730433226,0,0,,mA1/azimuth_1_joint,mA1/azimuth_2_joint,mA1/azimuth_3_joint,mA1/azimuth_4_joint,1.5533430342749532,-5.672320068981571,0.0,0.0
2025/04/05 15:42:19.830178493,0,0,,mA1/azimuth_1_joint,mA1/azimuth_2_joint,mA1/azimuth_3_joint,mA1/azimuth_4_joint,1.5533430342749532,-5.724679946541401,0.0,0.0
2025/04/05 15:42:19.930134995,0,0,,mA1/azimuth_1_joint,mA1/azimuth_2_joint,mA1/azimuth_3_joint,mA1/azimuth_4_joint,1.5533430342749532,-5.672320068981571,0.0,0.0
2025/04/05 15:42:20.30677755,0,0,,mA1/azimuth_1_joint,mA1/azimuth_2_joint,mA1/azimuth_3_joint,mA1/azimuth_4_joint,1.5533430342749532,-5.602506898901797,0.0,0.0
2025/04/05 15:42:20.130729809,0,0,,mA1/azimuth_1_joint,mA1/azimuth_2_joint,mA1/azimuth_3_joint,mA1/azimuth_4_joint,6.1086523819801535,-1.5533430342749532,-0.017453292519943295,0.0
2025/04/05 15:42:20.230674064,0,0,,mA1/azimuth_1_joint,mA1/azimuth_2_joint,mA1/azimuth_3_joint,mA1/azimuth_4_joint,6.021385919380437,-1.5533430342749532,-0.017453292519943295,0.0
2025/04/05 15:42:20.332716286,0,0,,mA1/azimuth_1_joint,mA1/azimuth_2_joint,mA1/azimuth_3_joint,mA1/azimuth_4_joint,6.073745796940266,-1.5533430342749532,-0.017453292519943295,0.0
2025/04/05 15:42:20.430219252,0,0,,mA1/azimuth_1_joint,mA1/azimuth_2_joint,mA1/azimuth_3_joint,mA1/azimuth_4_joint,1.5533430342749532,-5.689773361501515,0.0,0.0
2025/04/05 15:42:20.530798868,0,0,,mA1/azimuth_1_joint,mA1/azimuth_2_joint,mA1/azimuth_3_joint,mA1/azimuth_4_joint,6.14355896702004,-1.5533430342749532,-0.017453292519943295,0.0
2025/04/05 15:42:20.630152505,0,0,,mA1/azimuth_1_joint,mA1/azimuth_2_joint,mA1/azimuth_3_joint,mA1/azimuth_4_joint,6.003932626860494,-1.5533430342749532,-0.017453292519943295,0.0
2025/04/05 15:42:20.730395824,0,0,,mA1/azimuth_1_joint,mA1/azimuth_2_joint,mA1/azimuth_3_joint,mA1/azimuth_4_joint,6.09119908946021,-1.5533430342749532,-0.017453292519943295,0.0
2025/04/05 15:42:20.830740013,0,0,,mA1/azimuth_1_joint,mA1/azimuth_2_joint,mA1/azimuth_3_joint,mA1/azimuth_4_joint,6.1086523819801535,-1.5533430342749532,-0.017453292519943295,0.0
2025/04/05 15:42:20.930133881,0,0,,mA1/azimuth_1_joint,mA1/azimuth_2_joint,mA1/azimuth_3_joint,mA1/azimuth_4_joint,6.14355896702004,-1.5533430342749532,-0.017453292519943295,0.0
2025/04/05 15:42:21.30291965,0,0,,mA1/azimuth_1_joint,mA1/azimuth_2_joint,mA1/azimuth_3_joint,mA1/azimuth_4_joint,6.09119908946021,-1.5533430342749532,-0.017453292519943295,0.0
2025/04/05 15:42:21.130695164,0,0,,mA1/azimuth_1_joint,mA1/azimuth_2_joint,mA1/azimuth_3_joint,mA1/azimuth_4_joint,6.126105674500097,-1.5533430342749532,-0.017453292519943295,0.0
2025/04/05 15:42:21.230891925,0,0,,mA1/azimuth_1_joint,mA1/azimuth_2_joint,mA1/azimuth_3_joint,mA1/azimuth_4_joint,6.09119908946021,-1.5533430342749532,-0.017453292519943295,0.0
2025/04/05 15:42:21.330315049,0,0,,mA1/azimuth_1_joint,mA1/azimuth_2_joint,mA1/azimuth_3_joint,mA1/azimuth_4_joint,1.5533430342749532,-5.672320068981571,0.0,0.0
2025/04/05 15:42:21.430945219,0,0,,mA1/azimuth_1_joint,mA1/azimuth_2_joint,mA1/azimuth_3_joint,mA1/azimuth_4_joint,1.5533430342749532,-5.619960191421741,0.0,0.0
2025/04/05 15:42:21.530642700,0,0,,mA1/azimuth_1_joint,mA1/azimuth_2_joint,mA1/azimuth_3_joint,mA1/azimuth_4_joint,1.5533430342749532,-5.585053606381854,0.0,0.0
2025/04/05 15:42:21.630798575,0,0,,mA1/azimuth_1_joint,mA1/azimuth_2_joint,mA1/azimuth_3_joint,mA1/azimuth_4_joint,1.5533430342749532,-5.550147021341968,0.0,0.0
2025/04/05 15:42:21.730809466,0,0,,mA1/azimuth_1_joint,mA1/azimuth_2_joint,mA1/azimuth_3_joint,mA1/azimuth_4_joint,1.5533430342749532,-5.602506898901797,0.0,0.0
2025/04/05 15:42:21.831141006,0,0,,mA1/azimuth_1_joint,mA1/azimuth_2_joint,mA1/azimuth_3_joint,mA1/azimuth_4_joint,1.5533430342749532,-5.585053606381854,0.0,0.0
2025/04/05 15:42:21.931074992,0,0,,mA1/azimuth_1_joint,mA1/azimuth_2_joint,mA1/azimuth_3_joint,mA1/azimuth_4_joint,1.5533430342749532,-5.672320068981571,0.0,0.0
2025/04/05 15:42:22.30096334,0,0,,mA1/azimuth_1_joint,mA1/azimuth_2_joint,mA1/azimuth_3_joint,mA1/azimuth_4_joint,5.899212871740834,-1.5533430342749532,-0.017453292519943295,0.0
2025/04/05 15:42:22.130357160,0,0,,mA1/azimuth_1_joint,mA1/azimuth_2_joint,mA1/azimuth_3_joint,mA1/azimuth_4_joint,6.03883921190038,-1.5533430342749532,-0.017453292519943295,0.0
2025/04/05 15:42:22.231166264,0,0,,mA1/azimuth_1_joint,mA1/azimuth_2_joint,mA1/azimuth_3_joint,mA1/azimuth_4_joint,6.09119908946021,-1.5533430342749532,-0.017453292519943295,0.0
2025/04/05 15:42:22.331613188,0,0,,mA1/azimuth_1_joint,mA1/azimuth_2_joint,mA1/azimuth_3_joint,mA1/azimuth_4_joint,1.5533430342749532,-5.6374134839416845,0.0,0.0
2025/04/05 15:42:22.430922634,0,0,,mA1/azimuth_1_joint,mA1/azimuth_2_joint,mA1/azimuth_3_joint,mA1/azimuth_4_joint,5.916666164260777,-1.5533430342749532,-0.017453292519943295,0.0
2025/04/05 15:42:22.530562894,0,0,,mA1/azimuth_1_joint,mA1/azimuth_2_joint,mA1/azimuth_3_joint,mA1/azimuth_4_joint,6.09119908946021,-1.5533430342749532,-0.017453292519943295,0.0
2025/04/05 15:42:22.630437987,0,0,,mA1/azimuth_1_joint,mA1/azimuth_2_joint,mA1/azimuth_3_joint,mA1/azimuth_4_joint,5.846852994181004,-1.5533430342749532,-0.017453292519943295,0.0
2025/04/05 15:42:22.730235817,0,0,,mA1/azimuth_1_joint,mA1/azimuth_2_joint,mA1/azimuth_3_joint,mA1/azimuth_4_joint,1.5533430342749532,-5.619960191421741,0.0,0.0
2025/04/05 15:42:22.831484716,0,0,,mA1/azimuth_1_joint,mA1/azimuth_2_joint,mA1/azimuth_3_joint,mA1/azimuth_4_joint,6.073745796940266,-1.5533430342749532,-0.017453292519943295,0.0
2025/04/05 15:42:22.930369132,0,0,,mA1/azimuth_1_joint,mA1/azimuth_2_joint,mA1/azimuth_3_joint,mA1/azimuth_4_joint,1.5533430342749532,-5.654866776461628,0.0,0.0
2025/04/05 15:42:23.30106952,0,0,,mA1/azimuth_1_joint,mA1/azimuth_2_joint,mA1/azimuth_3_joint,mA1/azimuth_4_joint,6.1086523819801535,-1.5533430342749532,-0.017453292519943295,0.0
2025/04/05 15:42:23.130905296,0,0,,mA1/azimuth_1_joint,mA1/azimuth_2_joint,mA1/azimuth_3_joint,mA1/azimuth_4_joint,6.1086523819801535,-1.5533430342749532,-0.017453292519943295,0.0
2025/04/05 15:42:23.230182083,0,0,,mA1/azimuth_1_joint,mA1/azimuth_2_joint,mA1/azimuth_3_joint,mA1/azimuth_4_joint,1.5533430342749532,-5.672320068981571,0.0,0.0
2025/04/05 15:42:23.331116094,0,0,,mA1/azimuth_1_joint,mA1/azimuth_2_joint,mA1/azimuth_3_joint,mA1/azimuth_4_joint,1.5533430342749532,-5.654866776461628,0.0,0.0
2025/04/05 15:42:23.430114438,0,0,,mA1/azimuth_1_joint,mA1/azimuth_2_joint,mA1/azimuth_3_joint,mA1/azimuth_4_joint,6.003932626860494,-1.5533430342749532,-0.017453292519943295,0.0
2025/04/05 15:42:23.531057127,0,0,,mA1/azimuth_1_joint,mA1/azimuth_2_joint,mA1/azimuth_3_joint,mA1/azimuth_4_joint,6.03883921190038,-1.5533430342749532,-0.017453292519943295,0.0
2025/04/05 15:42:23.630475717,0,0,,mA1/azimuth_1_joint,mA1/azimuth_2_joint,mA1/azimuth_3_joint,mA1/azimuth_4_joint,1.5533430342749532,-5.654866776461628,0.0,0.0
2025/04/05 15:42:23.730243373,0,0,,mA1/azimuth_1_joint,mA1/azimuth_2_joint,mA1/azimuth_3_joint,mA1/azimuth_4_joint,1.5533430342749532,-5.672320068981571,0.0,0.0
2025/04/05 15:42:23.830274915,0,0,,mA1/azimuth_1_joint,mA1/azimuth_2_joint,mA1/azimuth_3_joint,mA1/azimuth_4_joint,1.5533430342749532,-5.742133239061344,0.0,0.0
2025/04/05 15:42:23.930146675,0,0,,mA1/azimuth_1_joint,mA1/azimuth_2_joint,mA1/azimuth_3_joint,mA1/azimuth_4_joint,6.1086523819801535,-1.5533430342749532,-0.017453292519943295,0.0
2025/04/05 15:42:24.30780912,0,0,,mA1/azimuth_1_joint,mA1/azimuth_2_joint,mA1/azimuth_3_joint,mA1/azimuth_4_joint,1.5533430342749532,-5.724679946541401,0.0,0.0
2025/04/05 15:42:24.130093220,0,0,,mA1/azimuth_1_joint,mA1/azimuth_2_joint,mA1/azimuth_3_joint,mA1/azimuth_4_joint,6.126105674500097,-1.5533430342749532,-0.017453292519943295,0.0
2025/04/05 15:42:24.231035331,0,0,,mA1/azimuth_1_joint,mA1/azimuth_2_joint,mA1/azimuth_3_joint,mA1/azimuth_4_joint,1.5533430342749532,-5.742133239061344,0.0,0.0
2025/04/05 15:42:24.331202946,0,0,,mA1/azimuth_1_joint,mA1/azimuth_2_joint,mA1/azimuth_3_joint,mA1/azimuth_4_joint,1.5533430342749532,-5.672320068981571,0.0,0.0
2025/04/05 15:42:24.430660369,0,0,,mA1/azimuth_1_joint,mA1/azimuth_2_joint,mA1/azimuth_3_joint,mA1/azimuth_4_joint,1.5533430342749532,-5.759586531581287,0.0,0.0
2025/04/05 15:42:24.530367955,0,0,,mA1/azimuth_1_joint,mA1/azimuth_2_joint,mA1/azimuth_3_joint,mA1/azimuth_4_joint,1.5533430342749532,-5.619960191421741,0.0,0.0
2025/04/05 15:42:24.630178834,0,0,,mA1/azimuth_1_joint,mA1/azimuth_2_joint,mA1/azimuth_3_joint,mA1/azimuth_4_joint,1.5533430342749532,-5.654866776461628,0.0,0.0
2025/04/05 15:42:24.730392126,0,0,,mA1/azimuth_1_joint,mA1/azimuth_2_joint,mA1/azimuth_3_joint,mA1/azimuth_4_joint,1.5533430342749532,-5.689773361501515,0.0,0.0
2025/04/05 15:42:24.830957969,0,0,,mA1/azimuth_1_joint,mA1/azimuth_2_joint,mA1/azimuth_3_joint,mA1/azimuth_4_joint,1.5533430342749532,-5.707226654021458,0.0,0.0
2025/04/05 15:42:24.930106070,0,0,,mA1/azimuth_1_joint,mA1/azimuth_2_joint,mA1/azimuth_3_joint,mA1/azimuth_4_joint,1.5533430342749532,-5.689773361501515,0.0,0.0
2025/04/05 15:42:25.32667842,0,0,,mA1/azimuth_1_joint,mA1/azimuth_2_joint,mA1/azimuth_3_joint,mA1/azimuth_4_joint,1.5533430342749532,-5.724679946541401,0.0,0.0
2025/04/05 15:42:25.130382234,0,0,,mA1/azimuth_1_joint,mA1/azimuth_2_joint,mA1/azimuth_3_joint,mA1/azimuth_4_joint,1.5533430342749532,-5.724679946541401,0.0,0.0
2025/04/05 15:42:25.230325104,0,0,,mA1/azimuth_1_joint,mA1/azimuth_2_joint,mA1/azimuth_3_joint,mA1/azimuth_4_joint,5.916666164260777,-1.5533430342749532,-0.017453292519943295,0.0
2025/04/05 15:42:25.331853012,0,0,,mA1/azimuth_1_joint,mA1/azimuth_2_joint,mA1/azimuth_3_joint,mA1/azimuth_4_joint,1.5533430342749532,-5.707226654021458,0.0,0.0
2025/04/05 15:42:25.430958973,0,0,,mA1/azimuth_1_joint,mA1/azimuth_2_joint,mA1/azimuth_3_joint,mA1/azimuth_4_joint,1.5533430342749532,-5.707226654021458,0.0,0.0
2025/04/05 15:42:25.530757693,0,0,,mA1/azimuth_1_joint,mA1/azimuth_2_joint,mA1/azimuth_3_joint,mA1/azimuth_4_joint,6.1086523819801535,-1.5533430342749532,-0.017453292519943295,0.0
2025/04/05 15:42:25.631056302,0,0,,mA1/azimuth_1_joint,mA1/azimuth_2_joint,mA1/azimuth_3_joint,mA1/azimuth_4_joint,6.073745796940266,-1.5533430342749532,-0.017453292519943295,0.0
2025/04/05 15:42:25.730294863,0,0,,mA1/azimuth_1_joint,mA1/azimuth_2_joint,mA1/azimuth_3_joint,mA1/azimuth_4_joint,1.6231562043547265,-1.5707963267948966,-0.017453292519943295,0.0
2025/04/05 15:42:25.832657260,0,0,,mA1/azimuth_1_joint,mA1/azimuth_2_joint,mA1/azimuth_3_joint,mA1/azimuth_4_joint,6.003932626860494,-1.5533430342749532,-0.017453292519943295,0.0
2025/04/05 15:42:25.930527306,0,0,,mA1/azimuth_1_joint,mA1/azimuth_2_joint,mA1/azimuth_3_joint,mA1/azimuth_4_joint,1.5533430342749532,-4.468042885105484,0.0,0.0
2025/04/05 15:42:26.30399503,0,0,,mA1/azimuth_1_joint,mA1/azimuth_2_joint,mA1/azimuth_3_joint,mA1/azimuth_4_joint,1.5533430342749532,-5.672320068981571,0.0,0.0
2025/04/05 15:42:26.130181472,0,0,,mA1/azimuth_1_joint,mA1/azimuth_2_joint,mA1/azimuth_3_joint,mA1/azimuth_4_joint,1.5533430342749532,-5.654866776461628,0.0,0.0
2025/04/05 15:42:26.230758894,0,0,,mA1/azimuth_1_joint,mA1/azimuth_2_joint,mA1/azimuth_3_joint,mA1/azimuth_4_joint,1.5533430342749532,-5.6374134839416845,0.0,0.0
2025/04/05 15:42:26.330398181,0,0,,mA1/azimuth_1_joint,mA1/azimuth_2_joint,mA1/azimuth_3_joint,mA1/azimuth_4_joint,1.5533430342749532,-5.689773361501515,0.0,0.0
2025/04/05 15:42:26.430526695,0,0,,mA1/azimuth_1_joint,mA1/azimuth_2_joint,mA1/azimuth_3_joint,mA1/azimuth_4_joint,1.5533430342749532,-5.619960191421741,0.0,0.0
2025/04/05 15:42:26.530128361,0,0,,mA1/azimuth_1_joint,mA1/azimuth_2_joint,mA1/azimuth_3_joint,mA1/azimuth_4_joint,1.5533430342749532,-5.672320068981571,0.0,0.0
2025/04/05 15:42:26.630220368,0,0,,mA1/azimuth_1_joint,mA1/azimuth_2_joint,mA1/azimuth_3_joint,mA1/azimuth_4_joint,1.5533430342749532,-5.567600313861911,0.0,0.0
2025/04/05 15:42:26.730378900,0,0,,mA1/azimuth_1_joint,mA1/azimuth_2_joint,mA1/azimuth_3_joint,mA1/azimuth_4_joint,1.5533430342749532,-5.567600313861911,0.0,0.0
2025/04/05 15:42:26.830808172,0,0,,mA1/azimuth_1_joint,mA1/azimuth_2_joint,mA1/azimuth_3_joint,mA1/azimuth_4_joint,1.5533430342749532,-5.532693728822025,0.0,0.0
2025/04/05 15:42:26.932642123,0,0,,mA1/azimuth_1_joint,mA1/azimuth_2_joint,mA1/azimuth_3_joint,mA1/azimuth_4_joint,1.5533430342749532,-5.532693728822025,0.0,0.0
2025/04/05 15:42:27.32140071,0,0,,mA1/azimuth_1_joint,mA1/azimuth_2_joint,mA1/azimuth_3_joint,mA1/azimuth_4_joint,1.5533430342749532,-5.462880558742252,0.0,0.0
2025/04/05 15:42:27.132423643,0,0,,mA1/azimuth_1_joint,mA1/azimuth_2_joint,mA1/azimuth_3_joint,mA1/azimuth_4_joint,1.5533430342749532,-5.689773361501515,0.0,0.0
2025/04/05 15:42:27.230210462,0,0,,mA1/azimuth_1_joint,mA1/azimuth_2_joint,mA1/azimuth_3_joint,mA1/azimuth_4_joint,1.5533430342749532,-5.689773361501515,0.0,0.0
2025/04/05 15:42:27.330755907,0,0,,mA1/azimuth_1_joint,mA1/azimuth_2_joint,mA1/azimuth_3_joint,mA1/azimuth_4_joint,1.5533430342749532,-5.689773361501515,0.0,0.0
2025/04/05 15:42:27.430712486,0,0,,mA1/azimuth_1_joint,mA1/azimuth_2_joint,mA1/azimuth_3_joint,mA1/azimuth_4_joint,1.5533430342749532,-5.445427266222308,0.0,0.0
2025/04/05 15:42:27.530210840,0,0,,mA1/azimuth_1_joint,mA1/azimuth_2_joint,mA1/azimuth_3_joint,mA1/azimuth_4_joint,5.532693728822025,-1.5533430342749532,0.0,0.0
2025/04/05 15:42:27.630877361,0,0,,mA1/azimuth_1_joint,mA1/azimuth_2_joint,mA1/azimuth_3_joint,mA1/azimuth_4_joint,4.642575810304916,-1.5707963267948966,-0.017453292519943295,0.0
2025/04/05 15:42:27.732966559,0,0,,mA1/azimuth_1_joint,mA1/azimuth_2_joint,mA1/azimuth_3_joint,mA1/azimuth_4_joint,4.729842272904633,-1.5533430342749532,0.0,0.0
2025/04/05 15:42:27.831787534,0,0,,mA1/azimuth_1_joint,mA1/azimuth_2_joint,mA1/azimuth_3_joint,mA1/azimuth_4_joint,4.572762640225143,-1.5707963267948966,0.0,0.0
2025/04/05 15:42:27.930404368,0,0,,mA1/azimuth_1_joint,mA1/azimuth_2_joint,mA1/azimuth_3_joint,mA1/azimuth_4_joint,4.71238898038469,-1.5533430342749532,-0.017453292519943295,0.0
2025/04/05 15:42:28.30188338,0,0,,mA1/azimuth_1_joint,mA1/azimuth_2_joint,mA1/azimuth_3_joint,mA1/azimuth_4_joint,4.956735075663896,-1.5533430342749532,-0.017453292519943295,0.0
2025/04/05 15:42:28.131630167,0,0,,mA1/azimuth_1_joint,mA1/azimuth_2_joint,mA1/azimuth_3_joint,mA1/azimuth_4_joint,4.625122517784973,-1.5707963267948966,-0.017453292519943295,0.0
2025/04/05 15:42:28.230927885,0,0,,mA1/azimuth_1_joint,mA1/azimuth_2_joint,mA1/azimuth_3_joint,mA1/azimuth_4_joint,5.078908123303499,-1.5533430342749532,0.0,0.0
2025/04/05 15:42:28.330097521,0,0,,mA1/azimuth_1_joint,mA1/azimuth_2_joint,mA1/azimuth_3_joint,mA1/azimuth_4_joint,4.276056667386108,-1.5707963267948966,-0.017453292519943295,0.0
2025/04/05 15:42:28.430707069,0,0,,mA1/azimuth_1_joint,mA1/azimuth_2_joint,mA1/azimuth_3_joint,mA1/azimuth_4_joint,4.537856055185257,-1.5707963267948966,0.0,0.0
2025/04/05 15:42:28.530724714,0,0,,mA1/azimuth_1_joint,mA1/azimuth_2_joint,mA1/azimuth_3_joint,mA1/azimuth_4_joint,4.328416544945937,-1.5707963267948966,-0.017453292519943295,0.0
2025/04/05 15:42:28.630300396,0,0,,mA1/azimuth_1_joint,mA1/azimuth_2_joint,mA1/azimuth_3_joint,mA1/azimuth_4_joint,5.044001538263612,-1.5533430342749532,-0.017453292519943295,0.0
2025/04/05 15:42:28.730995431,0,0,,mA1/azimuth_1_joint,mA1/azimuth_2_joint,mA1/azimuth_3_joint,mA1/azimuth_4_joint,4.694935687864747,-1.5707963267948966,0.0,0.0
2025/04/05 15:42:28.831020882,0,0,,mA1/azimuth_1_joint,mA1/azimuth_2_joint,mA1/azimuth_3_joint,mA1/azimuth_4_joint,1.5707963267948966,-4.537856055185257,0.0,0.0
2025/04/05 15:42:28.930107024,0,0,,mA1/azimuth_1_joint,mA1/azimuth_2_joint,mA1/azimuth_3_joint,mA1/azimuth_4_joint,5.497787143782138,-1.5533430342749532,0.0,0.0
2025/04/05 15:42:29.30257365,0,0,,mA1/azimuth_1_joint,mA1/azimuth_2_joint,mA1/azimuth_3_joint,mA1/azimuth_4_joint,1.5533430342749532,-5.288347633542818,0.0,0.0
2025/04/05 15:42:29.130217350,0,0,,mA1/azimuth_1_joint,mA1/azimuth_2_joint,mA1/azimuth_3_joint,mA1/azimuth_4_joint,1.5533430342749532,-5.462880558742252,0.0,0.0
2025/04/05 15:42:29.231484707,0,0,,mA1/azimuth_1_joint,mA1/azimuth_2_joint,mA1/azimuth_3_joint,mA1/azimuth_4_joint,1.5533430342749532,-5.515240436302081,0.0,0.0
2025/04/05 15:42:29.330757340,0,0,,mA1/azimuth_1_joint,mA1/azimuth_2_joint,mA1/azimuth_3_joint,mA1/azimuth_4_joint,1.5533430342749532,-5.602506898901797,0.0,0.0
2025/04/05 15:42:29.430792264,0,0,,mA1/azimuth_1_joint,mA1/azimuth_2_joint,mA1/azimuth_3_joint,mA1/azimuth_4_joint,1.5533430342749532,-5.654866776461628,0.0,0.0
2025/04/05 15:42:29.531654156,0,0,,mA1/azimuth_1_joint,mA1/azimuth_2_joint,mA1/azimuth_3_joint,mA1/azimuth_4_joint,1.5533430342749532,-5.794493116621174,0.0,0.0
2025/04/05 15:42:29.630623775,0,0,,mA1/azimuth_1_joint,mA1/azimuth_2_joint,mA1/azimuth_3_joint,mA1/azimuth_4_joint,5.602506898901797,-1.5533430342749532,0.0,0.0
2025/04/05 15:42:29.730845039,0,0,,mA1/azimuth_1_joint,mA1/azimuth_2_joint,mA1/azimuth_3_joint,mA1/azimuth_4_joint,1.5533430342749532,-5.794493116621174,0.0,0.0
2025/04/05 15:42:29.830298657,0,0,,mA1/azimuth_1_joint,mA1/azimuth_2_joint,mA1/azimuth_3_joint,mA1/azimuth_4_joint,1.5533430342749532,-5.759586531581287,0.0,0.0
2025/04/05 15:42:29.930702514,0,0,,mA1/azimuth_1_joint,mA1/azimuth_2_joint,mA1/azimuth_3_joint,mA1/azimuth_4_joint,1.5533430342749532,-5.707226654021458,0.0,0.0
2025/04/05 15:42:30.30625945,0,0,,mA1/azimuth_1_joint,mA1/azimuth_2_joint,mA1/azimuth_3_joint,mA1/azimuth_4_joint,1.5533430342749532,-5.410520681182422,0.0,0.0
2025/04/05 15:42:30.130700048,0,0,,mA1/azimuth_1_joint,mA1/azimuth_2_joint,mA1/azimuth_3_joint,mA1/azimuth_4_joint,5.375614096142535,-1.5533430342749532,0.0,0.0
2025/04/05 15:42:30.230997678,0,0,,mA1/azimuth_1_joint,mA1/azimuth_2_joint,mA1/azimuth_3_joint,mA1/azimuth_4_joint,1.5533430342749532,-5.654866776461628,0.0,0.0
2025/04/05 15:42:30.331722045,0,0,,mA1/azimuth_1_joint,mA1/azimuth_2_joint,mA1/azimuth_3_joint,mA1/azimuth_4_joint,1.5533430342749532,-5.654866776461628,0.0,0.0
2025/04/05 15:42:30.432185243,0,0,,mA1/azimuth_1_joint,mA1/azimuth_2_joint,mA1/azimuth_3_joint,mA1/azimuth_4_joint,5.323254218582705,-1.5533430342749532,0.0,0.0
2025/04/05 15:42:30.532397403,0,0,,mA1/azimuth_1_joint,mA1/azimuth_2_joint,mA1/azimuth_3_joint,mA1/azimuth_4_joint,1.5533430342749532,-5.602506898901797,0.0,0.0
2025/04/05 15:42:30.633748471,0,0,,mA1/azimuth_1_joint,mA1/azimuth_2_joint,mA1/azimuth_3_joint,mA1/azimuth_4_joint,1.5533430342749532,-5.270894341022875,0.0,0.0
2025/04/05 15:42:30.734505682,0,0,,mA1/azimuth_1_joint,mA1/azimuth_2_joint,mA1/azimuth_3_joint,mA1/azimuth_4_joint,5.8817595792208905,-1.5533430342749532,0.0,0.0
2025/04/05 15:42:30.831059229,0,0,,mA1/azimuth_1_joint,mA1/azimuth_2_joint,mA1/azimuth_3_joint,mA1/azimuth_4_joint,1.5533430342749532,-5.375614096142535,0.0,0.0
2025/04/05 15:42:30.930706323,0,0,,mA1/azimuth_1_joint,mA1/azimuth_2_joint,mA1/azimuth_3_joint,mA1/azimuth_4_joint,1.5533430342749532,-5.689773361501515,0.0,0.0
2025/04/05 15:42:31.31322358,0,0,,mA1/azimuth_1_joint,mA1/azimuth_2_joint,mA1/azimuth_3_joint,mA1/azimuth_4_joint,1.5533430342749532,-5.689773361501515,0.0,0.0
2025/04/05 15:42:31.130666986,0,0,,mA1/azimuth_1_joint,mA1/azimuth_2_joint,mA1/azimuth_3_joint,mA1/azimuth_4_joint,1.5533430342749532,-5.707226654021458,0.0,0.0
2025/04/05 15:42:31.230457401,0,0,,mA1/azimuth_1_joint,mA1/azimuth_2_joint,mA1/azimuth_3_joint,mA1/azimuth_4_joint,1.5533430342749532,-5.707226654021458,0.0,0.0
2025/04/05 15:42:31.331667844,0,0,,mA1/azimuth_1_joint,mA1/azimuth_2_joint,mA1/azimuth_3_joint,mA1/azimuth_4_joint,1.5533430342749532,-5.550147021341968,0.0,0.0
2025/04/05 15:42:31.430125591,0,0,,mA1/azimuth_1_joint,mA1/azimuth_2_joint,mA1/azimuth_3_joint,mA1/azimuth_4_joint,1.5533430342749532,-5.654866776461628,0.0,0.0
2025/04/05 15:42:31.530973069,0,0,,mA1/azimuth_1_joint,mA1/azimuth_2_joint,mA1/azimuth_3_joint,mA1/azimuth_4_joint,1.5533430342749532,-5.515240436302081,0.0,0.0
2025/04/05 15:42:31.630291150,0,0,,mA1/azimuth_1_joint,mA1/azimuth_2_joint,mA1/azimuth_3_joint,mA1/azimuth_4_joint,1.5533430342749532,-5.707226654021458,0.0,0.0
2025/04/05 15:42:31.730761511,0,0,,mA1/azimuth_1_joint,mA1/azimuth_2_joint,mA1/azimuth_3_joint,mA1/azimuth_4_joint,1.5533430342749532,-5.619960191421741,0.0,0.0
2025/04/05 15:42:31.830144887,0,0,,mA1/azimuth_1_joint,mA1/azimuth_2_joint,mA1/azimuth_3_joint,mA1/azimuth_4_joint,1.5533430342749532,-5.358160803622591,0.0,0.0
2025/04/05 15:42:31.930363870,0,0,,mA1/azimuth_1_joint,mA1/azimuth_2_joint,mA1/azimuth_3_joint,mA1/azimuth_4_joint,1.5533430342749532,-5.6374134839416845,0.0,0.0
2025/04/05 15:42:32.30584835,0,0,,mA1/azimuth_1_joint,mA1/azimuth_2_joint,mA1/azimuth_3_joint,mA1/azimuth_4_joint,1.5533430342749532,-5.3930673886624785,0.0,0.0
2025/04/05 15:42:32.130124909,0,0,,mA1/azimuth_1_joint,mA1/azimuth_2_joint,mA1/azimuth_3_joint,mA1/azimuth_4_joint,5.811946409141117,-1.5533430342749532,-0.017453292519943295,0.0
2025/04/05 15:42:32.231020363,0,0,,mA1/azimuth_1_joint,mA1/azimuth_2_joint,mA1/azimuth_3_joint,mA1/azimuth_4_joint,1.5707963267948966,-4.5553093477052,0.0,0.0
2025/04/05 15:42:32.330125403,0,0,,mA1/azimuth_1_joint,mA1/azimuth_2_joint,mA1/azimuth_3_joint,mA1/azimuth_4_joint,1.5533430342749532,-5.585053606381854,0.0,0.0
2025/04/05 15:42:32.430171079,0,0,,mA1/azimuth_1_joint,mA1/azimuth_2_joint,mA1/azimuth_3_joint,mA1/azimuth_4_joint,1.5533430342749532,-4.974188368183839,0.0,0.0
2025/04/05 15:42:32.530865260,0,0,,mA1/azimuth_1_joint,mA1/azimuth_2_joint,mA1/azimuth_3_joint,mA1/azimuth_4_joint,1.5533430342749532,-4.956735075663896,0.0,0.0
2025/04/05 15:42:32.630402767,0,0,,mA1/azimuth_1_joint,mA1/azimuth_2_joint,mA1/azimuth_3_joint,mA1/azimuth_4_joint,1.5533430342749532,-5.340707511102648,0.0,0.0
2025/04/05 15:42:32.730991634,0,0,,mA1/azimuth_1_joint,mA1/azimuth_2_joint,mA1/azimuth_3_joint,mA1/azimuth_4_joint,1.5533430342749532,-5.3930673886624785,0.0,0.0
2025/04/05 15:42:32.832290455,0,0,,mA1/azimuth_1_joint,mA1/azimuth_2_joint,mA1/azimuth_3_joint,mA1/azimuth_4_joint,1.5533430342749532,-5.340707511102648,0.0,0.0
2025/04/05 15:42:32.930783034,0,0,,mA1/azimuth_1_joint,mA1/azimuth_2_joint,mA1/azimuth_3_joint,mA1/azimuth_4_joint,1.5533430342749532,-5.707226654021458,0.0,0.0
2025/04/05 15:42:33.30353202,0,0,,mA1/azimuth_1_joint,mA1/azimuth_2_joint,mA1/azimuth_3_joint,mA1/azimuth_4_joint,5.340707511102648,-1.5533430342749532,0.0,0.0
2025/04/05 15:42:33.130786117,0,0,,mA1/azimuth_1_joint,mA1/azimuth_2_joint,mA1/azimuth_3_joint,mA1/azimuth_4_joint,1.5707963267948966,-4.60766922526503,0.0,0.0
2025/04/05 15:42:33.230231816,0,0,,mA1/azimuth_1_joint,mA1/azimuth_2_joint,mA1/azimuth_3_joint,mA1/azimuth_4_joint,5.288347633542818,-1.5533430342749532,0.0,0.0
2025/04/05 15:42:33.330249442,0,0,,mA1/azimuth_1_joint,mA1/azimuth_2_joint,mA1/azimuth_3_joint,mA1/azimuth_4_joint,1.5707963267948966,-4.258603374866164,0.0,0.0
2025/04/05 15:42:33.430918197,0,0,,mA1/azimuth_1_joint,mA1/azimuth_2_joint,mA1/azimuth_3_joint,mA1/azimuth_4_joint,5.480333851262195,-1.5533430342749532,0.0,0.0
2025/04/05 15:42:33.532005524,0,0,,mA1/azimuth_1_joint,mA1/azimuth_2_joint,mA1/azimuth_3_joint,mA1/azimuth_4_joint,1.5707963267948966,-4.4331363000655974,0.0,0.0
2025/04/05 15:42:33.631056270,0,0,,mA1/azimuth_1_joint,mA1/azimuth_2_joint,mA1/azimuth_3_joint,mA1/azimuth_4_joint,5.305800926062762,-1.5533430342749532,0.0,0.0
2025/04/05 15:42:33.730150808,0,0,,mA1/azimuth_1_joint,mA1/azimuth_2_joint,mA1/azimuth_3_joint,mA1/azimuth_4_joint,4.34586983746588,-1.5707963267948966,-0.017453292519943295,0.0
2025/04/05 15:42:33.830929606,0,0,,mA1/azimuth_1_joint,mA1/azimuth_2_joint,mA1/azimuth_3_joint,mA1/azimuth_4_joint,1.5707963267948966,-5.6374134839416845,0.0,0.0
2025/04/05 15:42:33.930747017,0,0,,mA1/azimuth_1_joint,mA1/azimuth_2_joint,mA1/azimuth_3_joint,mA1/azimuth_4_joint,1.5533430342749532,-5.270894341022875,0.0,0.0
2025/04/05 15:42:34.30483491,0,0,,mA1/azimuth_1_joint,mA1/azimuth_2_joint,mA1/azimuth_3_joint,mA1/azimuth_4_joint,1.5533430342749532,-5.532693728822025,0.0,0.0
2025/04/05 15:42:34.130351339,0,0,,mA1/azimuth_1_joint,mA1/azimuth_2_joint,mA1/azimuth_3_joint,mA1/azimuth_4_joint,1.5533430342749532,-5.497787143782138,0.0,0.0
2025/04/05 15:42:34.230194481,0,0,,mA1/azimuth_1_joint,mA1/azimuth_2_joint,mA1/azimuth_3_joint,mA1/azimuth_4_joint,1.5533430342749532,-5.654866776461628,0.0,0.0
2025/04/05 15:42:34.330233292,0,0,,mA1/azimuth_1_joint,mA1/azimuth_2_joint,mA1/azimuth_3_joint,mA1/azimuth_4_joint,5.672320068981571,-1.5533430342749532,0.0,0.0
2025/04/05 15:42:34.430167565,0,0,,mA1/azimuth_1_joint,mA1/azimuth_2_joint,mA1/azimuth_3_joint,mA1/azimuth_4_joint,1.5533430342749532,-4.852015320544236,0.0,0.0
2025/04/05 15:42:34.530723930,0,0,,mA1/azimuth_1_joint,mA1/azimuth_2_joint,mA1/azimuth_3_joint,mA1/azimuth_4_joint,4.625122517784973,-1.5707963267948966,0.0,0.0
2025/04/05 15:42:34.630999307,0,0,,mA1/azimuth_1_joint,mA1/azimuth_2_joint,mA1/azimuth_3_joint,mA1/azimuth_4_joint,4.084070449666731,-1.5707963267948966,0.0,0.0
2025/04/05 15:42:34.731212782,0,0,,mA1/azimuth_1_joint,mA1/azimuth_2_joint,mA1/azimuth_3_joint,mA1/azimuth_4_joint,1.5533430342749532,-5.934119456780721,0.0,0.0
2025/04/05 15:42:34.830601758,0,0,,mA1/azimuth_1_joint,mA1/azimuth_2_joint,mA1/azimuth_3_joint,mA1/azimuth_4_joint,5.427973973702365,-1.5533430342749532,0.0,0.0
2025/04/05 15:42:34.931250278,0,0,,mA1/azimuth_1_joint,mA1/azimuth_2_joint,mA1/azimuth_3_joint,mA1/azimuth_4_joint,1.5707963267948966,-4.39822971502571,0.0,0.0
2025/04/05 15:42:35.30983293,0,0,,mA1/azimuth_1_joint,mA1/azimuth_2_joint,mA1/azimuth_3_joint,mA1/azimuth_4_joint,5.358160803622591,-1.5533430342749532,0.0,0.0
2025/04/05 15:42:35.131386479,0,0,,mA1/azimuth_1_joint,mA1/azimuth_2_joint,mA1/azimuth_3_joint,mA1/azimuth_4_joint,1.5707963267948966,-4.328416544945937,0.0,0.0
2025/04/05 15:42:35.230140942,0,0,,mA1/azimuth_1_joint,mA1/azimuth_2_joint,mA1/azimuth_3_joint,mA1/azimuth_4_joint,1.5533430342749532,-5.026548245743669,0.0,0.0
2025/04/05 15:42:35.330295156,0,0,,mA1/azimuth_1_joint,mA1/azimuth_2_joint,mA1/azimuth_3_joint,mA1/azimuth_4_joint,4.991641660703783,-1.5533430342749532,0.0,0.0
2025/04/05 15:42:35.430589559,0,0,,mA1/azimuth_1_joint,mA1/azimuth_2_joint,mA1/azimuth_3_joint,mA1/azimuth_4_joint,1.5707963267948966,-4.590215932745087,0.0,0.0
2025/04/05 15:42:35.531045461,0,0,,mA1/azimuth_1_joint,mA1/azimuth_2_joint,mA1/azimuth_3_joint,mA1/azimuth_4_joint,4.834562028024293,-1.5533430342749532,0.0,0.0
2025/04/05 15:42:35.631132144,0,0,,mA1/azimuth_1_joint,mA1/azimuth_2_joint,mA1/azimuth_3_joint,mA1/azimuth_4_joint,4.34586983746588,-1.5707963267948966,0.0,0.0
2025/04/05 15:42:35.730205363,0,0,,mA1/azimuth_1_joint,mA1/azimuth_2_joint,mA1/azimuth_3_joint,mA1/azimuth_4_joint,4.468042885105484,-1.5707963267948966,0.0,0.0
2025/04/05 15:42:35.830346180,0,0,,mA1/azimuth_1_joint,mA1/azimuth_2_joint,mA1/azimuth_3_joint,mA1/azimuth_4_joint,4.468042885105484,-1.5707963267948966,0.0,0.0
2025/04/05 15:42:35.931477562,0,0,,mA1/azimuth_1_joint,mA1/azimuth_2_joint,mA1/azimuth_3_joint,mA1/azimuth_4_joint,5.899212871740834,-1.5533430342749532,0.0,0.0
2025/04/05 15:42:36.30708190,0,0,,mA1/azimuth_1_joint,mA1/azimuth_2_joint,mA1/azimuth_3_joint,mA1/azimuth_4_joint,4.485496177625427,-1.5707963267948966,0.0,0.0
2025/04/05 15:42:36.130670447,0,0,,mA1/azimuth_1_joint,mA1/azimuth_2_joint,mA1/azimuth_3_joint,mA1/azimuth_4_joint,5.375614096142535,-1.5533430342749532,0.0,0.0
2025/04/05 15:42:36.230306597,0,0,,mA1/azimuth_1_joint,mA1/azimuth_2_joint,mA1/azimuth_3_joint,mA1/azimuth_4_joint,1.5533430342749532,-5.253441048502932,0.0,0.0
2025/04/05 15:42:36.330099789,0,0,,mA1/azimuth_1_joint,mA1/azimuth_2_joint,mA1/azimuth_3_joint,mA1/azimuth_4_joint,1.5707963267948966,-0.6632251157578453,0.0,0.0
2025/04/05 15:42:36.431812210,0,0,,mA1/azimuth_1_joint,mA1/azimuth_2_joint,mA1/azimuth_3_joint,mA1/azimuth_4_joint,1.5533430342749532,-5.794493116621174,0.0,0.0
2025/04/05 15:42:36.531696390,0,0,,mA1/azimuth_1_joint,mA1/azimuth_2_joint,mA1/azimuth_3_joint,mA1/azimuth_4_joint,1.5533430342749532,-5.742133239061344,0.0,0.0
