time,header_stamp_secs,header_stamp_nsecs,header_frame_id,status_status,status_service,latitude,longitude,altitude,position_covariance_0,position_covariance_1,position_covariance_2,position_covariance_3,position_covariance_4,position_covariance_5,position_covariance_6,position_covariance_7,position_covariance_8,position_covariance_type
2025/04/10 10:33:49.300483346,1744274029,299382288,mA1/gps,0,1,63.43459709131475,10.392891520418456,0.0,1.4400000000000002e-10,0.0,0.0,0.0,1.4400000000000002e-10,0.0,0.0,0.0,1.0,2
2025/04/10 10:33:49.350749365,1744274029,349995654,mA1/gps,0,1,63.43459709095341,10.39289151952115,0.0,1.4400000000000002e-10,0.0,0.0,0.0,1.4400000000000002e-10,0.0,0.0,0.0,1.0,2
2025/04/10 10:33:49.401521543,1744274029,400873456,mA1/gps,0,1,63.434597090596995,10.39289151841603,0.0,1.4400000000000002e-10,0.0,0.0,0.0,1.4400000000000002e-10,0.0,0.0,0.0,1.0,2
2025/04/10 10:33:49.451939349,1744274029,451601652,mA1/gps,0,1,63.43459708996838,10.392891517138434,0.0,1.4400000000000002e-10,0.0,0.0,0.0,1.4400000000000002e-10,0.0,0.0,0.0,1.0,2
2025/04/10 10:33:49.501945941,1744274029,501644524,mA1/gps,0,1,63.434597090434295,10.392891516823221,0.0,1.4400000000000002e-10,0.0,0.0,0.0,1.4400000000000002e-10,0.0,0.0,0.0,1.0,2
2025/04/10 10:33:49.552562301,1744274029,552474192,mA1/gps,0,1,63.43459709115846,10.392891515667998,0.0,1.4400000000000002e-10,0.0,0.0,0.0,1.4400000000000002e-10,0.0,0.0,0.0,1.0,2
2025/04/10 10:33:49.603520906,1744274029,603346849,mA1/gps,0,1,63.434597091964946,10.392891515254618,0.0,1.4400000000000002e-10,0.0,0.0,0.0,1.4400000000000002e-10,0.0,0.0,0.0,1.0,2
2025/04/10 10:33:49.658212075,1744274029,656687443,mA1/gps,0,1,63.43459709167113,10.392891515403885,0.0,1.4400000000000002e-10,0.0,0.0,0.0,1.4400000000000002e-10,0.0,0.0,0.0,1.0,2
2025/04/10 10:33:49.695497131,1744274029,695210321,mA1/gps,0,1,63.43459709120548,10.392891515559912,0.0,1.4400000000000002e-10,0.0,0.0,0.0,1.4400000000000002e-10,0.0,0.0,0.0,1.0,2
2025/04/10 10:33:49.747898634,1744274029,744488080,mA1/gps,0,1,63.43459709066687,10.39289151683597,0.0,1.4400000000000002e-10,0.0,0.0,0.0,1.4400000000000002e-10,0.0,0.0,0.0,1.0,2
2025/04/10 10:33:49.797385941,1744274029,797122757,mA1/gps,0,1,63.43459709141413,10.392891518045095,0.0,1.4400000000000002e-10,0.0,0.0,0.0,1.4400000000000002e-10,0.0,0.0,0.0,1.0,2
2025/04/10 10:33:49.847728010,1744274029,847571911,mA1/gps,0,1,63.43459709189375,10.392891520305527,0.0,1.4400000000000002e-10,0.0,0.0,0.0,1.4400000000000002e-10,0.0,0.0,0.0,1.0,2
2025/04/10 10:33:49.898336503,1744274029,898093276,mA1/gps,0,1,63.434597092523326,10.392891523045204,0.0,1.4400000000000002e-10,0.0,0.0,0.0,1.4400000000000002e-10,0.0,0.0,0.0,1.0,2
2025/04/10 10:33:49.949809162,1744274029,948769574,mA1/gps,0,1,63.434597092277215,10.392891526133143,0.0,1.4400000000000002e-10,0.0,0.0,0.0,1.4400000000000002e-10,0.0,0.0,0.0,1.0,2
2025/04/10 10:33:49.999840675,1744274029,999451955,mA1/gps,0,1,63.43459709209299,10.392891529978499,0.0,1.4400000000000002e-10,0.0,0.0,0.0,1.4400000000000002e-10,0.0,0.0,0.0,1.0,2
2025/04/10 10:33:50.52309241,1744274030,51861623,mA1/gps,0,1,63.43459709152395,10.39289153355102,0.0,1.4400000000000002e-10,0.0,0.0,0.0,1.4400000000000002e-10,0.0,0.0,0.0,1.0,2
2025/04/10 10:33:50.103782955,1744274030,103572569,mA1/gps,0,1,63.43459709215743,10.392891536979269,0.0,1.4400000000000002e-10,0.0,0.0,0.0,1.4400000000000002e-10,0.0,0.0,0.0,1.0,2
2025/04/10 10:33:50.153773631,1744274030,153513225,mA1/gps,0,1,63.43459709273468,10.39289154135012,0.0,1.4400000000000002e-10,0.0,0.0,0.0,1.4400000000000002e-10,0.0,0.0,0.0,1.0,2
2025/04/10 10:33:50.194728073,1744274030,194409677,mA1/gps,0,1,63.434597093563596,10.392891544057191,0.0,1.4400000000000002e-10,0.0,0.0,0.0,1.4400000000000002e-10,0.0,0.0,0.0,1.0,2
2025/04/10 10:33:50.246751651,1744274030,244147053,mA1/gps,0,1,63.43459709328427,10.392891547706375,0.0,1.4400000000000002e-10,0.0,0.0,0.0,1.4400000000000002e-10,0.0,0.0,0.0,1.0,2
2025/04/10 10:33:50.295473763,1744274030,295208305,mA1/gps,0,1,63.434597092909556,10.392891549729262,0.0,1.4400000000000002e-10,0.0,0.0,0.0,1.4400000000000002e-10,0.0,0.0,0.0,1.0,2
2025/04/10 10:33:50.348808256,1744274030,348469171,mA1/gps,0,1,63.434597092503054,10.392891551288733,0.0,1.4400000000000002e-10,0.0,0.0,0.0,1.4400000000000002e-10,0.0,0.0,0.0,1.0,2
2025/04/10 10:33:50.399884031,1744274030,399347977,mA1/gps,0,1,63.43459709322468,10.39289155317415,0.0,1.4400000000000002e-10,0.0,0.0,0.0,1.4400000000000002e-10,0.0,0.0,0.0,1.0,2
2025/04/10 10:33:50.449403848,1744274030,449142219,mA1/gps,0,1,63.43459709378536,10.392891553325297,0.0,1.4400000000000002e-10,0.0,0.0,0.0,1.4400000000000002e-10,0.0,0.0,0.0,1.0,2
2025/04/10 10:33:50.500755782,1744274030,500565908,mA1/gps,0,1,63.434597094728964,10.392891553022624,0.0,1.4400000000000002e-10,0.0,0.0,0.0,1.4400000000000002e-10,0.0,0.0,0.0,1.0,2
2025/04/10 10:33:50.550878068,1744274030,550724075,mA1/gps,0,1,63.43459709440666,10.392891552798769,0.0,1.4400000000000002e-10,0.0,0.0,0.0,1.4400000000000002e-10,0.0,0.0,0.0,1.0,2
2025/04/10 10:33:50.601963091,1744274030,601669403,mA1/gps,0,1,63.43459709393888,10.39289155169271,0.0,1.4400000000000002e-10,0.0,0.0,0.0,1.4400000000000002e-10,0.0,0.0,0.0,1.0,2
2025/04/10 10:33:50.651641476,1744274030,651468437,mA1/gps,0,1,63.43459709350629,10.392891550517843,0.0,1.4400000000000002e-10,0.0,0.0,0.0,1.4400000000000002e-10,0.0,0.0,0.0,1.0,2
2025/04/10 10:33:50.702700029,1744274030,702421714,mA1/gps,0,1,63.43459709406129,10.392891549825816,0.0,1.4400000000000002e-10,0.0,0.0,0.0,1.4400000000000002e-10,0.0,0.0,0.0,1.0,2
2025/04/10 10:33:50.753250485,1744274030,752572900,mA1/gps,0,1,63.434597094652474,10.392891549109198,0.0,1.4400000000000002e-10,0.0,0.0,0.0,1.4400000000000002e-10,0.0,0.0,0.0,1.0,2
2025/04/10 10:33:50.803308192,1744274030,803147749,mA1/gps,0,1,63.43459709524076,10.39289154899956,0.0,1.4400000000000002e-10,0.0,0.0,0.0,1.4400000000000002e-10,0.0,0.0,0.0,1.0,2
2025/04/10 10:33:50.854048345,1744274030,853642947,mA1/gps,0,1,63.434597095003824,10.392891548982382,0.0,1.4400000000000002e-10,0.0,0.0,0.0,1.4400000000000002e-10,0.0,0.0,0.0,1.0,2
2025/04/10 10:33:50.894689806,1744274030,894509921,mA1/gps,0,1,63.43459709456096,10.392891549277396,0.0,1.4400000000000002e-10,0.0,0.0,0.0,1.4400000000000002e-10,0.0,0.0,0.0,1.0,2
2025/04/10 10:33:50.944578596,1744274030,944327918,mA1/gps,0,1,63.434597094037926,10.392891549896333,0.0,1.4400000000000002e-10,0.0,0.0,0.0,1.4400000000000002e-10,0.0,0.0,0.0,1.0,2
2025/04/10 10:33:50.997266693,1744274030,995590052,mA1/gps,0,1,63.43459709453845,10.392891551311628,0.0,1.4400000000000002e-10,0.0,0.0,0.0,1.4400000000000002e-10,0.0,0.0,0.0,1.0,2
2025/04/10 10:33:51.45771143,1744274031,45288472,mA1/gps,0,1,63.43459709515256,10.392891553490463,0.0,1.4400000000000002e-10,0.0,0.0,0.0,1.4400000000000002e-10,0.0,0.0,0.0,1.0,2
2025/04/10 10:33:51.96932038,1744274031,96663275,mA1/gps,0,1,63.434597095809025,10.392891555830829,0.0,1.4400000000000002e-10,0.0,0.0,0.0,1.4400000000000002e-10,0.0,0.0,0.0,1.0,2
2025/04/10 10:33:51.146537380,1744274031,146286110,mA1/gps,0,1,63.43459709532812,10.392891557658906,0.0,1.4400000000000002e-10,0.0,0.0,0.0,1.4400000000000002e-10,0.0,0.0,0.0,1.0,2
2025/04/10 10:33:51.197751710,1744274031,197327877,mA1/gps,0,1,63.43459709504254,10.392891559983955,0.0,1.4400000000000002e-10,0.0,0.0,0.0,1.4400000000000002e-10,0.0,0.0,0.0,1.0,2
2025/04/10 10:33:51.247361850,1744274031,247166537,mA1/gps,0,1,63.434597094512185,10.392891562056734,0.0,1.4400000000000002e-10,0.0,0.0,0.0,1.4400000000000002e-10,0.0,0.0,0.0,1.0,2
2025/04/10 10:33:51.300232579,1744274031,298099307,mA1/gps,0,1,63.43459709523678,10.392891564162088,0.0,1.4400000000000002e-10,0.0,0.0,0.0,1.4400000000000002e-10,0.0,0.0,0.0,1.0,2
2025/04/10 10:33:51.349912079,1744274031,348519716,mA1/gps,0,1,63.43459709577003,10.392891566525428,0.0,1.4400000000000002e-10,0.0,0.0,0.0,1.4400000000000002e-10,0.0,0.0,0.0,1.0,2
2025/04/10 10:33:51.401602142,1744274031,400970909,mA1/gps,0,1,63.43459709655828,10.392891568472306,0.0,1.4400000000000002e-10,0.0,0.0,0.0,1.4400000000000002e-10,0.0,0.0,0.0,1.0,2
2025/04/10 10:33:51.451196069,1744274031,449378575,mA1/gps,0,1,63.434597096314974,10.392891569847666,0.0,1.4400000000000002e-10,0.0,0.0,0.0,1.4400000000000002e-10,0.0,0.0,0.0,1.0,2
2025/04/10 10:33:51.500782700,1744274031,500668996,mA1/gps,0,1,63.43459709585694,10.392891571177767,0.0,1.4400000000000002e-10,0.0,0.0,0.0,1.4400000000000002e-10,0.0,0.0,0.0,1.0,2
2025/04/10 10:33:51.550583735,1744274031,550337381,mA1/gps,0,1,63.434597095504024,10.39289157167705,0.0,1.4400000000000002e-10,0.0,0.0,0.0,1.4400000000000002e-10,0.0,0.0,0.0,1.0,2
2025/04/10 10:33:51.601481293,1744274031,601273072,mA1/gps,0,1,63.434597096013206,10.392891572346429,0.0,1.4400000000000002e-10,0.0,0.0,0.0,1.4400000000000002e-10,0.0,0.0,0.0,1.0,2
2025/04/10 10:33:51.651310800,1744274031,651080702,mA1/gps,0,1,63.43459709678928,10.392891572629319,0.0,1.4400000000000002e-10,0.0,0.0,0.0,1.4400000000000002e-10,0.0,0.0,0.0,1.0,2
2025/04/10 10:33:51.702252860,1744274031,702014999,mA1/gps,0,1,63.43459709744386,10.39289157284683,0.0,1.4400000000000002e-10,0.0,0.0,0.0,1.4400000000000002e-10,0.0,0.0,0.0,1.0,2
2025/04/10 10:33:51.752537317,1744274031,751860542,mA1/gps,0,1,63.43459709709024,10.392891572676906,0.0,1.4400000000000002e-10,0.0,0.0,0.0,1.4400000000000002e-10,0.0,0.0,0.0,1.0,2
2025/04/10 10:33:51.803169544,1744274031,803076476,mA1/gps,0,1,63.43459709684808,10.392891572669738,0.0,1.4400000000000002e-10,0.0,0.0,0.0,1.4400000000000002e-10,0.0,0.0,0.0,1.0,2
2025/04/10 10:33:51.852763154,1744274031,852619347,mA1/gps,0,1,63.43459709629066,10.39289157248756,0.0,1.4400000000000002e-10,0.0,0.0,0.0,1.4400000000000002e-10,0.0,0.0,0.0,1.0,2
2025/04/10 10:33:51.903816471,1744274031,903551161,mA1/gps,0,1,63.43459709698014,10.392891572634257,0.0,1.4400000000000002e-10,0.0,0.0,0.0,1.4400000000000002e-10,0.0,0.0,0.0,1.0,2
2025/04/10 10:33:51.953623423,1744274031,953469840,mA1/gps,0,1,63.434597097623644,10.392891572912145,0.0,1.4400000000000002e-10,0.0,0.0,0.0,1.4400000000000002e-10,0.0,0.0,0.0,1.0,2
2025/04/10 10:33:51.994860475,1744274031,994476035,mA1/gps,0,1,63.43459709851253,10.392891573230598,0.0,1.4400000000000002e-10,0.0,0.0,0.0,1.4400000000000002e-10,0.0,0.0,0.0,1.0,2
2025/04/10 10:33:52.44685778,1744274032,44191435,mA1/gps,0,1,63.43459709820738,10.392891573455508,0.0,1.4400000000000002e-10,0.0,0.0,0.0,1.4400000000000002e-10,0.0,0.0,0.0,1.0,2
2025/04/10 10:33:52.95506413,1744274032,95157287,mA1/gps,0,1,63.434597097851636,10.392891573760476,0.0,1.4400000000000002e-10,0.0,0.0,0.0,1.4400000000000002e-10,0.0,0.0,0.0,1.0,2
2025/04/10 10:33:52.146201656,1744274032,145197182,mA1/gps,0,1,63.43459709730725,10.392891574372884,0.0,1.4400000000000002e-10,0.0,0.0,0.0,1.4400000000000002e-10,0.0,0.0,0.0,1.0,2
2025/04/10 10:33:52.196788823,1744274032,196246548,mA1/gps,0,1,63.43459709780509,10.392891574518206,0.0,1.4400000000000002e-10,0.0,0.0,0.0,1.4400000000000002e-10,0.0,0.0,0.0,1.0,2
2025/04/10 10:33:52.248739040,1744274032,246180818,mA1/gps,0,1,63.43459709834063,10.392891575413186,0.0,1.4400000000000002e-10,0.0,0.0,0.0,1.4400000000000002e-10,0.0,0.0,0.0,1.0,2
2025/04/10 10:33:52.297437975,1744274032,297254824,mA1/gps,0,1,63.43459709901446,10.392891575984013,0.0,1.4400000000000002e-10,0.0,0.0,0.0,1.4400000000000002e-10,0.0,0.0,0.0,1.0,2
2025/04/10 10:33:52.349216364,1744274032,347261902,mA1/gps,0,1,63.43459709867828,10.392891577064196,0.0,1.4400000000000002e-10,0.0,0.0,0.0,1.4400000000000002e-10,0.0,0.0,0.0,1.0,2
2025/04/10 10:33:52.398605174,1744274032,398410594,mA1/gps,0,1,63.43459709795841,10.392891578134583,0.0,1.4400000000000002e-10,0.0,0.0,0.0,1.4400000000000002e-10,0.0,0.0,0.0,1.0,2
2025/04/10 10:33:52.451204037,1744274032,450054664,mA1/gps,0,1,63.43459709751902,10.392891579275803,0.0,1.4400000000000002e-10,0.0,0.0,0.0,1.4400000000000002e-10,0.0,0.0,0.0,1.0,2
2025/04/10 10:33:52.504914660,1744274032,503001264,mA1/gps,0,1,63.43459709817712,10.392891580159764,0.0,1.4400000000000002e-10,0.0,0.0,0.0,1.4400000000000002e-10,0.0,0.0,0.0,1.0,2
2025/04/10 10:33:52.551162118,1744274032,550922689,mA1/gps,0,1,63.43459709868602,10.39289158229997,0.0,1.4400000000000002e-10,0.0,0.0,0.0,1.4400000000000002e-10,0.0,0.0,0.0,1.0,2
2025/04/10 10:33:52.602912346,1744274032,601996182,mA1/gps,0,1,63.43459709904412,10.392891583577196,0.0,1.4400000000000002e-10,0.0,0.0,0.0,1.4400000000000002e-10,0.0,0.0,0.0,1.0,2
2025/04/10 10:33:52.653230778,1744274032,651875405,mA1/gps,0,1,63.43459709909838,10.392891585462182,0.0,1.4400000000000002e-10,0.0,0.0,0.0,1.4400000000000002e-10,0.0,0.0,0.0,1.0,2
2025/04/10 10:33:52.703134426,1744274032,702774692,mA1/gps,0,1,63.43459709871985,10.392891587821367,0.0,1.4400000000000002e-10,0.0,0.0,0.0,1.4400000000000002e-10,0.0,0.0,0.0,1.0,2
2025/04/10 10:33:52.752970627,1744274032,752581206,mA1/gps,0,1,63.434597097986206,10.392891589034493,0.0,1.4400000000000002e-10,0.0,0.0,0.0,1.4400000000000002e-10,0.0,0.0,0.0,1.0,2
2025/04/10 10:33:52.804919034,1744274032,803979838,mA1/gps,0,1,63.43459709876079,10.39289159076711,0.0,1.4400000000000002e-10,0.0,0.0,0.0,1.4400000000000002e-10,0.0,0.0,0.0,1.0,2
2025/04/10 10:33:52.856074767,1744274032,855862604,mA1/gps,0,1,63.43459709905061,10.39289159214521,0.0,1.4400000000000002e-10,0.0,0.0,0.0,1.4400000000000002e-10,0.0,0.0,0.0,1.0,2
2025/04/10 10:33:52.896319743,1744274032,896028634,mA1/gps,0,1,63.43459709983659,10.392891593520565,0.0,1.4400000000000002e-10,0.0,0.0,0.0,1.4400000000000002e-10,0.0,0.0,0.0,1.0,2
2025/04/10 10:33:52.946322760,1744274032,946083147,mA1/gps,0,1,63.434597099425204,10.392891595001114,0.0,1.4400000000000002e-10,0.0,0.0,0.0,1.4400000000000002e-10,0.0,0.0,0.0,1.0,2
2025/04/10 10:33:52.997417581,1744274032,997093823,mA1/gps,0,1,63.43459709925721,10.39289159602879,0.0,1.4400000000000002e-10,0.0,0.0,0.0,1.4400000000000002e-10,0.0,0.0,0.0,1.0,2
2025/04/10 10:33:53.48984494,1744274033,46982104,mA1/gps,0,1,63.434597098737186,10.392891597243583,0.0,1.4400000000000002e-10,0.0,0.0,0.0,1.4400000000000002e-10,0.0,0.0,0.0,1.0,2
2025/04/10 10:33:53.98170519,1744274033,97876958,mA1/gps,0,1,63.43459709932227,10.392891598029985,0.0,1.4400000000000002e-10,0.0,0.0,0.0,1.4400000000000002e-10,0.0,0.0,0.0,1.0,2
2025/04/10 10:33:53.148022397,1744274033,147714729,mA1/gps,0,1,63.43459709991325,10.392891598664875,0.0,1.4400000000000002e-10,0.0,0.0,0.0,1.4400000000000002e-10,0.0,0.0,0.0,1.0,2
2025/04/10 10:33:53.199088301,1744274033,198708729,mA1/gps,0,1,63.43459710086713,10.39289159934527,0.0,1.4400000000000002e-10,0.0,0.0,0.0,1.4400000000000002e-10,0.0,0.0,0.0,1.0,2
2025/04/10 10:33:53.248623836,1744274033,248503508,mA1/gps,0,1,63.43459710031746,10.392891599789268,0.0,1.4400000000000002e-10,0.0,0.0,0.0,1.4400000000000002e-10,0.0,0.0,0.0,1.0,2
2025/04/10 10:33:53.301117533,1744274033,299516093,mA1/gps,0,1,63.434597099943524,10.392891599863741,0.0,1.4400000000000002e-10,0.0,0.0,0.0,1.4400000000000002e-10,0.0,0.0,0.0,1.0,2
2025/04/10 10:33:53.349475336,1744274033,349307746,mA1/gps,0,1,63.43459709958226,10.392891600667644,0.0,1.4400000000000002e-10,0.0,0.0,0.0,1.4400000000000002e-10,0.0,0.0,0.0,1.0,2
2025/04/10 10:33:53.401337833,1744274033,401006383,mA1/gps,0,1,63.434597100245796,10.392891600712264,0.0,1.4400000000000002e-10,0.0,0.0,0.0,1.4400000000000002e-10,0.0,0.0,0.0,1.0,2
2025/04/10 10:33:53.451172019,1744274033,450968010,mA1/gps,0,1,63.434597101062316,10.392891601301411,0.0,1.4400000000000002e-10,0.0,0.0,0.0,1.4400000000000002e-10,0.0,0.0,0.0,1.0,2
2025/04/10 10:33:53.502697501,1744274033,502018097,mA1/gps,0,1,63.4345971014925,10.392891601793593,0.0,1.4400000000000002e-10,0.0,0.0,0.0,1.4400000000000002e-10,0.0,0.0,0.0,1.0,2
2025/04/10 10:33:53.552014198,1744274033,551817720,mA1/gps,0,1,63.43459710136303,10.392891602194476,0.0,1.4400000000000002e-10,0.0,0.0,0.0,1.4400000000000002e-10,0.0,0.0,0.0,1.0,2
2025/04/10 10:33:53.603957163,1744274033,603382719,mA1/gps,0,1,63.434597100891075,10.392891602881786,0.0,1.4400000000000002e-10,0.0,0.0,0.0,1.4400000000000002e-10,0.0,0.0,0.0,1.0,2
2025/04/10 10:33:53.655112782,1744274033,653235273,mA1/gps,0,1,63.43459710036586,10.392891604160187,0.0,1.4400000000000002e-10,0.0,0.0,0.0,1.4400000000000002e-10,0.0,0.0,0.0,1.0,2
2025/04/10 10:33:53.704879339,1744274033,704220276,mA1/gps,0,1,63.43459710083966,10.3928916044651,0.0,1.4400000000000002e-10,0.0,0.0,0.0,1.4400000000000002e-10,0.0,0.0,0.0,1.0,2
2025/04/10 10:33:53.744263408,1744274033,743984924,mA1/gps,0,1,63.43459710143052,10.39289160619765,0.0,1.4400000000000002e-10,0.0,0.0,0.0,1.4400000000000002e-10,0.0,0.0,0.0,1.0,2
2025/04/10 10:33:53.795598978,1744274033,795367817,mA1/gps,0,1,63.43459710212866,10.392891606949558,0.0,1.4400000000000002e-10,0.0,0.0,0.0,1.4400000000000002e-10,0.0,0.0,0.0,1.0,2
2025/04/10 10:33:53.846716433,1744274033,845132815,mA1/gps,0,1,63.43459710183745,10.392891608654306,0.0,1.4400000000000002e-10,0.0,0.0,0.0,1.4400000000000002e-10,0.0,0.0,0.0,1.0,2
2025/04/10 10:33:53.898172785,1744274033,896148920,mA1/gps,0,1,63.434597101286954,10.392891609948375,0.0,1.4400000000000002e-10,0.0,0.0,0.0,1.4400000000000002e-10,0.0,0.0,0.0,1.0,2
2025/04/10 10:33:53.946895096,1744274033,946003734,mA1/gps,0,1,63.434597100552125,10.392891611195736,0.0,1.4400000000000002e-10,0.0,0.0,0.0,1.4400000000000002e-10,0.0,0.0,0.0,1.0,2
2025/04/10 10:33:53.998888107,1744274033,996922017,mA1/gps,0,1,63.43459710115039,10.392891612655578,0.0,1.4400000000000002e-10,0.0,0.0,0.0,1.4400000000000002e-10,0.0,0.0,0.0,1.0,2
2025/04/10 10:33:54.46968091,1744274034,46717233,mA1/gps,0,1,63.43459710159728,10.392891612805458,0.0,1.4400000000000002e-10,0.0,0.0,0.0,1.4400000000000002e-10,0.0,0.0,0.0,1.0,2
2025/04/10 10:33:54.97937086,1744274034,97581469,mA1/gps,0,1,63.43459710275601,10.392891607897315,0.0,1.4400000000000002e-10,0.0,0.0,0.0,1.4400000000000002e-10,0.0,0.0,0.0,1.0,2
2025/04/10 10:33:54.147786413,1744274034,147541187,mA1/gps,0,1,63.43459710328444,10.392891603557745,0.0,1.4400000000000002e-10,0.0,0.0,0.0,1.4400000000000002e-10,0.0,0.0,0.0,1.0,2
2025/04/10 10:33:54.200459182,1744274034,198536132,mA1/gps,0,1,63.43459710392664,10.392891600983091,0.0,1.4400000000000002e-10,0.0,0.0,0.0,1.4400000000000002e-10,0.0,0.0,0.0,1.0,2
2025/04/10 10:33:54.248757746,1744274034,248441656,mA1/gps,0,1,63.43459710441136,10.392891599877299,0.0,1.4400000000000002e-10,0.0,0.0,0.0,1.4400000000000002e-10,0.0,0.0,0.0,1.0,2
2025/04/10 10:33:54.299719220,1744274034,299376588,mA1/gps,0,1,63.43459710704893,10.392891601217912,0.0,1.4400000000000002e-10,0.0,0.0,0.0,1.4400000000000002e-10,0.0,0.0,0.0,1.0,2
2025/04/10 10:33:54.349368451,1744274034,349168205,mA1/gps,0,1,63.434597108974394,10.392891605162271,0.0,1.4400000000000002e-10,0.0,0.0,0.0,1.4400000000000002e-10,0.0,0.0,0.0,1.0,2
2025/04/10 10:33:54.400556217,1744274034,400145134,mA1/gps,0,1,63.43459711365784,10.392891612290805,0.0,1.4400000000000002e-10,0.0,0.0,0.0,1.4400000000000002e-10,0.0,0.0,0.0,1.0,2
2025/04/10 10:33:54.451351095,1744274034,451036011,mA1/gps,0,1,63.43459711905445,10.39289162121511,0.0,1.4400000000000002e-10,0.0,0.0,0.0,1.4400000000000002e-10,0.0,0.0,0.0,1.0,2
2025/04/10 10:33:54.504096652,1744274034,503753094,mA1/gps,0,1,63.434597127752134,10.392891632742078,0.0,1.4400000000000002e-10,0.0,0.0,0.0,1.4400000000000002e-10,0.0,0.0,0.0,1.0,2
2025/04/10 10:33:54.553453943,1744274034,553247780,mA1/gps,0,1,63.43459713813754,10.392891645102091,0.0,1.4400000000000002e-10,0.0,0.0,0.0,1.4400000000000002e-10,0.0,0.0,0.0,1.0,2
2025/04/10 10:33:54.595211709,1744274034,594909509,mA1/gps,0,1,63.43459715033713,10.392891657235758,0.0,1.4400000000000002e-10,0.0,0.0,0.0,1.4400000000000002e-10,0.0,0.0,0.0,1.0,2
2025/04/10 10:33:54.647239076,1744274034,645036153,mA1/gps,0,1,63.43459716512591,10.392891669433334,0.0,1.4400000000000002e-10,0.0,0.0,0.0,1.4400000000000002e-10,0.0,0.0,0.0,1.0,2
2025/04/10 10:33:54.698954351,1744274034,696117162,mA1/gps,0,1,63.43459718385397,10.392891679524867,0.0,1.4400000000000002e-10,0.0,0.0,0.0,1.4400000000000002e-10,0.0,0.0,0.0,1.0,2
2025/04/10 10:33:54.746215057,1744274034,746030698,mA1/gps,0,1,63.434597204734445,10.3928916871916,0.0,1.4400000000000002e-10,0.0,0.0,0.0,1.4400000000000002e-10,0.0,0.0,0.0,1.0,2
2025/04/10 10:33:54.797889498,1744274034,797597173,mA1/gps,0,1,63.434597229886236,10.392891692150501,0.0,1.4400000000000002e-10,0.0,0.0,0.0,1.4400000000000002e-10,0.0,0.0,0.0,1.0,2
2025/04/10 10:33:54.848465239,1744274034,847726732,mA1/gps,0,1,63.43459725890777,10.392891695655676,0.0,1.4400000000000002e-10,0.0,0.0,0.0,1.4400000000000002e-10,0.0,0.0,0.0,1.0,2
2025/04/10 10:33:54.898854261,1744274034,898763057,mA1/gps,0,1,63.434597290781696,10.39289169589785,0.0,1.4400000000000002e-10,0.0,0.0,0.0,1.4400000000000002e-10,0.0,0.0,0.0,1.0,2
2025/04/10 10:33:54.948984658,1744274034,948812067,mA1/gps,0,1,63.43459732702532,10.3928916929625,0.0,1.4400000000000002e-10,0.0,0.0,0.0,1.4400000000000002e-10,0.0,0.0,0.0,1.0,2
2025/04/10 10:33:55.1834,1744274034,999662995,mA1/gps,0,1,63.434597365547,10.392891687654492,0.0,1.4400000000000002e-10,0.0,0.0,0.0,1.4400000000000002e-10,0.0,0.0,0.0,1.0,2
2025/04/10 10:33:55.49624629,1744274035,49390014,mA1/gps,0,1,63.43459740748463,10.39289167985114,0.0,1.4400000000000002e-10,0.0,0.0,0.0,1.4400000000000002e-10,0.0,0.0,0.0,1.0,2
2025/04/10 10:33:55.102336639,1744274035,100377830,mA1/gps,0,1,63.43459745311692,10.392891669112146,0.0,1.4400000000000002e-10,0.0,0.0,0.0,1.4400000000000002e-10,0.0,0.0,0.0,1.0,2
2025/04/10 10:33:55.151314746,1744274035,151177947,mA1/gps,0,1,63.43459750126654,10.392891656963657,0.0,1.4400000000000002e-10,0.0,0.0,0.0,1.4400000000000002e-10,0.0,0.0,0.0,1.0,2
2025/04/10 10:33:55.202378472,1744274035,202154549,mA1/gps,0,1,63.43459755105552,10.39289164418877,0.0,1.4400000000000002e-10,0.0,0.0,0.0,1.4400000000000002e-10,0.0,0.0,0.0,1.0,2
2025/04/10 10:33:55.252110159,1744274035,251986657,mA1/gps,0,1,63.43459760215573,10.39289163131715,0.0,1.4400000000000002e-10,0.0,0.0,0.0,1.4400000000000002e-10,0.0,0.0,0.0,1.0,2
2025/04/10 10:33:55.304721539,1744274035,303009970,mA1/gps,0,1,63.434597654442506,10.39289161923625,0.0,1.4400000000000002e-10,0.0,0.0,0.0,1.4400000000000002e-10,0.0,0.0,0.0,1.0,2
2025/04/10 10:33:55.353419329,1744274035,353271880,mA1/gps,0,1,63.434597708828385,10.392891607544454,0.0,1.4400000000000002e-10,0.0,0.0,0.0,1.4400000000000002e-10,0.0,0.0,0.0,1.0,2
2025/04/10 10:33:55.394825628,1744274035,394591378,mA1/gps,0,1,63.434597763568725,10.392891598816988,0.0,1.4400000000000002e-10,0.0,0.0,0.0,1.4400000000000002e-10,0.0,0.0,0.0,1.0,2
2025/04/10 10:33:55.446647550,1744274035,444606592,mA1/gps,0,1,63.4345978170429,10.392891591830338,0.0,1.4400000000000002e-10,0.0,0.0,0.0,1.4400000000000002e-10,0.0,0.0,0.0,1.0,2
2025/04/10 10:33:55.495813401,1744274035,495509743,mA1/gps,0,1,63.434597871349766,10.392891587003334,0.0,1.4400000000000002e-10,0.0,0.0,0.0,1.4400000000000002e-10,0.0,0.0,0.0,1.0,2
2025/04/10 10:33:55.545933828,1744274035,545727140,mA1/gps,0,1,63.43459792633344,10.392891583267385,0.0,1.4400000000000002e-10,0.0,0.0,0.0,1.4400000000000002e-10,0.0,0.0,0.0,1.0,2
2025/04/10 10:33:55.597389320,1744274035,597071988,mA1/gps,0,1,63.434597979588595,10.392891581732886,0.0,1.4400000000000002e-10,0.0,0.0,0.0,1.4400000000000002e-10,0.0,0.0,0.0,1.0,2
2025/04/10 10:33:55.647185003,1744274035,646917004,mA1/gps,0,1,63.434598032962555,10.392891581441058,0.0,1.4400000000000002e-10,0.0,0.0,0.0,1.4400000000000002e-10,0.0,0.0,0.0,1.0,2
2025/04/10 10:33:55.698130583,1744274035,697867266,mA1/gps,0,1,63.434598085716594,10.392891583426707,0.0,1.4400000000000002e-10,0.0,0.0,0.0,1.4400000000000002e-10,0.0,0.0,0.0,1.0,2
2025/04/10 10:33:55.748008788,1744274035,747729000,mA1/gps,0,1,63.43459813774105,10.392891586989023,0.0,1.4400000000000002e-10,0.0,0.0,0.0,1.4400000000000002e-10,0.0,0.0,0.0,1.0,2
2025/04/10 10:33:55.801659015,1744274035,801039871,mA1/gps,0,1,63.43459818970382,10.39289159061869,0.0,1.4400000000000002e-10,0.0,0.0,0.0,1.4400000000000002e-10,0.0,0.0,0.0,1.0,2
2025/04/10 10:33:55.849293897,1744274035,848765178,mA1/gps,0,1,63.43459824192259,10.39289159504622,0.0,1.4400000000000002e-10,0.0,0.0,0.0,1.4400000000000002e-10,0.0,0.0,0.0,1.0,2
2025/04/10 10:33:55.900083685,1744274035,899775687,mA1/gps,0,1,63.43459829587225,10.392891599960658,0.0,1.4400000000000002e-10,0.0,0.0,0.0,1.4400000000000002e-10,0.0,0.0,0.0,1.0,2
2025/04/10 10:33:55.952385976,1744274035,949741254,mA1/gps,0,1,63.434598348984714,10.39289160427965,0.0,1.4400000000000002e-10,0.0,0.0,0.0,1.4400000000000002e-10,0.0,0.0,0.0,1.0,2
2025/04/10 10:33:56.955489,1744274036,585548,mA1/gps,0,1,63.43459840310244,10.392891608036157,0.0,1.4400000000000002e-10,0.0,0.0,0.0,1.4400000000000002e-10,0.0,0.0,0.0,1.0,2
2025/04/10 10:33:56.50748876,1744274036,50610043,mA1/gps,0,1,63.43459845991824,10.392891609889617,0.0,1.4400000000000002e-10,0.0,0.0,0.0,1.4400000000000002e-10,0.0,0.0,0.0,1.0,2
2025/04/10 10:33:56.101790113,1744274036,101624551,mA1/gps,0,1,63.43459851706529,10.392891610617616,0.0,1.4400000000000002e-10,0.0,0.0,0.0,1.4400000000000002e-10,0.0,0.0,0.0,1.0,2
2025/04/10 10:33:56.153391208,1744274036,151393866,mA1/gps,0,1,63.4345985776288,10.392891609307847,0.0,1.4400000000000002e-10,0.0,0.0,0.0,1.4400000000000002e-10,0.0,0.0,0.0,1.0,2
2025/04/10 10:33:56.203949068,1744274036,202321351,mA1/gps,0,1,63.434598640218496,10.392891606726325,0.0,1.4400000000000002e-10,0.0,0.0,0.0,1.4400000000000002e-10,0.0,0.0,0.0,1.0,2
2025/04/10 10:33:56.252401868,1744274036,252113534,mA1/gps,0,1,63.43459870533903,10.392891600473284,0.0,1.4400000000000002e-10,0.0,0.0,0.0,1.4400000000000002e-10,0.0,0.0,0.0,1.0,2
2025/04/10 10:33:56.304873349,1744274036,303078859,mA1/gps,0,1,63.43459877321551,10.392891593114673,0.0,1.4400000000000002e-10,0.0,0.0,0.0,1.4400000000000002e-10,0.0,0.0,0.0,1.0,2
2025/04/10 10:33:56.353145685,1744274036,352977549,mA1/gps,0,1,63.434598843132186,10.392891583911496,0.0,1.4400000000000002e-10,0.0,0.0,0.0,1.4400000000000002e-10,0.0,0.0,0.0,1.0,2
2025/04/10 10:33:56.405897928,1744274036,404007321,mA1/gps,0,1,63.43459891725982,10.392891574327823,0.0,1.4400000000000002e-10,0.0,0.0,0.0,1.4400000000000002e-10,0.0,0.0,0.0,1.0,2
2025/04/10 10:33:56.445476144,1744274036,445029212,mA1/gps,0,1,63.43459899180225,10.392891563240562,0.0,1.4400000000000002e-10,0.0,0.0,0.0,1.4400000000000002e-10,0.0,0.0,0.0,1.0,2
2025/04/10 10:33:56.494972940,1744274036,494681702,mA1/gps,0,1,63.43459906864344,10.392891551404713,0.0,1.4400000000000002e-10,0.0,0.0,0.0,1.4400000000000002e-10,0.0,0.0,0.0,1.0,2
2025/04/10 10:33:56.548567651,1744274036,545014370,mA1/gps,0,1,63.43459915212386,10.392891539270831,0.0,1.4400000000000002e-10,0.0,0.0,0.0,1.4400000000000002e-10,0.0,0.0,0.0,1.0,2
2025/04/10 10:33:56.596295353,1744274036,596048242,mA1/gps,0,1,63.434599231945505,10.392891527863954,0.0,1.4400000000000002e-10,0.0,0.0,0.0,1.4400000000000002e-10,0.0,0.0,0.0,1.0,2
2025/04/10 10:33:56.646282329,1744274036,645946362,mA1/gps,0,1,63.43459931796801,10.392891517087275,0.0,1.4400000000000002e-10,0.0,0.0,0.0,1.4400000000000002e-10,0.0,0.0,0.0,1.0,2
2025/04/10 10:33:56.697588880,1744274036,696994263,mA1/gps,0,1,63.434599401123656,10.39289150721557,0.0,1.4400000000000002e-10,0.0,0.0,0.0,1.4400000000000002e-10,0.0,0.0,0.0,1.0,2
2025/04/10 10:33:56.748636683,1744274036,746752566,mA1/gps,0,1,63.4345994870832,10.392891498408195,0.0,1.4400000000000002e-10,0.0,0.0,0.0,1.4400000000000002e-10,0.0,0.0,0.0,1.0,2
2025/04/10 10:33:56.799760246,1744274036,797849360,mA1/gps,0,1,63.43459957347007,10.392891491563898,0.0,1.4400000000000002e-10,0.0,0.0,0.0,1.4400000000000002e-10,0.0,0.0,0.0,1.0,2
2025/04/10 10:33:56.849275901,1744274036,847474679,mA1/gps,0,1,63.43459966015793,10.392891486789646,0.0,1.4400000000000002e-10,0.0,0.0,0.0,1.4400000000000002e-10,0.0,0.0,0.0,1.0,2
2025/04/10 10:33:56.898578641,1744274036,898426023,mA1/gps,0,1,63.43459974686854,10.392891484283824,0.0,1.4400000000000002e-10,0.0,0.0,0.0,1.4400000000000002e-10,0.0,0.0,0.0,1.0,2
2025/04/10 10:33:56.949784436,1744274036,949506802,mA1/gps,0,1,63.43459983283147,10.392891483090164,0.0,1.4400000000000002e-10,0.0,0.0,0.0,1.4400000000000002e-10,0.0,0.0,0.0,1.0,2
2025/04/10 10:33:57.2455543,1744274037,1416367,mA1/gps,0,1,63.4345999175674,10.392891483630812,0.0,1.4400000000000002e-10,0.0,0.0,0.0,1.4400000000000002e-10,0.0,0.0,0.0,1.0,2
2025/04/10 10:33:57.52144024,1744274037,50469755,mA1/gps,0,1,63.434600001763805,10.392891485480108,0.0,1.4400000000000002e-10,0.0,0.0,0.0,1.4400000000000002e-10,0.0,0.0,0.0,1.0,2
2025/04/10 10:33:57.101761717,1744274037,101452647,mA1/gps,0,1,63.43460008492808,10.39289148809198,0.0,1.4400000000000002e-10,0.0,0.0,0.0,1.4400000000000002e-10,0.0,0.0,0.0,1.0,2
2025/04/10 10:33:57.151479470,1744274037,151208574,mA1/gps,0,1,63.43460016870006,10.392891491245303,0.0,1.4400000000000002e-10,0.0,0.0,0.0,1.4400000000000002e-10,0.0,0.0,0.0,1.0,2
2025/04/10 10:33:57.202566822,1744274037,202186978,mA1/gps,0,1,63.43460025100985,10.392891494853606,0.0,1.4400000000000002e-10,0.0,0.0,0.0,1.4400000000000002e-10,0.0,0.0,0.0,1.0,2
2025/04/10 10:33:57.252359265,1744274037,252035685,mA1/gps,0,1,63.43460033080784,10.39289149739396,0.0,1.4400000000000002e-10,0.0,0.0,0.0,1.4400000000000002e-10,0.0,0.0,0.0,1.0,2
2025/04/10 10:33:57.303659665,1744274037,303167868,mA1/gps,0,1,63.434600411177335,10.392891499063797,0.0,1.4400000000000002e-10,0.0,0.0,0.0,1.4400000000000002e-10,0.0,0.0,0.0,1.0,2
2025/04/10 10:33:57.353080737,1744274037,352942643,mA1/gps,0,1,63.434600492029524,10.392891500337305,0.0,1.4400000000000002e-10,0.0,0.0,0.0,1.4400000000000002e-10,0.0,0.0,0.0,1.0,2
2025/04/10 10:33:57.404155760,1744274037,403909545,mA1/gps,0,1,63.43460057346459,10.39289150033308,0.0,1.4400000000000002e-10,0.0,0.0,0.0,1.4400000000000002e-10,0.0,0.0,0.0,1.0,2
2025/04/10 10:33:57.447662444,1744274037,445266173,mA1/gps,0,1,63.434600655026586,10.392891498425273,0.0,1.4400000000000002e-10,0.0,0.0,0.0,1.4400000000000002e-10,0.0,0.0,0.0,1.0,2
2025/04/10 10:33:57.494809278,1744274037,494651716,mA1/gps,0,1,63.434600737793275,10.392891493998203,0.0,1.4400000000000002e-10,0.0,0.0,0.0,1.4400000000000002e-10,0.0,0.0,0.0,1.0,2
2025/04/10 10:33:57.547133510,1744274037,544809502,mA1/gps,0,1,63.43460082033993,10.392891488413998,0.0,1.4400000000000002e-10,0.0,0.0,0.0,1.4400000000000002e-10,0.0,0.0,0.0,1.0,2
2025/04/10 10:33:57.595980700,1744274037,595717207,mA1/gps,0,1,63.434600904127606,10.392891480088675,0.0,1.4400000000000002e-10,0.0,0.0,0.0,1.4400000000000002e-10,0.0,0.0,0.0,1.0,2
2025/04/10 10:33:57.646872424,1744274037,645524142,mA1/gps,0,1,63.43460099109909,10.392891470623143,0.0,1.4400000000000002e-10,0.0,0.0,0.0,1.4400000000000002e-10,0.0,0.0,0.0,1.0,2
2025/04/10 10:33:57.698880786,1744274037,698788658,mA1/gps,0,1,63.43460107939312,10.392891459814539,0.0,1.4400000000000002e-10,0.0,0.0,0.0,1.4400000000000002e-10,0.0,0.0,0.0,1.0,2
2025/04/10 10:33:57.750097049,1744274037,748316399,mA1/gps,0,1,63.43460116989495,10.392891448001082,0.0,1.4400000000000002e-10,0.0,0.0,0.0,1.4400000000000002e-10,0.0,0.0,0.0,1.0,2
2025/04/10 10:33:57.799609175,1744274037,799298543,mA1/gps,0,1,63.43460126207613,10.392891435744774,0.0,1.4400000000000002e-10,0.0,0.0,0.0,1.4400000000000002e-10,0.0,0.0,0.0,1.0,2
2025/04/10 10:33:57.849677857,1744274037,849123322,mA1/gps,0,1,63.43460135670173,10.39289142366773,0.0,1.4400000000000002e-10,0.0,0.0,0.0,1.4400000000000002e-10,0.0,0.0,0.0,1.0,2
2025/04/10 10:33:57.902100287,1744274037,900141184,mA1/gps,0,1,63.434601453037914,10.39289141159712,0.0,1.4400000000000002e-10,0.0,0.0,0.0,1.4400000000000002e-10,0.0,0.0,0.0,1.0,2
2025/04/10 10:33:57.955470814,1744274037,950541558,mA1/gps,0,1,63.434601552187196,10.392891400189534,0.0,1.4400000000000002e-10,0.0,0.0,0.0,1.4400000000000002e-10,0.0,0.0,0.0,1.0,2
2025/04/10 10:33:58.1666019,1744274038,1177194,mA1/gps,0,1,63.4346016539594,10.392891391082177,0.0,1.4400000000000002e-10,0.0,0.0,0.0,1.4400000000000002e-10,0.0,0.0,0.0,1.0,2
2025/04/10 10:33:58.51855400,1744274038,51002617,mA1/gps,0,1,63.43460175614454,10.392891382622444,0.0,1.4400000000000002e-10,0.0,0.0,0.0,1.4400000000000002e-10,0.0,0.0,0.0,1.0,2
2025/04/10 10:33:58.105566420,1744274038,102072753,mA1/gps,0,1,63.43460186031332,10.392891376391905,0.0,1.4400000000000002e-10,0.0,0.0,0.0,1.4400000000000002e-10,0.0,0.0,0.0,1.0,2
2025/04/10 10:33:58.152661419,1744274038,151863002,mA1/gps,0,1,63.43460196612402,10.392891372357594,0.0,1.4400000000000002e-10,0.0,0.0,0.0,1.4400000000000002e-10,0.0,0.0,0.0,1.0,2
2025/04/10 10:33:58.203184106,1744274038,202842750,mA1/gps,0,1,63.434602072006165,10.392891368806753,0.0,1.4400000000000002e-10,0.0,0.0,0.0,1.4400000000000002e-10,0.0,0.0,0.0,1.0,2
2025/04/10 10:33:58.254724127,1744274038,252929052,mA1/gps,0,1,63.43460217782046,10.392891368046604,0.0,1.4400000000000002e-10,0.0,0.0,0.0,1.4400000000000002e-10,0.0,0.0,0.0,1.0,2
2025/04/10 10:33:58.305059918,1744274038,303923511,mA1/gps,0,1,63.4346022835488,10.392891368310707,0.0,1.4400000000000002e-10,0.0,0.0,0.0,1.4400000000000002e-10,0.0,0.0,0.0,1.0,2
2025/04/10 10:33:58.346748070,1744274038,344790951,mA1/gps,0,1,63.43460239004273,10.39289137029856,0.0,1.4400000000000002e-10,0.0,0.0,0.0,1.4400000000000002e-10,0.0,0.0,0.0,1.0,2
2025/04/10 10:33:58.394607379,1744274038,394469810,mA1/gps,0,1,63.43460249430795,10.392891373367467,0.0,1.4400000000000002e-10,0.0,0.0,0.0,1.4400000000000002e-10,0.0,0.0,0.0,1.0,2
2025/04/10 10:33:58.444685228,1744274038,444348643,mA1/gps,0,1,63.434602599005736,10.392891376907833,0.0,1.4400000000000002e-10,0.0,0.0,0.0,1.4400000000000002e-10,0.0,0.0,0.0,1.0,2
2025/04/10 10:33:58.497944840,1744274038,496123352,mA1/gps,0,1,63.43460270255699,10.392891380681755,0.0,1.4400000000000002e-10,0.0,0.0,0.0,1.4400000000000002e-10,0.0,0.0,0.0,1.0,2
2025/04/10 10:33:58.546599013,1744274038,546313318,mA1/gps,0,1,63.43460280583018,10.39289138560837,0.0,1.4400000000000002e-10,0.0,0.0,0.0,1.4400000000000002e-10,0.0,0.0,0.0,1.0,2
2025/04/10 10:33:58.597196674,1744274038,596950372,mA1/gps,0,1,63.43460290805608,10.392891390037235,0.0,1.4400000000000002e-10,0.0,0.0,0.0,1.4400000000000002e-10,0.0,0.0,0.0,1.0,2
2025/04/10 10:33:58.647078852,1744274038,646985241,mA1/gps,0,1,63.434603008271445,10.392891393859879,0.0,1.4400000000000002e-10,0.0,0.0,0.0,1.4400000000000002e-10,0.0,0.0,0.0,1.0,2
2025/04/10 10:33:58.697968849,1744274038,697672162,mA1/gps,0,1,63.43460310630351,10.392891395547794,0.0,1.4400000000000002e-10,0.0,0.0,0.0,1.4400000000000002e-10,0.0,0.0,0.0,1.0,2
2025/04/10 10:33:58.747885365,1744274038,747522059,mA1/gps,0,1,63.43460320498837,10.392891395421785,0.0,1.4400000000000002e-10,0.0,0.0,0.0,1.4400000000000002e-10,0.0,0.0,0.0,1.0,2
2025/04/10 10:33:58.798931759,1744274038,798650476,mA1/gps,0,1,63.43460330376531,10.39289139300785,0.0,1.4400000000000002e-10,0.0,0.0,0.0,1.4400000000000002e-10,0.0,0.0,0.0,1.0,2
2025/04/10 10:33:58.849727374,1744274038,848409454,mA1/gps,0,1,63.43460340196225,10.392891388836762,0.0,1.4400000000000002e-10,0.0,0.0,0.0,1.4400000000000002e-10,0.0,0.0,0.0,1.0,2
2025/04/10 10:33:58.900851516,1744274038,899422977,mA1/gps,0,1,63.43460349916568,10.392891382950397,0.0,1.4400000000000002e-10,0.0,0.0,0.0,1.4400000000000002e-10,0.0,0.0,0.0,1.0,2
2025/04/10 10:33:58.951037394,1744274038,949215526,mA1/gps,0,1,63.434603597345365,10.392891374583408,0.0,1.4400000000000002e-10,0.0,0.0,0.0,1.4400000000000002e-10,0.0,0.0,0.0,1.0,2
2025/04/10 10:33:59.381493,1744274039,107502,mA1/gps,0,1,63.43460369672968,10.39289136434501,0.0,1.4400000000000002e-10,0.0,0.0,0.0,1.4400000000000002e-10,0.0,0.0,0.0,1.0,2
2025/04/10 10:33:59.50097478,1744274039,50007160,mA1/gps,0,1,63.434603796617694,10.392891354222478,0.0,1.4400000000000002e-10,0.0,0.0,0.0,1.4400000000000002e-10,0.0,0.0,0.0,1.0,2
2025/04/10 10:33:59.102800088,1744274039,101148952,mA1/gps,0,1,63.43460389713428,10.392891342563239,0.0,1.4400000000000002e-10,0.0,0.0,0.0,1.4400000000000002e-10,0.0,0.0,0.0,1.0,2
2025/04/10 10:33:59.152802084,1744274039,152498564,mA1/gps,0,1,63.43460400038845,10.392891330236335,0.0,1.4400000000000002e-10,0.0,0.0,0.0,1.4400000000000002e-10,0.0,0.0,0.0,1.0,2
2025/04/10 10:33:59.203690510,1744274039,203496010,mA1/gps,0,1,63.434604104909226,10.392891318006162,0.0,1.4400000000000002e-10,0.0,0.0,0.0,1.4400000000000002e-10,0.0,0.0,0.0,1.0,2
2025/04/10 10:33:59.253654216,1744274039,253341818,mA1/gps,0,1,63.434604212151676,10.392891306605094,0.0,1.4400000000000002e-10,0.0,0.0,0.0,1.4400000000000002e-10,0.0,0.0,0.0,1.0,2
2025/04/10 10:33:59.295987178,1744274039,295835178,mA1/gps,0,1,63.434604320397774,10.39289129782444,0.0,1.4400000000000002e-10,0.0,0.0,0.0,1.4400000000000002e-10,0.0,0.0,0.0,1.0,2
2025/04/10 10:33:59.344373952,1744274039,344039968,mA1/gps,0,1,63.434604430599116,10.392891290874445,0.0,1.4400000000000002e-10,0.0,0.0,0.0,1.4400000000000002e-10,0.0,0.0,0.0,1.0,2
2025/04/10 10:33:59.395054265,1744274039,394874349,mA1/gps,0,1,63.43460454259146,10.392891286725705,0.0,1.4400000000000002e-10,0.0,0.0,0.0,1.4400000000000002e-10,0.0,0.0,0.0,1.0,2
2025/04/10 10:33:59.445014403,1744274039,444852050,mA1/gps,0,1,63.43460465721062,10.39289128469972,0.0,1.4400000000000002e-10,0.0,0.0,0.0,1.4400000000000002e-10,0.0,0.0,0.0,1.0,2
2025/04/10 10:33:59.496052759,1744274039,495768943,mA1/gps,0,1,63.43460477375537,10.392891285554498,0.0,1.4400000000000002e-10,0.0,0.0,0.0,1.4400000000000002e-10,0.0,0.0,0.0,1.0,2
2025/04/10 10:33:59.545857186,1744274039,545669314,mA1/gps,0,1,63.43460489207397,10.392891288688968,0.0,1.4400000000000002e-10,0.0,0.0,0.0,1.4400000000000002e-10,0.0,0.0,0.0,1.0,2
2025/04/10 10:33:59.596887155,1744274039,596726766,mA1/gps,0,1,63.43460500904746,10.392891293807521,0.0,1.4400000000000002e-10,0.0,0.0,0.0,1.4400000000000002e-10,0.0,0.0,0.0,1.0,2
2025/04/10 10:33:59.646887601,1744274039,646619133,mA1/gps,0,1,63.434605128455495,10.392891300061056,0.0,1.4400000000000002e-10,0.0,0.0,0.0,1.4400000000000002e-10,0.0,0.0,0.0,1.0,2
2025/04/10 10:33:59.697819718,1744274039,697648320,mA1/gps,0,1,63.43460524816272,10.392891310594285,0.0,1.4400000000000002e-10,0.0,0.0,0.0,1.4400000000000002e-10,0.0,0.0,0.0,1.0,2
2025/04/10 10:33:59.748550946,1744274039,748228008,mA1/gps,0,1,63.434605368733656,10.392891320158803,0.0,1.4400000000000002e-10,0.0,0.0,0.0,1.4400000000000002e-10,0.0,0.0,0.0,1.0,2
2025/04/10 10:33:59.799226064,1744274039,799066053,mA1/gps,0,1,63.43460548736328,10.392891329717594,0.0,1.4400000000000002e-10,0.0,0.0,0.0,1.4400000000000002e-10,0.0,0.0,0.0,1.0,2
2025/04/10 10:33:59.849039872,1744274039,848724510,mA1/gps,0,1,63.434605605590825,10.392891337410653,0.0,1.4400000000000002e-10,0.0,0.0,0.0,1.4400000000000002e-10,0.0,0.0,0.0,1.0,2
2025/04/10 10:33:59.899884085,1744274039,899693884,mA1/gps,0,1,63.43460572354417,10.392891344155101,0.0,1.4400000000000002e-10,0.0,0.0,0.0,1.4400000000000002e-10,0.0,0.0,0.0,1.0,2
2025/04/10 10:33:59.951306961,1744274039,950426337,mA1/gps,0,1,63.43460584196531,10.392891348107876,0.0,1.4400000000000002e-10,0.0,0.0,0.0,1.4400000000000002e-10,0.0,0.0,0.0,1.0,2
2025/04/10 10:34:00.2015516,1744274040,1379593,mA1/gps,0,1,63.434605956128514,10.392891350097994,0.0,1.4400000000000002e-10,0.0,0.0,0.0,1.4400000000000002e-10,0.0,0.0,0.0,1.0,2
2025/04/10 10:34:00.51358332,1744274040,51168646,mA1/gps,0,1,63.434606070806396,10.392891350119168,0.0,1.4400000000000002e-10,0.0,0.0,0.0,1.4400000000000002e-10,0.0,0.0,0.0,1.0,2
2025/04/10 10:34:00.102540624,1744274040,102170649,mA1/gps,0,1,63.434606184679716,10.392891346760663,0.0,1.4400000000000002e-10,0.0,0.0,0.0,1.4400000000000002e-10,0.0,0.0,0.0,1.0,2
2025/04/10 10:34:00.152271108,1744274040,152098450,mA1/gps,0,1,63.43460629762913,10.392891341990989,0.0,1.4400000000000002e-10,0.0,0.0,0.0,1.4400000000000002e-10,0.0,0.0,0.0,1.0,2
2025/04/10 10:34:00.203390638,1744274040,203115727,mA1/gps,0,1,63.43460640859722,10.392891334241567,0.0,1.4400000000000002e-10,0.0,0.0,0.0,1.4400000000000002e-10,0.0,0.0,0.0,1.0,2
2025/04/10 10:34:00.254664068,1744274040,253705036,mA1/gps,0,1,63.434606518327904,10.39289132391798,0.0,1.4400000000000002e-10,0.0,0.0,0.0,1.4400000000000002e-10,0.0,0.0,0.0,1.0,2
2025/04/10 10:34:00.296357258,1744274040,294454707,mA1/gps,0,1,63.43460662795507,10.392891312264469,0.0,1.4400000000000002e-10,0.0,0.0,0.0,1.4400000000000002e-10,0.0,0.0,0.0,1.0,2
2025/04/10 10:34:00.345198293,1744274040,344849550,mA1/gps,0,1,63.434606738632276,10.39289129995158,0.0,1.4400000000000002e-10,0.0,0.0,0.0,1.4400000000000002e-10,0.0,0.0,0.0,1.0,2
2025/04/10 10:34:00.396065994,1744274040,395797521,mA1/gps,0,1,63.43460684920344,10.392891287445998,0.0,1.4400000000000002e-10,0.0,0.0,0.0,1.4400000000000002e-10,0.0,0.0,0.0,1.0,2
2025/04/10 10:34:00.447504334,1744274040,445665882,mA1/gps,0,1,63.43460696006791,10.392891275724171,0.0,1.4400000000000002e-10,0.0,0.0,0.0,1.4400000000000002e-10,0.0,0.0,0.0,1.0,2
2025/04/10 10:34:00.496777548,1744274040,496584488,mA1/gps,0,1,63.43460707247924,10.392891265128236,0.0,1.4400000000000002e-10,0.0,0.0,0.0,1.4400000000000002e-10,0.0,0.0,0.0,1.0,2
2025/04/10 10:34:00.548274346,1744274040,546448235,mA1/gps,0,1,63.4346071847194,10.392891255743246,0.0,1.4400000000000002e-10,0.0,0.0,0.0,1.4400000000000002e-10,0.0,0.0,0.0,1.0,2
2025/04/10 10:34:00.601255769,1744274040,598639148,mA1/gps,0,1,63.434607296437036,10.39289124927144,0.0,1.4400000000000002e-10,0.0,0.0,0.0,1.4400000000000002e-10,0.0,0.0,0.0,1.0,2
2025/04/10 10:34:00.648916887,1744274040,648605488,mA1/gps,0,1,63.43460741456646,10.392891245496944,0.0,1.4400000000000002e-10,0.0,0.0,0.0,1.4400000000000002e-10,0.0,0.0,0.0,1.0,2
2025/04/10 10:34:00.699944127,1744274040,699561534,mA1/gps,0,1,63.434607532032764,10.392891245706451,0.0,1.4400000000000002e-10,0.0,0.0,0.0,1.4400000000000002e-10,0.0,0.0,0.0,1.0,2
2025/04/10 10:34:00.750136027,1744274040,749308184,mA1/gps,0,1,63.434607651380475,10.39289124844987,0.0,1.4400000000000002e-10,0.0,0.0,0.0,1.4400000000000002e-10,0.0,0.0,0.0,1.0,2
2025/04/10 10:34:00.800544366,1744274040,800258775,mA1/gps,0,1,63.43460777273977,10.392891253275423,0.0,1.4400000000000002e-10,0.0,0.0,0.0,1.4400000000000002e-10,0.0,0.0,0.0,1.0,2
2025/04/10 10:34:00.851512421,1744274040,851179523,mA1/gps,0,1,63.434607896181696,10.392891259704895,0.0,1.4400000000000002e-10,0.0,0.0,0.0,1.4400000000000002e-10,0.0,0.0,0.0,1.0,2
2025/04/10 10:34:00.902416585,1744274040,902249798,mA1/gps,0,1,63.434608022028826,10.392891267041637,0.0,1.4400000000000002e-10,0.0,0.0,0.0,1.4400000000000002e-10,0.0,0.0,0.0,1.0,2
2025/04/10 10:34:00.952145970,1744274040,951963710,mA1/gps,0,1,63.434608148716016,10.3928912748214,0.0,1.4400000000000002e-10,0.0,0.0,0.0,1.4400000000000002e-10,0.0,0.0,0.0,1.0,2
2025/04/10 10:34:01.4663072,1744274041,4461233,mA1/gps,0,1,63.434608277060285,10.392891283092162,0.0,1.4400000000000002e-10,0.0,0.0,0.0,1.4400000000000002e-10,0.0,0.0,0.0,1.0,2
2025/04/10 10:34:01.46011581,1744274041,44292584,mA1/gps,0,1,63.43460840594466,10.392891290004034,0.0,1.4400000000000002e-10,0.0,0.0,0.0,1.4400000000000002e-10,0.0,0.0,0.0,1.0,2
2025/04/10 10:34:01.95956291,1744274041,95357112,mA1/gps,0,1,63.434608537594116,10.392891296169065,0.0,1.4400000000000002e-10,0.0,0.0,0.0,1.4400000000000002e-10,0.0,0.0,0.0,1.0,2
2025/04/10 10:34:01.146572761,1744274041,145143023,mA1/gps,0,1,63.43460866821241,10.3928912998288,0.0,1.4400000000000002e-10,0.0,0.0,0.0,1.4400000000000002e-10,0.0,0.0,0.0,1.0,2
2025/04/10 10:34:01.196357771,1744274041,196102831,mA1/gps,0,1,63.434608798761616,10.392891303339583,0.0,1.4400000000000002e-10,0.0,0.0,0.0,1.4400000000000002e-10,0.0,0.0,0.0,1.0,2
2025/04/10 10:34:01.247361549,1744274041,245976463,mA1/gps,0,1,63.43460892943085,10.392891304636825,0.0,1.4400000000000002e-10,0.0,0.0,0.0,1.4400000000000002e-10,0.0,0.0,0.0,1.0,2
2025/04/10 10:34:01.297300671,1744274041,296943323,mA1/gps,0,1,63.4346090602717,10.392891303804033,0.0,1.4400000000000002e-10,0.0,0.0,0.0,1.4400000000000002e-10,0.0,0.0,0.0,1.0,2
2025/04/10 10:34:01.349707928,1744274041,346903925,mA1/gps,0,1,63.43460919016985,10.392891301924221,0.0,1.4400000000000002e-10,0.0,0.0,0.0,1.4400000000000002e-10,0.0,0.0,0.0,1.0,2
2025/04/10 10:34:01.399716215,1744274041,399597156,mA1/gps,0,1,63.434609319225025,10.392891298174407,0.0,1.4400000000000002e-10,0.0,0.0,0.0,1.4400000000000002e-10,0.0,0.0,0.0,1.0,2
2025/04/10 10:34:01.450199975,1744274041,449317518,mA1/gps,0,1,63.434609447942414,10.392891292575385,0.0,1.4400000000000002e-10,0.0,0.0,0.0,1.4400000000000002e-10,0.0,0.0,0.0,1.0,2
2025/04/10 10:34:01.504744519,1744274041,501790963,mA1/gps,0,1,63.43460957464057,10.392891285293217,0.0,1.4400000000000002e-10,0.0,0.0,0.0,1.4400000000000002e-10,0.0,0.0,0.0,1.0,2
2025/04/10 10:34:01.551868766,1744274041,551669318,mA1/gps,0,1,63.434609700499706,10.392891277703955,0.0,1.4400000000000002e-10,0.0,0.0,0.0,1.4400000000000002e-10,0.0,0.0,0.0,1.0,2
2025/04/10 10:34:01.604220913,1744274041,602567130,mA1/gps,0,1,63.43460982487441,10.39289126942005,0.0,1.4400000000000002e-10,0.0,0.0,0.0,1.4400000000000002e-10,0.0,0.0,0.0,1.0,2
2025/04/10 10:34:01.652615816,1744274041,652387839,mA1/gps,0,1,63.434609948446095,10.392891260751382,0.0,1.4400000000000002e-10,0.0,0.0,0.0,1.4400000000000002e-10,0.0,0.0,0.0,1.0,2
2025/04/10 10:34:01.703651349,1744274041,703354082,mA1/gps,0,1,63.43461007075336,10.392891252875364,0.0,1.4400000000000002e-10,0.0,0.0,0.0,1.4400000000000002e-10,0.0,0.0,0.0,1.0,2
2025/04/10 10:34:01.753791516,1744274041,753192430,mA1/gps,0,1,63.43461019236641,10.392891245222533,0.0,1.4400000000000002e-10,0.0,0.0,0.0,1.4400000000000002e-10,0.0,0.0,0.0,1.0,2
2025/04/10 10:34:01.805846874,1744274041,804100334,mA1/gps,0,1,63.43461031400654,10.392891238676075,0.0,1.4400000000000002e-10,0.0,0.0,0.0,1.4400000000000002e-10,0.0,0.0,0.0,1.0,2
2025/04/10 10:34:01.845892855,1744274041,843876027,mA1/gps,0,1,63.4346104364016,10.39289123355713,0.0,1.4400000000000002e-10,0.0,0.0,0.0,1.4400000000000002e-10,0.0,0.0,0.0,1.0,2
2025/04/10 10:34:01.895012250,1744274041,894777605,mA1/gps,0,1,63.4346105593941,10.392891230324135,0.0,1.4400000000000002e-10,0.0,0.0,0.0,1.4400000000000002e-10,0.0,0.0,0.0,1.0,2
2025/04/10 10:34:01.944898261,1744274041,944776031,mA1/gps,0,1,63.43461068318808,10.392891228518542,0.0,1.4400000000000002e-10,0.0,0.0,0.0,1.4400000000000002e-10,0.0,0.0,0.0,1.0,2
2025/04/10 10:34:01.995972729,1744274041,995750573,mA1/gps,0,1,63.434610807240766,10.392891228998442,0.0,1.4400000000000002e-10,0.0,0.0,0.0,1.4400000000000002e-10,0.0,0.0,0.0,1.0,2
2025/04/10 10:34:02.46439894,1744274042,45923191,mA1/gps,0,1,63.43461093154674,10.392891231320851,0.0,1.4400000000000002e-10,0.0,0.0,0.0,1.4400000000000002e-10,0.0,0.0,0.0,1.0,2
2025/04/10 10:34:02.96960173,1744274042,96782396,mA1/gps,0,1,63.43461105768871,10.392891237388671,0.0,1.4400000000000002e-10,0.0,0.0,0.0,1.4400000000000002e-10,0.0,0.0,0.0,1.0,2
2025/04/10 10:34:02.147150096,1744274042,146737738,mA1/gps,0,1,63.434611187168606,10.392891243276853,0.0,1.4400000000000002e-10,0.0,0.0,0.0,1.4400000000000002e-10,0.0,0.0,0.0,1.0,2
2025/04/10 10:34:02.197713389,1744274042,197553427,mA1/gps,0,1,63.434611317967786,10.392891250248763,0.0,1.4400000000000002e-10,0.0,0.0,0.0,1.4400000000000002e-10,0.0,0.0,0.0,1.0,2
2025/04/10 10:34:02.247836127,1744274042,247574792,mA1/gps,0,1,63.434611449970355,10.392891257089424,0.0,1.4400000000000002e-10,0.0,0.0,0.0,1.4400000000000002e-10,0.0,0.0,0.0,1.0,2
2025/04/10 10:34:02.300525308,1744274042,298536192,mA1/gps,0,1,63.43461158297795,10.392891263573699,0.0,1.4400000000000002e-10,0.0,0.0,0.0,1.4400000000000002e-10,0.0,0.0,0.0,1.0,2
2025/04/10 10:34:02.348636401,1744274042,348341337,mA1/gps,0,1,63.43461171952777,10.392891269853038,0.0,1.4400000000000002e-10,0.0,0.0,0.0,1.4400000000000002e-10,0.0,0.0,0.0,1.0,2
2025/04/10 10:34:02.399557001,1744274042,399312714,mA1/gps,0,1,63.434611856750735,10.392891275410138,0.0,1.4400000000000002e-10,0.0,0.0,0.0,1.4400000000000002e-10,0.0,0.0,0.0,1.0,2
2025/04/10 10:34:02.449973050,1744274042,449732961,mA1/gps,0,1,63.4346119961248,10.392891279495156,0.0,1.4400000000000002e-10,0.0,0.0,0.0,1.4400000000000002e-10,0.0,0.0,0.0,1.0,2
2025/04/10 10:34:02.500674508,1744274042,500505940,mA1/gps,0,1,63.434612136910744,10.392891282329938,0.0,1.4400000000000002e-10,0.0,0.0,0.0,1.4400000000000002e-10,0.0,0.0,0.0,1.0,2
2025/04/10 10:34:02.550804073,1744274042,550417744,mA1/gps,0,1,63.434612277072574,10.392891283831375,0.0,1.4400000000000002e-10,0.0,0.0,0.0,1.4400000000000002e-10,0.0,0.0,0.0,1.0,2
2025/04/10 10:34:02.603280787,1744274042,601344499,mA1/gps,0,1,63.43461241849473,10.392891283127197,0.0,1.4400000000000002e-10,0.0,0.0,0.0,1.4400000000000002e-10,0.0,0.0,0.0,1.0,2
2025/04/10 10:34:02.651438537,1744274042,651263298,mA1/gps,0,1,63.43461256193514,10.392891280900498,0.0,1.4400000000000002e-10,0.0,0.0,0.0,1.4400000000000002e-10,0.0,0.0,0.0,1.0,2
2025/04/10 10:34:02.702413790,1744274042,702223619,mA1/gps,0,1,63.434612704168835,10.392891276775385,0.0,1.4400000000000002e-10,0.0,0.0,0.0,1.4400000000000002e-10,0.0,0.0,0.0,1.0,2
2025/04/10 10:34:02.752209325,1744274042,752088994,mA1/gps,0,1,63.43461284554363,10.392891271000266,0.0,1.4400000000000002e-10,0.0,0.0,0.0,1.4400000000000002e-10,0.0,0.0,0.0,1.0,2
2025/04/10 10:34:02.803429866,1744274042,803084717,mA1/gps,0,1,63.434612986854326,10.392891265299774,0.0,1.4400000000000002e-10,0.0,0.0,0.0,1.4400000000000002e-10,0.0,0.0,0.0,1.0,2
2025/04/10 10:34:02.854599243,1744274042,852895321,mA1/gps,0,1,63.4346131287124,10.392891257427019,0.0,1.4400000000000002e-10,0.0,0.0,0.0,1.4400000000000002e-10,0.0,0.0,0.0,1.0,2
2025/04/10 10:34:02.904152731,1744274042,903852014,mA1/gps,0,1,63.434613268338175,10.39289125038483,0.0,1.4400000000000002e-10,0.0,0.0,0.0,1.4400000000000002e-10,0.0,0.0,0.0,1.0,2
2025/04/10 10:34:02.953832807,1744274042,953742794,mA1/gps,0,1,63.43461340575282,10.39289124353795,0.0,1.4400000000000002e-10,0.0,0.0,0.0,1.4400000000000002e-10,0.0,0.0,0.0,1.0,2
2025/04/10 10:34:02.994884805,1744274042,994544773,mA1/gps,0,1,63.43461354498627,10.3928912367284,0.0,1.4400000000000002e-10,0.0,0.0,0.0,1.4400000000000002e-10,0.0,0.0,0.0,1.0,2
2025/04/10 10:34:03.47731242,1744274043,44457832,mA1/gps,0,1,63.434613682303464,10.392891231604077,0.0,1.4400000000000002e-10,0.0,0.0,0.0,1.4400000000000002e-10,0.0,0.0,0.0,1.0,2
2025/04/10 10:34:03.95929466,1744274043,95429958,mA1/gps,0,1,63.43461381793168,10.39289122741023,0.0,1.4400000000000002e-10,0.0,0.0,0.0,1.4400000000000002e-10,0.0,0.0,0.0,1.0,2
2025/04/10 10:34:03.146777915,1744274043,145273939,mA1/gps,0,1,63.434613952856814,10.392891225094884,0.0,1.4400000000000002e-10,0.0,0.0,0.0,1.4400000000000002e-10,0.0,0.0,0.0,1.0,2
2025/04/10 10:34:03.196611546,1744274043,196268017,mA1/gps,0,1,63.43461408785165,10.392891224602579,0.0,1.4400000000000002e-10,0.0,0.0,0.0,1.4400000000000002e-10,0.0,0.0,0.0,1.0,2
2025/04/10 10:34:03.246252061,1744274043,246067975,mA1/gps,0,1,63.434614223218375,10.392891225459392,0.0,1.4400000000000002e-10,0.0,0.0,0.0,1.4400000000000002e-10,0.0,0.0,0.0,1.0,2
2025/04/10 10:34:03.298921742,1744274043,297054029,mA1/gps,0,1,63.43461435681785,10.392891228058714,0.0,1.4400000000000002e-10,0.0,0.0,0.0,1.4400000000000002e-10,0.0,0.0,0.0,1.0,2
2025/04/10 10:34:03.347413598,1744274043,346887478,mA1/gps,0,1,63.434614490978525,10.392891232212689,0.0,1.4400000000000002e-10,0.0,0.0,0.0,1.4400000000000002e-10,0.0,0.0,0.0,1.0,2
2025/04/10 10:34:03.397851709,1744274043,397719496,mA1/gps,0,1,63.43461462686022,10.392891236945655,0.0,1.4400000000000002e-10,0.0,0.0,0.0,1.4400000000000002e-10,0.0,0.0,0.0,1.0,2
2025/04/10 10:34:03.448063709,1744274043,447683451,mA1/gps,0,1,63.43461476249899,10.392891241795052,0.0,1.4400000000000002e-10,0.0,0.0,0.0,1.4400000000000002e-10,0.0,0.0,0.0,1.0,2
2025/04/10 10:34:03.498769540,1744274043,498577484,mA1/gps,0,1,63.43461489920659,10.392891246886846,0.0,1.4400000000000002e-10,0.0,0.0,0.0,1.4400000000000002e-10,0.0,0.0,0.0,1.0,2
2025/04/10 10:34:03.550399746,1744274043,548580776,mA1/gps,0,1,63.43461503818123,10.392891251815707,0.0,1.4400000000000002e-10,0.0,0.0,0.0,1.4400000000000002e-10,0.0,0.0,0.0,1.0,2
2025/04/10 10:34:03.599782470,1744274043,599674263,mA1/gps,0,1,63.43461517870022,10.392891256012183,0.0,1.4400000000000002e-10,0.0,0.0,0.0,1.4400000000000002e-10,0.0,0.0,0.0,1.0,2
2025/04/10 10:34:03.651243601,1744274043,649659976,mA1/gps,0,1,63.434615319599985,10.39289125950048,0.0,1.4400000000000002e-10,0.0,0.0,0.0,1.4400000000000002e-10,0.0,0.0,0.0,1.0,2
2025/04/10 10:34:03.701725968,1744274043,700510309,mA1/gps,0,1,63.43461546417866,10.392891261607392,0.0,1.4400000000000002e-10,0.0,0.0,0.0,1.4400000000000002e-10,0.0,0.0,0.0,1.0,2
2025/04/10 10:34:03.750580757,1744274043,750374365,mA1/gps,0,1,63.4346156093954,10.39289126269662,0.0,1.4400000000000002e-10,0.0,0.0,0.0,1.4400000000000002e-10,0.0,0.0,0.0,1.0,2
2025/04/10 10:34:03.801573465,1744274043,801326946,mA1/gps,0,1,63.43461575646806,10.39289126250529,0.0,1.4400000000000002e-10,0.0,0.0,0.0,1.4400000000000002e-10,0.0,0.0,0.0,1.0,2
2025/04/10 10:34:03.851342841,1744274043,851185559,mA1/gps,0,1,63.43461590573433,10.39289126047457,0.0,1.4400000000000002e-10,0.0,0.0,0.0,1.4400000000000002e-10,0.0,0.0,0.0,1.0,2
2025/04/10 10:34:03.902629035,1744274043,902291971,mA1/gps,0,1,63.43461605381994,10.392891257835272,0.0,1.4400000000000002e-10,0.0,0.0,0.0,1.4400000000000002e-10,0.0,0.0,0.0,1.0,2
2025/04/10 10:34:03.953925703,1744274043,952067142,mA1/gps,0,1,63.43461620437003,10.392891254187868,0.0,1.4400000000000002e-10,0.0,0.0,0.0,1.4400000000000002e-10,0.0,0.0,0.0,1.0,2
2025/04/10 10:34:04.3117302,1744274044,2983872,mA1/gps,0,1,63.434616356867984,10.392891249912951,0.0,1.4400000000000002e-10,0.0,0.0,0.0,1.4400000000000002e-10,0.0,0.0,0.0,1.0,2
2025/04/10 10:34:04.54686935,1744274044,52844811,mA1/gps,0,1,63.43461650852897,10.392891244970308,0.0,1.4400000000000002e-10,0.0,0.0,0.0,1.4400000000000002e-10,0.0,0.0,0.0,1.0,2
2025/04/10 10:34:04.104035796,1744274044,103823528,mA1/gps,0,1,63.434616660614545,10.392891239281004,0.0,1.4400000000000002e-10,0.0,0.0,0.0,1.4400000000000002e-10,0.0,0.0,0.0,1.0,2
2025/04/10 10:34:04.144320230,1744274044,144202619,mA1/gps,0,1,63.43461681175553,10.392891234055712,0.0,1.4400000000000002e-10,0.0,0.0,0.0,1.4400000000000002e-10,0.0,0.0,0.0,1.0,2
2025/04/10 10:34:04.195352592,1744274044,195127791,mA1/gps,0,1,63.43461696205084,10.392891228990079,0.0,1.4400000000000002e-10,0.0,0.0,0.0,1.4400000000000002e-10,0.0,0.0,0.0,1.0,2
2025/04/10 10:34:04.245306076,1744274044,245034625,mA1/gps,0,1,63.434617111639604,10.392891224828812,0.0,1.4400000000000002e-10,0.0,0.0,0.0,1.4400000000000002e-10,0.0,0.0,0.0,1.0,2
2025/04/10 10:34:04.296257271,1744274044,295983121,mA1/gps,0,1,63.434617259886956,10.392891220363108,0.0,1.4400000000000002e-10,0.0,0.0,0.0,1.4400000000000002e-10,0.0,0.0,0.0,1.0,2
2025/04/10 10:34:04.346086301,1744274044,345865943,mA1/gps,0,1,63.43461740631661,10.392891218198395,0.0,1.4400000000000002e-10,0.0,0.0,0.0,1.4400000000000002e-10,0.0,0.0,0.0,1.0,2
2025/04/10 10:34:04.397496886,1744274044,397099532,mA1/gps,0,1,63.4346175515366,10.392891217000377,0.0,1.4400000000000002e-10,0.0,0.0,0.0,1.4400000000000002e-10,0.0,0.0,0.0,1.0,2
2025/04/10 10:34:04.448508014,1744274044,446790493,mA1/gps,0,1,63.43461769310021,10.392891217188563,0.0,1.4400000000000002e-10,0.0,0.0,0.0,1.4400000000000002e-10,0.0,0.0,0.0,1.0,2
2025/04/10 10:34:04.500738571,1744274044,497725287,mA1/gps,0,1,63.4346178328382,10.392891219811174,0.0,1.4400000000000002e-10,0.0,0.0,0.0,1.4400000000000002e-10,0.0,0.0,0.0,1.0,2
2025/04/10 10:34:04.547705534,1744274044,547529247,mA1/gps,0,1,63.43461796926367,10.392891222577083,0.0,1.4400000000000002e-10,0.0,0.0,0.0,1.4400000000000002e-10,0.0,0.0,0.0,1.0,2
2025/04/10 10:34:04.598648783,1744274044,598548582,mA1/gps,0,1,63.43461810541944,10.392891227225649,0.0,1.4400000000000002e-10,0.0,0.0,0.0,1.4400000000000002e-10,0.0,0.0,0.0,1.0,2
2025/04/10 10:34:04.648529809,1744274044,648291533,mA1/gps,0,1,63.43461823897683,10.392891232668186,0.0,1.4400000000000002e-10,0.0,0.0,0.0,1.4400000000000002e-10,0.0,0.0,0.0,1.0,2
2025/04/10 10:34:04.700611920,1744274044,700440719,mA1/gps,0,1,63.43461837002981,10.39289123939668,0.0,1.4400000000000002e-10,0.0,0.0,0.0,1.4400000000000002e-10,0.0,0.0,0.0,1.0,2
2025/04/10 10:34:04.750559910,1744274044,750335214,mA1/gps,0,1,63.434618499590485,10.392891246026808,0.0,1.4400000000000002e-10,0.0,0.0,0.0,1.4400000000000002e-10,0.0,0.0,0.0,1.0,2
2025/04/10 10:34:04.801650777,1744274044,801389891,mA1/gps,0,1,63.43461862806694,10.39289125189881,0.0,1.4400000000000002e-10,0.0,0.0,0.0,1.4400000000000002e-10,0.0,0.0,0.0,1.0,2
2025/04/10 10:34:04.851365113,1744274044,851164348,mA1/gps,0,1,63.434618755408984,10.392891257688719,0.0,1.4400000000000002e-10,0.0,0.0,0.0,1.4400000000000002e-10,0.0,0.0,0.0,1.0,2
2025/04/10 10:34:04.902595775,1744274044,902145263,mA1/gps,0,1,63.43461888139687,10.392891263203207,0.0,1.4400000000000002e-10,0.0,0.0,0.0,1.4400000000000002e-10,0.0,0.0,0.0,1.0,2
2025/04/10 10:34:04.952173854,1744274044,951949340,mA1/gps,0,1,63.4346190084459,10.39289126822939,0.0,1.4400000000000002e-10,0.0,0.0,0.0,1.4400000000000002e-10,0.0,0.0,0.0,1.0,2
2025/04/10 10:34:05.3172324,1744274045,2785833,mA1/gps,0,1,63.43461913353732,10.39289127266344,0.0,1.4400000000000002e-10,0.0,0.0,0.0,1.4400000000000002e-10,0.0,0.0,0.0,1.0,2
2025/04/10 10:34:05.53268322,1744274045,52798137,mA1/gps,0,1,63.434619260119256,10.39289127526043,0.0,1.4400000000000002e-10,0.0,0.0,0.0,1.4400000000000002e-10,0.0,0.0,0.0,1.0,2
2025/04/10 10:34:05.103913130,1744274045,103645132,mA1/gps,0,1,63.4346193847121,10.392891276213474,0.0,1.4400000000000002e-10,0.0,0.0,0.0,1.4400000000000002e-10,0.0,0.0,0.0,1.0,2
2025/04/10 10:34:05.154118067,1744274045,153852842,mA1/gps,0,1,63.43461951130326,10.392891275842546,0.0,1.4400000000000002e-10,0.0,0.0,0.0,1.4400000000000002e-10,0.0,0.0,0.0,1.0,2
2025/04/10 10:34:05.197972297,1744274045,197686349,mA1/gps,0,1,63.43461963789542,10.392891274968086,0.0,1.4400000000000002e-10,0.0,0.0,0.0,1.4400000000000002e-10,0.0,0.0,0.0,1.0,2
2025/04/10 10:34:05.251967307,1744274045,248265228,mA1/gps,0,1,63.43461976397815,10.392891273127955,0.0,1.4400000000000002e-10,0.0,0.0,0.0,1.4400000000000002e-10,0.0,0.0,0.0,1.0,2
2025/04/10 10:34:05.299935685,1744274045,299460535,mA1/gps,0,1,63.43461989158538,10.392891270559383,0.0,1.4400000000000002e-10,0.0,0.0,0.0,1.4400000000000002e-10,0.0,0.0,0.0,1.0,2
2025/04/10 10:34:05.349586747,1744274045,349336322,mA1/gps,0,1,63.43462001859053,10.392891267486684,0.0,1.4400000000000002e-10,0.0,0.0,0.0,1.4400000000000002e-10,0.0,0.0,0.0,1.0,2
2025/04/10 10:34:05.401230004,1744274045,400452498,mA1/gps,0,1,63.434620146935664,10.392891264424517,0.0,1.4400000000000002e-10,0.0,0.0,0.0,1.4400000000000002e-10,0.0,0.0,0.0,1.0,2
2025/04/10 10:34:05.452030982,1744274045,451870685,mA1/gps,0,1,63.434620273826916,10.392891261864909,0.0,1.4400000000000002e-10,0.0,0.0,0.0,1.4400000000000002e-10,0.0,0.0,0.0,1.0,2
2025/04/10 10:34:05.503441551,1744274045,502715115,mA1/gps,0,1,63.434620401138744,10.392891258890385,0.0,1.4400000000000002e-10,0.0,0.0,0.0,1.4400000000000002e-10,0.0,0.0,0.0,1.0,2
2025/04/10 10:34:05.552976732,1744274045,552644650,mA1/gps,0,1,63.434620527965215,10.392891256751742,0.0,1.4400000000000002e-10,0.0,0.0,0.0,1.4400000000000002e-10,0.0,0.0,0.0,1.0,2
2025/04/10 10:34:05.603702417,1744274045,603414224,mA1/gps,0,1,63.434620653423046,10.39289125549964,0.0,1.4400000000000002e-10,0.0,0.0,0.0,1.4400000000000002e-10,0.0,0.0,0.0,1.0,2
2025/04/10 10:34:05.653433414,1744274045,653284795,mA1/gps,0,1,63.43462077732951,10.392891254767582,0.0,1.4400000000000002e-10,0.0,0.0,0.0,1.4400000000000002e-10,0.0,0.0,0.0,1.0,2
2025/04/10 10:34:05.704466589,1744274045,704280870,mA1/gps,0,1,63.4346208997189,10.392891254410358,0.0,1.4400000000000002e-10,0.0,0.0,0.0,1.4400000000000002e-10,0.0,0.0,0.0,1.0,2
