time,header_stamp_secs,header_stamp_nsecs,header_frame_id,orientation_x,orientation_y,orientation_z,orientation_w,orientation_covariance_0,orientation_covariance_1,orientation_covariance_2,orientation_covariance_3,orientation_covariance_4,orientation_covariance_5,orientation_covariance_6,orientation_covariance_7,orientation_covariance_8,angular_velocity_x,angular_velocity_y,angular_velocity_z,angular_velocity_covariance_0,angular_velocity_covariance_1,angular_velocity_covariance_2,angular_velocity_covariance_3,angular_velocity_covariance_4,angular_velocity_covariance_5,angular_velocity_covariance_6,angular_velocity_covariance_7,angular_velocity_covariance_8,linear_acceleration_x,linear_acceleration_y,linear_acceleration_z,linear_acceleration_covariance_0,linear_acceleration_covariance_1,linear_acceleration_covariance_2,linear_acceleration_covariance_3,linear_acceleration_covariance_4,linear_acceleration_covariance_5,linear_acceleration_covariance_6,linear_acceleration_covariance_7,linear_acceleration_covariance_8
2025/04/10 10:33:49.300453419,1744274029,299305321,mA1/imu,0.7056135164606568,0.7085963416137103,0.00030217118018030953,0.0008359020696227398,0.0,0.0,0.0,0.0,0.0,0.0,0.0,0.0,0.0,-0.0006316912646943753,-0.0006197504573892288,-7.5290541646647834e-06,0.0,0.0,0.0,0.0,0.0,0.0,0.0,0.0,0.0,0.008443344087303866,-0.06272672885841213,9.809951904937055,0.0,0.0,0.0,0.0,0.0,0.0,0.0,0.0,0.0
2025/04/10 10:33:49.350124412,1744274029,349761593,mA1/imu,0.7056133624910752,0.7085964905132589,0.0002880422698951965,0.0008445933827981401,0.0,0.0,0.0,0.0,0.0,0.0,0.0,0.0,0.0,-0.0007512003403444039,-0.0006558453963255493,-1.0318395307805668e-05,0.0,0.0,0.0,0.0,0.0,0.0,0.0,0.0,0.0,0.00864489132897761,-0.06769618088425078,9.811030718266691,0.0,0.0,0.0,0.0,0.0,0.0,0.0,0.0,0.0
2025/04/10 10:33:49.401493968,1744274029,400810820,mA1/imu,0.7056131586643363,0.7085966888647868,0.0002728549493546238,0.000853463400035368,0.0,0.0,0.0,0.0,0.0,0.0,0.0,0.0,0.0,-0.0009039908762236281,-0.000675943848290232,-1.3112000194366276e-05,0.0,0.0,0.0,0.0,0.0,0.0,0.0,0.0,0.0,0.008835203472988582,0.5484992212187562,9.81175309416263,0.0,0.0,0.0,0.0,0.0,0.0,0.0,0.0,0.0
2025/04/10 10:33:49.450772288,1744274029,450616539,mA1/imu,0.7056129169422481,0.7085969254509843,0.00025710183543024856,0.0008617333173384758,0.0,0.0,0.0,0.0,0.0,0.0,0.0,0.0,0.0,0.0006871925702000816,-0.000673560440409473,-1.4309055212444107e-05,0.0,0.0,0.0,0.0,0.0,0.0,0.0,0.0,0.0,0.008963899961875025,0.030578188059393357,9.80848722685047,0.0,0.0,0.0,0.0,0.0,0.0,0.0,0.0,0.0
2025/04/10 10:33:49.501923446,1744274029,501586493,mA1/imu,0.7056126615113825,0.7085971667966013,0.0002473737213567986,0.0008751736369315751,0.0,0.0,0.0,0.0,0.0,0.0,0.0,0.0,0.0,0.0008103886690685734,-0.000641278437155696,-1.4583124469291367e-05,0.0,0.0,0.0,0.0,0.0,0.0,0.0,0.0,0.0,0.008690320273553445,0.03942685871457995,9.80879717951932,0.0,0.0,0.0,0.0,0.0,0.0,0.0,0.0,0.0
2025/04/10 10:33:49.552547959,1744274029,552422909,mA1/imu,0.7056124016467559,0.7085974124836127,0.00023917886781042112,0.0008879511783575632,0.0,0.0,0.0,0.0,0.0,0.0,0.0,0.0,0.0,0.0009479682296113277,-0.0005723699201287843,-1.4794415973255777e-05,0.0,0.0,0.0,0.0,0.0,0.0,0.0,0.0,0.0,0.009066603208370962,-0.5821648297478337,9.809493095782033,0.0,0.0,0.0,0.0,0.0,0.0,0.0,0.0,0.0
2025/04/10 10:33:49.603505734,1744274029,603299087,mA1/imu,0.7056121381430805,0.7085976622732519,0.00023322163708256323,0.00089951859387207,0.0,0.0,0.0,0.0,0.0,0.0,0.0,0.0,0.0,-0.0006316629600564788,-0.00045265896580266385,-1.4923932801696089e-05,0.0,0.0,0.0,0.0,0.0,0.0,0.0,0.0,0.0,0.009296941270632814,-0.06258021056679913,9.809893131051059,0.0,0.0,0.0,0.0,0.0,0.0,0.0,0.0,0.0
2025/04/10 10:33:49.658107774,1744274029,653541645,mA1/imu,0.7056118686360441,0.7085979287443466,0.00022393325910531847,0.0009033676259484972,0.0,0.0,0.0,0.0,0.0,0.0,0.0,0.0,0.0,-0.0007532843143009721,-0.00030390859521278046,-1.6492516523820308e-05,0.0,0.0,0.0,0.0,0.0,0.0,0.0,0.0,0.0,0.008232275135523461,-0.06742750461659044,9.811006311222721,0.0,0.0,0.0,0.0,0.0,0.0,0.0,0.0,0.0
2025/04/10 10:33:49.695427402,1744274029,694520637,mA1/imu,0.7056115549474665,0.7085982421938111,0.00021701084076740238,0.0009042072519518001,0.0,0.0,0.0,0.0,0.0,0.0,0.0,0.0,0.0,-0.0009150702342928907,-0.00014645000606746346,-1.9008900829949245e-05,0.0,0.0,0.0,0.0,0.0,0.0,0.0,0.0,0.0,0.00867114668856379,0.5486025515414579,9.811751251645592,0.0,0.0,0.0,0.0,0.0,0.0,0.0,0.0,0.0
2025/04/10 10:33:49.747884815,1744274029,744429891,mA1/imu,0.7056112028061581,0.7085985975220385,0.00021266648058714942,0.0009015748527143003,0.0,0.0,0.0,0.0,0.0,0.0,0.0,0.0,0.0,0.000668488468580265,3.437636740629877e-05,-2.0225939291231292e-05,0.0,0.0,0.0,0.0,0.0,0.0,0.0,0.0,0.0,0.006822132945360125,0.030571581042679326,9.80852253951849,0.0,0.0,0.0,0.0,0.0,0.0,0.0,0.0,0.0
2025/04/10 10:33:49.797357079,1744274029,797038411,mA1/imu,0.7056108448114506,0.7085989532148544,0.00021767645194065578,0.000901001801172713,0.0,0.0,0.0,0.0,0.0,0.0,0.0,0.0,0.0,0.0007859117337473043,0.00023471084586927722,-1.9766749929249833e-05,0.0,0.0,0.0,0.0,0.0,0.0,0.0,0.0,0.0,0.006983447239083534,0.03935572035829118,9.80886571775855,0.0,0.0,0.0,0.0,0.0,0.0,0.0,0.0,0.0
2025/04/10 10:33:49.847711425,1744274029,847072129,mA1/imu,0.7056104937029989,0.7085993045188118,0.00022670712760496212,0.0008974494664416165,0.0,0.0,0.0,0.0,0.0,0.0,0.0,0.0,0.0,0.0009191883366286158,0.00041735063776478286,-1.9360355672749466e-05,0.0,0.0,0.0,0.0,0.0,0.0,0.0,0.0,0.0,0.007504049969463189,-0.5820745399225126,9.809587066957983,0.0,0.0,0.0,0.0,0.0,0.0,0.0,0.0,0.0
2025/04/10 10:33:49.898313264,1744274029,898039609,mA1/imu,0.705610148397349,0.7085996518130339,0.00023937066215782443,0.0008914206664568044,0.0,0.0,0.0,0.0,0.0,0.0,0.0,0.0,0.0,-0.0006637482461033664,0.000586337661847795,-1.8988932899144076e-05,0.0,0.0,0.0,0.0,0.0,0.0,0.0,0.0,0.0,0.008179248906145926,-0.062454753444602065,9.809987944224144,0.0,0.0,0.0,0.0,0.0,0.0,0.0,0.0,0.0
2025/04/10 10:33:49.949146389,1744274029,948394756,mA1/imu,0.7056098049155793,0.7086000079950547,0.000249044331814435,0.0008774128601726047,0.0,0.0,0.0,0.0,0.0,0.0,0.0,0.0,0.0,-0.0007876006125328255,0.0007341145006176329,-2.008206491279293e-05,0.0,0.0,0.0,0.0,0.0,0.0,0.0,0.0,0.0,0.006726434030241718,-0.06751682899372725,9.81110169916188,0.0,0.0,0.0,0.0,0.0,0.0,0.0,0.0,0.0
2025/04/10 10:33:49.999815005,1744274029,999383952,mA1/imu,0.7056094247926716,0.7086004025215853,0.00026050852061166804,0.0008610025047185122,0.0,0.0,0.0,0.0,0.0,0.0,0.0,0.0,0.0,-0.0009497395844749373,0.0008330955782307761,-2.220004163837839e-05,0.0,0.0,0.0,0.0,0.0,0.0,0.0,0.0,0.0,0.007576237565161624,0.5484939786064663,9.81184963856767,0.0,0.0,0.0,0.0,0.0,0.0,0.0,0.0,0.0
2025/04/10 10:33:50.52283810,1744274030,51790803,mA1/imu,0.7056090055908012,0.7086008371466928,0.0002728204626600474,0.0008428482436922727,0.0,0.0,0.0,0.0,0.0,0.0,0.0,0.0,0.0,0.0006342981343746251,0.000881788936930992,-2.4340458844056233e-05,0.0,0.0,0.0,0.0,0.0,0.0,0.0,0.0,0.0,0.007085358374102274,0.030222454798750912,9.808622857904595,0.0,0.0,0.0,0.0,0.0,0.0,0.0,0.0,0.0
2025/04/10 10:33:50.103767510,1744274030,103528400,mA1/imu,0.7056085392207011,0.7086013093634724,0.0002912177901671133,0.0008300237343588324,0.0,0.0,0.0,0.0,0.0,0.0,0.0,0.0,0.0,0.0007528543535673131,0.0008732714828078974,-2.6653755050809355e-05,0.0,0.0,0.0,0.0,0.0,0.0,0.0,0.0,0.0,0.007435179943332325,0.0390561184740421,9.808954841773582,0.0,0.0,0.0,0.0,0.0,0.0,0.0,0.0,0.0
2025/04/10 10:33:50.153753444,1744274030,153456870,mA1/imu,0.7056080319777014,0.7086018203461704,0.0003095842785789682,0.0008182714851766398,0.0,0.0,0.0,0.0,0.0,0.0,0.0,0.0,0.0,0.0008877044873307533,0.0008146854939340817,-2.9009406004976275e-05,0.0,0.0,0.0,0.0,0.0,0.0,0.0,0.0,0.0,0.007929363699195982,-0.5821887587992987,9.809674796657337,0.0,0.0,0.0,0.0,0.0,0.0,0.0,0.0,0.0
2025/04/10 10:33:50.194624090,1744274030,194354420,mA1/imu,0.705607483760053,0.7086023696496487,0.00032703162206616055,0.0008084794540325506,0.0,0.0,0.0,0.0,0.0,0.0,0.0,0.0,0.0,-0.000691311498706167,0.0007228405752033081,-3.1340986492678644e-05,0.0,0.0,0.0,0.0,0.0,0.0,0.0,0.0,0.0,0.008602047016426834,-0.06258299587503299,9.810053432125168,0.0,0.0,0.0,0.0,0.0,0.0,0.0,0.0,0.0
2025/04/10 10:33:50.246738207,1744274030,244101466,mA1/imu,0.7056069006311163,0.7086029605462528,0.00033650989490222933,0.0007955173952012228,0.0,0.0,0.0,0.0,0.0,0.0,0.0,0.0,0.0,-0.0008086022923518577,0.0005687125489969272,-3.381407044047954e-05,0.0,0.0,0.0,0.0,0.0,0.0,0.0,0.0,0.0,0.009436380110238937,-0.06747981738821524,9.81115160926149,0.0,0.0,0.0,0.0,0.0,0.0,0.0,0.0,0.0
2025/04/10 10:33:50.295454560,1744274030,295137585,mA1/imu,0.7056062712987126,0.7086035953190007,0.00034191913570563465,0.0007859365230366347,0.0,0.0,0.0,0.0,0.0,0.0,0.0,0.0,0.0,-0.0009736043109489591,0.0003398669618224411,-3.654017079667162e-05,0.0,0.0,0.0,0.0,0.0,0.0,0.0,0.0,0.0,0.009945373596106354,0.5478043124025366,9.81185580576751,0.0,0.0,0.0,0.0,0.0,0.0,0.0,0.0,0.0
2025/04/10 10:33:50.348785095,1744274030,348382956,mA1/imu,0.70560559651318,0.708604273527933,0.0003426238365649586,0.0007799462393450441,0.0,0.0,0.0,0.0,0.0,0.0,0.0,0.0,0.0,0.0006261946535165909,9.592142174270561e-05,-3.916653451964097e-05,0.0,0.0,0.0,0.0,0.0,0.0,0.0,0.0,0.0,0.00929333146142605,0.030082279031821195,9.808602716256505,0.0,0.0,0.0,0.0,0.0,0.0,0.0,0.0,0.0
2025/04/10 10:33:50.399520243,1744274030,399287480,mA1/imu,0.7056048709122174,0.7086049910184652,0.0003445907496939557,0.0007836490853989405,0.0,0.0,0.0,0.0,0.0,0.0,0.0,0.0,0.0,0.0007568626679912687,-0.0001485069636587557,-4.180656845253867e-05,0.0,0.0,0.0,0.0,0.0,0.0,0.0,0.0,0.0,0.009129129144873585,0.03916376079188537,9.808901858487083,0.0,0.0,0.0,0.0,0.0,0.0,0.0,0.0,0.0
2025/04/10 10:33:50.449390994,1744274030,449088135,mA1/imu,0.7056041026304217,0.7086057479954461,0.0003428829194510474,0.0007916376919484055,0.0,0.0,0.0,0.0,0.0,0.0,0.0,0.0,0.0,0.0009027192969214856,-0.00036798326743583753,-4.426891926391532e-05,0.0,0.0,0.0,0.0,0.0,0.0,0.0,0.0,0.0,0.008923315707577359,-0.5823883904727236,9.809602875686272,0.0,0.0,0.0,0.0,0.0,0.0,0.0,0.0,0.0
2025/04/10 10:33:50.500738138,1744274030,500492409,mA1/imu,0.7056032948467608,0.7086065414403109,0.0003381753079377555,0.0008033472830880141,0.0,0.0,0.0,0.0,0.0,0.0,0.0,0.0,0.0,-0.0006672383513605126,-0.0005363766714499835,-4.653789785428149e-05,0.0,0.0,0.0,0.0,0.0,0.0,0.0,0.0,0.0,0.009056662379837141,-0.06281171978349155,9.809992646698143,0.0,0.0,0.0,0.0,0.0,0.0,0.0,0.0,0.0
2025/04/10 10:33:50.550865999,1744274030,550669419,mA1/imu,0.7056024565733516,0.7086073723269981,0.00032497815504820915,0.0008121272543079958,0.0,0.0,0.0,0.0,0.0,0.0,0.0,0.0,0.0,-0.0007765523176455126,-0.0006607850496345773,-4.857561888890546e-05,0.0,0.0,0.0,0.0,0.0,0.0,0.0,0.0,0.0,0.007655106873352101,-0.06736333816947884,9.811074084597866,0.0,0.0,0.0,0.0,0.0,0.0,0.0,0.0,0.0
2025/04/10 10:33:50.601939755,1744274030,601602729,mA1/imu,0.7056015853106586,0.7086082352667762,0.00030941109238019393,0.0008221824412190128,0.0,0.0,0.0,0.0,0.0,0.0,0.0,0.0,0.0,-0.0009246856956383824,-0.0007461803512730865,-5.043875192923333e-05,0.0,0.0,0.0,0.0,0.0,0.0,0.0,0.0,0.0,0.007839922678008303,0.5486572705473437,9.811762896965536,0.0,0.0,0.0,0.0,0.0,0.0,0.0,0.0,0.0
2025/04/10 10:33:50.651624782,1744274030,651418271,mA1/imu,0.7056006942933061,0.7086091177655345,0.0002922092887563637,0.0008324938959445241,0.0,0.0,0.0,0.0,0.0,0.0,0.0,0.0,0.0,0.0006735756539742306,-0.0007832560402371837,-5.0527364973358494e-05,0.0,0.0,0.0,0.0,0.0,0.0,0.0,0.0,0.0,0.006925676182786774,0.030713755411184294,9.808468529967298,0.0,0.0,0.0,0.0,0.0,0.0,0.0,0.0,0.0
2025/04/10 10:33:50.702681403,1744274030,702348259,mA1/imu,0.7055998113301919,0.7086099829724171,0.00028052246727094444,0.0008482863749491385,0.0,0.0,0.0,0.0,0.0,0.0,0.0,0.0,0.0,0.0008005660206152148,-0.0007705197801837381,-4.959323862370426e-05,0.0,0.0,0.0,0.0,0.0,0.0,0.0,0.0,0.0,0.006665768866845273,0.039246665033626824,9.80877318634993,0.0,0.0,0.0,0.0,0.0,0.0,0.0,0.0,0.0
2025/04/10 10:33:50.753232006,1744274030,752248708,mA1/imu,0.7055989568827895,0.7086108197078108,0.0002703043042931844,0.000863234919928959,0.0,0.0,0.0,0.0,0.0,0.0,0.0,0.0,0.0,0.0009474623059175361,-0.0006669533569760297,-4.696068393278633e-05,0.0,0.0,0.0,0.0,0.0,0.0,0.0,0.0,0.0,0.004750730509913042,-0.5825083175142096,9.809500311853936,0.0,0.0,0.0,0.0,0.0,0.0,0.0,0.0,0.0
2025/04/10 10:33:50.803292137,1744274030,803101624,mA1/imu,0.705598165894797,0.7086115946941934,0.0002633343499801891,0.0008756745233583219,0.0,0.0,0.0,0.0,0.0,0.0,0.0,0.0,0.0,-0.0006247708154256464,-0.000478638880057542,-4.320559503741896e-05,0.0,0.0,0.0,0.0,0.0,0.0,0.0,0.0,0.0,0.005124521900804941,-0.06281923902646633,9.809915001436528,0.0,0.0,0.0,0.0,0.0,0.0,0.0,0.0,0.0
2025/04/10 10:33:50.853878497,1744274030,853565183,mA1/imu,0.7055974471014431,0.7086123095560686,0.00025404269007021007,0.0008791199304041925,0.0,0.0,0.0,0.0,0.0,0.0,0.0,0.0,0.0,-0.0007385578376275057,-0.0002700056016302662,-3.9446038933944896e-05,0.0,0.0,0.0,0.0,0.0,0.0,0.0,0.0,0.0,0.00442026463719084,-0.06741554856891814,9.811020128157807,0.0,0.0,0.0,0.0,0.0,0.0,0.0,0.0,0.0
2025/04/10 10:33:50.894669769,1744274030,894439154,mA1/imu,0.7055967928271251,0.7086129640036108,0.0002479033901317739,0.0008784884753616365,0.0,0.0,0.0,0.0,0.0,0.0,0.0,0.0,0.0,-0.0008929310172038998,-6.36834631057506e-05,-3.576956893481851e-05,0.0,0.0,0.0,0.0,0.0,0.0,0.0,0.0,0.0,0.00503146261485594,0.5485759068513741,9.811754663233193,0.0,0.0,0.0,0.0,0.0,0.0,0.0,0.0,0.0
2025/04/10 10:33:50.944564406,1744274030,944276923,mA1/imu,0.705596195831327,0.7086135654146241,0.000244720495605348,0.0008737566097460443,0.0,0.0,0.0,0.0,0.0,0.0,0.0,0.0,0.0,0.0006973073026160766,0.0001062193865587493,-3.325503099957876e-05,0.0,0.0,0.0,0.0,0.0,0.0,0.0,0.0,0.0,0.0069281763134647276,0.030513459796505965,9.808499064698765,0.0,0.0,0.0,0.0,0.0,0.0,0.0,0.0,0.0
2025/04/10 10:33:50.997253968,1744274030,995337134,mA1/imu,0.7055956099575075,0.7086141489102276,0.0002494641490196688,0.0008723190729405166,0.0,0.0,0.0,0.0,0.0,0.0,0.0,0.0,0.0,0.0008199070654832893,0.000215184934826227,-3.257829165616222e-05,0.0,0.0,0.0,0.0,0.0,0.0,0.0,0.0,0.0,0.007058702202498204,0.039300162299113234,9.8088365969963,0.0,0.0,0.0,0.0,0.0,0.0,0.0,0.0,0.0
2025/04/10 10:33:51.45746985,1744274031,45207034,mA1/imu,0.7055950354443485,0.7086147219956278,0.00025656466611649777,0.0008694262015285354,0.0,0.0,0.0,0.0,0.0,0.0,0.0,0.0,0.0,0.0009567505206077997,0.00030917510464013723,-3.192970256202906e-05,0.0,0.0,0.0,0.0,0.0,0.0,0.0,0.0,0.0,0.00754333048209372,-0.581981042353627,9.809586369943789,0.0,0.0,0.0,0.0,0.0,0.0,0.0,0.0,0.0
2025/04/10 10:33:51.96297840,1744274031,96104717,mA1/imu,0.7055944732608513,0.708615283194368,0.00026577575512712353,0.0008655000609060908,0.0,0.0,0.0,0.0,0.0,0.0,0.0,0.0,0.0,-0.0006247744797783835,0.0003981718998855282,-3.114078346297147e-05,0.0,0.0,0.0,0.0,0.0,0.0,0.0,0.0,0.0,0.008123936737096394,-0.06238955684227494,9.810017217898194,0.0,0.0,0.0,0.0,0.0,0.0,0.0,0.0,0.0
2025/04/10 10:33:51.146518611,1744274031,146228131,mA1/imu,0.7055939260708065,0.7086158390124329,0.00027059680383581113,0.0008549678714187311,0.0,0.0,0.0,0.0,0.0,0.0,0.0,0.0,0.0,-0.0007482427655389394,0.0004654614435200242,-3.134843675421563e-05,0.0,0.0,0.0,0.0,0.0,0.0,0.0,0.0,0.0,0.007159758970759185,-0.06753751493102848,9.811135307042134,0.0,0.0,0.0,0.0,0.0,0.0,0.0,0.0,0.0
2025/04/10 10:33:51.197724663,1744274031,197261905,mA1/imu,0.7055933523364627,0.7086164221340964,0.0002758938130963953,0.000843387851718429,0.0,0.0,0.0,0.0,0.0,0.0,0.0,0.0,0.0,-0.0009122674762840078,0.0004965911080339916,-3.313076259771185e-05,0.0,0.0,0.0,0.0,0.0,0.0,0.0,0.0,0.0,0.007856236463774414,0.548471799004071,9.811857770707233,0.0,0.0,0.0,0.0,0.0,0.0,0.0,0.0,0.0
2025/04/10 10:33:51.247344412,1744274031,247083592,mA1/imu,0.7055927464937248,0.7086170377934012,0.0002811444679046049,0.0008311450749302263,0.0,0.0,0.0,0.0,0.0,0.0,0.0,0.0,0.0,0.0006652085536891719,0.0004976235093809124,-3.4895733067666395e-05,0.0,0.0,0.0,0.0,0.0,0.0,0.0,0.0,0.0,0.007321255667536082,0.02998122008807615,9.808614701259,0.0,0.0,0.0,0.0,0.0,0.0,0.0,0.0,0.0
2025/04/10 10:33:51.300206690,1744274031,298042984,mA1/imu,0.7055921011559518,0.7086176833084481,0.00029196834917840785,0.000824889919988799,0.0,0.0,0.0,0.0,0.0,0.0,0.0,0.0,0.0,0.0007807024300572938,0.00046602503605495894,-3.67809466618456e-05,0.0,0.0,0.0,0.0,0.0,0.0,0.0,0.0,0.0,0.0075031274500478775,0.038959109889267415,9.808942468381954,0.0,0.0,0.0,0.0,0.0,0.0,0.0,0.0,0.0
2025/04/10 10:33:51.349898365,1744274031,348461525,mA1/imu,0.7055914230502985,0.708618359797074,0.00030266351226132217,0.0008199214338046383,0.0,0.0,0.0,0.0,0.0,0.0,0.0,0.0,0.0,0.0009109491018916769,0.0004081194017873855,-3.8668559464204324e-05,0.0,0.0,0.0,0.0,0.0,0.0,0.0,0.0,0.0,0.007959929802224345,-0.582163226261651,9.809670820048684,0.0,0.0,0.0,0.0,0.0,0.0,0.0,0.0,0.0
2025/04/10 10:33:51.401394013,1744274031,399490814,mA1/imu,0.7055907124281905,0.7086190666242902,0.000312840171670869,0.0008167512628581,0.0,0.0,0.0,0.0,0.0,0.0,0.0,0.0,0.0,-0.0006751958085018875,0.00034218618853533065,-4.0501664852734414e-05,0.0,0.0,0.0,0.0,0.0,0.0,0.0,0.0,0.0,0.008488157588393502,-0.06256777452189814,9.810064596052465,0.0,0.0,0.0,0.0,0.0,0.0,0.0,0.0,0.0
2025/04/10 10:33:51.451181287,1744274031,449314658,mA1/imu,0.7055899870367147,0.7086197953916672,0.0003157109585053507,0.0008099995006864453,0.0,0.0,0.0,0.0,0.0,0.0,0.0,0.0,0.0,-0.0007991136140091167,0.00021963336284399669,-4.0820156816222394e-05,0.0,0.0,0.0,0.0,0.0,0.0,0.0,0.0,0.0,0.009532032145913479,-0.06730498548587624,9.811160824905729,0.0,0.0,0.0,0.0,0.0,0.0,0.0,0.0,0.0
2025/04/10 10:33:51.500714189,1744274031,500457420,mA1/imu,0.7055892724791937,0.7086205118189403,0.00031538553001269525,0.0008058062502452959,0.0,0.0,0.0,0.0,0.0,0.0,0.0,0.0,0.0,-0.0009593847369543389,5.0812278252894725e-05,-4.0176492698282614e-05,0.0,0.0,0.0,0.0,0.0,0.0,0.0,0.0,0.0,0.009940164870822235,0.5487423472963983,9.81185808034193,0.0,0.0,0.0,0.0,0.0,0.0,0.0,0.0,0.0
2025/04/10 10:33:51.550570359,1744274031,550280134,mA1/imu,0.7055885711872044,0.708621213809184,0.0003117439311564512,0.0008039684818081435,0.0,0.0,0.0,0.0,0.0,0.0,0.0,0.0,0.0,0.0006271990331895831,-0.00010666040845663729,-3.944790111029229e-05,0.0,0.0,0.0,0.0,0.0,0.0,0.0,0.0,0.0,0.00877266369136418,0.030540056681925346,9.808596823271602,0.0,0.0,0.0,0.0,0.0,0.0,0.0,0.0,0.0
2025/04/10 10:33:51.601465352,1744274031,601221020,mA1/imu,0.7055878766109754,0.7086218984458545,0.0003113079591638101,0.0008102530238256877,0.0,0.0,0.0,0.0,0.0,0.0,0.0,0.0,0.0,0.0007483480327731308,-0.00024764486285730594,-3.879102819639125e-05,0.0,0.0,0.0,0.0,0.0,0.0,0.0,0.0,0.0,0.008615768280526473,0.0394051198294857,9.808892101302058,0.0,0.0,0.0,0.0,0.0,0.0,0.0,0.0,0.0
2025/04/10 10:33:51.651297233,1744274031,651023496,mA1/imu,0.7055872064713735,0.7086225566443726,0.0003094850680840018,0.0008188392449158434,0.0,0.0,0.0,0.0,0.0,0.0,0.0,0.0,0.0,0.0008856415144362557,-0.0003230733176386915,-3.6503989861771854e-05,0.0,0.0,0.0,0.0,0.0,0.0,0.0,0.0,0.0,0.006648179571998522,-0.5823107958685028,9.809609109143102,0.0,0.0,0.0,0.0,0.0,0.0,0.0,0.0,0.0
2025/04/10 10:33:51.702235340,1744274031,701956805,mA1/imu,0.7055865942435862,0.7086231559061078,0.0003076886453492451,0.0008284111916751469,0.0,0.0,0.0,0.0,0.0,0.0,0.0,0.0,0.0,-0.0006921903519037375,-0.00033017798798872845,-3.314116797398717e-05,0.0,0.0,0.0,0.0,0.0,0.0,0.0,0.0,0.0,0.006973293344177489,-0.06270074075162389,9.80997196821334,0.0,0.0,0.0,0.0,0.0,0.0,0.0,0.0,0.0
2025/04/10 10:33:51.752104777,1744274031,751792715,mA1/imu,0.7055860480228506,0.7086236981536467,0.0003001335544968848,0.0008325685523740638,0.0,0.0,0.0,0.0,0.0,0.0,0.0,0.0,0.0,-0.0008084533859911532,-0.00032071918246178143,-2.9779341194900973e-05,0.0,0.0,0.0,0.0,0.0,0.0,0.0,0.0,0.0,0.006198023580627177,-0.06740987583332933,9.811057201421113,0.0,0.0,0.0,0.0,0.0,0.0,0.0,0.0,0.0
2025/04/10 10:33:51.802984322,1744274031,802755049,mA1/imu,0.7055855608154548,0.7086241823868951,0.00029229742180408375,0.0008361025425932759,0.0,0.0,0.0,0.0,0.0,0.0,0.0,0.0,0.0,-0.0009617582922683514,-0.0003047425570278193,-2.6469406358837127e-05,0.0,0.0,0.0,0.0,0.0,0.0,0.0,0.0,0.0,0.006623232047640809,0.5485984209495713,9.811740189346496,0.0,0.0,0.0,0.0,0.0,0.0,0.0,0.0,0.0
2025/04/10 10:33:51.852743467,1744274031,852555454,mA1/imu,0.7055851318889602,0.7086246098033715,0.00028428663171806373,0.0008385817605856187,0.0,0.0,0.0,0.0,0.0,0.0,0.0,0.0,0.0,0.0006319154402456192,-0.00028495010130607644,-2.316442135096955e-05,0.0,0.0,0.0,0.0,0.0,0.0,0.0,0.0,0.0,0.006582136912796929,0.030369559451145122,9.808479502638232,0.0,0.0,0.0,0.0,0.0,0.0,0.0,0.0,0.0
2025/04/10 10:33:51.903690783,1744274031,903501024,mA1/imu,0.7055847526062857,0.7086249792095353,0.0002823998397135306,0.0008461560984536963,0.0,0.0,0.0,0.0,0.0,0.0,0.0,0.0,0.0,0.000750256155407363,-0.00025804373531935896,-2.0027191874861255e-05,0.0,0.0,0.0,0.0,0.0,0.0,0.0,0.0,0.0,0.00653570114336454,0.03850610495487915,9.808796357461821,0.0,0.0,0.0,0.0,0.0,0.0,0.0,0.0,0.0
2025/04/10 10:33:51.953605790,1744274031,953365928,mA1/imu,0.7055844285317379,0.7086252935777416,0.00028161688566242057,0.0008533506490556017,0.0,0.0,0.0,0.0,0.0,0.0,0.0,0.0,0.0,0.0009005643635999485,-0.00021860643157901565,-1.6937743493584072e-05,0.0,0.0,0.0,0.0,0.0,0.0,0.0,0.0,0.0,0.006972418856632561,-0.58248746640647,9.809522628421695,0.0,0.0,0.0,0.0,0.0,0.0,0.0,0.0,0.0
2025/04/10 10:33:51.994641092,1744274031,994441230,mA1/imu,0.7055841589109385,0.7086255539377698,0.0002820920819320511,0.0008598978949715275,0.0,0.0,0.0,0.0,0.0,0.0,0.0,0.0,0.0,-0.0006673948648205581,-0.00015139351403996507,-1.3862175149543198e-05,0.0,0.0,0.0,0.0,0.0,0.0,0.0,0.0,0.0,0.007366040390665914,-0.06270415036926563,9.809902679069042,0.0,0.0,0.0,0.0,0.0,0.0,0.0,0.0,0.0
2025/04/10 10:33:52.44367872,1744274032,44132345,mA1/imu,0.7055839388084099,0.7086257746340737,0.00027787778596995074,0.0008600022124930515,0.0,0.0,0.0,0.0,0.0,0.0,0.0,0.0,0.0,-0.0007899100164375327,-0.00010773495566594695,-1.289954054485168e-05,0.0,0.0,0.0,0.0,0.0,0.0,0.0,0.0,0.0,0.008707811907417215,-0.06845023374840695,9.811002494734963,0.0,0.0,0.0,0.0,0.0,0.0,0.0,0.0,0.0
2025/04/10 10:33:52.95443870,1744274032,95088529,mA1/imu,0.7055836912801435,0.708626023585131,0.00027310619345345764,0.0008594826464604793,0.0,0.0,0.0,0.0,0.0,0.0,0.0,0.0,0.0,-0.0009292367734147851,-0.00011223340869882295,-1.5079705770183041e-05,0.0,0.0,0.0,0.0,0.0,0.0,0.0,0.0,0.0,0.009110590553795726,0.5481696533334407,9.8117763007907,0.0,0.0,0.0,0.0,0.0,0.0,0.0,0.0,0.0
2025/04/10 10:33:52.146188298,1744274032,145132985,mA1/imu,0.7055834062508494,0.7086263111484009,0.0002676181110810766,0.0008581096696197799,0.0,0.0,0.0,0.0,0.0,0.0,0.0,0.0,0.0,0.0006723892246714319,-0.00011008444174432887,-1.7155716459471467e-05,0.0,0.0,0.0,0.0,0.0,0.0,0.0,0.0,0.0,0.008506050647484071,0.030187777284421048,9.808499615723724,0.0,0.0,0.0,0.0,0.0,0.0,0.0,0.0,0.0
2025/04/10 10:33:52.196773357,1744274032,196194239,mA1/imu,0.7055830769806204,0.7086266342771498,0.0002677994397976962,0.0008619484082291865,0.0,0.0,0.0,0.0,0.0,0.0,0.0,0.0,0.0,0.0008042247346037017,-0.00010179088519782144,-1.928528967972568e-05,0.0,0.0,0.0,0.0,0.0,0.0,0.0,0.0,0.0,0.008445941129774936,0.039127859280129185,9.808843530003811,0.0,0.0,0.0,0.0,0.0,0.0,0.0,0.0,0.0
2025/04/10 10:33:52.248725881,1744274032,246107450,mA1/imu,0.705582711006526,0.7086269937620593,0.00026861373281521727,0.0008657292245760446,0.0,0.0,0.0,0.0,0.0,0.0,0.0,0.0,0.0,0.0009499873946584725,-8.730131407832923e-05,-2.1365887703313275e-05,0.0,0.0,0.0,0.0,0.0,0.0,0.0,0.0,0.0,0.008851631071617683,-0.5822126045501776,9.809555850402084,0.0,0.0,0.0,0.0,0.0,0.0,0.0,0.0,0.0
2025/04/10 10:33:52.297356992,1744274032,297138572,mA1/imu,0.7055823090905086,0.70862738879148,0.00027024805939696294,0.0008694360591271908,0.0,0.0,0.0,0.0,0.0,0.0,0.0,0.0,0.0,-0.0006221594163714687,-5.083857412526545e-05,-2.3361757321549085e-05,0.0,0.0,0.0,0.0,0.0,0.0,0.0,0.0,0.0,0.009220708264051422,-0.06264234814867603,9.810025561462245,0.0,0.0,0.0,0.0,0.0,0.0,0.0,0.0,0.0
2025/04/10 10:33:52.349188733,1744274032,346941554,mA1/imu,0.7055818904323448,0.7086278100634207,0.000266771334777802,0.0008669092769297375,0.0,0.0,0.0,0.0,0.0,0.0,0.0,0.0,0.0,-0.0007341727765155343,3.892934825415514e-06,-2.37066746877212e-05,0.0,0.0,0.0,0.0,0.0,0.0,0.0,0.0,0.0,0.0076549649502793875,-0.0672393301060345,9.811144883423651,0.0,0.0,0.0,0.0,0.0,0.0,0.0,0.0,0.0
2025/04/10 10:33:52.398585339,1744274032,398345114,mA1/imu,0.705581482016941,0.708628222702269,0.0002637370616999333,0.0008629411119540917,0.0,0.0,0.0,0.0,0.0,0.0,0.0,0.0,0.0,-0.0008857880574489511,5.6561613262932416e-05,-2.3019079121739746e-05,0.0,0.0,0.0,0.0,0.0,0.0,0.0,0.0,0.0,0.008174924257246443,0.5487570932880945,9.811892004985516,0.0,0.0,0.0,0.0,0.0,0.0,0.0,0.0,0.0
2025/04/10 10:33:52.451190669,1744274032,449986120,mA1/imu,0.7055810855015076,0.7086286252159669,0.0002610591466951728,0.0008574118992394702,0.0,0.0,0.0,0.0,0.0,0.0,0.0,0.0,0.0,0.0007061767405449534,0.00010410886348691068,-2.2308355543744586e-05,0.0,0.0,0.0,0.0,0.0,0.0,0.0,0.0,0.0,0.007626064077582494,0.03052900847880071,9.808603662011173,0.0,0.0,0.0,0.0,0.0,0.0,0.0,0.0,0.0
2025/04/10 10:33:52.503876294,1744274032,501000932,mA1/imu,0.7055806928209588,0.7086290157601105,0.00026486201220529357,0.0008566150052996462,0.0,0.0,0.0,0.0,0.0,0.0,0.0,0.0,0.0,0.0008286145796247693,0.00014269997000379873,-2.1735169274652324e-05,0.0,0.0,0.0,0.0,0.0,0.0,0.0,0.0,0.0,0.007692820035698669,0.03934516882129167,9.808927379126311,0.0,0.0,0.0,0.0,0.0,0.0,0.0,0.0,0.0
2025/04/10 10:33:52.551146642,1744274032,550857042,mA1/imu,0.7055802995601722,0.7086294068146873,0.00026996399645944254,0.0008554469489837113,0.0,0.0,0.0,0.0,0.0,0.0,0.0,0.0,0.0,0.0009637355305316771,0.00018835202985311255,-2.2686650142205553e-05,0.0,0.0,0.0,0.0,0.0,0.0,0.0,0.0,0.0,0.007371092759302058,-0.5821970977644633,9.809638963229167,0.0,0.0,0.0,0.0,0.0,0.0,0.0,0.0,0.0
2025/04/10 10:33:52.602730326,1744274032,601905218,mA1/imu,0.7055798735049507,0.7086298303550768,0.0002766184940428027,0.0008538839978647237,0.0,0.0,0.0,0.0,0.0,0.0,0.0,0.0,0.0,-0.000620350288564098,0.00024791388734538537,-2.4596632017982162e-05,0.0,0.0,0.0,0.0,0.0,0.0,0.0,0.0,0.0,0.007901406020501314,-0.06261095248440979,9.810074157122399,0.0,0.0,0.0,0.0,0.0,0.0,0.0,0.0,0.0
2025/04/10 10:33:52.653204129,1744274032,651786193,mA1/imu,0.7055794202245064,0.7086302901655434,0.00027847637254697726,0.0008462071007506604,0.0,0.0,0.0,0.0,0.0,0.0,0.0,0.0,0.0,-0.0007454659916028296,0.0002909441077033202,-2.645816426486716e-05,0.0,0.0,0.0,0.0,0.0,0.0,0.0,0.0,0.0,0.007175440565987073,-0.06748024377571027,9.811169225265301,0.0,0.0,0.0,0.0,0.0,0.0,0.0,0.0,0.0
2025/04/10 10:33:52.703104616,1744274032,702693869,mA1/imu,0.7055789334445038,0.7086307839520364,0.0002804410815044897,0.000837894765872994,0.0,0.0,0.0,0.0,0.0,0.0,0.0,0.0,0.0,-0.0009101734432481718,0.0003034155003180404,-2.8326343673474017e-05,0.0,0.0,0.0,0.0,0.0,0.0,0.0,0.0,0.0,0.007794733443842414,0.5485291979168792,9.811879407985113,0.0,0.0,0.0,0.0,0.0,0.0,0.0,0.0,0.0
2025/04/10 10:33:52.752949171,1744274032,752504190,mA1/imu,0.7055784129872671,0.7086313116048809,0.0002818212261635482,0.0008294072051671591,0.0,0.0,0.0,0.0,0.0,0.0,0.0,0.0,0.0,0.0006698737991470868,0.00025427826899083664,-3.0240983372084183e-05,0.0,0.0,0.0,0.0,0.0,0.0,0.0,0.0,0.0,0.009306953573266233,0.03031725948678419,9.808572654897032,0.0,0.0,0.0,0.0,0.0,0.0,0.0,0.0,0.0
2025/04/10 10:33:52.804903584,1744274032,803917150,mA1/imu,0.7055778503872737,0.7086318709775012,0.00028763526417510514,0.0008280964648014259,0.0,0.0,0.0,0.0,0.0,0.0,0.0,0.0,0.0,0.0007821945971225214,0.00016143173870960157,-3.229256671278131e-05,0.0,0.0,0.0,0.0,0.0,0.0,0.0,0.0,0.0,0.009305300979806775,0.0391882982950184,9.808868846416484,0.0,0.0,0.0,0.0,0.0,0.0,0.0,0.0,0.0
2025/04/10 10:33:52.856061786,1744274032,855087718,mA1/imu,0.7055772751352765,0.7086324410128182,0.0002928642673081494,0.0008286057048018362,0.0,0.0,0.0,0.0,0.0,0.0,0.0,0.0,0.0,0.0009103620775601981,0.00011593359755230662,-3.113547592608788e-05,0.0,0.0,0.0,0.0,0.0,0.0,0.0,0.0,0.0,0.007108483041870641,-0.5822122191638098,9.80957017591416,0.0,0.0,0.0,0.0,0.0,0.0,0.0,0.0,0.0
2025/04/10 10:33:52.896297609,1744274032,895954036,mA1/imu,0.7055767539473061,0.7086329559865002,0.00029858032689871746,0.0008299571109950281,0.0,0.0,0.0,0.0,0.0,0.0,0.0,0.0,0.0,-0.000677170818801312,0.00011537552957909165,-2.788513797779163e-05,0.0,0.0,0.0,0.0,0.0,0.0,0.0,0.0,0.0,0.007587755760316055,-0.06263153795135393,9.809977490451798,0.0,0.0,0.0,0.0,0.0,0.0,0.0,0.0,0.0
2025/04/10 10:33:52.946305445,1744274032,946020250,mA1/imu,0.7055762962719145,0.708633416072127,0.0002985584061973345,0.0008262130677415331,0.0,0.0,0.0,0.0,0.0,0.0,0.0,0.0,0.0,-0.0008032758988375644,0.00010640450716230436,-2.467029591268768e-05,0.0,0.0,0.0,0.0,0.0,0.0,0.0,0.0,0.0,0.006844904869372693,-0.06743832416441299,9.811067120696832,0.0,0.0,0.0,0.0,0.0,0.0,0.0,0.0,0.0
2025/04/10 10:33:52.997396145,1744274032,997004841,mA1/imu,0.705575894630636,0.7086338204626907,0.00029783720757569195,0.0008226211924940645,0.0,0.0,0.0,0.0,0.0,0.0,0.0,0.0,0.0,-0.000966375826578507,7.874557579975719e-05,-2.15396360118154e-05,0.0,0.0,0.0,0.0,0.0,0.0,0.0,0.0,0.0,0.007383554957626126,0.5485781928215889,9.81176592571642,0.0,0.0,0.0,0.0,0.0,0.0,0.0,0.0,0.0
2025/04/10 10:33:53.48971902,1744274033,46889700,mA1/imu,0.7055755260062961,0.7086341921269368,0.0002959771177477123,0.000819296703245344,0.0,0.0,0.0,0.0,0.0,0.0,0.0,0.0,0.0,0.0006178078171185,1.3136862106562276e-05,-2.1549598697809258e-05,0.0,0.0,0.0,0.0,0.0,0.0,0.0,0.0,0.0,0.008368868180977873,0.030365569267111855,9.808470522674204,0.0,0.0,0.0,0.0,0.0,0.0,0.0,0.0,0.0
2025/04/10 10:33:53.98145290,1744274033,97810062,mA1/imu,0.7055751167740272,0.708634594188077,0.0002984269801039148,0.0008230738452482994,0.0,0.0,0.0,0.0,0.0,0.0,0.0,0.0,0.0,0.0007367360830648532,-7.459753563519308e-05,-2.3727004285593356e-05,0.0,0.0,0.0,0.0,0.0,0.0,0.0,0.0,0.0,0.008303980459114913,0.0392261027078226,9.808774137844859,0.0,0.0,0.0,0.0,0.0,0.0,0.0,0.0,0.0
2025/04/10 10:33:53.148000409,1744274033,147636689,mA1/imu,0.7055746816166737,0.7086350203540152,0.0003001066580407714,0.000828568275937285,0.0,0.0,0.0,0.0,0.0,0.0,0.0,0.0,0.0,0.0008745111002834094,-0.00013991017678522796,-2.4282728602868457e-05,0.0,0.0,0.0,0.0,0.0,0.0,0.0,0.0,0.0,0.007907641326980665,-0.5820215446820854,9.809509842193973,0.0,0.0,0.0,0.0,0.0,0.0,0.0,0.0,0.0
2025/04/10 10:33:53.198893804,1744274033,198543993,mA1/imu,0.705574254240566,0.7086354374078081,0.0003014953573399162,0.0008352863359922538,0.0,0.0,0.0,0.0,0.0,0.0,0.0,0.0,0.0,-0.0007010191413750074,-0.00016876556975681172,-2.3744360775079507e-05,0.0,0.0,0.0,0.0,0.0,0.0,0.0,0.0,0.0,0.00824928075602569,-0.062463501205855795,9.809939004451195,0.0,0.0,0.0,0.0,0.0,0.0,0.0,0.0,0.0
2025/04/10 10:33:53.248615606,1744274033,248451133,mA1/imu,0.7055738438152849,0.7086358461567062,0.00029668313999374533,0.0008369256880328324,0.0,0.0,0.0,0.0,0.0,0.0,0.0,0.0,0.0,-0.0008140785461247832,-0.0001778061956678716,-2.3136613035131735e-05,0.0,0.0,0.0,0.0,0.0,0.0,0.0,0.0,0.0,0.006939998571264976,-0.06721184696542949,9.81105006120542,0.0,0.0,0.0,0.0,0.0,0.0,0.0,0.0,0.0
2025/04/10 10:33:53.301105294,1744274033,299430199,mA1/imu,0.705573444560541,0.7086362444329308,0.00029125764784286633,0.0008381980356412948,0.0,0.0,0.0,0.0,0.0,0.0,0.0,0.0,0.0,-0.0009648584363655947,-0.00018071310803443883,-2.2515692418674142e-05,0.0,0.0,0.0,0.0,0.0,0.0,0.0,0.0,0.0,0.0073791439920385515,0.5487184806304524,9.811774018188654,0.0,0.0,0.0,0.0,0.0,0.0,0.0,0.0,0.0
2025/04/10 10:33:53.349465481,1744274033,349254460,mA1/imu,0.7055730457655076,0.7086366433419918,0.00028523654251137964,0.0008387146679617308,0.0,0.0,0.0,0.0,0.0,0.0,0.0,0.0,0.0,0.0006321865767274071,-0.00018030562373816207,-2.3387905227737033e-05,0.0,0.0,0.0,0.0,0.0,0.0,0.0,0.0,0.0,0.007073529616187545,0.030346239382074904,9.80850389868377,0.0,0.0,0.0,0.0,0.0,0.0,0.0,0.0,0.0
2025/04/10 10:33:53.401318378,1744274033,400954029,mA1/imu,0.7055726075189142,0.7086370728955904,0.0002848838806254609,0.0008445579342776877,0.0,0.0,0.0,0.0,0.0,0.0,0.0,0.0,0.0,0.0007620927520747124,-0.00017438999156680498,-2.535780217969386e-05,0.0,0.0,0.0,0.0,0.0,0.0,0.0,0.0,0.0,0.007028498804196759,0.03920410547872226,9.80884342679053,0.0,0.0,0.0,0.0,0.0,0.0,0.0,0.0,0.0
2025/04/10 10:33:53.451150640,1744274033,450908099,mA1/imu,0.7055721353605593,0.70863753595425,0.00028516415433381013,0.0008503651184402251,0.0,0.0,0.0,0.0,0.0,0.0,0.0,0.0,0.0,0.000908430061776348,-0.000159309826669541,-2.727878020368297e-05,0.0,0.0,0.0,0.0,0.0,0.0,0.0,0.0,0.0,0.0074531459802481955,-0.5822085218668439,9.809596623506819,0.0,0.0,0.0,0.0,0.0,0.0,0.0,0.0,0.0
2025/04/10 10:33:53.502664778,1744274033,501953222,mA1/imu,0.7055716300581742,0.7086380318052522,0.0002862786024836628,0.0008560261627077295,0.0,0.0,0.0,0.0,0.0,0.0,0.0,0.0,0.0,-0.0006610911269270295,-0.00011916510813870577,-2.911715998941021e-05,0.0,0.0,0.0,0.0,0.0,0.0,0.0,0.0,0.0,0.007838647343682361,-0.06261834567091919,9.81003638769034,0.0,0.0,0.0,0.0,0.0,0.0,0.0,0.0,0.0
2025/04/10 10:33:53.551999241,1744274033,551732792,mA1/imu,0.7055711209005812,0.7086385407328754,0.0002825567697905107,0.0008556288625783059,0.0,0.0,0.0,0.0,0.0,0.0,0.0,0.0,0.0,-0.0007810847911402286,-6.425870949260653e-05,-2.7814255341569383e-05,0.0,0.0,0.0,0.0,0.0,0.0,0.0,0.0,0.0,0.006568015426946467,-0.06817173540747411,9.811157903232504,0.0,0.0,0.0,0.0,0.0,0.0,0.0,0.0,0.0
2025/04/10 10:33:53.603929180,1744274033,603295388,mA1/imu,0.7055706672099109,0.7086389963239706,0.00027902846247845447,0.0008535836420346535,0.0,0.0,0.0,0.0,0.0,0.0,0.0,0.0,0.0,-0.0009216798334386599,-1.1673909496933035e-05,-2.4506291716949928e-05,0.0,0.0,0.0,0.0,0.0,0.0,0.0,0.0,0.0,0.007094546999806849,0.5482860633435072,9.811910065876903,0.0,0.0,0.0,0.0,0.0,0.0,0.0,0.0,0.0
2025/04/10 10:33:53.655097016,1744274033,653155216,mA1/imu,0.7055702715433888,0.7086393961470098,0.0002757188650772181,0.0008497774397748908,0.0,0.0,0.0,0.0,0.0,0.0,0.0,0.0,0.0,0.0006789962612252126,3.893113533876292e-05,-2.1218984778867745e-05,0.0,0.0,0.0,0.0,0.0,0.0,0.0,0.0,0.0,0.006556261428576304,0.030225015310936233,9.808643113142777,0.0,0.0,0.0,0.0,0.0,0.0,0.0,0.0,0.0
2025/04/10 10:33:53.704854036,1744274033,704135452,mA1/imu,0.7055699250185425,0.7086397391401973,0.000278817287397039,0.000850459617933235,0.0,0.0,0.0,0.0,0.0,0.0,0.0,0.0,0.0,0.0008101769705431654,8.355028461441966e-05,-1.8118760730921756e-05,0.0,0.0,0.0,0.0,0.0,0.0,0.0,0.0,0.0,0.006634359906890085,0.03911169622210328,9.808966764685707,0.0,0.0,0.0,0.0,0.0,0.0,0.0,0.0,0.0
2025/04/10 10:33:53.744243008,1744274033,743914249,mA1/imu,0.7055696384964322,0.7086400226851862,0.00028320371443018915,0.0008504565883575184,0.0,0.0,0.0,0.0,0.0,0.0,0.0,0.0,0.0,0.0009545843311769474,0.0001467277081219934,-1.4044911879196914e-05,0.0,0.0,0.0,0.0,0.0,0.0,0.0,0.0,0.0,0.005283621887517079,-0.5823359288578083,9.809622113411248,0.0,0.0,0.0,0.0,0.0,0.0,0.0,0.0,0.0
2025/04/10 10:33:53.795584227,1744274033,795304994,mA1/imu,0.7055694450913005,0.7086402141341388,0.00028966098810581485,0.0008492125692655431,0.0,0.0,0.0,0.0,0.0,0.0,0.0,0.0,0.0,-0.000620040584447988,0.0002511138225666618,-8.485783388492843e-06,0.0,0.0,0.0,0.0,0.0,0.0,0.0,0.0,0.0,0.005879859102198662,-0.06267651896997661,9.810024709176801,0.0,0.0,0.0,0.0,0.0,0.0,0.0,0.0,0.0
2025/04/10 10:33:53.846703864,1744274033,845081241,mA1/imu,0.7055693441877391,0.7086403233820071,0.0002916999997545071,0.0008411484045344449,0.0,0.0,0.0,0.0,0.0,0.0,0.0,0.0,0.0,-0.0007353021240163797,0.00029332368958624635,-5.110601431874125e-06,0.0,0.0,0.0,0.0,0.0,0.0,0.0,0.0,0.0,0.008335094110929472,-0.06733806930920715,9.811106297855114,0.0,0.0,0.0,0.0,0.0,0.0,0.0,0.0,0.0
2025/04/10 10:33:53.898159802,1744274033,896077656,mA1/imu,0.705569257770404,0.7086404184245899,0.0002927108564653828,0.0008331774708014432,0.0,0.0,0.0,0.0,0.0,0.0,0.0,0.0,0.0,-0.0008878620704083657,0.0002412049769506808,-4.948054996164472e-06,0.0,0.0,0.0,0.0,0.0,0.0,0.0,0.0,0.0,0.008886682800097606,0.5486905539140938,9.811866669881512,0.0,0.0,0.0,0.0,0.0,0.0,0.0,0.0,0.0
2025/04/10 10:33:53.946804159,1744274033,945903935,mA1/imu,0.7055691691798243,0.7086405157117385,0.00029217225480308525,0.000825608907019555,0.0,0.0,0.0,0.0,0.0,0.0,0.0,0.0,0.0,0.0007020507994138535,0.00017912799755180877,-5.776432623090683e-06,0.0,0.0,0.0,0.0,0.0,0.0,0.0,0.0,0.0,0.008023488272111329,0.030260213137219806,9.80859776574921,0.0,0.0,0.0,0.0,0.0,0.0,0.0,0.0,0.0
2025/04/10 10:33:53.998874982,1744274033,996844187,mA1/imu,0.7055690369020302,0.7086406467565561,0.00029626126554503114,0.00082471743878304,0.0,0.0,0.0,0.0,0.0,0.0,0.0,0.0,0.0,0.0008220099326932028,0.00011096733020236565,-8.225497947216158e-06,0.0,0.0,0.0,0.0,0.0,0.0,0.0,0.0,0.0,0.008049371612982055,0.03911475682195136,9.808898639700597,0.0,0.0,0.0,0.0,0.0,0.0,0.0,0.0,0.0
2025/04/10 10:33:54.46947667,1744274034,46657201,mA1/imu,0.7055637850227009,0.7086458689584773,0.0002902852733282338,0.0008327106246281613,0.0,0.0,0.0,0.0,0.0,0.0,0.0,0.0,0.0,0.0010971533536063723,-0.0015326780090569492,-0.0009677342833378347,0.0,0.0,0.0,0.0,0.0,0.0,0.0,0.0,0.0,0.12824411948560374,-0.5538585642803324,9.807211443639574,0.0,0.0,0.0,0.0,0.0,0.0,0.0,0.0,0.0
2025/04/10 10:33:54.97913868,1744274034,97531164,mA1/imu,0.7055300017188252,0.7086794682405029,0.00023773309456672696,0.0008783233848268989,0.0,0.0,0.0,0.0,0.0,0.0,0.0,0.0,0.0,-0.00013700132044259445,-0.002963581466445144,-0.002135468399312975,0.0,0.0,0.0,0.0,0.0,0.0,0.0,0.0,0.0,0.01650639493740473,-0.03194649933619389,9.809776385419429,0.0,0.0,0.0,0.0,0.0,0.0,0.0,0.0,0.0
2025/04/10 10:33:54.147701581,1744274034,147478754,mA1/imu,0.7054905622561495,0.7087187080539762,0.00017298324078477605,0.0009107681390614472,0.0,0.0,0.0,0.0,0.0,0.0,0.0,0.0,0.0,0.00026537699070128235,-0.00246809715927752,-0.0022279629139238437,0.0,0.0,0.0,0.0,0.0,0.0,0.0,0.0,0.0,-0.005556546700038216,0.0024139906487007836,9.81164461785739,0.0,0.0,0.0,0.0,0.0,0.0,0.0,0.0,0.0
2025/04/10 10:33:54.200297141,1744274034,198433006,mA1/imu,0.705449860448263,0.7087592223482587,0.00010782323102693305,0.0009205997875053294,0.0,0.0,0.0,0.0,0.0,0.0,0.0,0.0,0.0,0.0007403009211508351,-0.0019561296160421566,-0.002424042005794869,0.0,0.0,0.0,0.0,0.0,0.0,0.0,0.0,0.0,0.013751492309144442,0.614117863048161,9.814385528077276,0.0,0.0,0.0,0.0,0.0,0.0,0.0,0.0,0.0
2025/04/10 10:33:54.248732831,1744274034,248303724,mA1/imu,0.7054041623202432,0.7088047266370838,3.67037252680641e-05,0.0009088074831110351,0.0,0.0,0.0,0.0,0.0,0.0,0.0,0.0,0.0,0.0024355515953350063,-0.0012922185952014182,-0.002605559450466127,0.0,0.0,0.0,0.0,0.0,0.0,0.0,0.0,0.0,-0.012862988869838263,0.2887819571958838,9.808454765085333,0.0,0.0,0.0,0.0,0.0,0.0,0.0,0.0,0.0
2025/04/10 10:33:54.299694213,1744274034,299309140,mA1/imu,0.7053586752338419,0.7088500433020088,-2.644950964921113e-05,0.0008687252288941699,0.0,0.0,0.0,0.0,0.0,0.0,0.0,0.0,0.0,0.002476319741733947,-0.00020654454563680797,-0.00254742727530418,0.0,0.0,0.0,0.0,0.0,0.0,0.0,0.0,0.0,-0.009047858098844118,0.5360330486711491,9.81072019192292,0.0,0.0,0.0,0.0,0.0,0.0,0.0,0.0,0.0
2025/04/10 10:33:54.349341326,1744274034,349099066,mA1/imu,0.7053148818567938,0.7088937091175344,-9.36289431909399e-05,0.0007860270621212053,0.0,0.0,0.0,0.0,0.0,0.0,0.0,0.0,0.0,0.005594676161844934,0.0008756714389703185,-0.0024410633396976726,0.0,0.0,0.0,0.0,0.0,0.0,0.0,0.0,0.0,-0.01072589577473985,-0.19729035621057148,9.811260176751057,0.0,0.0,0.0,0.0,0.0,0.0,0.0,0.0,0.0
2025/04/10 10:33:54.400303412,1744274034,400072866,mA1/imu,0.70527213514158,0.70893634151494,-0.0001494102627067222,0.0006758319486375572,0.0,0.0,0.0,0.0,0.0,0.0,0.0,0.0,0.0,0.00465326005359305,0.001959617960822654,-0.002401701446017673,0.0,0.0,0.0,0.0,0.0,0.0,0.0,0.0,0.0,-0.01001306463721709,0.7326597720568683,9.811206629036523,0.0,0.0,0.0,0.0,0.0,0.0,0.0,0.0,0.0
2025/04/10 10:33:54.450971576,1744274034,450789664,mA1/imu,0.7052329084424798,0.7089754732814918,-0.0002012139192121361,0.0005316465033032118,0.0,0.0,0.0,0.0,0.0,0.0,0.0,0.0,0.0,0.007163073461906562,0.0030579822844182046,-0.002055900634534688,0.0,0.0,0.0,0.0,0.0,0.0,0.0,0.0,0.0,-0.016480056068473175,-0.12623176500845112,9.81079481471686,0.0,0.0,0.0,0.0,0.0,0.0,0.0,0.0,0.0
2025/04/10 10:33:54.504069569,1744274034,503366787,mA1/imu,0.7051997442806771,0.7090085526389133,-0.0002356306245080213,0.00037071491719795156,0.0,0.0,0.0,0.0,0.0,0.0,0.0,0.0,0.0,0.006673687060153356,0.0037354481387881586,-0.001833975864931676,0.0,0.0,0.0,0.0,0.0,0.0,0.0,0.0,0.0,0.0042747533480533215,-0.45188992193238997,9.809870309355743,0.0,0.0,0.0,0.0,0.0,0.0,0.0,0.0,0.0
2025/04/10 10:33:54.553438183,1744274034,553180700,mA1/imu,-0.7051676248351905,-0.7090405539557963,0.00027131111934774804,-0.00020030134842302988,0.0,0.0,0.0,0.0,0.0,0.0,0.0,0.0,0.0,0.005423545402839352,0.003898864087850738,-0.001800202234490659,0.0,0.0,0.0,0.0,0.0,0.0,0.0,0.0,0.0,-0.002404507652132814,0.08477268722190108,9.810182940556981,0.0,0.0,0.0,0.0,0.0,0.0,0.0,0.0,0.0
2025/04/10 10:33:54.595192161,1744274034,594842194,mA1/imu,-0.7051376400610583,-0.7090703892813766,0.0003013962540504397,-2.781684555100281e-05,0.0,0.0,0.0,0.0,0.0,0.0,0.0,0.0,0.0,0.004886101775547403,0.004170925896548549,-0.0015574147023868243,0.0,0.0,0.0,0.0,0.0,0.0,0.0,0.0,0.0,-0.007130951110607833,0.0751045086961033,9.810714889501106,0.0,0.0,0.0,0.0,0.0,0.0,0.0,0.0,0.0
2025/04/10 10:33:54.647225353,1744274034,644985434,mA1/imu,-0.705111248846077,-0.7090966121300489,0.0003220953532263553,0.00013293229853622384,0.0,0.0,0.0,0.0,0.0,0.0,0.0,0.0,0.0,0.004909137438164565,0.00373657454897779,-0.0014951918095197757,0.0,0.0,0.0,0.0,0.0,0.0,0.0,0.0,0.0,0.011029244915280637,0.1125465168207977,9.811225498452957,0.0,0.0,0.0,0.0,0.0,0.0,0.0,0.0,0.0
2025/04/10 10:33:54.698940276,1744274034,696053391,mA1/imu,-0.7050844210791037,-0.7091232469479737,0.0003321473631884085,0.0002635671404234385,0.0,0.0,0.0,0.0,0.0,0.0,0.0,0.0,0.0,0.002853030148139472,0.003137125520947079,-0.0015633846953271367,0.0,0.0,0.0,0.0,0.0,0.0,0.0,0.0,0.0,0.010405326898871765,0.5288931858906819,9.809397932074235,0.0,0.0,0.0,0.0,0.0,0.0,0.0,0.0,0.0
2025/04/10 10:33:54.746058059,1744274034,745887653,mA1/imu,-0.7050556574157503,-0.709151793823148,0.000343606113038882,0.0003676932073392841,0.0,0.0,0.0,0.0,0.0,0.0,0.0,0.0,0.0,0.001242968447908614,0.0022986142185005896,-0.001644010461377824,0.0,0.0,0.0,0.0,0.0,0.0,0.0,0.0,0.0,0.008124627215079892,0.6388338778800262,9.809363503107232,0.0,0.0,0.0,0.0,0.0,0.0,0.0,0.0,0.0
2025/04/10 10:33:54.797869176,1744274034,797531393,mA1/imu,-0.7050263441514474,-0.7091809011890929,0.00034188665508851833,0.0004319196523508148,0.0,0.0,0.0,0.0,0.0,0.0,0.0,0.0,0.0,0.0006119593925909056,0.001598338004619593,-0.0016551525121953224,0.0,0.0,0.0,0.0,0.0,0.0,0.0,0.0,0.0,-0.0009807364989126936,0.6826545619069104,9.810838492482418,0.0,0.0,0.0,0.0,0.0,0.0,0.0,0.0,0.0
2025/04/10 10:33:54.848451904,1744274034,847646063,mA1/imu,-0.7049966849263892,-0.7092103777195875,0.00032693236757923614,0.00045551385096219876,0.0,0.0,0.0,0.0,0.0,0.0,0.0,0.0,0.0,0.00016358497952335515,0.0007757373844287036,-0.0016856419257181873,0.0,0.0,0.0,0.0,0.0,0.0,0.0,0.0,0.0,-0.0020653430962168395,0.11647788872080939,9.806738329635627,0.0,0.0,0.0,0.0,0.0,0.0,0.0,0.0,0.0
2025/04/10 10:33:54.898682381,1744274034,898516000,mA1/imu,-0.704966705918437,-0.7092401937774183,0.0003064704347254293,0.00044401908820814644,0.0,0.0,0.0,0.0,0.0,0.0,0.0,0.0,0.0,-0.001668652773025882,-0.00016128652007700337,-0.0017102233778396039,0.0,0.0,0.0,0.0,0.0,0.0,0.0,0.0,0.0,0.008556343819822178,0.7157876141249867,9.809284074913753,0.0,0.0,0.0,0.0,0.0,0.0,0.0,0.0,0.0
2025/04/10 10:33:54.948972829,1744274034,948599859,mA1/imu,-0.7049359056748306,-0.709270852752168,0.0002762185651773788,0.0003873369634244686,0.0,0.0,0.0,0.0,0.0,0.0,0.0,0.0,0.0,-0.003600045964686267,-0.0010669278024879128,-0.0017501884412407078,0.0,0.0,0.0,0.0,0.0,0.0,0.0,0.0,0.0,-0.0018275343769726092,0.6670915940514489,9.809062162317352,0.0,0.0,0.0,0.0,0.0,0.0,0.0,0.0,0.0
2025/04/10 10:33:54.999923195,1744274034,999524639,mA1/imu,-0.704904505954593,-0.7093021139517781,0.00024342254832685197,0.0002989547005043329,0.0,0.0,0.0,0.0,0.0,0.0,0.0,0.0,0.0,-0.0035101678586711028,-0.001959339361611573,-0.0017917848283514797,0.0,0.0,0.0,0.0,0.0,0.0,0.0,0.0,0.0,0.007875540675543791,0.12994369286646287,9.808231201653939,0.0,0.0,0.0,0.0,0.0,0.0,0.0,0.0,0.0
2025/04/10 10:33:55.49608573,1744274035,49340397,mA1/imu,-0.7048721964445549,-0.7093342765211778,0.00020339086371206835,0.00017165011724016275,0.0,0.0,0.0,0.0,0.0,0.0,0.0,0.0,0.0,-0.00454983605113356,-0.0027706796882610595,-0.001838764486924664,0.0,0.0,0.0,0.0,0.0,0.0,0.0,0.0,0.0,0.0017392826877021786,0.12496858329400871,9.808231734799906,0.0,0.0,0.0,0.0,0.0,0.0,0.0,0.0,0.0
2025/04/10 10:33:55.102316054,1744274035,100307838,mA1/imu,-0.7048391607630273,-0.7093671354825193,0.0001561281032308116,1.3274484125036008e-05,0.0,0.0,0.0,0.0,0.0,0.0,0.0,0.0,0.0,-0.004740025946992131,-0.0034636866066381842,-0.0018873858706302308,0.0,0.0,0.0,0.0,0.0,0.0,0.0,0.0,0.0,0.0096736762440262,-0.38326011389337006,9.807218372220774,0.0,0.0,0.0,0.0,0.0,0.0,0.0,0.0,0.0
2025/04/10 10:33:55.151300542,1744274035,151124816,mA1/imu,0.7048050876942319,0.7094009786683381,-0.0001088209767406031,0.0001672803791843515,0.0,0.0,0.0,0.0,0.0,0.0,0.0,0.0,0.0,-0.007763472922764028,-0.003891500940720803,-0.0019319998988578616,0.0,0.0,0.0,0.0,0.0,0.0,0.0,0.0,0.0,-0.0012075105267629572,0.6246690044376034,9.809690070093776,0.0,0.0,0.0,0.0,0.0,0.0,0.0,0.0,0.0
2025/04/10 10:33:55.202361646,1744274035,202102147,mA1/imu,0.704771989033915,0.709433798091408,-5.757271189315609e-05,0.00035536482854818443,0.0,0.0,0.0,0.0,0.0,0.0,0.0,0.0,0.0,-0.007082141789031836,-0.0038068799564221134,-0.0017517243150841249,0.0,0.0,0.0,0.0,0.0,0.0,0.0,0.0,0.0,-0.007539351348845253,-0.1757869010386604,9.809736631508978,0.0,0.0,0.0,0.0,0.0,0.0,0.0,0.0,0.0
2025/04/10 10:33:55.252095294,1744274035,251935660,mA1/imu,0.7047417435160794,0.7094637294281437,-6.327275921492667e-06,0.0005399368407683925,0.0,0.0,0.0,0.0,0.0,0.0,0.0,0.0,0.0,-0.006368608653705015,-0.0037785515836534105,-0.0017100334001972635,0.0,0.0,0.0,0.0,0.0,0.0,0.0,0.0,0.0,0.0005265554857577567,0.10369095231769107,9.810944269793104,0.0,0.0,0.0,0.0,0.0,0.0,0.0,0.0,0.0
2025/04/10 10:33:55.304692294,1744274035,302942203,mA1/imu,0.7047111313876033,0.7094939769674999,4.407774350985265e-05,0.0007183330683962938,0.0,0.0,0.0,0.0,0.0,0.0,0.0,0.0,0.0,-0.006536719856830736,-0.0035797500187048446,-0.0017348140273111686,0.0,0.0,0.0,0.0,0.0,0.0,0.0,0.0,0.0,0.007685240405625876,0.704802965859511,9.811018872131955,0.0,0.0,0.0,0.0,0.0,0.0,0.0,0.0,0.0
2025/04/10 10:33:55.353409981,1744274035,353199367,mA1/imu,0.7046820615693586,0.7095226488364987,0.00010209995832952232,0.0008902055917207116,0.0,0.0,0.0,0.0,0.0,0.0,0.0,0.0,0.0,-0.006411364454497822,-0.002663992777884424,-0.0013532892052881646,0.0,0.0,0.0,0.0,0.0,0.0,0.0,0.0,0.0,-0.043760143161622515,0.4120396303270822,9.809033488262187,0.0,0.0,0.0,0.0,0.0,0.0,0.0,0.0,0.0
2025/04/10 10:33:55.394806921,1744274035,394525272,mA1/imu,0.7046645463296843,0.709539855920048,0.0001678746795123297,0.0010206983048929813,0.0,0.0,0.0,0.0,0.0,0.0,0.0,0.0,0.0,-0.0055343804175921165,-0.0016203675114203485,-0.0009440959490382505,0.0,0.0,0.0,0.0,0.0,0.0,0.0,0.0,0.0,0.008211180957680345,0.03673156320030885,9.81153970265479,0.0,0.0,0.0,0.0,0.0,0.0,0.0,0.0,0.0
2025/04/10 10:33:55.446626000,1744274035,444550297,mA1/imu,0.7046475293334165,0.7095565968519073,0.00021718519052830353,0.0011171834426959106,0.0,0.0,0.0,0.0,0.0,0.0,0.0,0.0,0.0,-0.003297121779343491,-0.001162175023440812,-0.0009595985240553813,0.0,0.0,0.0,0.0,0.0,0.0,0.0,0.0,0.0,0.008203147493031925,0.042488084491201034,9.811097947294524,0.0,0.0,0.0,0.0,0.0,0.0,0.0,0.0,0.0
2025/04/10 10:33:55.495793807,1744274035,495435947,mA1/imu,0.7046305948890496,0.7095732845031184,0.0002623352519683164,0.0011873693513386875,0.0,0.0,0.0,0.0,0.0,0.0,0.0,0.0,0.0,-0.0024675508416212573,-0.00047883619216740114,-0.0009505892767078083,0.0,0.0,0.0,0.0,0.0,0.0,0.0,0.0,0.0,0.007363178869635998,0.18604025256629436,9.811597723655783,0.0,0.0,0.0,0.0,0.0,0.0,0.0,0.0,0.0
2025/04/10 10:33:55.545873634,1744274035,545666701,mA1/imu,0.7046131052670627,0.709590564946782,0.00029955483296647536,0.0012297525426097175,0.0,0.0,0.0,0.0,0.0,0.0,0.0,0.0,0.0,-0.0007023754732698402,3.502920363372307e-05,-0.0010398730948383463,0.0,0.0,0.0,0.0,0.0,0.0,0.0,0.0,0.0,0.008313068213724493,-0.5189405870564053,9.809469557718419,0.0,0.0,0.0,0.0,0.0,0.0,0.0,0.0,0.0
2025/04/10 10:33:55.597367633,1744274035,596982880,mA1/imu,0.7045932851674398,0.7096102365126947,0.0003158687339741477,0.0012308372333854351,0.0,0.0,0.0,0.0,0.0,0.0,0.0,0.0,0.0,0.0006935097937254271,0.0006780583791640533,-0.001138893733185975,0.0,0.0,0.0,0.0,0.0,0.0,0.0,0.0,0.0,0.005243716534707449,-0.18806439250750168,9.811257682270124,0.0,0.0,0.0,0.0,0.0,0.0,0.0,0.0,0.0
2025/04/10 10:33:55.647161811,1744274035,646794888,mA1/imu,0.704572668793021,0.7096307562234698,0.00032189776358780423,0.0012002472312147394,0.0,0.0,0.0,0.0,0.0,0.0,0.0,0.0,0.0,0.001452640244286615,0.0012733834826937904,-0.0011765120701238278,0.0,0.0,0.0,0.0,0.0,0.0,0.0,0.0,0.0,0.004733828554286562,-0.5536073105897782,9.811988898082353,0.0,0.0,0.0,0.0,0.0,0.0,0.0,0.0,0.0
2025/04/10 10:33:55.698114159,1744274035,697809412,mA1/imu,0.7045543173259717,0.7096490907486626,0.0003176434279226357,0.0011318301919535628,0.0,0.0,0.0,0.0,0.0,0.0,0.0,0.0,0.0,0.0014171077047958533,0.0020548648969328006,-0.001011354326226096,0.0,0.0,0.0,0.0,0.0,0.0,0.0,0.0,0.0,0.007665410613750054,0.41058346564881304,9.813099815415423,0.0,0.0,0.0,0.0,0.0,0.0,0.0,0.0,0.0
2025/04/10 10:33:55.747991359,1744274035,747662872,mA1/imu,0.7045360055306583,0.7096674333070295,0.00029664121871408747,0.0010310277902725502,0.0,0.0,0.0,0.0,0.0,0.0,0.0,0.0,0.0,0.003063182620054612,0.0024214909759743743,-0.001087887125430312,0.0,0.0,0.0,0.0,0.0,0.0,0.0,0.0,0.0,0.0058037332439260765,0.47614076171472314,9.809791525565924,0.0,0.0,0.0,0.0,0.0,0.0,0.0,0.0,0.0
2025/04/10 10:33:55.801645684,1744274035,800987605,mA1/imu,0.704515376655859,0.7096880928170667,0.0002634189403308934,0.0009086141036884047,0.0,0.0,0.0,0.0,0.0,0.0,0.0,0.0,0.0,0.005215417103955821,0.0026100439536547765,-0.0011893294317301135,0.0,0.0,0.0,0.0,0.0,0.0,0.0,0.0,0.0,0.007151252677289041,0.09668774724866856,9.810602805188658,0.0,0.0,0.0,0.0,0.0,0.0,0.0,0.0,0.0
2025/04/10 10:33:55.849187313,1744274035,848719900,mA1/imu,0.7044940246609833,0.7097094659568032,0.00022031953818955907,0.0007711080211084845,0.0,0.0,0.0,0.0,0.0,0.0,0.0,0.0,0.0,0.006399423566566883,0.00277944839731915,-0.0012150937782282722,0.0,0.0,0.0,0.0,0.0,0.0,0.0,0.0,0.0,-0.0014194442676226538,-0.49539616987083096,9.80968058066492,0.0,0.0,0.0,0.0,0.0,0.0,0.0,0.0,0.0
2025/04/10 10:33:55.900063312,1744274035,899701688,mA1/imu,0.7044723412636436,0.7097311453343924,0.00017492129204638512,0.0006254113796203928,0.0,0.0,0.0,0.0,0.0,0.0,0.0,0.0,0.0,0.0046207522282939424,0.002808375585562944,-0.00124072209538835,0.0,0.0,0.0,0.0,0.0,0.0,0.0,0.0,0.0,0.009338478237691072,0.5229072255215863,9.811033842823093,0.0,0.0,0.0,0.0,0.0,0.0,0.0,0.0,0.0
2025/04/10 10:33:55.952369038,1744274035,949547657,mA1/imu,0.7044500680989714,0.7097533854278747,0.00011329272817779492,0.00046967412442162703,0.0,0.0,0.0,0.0,0.0,0.0,0.0,0.0,0.0,0.006599701083442946,0.002603093087110157,-0.0012684544262911049,0.0,0.0,0.0,0.0,0.0,0.0,0.0,0.0,0.0,0.005878979482805945,-0.5352751348687675,9.809506336350369,0.0,0.0,0.0,0.0,0.0,0.0,0.0,0.0,0.0
2025/04/10 10:33:56.932184,1744274036,532228,mA1/imu,0.7044273917733134,0.7097759836018478,4.5638397249042904e-05,0.0003173934670300619,0.0,0.0,0.0,0.0,0.0,0.0,0.0,0.0,0.0,0.006856062218231418,0.002268550860058136,-0.0012896910723462687,0.0,0.0,0.0,0.0,0.0,0.0,0.0,0.0,0.0,0.007250745842988095,-0.31208641639486245,9.809855120608525,0.0,0.0,0.0,0.0,0.0,0.0,0.0,0.0,0.0
2025/04/10 10:33:56.50738159,1744274036,50556717,mA1/imu,0.7044043360563789,0.7097989136627382,-1.980621296078596e-05,0.0001819776988684728,0.0,0.0,0.0,0.0,0.0,0.0,0.0,0.0,0.0,0.0056288647427220175,0.0018513026524670116,-0.001304486904771718,0.0,0.0,0.0,0.0,0.0,0.0,0.0,0.0,0.0,0.0011887866942749264,0.05270821439191888,9.809065096734946,0.0,0.0,0.0,0.0,0.0,0.0,0.0,0.0,0.0
2025/04/10 10:33:56.101776251,1744274036,101558242,mA1/imu,-0.7043811303246765,-0.7098219579555071,8.767594182433283e-05,-5.966297409025229e-05,0.0,0.0,0.0,0.0,0.0,0.0,0.0,0.0,0.0,0.00608740079999462,0.0012963674174559076,-0.001321381567090918,0.0,0.0,0.0,0.0,0.0,0.0,0.0,0.0,0.0,0.01041638964986345,-0.4159134003460078,9.808381154612919,0.0,0.0,0.0,0.0,0.0,0.0,0.0,0.0,0.0
2025/04/10 10:33:56.153235100,1744274036,151334963,mA1/imu,-0.7043574091772475,-0.7098454881010738,0.0001489329049696871,3.128343795117085e-05,0.0,0.0,0.0,0.0,0.0,0.0,0.0,0.0,0.0,0.0037177159323820547,0.0005697776774214778,-0.0013362598431087946,0.0,0.0,0.0,0.0,0.0,0.0,0.0,0.0,0.0,0.009059781721375348,0.43900661161568344,9.809891098221224,0.0,0.0,0.0,0.0,0.0,0.0,0.0,0.0,0.0
2025/04/10 10:33:56.203936244,1744274036,202258035,mA1/imu,-0.7043336632958922,-0.7098690294132927,0.0002074849877496305,9.369097333624887e-05,0.0,0.0,0.0,0.0,0.0,0.0,0.0,0.0,0.0,0.00293639307031386,-0.00019147862230121433,-0.0013519349252144053,0.0,0.0,0.0,0.0,0.0,0.0,0.0,0.0,0.0,0.011198007086679371,0.009673481576266994,9.809134086923178,0.0,0.0,0.0,0.0,0.0,0.0,0.0,0.0,0.0
2025/04/10 10:33:56.252379737,1744274036,252060482,mA1/imu,-0.7043087873333529,-0.709893689333776,0.00025902402990485605,0.00012180170069778271,0.0,0.0,0.0,0.0,0.0,0.0,0.0,0.0,0.0,0.001998402818093784,-0.0009722274759393268,-0.0014758174895183448,0.0,0.0,0.0,0.0,0.0,0.0,0.0,0.0,0.0,0.01022762432108836,0.05471360010239227,9.810771678282753,0.0,0.0,0.0,0.0,0.0,0.0,0.0,0.0,0.0
2025/04/10 10:33:56.304854377,1744274036,303031690,mA1/imu,-0.7042809702775947,-0.7099212717342644,0.00029946380923264696,0.00011474093137124841,0.0,0.0,0.0,0.0,0.0,0.0,0.0,0.0,0.0,-0.00014898083418588175,-0.001583230659922709,-0.0015986461238067377,0.0,0.0,0.0,0.0,0.0,0.0,0.0,0.0,0.0,0.00839105834723422,0.00662218411517042,9.810727273091983,0.0,0.0,0.0,0.0,0.0,0.0,0.0,0.0,0.0
2025/04/10 10:33:56.353126045,1744274036,352897872,mA1/imu,-0.7042527262014671,-0.7099492827844679,0.00032781859029765484,7.77598411404491e-05,0.0,0.0,0.0,0.0,0.0,0.0,0.0,0.0,0.0,-4.134338763273554e-05,-0.0019145147327253064,-0.0015058131169133865,0.0,0.0,0.0,0.0,0.0,0.0,0.0,0.0,0.0,-0.009191896184727549,-0.5242994497055301,9.807235314502872,0.0,0.0,0.0,0.0,0.0,0.0,0.0,0.0,0.0
2025/04/10 10:33:56.405879898,1744274036,403888029,mA1/imu,-0.7042281613856012,-0.7099736540108306,0.0003274581139219294,9.651352449544897e-06,0.0,0.0,0.0,0.0,0.0,0.0,0.0,0.0,0.0,-0.0029167166103098506,-0.0020771639975828682,-0.0013819257969394953,0.0,0.0,0.0,0.0,0.0,0.0,0.0,0.0,0.0,0.009831050661633693,-0.008181497145154381,9.808547200354862,0.0,0.0,0.0,0.0,0.0,0.0,0.0,0.0,0.0
2025/04/10 10:33:56.445462095,1744274036,444996309,mA1/imu,-0.7042031599668321,-0.7099984497609785,0.0003244304761167398,-7.466325553571977e-05,0.0,0.0,0.0,0.0,0.0,0.0,0.0,0.0,0.0,-0.005162425294048346,-0.002441160302153366,-0.001426589615987523,0.0,0.0,0.0,0.0,0.0,0.0,0.0,0.0,0.0,0.010566461226690957,0.5483148324634134,9.808432466588329,0.0,0.0,0.0,0.0,0.0,0.0,0.0,0.0,0.0
2025/04/10 10:33:56.494951268,1744274036,494606513,mA1/imu,-0.7041773068014108,-0.7100240781209235,0.000309330941226051,-0.00018272606082278683,0.0,0.0,0.0,0.0,0.0,0.0,0.0,0.0,0.0,-0.003298489012799822,-0.0027288233199403837,-0.0014737869777856475,0.0,0.0,0.0,0.0,0.0,0.0,0.0,0.0,0.0,0.00911488653544366,0.11786649677863073,9.808775427789378,0.0,0.0,0.0,0.0,0.0,0.0,0.0,0.0,0.0
2025/04/10 10:33:56.548553376,1744274036,544954057,mA1/imu,0.7041505900653393,0.710050539689422,-0.0002543922139648196,0.00033597916073017654,0.0,0.0,0.0,0.0,0.0,0.0,0.0,0.0,0.0,-0.004724181060879306,-0.0028526387698366035,-0.001518511416445869,0.0,0.0,0.0,0.0,0.0,0.0,0.0,0.0,0.0,0.009222673363144081,-0.5521750519969955,9.807799449655212,0.0,0.0,0.0,0.0,0.0,0.0,0.0,0.0,0.0
2025/04/10 10:33:56.596268701,1744274036,595964869,mA1/imu,0.7041233104399879,0.7100775307224627,-0.0002142390417653314,0.0004670757491994016,0.0,0.0,0.0,0.0,0.0,0.0,0.0,0.0,0.0,-0.0070519229980066205,-0.0024550205363878417,-0.001548251455280048,0.0,0.0,0.0,0.0,0.0,0.0,0.0,0.0,0.0,0.00824464955409525,0.22094078640359868,9.809025593030537,0.0,0.0,0.0,0.0,0.0,0.0,0.0,0.0,0.0
2025/04/10 10:33:56.646257832,1744274036,645796058,mA1/imu,0.7040952675551021,0.7101052329614064,-0.00013584286860278996,0.0006275938582804142,0.0,0.0,0.0,0.0,0.0,0.0,0.0,0.0,0.0,-0.006132191052637496,-0.0022626549035609845,-0.0015911686790060467,0.0,0.0,0.0,0.0,0.0,0.0,0.0,0.0,0.0,0.007800943154317987,-0.24294830225217343,9.809799043737183,0.0,0.0,0.0,0.0,0.0,0.0,0.0,0.0,0.0
2025/04/10 10:33:56.697045771,1744274036,696779013,mA1/imu,0.7040664897250252,0.7101336423918084,-7.059487453737443e-05,0.0007635482877133479,0.0,0.0,0.0,0.0,0.0,0.0,0.0,0.0,0.0,-0.007100306521908084,-0.0018462391222951356,-0.0016309211066048094,0.0,0.0,0.0,0.0,0.0,0.0,0.0,0.0,0.0,0.007374073193589972,-0.018080430135987653,9.80963601696205,0.0,0.0,0.0,0.0,0.0,0.0,0.0,0.0,0.0
2025/04/10 10:33:56.748618735,1744274036,746626166,mA1/imu,0.7040369924690579,0.7101627296261911,1.1137432834922403e-05,0.0009003115896676301,0.0,0.0,0.0,0.0,0.0,0.0,0.0,0.0,0.0,-0.005823980646041148,-0.0013773411116409803,-0.0016688950116693847,0.0,0.0,0.0,0.0,0.0,0.0,0.0,0.0,0.0,0.0061522194852250845,0.2285605275295003,9.810825474732178,0.0,0.0,0.0,0.0,0.0,0.0,0.0,0.0,0.0
2025/04/10 10:33:56.799745904,1744274036,797591257,mA1/imu,0.7040068438839636,0.7101924440333689,9.83866399745053e-05,0.0010229968327352171,0.0,0.0,0.0,0.0,0.0,0.0,0.0,0.0,0.0,-0.006011216326597617,-0.0007889830228271298,-0.0017040602194007552,0.0,0.0,0.0,0.0,0.0,0.0,0.0,0.0,0.0,0.006159325472422549,0.012687498767196916,9.810526348214829,0.0,0.0,0.0,0.0,0.0,0.0,0.0,0.0,0.0
2025/04/10 10:33:56.849256696,1744274036,847413065,mA1/imu,0.7039762207617485,0.7102226313662318,0.00018539111105715645,0.0011225539485883833,0.0,0.0,0.0,0.0,0.0,0.0,0.0,0.0,0.0,-0.004128429556331905,-3.619167979324594e-05,-0.0017146492287944874,0.0,0.0,0.0,0.0,0.0,0.0,0.0,0.0,0.0,-0.005211690448063973,-0.5373699865790977,9.810098870164994,0.0,0.0,0.0,0.0,0.0,0.0,0.0,0.0,0.0
2025/04/10 10:33:56.898561144,1744274036,898367330,mA1/imu,0.703945711415918,0.7102527254123027,0.000275294499189932,0.001194000197677921,0.0,0.0,0.0,0.0,0.0,0.0,0.0,0.0,0.0,-0.004387375033193248,0.0007772285227256822,-0.001717622234022335,0.0,0.0,0.0,0.0,0.0,0.0,0.0,0.0,0.0,0.004847894614459135,0.015240002646410022,9.813056542866853,0.0,0.0,0.0,0.0,0.0,0.0,0.0,0.0,0.0
2025/04/10 10:33:56.949770971,1744274036,949455672,mA1/imu,0.7039148378992928,0.7102832169459482,0.00035711720628166997,0.001234980740046889,0.0,0.0,0.0,0.0,0.0,0.0,0.0,0.0,0.0,-0.004481256152277435,0.0013827919353044998,-0.00174341493591848,0.0,0.0,0.0,0.0,0.0,0.0,0.0,0.0,0.0,0.005335420793755683,0.32740866842102695,9.81174231513066,0.0,0.0,0.0,0.0,0.0,0.0,0.0,0.0,0.0
2025/04/10 10:33:57.2442176,1744274037,616603,mA1/imu,0.7038834814198182,0.7103142331036584,0.00042708096541156594,0.0012459681084941556,0.0,0.0,0.0,0.0,0.0,0.0,0.0,0.0,0.0,-0.002478848988811331,0.0018478466977530363,-0.0017723352467080894,0.0,0.0,0.0,0.0,0.0,0.0,0.0,0.0,0.0,0.006639431229495089,0.22259716577007002,9.812591175037827,0.0,0.0,0.0,0.0,0.0,0.0,0.0,0.0,0.0
2025/04/10 10:33:57.52137035,1744274037,50410159,mA1/imu,0.7038517758917596,0.7103456513991429,0.0004808934069657958,0.0012255014788007871,0.0,0.0,0.0,0.0,0.0,0.0,0.0,0.0,0.0,-0.0002267951113101147,0.0022570513496158215,-0.0017766410671424078,0.0,0.0,0.0,0.0,0.0,0.0,0.0,0.0,0.0,0.004767313946798721,0.05317260459173204,9.81254670087905,0.0,0.0,0.0,0.0,0.0,0.0,0.0,0.0,0.0
