time,header_stamp_secs,header_stamp_nsecs,header_frame_id,child_frame_id,pose_pose_position_x,pose_pose_position_y,pose_pose_position_z,pose_pose_orientation_x,pose_pose_orientation_y,pose_pose_orientation_z,pose_pose_orientation_w,pose_covariance_0,pose_covariance_1,pose_covariance_2,pose_covariance_3,pose_covariance_4,pose_covariance_5,pose_covariance_6,pose_covariance_7,pose_covariance_8,pose_covariance_9,pose_covariance_10,pose_covariance_11,pose_covariance_12,pose_covariance_13,pose_covariance_14,pose_covariance_15,pose_covariance_16,pose_covariance_17,pose_covariance_18,pose_covariance_19,pose_covariance_20,pose_covariance_21,pose_covariance_22,pose_covariance_23,pose_covariance_24,pose_covariance_25,pose_covariance_26,pose_covariance_27,pose_covariance_28,pose_covariance_29,pose_covariance_30,pose_covariance_31,pose_covariance_32,pose_covariance_33,pose_covariance_34,pose_covariance_35,twist_twist_linear_x,twist_twist_linear_y,twist_twist_linear_z,twist_twist_angular_x,twist_twist_angular_y,twist_twist_angular_z,twist_covariance_0,twist_covariance_1,twist_covariance_2,twist_covariance_3,twist_covariance_4,twist_covariance_5,twist_covariance_6,twist_covariance_7,twist_covariance_8,twist_covariance_9,twist_covariance_10,twist_covariance_11,twist_covariance_12,twist_covariance_13,twist_covariance_14,twist_covariance_15,twist_covariance_16,twist_covariance_17,twist_covariance_18,twist_covariance_19,twist_covariance_20,twist_covariance_21,twist_covariance_22,twist_covariance_23,twist_covariance_24,twist_covariance_25,twist_covariance_26,twist_covariance_27,twist_covariance_28,twist_covariance_29,twist_covariance_30,twist_covariance_31,twist_covariance_32,twist_covariance_33,twist_covariance_34,twist_covariance_35
2025/04/10 10:33:49.362452034,1744274029,360524983,world_ned,mA1/odom,1.835630645961029,1.3706408215769759,0.43369101331978793,-0.00039857351161495385,-7.583179619562656e-06,0.002507288732561737,0.9999967772872385,0.0,0.0,0.0,0.0,0.0,0.0,0.0,0.0,0.0,0.0,0.0,0.0,0.0,0.0,0.0,0.0,0.0,0.0,0.0,0.0,0.0,0.0,0.0,0.0,0.0,0.0,0.0,0.0,0.0,0.0,0.0,0.0,0.0,0.0,0.0,0.0,0.0026747278927395186,0.0012473761436819048,-2.0685549527317676e-05,-0.0006717917720546274,-0.0006325351309336587,9.839393746164825e-06,0.0,0.0,0.0,0.0,0.0,0.0,0.0,0.0,0.0,0.0,0.0,0.0,0.0,0.0,0.0,0.0,0.0,0.0,0.0,0.0,0.0,0.0,0.0,0.0,0.0,0.0,0.0,0.0,0.0,0.0,0.0,0.0,0.0,0.0,0.0,0.0
2025/04/10 10:33:49.461743953,1744274029,461274460,world_ned,mA1/odom,1.8356122684286462,1.3707693163103556,0.4336899042188172,-0.00043253008528209826,8.434468086501388e-07,0.0025079026280837476,0.9999967616654676,0.0,0.0,0.0,0.0,0.0,0.0,0.0,0.0,0.0,0.0,0.0,0.0,0.0,0.0,0.0,0.0,0.0,0.0,0.0,0.0,0.0,0.0,0.0,0.0,0.0,0.0,0.0,0.0,0.0,0.0,0.0,0.0,0.0,0.0,0.0,0.0,0.0036521213288304914,0.0013148674359670922,-1.5558252152840204e-06,-0.0006648714405450166,-0.0009016203658314816,1.3371351748405926e-05,0.0,0.0,0.0,0.0,0.0,0.0,0.0,0.0,0.0,0.0,0.0,0.0,0.0,0.0,0.0,0.0,0.0,0.0,0.0,0.0,0.0,0.0,0.0,0.0,0.0,0.0,0.0,0.0,0.0,0.0,0.0,0.0,0.0,0.0,0.0,0.0
2025/04/10 10:33:49.563317721,1744274029,563058504,world_ned,mA1/odom,1.8356356250821149,1.3709030810461442,0.43368925896959964,-0.0004631700089555583,3.548590163818095e-06,0.002508585370720012,0.9999967462249005,0.0,0.0,0.0,0.0,0.0,0.0,0.0,0.0,0.0,0.0,0.0,0.0,0.0,0.0,0.0,0.0,0.0,0.0,0.0,0.0,0.0,0.0,0.0,0.0,0.0,0.0,0.0,0.0,0.0,0.0,0.0,0.0,0.0,0.0,0.0,0.0,-0.002443912953090678,0.001339385016600415,1.7297744806042637e-06,-0.0005455301071156145,0.0008097065094063592,1.3905221535465726e-05,0.0,0.0,0.0,0.0,0.0,0.0,0.0,0.0,0.0,0.0,0.0,0.0,0.0,0.0,0.0,0.0,0.0,0.0,0.0,0.0,0.0,0.0,0.0,0.0,0.0,0.0,0.0,0.0,0.0,0.0,0.0,0.0,0.0,0.0,0.0,0.0
2025/04/10 10:33:49.664489224,1744274029,664197232,world_ned,mA1/odom,1.8357305051612747,1.371034326277032,0.4336898108435373,-0.0004835183618284285,-3.7931932175101965e-06,0.002509326808760032,0.9999967347319552,0.0,0.0,0.0,0.0,0.0,0.0,0.0,0.0,0.0,0.0,0.0,0.0,0.0,0.0,0.0,0.0,0.0,0.0,0.0,0.0,0.0,0.0,0.0,0.0,0.0,0.0,0.0,0.0,0.0,0.0,0.0,0.0,0.0,0.0,0.0,0.0,0.002670264571446954,0.0012717933312791684,2.9606815670646337e-06,-0.0002824334209901394,-0.0006368806937724579,1.6577557504270885e-05,0.0,0.0,0.0,0.0,0.0,0.0,0.0,0.0,0.0,0.0,0.0,0.0,0.0,0.0,0.0,0.0,0.0,0.0,0.0,0.0,0.0,0.0,0.0,0.0,0.0,0.0,0.0,0.0,0.0,0.0,0.0,0.0,0.0,0.0,0.0,0.0
2025/04/10 10:33:49.755687836,1744274029,755079670,world_ned,mA1/odom,1.8357118070573843,1.3711545330898278,0.4336910443817496,-0.0004883979813051942,4.021970715205004e-06,0.0025102845830524017,0.9999967299559273,0.0,0.0,0.0,0.0,0.0,0.0,0.0,0.0,0.0,0.0,0.0,0.0,0.0,0.0,0.0,0.0,0.0,0.0,0.0,0.0,0.0,0.0,0.0,0.0,0.0,0.0,0.0,0.0,0.0,0.0,0.0,0.0,0.0,0.0,0.0,0.0,0.0036461065894071534,0.0011173912333338088,2.076025372338165e-05,8.016797485879297e-05,-0.0009221933618238125,2.0314648523714835e-05,0.0,0.0,0.0,0.0,0.0,0.0,0.0,0.0,0.0,0.0,0.0,0.0,0.0,0.0,0.0,0.0,0.0,0.0,0.0,0.0,0.0,0.0,0.0,0.0,0.0,0.0,0.0,0.0,0.0,0.0,0.0,0.0,0.0,0.0,0.0,0.0
2025/04/10 10:33:49.858131002,1744274029,857709533,world_ned,mA1/odom,1.835734449927753,1.3712545016261684,0.43369228308378466,-0.0004736884481941128,5.517289440142308e-06,0.0025112902494724304,0.9999967344997165,0.0,0.0,0.0,0.0,0.0,0.0,0.0,0.0,0.0,0.0,0.0,0.0,0.0,0.0,0.0,0.0,0.0,0.0,0.0,0.0,0.0,0.0,0.0,0.0,0.0,0.0,0.0,0.0,0.0,0.0,0.0,0.0,0.0,0.0,0.0,0.0,-0.002455230751892947,0.0009098544764710043,1.6614745571514517e-05,0.0004580012629813008,0.0007791796291610286,1.995678737552158e-05,0.0,0.0,0.0,0.0,0.0,0.0,0.0,0.0,0.0,0.0,0.0,0.0,0.0,0.0,0.0,0.0,0.0,0.0,0.0,0.0,0.0,0.0,0.0,0.0,0.0,0.0,0.0,0.0,0.0,0.0,0.0,0.0,0.0,0.0,0.0,0.0
2025/04/10 10:33:49.959271585,1744274029,959025122,world_ned,mA1/odom,1.835828066125403,1.371336759015755,0.4336938494016739,-0.00044225978963778346,-3.3723962544367076e-06,0.002512310814992217,0.999996746339344,0.0,0.0,0.0,0.0,0.0,0.0,0.0,0.0,0.0,0.0,0.0,0.0,0.0,0.0,0.0,0.0,0.0,0.0,0.0,0.0,0.0,0.0,0.0,0.0,0.0,0.0,0.0,0.0,0.0,0.0,0.0,0.0,0.0,0.0,0.0,0.0,0.0026535127394176627,0.000745560185844678,8.233000498815216e-06,0.000747816661057112,-0.0006717531173719773,2.1729966567397828e-05,0.0,0.0,0.0,0.0,0.0,0.0,0.0,0.0,0.0,0.0,0.0,0.0,0.0,0.0,0.0,0.0,0.0,0.0,0.0,0.0,0.0,0.0,0.0,0.0,0.0,0.0,0.0,0.0,0.0,0.0,0.0,0.0,0.0,0.0,0.0,0.0
2025/04/10 10:33:50.62966788,1744274030,62442022,world_ned,mA1/odom,1.8358076545562254,1.3714050884371194,0.43369508859962086,-0.0004002992229547168,2.8148399310203773e-06,0.0025135182584926454,0.9999967609840409,0.0,0.0,0.0,0.0,0.0,0.0,0.0,0.0,0.0,0.0,0.0,0.0,0.0,0.0,0.0,0.0,0.0,0.0,0.0,0.0,0.0,0.0,0.0,0.0,0.0,0.0,0.0,0.0,0.0,0.0,0.0,0.0,0.0,0.0,0.0,0.0,0.003619873020904292,0.0006506736219228937,1.5721798600915612e-05,0.00088816382256954,-0.0009571013671455139,2.626501577260851e-05,0.0,0.0,0.0,0.0,0.0,0.0,0.0,0.0,0.0,0.0,0.0,0.0,0.0,0.0,0.0,0.0,0.0,0.0,0.0,0.0,0.0,0.0,0.0,0.0,0.0,0.0,0.0,0.0,0.0,0.0,0.0,0.0,0.0,0.0,0.0,0.0
2025/04/10 10:33:50.164616266,1744274030,164095882,world_ned,mA1/odom,1.8358272805756053,1.371471569719898,0.4336953701187438,-0.00035737213463242034,2.704525721776123e-06,0.0025149553930953654,0.9999967736334021,0.0,0.0,0.0,0.0,0.0,0.0,0.0,0.0,0.0,0.0,0.0,0.0,0.0,0.0,0.0,0.0,0.0,0.0,0.0,0.0,0.0,0.0,0.0,0.0,0.0,0.0,0.0,0.0,0.0,0.0,0.0,0.0,0.0,0.0,0.0,0.0,-0.002492673673920606,0.0006927446876173753,2.8350380960224376e-06,0.0008039109258997573,0.0007480138131093313,3.0697982844764255e-05,0.0,0.0,0.0,0.0,0.0,0.0,0.0,0.0,0.0,0.0,0.0,0.0,0.0,0.0,0.0,0.0,0.0,0.0,0.0,0.0,0.0,0.0,0.0,0.0,0.0,0.0,0.0,0.0,0.0,0.0,0.0,0.0,0.0,0.0,0.0,0.0
2025/04/10 10:33:50.255049975,1744274030,254784937,world_ned,mA1/odom,1.8359166617623994,1.3715490554172807,0.43369523187243536,-0.00032367213713656935,-7.458311224553023e-06,0.002516614701056947,0.9999967809104026,0.0,0.0,0.0,0.0,0.0,0.0,0.0,0.0,0.0,0.0,0.0,0.0,0.0,0.0,0.0,0.0,0.0,0.0,0.0,0.0,0.0,0.0,0.0,0.0,0.0,0.0,0.0,0.0,0.0,0.0,0.0,0.0,0.0,0.0,0.0,0.0,0.002612758343612214,0.0008813625065735744,-1.1318806310658257e-05,0.0005150114481351721,-0.0006910939441989663,3.522198810797109e-05,0.0,0.0,0.0,0.0,0.0,0.0,0.0,0.0,0.0,0.0,0.0,0.0,0.0,0.0,0.0,0.0,0.0,0.0,0.0,0.0,0.0,0.0,0.0,0.0,0.0,0.0,0.0,0.0,0.0,0.0,0.0,0.0,0.0,0.0,0.0,0.0
2025/04/10 10:33:50.359309683,1744274030,359028123,world_ned,mA1/odom,1.8358950260446842,1.3716561658684379,0.43369438795290316,-0.00031065197297440504,-2.1366571250360874e-06,0.0025185009021531186,0.9999967803168129,0.0,0.0,0.0,0.0,0.0,0.0,0.0,0.0,0.0,0.0,0.0,0.0,0.0,0.0,0.0,0.0,0.0,0.0,0.0,0.0,0.0,0.0,0.0,0.0,0.0,0.0,0.0,0.0,0.0,0.0,0.0,0.0,0.0,0.0,0.0,0.0,0.0036092444751409363,0.0012263984199134645,-5.020550684207742e-06,5.1386979329863195e-05,-0.0009618298850148195,3.9835017558275465e-05,0.0,0.0,0.0,0.0,0.0,0.0,0.0,0.0,0.0,0.0,0.0,0.0,0.0,0.0,0.0,0.0,0.0,0.0,0.0,0.0,0.0,0.0,0.0,0.0,0.0,0.0,0.0,0.0,0.0,0.0,0.0,0.0,0.0,0.0,0.0,0.0
2025/04/10 10:33:50.460156821,1744274030,459756829,world_ned,mA1/odom,1.8359129769753024,1.3717970287082324,0.43369270866370263,-0.0003210146552499231,-1.9486408370719424e-06,0.0025206117000059697,0.999996771726015,0.0,0.0,0.0,0.0,0.0,0.0,0.0,0.0,0.0,0.0,0.0,0.0,0.0,0.0,0.0,0.0,0.0,0.0,0.0,0.0,0.0,0.0,0.0,0.0,0.0,0.0,0.0,0.0,0.0,0.0,0.0,0.0,0.0,0.0,0.0,0.0,-0.0025028607687594203,0.0015352386967981242,-1.4083295389646722e-05,-0.00039900913807661587,0.0007663309231071597,4.404038164706812e-05,0.0,0.0,0.0,0.0,0.0,0.0,0.0,0.0,0.0,0.0,0.0,0.0,0.0,0.0,0.0,0.0,0.0,0.0,0.0,0.0,0.0,0.0,0.0,0.0,0.0,0.0,0.0,0.0,0.0,0.0,0.0,0.0,0.0,0.0,0.0,0.0
2025/04/10 10:33:50.562162316,1744274030,561300839,world_ned,mA1/odom,1.8360018255690493,1.3719615768687272,0.4336912567527256,-0.00034960299907279386,-1.0887431073256585e-05,0.002522924144129663,0.999996756251224,0.0,0.0,0.0,0.0,0.0,0.0,0.0,0.0,0.0,0.0,0.0,0.0,0.0,0.0,0.0,0.0,0.0,0.0,0.0,0.0,0.0,0.0,0.0,0.0,0.0,0.0,0.0,0.0,0.0,0.0,0.0,0.0,0.0,0.0,0.0,0.0,0.00261651931261948,0.0017050635967181995,-1.979781174452149e-05,-0.0006899789299318457,-0.0006573134653013853,4.78825231280951e-05,0.0,0.0,0.0,0.0,0.0,0.0,0.0,0.0,0.0,0.0,0.0,0.0,0.0,0.0,0.0,0.0,0.0,0.0,0.0,0.0,0.0,0.0,0.0,0.0,0.0,0.0,0.0,0.0,0.0,0.0,0.0,0.0,0.0,0.0,0.0,0.0
2025/04/10 10:33:50.662225671,1744274030,662038132,world_ned,mA1/odom,1.835978642506515,1.3721344694337045,0.4336901969526405,-0.0003876155977436185,-3.3870206530942076e-06,0.0025253816316354563,0.999996736089819,0.0,0.0,0.0,0.0,0.0,0.0,0.0,0.0,0.0,0.0,0.0,0.0,0.0,0.0,0.0,0.0,0.0,0.0,0.0,0.0,0.0,0.0,0.0,0.0,0.0,0.0,0.0,0.0,0.0,0.0,0.0,0.0,0.0,0.0,0.0,0.0,0.0036145871549872312,0.0017238198554348464,-9.17547536469653e-07,-0.0007789597163432585,-0.0009139371379229295,4.9170071471022336e-05,0.0,0.0,0.0,0.0,0.0,0.0,0.0,0.0,0.0,0.0,0.0,0.0,0.0,0.0,0.0,0.0,0.0,0.0,0.0,0.0,0.0,0.0,0.0,0.0,0.0,0.0,0.0,0.0,0.0,0.0,0.0,0.0,0.0,0.0,0.0,0.0
2025/04/10 10:33:50.763072445,1744274030,762840893,world_ned,mA1/odom,1.8359992955779265,1.3723002681123655,0.43368953159996537,-0.00042410515274564863,-9.94138697437652e-07,0.0025277604238872218,0.9999967152751406,0.0,0.0,0.0,0.0,0.0,0.0,0.0,0.0,0.0,0.0,0.0,0.0,0.0,0.0,0.0,0.0,0.0,0.0,0.0,0.0,0.0,0.0,0.0,0.0,0.0,0.0,0.0,0.0,0.0,0.0,0.0,0.0,0.0,0.0,0.0,0.0,-0.0024731913144984278,0.001535964029699612,1.3786404992281215e-06,-0.0006263606965824127,0.0008109045314113181,4.515738255550546e-05,0.0,0.0,0.0,0.0,0.0,0.0,0.0,0.0,0.0,0.0,0.0,0.0,0.0,0.0,0.0,0.0,0.0,0.0,0.0,0.0,0.0,0.0,0.0,0.0,0.0,0.0,0.0,0.0,0.0,0.0,0.0,0.0,0.0,0.0,0.0,0.0
2025/04/10 10:33:50.864582495,1744274030,864210819,world_ned,mA1/odom,1.836090756007789,1.3724325328202707,0.4336900390134371,-0.00044487946463134167,-7.871974935370041e-06,0.0025298324687628004,0.9999967009785452,0.0,0.0,0.0,0.0,0.0,0.0,0.0,0.0,0.0,0.0,0.0,0.0,0.0,0.0,0.0,0.0,0.0,0.0,0.0,0.0,0.0,0.0,0.0,0.0,0.0,0.0,0.0,0.0,0.0,0.0,0.0,0.0,0.0,0.0,0.0,0.0,0.0026371276923075997,0.0011394488446608403,2.3643294549384827e-06,-0.0002383075521128111,-0.0006207135709293438,3.8357435359060514e-05,0.0,0.0,0.0,0.0,0.0,0.0,0.0,0.0,0.0,0.0,0.0,0.0,0.0,0.0,0.0,0.0,0.0,0.0,0.0,0.0,0.0,0.0,0.0,0.0,0.0,0.0,0.0,0.0,0.0,0.0,0.0,0.0,0.0,0.0,0.0,0.0
2025/04/10 10:33:50.955469977,1744274030,954948152,world_ned,mA1/odom,1.8360692742157882,1.372525877530328,0.4336912804186527,-0.00044581243006468365,1.1589202262278152e-06,0.0025315787744020733,0.9999966961739639,0.0,0.0,0.0,0.0,0.0,0.0,0.0,0.0,0.0,0.0,0.0,0.0,0.0,0.0,0.0,0.0,0.0,0.0,0.0,0.0,0.0,0.0,0.0,0.0,0.0,0.0,0.0,0.0,0.0,0.0,0.0,0.0,0.0,0.0,0.0,0.0,0.003619302339584628,0.0008121446322411001,2.078079417833667e-05,0.00013373551201046154,-0.0008925428877114353,3.3379901226874066e-05,0.0,0.0,0.0,0.0,0.0,0.0,0.0,0.0,0.0,0.0,0.0,0.0,0.0,0.0,0.0,0.0,0.0,0.0,0.0,0.0,0.0,0.0,0.0,0.0,0.0,0.0,0.0,0.0,0.0,0.0,0.0,0.0,0.0,0.0,0.0,0.0
2025/04/10 10:33:51.56122781,1744274031,55800137,world_ned,mA1/odom,1.8360897084932184,1.3726003314494408,0.4336925457124594,-0.00043340326605701665,4.392692715907246e-06,0.002533216854042406,0.9999966974718885,0.0,0.0,0.0,0.0,0.0,0.0,0.0,0.0,0.0,0.0,0.0,0.0,0.0,0.0,0.0,0.0,0.0,0.0,0.0,0.0,0.0,0.0,0.0,0.0,0.0,0.0,0.0,0.0,0.0,0.0,0.0,0.0,0.0,0.0,0.0,0.0,-0.002476529594133785,0.0006936332499544291,1.6728463225660158e-05,0.00033315270031507814,0.0008172299004606974,3.225894348246686e-05,0.0,0.0,0.0,0.0,0.0,0.0,0.0,0.0,0.0,0.0,0.0,0.0,0.0,0.0,0.0,0.0,0.0,0.0,0.0,0.0,0.0,0.0,0.0,0.0,0.0,0.0,0.0,0.0,0.0,0.0,0.0,0.0,0.0,0.0,0.0,0.0
2025/04/10 10:33:51.157311969,1744274031,156960536,world_ned,mA1/odom,1.8361813424759004,1.3726653526221866,0.4336941086816512,-0.00041258425881906857,-2.560765625492671e-06,0.0025348113926966158,0.9999967022440001,0.0,0.0,0.0,0.0,0.0,0.0,0.0,0.0,0.0,0.0,0.0,0.0,0.0,0.0,0.0,0.0,0.0,0.0,0.0,0.0,0.0,0.0,0.0,0.0,0.0,0.0,0.0,0.0,0.0,0.0,0.0,0.0,0.0,0.0,0.0,0.0,0.0026338154116528774,0.0006155958486939644,7.426795862821676e-06,0.0004643491245844612,-0.0006324684407428699,3.248092378273995e-05,0.0,0.0,0.0,0.0,0.0,0.0,0.0,0.0,0.0,0.0,0.0,0.0,0.0,0.0,0.0,0.0,0.0,0.0,0.0,0.0,0.0,0.0,0.0,0.0,0.0,0.0,0.0,0.0,0.0,0.0,0.0,0.0,0.0,0.0,0.0,0.0
2025/04/10 10:33:51.257956227,1744274031,257706147,world_ned,mA1/odom,1.8361593740421203,1.3727248724257257,0.4336952597241059,-0.00038810700676694134,5.347379376512371e-06,0.0025365311417931053,0.9999967076716421,0.0,0.0,0.0,0.0,0.0,0.0,0.0,0.0,0.0,0.0,0.0,0.0,0.0,0.0,0.0,0.0,0.0,0.0,0.0,0.0,0.0,0.0,0.0,0.0,0.0,0.0,0.0,0.0,0.0,0.0,0.0,0.0,0.0,0.0,0.0,0.0,0.00360643857891315,0.0005884728411410963,1.4513355583685031e-05,0.0004978578795254082,-0.0009263802115424974,3.6114327865835935e-05,0.0,0.0,0.0,0.0,0.0,0.0,0.0,0.0,0.0,0.0,0.0,0.0,0.0,0.0,0.0,0.0,0.0,0.0,0.0,0.0,0.0,0.0,0.0,0.0,0.0,0.0,0.0,0.0,0.0,0.0,0.0,0.0,0.0,0.0,0.0,0.0
2025/04/10 10:33:51.359390322,1744274031,359113284,world_ned,mA1/odom,1.8361765924213271,1.37278613451504,0.43369536449623414,-0.00036546461726683364,6.540459287221737e-06,0.0025384345233232914,0.9999967113660958,0.0,0.0,0.0,0.0,0.0,0.0,0.0,0.0,0.0,0.0,0.0,0.0,0.0,0.0,0.0,0.0,0.0,0.0,0.0,0.0,0.0,0.0,0.0,0.0,0.0,0.0,0.0,0.0,0.0,0.0,0.0,0.0,0.0,0.0,0.0,0.0,-0.002522540826381225,0.0006396618329415244,9.587967302083598e-07,0.00040100508171508334,0.0007703188521156108,3.962131837261541e-05,0.0,0.0,0.0,0.0,0.0,0.0,0.0,0.0,0.0,0.0,0.0,0.0,0.0,0.0,0.0,0.0,0.0,0.0,0.0,0.0,0.0,0.0,0.0,0.0,0.0,0.0,0.0,0.0,0.0,0.0,0.0,0.0,0.0,0.0,0.0,0.0
2025/04/10 10:33:51.460256606,1744274031,459954745,world_ned,mA1/odom,1.8362627747985902,1.3728570021829352,0.4336950360208419,-0.00035032817232683575,-2.944392170233872e-06,0.002540487552355965,0.9999967115868424,0.0,0.0,0.0,0.0,0.0,0.0,0.0,0.0,0.0,0.0,0.0,0.0,0.0,0.0,0.0,0.0,0.0,0.0,0.0,0.0,0.0,0.0,0.0,0.0,0.0,0.0,0.0,0.0,0.0,0.0,0.0,0.0,0.0,0.0,0.0,0.0,0.002582148863506342,0.000806162254060539,-1.3215316134520786e-05,0.0001767436085225175,-0.0006827797680781413,4.10098274216256e-05,0.0,0.0,0.0,0.0,0.0,0.0,0.0,0.0,0.0,0.0,0.0,0.0,0.0,0.0,0.0,0.0,0.0,0.0,0.0,0.0,0.0,0.0,0.0,0.0,0.0,0.0,0.0,0.0,0.0,0.0,0.0,0.0,0.0,0.0,0.0,0.0
2025/04/10 10:33:51.561249000,1744274031,560912425,world_ned,mA1/odom,1.83623634175668,1.3729526393888747,0.4336940834534937,-0.0003504022603631607,2.7209410749894783e-06,0.0025424841003953277,0.9999967064873022,0.0,0.0,0.0,0.0,0.0,0.0,0.0,0.0,0.0,0.0,0.0,0.0,0.0,0.0,0.0,0.0,0.0,0.0,0.0,0.0,0.0,0.0,0.0,0.0,0.0,0.0,0.0,0.0,0.0,0.0,0.0,0.0,0.0,0.0,0.0,0.0,0.003572185420634754,0.0010635725663853057,-5.559989201806319e-06,-0.00013092458329003583,-0.000962752404322199,3.9163576523837524e-05,0.0,0.0,0.0,0.0,0.0,0.0,0.0,0.0,0.0,0.0,0.0,0.0,0.0,0.0,0.0,0.0,0.0,0.0,0.0,0.0,0.0,0.0,0.0,0.0,0.0,0.0,0.0,0.0,0.0,0.0,0.0,0.0,0.0,0.0,0.0,0.0
2025/04/10 10:33:51.662160724,1744274031,661671127,world_ned,mA1/odom,1.8362516792353258,1.3730680786734066,0.43369243360579013,-0.00036349218350802663,2.3554332176959016e-06,0.0025443664491141796,0.9999966970281737,0.0,0.0,0.0,0.0,0.0,0.0,0.0,0.0,0.0,0.0,0.0,0.0,0.0,0.0,0.0,0.0,0.0,0.0,0.0,0.0,0.0,0.0,0.0,0.0,0.0,0.0,0.0,0.0,0.0,0.0,0.0,0.0,0.0,0.0,0.0,0.0,-0.0025295056352748375,0.0011679891811500957,-1.329368679830695e-05,-0.0003210516310797047,0.0007472656616329506,3.5266256493269424e-05,0.0,0.0,0.0,0.0,0.0,0.0,0.0,0.0,0.0,0.0,0.0,0.0,0.0,0.0,0.0,0.0,0.0,0.0,0.0,0.0,0.0,0.0,0.0,0.0,0.0,0.0,0.0,0.0,0.0,0.0,0.0,0.0,0.0,0.0,0.0,0.0
2025/04/10 10:33:51.762672658,1744274031,762421750,world_ned,mA1/odom,1.836337609740199,1.3731806269453868,0.43369116212786923,-0.00037983132587427674,-7.921677921036454e-06,0.002545949193086727,0.9999966868985702,0.0,0.0,0.0,0.0,0.0,0.0,0.0,0.0,0.0,0.0,0.0,0.0,0.0,0.0,0.0,0.0,0.0,0.0,0.0,0.0,0.0,0.0,0.0,0.0,0.0,0.0,0.0,0.0,0.0,0.0,0.0,0.0,0.0,0.0,0.0,0.0,0.0025816177613424175,0.0010806394693020182,-1.7768954772547356e-05,-0.0003279134279177028,-0.0006903259432176209,2.8621601641305338e-05,0.0,0.0,0.0,0.0,0.0,0.0,0.0,0.0,0.0,0.0,0.0,0.0,0.0,0.0,0.0,0.0,0.0,0.0,0.0,0.0,0.0,0.0,0.0,0.0,0.0,0.0,0.0,0.0,0.0,0.0,0.0,0.0,0.0,0.0,0.0,0.0
2025/04/10 10:33:51.864580168,1744274031,863188555,world_ned,mA1/odom,1.8363107010205528,1.3732825833677091,0.43369033186890094,-0.00039502227934505357,-2.2925892034156244e-06,0.0025471975584316895,0.9999966778628523,0.0,0.0,0.0,0.0,0.0,0.0,0.0,0.0,0.0,0.0,0.0,0.0,0.0,0.0,0.0,0.0,0.0,0.0,0.0,0.0,0.0,0.0,0.0,0.0,0.0,0.0,0.0,0.0,0.0,0.0,0.0,0.0,0.0,0.0,0.0,0.0,0.003564542010428361,0.000974502194261574,8.829834275816799e-07,-0.0002756428942087742,-0.0009565668978071338,2.2152019097526993e-05,0.0,0.0,0.0,0.0,0.0,0.0,0.0,0.0,0.0,0.0,0.0,0.0,0.0,0.0,0.0,0.0,0.0,0.0,0.0,0.0,0.0,0.0,0.0,0.0,0.0,0.0,0.0,0.0,0.0,0.0,0.0,0.0,0.0,0.0,0.0,0.0
2025/04/10 10:33:51.964293911,1744274031,963980558,world_ned,mA1/odom,1.8363270610546663,1.3733750420495974,0.4336898588939417,-0.0004070064476160188,-2.2383293323580577e-06,0.0025481341249642747,0.9999966706710691,0.0,0.0,0.0,0.0,0.0,0.0,0.0,0.0,0.0,0.0,0.0,0.0,0.0,0.0,0.0,0.0,0.0,0.0,0.0,0.0,0.0,0.0,0.0,0.0,0.0,0.0,0.0,0.0,0.0,0.0,0.0,0.0,0.0,0.0,0.0,0.0,-0.0025257315093508105,0.0008774756056892832,2.0781701986707865e-06,-0.00020106059572880738,0.0007641999165532047,1.5948524835049437e-05,0.0,0.0,0.0,0.0,0.0,0.0,0.0,0.0,0.0,0.0,0.0,0.0,0.0,0.0,0.0,0.0,0.0,0.0,0.0,0.0,0.0,0.0,0.0,0.0,0.0,0.0,0.0,0.0,0.0,0.0,0.0,0.0,0.0,0.0,0.0,0.0
2025/04/10 10:33:52.55096411,1744274032,54765911,world_ned,mA1/odom,1.8364153478308014,1.3734575656942676,0.43369043407537616,-0.00041392379100498993,-1.1457886200899794e-05,0.002548803793938676,0.9999966660619585,0.0,0.0,0.0,0.0,0.0,0.0,0.0,0.0,0.0,0.0,0.0,0.0,0.0,0.0,0.0,0.0,0.0,0.0,0.0,0.0,0.0,0.0,0.0,0.0,0.0,0.0,0.0,0.0,0.0,0.0,0.0,0.0,0.0,0.0,0.0,0.0,0.002622168183256936,0.000816351029823235,2.3870518141376296e-06,-0.00011844594779888118,-0.0006686253711485762,1.317702763109009e-05,0.0,0.0,0.0,0.0,0.0,0.0,0.0,0.0,0.0,0.0,0.0,0.0,0.0,0.0,0.0,0.0,0.0,0.0,0.0,0.0,0.0,0.0,0.0,0.0,0.0,0.0,0.0,0.0,0.0,0.0,0.0,0.0,0.0,0.0,0.0,0.0
2025/04/10 10:33:52.157020228,1744274032,155824221,world_ned,mA1/odom,1.8363904752660296,1.3735429684429463,0.43369165780717733,-0.0004197619971305478,-4.0962211388411665e-06,0.0025495770627477995,0.9999966617143718,0.0,0.0,0.0,0.0,0.0,0.0,0.0,0.0,0.0,0.0,0.0,0.0,0.0,0.0,0.0,0.0,0.0,0.0,0.0,0.0,0.0,0.0,0.0,0.0,0.0,0.0,0.0,0.0,0.0,0.0,0.0,0.0,0.0,0.0,0.0,0.0,0.003575106911168729,0.000880084678306783,2.0192973116466475e-05,-0.00010399004863357958,-0.0009153859041919722,1.7475460546228447e-05,0.0,0.0,0.0,0.0,0.0,0.0,0.0,0.0,0.0,0.0,0.0,0.0,0.0,0.0,0.0,0.0,0.0,0.0,0.0,0.0,0.0,0.0,0.0,0.0,0.0,0.0,0.0,0.0,0.0,0.0,0.0,0.0,0.0,0.0,0.0,0.0
2025/04/10 10:33:52.257187324,1744274032,256748316,world_ned,mA1/odom,1.8364057491877512,1.373634143970426,0.4336928385065245,-0.00042432903137745145,-1.543528447382054e-06,0.002550564582721643,0.9999966572758131,0.0,0.0,0.0,0.0,0.0,0.0,0.0,0.0,0.0,0.0,0.0,0.0,0.0,0.0,0.0,0.0,0.0,0.0,0.0,0.0,0.0,0.0,0.0,0.0,0.0,0.0,0.0,0.0,0.0,0.0,0.0,0.0,0.0,0.0,0.0,0.0,-0.0025303279969983786,0.0009328589795433677,1.5937023138342584e-05,-7.558364702426706e-05,0.000813082093644859,2.1596253227320793e-05,0.0,0.0,0.0,0.0,0.0,0.0,0.0,0.0,0.0,0.0,0.0,0.0,0.0,0.0,0.0,0.0,0.0,0.0,0.0,0.0,0.0,0.0,0.0,0.0,0.0,0.0,0.0,0.0,0.0,0.0,0.0,0.0,0.0,0.0,0.0,0.0
2025/04/10 10:33:52.357811508,1744274032,357542912,world_ned,mA1/odom,1.836492122665195,1.37372870031001,0.43369424983504645,-0.0004260441748363729,-8.218782042221827e-06,0.0025517334249171037,0.999996653532071,0.0,0.0,0.0,0.0,0.0,0.0,0.0,0.0,0.0,0.0,0.0,0.0,0.0,0.0,0.0,0.0,0.0,0.0,0.0,0.0,0.0,0.0,0.0,0.0,0.0,0.0,0.0,0.0,0.0,0.0,0.0,0.0,0.0,0.0,0.0,0.0,0.0025922280486870178,0.0009340633846781863,5.7263942824976566e-06,5.328264683943673e-06,-0.0006160202468919518,2.3608651894864927e-05,0.0,0.0,0.0,0.0,0.0,0.0,0.0,0.0,0.0,0.0,0.0,0.0,0.0,0.0,0.0,0.0,0.0,0.0,0.0,0.0,0.0,0.0,0.0,0.0,0.0,0.0,0.0,0.0,0.0,0.0,0.0,0.0,0.0,0.0,0.0,0.0
2025/04/10 10:33:52.461098036,1744274032,460626680,world_ned,mA1/odom,1.836467208959922,1.3738196909355593,0.43369522330410226,-0.0004228011317227634,1.197636664894388e-06,0.0025528758003965984,0.9999966520258537,0.0,0.0,0.0,0.0,0.0,0.0,0.0,0.0,0.0,0.0,0.0,0.0,0.0,0.0,0.0,0.0,0.0,0.0,0.0,0.0,0.0,0.0,0.0,0.0,0.0,0.0,0.0,0.0,0.0,0.0,0.0,0.0,0.0,0.0,0.0,0.0,0.0035893952586168606,0.0008908898023862661,1.3040723067579292e-05,0.00011727239411509108,-0.0008837672656552595,2.2432251132889967e-05,0.0,0.0,0.0,0.0,0.0,0.0,0.0,0.0,0.0,0.0,0.0,0.0,0.0,0.0,0.0,0.0,0.0,0.0,0.0,0.0,0.0,0.0,0.0,0.0,0.0,0.0,0.0,0.0,0.0,0.0,0.0,0.0,0.0,0.0,0.0,0.0
2025/04/10 10:33:52.561882445,1744274032,561523835,world_ned,mA1/odom,1.8364844030330425,1.373907115845263,0.43369518911784255,-0.00041469633975947716,4.827745029042989e-06,0.002553991317285178,0.9999966525603923,0.0,0.0,0.0,0.0,0.0,0.0,0.0,0.0,0.0,0.0,0.0,0.0,0.0,0.0,0.0,0.0,0.0,0.0,0.0,0.0,0.0,0.0,0.0,0.0,0.0,0.0,0.0,0.0,0.0,0.0,0.0,0.0,0.0,0.0,0.0,0.0,-0.0025136408767540636,0.0008454296524885146,1.99290171080378e-07,0.00020593793647334858,0.0008240954421618316,2.3344144840720915e-05,0.0,0.0,0.0,0.0,0.0,0.0,0.0,0.0,0.0,0.0,0.0,0.0,0.0,0.0,0.0,0.0,0.0,0.0,0.0,0.0,0.0,0.0,0.0,0.0,0.0,0.0,0.0,0.0,0.0,0.0,0.0,0.0,0.0,0.0,0.0,0.0
2025/04/10 10:33:52.662641680,1744274032,662343307,world_ned,mA1/odom,1.836571492770035,1.3739879800006196,0.4336947744122852,-0.00040172871774996484,-1.932462696267048e-06,0.0025552705924673244,0.9999966545956552,0.0,0.0,0.0,0.0,0.0,0.0,0.0,0.0,0.0,0.0,0.0,0.0,0.0,0.0,0.0,0.0,0.0,0.0,0.0,0.0,0.0,0.0,0.0,0.0,0.0,0.0,0.0,0.0,0.0,0.0,0.0,0.0,0.0,0.0,0.0,0.0,0.0025863837543728826,0.0007811988406524365,-1.4059583027725625e-05,0.00028536302544957676,-0.0006300364622602549,2.7321964089363726e-05,0.0,0.0,0.0,0.0,0.0,0.0,0.0,0.0,0.0,0.0,0.0,0.0,0.0,0.0,0.0,0.0,0.0,0.0,0.0,0.0,0.0,0.0,0.0,0.0,0.0,0.0,0.0,0.0,0.0,0.0,0.0,0.0,0.0,0.0,0.0,0.0
2025/04/10 10:33:52.763374608,1744274032,763136019,world_ned,mA1/odom,1.836544338983798,1.374066630420152,0.43369379650761,-0.0003876989371754385,6.113979246560213e-06,0.002556735776468037,0.9999966563715714,0.0,0.0,0.0,0.0,0.0,0.0,0.0,0.0,0.0,0.0,0.0,0.0,0.0,0.0,0.0,0.0,0.0,0.0,0.0,0.0,0.0,0.0,0.0,0.0,0.0,0.0,0.0,0.0,0.0,0.0,0.0,0.0,0.0,0.0,0.0,0.0,0.0035529523881024858,0.000841208320836549,-5.6431062230089816e-06,0.00024114470143997896,-0.0009223343837331013,3.108938352378558e-05,0.0,0.0,0.0,0.0,0.0,0.0,0.0,0.0,0.0,0.0,0.0,0.0,0.0,0.0,0.0,0.0,0.0,0.0,0.0,0.0,0.0,0.0,0.0,0.0,0.0,0.0,0.0,0.0,0.0,0.0,0.0,0.0,0.0,0.0,0.0,0.0
2025/04/10 10:33:52.857292223,1744274032,856826601,world_ned,mA1/odom,1.8365566796584325,1.3741600274278125,0.43369218535278437,-0.00037995023648269887,7.328441197032596e-06,0.0025583400490616494,0.9999966552345588,0.0,0.0,0.0,0.0,0.0,0.0,0.0,0.0,0.0,0.0,0.0,0.0,0.0,0.0,0.0,0.0,0.0,0.0,0.0,0.0,0.0,0.0,0.0,0.0,0.0,0.0,0.0,0.0,0.0,0.0,0.0,0.0,0.0,0.0,0.0,0.0,-0.002566419807315246,0.0009530156522695433,-1.2447299268079129e-05,0.00012097382407416025,0.0007699109495674509,3.062070307178114e-05,0.0,0.0,0.0,0.0,0.0,0.0,0.0,0.0,0.0,0.0,0.0,0.0,0.0,0.0,0.0,0.0,0.0,0.0,0.0,0.0,0.0,0.0,0.0,0.0,0.0,0.0,0.0,0.0,0.0,0.0,0.0,0.0,0.0,0.0,0.0,0.0
2025/04/10 10:33:52.957029907,1744274032,956686692,world_ned,mA1/odom,1.8366384380912524,1.3742534570821903,0.4336910323355995,-0.00037436036286761374,-2.2960090675166144e-06,0.002559696977153543,0.9999966538946179,0.0,0.0,0.0,0.0,0.0,0.0,0.0,0.0,0.0,0.0,0.0,0.0,0.0,0.0,0.0,0.0,0.0,0.0,0.0,0.0,0.0,0.0,0.0,0.0,0.0,0.0,0.0,0.0,0.0,0.0,0.0,0.0,0.0,0.0,0.0,0.0,0.002534339791329961,0.0009184899544053545,-1.6739168409890065e-05,9.198270029936444e-05,-0.0006875489882721118,2.4218348642974873e-05,0.0,0.0,0.0,0.0,0.0,0.0,0.0,0.0,0.0,0.0,0.0,0.0,0.0,0.0,0.0,0.0,0.0,0.0,0.0,0.0,0.0,0.0,0.0,0.0,0.0,0.0,0.0,0.0,0.0,0.0,0.0,0.0,0.0,0.0,0.0,0.0
2025/04/10 10:33:53.57744720,1744274033,57499202,world_ned,mA1/odom,1.8366063045934746,1.3743456273927392,0.43369036096453845,-0.0003717489303982659,2.9900481057842992e-06,0.00256078248296328,0.9999966520878294,0.0,0.0,0.0,0.0,0.0,0.0,0.0,0.0,0.0,0.0,0.0,0.0,0.0,0.0,0.0,0.0,0.0,0.0,0.0,0.0,0.0,0.0,0.0,0.0,0.0,0.0,0.0,0.0,0.0,0.0,0.0,0.0,0.0,0.0,0.0,0.0,0.0035073893994060066,0.0009588709453076489,2.2360969712564195e-06,1.0421510158270527e-07,-0.0009730295051006546,2.204463648919277e-05,0.0,0.0,0.0,0.0,0.0,0.0,0.0,0.0,0.0,0.0,0.0,0.0,0.0,0.0,0.0,0.0,0.0,0.0,0.0,0.0,0.0,0.0,0.0,0.0,0.0,0.0,0.0,0.0,0.0,0.0,0.0,0.0,0.0,0.0,0.0,0.0
2025/04/10 10:33:53.158580738,1744274033,158263810,world_ned,mA1/odom,1.83661478908773,1.3744483436535426,0.4336900321577613,-0.0003761204314434518,2.0614607068222776e-06,0.002561968380638648,0.9999966474179741,0.0,0.0,0.0,0.0,0.0,0.0,0.0,0.0,0.0,0.0,0.0,0.0,0.0,0.0,0.0,0.0,0.0,0.0,0.0,0.0,0.0,0.0,0.0,0.0,0.0,0.0,0.0,0.0,0.0,0.0,0.0,0.0,0.0,0.0,0.0,0.0,-0.002593531577662196,0.0010611642818379831,3.8239404297337016e-06,-0.00014168187859607147,0.0007365362256442321,2.389839878761318e-05,0.0,0.0,0.0,0.0,0.0,0.0,0.0,0.0,0.0,0.0,0.0,0.0,0.0,0.0,0.0,0.0,0.0,0.0,0.0,0.0,0.0,0.0,0.0,0.0,0.0,0.0,0.0,0.0,0.0,0.0,0.0,0.0,0.0,0.0,0.0,0.0
2025/04/10 10:33:53.259489429,1744274033,259103757,world_ned,mA1/odom,1.8366955358559078,1.37455565553498,0.43369074571491073,-0.0003846679133215224,-8.584502744088259e-06,0.002563135020901943,0.9999966411422427,0.0,0.0,0.0,0.0,0.0,0.0,0.0,0.0,0.0,0.0,0.0,0.0,0.0,0.0,0.0,0.0,0.0,0.0,0.0,0.0,0.0,0.0,0.0,0.0,0.0,0.0,0.0,0.0,0.0,0.0,0.0,0.0,0.0,0.0,0.0,0.0,0.002539307568502554,0.001064092576291855,3.2402244471591306e-06,-0.00018830803933592909,-0.0006954457366211601,2.274195480042927e-05,0.0,0.0,0.0,0.0,0.0,0.0,0.0,0.0,0.0,0.0,0.0,0.0,0.0,0.0,0.0,0.0,0.0,0.0,0.0,0.0,0.0,0.0,0.0,0.0,0.0,0.0,0.0,0.0,0.0,0.0,0.0,0.0,0.0,0.0,0.0,0.0
2025/04/10 10:33:53.360923180,1744274033,360628361,world_ned,mA1/odom,1.8366656793101286,1.374659573855635,0.4336920088602287,-0.00039395480944584555,-3.055333799675718e-06,0.002564260227076639,0.9999966346742177,0.0,0.0,0.0,0.0,0.0,0.0,0.0,0.0,0.0,0.0,0.0,0.0,0.0,0.0,0.0,0.0,0.0,0.0,0.0,0.0,0.0,0.0,0.0,0.0,0.0,0.0,0.0,0.0,0.0,0.0,0.0,0.0,0.0,0.0,0.0,0.0,0.003536914965886926,0.0010200670335302094,2.053281422528854e-05,-0.00017492832111905054,-0.0009561855464732546,2.3563751770213817e-05,0.0,0.0,0.0,0.0,0.0,0.0,0.0,0.0,0.0,0.0,0.0,0.0,0.0,0.0,0.0,0.0,0.0,0.0,0.0,0.0,0.0,0.0,0.0,0.0,0.0,0.0,0.0,0.0,0.0,0.0,0.0,0.0,0.0,0.0,0.0,0.0
2025/04/10 10:33:53.461801123,1744274033,461513382,world_ned,mA1/odom,1.8366774223693318,1.3747595534738766,0.43369317371801785,-0.0004021314524035099,-2.5991148929617128e-06,0.00256554411509528,0.9999966281277818,0.0,0.0,0.0,0.0,0.0,0.0,0.0,0.0,0.0,0.0,0.0,0.0,0.0,0.0,0.0,0.0,0.0,0.0,0.0,0.0,0.0,0.0,0.0,0.0,0.0,0.0,0.0,0.0,0.0,0.0,0.0,0.0,0.0,0.0,0.0,0.0,-0.002562962824831798,0.0009782595690308031,1.5287256214611547e-05,-0.00014711095345557702,0.0007717176402734664,2.736388751362368e-05,0.0,0.0,0.0,0.0,0.0,0.0,0.0,0.0,0.0,0.0,0.0,0.0,0.0,0.0,0.0,0.0,0.0,0.0,0.0,0.0,0.0,0.0,0.0,0.0,0.0,0.0,0.0,0.0,0.0,0.0,0.0,0.0,0.0,0.0,0.0,0.0
2025/04/10 10:33:53.562827229,1744274033,562362108,world_ned,mA1/odom,1.8367637280040456,1.3748535927552774,0.43369447128884125,-0.0004072605142462667,-1.1634528635555829e-05,0.0025669689675138804,0.9999966223312112,0.0,0.0,0.0,0.0,0.0,0.0,0.0,0.0,0.0,0.0,0.0,0.0,0.0,0.0,0.0,0.0,0.0,0.0,0.0,0.0,0.0,0.0,0.0,0.0,0.0,0.0,0.0,0.0,0.0,0.0,0.0,0.0,0.0,0.0,0.0,0.0,0.00258888287450063,0.0008929285759501876,3.852658318510386e-06,-6.307556905011916e-05,-0.0006603618581122283,2.7078959381538687e-05,0.0,0.0,0.0,0.0,0.0,0.0,0.0,0.0,0.0,0.0,0.0,0.0,0.0,0.0,0.0,0.0,0.0,0.0,0.0,0.0,0.0,0.0,0.0,0.0,0.0,0.0,0.0,0.0,0.0,0.0,0.0,0.0,0.0,0.0,0.0,0.0
2025/04/10 10:33:53.666817339,1744274033,663774928,world_ned,mA1/odom,1.8367361687569763,1.374936389636016,0.4336951733236362,-0.0004073715511027657,-3.90170011784664e-06,0.0025681426489945016,0.9999966193325508,0.0,0.0,0.0,0.0,0.0,0.0,0.0,0.0,0.0,0.0,0.0,0.0,0.0,0.0,0.0,0.0,0.0,0.0,0.0,0.0,0.0,0.0,0.0,0.0,0.0,0.0,0.0,0.0,0.0,0.0,0.0,0.0,0.0,0.0,0.0,0.0,0.0035508912129355065,0.000775185652661033,9.53388074045149e-06,5.30657204353728e-05,-0.0009086901095163707,2.0733408053214742e-05,0.0,0.0,0.0,0.0,0.0,0.0,0.0,0.0,0.0,0.0,0.0,0.0,0.0,0.0,0.0,0.0,0.0,0.0,0.0,0.0,0.0,0.0,0.0,0.0,0.0,0.0,0.0,0.0,0.0,0.0,0.0,0.0,0.0,0.0,0.0,0.0
2025/04/10 10:33:53.754824359,1744274033,754528975,world_ned,mA1/odom,1.8367490851468873,1.3750076391695805,0.43369486583082734,-0.0004019826751805667,-1.0470675185059821e-06,0.0025689957189435173,0.9999966193291998,0.0,0.0,0.0,0.0,0.0,0.0,0.0,0.0,0.0,0.0,0.0,0.0,0.0,0.0,0.0,0.0,0.0,0.0,0.0,0.0,0.0,0.0,0.0,0.0,0.0,0.0,0.0,0.0,0.0,0.0,0.0,0.0,0.0,0.0,0.0,0.0,-0.0025594995870796278,0.0006283783712808343,-2.5182156760186157e-06,0.00017340396640714293,0.0008168833115084111,1.3147328247627656e-05,0.0,0.0,0.0,0.0,0.0,0.0,0.0,0.0,0.0,0.0,0.0,0.0,0.0,0.0,0.0,0.0,0.0,0.0,0.0,0.0,0.0,0.0,0.0,0.0,0.0,0.0,0.0,0.0,0.0,0.0,0.0,0.0,0.0,0.0,0.0,0.0
2025/04/10 10:33:53.856163107,1744274033,855730591,world_ned,mA1/odom,1.8368316011388144,1.3750589017501658,0.43369425191371314,-0.00038886836917810844,-7.64738345246039e-06,0.002569391331268744,0.9999966234698474,0.0,0.0,0.0,0.0,0.0,0.0,0.0,0.0,0.0,0.0,0.0,0.0,0.0,0.0,0.0,0.0,0.0,0.0,0.0,0.0,0.0,0.0,0.0,0.0,0.0,0.0,0.0,0.0,0.0,0.0,0.0,0.0,0.0,0.0,0.0,0.0,0.0025458776591402855,0.0004819483990782879,-1.5212847388727231e-05,0.00027467109862480357,-0.0006172597961744718,5.54757801003985e-06,0.0,0.0,0.0,0.0,0.0,0.0,0.0,0.0,0.0,0.0,0.0,0.0,0.0,0.0,0.0,0.0,0.0,0.0,0.0,0.0,0.0,0.0,0.0,0.0,0.0,0.0,0.0,0.0,0.0,0.0,0.0,0.0,0.0,0.0,0.0,0.0
2025/04/10 10:33:53.959836086,1744274033,956575119,world_ned,mA1/odom,1.8368020629801407,1.3751126493958339,0.4336932303505102,-0.0003780583253167142,1.6469475439493923e-06,0.002569665801641475,0.9999966269377403,0.0,0.0,0.0,0.0,0.0,0.0,0.0,0.0,0.0,0.0,0.0,0.0,0.0,0.0,0.0,0.0,0.0,0.0,0.0,0.0,0.0,0.0,0.0,0.0,0.0,0.0,0.0,0.0,0.0,0.0,0.0,0.0,0.0,0.0,0.0,0.0,0.0035354489991203174,0.0005811541768914572,-5.917548829832447e-06,0.00017077352247074344,-0.0008880573223665998,6.595454890644224e-06,0.0,0.0,0.0,0.0,0.0,0.0,0.0,0.0,0.0,0.0,0.0,0.0,0.0,0.0,0.0,0.0,0.0,0.0,0.0,0.0,0.0,0.0,0.0,0.0,0.0,0.0,0.0,0.0,0.0,0.0,0.0,0.0,0.0,0.0,0.0,0.0
2025/04/10 10:33:54.59807698,1744274034,57317409,world_ned,mA1/odom,1.8368461633869357,1.375247426589407,0.4336931180292424,-0.0003963254598465028,7.505006679483826e-06,0.002584393736884255,0.999996581883567,0.0,0.0,0.0,0.0,0.0,0.0,0.0,0.0,0.0,0.0,0.0,0.0,0.0,0.0,0.0,0.0,0.0,0.0,0.0,0.0,0.0,0.0,0.0,0.0,0.0,0.0,0.0,0.0,0.0,0.0,0.0,0.0,0.0,0.0,0.0,0.0,-0.0012636801031928973,0.004153511230260529,5.8481311872864486e-05,-0.002205042016331949,0.001026103752494905,0.0014354290984217692,0.0,0.0,0.0,0.0,0.0,0.0,0.0,0.0,0.0,0.0,0.0,0.0,0.0,0.0,0.0,0.0,0.0,0.0,0.0,0.0,0.0,0.0,0.0,0.0,0.0,0.0,0.0,0.0,0.0,0.0,0.0,0.0,0.0,0.0,0.0,0.0
2025/04/10 10:33:54.158463430,1744274034,158339159,world_ned,mA1/odom,1.837272979110099,1.3757809393187774,0.43369831578289014,-0.0005351362158922886,3.270435599284186e-05,0.0026914825418485598,0.9999962342336007,0.0,0.0,0.0,0.0,0.0,0.0,0.0,0.0,0.0,0.0,0.0,0.0,0.0,0.0,0.0,0.0,0.0,0.0,0.0,0.0,0.0,0.0,0.0,0.0,0.0,0.0,0.0,0.0,0.0,0.0,0.0,0.0,0.0,0.0,0.0,0.0,0.008543010635047057,0.004902393639903597,4.431931503996593e-05,-0.0023263085673860743,0.0005049415100481056,0.0022187633695903933,0.0,0.0,0.0,0.0,0.0,0.0,0.0,0.0,0.0,0.0,0.0,0.0,0.0,0.0,0.0,0.0,0.0,0.0,0.0,0.0,0.0,0.0,0.0,0.0,0.0,0.0,0.0,0.0,0.0,0.0,0.0,0.0,0.0,0.0,0.0,0.0
2025/04/10 10:33:54.259299978,1744274034,259020246,world_ned,mA1/odom,1.838183750659912,1.376245312015941,0.433701634870283,-0.0006239666903584263,0.0001409536028436094,0.0028151879478832175,0.9999958327485516,0.0,0.0,0.0,0.0,0.0,0.0,0.0,0.0,0.0,0.0,0.0,0.0,0.0,0.0,0.0,0.0,0.0,0.0,0.0,0.0,0.0,0.0,0.0,0.0,0.0,0.0,0.0,0.0,0.0,0.0,0.0,0.0,0.0,0.0,0.0,0.0,0.013986540544342596,0.004021692277911198,3.850307417300791e-05,-0.0010795688792722318,0.002593514480241764,0.00259262216784433,0.0,0.0,0.0,0.0,0.0,0.0,0.0,0.0,0.0,0.0,0.0,0.0,0.0,0.0,0.0,0.0,0.0,0.0,0.0,0.0,0.0,0.0,0.0,0.0,0.0,0.0,0.0,0.0,0.0,0.0,0.0,0.0,0.0,0.0,0.0,0.0
2025/04/10 10:33:54.360304950,1744274034,359759749,world_ned,mA1/odom,1.8400538734330547,1.3765356635985622,0.4337023548990663,-0.0006183456414328042,0.0003271848609239437,0.0029404354605337486,0.9999954322085861,0.0,0.0,0.0,0.0,0.0,0.0,0.0,0.0,0.0,0.0,0.0,0.0,0.0,0.0,0.0,0.0,0.0,0.0,0.0,0.0,0.0,0.0,0.0,0.0,0.0,0.0,0.0,0.0,0.0,0.0,0.0,0.0,0.0,0.0,0.0,0.0,0.025469231530488533,0.0017553593545538942,8.66671965684821e-06,0.0011226622327851342,0.0040375640329521015,0.0024342241165832466,0.0,0.0,0.0,0.0,0.0,0.0,0.0,0.0,0.0,0.0,0.0,0.0,0.0,0.0,0.0,0.0,0.0,0.0,0.0,0.0,0.0,0.0,0.0,0.0,0.0,0.0,0.0,0.0,0.0,0.0,0.0,0.0,0.0,0.0,0.0,0.0
2025/04/10 10:33:54.461814138,1744274034,461420999,world_ned,mA1/odom,1.8430881870626907,1.3765937777377812,0.43369881509752917,-0.0005035843693405748,0.0005902932695380299,0.0030539783317641302,0.9999950355741712,0.0,0.0,0.0,0.0,0.0,0.0,0.0,0.0,0.0,0.0,0.0,0.0,0.0,0.0,0.0,0.0,0.0,0.0,0.0,0.0,0.0,0.0,0.0,0.0,0.0,0.0,0.0,0.0,0.0,0.0,0.0,0.0,0.0,0.0,0.0,0.0,0.03639496974253767,-0.0008486426136314286,-3.385810265241498e-05,0.0033174339160850557,0.005471581761663842,0.0019721616388347993,0.0,0.0,0.0,0.0,0.0,0.0,0.0,0.0,0.0,0.0,0.0,0.0,0.0,0.0,0.0,0.0,0.0,0.0,0.0,0.0,0.0,0.0,0.0,0.0,0.0,0.0,0.0,0.0,0.0,0.0,0.0,0.0,0.0,0.0,0.0,0.0
2025/04/10 10:33:54.564109353,1744274034,563814297,world_ned,mA1/odom,1.8472934564469279,1.3764770255809968,0.433686443781012,-0.00031580489267780043,0.0008735515069596506,0.003145443566644701,0.9999946216654385,0.0,0.0,0.0,0.0,0.0,0.0,0.0,0.0,0.0,0.0,0.0,0.0,0.0,0.0,0.0,0.0,0.0,0.0,0.0,0.0,0.0,0.0,0.0,0.0,0.0,0.0,0.0,0.0,0.0,0.0,0.0,0.0,0.0,0.0,0.0,0.0,0.04691410236897563,-0.001719196849636087,-5.761452477191674e-05,0.003919137898374714,0.005363687326604679,0.0017999343699824988,0.0,0.0,0.0,0.0,0.0,0.0,0.0,0.0,0.0,0.0,0.0,0.0,0.0,0.0,0.0,0.0,0.0,0.0,0.0,0.0,0.0,0.0,0.0,0.0,0.0,0.0,0.0,0.0,0.0,0.0,0.0,0.0,0.0,0.0,0.0,0.0
2025/04/10 10:33:54.655856689,1744274034,655606223,world_ned,mA1/odom,1.8522862436820544,1.3762893162525698,0.43366737281566226,-0.00011732413485826489,0.0011413961504172852,0.0032235843013844316,0.9999941459599286,0.0,0.0,0.0,0.0,0.0,0.0,0.0,0.0,0.0,0.0,0.0,0.0,0.0,0.0,0.0,0.0,0.0,0.0,0.0,0.0,0.0,0.0,0.0,0.0,0.0,0.0,0.0,0.0,0.0,0.0,0.0,0.0,0.0,0.0,0.0,0.0,0.05368197389058093,-0.002156546243263677,-8.292826350743263e-05,0.0036599206285446062,0.004641163824554965,0.0014953257340682307,0.0,0.0,0.0,0.0,0.0,0.0,0.0,0.0,0.0,0.0,0.0,0.0,0.0,0.0,0.0,0.0,0.0,0.0,0.0,0.0,0.0,0.0,0.0,0.0,0.0,0.0,0.0,0.0,0.0,0.0,0.0,0.0,0.0,0.0,0.0,0.0
2025/04/10 10:33:54.756756528,1744274034,756536896,world_ned,mA1/odom,1.8581212754580685,1.3761454604097487,0.4336469429262822,2.6007145573804998e-05,0.001301944435452995,0.0033028261643059283,0.9999936977819629,0.0,0.0,0.0,0.0,0.0,0.0,0.0,0.0,0.0,0.0,0.0,0.0,0.0,0.0,0.0,0.0,0.0,0.0,0.0,0.0,0.0,0.0,0.0,0.0,0.0,0.0,0.0,0.0,0.0,0.0,0.0,0.0,0.0,0.0,0.0,0.0,0.06705050530812491,-0.0015046598773519402,-4.0246512503111205e-05,0.0021524303787836064,0.0005254808744033049,0.0016521066522237008,0.0,0.0,0.0,0.0,0.0,0.0,0.0,0.0,0.0,0.0,0.0,0.0,0.0,0.0,0.0,0.0,0.0,0.0,0.0,0.0,0.0,0.0,0.0,0.0,0.0,0.0,0.0,0.0,0.0,0.0,0.0,0.0,0.0,0.0,0.0,0.0
2025/04/10 10:33:54.858586115,1744274034,858231137,world_ned,mA1/odom,1.8645270652890398,1.3760508891152015,0.43362947860396295,9.224661469976019e-05,0.0013436511420566858,0.0033861717436532977,0.9999933599445013,0.0,0.0,0.0,0.0,0.0,0.0,0.0,0.0,0.0,0.0,0.0,0.0,0.0,0.0,0.0,0.0,0.0,0.0,0.0,0.0,0.0,0.0,0.0,0.0,0.0,0.0,0.0,0.0,0.0,0.0,0.0,0.0,0.0,0.0,0.0,0.0,0.06960380773911343,-0.0012500174067122038,4.6558972903747566e-05,0.00062596090683576,-0.001183851621116594,0.0016826651472930632,0.0,0.0,0.0,0.0,0.0,0.0,0.0,0.0,0.0,0.0,0.0,0.0,0.0,0.0,0.0,0.0,0.0,0.0,0.0,0.0,0.0,0.0,0.0,0.0,0.0,0.0,0.0,0.0,0.0,0.0,0.0,0.0,0.0,0.0,0.0,0.0
2025/04/10 10:33:54.959489825,1744274034,959218289,world_ned,mA1/odom,1.8715725621607815,1.3760165266412159,0.4336212966250599,7.057177063945818e-05,0.0012465459107730706,0.0034722660579622326,0.9999931922324973,0.0,0.0,0.0,0.0,0.0,0.0,0.0,0.0,0.0,0.0,0.0,0.0,0.0,0.0,0.0,0.0,0.0,0.0,0.0,0.0,0.0,0.0,0.0,0.0,0.0,0.0,0.0,0.0,0.0,0.0,0.0,0.0,0.0,0.0,0.0,0.0,0.07555305429681565,-0.0006047745295617648,0.00015142606241989377,-0.0012280796971903625,-0.003785842037077288,0.0017533546162355296,0.0,0.0,0.0,0.0,0.0,0.0,0.0,0.0,0.0,0.0,0.0,0.0,0.0,0.0,0.0,0.0,0.0,0.0,0.0,0.0,0.0,0.0,0.0,0.0,0.0,0.0,0.0,0.0,0.0,0.0,0.0,0.0,0.0,0.0,0.0,0.0
2025/04/10 10:33:55.60172696,1744274035,59959158,world_ned,mA1/odom,1.879209427870334,1.3760480551835845,0.43362425109129993,-3.8845418196688614e-05,0.001029745642622717,0.003562518752034917,0.9999931232638984,0.0,0.0,0.0,0.0,0.0,0.0,0.0,0.0,0.0,0.0,0.0,0.0,0.0,0.0,0.0,0.0,0.0,0.0,0.0,0.0,0.0,0.0,0.0,0.0,0.0,0.0,0.0,0.0,0.0,0.0,0.0,0.0,0.0,0.0,0.0,0.0,0.08308512292692824,6.1327815743350806e-06,0.0002512079689790021,-0.0028868097083814027,-0.006346004004584939,0.0018387158682023857,0.0,0.0,0.0,0.0,0.0,0.0,0.0,0.0,0.0,0.0,0.0,0.0,0.0,0.0,0.0,0.0,0.0,0.0,0.0,0.0,0.0,0.0,0.0,0.0,0.0,0.0,0.0,0.0,0.0,0.0,0.0,0.0,0.0,0.0,0.0,0.0
2025/04/10 10:33:55.162025659,1744274035,161759876,world_ned,mA1/odom,1.887535692973019,1.3761386021496875,0.4336379977891386,-0.00021707308101706068,0.0007196256549785671,0.003657457269890889,0.999993028987959,0.0,0.0,0.0,0.0,0.0,0.0,0.0,0.0,0.0,0.0,0.0,0.0,0.0,0.0,0.0,0.0,0.0,0.0,0.0,0.0,0.0,0.0,0.0,0.0,0.0,0.0,0.0,0.0,0.0,0.0,0.0,0.0,0.0,0.0,0.0,0.0,0.08757513139573239,0.00032874664127033294,0.0003100341647288299,-0.003937834429349578,-0.0070737683835605395,0.001929081631991682,0.0,0.0,0.0,0.0,0.0,0.0,0.0,0.0,0.0,0.0,0.0,0.0,0.0,0.0,0.0,0.0,0.0,0.0,0.0,0.0,0.0,0.0,0.0,0.0,0.0,0.0,0.0,0.0,0.0,0.0,0.0,0.0,0.0,0.0,0.0,0.0
2025/04/10 10:33:55.262886436,1744274035,262576958,world_ned,mA1/odom,1.8965081014953278,1.376186826046994,0.4336616045626526,-0.00040721800555694574,0.0003795646661886816,0.0037453461988421863,0.9999928312173098,0.0,0.0,0.0,0.0,0.0,0.0,0.0,0.0,0.0,0.0,0.0,0.0,0.0,0.0,0.0,0.0,0.0,0.0,0.0,0.0,0.0,0.0,0.0,0.0,0.0,0.0,0.0,0.0,0.0,0.0,0.0,0.0,0.0,0.0,0.0,0.0,0.09695175875629983,-0.0004946383146414451,0.0003322036902933372,-0.0037220895950158322,-0.00790550837669715,0.0017045304531982423,0.0,0.0,0.0,0.0,0.0,0.0,0.0,0.0,0.0,0.0,0.0,0.0,0.0,0.0,0.0,0.0,0.0,0.0,0.0,0.0,0.0,0.0,0.0,0.0,0.0,0.0,0.0,0.0,0.0,0.0,0.0,0.0,0.0,0.0,0.0,0.0
2025/04/10 10:33:55.363962220,1744274035,363792167,world_ned,mA1/odom,1.9062154108583038,1.376162151405538,0.43369194378456255,-0.0005712098582930301,6.37902810844321e-05,0.0038262503000206422,0.9999925147013549,0.0,0.0,0.0,0.0,0.0,0.0,0.0,0.0,0.0,0.0,0.0,0.0,0.0,0.0,0.0,0.0,0.0,0.0,0.0,0.0,0.0,0.0,0.0,0.0,0.0,0.0,0.0,0.0,0.0,0.0,0.0,0.0,0.0,0.0,0.0,0.0,0.10194221141223261,-0.0023589693901820267,0.00032470142263561666,-0.00227330041736938,-0.006209729575881062,0.0011407874276357277,0.0,0.0,0.0,0.0,0.0,0.0,0.0,0.0,0.0,0.0,0.0,0.0,0.0,0.0,0.0,0.0,0.0,0.0,0.0,0.0,0.0,0.0,0.0,0.0,0.0,0.0,0.0,0.0,0.0,0.0,0.0,0.0,0.0,0.0,0.0,0.0
2025/04/10 10:33:55.457008045,1744274035,455162138,world_ned,mA1/odom,1.9166611160887888,1.3759316940645119,0.43372037560127696,-0.0006441099389214309,-0.0001703403762008459,0.0038736641829921043,0.9999922753863353,0.0,0.0,0.0,0.0,0.0,0.0,0.0,0.0,0.0,0.0,0.0,0.0,0.0,0.0,0.0,0.0,0.0,0.0,0.0,0.0,0.0,0.0,0.0,0.0,0.0,0.0,0.0,0.0,0.0,0.0,0.0,0.0,0.0,0.0,0.0,0.0,0.11139881457486206,-0.00340411676228472,0.00021520173195180796,-0.0009964366653921711,-0.004671882688891801,0.0009524680918988519,0.0,0.0,0.0,0.0,0.0,0.0,0.0,0.0,0.0,0.0,0.0,0.0,0.0,0.0,0.0,0.0,0.0,0.0,0.0,0.0,0.0,0.0,0.0,0.0,0.0,0.0,0.0,0.0,0.0,0.0,0.0,0.0,0.0,0.0,0.0,0.0
2025/04/10 10:33:55.558795752,1744274035,556293948,world_ned,mA1/odom,1.927863500935602,1.3756354413872594,0.43374152829782164,-0.0006598266381637511,-0.0002826647519682768,0.003922612039351281,0.9999920488905071,0.0,0.0,0.0,0.0,0.0,0.0,0.0,0.0,0.0,0.0,0.0,0.0,0.0,0.0,0.0,0.0,0.0,0.0,0.0,0.0,0.0,0.0,0.0,0.0,0.0,0.0,0.0,0.0,0.0,0.0,0.0,0.0,0.0,0.0,0.0,0.0,0.11004142454769604,-0.004104780706164755,0.00010162663218775003,0.00016966637235917123,0.00042549765494712214,0.001076422613804887,0.0,0.0,0.0,0.0,0.0,0.0,0.0,0.0,0.0,0.0,0.0,0.0,0.0,0.0,0.0,0.0,0.0,0.0,0.0,0.0,0.0,0.0,0.0,0.0,0.0,0.0,0.0,0.0,0.0,0.0,0.0,0.0,0.0,0.0,0.0,0.0
2025/04/10 10:33:55.657584899,1744274035,657419596,world_ned,mA1/odom,1.939901657648039,1.3752758603784214,0.4337504435227402,-0.0006165672857814536,-0.0002713575798252885,0.003979814311918756,0.9999918536107625,0.0,0.0,0.0,0.0,0.0,0.0,0.0,0.0,0.0,0.0,0.0,0.0,0.0,0.0,0.0,0.0,0.0,0.0,0.0,0.0,0.0,0.0,0.0,0.0,0.0,0.0,0.0,0.0,0.0,0.0,0.0,0.0,0.0,0.0,0.0,0.0,0.12294443864447972,-0.005045501076874357,-6.143325068083024e-05,0.0015027593483511678,0.0016716839655078076,0.0011089614418712823,0.0,0.0,0.0,0.0,0.0,0.0,0.0,0.0,0.0,0.0,0.0,0.0,0.0,0.0,0.0,0.0,0.0,0.0,0.0,0.0,0.0,0.0,0.0,0.0,0.0,0.0,0.0,0.0,0.0,0.0,0.0,0.0,0.0,0.0,0.0,0.0
2025/04/10 10:33:55.758733505,1744274035,758361705,world_ned,mA1/odom,1.9526525424076349,1.3748221337631237,0.4337433269964739,-0.0005099755068017468,-0.000126898373196582,0.004031859947895439,0.999991733929409,0.0,0.0,0.0,0.0,0.0,0.0,0.0,0.0,0.0,0.0,0.0,0.0,0.0,0.0,0.0,0.0,0.0,0.0,0.0,0.0,0.0,0.0,0.0,0.0,0.0,0.0,0.0,0.0,0.0,0.0,0.0,0.0,0.0,0.0,0.0,0.0,0.13339322017553792,-0.005747857154789149,-0.00016253552015714042,0.002464558222838313,0.0030647428779304563,0.0011306242279224144,0.0,0.0,0.0,0.0,0.0,0.0,0.0,0.0,0.0,0.0,0.0,0.0,0.0,0.0,0.0,0.0,0.0,0.0,0.0,0.0,0.0,0.0,0.0,0.0,0.0,0.0,0.0,0.0,0.0,0.0,0.0,0.0,0.0,0.0,0.0,0.0
2025/04/10 10:33:55.859680393,1744274035,859416956,world_ned,mA1/odom,1.9660181608778977,1.3743408133725399,0.4337232475611561,-0.0003782259833884532,0.00011972338636522549,0.0040918162695020854,0.9999915497898134,0.0,0.0,0.0,0.0,0.0,0.0,0.0,0.0,0.0,0.0,0.0,0.0,0.0,0.0,0.0,0.0,0.0,0.0,0.0,0.0,0.0,0.0,0.0,0.0,0.0,0.0,0.0,0.0,0.0,0.0,0.0,0.0,0.0,0.0,0.0,0.0,0.1388719324160424,-0.0061448290751173395,-0.0002087380182233523,0.002847497494281219,0.0048461361401604544,0.001220847630916034,0.0,0.0,0.0,0.0,0.0,0.0,0.0,0.0,0.0,0.0,0.0,0.0,0.0,0.0,0.0,0.0,0.0,0.0,0.0,0.0,0.0,0.0,0.0,0.0,0.0,0.0,0.0,0.0,0.0,0.0,0.0,0.0,0.0,0.0,0.0,0.0
2025/04/10 10:33:55.962717868,1744274035,960173166,world_ned,mA1/odom,1.979971103516807,1.3738409038369408,0.4336957511330506,-0.0002422127462089293,0.0004180920412716979,0.004154339514977762,0.9999912539593658,0.0,0.0,0.0,0.0,0.0,0.0,0.0,0.0,0.0,0.0,0.0,0.0,0.0,0.0,0.0,0.0,0.0,0.0,0.0,0.0,0.0,0.0,0.0,0.0,0.0,0.0,0.0,0.0,0.0,0.0,0.0,0.0,0.0,0.0,0.0,0.0,0.13964050898512775,-0.006075454268364019,-0.0001747735397653803,0.0025516319898444073,0.006766991792059133,0.001276613266353127,0.0,0.0,0.0,0.0,0.0,0.0,0.0,0.0,0.0,0.0,0.0,0.0,0.0,0.0,0.0,0.0,0.0,0.0,0.0,0.0,0.0,0.0,0.0,0.0,0.0,0.0,0.0,0.0,0.0,0.0,0.0,0.0,0.0,0.0,0.0,0.0
2025/04/10 10:33:56.61588340,1744274036,61207081,world_ned,mA1/odom,1.9944672007587974,1.3733699522313587,0.43366580543325156,-0.0001366411605379423,0.0007080829920197922,0.004219101311635636,0.9999908395239387,0.0,0.0,0.0,0.0,0.0,0.0,0.0,0.0,0.0,0.0,0.0,0.0,0.0,0.0,0.0,0.0,0.0,0.0,0.0,0.0,0.0,0.0,0.0,0.0,0.0,0.0,0.0,0.0,0.0,0.0,0.0,0.0,0.0,0.0,0.0,0.0,0.14740853407179041,-0.005864902318916061,-7.598925165396798e-05,0.0017828712793505458,0.005267676361024144,0.0013047227905610074,0.0,0.0,0.0,0.0,0.0,0.0,0.0,0.0,0.0,0.0,0.0,0.0,0.0,0.0,0.0,0.0,0.0,0.0,0.0,0.0,0.0,0.0,0.0,0.0,0.0,0.0,0.0,0.0,0.0,0.0,0.0,0.0,0.0,0.0,0.0,0.0
2025/04/10 10:33:56.162271185,1744274036,161983586,world_ned,mA1/odom,2.0093605983501472,1.3729461316311236,0.43364203438310633,-8.384264860210325e-05,0.0009415005381972533,0.004285407499601929,0.9999903708684945,0.0,0.0,0.0,0.0,0.0,0.0,0.0,0.0,0.0,0.0,0.0,0.0,0.0,0.0,0.0,0.0,0.0,0.0,0.0,0.0,0.0,0.0,0.0,0.0,0.0,0.0,0.0,0.0,0.0,0.0,0.0,0.0,0.0,0.0,0.0,0.0,0.15170054402335215,-0.005154279416927526,7.932765448871967e-05,0.0004280277281068708,0.0035407669731644924,0.0013321613923008137,0.0,0.0,0.0,0.0,0.0,0.0,0.0,0.0,0.0,0.0,0.0,0.0,0.0,0.0,0.0,0.0,0.0,0.0,0.0,0.0,0.0,0.0,0.0,0.0,0.0,0.0,0.0,0.0,0.0,0.0,0.0,0.0,0.0,0.0,0.0,0.0
2025/04/10 10:33:56.265191932,1744274036,262688092,world_ned,mA1/odom,2.0245459473999468,1.3726100779399721,0.4336265217721688,-0.00010529105714821859,0.0010799465220154086,0.004354784938466295,0.9999899291880107,0.0,0.0,0.0,0.0,0.0,0.0,0.0,0.0,0.0,0.0,0.0,0.0,0.0,0.0,0.0,0.0,0.0,0.0,0.0,0.0,0.0,0.0,0.0,0.0,0.0,0.0,0.0,0.0,0.0,0.0,0.0,0.0,0.0,0.0,0.0,0.0,0.14876678178337965,-0.0043063578501834465,0.00021058995532813253,-0.0010971210584351748,0.0028650230923134117,0.0015154601514547903,0.0,0.0,0.0,0.0,0.0,0.0,0.0,0.0,0.0,0.0,0.0,0.0,0.0,0.0,0.0,0.0,0.0,0.0,0.0,0.0,0.0,0.0,0.0,0.0,0.0,0.0,0.0,0.0,0.0,0.0,0.0,0.0,0.0,0.0,0.0,0.0
2025/04/10 10:33:56.363781081,1744274036,363516584,world_ned,mA1/odom,2.040086601742615,1.3723350395423266,0.433621859436502,-0.0001888880012242846,0.0010809012092527176,0.0044332528512885366,0.9999895710671464,0.0,0.0,0.0,0.0,0.0,0.0,0.0,0.0,0.0,0.0,0.0,0.0,0.0,0.0,0.0,0.0,0.0,0.0,0.0,0.0,0.0,0.0,0.0,0.0,0.0,0.0,0.0,0.0,0.0,0.0,0.0,0.0,0.0,0.0,0.0,0.0,0.1542258502583115,-0.004348401318917746,0.000337352204928544,-0.0018622346029181763,-0.00044757067716809146,0.0014302267444304998,0.0,0.0,0.0,0.0,0.0,0.0,0.0,0.0,0.0,0.0,0.0,0.0,0.0,0.0,0.0,0.0,0.0,0.0,0.0,0.0,0.0,0.0,0.0,0.0,0.0,0.0,0.0,0.0,0.0,0.0,0.0,0.0,0.0,0.0,0.0,0.0
2025/04/10 10:33:56.454618770,1744274036,454290916,world_ned,mA1/odom,2.0559982250483597,1.3720482792014188,0.4336288513526162,-0.0002976045378643897,0.0009473839170747471,0.00450300139792623,0.9999893683803158,0.0,0.0,0.0,0.0,0.0,0.0,0.0,0.0,0.0,0.0,0.0,0.0,0.0,0.0,0.0,0.0,0.0,0.0,0.0,0.0,0.0,0.0,0.0,0.0,0.0,0.0,0.0,0.0,0.0,0.0,0.0,0.0,0.0,0.0,0.0,0.0,0.165494962327424,-0.004073036350104774,0.00042550757426869986,-0.002529823982813606,-0.005121426333950175,0.0014319329783745647,0.0,0.0,0.0,0.0,0.0,0.0,0.0,0.0,0.0,0.0,0.0,0.0,0.0,0.0,0.0,0.0,0.0,0.0,0.0,0.0,0.0,0.0,0.0,0.0,0.0,0.0,0.0,0.0,0.0,0.0,0.0,0.0,0.0,0.0,0.0,0.0
2025/04/10 10:33:56.555765196,1744274036,555568429,world_ned,mA1/odom,2.07212330465555,1.371802849124944,0.43364725327176984,-0.0004342503343979603,0.000721344288672816,0.00457732117510745,0.9999891695513128,0.0,0.0,0.0,0.0,0.0,0.0,0.0,0.0,0.0,0.0,0.0,0.0,0.0,0.0,0.0,0.0,0.0,0.0,0.0,0.0,0.0,0.0,0.0,0.0,0.0,0.0,0.0,0.0,0.0,0.0,0.0,0.0,0.0,0.0,0.0,0.0,0.1562660496513587,-0.003957313091351414,0.00046692573739486417,-0.002770406453842511,-0.003478462529894578,0.0015167258548018096,0.0,0.0,0.0,0.0,0.0,0.0,0.0,0.0,0.0,0.0,0.0,0.0,0.0,0.0,0.0,0.0,0.0,0.0,0.0,0.0,0.0,0.0,0.0,0.0,0.0,0.0,0.0,0.0,0.0,0.0,0.0,0.0,0.0,0.0,0.0,0.0
2025/04/10 10:33:56.656711036,1744274036,656418487,world_ned,mA1/odom,2.088630522018287,1.3715284180726588,0.43367787511758504,-0.0005539307611312765,0.0004251884410644148,0.004655411187004203,0.9999889196997042,0.0,0.0,0.0,0.0,0.0,0.0,0.0,0.0,0.0,0.0,0.0,0.0,0.0,0.0,0.0,0.0,0.0,0.0,0.0,0.0,0.0,0.0,0.0,0.0,0.0,0.0,0.0,0.0,0.0,0.0,0.0,0.0,0.0,0.0,0.0,0.0,0.16132143800591878,-0.004407792533892872,0.00044762420813880923,-0.0022014909418159407,-0.004716050976964669,0.0015956222024765816,0.0,0.0,0.0,0.0,0.0,0.0,0.0,0.0,0.0,0.0,0.0,0.0,0.0,0.0,0.0,0.0,0.0,0.0,0.0,0.0,0.0,0.0,0.0,0.0,0.0,0.0,0.0,0.0,0.0,0.0,0.0,0.0,0.0,0.0,0.0,0.0
2025/04/10 10:33:56.757498257,1744274036,757256883,world_ned,mA1/odom,2.105534147698838,1.3712176369854465,0.4337099769401551,-0.000638314170536139,0.00011664773088162333,0.004737600758054237,0.9999885669783349,0.0,0.0,0.0,0.0,0.0,0.0,0.0,0.0,0.0,0.0,0.0,0.0,0.0,0.0,0.0,0.0,0.0,0.0,0.0,0.0,0.0,0.0,0.0,0.0,0.0,0.0,0.0,0.0,0.0,0.0,0.0,0.0,0.0,0.0,0.0,0.0,0.17485522664925546,-0.004969096179169965,0.00032703602732268606,-0.0012706519062028329,-0.007081391552068358,0.0016740113495480918,0.0,0.0,0.0,0.0,0.0,0.0,0.0,0.0,0.0,0.0,0.0,0.0,0.0,0.0,0.0,0.0,0.0,0.0,0.0,0.0,0.0,0.0,0.0,0.0,0.0,0.0,0.0,0.0,0.0,0.0,0.0,0.0,0.0,0.0,0.0,0.0
2025/04/10 10:33:56.860042308,1744274036,858075476,world_ned,mA1/odom,2.122857138465079,1.370839080509505,0.4337349450440371,-0.0006652909010136639,-0.0001488346526762888,0.004823072228981093,0.9999881365348977,0.0,0.0,0.0,0.0,0.0,0.0,0.0,0.0,0.0,0.0,0.0,0.0,0.0,0.0,0.0,0.0,0.0,0.0,0.0,0.0,0.0,0.0,0.0,0.0,0.0,0.0,0.0,0.0,0.0,0.0,0.0,0.0,0.0,0.0,0.0,0.0,0.17314663792229126,-0.00606198012452343,0.00013930695588270343,0.00017071096369640075,-0.004114372815234226,0.0017098525479277882,0.0,0.0,0.0,0.0,0.0,0.0,0.0,0.0,0.0,0.0,0.0,0.0,0.0,0.0,0.0,0.0,0.0,0.0,0.0,0.0,0.0,0.0,0.0,0.0,0.0,0.0,0.0,0.0,0.0,0.0,0.0,0.0,0.0,0.0,0.0,0.0
2025/04/10 10:33:56.960410602,1744274036,960082931,world_ned,mA1/odom,2.1407396766329354,1.3703502897958912,0.43374726500082394,-0.000617070966191238,-0.00034194254052608274,0.004909555849164092,0.999987699204388,0.0,0.0,0.0,0.0,0.0,0.0,0.0,0.0,0.0,0.0,0.0,0.0,0.0,0.0,0.0,0.0,0.0,0.0,0.0,0.0,0.0,0.0,0.0,0.0,0.0,0.0,0.0,0.0,0.0,0.0,0.0,0.0,0.0,0.0,0.0,0.0,0.1798279388345784,-0.006960679201429029,-8.040624426934703e-05,0.0014659169954657659,-0.002553555917743474,0.0017516819541762002,0.0,0.0,0.0,0.0,0.0,0.0,0.0,0.0,0.0,0.0,0.0,0.0,0.0,0.0,0.0,0.0,0.0,0.0,0.0,0.0,0.0,0.0,0.0,0.0,0.0,0.0,0.0,0.0,0.0,0.0,0.0,0.0,0.0,0.0,0.0,0.0
2025/04/10 10:33:57.61395946,1744274037,61062145,world_ned,mA1/odom,2.1590761452341516,1.3698049415268874,0.4337429434558234,-0.0005187083486258668,-0.0004111785495196017,0.0049984749174236155,0.9999872884803833,0.0,0.0,0.0,0.0,0.0,0.0,0.0,0.0,0.0,0.0,0.0,0.0,0.0,0.0,0.0,0.0,0.0,0.0,0.0,0.0,0.0,0.0,0.0,0.0,0.0,0.0,0.0,0.0,0.0,0.0,0.0,0.0,0.0,0.0,0.0,0.0,0.18549656147869623,-0.0075233729034184455,-0.00027252962524078745,0.002325360875913897,-0.00023340434108310663,0.0017736470755856974,0.0,0.0,0.0,0.0,0.0,0.0,0.0,0.0,0.0,0.0,0.0,0.0,0.0,0.0,0.0,0.0,0.0,0.0,0.0,0.0,0.0,0.0,0.0,0.0,0.0,0.0,0.0,0.0,0.0,0.0,0.0,0.0,0.0,0.0,0.0,0.0
2025/04/10 10:33:57.163694732,1744274037,161755627,world_ned,mA1/odom,2.1779661777477326,1.3692309531006464,0.43372510240986967,-0.00039294894661663854,-0.00036289042119130594,0.005089530561748942,0.9999869052044275,0.0,0.0,0.0,0.0,0.0,0.0,0.0,0.0,0.0,0.0,0.0,0.0,0.0,0.0,0.0,0.0,0.0,0.0,0.0,0.0,0.0,0.0,0.0,0.0,0.0,0.0,0.0,0.0,0.0,0.0,0.0,0.0,0.0,0.0,0.0,0.0,0.18947595400471415,-0.007731023342709453,-0.00037401160177907963,0.0026158438778496416,0.0024172828226157184,0.0019423462896278301,0.0,0.0,0.0,0.0,0.0,0.0,0.0,0.0,0.0,0.0,0.0,0.0,0.0,0.0,0.0,0.0,0.0,0.0,0.0,0.0,0.0,0.0,0.0,0.0,0.0,0.0,0.0,0.0,0.0,0.0,0.0,0.0,0.0,0.0,0.0,0.0
2025/04/10 10:33:57.263561231,1744274037,262574512,world_ned,mA1/odom,2.1972832916076523,1.3686566533097353,0.43369675205462954,-0.0002678584921608425,-0.00020001330812634228,0.005191785315881172,0.9999864667142944,0.0,0.0,0.0,0.0,0.0,0.0,0.0,0.0,0.0,0.0,0.0,0.0,0.0,0.0,0.0,0.0,0.0,0.0,0.0,0.0,0.0,0.0,0.0,0.0,0.0,0.0,0.0,0.0,0.0,0.0,0.0,0.0,0.0,0.0,0.0,0.0,0.1995626604717459,-0.007627549766296648,-0.0003936233230740294,0.0023272492186465336,0.0028602050698824676,0.002104357241385742,0.0,0.0,0.0,0.0,0.0,0.0,0.0,0.0,0.0,0.0,0.0,0.0,0.0,0.0,0.0,0.0,0.0,0.0,0.0,0.0,0.0,0.0,0.0,0.0,0.0,0.0,0.0,0.0,0.0,0.0,0.0,0.0,0.0,0.0,0.0,0.0
2025/04/10 10:33:57.363661315,1744274037,363476542,world_ned,mA1/odom,2.21692768602408,1.3681189592076513,0.43366589403143296,-0.00017301358563842715,5.792846062659232e-05,0.005298630025546403,0.9999859455164583,0.0,0.0,0.0,0.0,0.0,0.0,0.0,0.0,0.0,0.0,0.0,0.0,0.0,0.0,0.0,0.0,0.0,0.0,0.0,0.0,0.0,0.0,0.0,0.0,0.0,0.0,0.0,0.0,0.0,0.0,0.0,0.0,0.0,0.0,0.0,0.0,0.1970702345127494,-0.007600913819151054,-0.00028655161241449473,0.0017649775279795373,0.005949011591720726,0.0020133546451380135,0.0,0.0,0.0,0.0,0.0,0.0,0.0,0.0,0.0,0.0,0.0,0.0,0.0,0.0,0.0,0.0,0.0,0.0,0.0,0.0,0.0,0.0,0.0,0.0,0.0,0.0,0.0,0.0,0.0,0.0,0.0,0.0,0.0,0.0,0.0,0.0
2025/04/10 10:33:57.456362778,1744274037,454275999,world_ned,mA1/odom,2.237096411996559,1.367606062884906,0.4336385936835312,-0.00011659761567713755,0.00033081627058070893,0.005397790218118264,0.9999853703061622,0.0,0.0,0.0,0.0,0.0,0.0,0.0,0.0,0.0,0.0,0.0,0.0,0.0,0.0,0.0,0.0,0.0,0.0,0.0,0.0,0.0,0.0,0.0,0.0,0.0,0.0,0.0,0.0,0.0,0.0,0.0,0.0,0.0,0.0,0.0,0.0,0.2032005528314101,-0.006821472116019102,-9.817232497406371e-05,0.00047887775955299087,0.005426572772445329,0.002027986976571355,0.0,0.0,0.0,0.0,0.0,0.0,0.0,0.0,0.0,0.0,0.0,0.0,0.0,0.0,0.0,0.0,0.0,0.0,0.0,0.0,0.0,0.0,0.0,0.0,0.0,0.0,0.0,0.0,0.0,0.0,0.0,0.0,0.0,0.0,0.0,0.0
2025/04/10 10:33:57.555567311,1744274037,555335103,world_ned,mA1/odom,2.2574206019263254,1.3672006398437444,0.43362386258985886,-0.00013564560727171777,0.0006062862362106789,0.005501669735826694,0.9999846727062305,0.0,0.0,0.0,0.0,0.0,0.0,0.0,0.0,0.0,0.0,0.0,0.0,0.0,0.0,0.0,0.0,0.0,0.0,0.0,0.0,0.0,0.0,0.0,0.0,0.0,0.0,0.0,0.0,0.0,0.0,0.0,0.0,0.0,0.0,0.0,0.0,0.20213394079987496,-0.00584224700196611,0.0001700681512303519,-0.0010115619052575645,0.005687705915937202,0.0021178689270923445,0.0,0.0,0.0,0.0,0.0,0.0,0.0,0.0,0.0,0.0,0.0,0.0,0.0,0.0,0.0,0.0,0.0,0.0,0.0,0.0,0.0,0.0,0.0,0.0,0.0,0.0,0.0,0.0,0.0,0.0,0.0,0.0,0.0,0.0,0.0,0.0
2025/04/10 10:33:57.656343884,1744274037,656105189,world_ned,mA1/odom,2.277989646113709,1.3668866397048207,0.43362435759756845,-0.0002213400005806937,0.0008134490459535047,0.005609400523622103,0.9999839118380952,0.0,0.0,0.0,0.0,0.0,0.0,0.0,0.0,0.0,0.0,0.0,0.0,0.0,0.0,0.0,0.0,0.0,0.0,0.0,0.0,0.0,0.0,0.0,0.0,0.0,0.0,0.0,0.0,0.0,0.0,0.0,0.0,0.0,0.0,0.0,0.0,0.2045041086802936,-0.005299831385903421,0.00040401424133630534,-0.0020832570728673955,0.0038636636527878774,0.002111847045600506,0.0,0.0,0.0,0.0,0.0,0.0,0.0,0.0,0.0,0.0,0.0,0.0,0.0,0.0,0.0,0.0,0.0,0.0,0.0,0.0,0.0,0.0,0.0,0.0,0.0,0.0,0.0,0.0,0.0,0.0,0.0,0.0,0.0,0.0,0.0,0.0
2025/04/10 10:33:57.759137984,1744274037,758890583,world_ned,mA1/odom,2.2987254320265915,1.3665951420616596,0.4336379841551509,-0.00034088462850815325,0.0009163277540368134,0.005709884927233403,0.9999832205368423,0.0,0.0,0.0,0.0,0.0,0.0,0.0,0.0,0.0,0.0,0.0,0.0,0.0,0.0,0.0,0.0,0.0,0.0,0.0,0.0,0.0,0.0,0.0,0.0,0.0,0.0,0.0,0.0,0.0,0.0,0.0,0.0,0.0,0.0,0.0,0.0,0.2048703629216777,-0.00510255597100597,0.0005675880979759081,-0.002641439448991011,0.0018983313650620683,0.0020018349317712765,0.0,0.0,0.0,0.0,0.0,0.0,0.0,0.0,0.0,0.0,0.0,0.0,0.0,0.0,0.0,0.0,0.0,0.0,0.0,0.0,0.0,0.0,0.0,0.0,0.0,0.0,0.0,0.0,0.0,0.0,0.0,0.0,0.0,0.0,0.0,0.0
2025/04/10 10:33:57.859969893,1744274037,859719319,world_ned,mA1/odom,2.3196221023395065,1.3663353721919387,0.4336610882251631,-0.00047855408688531146,0.0008970748467158682,0.005810166204568458,0.9999826039543791,0.0,0.0,0.0,0.0,0.0,0.0,0.0,0.0,0.0,0.0,0.0,0.0,0.0,0.0,0.0,0.0,0.0,0.0,0.0,0.0,0.0,0.0,0.0,0.0,0.0,0.0,0.0,0.0,0.0,0.0,0.0,0.0,0.0,0.0,0.0,0.0,0.21328848184251373,-0.004949438911923363,0.0006262528560635914,-0.0027777509568242867,-0.002518973184252337,0.0020107641267345547,0.0,0.0,0.0,0.0,0.0,0.0,0.0,0.0,0.0,0.0,0.0,0.0,0.0,0.0,0.0,0.0,0.0,0.0,0.0,0.0,0.0,0.0,0.0,0.0,0.0,0.0,0.0,0.0,0.0,0.0,0.0,0.0,0.0,0.0,0.0,0.0
2025/04/10 10:33:57.961317524,1744274037,960855309,world_ned,mA1/odom,2.3405489592940585,1.3660722759633512,0.43368837269095234,-0.0006042938492567574,0.0007760334321031741,0.005909273121622542,0.9999820563851284,0.0,0.0,0.0,0.0,0.0,0.0,0.0,0.0,0.0,0.0,0.0,0.0,0.0,0.0,0.0,0.0,0.0,0.0,0.0,0.0,0.0,0.0,0.0,0.0,0.0,0.0,0.0,0.0,0.0,0.0,0.0,0.0,0.0,0.0,0.0,0.0,0.20951096166963504,-0.005612908324734018,0.0005965463097438047,-0.0019965258092712575,-0.003234884011281773,0.001796695489712022,0.0,0.0,0.0,0.0,0.0,0.0,0.0,0.0,0.0,0.0,0.0,0.0,0.0,0.0,0.0,0.0,0.0,0.0,0.0,0.0,0.0,0.0,0.0,0.0,0.0,0.0,0.0,0.0,0.0,0.0,0.0,0.0,0.0,0.0,0.0,0.0
2025/04/10 10:33:58.61809170,1744274038,61538995,world_ned,mA1/odom,2.3617680859975714,1.3657352818873059,0.4337123608594157,-0.0006761502675733475,0.0005447250034352445,0.005994729433188501,0.9999816544889757,0.0,0.0,0.0,0.0,0.0,0.0,0.0,0.0,0.0,0.0,0.0,0.0,0.0,0.0,0.0,0.0,0.0,0.0,0.0,0.0,0.0,0.0,0.0,0.0,0.0,0.0,0.0,0.0,0.0,0.0,0.0,0.0,0.0,0.0,0.0,0.0,0.2131723662544905,-0.0059925458356795604,0.00042597809946008457,-0.0010973654012841946,-0.005300848452819367,0.0016947390281465502,0.0,0.0,0.0,0.0,0.0,0.0,0.0,0.0,0.0,0.0,0.0,0.0,0.0,0.0,0.0,0.0,0.0,0.0,0.0,0.0,0.0,0.0,0.0,0.0,0.0,0.0,0.0,0.0,0.0,0.0,0.0,0.0,0.0,0.0,0.0,0.0
2025/04/10 10:33:58.162572670,1744274038,162404882,world_ned,mA1/odom,2.3831941568853354,1.3653736036827255,0.4337266468768624,-0.0007016470685438826,0.00025801137692856816,0.006078091622480766,0.9999812487860706,0.0,0.0,0.0,0.0,0.0,0.0,0.0,0.0,0.0,0.0,0.0,0.0,0.0,0.0,0.0,0.0,0.0,0.0,0.0,0.0,0.0,0.0,0.0,0.0,0.0,0.0,0.0,0.0,0.0,0.0,0.0,0.0,0.0,0.0,0.0,0.0,0.21393755145761972,-0.006509697343813666,0.0001996272177786602,1.8204944849658163e-06,-0.005618835731642589,0.0015943102129267717,0.0,0.0,0.0,0.0,0.0,0.0,0.0,0.0,0.0,0.0,0.0,0.0,0.0,0.0,0.0,0.0,0.0,0.0,0.0,0.0,0.0,0.0,0.0,0.0,0.0,0.0,0.0,0.0,0.0,0.0,0.0,0.0,0.0,0.0,0.0,0.0
2025/04/10 10:33:58.263714597,1744274038,263497233,world_ned,mA1/odom,2.404832231843656,1.364953444954856,0.4337303803782029,-0.0006659732702017399,-2.9086479247474024e-05,0.006155653571264701,0.9999808315976315,0.0,0.0,0.0,0.0,0.0,0.0,0.0,0.0,0.0,0.0,0.0,0.0,0.0,0.0,0.0,0.0,0.0,0.0,0.0,0.0,0.0,0.0,0.0,0.0,0.0,0.0,0.0,0.0,0.0,0.0,0.0,0.0,0.0,0.0,0.0,0.0,0.2188207110767795,-0.007081374124992948,-3.2780262675265716e-05,0.0011854867840427855,-0.005820706033287316,0.0015221676980994897,0.0,0.0,0.0,0.0,0.0,0.0,0.0,0.0,0.0,0.0,0.0,0.0,0.0,0.0,0.0,0.0,0.0,0.0,0.0,0.0,0.0,0.0,0.0,0.0,0.0,0.0,0.0,0.0,0.0,0.0,0.0,0.0,0.0,0.0,0.0,0.0
2025/04/10 10:33:58.355886580,1744274038,354721746,world_ned,mA1/odom,2.4268264677098954,1.3644973990810862,0.43372346172279663,-0.0005799045759227375,-0.00027570809074751177,0.00623049603933391,0.9999803841150262,0.0,0.0,0.0,0.0,0.0,0.0,0.0,0.0,0.0,0.0,0.0,0.0,0.0,0.0,0.0,0.0,0.0,0.0,0.0,0.0,0.0,0.0,0.0,0.0,0.0,0.0,0.0,0.0,0.0,0.0,0.0,0.0,0.0,0.0,0.0,0.0,0.22546971344129602,-0.007405880225684389,-0.00024722115419681596,0.002035438584085351,-0.005410683711838893,0.001471572470173905,0.0,0.0,0.0,0.0,0.0,0.0,0.0,0.0,0.0,0.0,0.0,0.0,0.0,0.0,0.0,0.0,0.0,0.0,0.0,0.0,0.0,0.0,0.0,0.0,0.0,0.0,0.0,0.0,0.0,0.0,0.0,0.0,0.0,0.0,0.0,0.0
