time,header_stamp_secs,header_stamp_nsecs,header_frame_id,name_0,name_1,name_2,name_3,position_0,position_1,position_2,position_3
2025/04/10 10:33:47.921646953,0,0,,mA1/azimuth_1_joint,mA1/azimuth_2_joint,mA1/azimuth_3_joint,mA1/azimuth_4_joint,2.3387411976724017,-2.356194490192345,-0.7853981633974483,0.7853981633974483
2025/04/10 10:33:48.16277072,0,0,,mA1/azimuth_1_joint,mA1/azimuth_2_joint,mA1/azimuth_3_joint,mA1/azimuth_4_joint,2.3387411976724017,-2.356194490192345,-0.7853981633974483,0.7853981633974483
2025/04/10 10:33:48.116106188,0,0,,mA1/azimuth_1_joint,mA1/azimuth_2_joint,mA1/azimuth_3_joint,mA1/azimuth_4_joint,2.3387411976724017,-2.356194490192345,-0.7853981633974483,0.7853981633974483
2025/04/10 10:33:48.217091248,0,0,,mA1/azimuth_1_joint,mA1/azimuth_2_joint,mA1/azimuth_3_joint,mA1/azimuth_4_joint,2.3387411976724017,-2.356194490192345,-0.7853981633974483,0.7853981633974483
2025/04/10 10:33:48.317017227,0,0,,mA1/azimuth_1_joint,mA1/azimuth_2_joint,mA1/azimuth_3_joint,mA1/azimuth_4_joint,2.3387411976724017,-2.356194490192345,-0.7853981633974483,0.7853981633974483
2025/04/10 10:33:48.416549850,0,0,,mA1/azimuth_1_joint,mA1/azimuth_2_joint,mA1/azimuth_3_joint,mA1/azimuth_4_joint,2.3387411976724017,-2.356194490192345,-0.7853981633974483,0.7853981633974483
2025/04/10 10:33:48.515862671,0,0,,mA1/azimuth_1_joint,mA1/azimuth_2_joint,mA1/azimuth_3_joint,mA1/azimuth_4_joint,2.3387411976724017,-2.356194490192345,-0.7853981633974483,0.7853981633974483
2025/04/10 10:33:48.616728018,0,0,,mA1/azimuth_1_joint,mA1/azimuth_2_joint,mA1/azimuth_3_joint,mA1/azimuth_4_joint,2.3387411976724017,-2.356194490192345,-0.7853981633974483,0.7853981633974483
2025/04/10 10:33:48.716394352,0,0,,mA1/azimuth_1_joint,mA1/azimuth_2_joint,mA1/azimuth_3_joint,mA1/azimuth_4_joint,2.3387411976724017,-2.356194490192345,-0.7853981633974483,0.7853981633974483
2025/04/10 10:33:48.816097012,0,0,,mA1/azimuth_1_joint,mA1/azimuth_2_joint,mA1/azimuth_3_joint,mA1/azimuth_4_joint,2.3387411976724017,-2.356194490192345,-0.7853981633974483,0.7853981633974483
2025/04/10 10:33:48.916581794,0,0,,mA1/azimuth_1_joint,mA1/azimuth_2_joint,mA1/azimuth_3_joint,mA1/azimuth_4_joint,2.3387411976724017,-2.356194490192345,-0.7853981633974483,0.7853981633974483
2025/04/10 10:33:49.15851429,0,0,,mA1/azimuth_1_joint,mA1/azimuth_2_joint,mA1/azimuth_3_joint,mA1/azimuth_4_joint,2.3387411976724017,-2.356194490192345,-0.7853981633974483,0.7853981633974483
2025/04/10 10:33:49.116700744,0,0,,mA1/azimuth_1_joint,mA1/azimuth_2_joint,mA1/azimuth_3_joint,mA1/azimuth_4_joint,2.3387411976724017,-2.356194490192345,-0.7853981633974483,0.7853981633974483
2025/04/10 10:33:49.216438396,0,0,,mA1/azimuth_1_joint,mA1/azimuth_2_joint,mA1/azimuth_3_joint,mA1/azimuth_4_joint,2.3387411976724017,-2.356194490192345,-0.7853981633974483,0.7853981633974483
2025/04/10 10:33:49.316097289,0,0,,mA1/azimuth_1_joint,mA1/azimuth_2_joint,mA1/azimuth_3_joint,mA1/azimuth_4_joint,2.3387411976724017,-2.356194490192345,-0.7853981633974483,0.7853981633974483
2025/04/10 10:33:49.415963048,0,0,,mA1/azimuth_1_joint,mA1/azimuth_2_joint,mA1/azimuth_3_joint,mA1/azimuth_4_joint,2.3387411976724017,-2.356194490192345,-0.7853981633974483,0.7853981633974483
2025/04/10 10:33:49.515989989,0,0,,mA1/azimuth_1_joint,mA1/azimuth_2_joint,mA1/azimuth_3_joint,mA1/azimuth_4_joint,2.3387411976724017,-2.356194490192345,-0.7853981633974483,0.7853981633974483
2025/04/10 10:33:49.618739305,0,0,,mA1/azimuth_1_joint,mA1/azimuth_2_joint,mA1/azimuth_3_joint,mA1/azimuth_4_joint,2.3387411976724017,-2.356194490192345,-0.7853981633974483,0.7853981633974483
2025/04/10 10:33:49.715992722,0,0,,mA1/azimuth_1_joint,mA1/azimuth_2_joint,mA1/azimuth_3_joint,mA1/azimuth_4_joint,2.3387411976724017,-2.356194490192345,-0.7853981633974483,0.7853981633974483
2025/04/10 10:33:49.817423935,0,0,,mA1/azimuth_1_joint,mA1/azimuth_2_joint,mA1/azimuth_3_joint,mA1/azimuth_4_joint,2.3387411976724017,-2.356194490192345,-0.7853981633974483,0.7853981633974483
2025/04/10 10:33:49.916263255,0,0,,mA1/azimuth_1_joint,mA1/azimuth_2_joint,mA1/azimuth_3_joint,mA1/azimuth_4_joint,2.3387411976724017,-2.356194490192345,-0.7853981633974483,0.7853981633974483
2025/04/10 10:33:50.16041556,0,0,,mA1/azimuth_1_joint,mA1/azimuth_2_joint,mA1/azimuth_3_joint,mA1/azimuth_4_joint,2.3387411976724017,-2.356194490192345,-0.7853981633974483,0.7853981633974483
2025/04/10 10:33:50.115837564,0,0,,mA1/azimuth_1_joint,mA1/azimuth_2_joint,mA1/azimuth_3_joint,mA1/azimuth_4_joint,2.3387411976724017,-2.356194490192345,-0.7853981633974483,0.7853981633974483
2025/04/10 10:33:50.215936979,0,0,,mA1/azimuth_1_joint,mA1/azimuth_2_joint,mA1/azimuth_3_joint,mA1/azimuth_4_joint,2.3387411976724017,-2.356194490192345,-0.7853981633974483,0.7853981633974483
2025/04/10 10:33:50.316006863,0,0,,mA1/azimuth_1_joint,mA1/azimuth_2_joint,mA1/azimuth_3_joint,mA1/azimuth_4_joint,2.3387411976724017,-2.356194490192345,-0.7853981633974483,0.7853981633974483
2025/04/10 10:33:50.415998198,0,0,,mA1/azimuth_1_joint,mA1/azimuth_2_joint,mA1/azimuth_3_joint,mA1/azimuth_4_joint,2.3387411976724017,-2.356194490192345,-0.7853981633974483,0.7853981633974483
2025/04/10 10:33:50.515896058,0,0,,mA1/azimuth_1_joint,mA1/azimuth_2_joint,mA1/azimuth_3_joint,mA1/azimuth_4_joint,2.3387411976724017,-2.356194490192345,-0.7853981633974483,0.7853981633974483
2025/04/10 10:33:50.615929796,0,0,,mA1/azimuth_1_joint,mA1/azimuth_2_joint,mA1/azimuth_3_joint,mA1/azimuth_4_joint,2.3387411976724017,-2.356194490192345,-0.7853981633974483,0.7853981633974483
2025/04/10 10:33:50.716680628,0,0,,mA1/azimuth_1_joint,mA1/azimuth_2_joint,mA1/azimuth_3_joint,mA1/azimuth_4_joint,2.3387411976724017,-2.356194490192345,-0.7853981633974483,0.7853981633974483
2025/04/10 10:33:50.815963473,0,0,,mA1/azimuth_1_joint,mA1/azimuth_2_joint,mA1/azimuth_3_joint,mA1/azimuth_4_joint,2.3387411976724017,-2.356194490192345,-0.7853981633974483,0.7853981633974483
2025/04/10 10:33:50.915919736,0,0,,mA1/azimuth_1_joint,mA1/azimuth_2_joint,mA1/azimuth_3_joint,mA1/azimuth_4_joint,2.3387411976724017,-2.356194490192345,-0.7853981633974483,0.7853981633974483
2025/04/10 10:33:51.15804223,0,0,,mA1/azimuth_1_joint,mA1/azimuth_2_joint,mA1/azimuth_3_joint,mA1/azimuth_4_joint,2.356194490192345,-2.356194490192345,-0.7853981633974483,0.7853981633974483
2025/04/10 10:33:51.117007585,0,0,,mA1/azimuth_1_joint,mA1/azimuth_2_joint,mA1/azimuth_3_joint,mA1/azimuth_4_joint,2.356194490192345,-2.356194490192345,-0.7853981633974483,0.7853981633974483
2025/04/10 10:33:51.216159014,0,0,,mA1/azimuth_1_joint,mA1/azimuth_2_joint,mA1/azimuth_3_joint,mA1/azimuth_4_joint,2.356194490192345,-2.356194490192345,-0.7853981633974483,0.7853981633974483
2025/04/10 10:33:51.316720770,0,0,,mA1/azimuth_1_joint,mA1/azimuth_2_joint,mA1/azimuth_3_joint,mA1/azimuth_4_joint,2.356194490192345,-2.356194490192345,-0.7853981633974483,0.7853981633974483
2025/04/10 10:33:51.417099840,0,0,,mA1/azimuth_1_joint,mA1/azimuth_2_joint,mA1/azimuth_3_joint,mA1/azimuth_4_joint,2.356194490192345,-2.356194490192345,-0.7853981633974483,0.7853981633974483
2025/04/10 10:33:51.515848198,0,0,,mA1/azimuth_1_joint,mA1/azimuth_2_joint,mA1/azimuth_3_joint,mA1/azimuth_4_joint,2.356194490192345,-2.356194490192345,-0.7853981633974483,0.7853981633974483
2025/04/10 10:33:51.615835020,0,0,,mA1/azimuth_1_joint,mA1/azimuth_2_joint,mA1/azimuth_3_joint,mA1/azimuth_4_joint,2.356194490192345,-2.356194490192345,-0.7853981633974483,0.7853981633974483
2025/04/10 10:33:51.716143488,0,0,,mA1/azimuth_1_joint,mA1/azimuth_2_joint,mA1/azimuth_3_joint,mA1/azimuth_4_joint,2.356194490192345,-2.356194490192345,-0.7853981633974483,0.7853981633974483
2025/04/10 10:33:51.815900100,0,0,,mA1/azimuth_1_joint,mA1/azimuth_2_joint,mA1/azimuth_3_joint,mA1/azimuth_4_joint,2.356194490192345,-2.356194490192345,-0.7853981633974483,0.7853981633974483
2025/04/10 10:33:51.916323468,0,0,,mA1/azimuth_1_joint,mA1/azimuth_2_joint,mA1/azimuth_3_joint,mA1/azimuth_4_joint,2.356194490192345,-2.356194490192345,-0.7853981633974483,0.7853981633974483
2025/04/10 10:33:52.15867830,0,0,,mA1/azimuth_1_joint,mA1/azimuth_2_joint,mA1/azimuth_3_joint,mA1/azimuth_4_joint,2.356194490192345,-2.356194490192345,-0.7853981633974483,0.7853981633974483
2025/04/10 10:33:52.116217890,0,0,,mA1/azimuth_1_joint,mA1/azimuth_2_joint,mA1/azimuth_3_joint,mA1/azimuth_4_joint,2.356194490192345,-2.356194490192345,-0.7853981633974483,0.7853981633974483
2025/04/10 10:33:52.216616029,0,0,,mA1/azimuth_1_joint,mA1/azimuth_2_joint,mA1/azimuth_3_joint,mA1/azimuth_4_joint,2.356194490192345,-2.356194490192345,-0.7853981633974483,0.7853981633974483
2025/04/10 10:33:52.316364246,0,0,,mA1/azimuth_1_joint,mA1/azimuth_2_joint,mA1/azimuth_3_joint,mA1/azimuth_4_joint,2.356194490192345,-2.356194490192345,-0.7853981633974483,0.7853981633974483
2025/04/10 10:33:52.416253966,0,0,,mA1/azimuth_1_joint,mA1/azimuth_2_joint,mA1/azimuth_3_joint,mA1/azimuth_4_joint,2.356194490192345,-2.356194490192345,-0.7853981633974483,0.7853981633974483
2025/04/10 10:33:52.515989227,0,0,,mA1/azimuth_1_joint,mA1/azimuth_2_joint,mA1/azimuth_3_joint,mA1/azimuth_4_joint,2.356194490192345,-2.356194490192345,-0.7853981633974483,0.7853981633974483
2025/04/10 10:33:52.615873027,0,0,,mA1/azimuth_1_joint,mA1/azimuth_2_joint,mA1/azimuth_3_joint,mA1/azimuth_4_joint,2.356194490192345,-2.356194490192345,-0.7853981633974483,0.7853981633974483
2025/04/10 10:33:52.715909345,0,0,,mA1/azimuth_1_joint,mA1/azimuth_2_joint,mA1/azimuth_3_joint,mA1/azimuth_4_joint,2.356194490192345,-2.356194490192345,-0.7853981633974483,0.7853981633974483
2025/04/10 10:33:52.815756182,0,0,,mA1/azimuth_1_joint,mA1/azimuth_2_joint,mA1/azimuth_3_joint,mA1/azimuth_4_joint,2.356194490192345,-2.356194490192345,-0.7853981633974483,0.7853981633974483
2025/04/10 10:33:52.916520220,0,0,,mA1/azimuth_1_joint,mA1/azimuth_2_joint,mA1/azimuth_3_joint,mA1/azimuth_4_joint,2.356194490192345,-2.356194490192345,-0.7853981633974483,0.7853981633974483
2025/04/10 10:33:53.15940092,0,0,,mA1/azimuth_1_joint,mA1/azimuth_2_joint,mA1/azimuth_3_joint,mA1/azimuth_4_joint,2.356194490192345,-2.356194490192345,-0.7853981633974483,0.7853981633974483
2025/04/10 10:33:53.115774585,0,0,,mA1/azimuth_1_joint,mA1/azimuth_2_joint,mA1/azimuth_3_joint,mA1/azimuth_4_joint,2.356194490192345,-2.356194490192345,-0.7853981633974483,0.7853981633974483
2025/04/10 10:33:53.215946162,0,0,,mA1/azimuth_1_joint,mA1/azimuth_2_joint,mA1/azimuth_3_joint,mA1/azimuth_4_joint,2.356194490192345,-2.356194490192345,-0.7853981633974483,0.7853981633974483
2025/04/10 10:33:53.316511217,0,0,,mA1/azimuth_1_joint,mA1/azimuth_2_joint,mA1/azimuth_3_joint,mA1/azimuth_4_joint,2.356194490192345,-2.356194490192345,-0.7853981633974483,0.7853981633974483
2025/04/10 10:33:53.415839251,0,0,,mA1/azimuth_1_joint,mA1/azimuth_2_joint,mA1/azimuth_3_joint,mA1/azimuth_4_joint,2.356194490192345,-2.356194490192345,-0.7853981633974483,0.7853981633974483
2025/04/10 10:33:53.516267130,0,0,,mA1/azimuth_1_joint,mA1/azimuth_2_joint,mA1/azimuth_3_joint,mA1/azimuth_4_joint,2.356194490192345,-2.356194490192345,-0.7853981633974483,0.7853981633974483
2025/04/10 10:33:53.615815320,0,0,,mA1/azimuth_1_joint,mA1/azimuth_2_joint,mA1/azimuth_3_joint,mA1/azimuth_4_joint,2.356194490192345,-2.356194490192345,-0.7853981633974483,0.7853981633974483
2025/04/10 10:33:53.715897546,0,0,,mA1/azimuth_1_joint,mA1/azimuth_2_joint,mA1/azimuth_3_joint,mA1/azimuth_4_joint,2.356194490192345,-2.356194490192345,-0.7853981633974483,0.7853981633974483
2025/04/10 10:33:53.817120612,0,0,,mA1/azimuth_1_joint,mA1/azimuth_2_joint,mA1/azimuth_3_joint,mA1/azimuth_4_joint,2.356194490192345,-2.356194490192345,-0.7853981633974483,0.7853981633974483
2025/04/10 10:33:53.916539475,0,0,,mA1/azimuth_1_joint,mA1/azimuth_2_joint,mA1/azimuth_3_joint,mA1/azimuth_4_joint,2.356194490192345,-2.356194490192345,-0.7853981633974483,0.7853981633974483
2025/04/10 10:33:54.15892349,0,0,,mA1/azimuth_1_joint,mA1/azimuth_2_joint,mA1/azimuth_3_joint,mA1/azimuth_4_joint,2.3736477827122884,-2.3911010752322315,-0.8028514559173916,0.7330382858376184
2025/04/10 10:33:54.116163777,0,0,,mA1/azimuth_1_joint,mA1/azimuth_2_joint,mA1/azimuth_3_joint,mA1/azimuth_4_joint,2.356194490192345,-2.443460952792061,-0.7853981633974483,0.6806784082777885
2025/04/10 10:33:54.216119601,0,0,,mA1/azimuth_1_joint,mA1/azimuth_2_joint,mA1/azimuth_3_joint,mA1/azimuth_4_joint,2.3911010752322315,-2.4958208303518914,-0.7330382858376184,0.6457718232379019
2025/04/10 10:33:54.316449494,0,0,,mA1/azimuth_1_joint,mA1/azimuth_2_joint,mA1/azimuth_3_joint,mA1/azimuth_4_joint,2.443460952792061,-2.530727415391778,-0.6806784082777885,0.6108652381980153
2025/04/10 10:33:54.416414751,0,0,,mA1/azimuth_1_joint,mA1/azimuth_2_joint,mA1/azimuth_3_joint,mA1/azimuth_4_joint,2.4609142453120048,-2.530727415391778,-0.6632251157578453,0.6108652381980153
2025/04/10 10:33:54.515739839,0,0,,mA1/azimuth_1_joint,mA1/azimuth_2_joint,mA1/azimuth_3_joint,mA1/azimuth_4_joint,2.478367537831948,-2.530727415391778,-0.6283185307179586,0.5934119456780721
2025/04/10 10:33:54.616018713,0,0,,mA1/azimuth_1_joint,mA1/azimuth_2_joint,mA1/azimuth_3_joint,mA1/azimuth_4_joint,2.4609142453120048,-2.530727415391778,-0.6108652381980153,0.5585053606381855
2025/04/10 10:33:54.718764151,0,0,,mA1/azimuth_1_joint,mA1/azimuth_2_joint,mA1/azimuth_3_joint,mA1/azimuth_4_joint,2.4609142453120048,-2.530727415391778,-0.5759586531581288,0.5235987755982988
2025/04/10 10:33:54.815809313,0,0,,mA1/azimuth_1_joint,mA1/azimuth_2_joint,mA1/azimuth_3_joint,mA1/azimuth_4_joint,2.4609142453120048,-2.530727415391778,-0.5585053606381855,0.5061454830783556
2025/04/10 10:33:54.915746487,0,0,,mA1/azimuth_1_joint,mA1/azimuth_2_joint,mA1/azimuth_3_joint,mA1/azimuth_4_joint,2.4609142453120048,-2.530727415391778,-0.5410520681182421,0.4886921905584123
2025/04/10 10:33:55.16111827,0,0,,mA1/azimuth_1_joint,mA1/azimuth_2_joint,mA1/azimuth_3_joint,mA1/azimuth_4_joint,2.4609142453120048,-2.530727415391778,-0.5235987755982988,0.47123889803846897
2025/04/10 10:33:55.116824110,0,0,,mA1/azimuth_1_joint,mA1/azimuth_2_joint,mA1/azimuth_3_joint,mA1/azimuth_4_joint,2.4609142453120048,-2.530727415391778,-0.4886921905584123,0.4537856055185257
2025/04/10 10:33:55.215839332,0,0,,mA1/azimuth_1_joint,mA1/azimuth_2_joint,mA1/azimuth_3_joint,mA1/azimuth_4_joint,2.4609142453120048,-2.530727415391778,-0.47123889803846897,0.4363323129985824
2025/04/10 10:33:55.315772765,0,0,,mA1/azimuth_1_joint,mA1/azimuth_2_joint,mA1/azimuth_3_joint,mA1/azimuth_4_joint,2.4609142453120048,-2.5132741228718345,-0.4537856055185257,0.4363323129985824
2025/04/10 10:33:55.416066350,0,0,,mA1/azimuth_1_joint,mA1/azimuth_2_joint,mA1/azimuth_3_joint,mA1/azimuth_4_joint,2.4609142453120048,-2.5132741228718345,-0.4363323129985824,0.4188790204786391
2025/04/10 10:33:55.516618217,0,0,,mA1/azimuth_1_joint,mA1/azimuth_2_joint,mA1/azimuth_3_joint,mA1/azimuth_4_joint,2.4609142453120048,-2.5132741228718345,-0.4363323129985824,0.4014257279586958
2025/04/10 10:33:55.617355411,0,0,,mA1/azimuth_1_joint,mA1/azimuth_2_joint,mA1/azimuth_3_joint,mA1/azimuth_4_joint,2.4609142453120048,-2.5132741228718345,-0.4188790204786391,0.4014257279586958
2025/04/10 10:33:55.715884175,0,0,,mA1/azimuth_1_joint,mA1/azimuth_2_joint,mA1/azimuth_3_joint,mA1/azimuth_4_joint,2.4609142453120048,-2.5132741228718345,-0.4188790204786391,0.3839724354387525
2025/04/10 10:33:55.815935677,0,0,,mA1/azimuth_1_joint,mA1/azimuth_2_joint,mA1/azimuth_3_joint,mA1/azimuth_4_joint,2.4609142453120048,-2.5132741228718345,-0.4014257279586958,0.3665191429188092
2025/04/10 10:33:55.916342980,0,0,,mA1/azimuth_1_joint,mA1/azimuth_2_joint,mA1/azimuth_3_joint,mA1/azimuth_4_joint,2.4609142453120048,-2.5132741228718345,-0.4014257279586958,0.3665191429188092
2025/04/10 10:33:56.15901325,0,0,,mA1/azimuth_1_joint,mA1/azimuth_2_joint,mA1/azimuth_3_joint,mA1/azimuth_4_joint,2.4609142453120048,-2.5132741228718345,-0.3839724354387525,0.3490658503988659
2025/04/10 10:33:56.116455806,0,0,,mA1/azimuth_1_joint,mA1/azimuth_2_joint,mA1/azimuth_3_joint,mA1/azimuth_4_joint,2.4609142453120048,-2.4958208303518914,-0.3839724354387525,0.3490658503988659
2025/04/10 10:33:56.216296519,0,0,,mA1/azimuth_1_joint,mA1/azimuth_2_joint,mA1/azimuth_3_joint,mA1/azimuth_4_joint,2.4609142453120048,-2.4958208303518914,-0.3839724354387525,0.33161255787892263
2025/04/10 10:33:56.315788687,0,0,,mA1/azimuth_1_joint,mA1/azimuth_2_joint,mA1/azimuth_3_joint,mA1/azimuth_4_joint,2.443460952792061,-2.4958208303518914,-0.3665191429188092,0.33161255787892263
2025/04/10 10:33:56.419341321,0,0,,mA1/azimuth_1_joint,mA1/azimuth_2_joint,mA1/azimuth_3_joint,mA1/azimuth_4_joint,2.443460952792061,-2.4958208303518914,-0.3665191429188092,0.33161255787892263
2025/04/10 10:33:56.516190322,0,0,,mA1/azimuth_1_joint,mA1/azimuth_2_joint,mA1/azimuth_3_joint,mA1/azimuth_4_joint,2.443460952792061,-2.4958208303518914,-0.3490658503988659,0.3141592653589793
2025/04/10 10:33:56.618773420,0,0,,mA1/azimuth_1_joint,mA1/azimuth_2_joint,mA1/azimuth_3_joint,mA1/azimuth_4_joint,2.443460952792061,-2.4958208303518914,-0.3490658503988659,0.3141592653589793
2025/04/10 10:33:56.715989476,0,0,,mA1/azimuth_1_joint,mA1/azimuth_2_joint,mA1/azimuth_3_joint,mA1/azimuth_4_joint,2.443460952792061,-2.4958208303518914,-0.3490658503988659,0.3141592653589793
2025/04/10 10:33:56.816002082,0,0,,mA1/azimuth_1_joint,mA1/azimuth_2_joint,mA1/azimuth_3_joint,mA1/azimuth_4_joint,2.443460952792061,-2.4958208303518914,-0.33161255787892263,0.29670597283903605
2025/04/10 10:33:56.917291077,0,0,,mA1/azimuth_1_joint,mA1/azimuth_2_joint,mA1/azimuth_3_joint,mA1/azimuth_4_joint,2.443460952792061,-2.4958208303518914,-0.33161255787892263,0.29670597283903605
2025/04/10 10:33:57.15795628,0,0,,mA1/azimuth_1_joint,mA1/azimuth_2_joint,mA1/azimuth_3_joint,mA1/azimuth_4_joint,2.443460952792061,-2.478367537831948,-0.33161255787892263,0.29670597283903605
2025/04/10 10:33:57.115791827,0,0,,mA1/azimuth_1_joint,mA1/azimuth_2_joint,mA1/azimuth_3_joint,mA1/azimuth_4_joint,2.443460952792061,-2.478367537831948,-0.33161255787892263,0.2792526803190927
2025/04/10 10:33:57.216553454,0,0,,mA1/azimuth_1_joint,mA1/azimuth_2_joint,mA1/azimuth_3_joint,mA1/azimuth_4_joint,2.443460952792061,-2.478367537831948,-0.33161255787892263,0.2792526803190927
2025/04/10 10:33:57.316607465,0,0,,mA1/azimuth_1_joint,mA1/azimuth_2_joint,mA1/azimuth_3_joint,mA1/azimuth_4_joint,2.443460952792061,-2.478367537831948,-0.3141592653589793,0.2792526803190927
2025/04/10 10:33:57.416327082,0,0,,mA1/azimuth_1_joint,mA1/azimuth_2_joint,mA1/azimuth_3_joint,mA1/azimuth_4_joint,2.443460952792061,-2.478367537831948,-0.3141592653589793,0.2792526803190927
2025/04/10 10:33:57.516095284,0,0,,mA1/azimuth_1_joint,mA1/azimuth_2_joint,mA1/azimuth_3_joint,mA1/azimuth_4_joint,2.443460952792061,-2.478367537831948,-0.3141592653589793,0.2792526803190927
2025/04/10 10:33:57.615952629,0,0,,mA1/azimuth_1_joint,mA1/azimuth_2_joint,mA1/azimuth_3_joint,mA1/azimuth_4_joint,2.443460952792061,-2.478367537831948,-0.29670597283903605,0.2792526803190927
2025/04/10 10:33:57.715787768,0,0,,mA1/azimuth_1_joint,mA1/azimuth_2_joint,mA1/azimuth_3_joint,mA1/azimuth_4_joint,2.443460952792061,-2.478367537831948,-0.29670597283903605,0.2792526803190927
2025/04/10 10:33:57.816657648,0,0,,mA1/azimuth_1_joint,mA1/azimuth_2_joint,mA1/azimuth_3_joint,mA1/azimuth_4_joint,2.443460952792061,-2.478367537831948,-0.29670597283903605,0.2792526803190927
2025/04/10 10:33:57.915878420,0,0,,mA1/azimuth_1_joint,mA1/azimuth_2_joint,mA1/azimuth_3_joint,mA1/azimuth_4_joint,2.443460952792061,-2.478367537831948,-0.2792526803190927,0.2792526803190927
2025/04/10 10:33:58.15975963,0,0,,mA1/azimuth_1_joint,mA1/azimuth_2_joint,mA1/azimuth_3_joint,mA1/azimuth_4_joint,2.443460952792061,-2.478367537831948,-0.2792526803190927,0.2792526803190927
2025/04/10 10:33:58.116473548,0,0,,mA1/azimuth_1_joint,mA1/azimuth_2_joint,mA1/azimuth_3_joint,mA1/azimuth_4_joint,2.443460952792061,-2.4609142453120048,-0.2792526803190927,0.2792526803190927
2025/04/10 10:33:58.216071786,0,0,,mA1/azimuth_1_joint,mA1/azimuth_2_joint,mA1/azimuth_3_joint,mA1/azimuth_4_joint,2.443460952792061,-2.4609142453120048,-0.2792526803190927,0.2792526803190927
2025/04/10 10:33:58.315901379,0,0,,mA1/azimuth_1_joint,mA1/azimuth_2_joint,mA1/azimuth_3_joint,mA1/azimuth_4_joint,2.426007660272118,-2.4609142453120048,-0.2792526803190927,0.2792526803190927
2025/04/10 10:33:58.416971998,0,0,,mA1/azimuth_1_joint,mA1/azimuth_2_joint,mA1/azimuth_3_joint,mA1/azimuth_4_joint,2.426007660272118,-2.4609142453120048,-0.2792526803190927,0.2617993877991494
2025/04/10 10:33:58.516368437,0,0,,mA1/azimuth_1_joint,mA1/azimuth_2_joint,mA1/azimuth_3_joint,mA1/azimuth_4_joint,2.426007660272118,-2.4609142453120048,-0.2617993877991494,0.2792526803190927
2025/04/10 10:33:58.616166541,0,0,,mA1/azimuth_1_joint,mA1/azimuth_2_joint,mA1/azimuth_3_joint,mA1/azimuth_4_joint,2.426007660272118,-2.4609142453120048,-0.2617993877991494,0.2792526803190927
2025/04/10 10:33:58.715895016,0,0,,mA1/azimuth_1_joint,mA1/azimuth_2_joint,mA1/azimuth_3_joint,mA1/azimuth_4_joint,2.426007660272118,-2.4609142453120048,-0.2617993877991494,0.2617993877991494
2025/04/10 10:33:58.815954944,0,0,,mA1/azimuth_1_joint,mA1/azimuth_2_joint,mA1/azimuth_3_joint,mA1/azimuth_4_joint,2.426007660272118,-2.4609142453120048,-0.2617993877991494,0.2617993877991494
2025/04/10 10:33:58.916118269,0,0,,mA1/azimuth_1_joint,mA1/azimuth_2_joint,mA1/azimuth_3_joint,mA1/azimuth_4_joint,2.426007660272118,-2.4609142453120048,-0.2617993877991494,0.2617993877991494
2025/04/10 10:33:59.16091906,0,0,,mA1/azimuth_1_joint,mA1/azimuth_2_joint,mA1/azimuth_3_joint,mA1/azimuth_4_joint,2.426007660272118,-2.4609142453120048,-0.2617993877991494,0.2617993877991494
2025/04/10 10:33:59.115908478,0,0,,mA1/azimuth_1_joint,mA1/azimuth_2_joint,mA1/azimuth_3_joint,mA1/azimuth_4_joint,2.426007660272118,-2.4609142453120048,-0.2792526803190927,0.24434609527920614
2025/04/10 10:33:59.215841726,0,0,,mA1/azimuth_1_joint,mA1/azimuth_2_joint,mA1/azimuth_3_joint,mA1/azimuth_4_joint,2.426007660272118,-2.4609142453120048,-0.2617993877991494,0.24434609527920614
2025/04/10 10:33:59.316531276,0,0,,mA1/azimuth_1_joint,mA1/azimuth_2_joint,mA1/azimuth_3_joint,mA1/azimuth_4_joint,2.426007660272118,-2.4609142453120048,-0.2617993877991494,0.24434609527920614
2025/04/10 10:33:59.416884167,0,0,,mA1/azimuth_1_joint,mA1/azimuth_2_joint,mA1/azimuth_3_joint,mA1/azimuth_4_joint,2.426007660272118,-2.4609142453120048,-0.2617993877991494,0.24434609527920614
2025/04/10 10:33:59.516110034,0,0,,mA1/azimuth_1_joint,mA1/azimuth_2_joint,mA1/azimuth_3_joint,mA1/azimuth_4_joint,2.426007660272118,-2.4609142453120048,-0.2617993877991494,0.24434609527920614
2025/04/10 10:33:59.615727708,0,0,,mA1/azimuth_1_joint,mA1/azimuth_2_joint,mA1/azimuth_3_joint,mA1/azimuth_4_joint,2.426007660272118,-2.443460952792061,-0.24434609527920614,0.24434609527920614
2025/04/10 10:33:59.716543414,0,0,,mA1/azimuth_1_joint,mA1/azimuth_2_joint,mA1/azimuth_3_joint,mA1/azimuth_4_joint,2.426007660272118,-2.443460952792061,-0.2617993877991494,0.24434609527920614
2025/04/10 10:33:59.816823893,0,0,,mA1/azimuth_1_joint,mA1/azimuth_2_joint,mA1/azimuth_3_joint,mA1/azimuth_4_joint,2.426007660272118,-2.443460952792061,-0.2617993877991494,0.24434609527920614
2025/04/10 10:33:59.915888660,0,0,,mA1/azimuth_1_joint,mA1/azimuth_2_joint,mA1/azimuth_3_joint,mA1/azimuth_4_joint,2.426007660272118,-2.443460952792061,-0.2617993877991494,0.24434609527920614
2025/04/10 10:34:00.16119956,0,0,,mA1/azimuth_1_joint,mA1/azimuth_2_joint,mA1/azimuth_3_joint,mA1/azimuth_4_joint,2.426007660272118,-2.443460952792061,-0.24434609527920614,0.24434609527920614
2025/04/10 10:34:00.116496760,0,0,,mA1/azimuth_1_joint,mA1/azimuth_2_joint,mA1/azimuth_3_joint,mA1/azimuth_4_joint,2.426007660272118,-2.443460952792061,-0.24434609527920614,0.24434609527920614
2025/04/10 10:34:00.215811519,0,0,,mA1/azimuth_1_joint,mA1/azimuth_2_joint,mA1/azimuth_3_joint,mA1/azimuth_4_joint,2.426007660272118,-2.443460952792061,-0.24434609527920614,0.24434609527920614
2025/04/10 10:34:00.317268629,0,0,,mA1/azimuth_1_joint,mA1/azimuth_2_joint,mA1/azimuth_3_joint,mA1/azimuth_4_joint,2.426007660272118,-2.443460952792061,-0.24434609527920614,0.24434609527920614
2025/04/10 10:34:00.416317532,0,0,,mA1/azimuth_1_joint,mA1/azimuth_2_joint,mA1/azimuth_3_joint,mA1/azimuth_4_joint,2.426007660272118,-2.443460952792061,-0.24434609527920614,0.22689280275926285
2025/04/10 10:34:00.515805861,0,0,,mA1/azimuth_1_joint,mA1/azimuth_2_joint,mA1/azimuth_3_joint,mA1/azimuth_4_joint,2.426007660272118,-2.443460952792061,-0.24434609527920614,0.22689280275926285
2025/04/10 10:34:00.616445323,0,0,,mA1/azimuth_1_joint,mA1/azimuth_2_joint,mA1/azimuth_3_joint,mA1/azimuth_4_joint,2.426007660272118,-2.443460952792061,-0.22689280275926285,0.24434609527920614
2025/04/10 10:34:00.716967091,0,0,,mA1/azimuth_1_joint,mA1/azimuth_2_joint,mA1/azimuth_3_joint,mA1/azimuth_4_joint,2.426007660272118,-2.443460952792061,-0.22689280275926285,0.22689280275926285
2025/04/10 10:34:00.815810432,0,0,,mA1/azimuth_1_joint,mA1/azimuth_2_joint,mA1/azimuth_3_joint,mA1/azimuth_4_joint,2.426007660272118,-2.443460952792061,-0.22689280275926285,0.22689280275926285
2025/04/10 10:34:00.916277288,0,0,,mA1/azimuth_1_joint,mA1/azimuth_2_joint,mA1/azimuth_3_joint,mA1/azimuth_4_joint,2.426007660272118,-2.443460952792061,-0.22689280275926285,0.22689280275926285
2025/04/10 10:34:01.15823382,0,0,,mA1/azimuth_1_joint,mA1/azimuth_2_joint,mA1/azimuth_3_joint,mA1/azimuth_4_joint,2.426007660272118,-2.443460952792061,-0.24434609527920614,0.20943951023931956
2025/04/10 10:34:01.118788257,0,0,,mA1/azimuth_1_joint,mA1/azimuth_2_joint,mA1/azimuth_3_joint,mA1/azimuth_4_joint,2.426007660272118,-2.443460952792061,-0.24434609527920614,0.20943951023931956
2025/04/10 10:34:01.218078810,0,0,,mA1/azimuth_1_joint,mA1/azimuth_2_joint,mA1/azimuth_3_joint,mA1/azimuth_4_joint,2.426007660272118,-2.443460952792061,-0.22689280275926285,0.20943951023931956
2025/04/10 10:34:01.316198216,0,0,,mA1/azimuth_1_joint,mA1/azimuth_2_joint,mA1/azimuth_3_joint,mA1/azimuth_4_joint,2.426007660272118,-2.443460952792061,-0.22689280275926285,0.20943951023931956
2025/04/10 10:34:01.415913615,0,0,,mA1/azimuth_1_joint,mA1/azimuth_2_joint,mA1/azimuth_3_joint,mA1/azimuth_4_joint,2.426007660272118,-2.443460952792061,-0.22689280275926285,0.20943951023931956
2025/04/10 10:34:01.516074367,0,0,,mA1/azimuth_1_joint,mA1/azimuth_2_joint,mA1/azimuth_3_joint,mA1/azimuth_4_joint,2.426007660272118,-2.443460952792061,-0.22689280275926285,0.20943951023931956
2025/04/10 10:34:01.615826524,0,0,,mA1/azimuth_1_joint,mA1/azimuth_2_joint,mA1/azimuth_3_joint,mA1/azimuth_4_joint,2.426007660272118,-2.443460952792061,-0.22689280275926285,0.20943951023931956
2025/04/10 10:34:01.715839366,0,0,,mA1/azimuth_1_joint,mA1/azimuth_2_joint,mA1/azimuth_3_joint,mA1/azimuth_4_joint,2.426007660272118,-2.443460952792061,-0.22689280275926285,0.20943951023931956
2025/04/10 10:34:01.816242249,0,0,,mA1/azimuth_1_joint,mA1/azimuth_2_joint,mA1/azimuth_3_joint,mA1/azimuth_4_joint,2.426007660272118,-2.443460952792061,-0.22689280275926285,0.20943951023931956
2025/04/10 10:34:01.916882606,0,0,,mA1/azimuth_1_joint,mA1/azimuth_2_joint,mA1/azimuth_3_joint,mA1/azimuth_4_joint,2.426007660272118,-2.443460952792061,-0.22689280275926285,0.19198621771937624
2025/04/10 10:34:02.17637710,0,0,,mA1/azimuth_1_joint,mA1/azimuth_2_joint,mA1/azimuth_3_joint,mA1/azimuth_4_joint,2.426007660272118,-2.443460952792061,-0.20943951023931956,0.20943951023931956
2025/04/10 10:34:02.116218642,0,0,,mA1/azimuth_1_joint,mA1/azimuth_2_joint,mA1/azimuth_3_joint,mA1/azimuth_4_joint,2.426007660272118,-2.443460952792061,-0.20943951023931956,0.20943951023931956
2025/04/10 10:34:02.218072793,0,0,,mA1/azimuth_1_joint,mA1/azimuth_2_joint,mA1/azimuth_3_joint,mA1/azimuth_4_joint,2.426007660272118,-2.443460952792061,-0.20943951023931956,0.20943951023931956
2025/04/10 10:34:02.316084104,0,0,,mA1/azimuth_1_joint,mA1/azimuth_2_joint,mA1/azimuth_3_joint,mA1/azimuth_4_joint,2.426007660272118,-2.443460952792061,-0.20943951023931956,0.19198621771937624
2025/04/10 10:34:02.416187342,0,0,,mA1/azimuth_1_joint,mA1/azimuth_2_joint,mA1/azimuth_3_joint,mA1/azimuth_4_joint,2.426007660272118,-2.443460952792061,-0.20943951023931956,0.19198621771937624
2025/04/10 10:34:02.515878683,0,0,,mA1/azimuth_1_joint,mA1/azimuth_2_joint,mA1/azimuth_3_joint,mA1/azimuth_4_joint,2.426007660272118,-2.426007660272118,-0.20943951023931956,0.19198621771937624
2025/04/10 10:34:02.616075308,0,0,,mA1/azimuth_1_joint,mA1/azimuth_2_joint,mA1/azimuth_3_joint,mA1/azimuth_4_joint,2.426007660272118,-2.426007660272118,-0.20943951023931956,0.19198621771937624
2025/04/10 10:34:02.715765470,0,0,,mA1/azimuth_1_joint,mA1/azimuth_2_joint,mA1/azimuth_3_joint,mA1/azimuth_4_joint,2.426007660272118,-2.426007660272118,-0.20943951023931956,0.19198621771937624
2025/04/10 10:34:02.815946226,0,0,,mA1/azimuth_1_joint,mA1/azimuth_2_joint,mA1/azimuth_3_joint,mA1/azimuth_4_joint,2.426007660272118,-2.426007660272118,-0.20943951023931956,0.17453292519943295
2025/04/10 10:34:02.916626988,0,0,,mA1/azimuth_1_joint,mA1/azimuth_2_joint,mA1/azimuth_3_joint,mA1/azimuth_4_joint,2.426007660272118,-2.426007660272118,-0.20943951023931956,0.17453292519943295
2025/04/10 10:34:03.16028495,0,0,,mA1/azimuth_1_joint,mA1/azimuth_2_joint,mA1/azimuth_3_joint,mA1/azimuth_4_joint,2.426007660272118,-2.426007660272118,-0.20943951023931956,0.17453292519943295
2025/04/10 10:34:03.116204625,0,0,,mA1/azimuth_1_joint,mA1/azimuth_2_joint,mA1/azimuth_3_joint,mA1/azimuth_4_joint,2.426007660272118,-2.426007660272118,-0.20943951023931956,0.17453292519943295
2025/04/10 10:34:03.217645324,0,0,,mA1/azimuth_1_joint,mA1/azimuth_2_joint,mA1/azimuth_3_joint,mA1/azimuth_4_joint,2.426007660272118,-2.426007660272118,-0.19198621771937624,0.17453292519943295
2025/04/10 10:34:03.316224243,0,0,,mA1/azimuth_1_joint,mA1/azimuth_2_joint,mA1/azimuth_3_joint,mA1/azimuth_4_joint,2.426007660272118,-2.426007660272118,-0.19198621771937624,0.17453292519943295
2025/04/10 10:34:03.415922048,0,0,,mA1/azimuth_1_joint,mA1/azimuth_2_joint,mA1/azimuth_3_joint,mA1/azimuth_4_joint,2.426007660272118,-2.426007660272118,-0.19198621771937624,0.17453292519943295
2025/04/10 10:34:03.516373553,0,0,,mA1/azimuth_1_joint,mA1/azimuth_2_joint,mA1/azimuth_3_joint,mA1/azimuth_4_joint,2.426007660272118,-2.426007660272118,-0.19198621771937624,0.17453292519943295
2025/04/10 10:34:03.616876437,0,0,,mA1/azimuth_1_joint,mA1/azimuth_2_joint,mA1/azimuth_3_joint,mA1/azimuth_4_joint,2.426007660272118,-2.426007660272118,-0.19198621771937624,0.17453292519943295
2025/04/10 10:34:03.716203701,0,0,,mA1/azimuth_1_joint,mA1/azimuth_2_joint,mA1/azimuth_3_joint,mA1/azimuth_4_joint,2.426007660272118,-2.426007660272118,-0.19198621771937624,0.17453292519943295
2025/04/10 10:34:03.815852864,0,0,,mA1/azimuth_1_joint,mA1/azimuth_2_joint,mA1/azimuth_3_joint,mA1/azimuth_4_joint,2.426007660272118,-2.426007660272118,-0.19198621771937624,0.17453292519943295
2025/04/10 10:34:03.915862270,0,0,,mA1/azimuth_1_joint,mA1/azimuth_2_joint,mA1/azimuth_3_joint,mA1/azimuth_4_joint,2.426007660272118,-2.426007660272118,-0.19198621771937624,0.17453292519943295
2025/04/10 10:34:04.15746380,0,0,,mA1/azimuth_1_joint,mA1/azimuth_2_joint,mA1/azimuth_3_joint,mA1/azimuth_4_joint,2.426007660272118,-2.426007660272118,-0.19198621771937624,0.19198621771937624
2025/04/10 10:34:04.117723491,0,0,,mA1/azimuth_1_joint,mA1/azimuth_2_joint,mA1/azimuth_3_joint,mA1/azimuth_4_joint,2.426007660272118,-2.426007660272118,-0.19198621771937624,0.19198621771937624
2025/04/10 10:34:04.216769246,0,0,,mA1/azimuth_1_joint,mA1/azimuth_2_joint,mA1/azimuth_3_joint,mA1/azimuth_4_joint,2.426007660272118,-2.426007660272118,-0.20943951023931956,0.19198621771937624
2025/04/10 10:34:04.318904522,0,0,,mA1/azimuth_1_joint,mA1/azimuth_2_joint,mA1/azimuth_3_joint,mA1/azimuth_4_joint,2.426007660272118,-2.426007660272118,-0.20943951023931956,0.19198621771937624
2025/04/10 10:34:04.415931745,0,0,,mA1/azimuth_1_joint,mA1/azimuth_2_joint,mA1/azimuth_3_joint,mA1/azimuth_4_joint,2.426007660272118,-2.426007660272118,-0.22689280275926285,0.20943951023931956
2025/04/10 10:34:04.516134947,0,0,,mA1/azimuth_1_joint,mA1/azimuth_2_joint,mA1/azimuth_3_joint,mA1/azimuth_4_joint,2.426007660272118,-2.426007660272118,-0.22689280275926285,0.20943951023931956
2025/04/10 10:34:04.615904671,0,0,,mA1/azimuth_1_joint,mA1/azimuth_2_joint,mA1/azimuth_3_joint,mA1/azimuth_4_joint,2.4085543677521746,-2.426007660272118,-0.22689280275926285,0.20943951023931956
2025/04/10 10:34:04.716501392,0,0,,mA1/azimuth_1_joint,mA1/azimuth_2_joint,mA1/azimuth_3_joint,mA1/azimuth_4_joint,2.4085543677521746,-2.426007660272118,-0.24434609527920614,0.20943951023931956
2025/04/10 10:34:04.816734663,0,0,,mA1/azimuth_1_joint,mA1/azimuth_2_joint,mA1/azimuth_3_joint,mA1/azimuth_4_joint,2.4085543677521746,-2.426007660272118,-0.24434609527920614,0.20943951023931956
2025/04/10 10:34:04.916386534,0,0,,mA1/azimuth_1_joint,mA1/azimuth_2_joint,mA1/azimuth_3_joint,mA1/azimuth_4_joint,2.4085543677521746,-2.426007660272118,-0.2617993877991494,0.22689280275926285
2025/04/10 10:34:05.15944491,0,0,,mA1/azimuth_1_joint,mA1/azimuth_2_joint,mA1/azimuth_3_joint,mA1/azimuth_4_joint,2.4085543677521746,-2.426007660272118,-0.2792526803190927,0.22689280275926285
2025/04/10 10:34:05.116360417,0,0,,mA1/azimuth_1_joint,mA1/azimuth_2_joint,mA1/azimuth_3_joint,mA1/azimuth_4_joint,2.4085543677521746,-2.426007660272118,-0.2792526803190927,0.22689280275926285
2025/04/10 10:34:05.217972815,0,0,,mA1/azimuth_1_joint,mA1/azimuth_2_joint,mA1/azimuth_3_joint,mA1/azimuth_4_joint,2.4085543677521746,-2.426007660272118,-0.2792526803190927,0.24434609527920614
2025/04/10 10:34:05.315925793,0,0,,mA1/azimuth_1_joint,mA1/azimuth_2_joint,mA1/azimuth_3_joint,mA1/azimuth_4_joint,2.4085543677521746,-2.4085543677521746,-0.29670597283903605,0.24434609527920614
2025/04/10 10:34:05.415871060,0,0,,mA1/azimuth_1_joint,mA1/azimuth_2_joint,mA1/azimuth_3_joint,mA1/azimuth_4_joint,2.4085543677521746,-2.4085543677521746,-0.29670597283903605,0.2617993877991494
2025/04/10 10:34:05.516286514,0,0,,mA1/azimuth_1_joint,mA1/azimuth_2_joint,mA1/azimuth_3_joint,mA1/azimuth_4_joint,2.4085543677521746,-2.4085543677521746,-0.29670597283903605,0.2617993877991494
2025/04/10 10:34:05.615776569,0,0,,mA1/azimuth_1_joint,mA1/azimuth_2_joint,mA1/azimuth_3_joint,mA1/azimuth_4_joint,2.4085543677521746,-2.4085543677521746,-0.3141592653589793,0.2617993877991494
2025/04/10 10:34:05.715841001,0,0,,mA1/azimuth_1_joint,mA1/azimuth_2_joint,mA1/azimuth_3_joint,mA1/azimuth_4_joint,2.4085543677521746,-2.4085543677521746,-0.3141592653589793,0.2792526803190927
2025/04/10 10:34:05.817737013,0,0,,mA1/azimuth_1_joint,mA1/azimuth_2_joint,mA1/azimuth_3_joint,mA1/azimuth_4_joint,2.4085543677521746,-2.4085543677521746,-0.3141592653589793,0.29670597283903605
2025/04/10 10:34:05.915874459,0,0,,mA1/azimuth_1_joint,mA1/azimuth_2_joint,mA1/azimuth_3_joint,mA1/azimuth_4_joint,2.4085543677521746,-2.4085543677521746,-0.33161255787892263,0.29670597283903605
2025/04/10 10:34:06.16071076,0,0,,mA1/azimuth_1_joint,mA1/azimuth_2_joint,mA1/azimuth_3_joint,mA1/azimuth_4_joint,2.4085543677521746,-2.4085543677521746,-0.33161255787892263,0.3141592653589793
2025/04/10 10:34:06.115880509,0,0,,mA1/azimuth_1_joint,mA1/azimuth_2_joint,mA1/azimuth_3_joint,mA1/azimuth_4_joint,2.4085543677521746,-2.4085543677521746,-0.3490658503988659,0.3141592653589793
2025/04/10 10:34:06.215927110,0,0,,mA1/azimuth_1_joint,mA1/azimuth_2_joint,mA1/azimuth_3_joint,mA1/azimuth_4_joint,2.4085543677521746,-2.4085543677521746,-0.3490658503988659,0.33161255787892263
2025/04/10 10:34:06.317173938,0,0,,mA1/azimuth_1_joint,mA1/azimuth_2_joint,mA1/azimuth_3_joint,mA1/azimuth_4_joint,2.4085543677521746,-2.4085543677521746,-0.3490658503988659,0.33161255787892263
2025/04/10 10:34:06.418074135,0,0,,mA1/azimuth_1_joint,mA1/azimuth_2_joint,mA1/azimuth_3_joint,mA1/azimuth_4_joint,2.3911010752322315,-2.4085543677521746,-0.3665191429188092,0.3490658503988659
2025/04/10 10:34:06.516261037,0,0,,mA1/azimuth_1_joint,mA1/azimuth_2_joint,mA1/azimuth_3_joint,mA1/azimuth_4_joint,2.3911010752322315,-2.4085543677521746,-0.3665191429188092,0.3490658503988659
2025/04/10 10:34:06.617950058,0,0,,mA1/azimuth_1_joint,mA1/azimuth_2_joint,mA1/azimuth_3_joint,mA1/azimuth_4_joint,2.3911010752322315,-2.4085543677521746,-0.3665191429188092,0.3665191429188092
2025/04/10 10:34:06.715850428,0,0,,mA1/azimuth_1_joint,mA1/azimuth_2_joint,mA1/azimuth_3_joint,mA1/azimuth_4_joint,2.3911010752322315,-2.4085543677521746,-0.3839724354387525,0.3665191429188092
2025/04/10 10:34:06.816457557,0,0,,mA1/azimuth_1_joint,mA1/azimuth_2_joint,mA1/azimuth_3_joint,mA1/azimuth_4_joint,2.3911010752322315,-2.4085543677521746,-0.3839724354387525,0.3839724354387525
2025/04/10 10:34:06.916099189,0,0,,mA1/azimuth_1_joint,mA1/azimuth_2_joint,mA1/azimuth_3_joint,mA1/azimuth_4_joint,2.3911010752322315,-2.3911010752322315,-0.3839724354387525,0.3839724354387525
2025/04/10 10:34:07.15904661,0,0,,mA1/azimuth_1_joint,mA1/azimuth_2_joint,mA1/azimuth_3_joint,mA1/azimuth_4_joint,2.3911010752322315,-2.3911010752322315,-0.4014257279586958,0.3839724354387525
2025/04/10 10:34:07.115930298,0,0,,mA1/azimuth_1_joint,mA1/azimuth_2_joint,mA1/azimuth_3_joint,mA1/azimuth_4_joint,2.3911010752322315,-2.3911010752322315,-0.4014257279586958,0.4014257279586958
2025/04/10 10:34:07.215765641,0,0,,mA1/azimuth_1_joint,mA1/azimuth_2_joint,mA1/azimuth_3_joint,mA1/azimuth_4_joint,2.3911010752322315,-2.3911010752322315,-0.4188790204786391,0.4014257279586958
2025/04/10 10:34:07.315771638,0,0,,mA1/azimuth_1_joint,mA1/azimuth_2_joint,mA1/azimuth_3_joint,mA1/azimuth_4_joint,2.3911010752322315,-2.3911010752322315,-0.4188790204786391,0.4188790204786391
2025/04/10 10:34:07.417185754,0,0,,mA1/azimuth_1_joint,mA1/azimuth_2_joint,mA1/azimuth_3_joint,mA1/azimuth_4_joint,2.3911010752322315,-2.3911010752322315,-0.4188790204786391,0.4188790204786391
2025/04/10 10:34:07.516695992,0,0,,mA1/azimuth_1_joint,mA1/azimuth_2_joint,mA1/azimuth_3_joint,mA1/azimuth_4_joint,2.3911010752322315,-2.3911010752322315,-0.4363323129985824,0.4188790204786391
2025/04/10 10:34:07.615852858,0,0,,mA1/azimuth_1_joint,mA1/azimuth_2_joint,mA1/azimuth_3_joint,mA1/azimuth_4_joint,2.3911010752322315,-2.3911010752322315,-0.4363323129985824,0.4363323129985824
2025/04/10 10:34:07.716053369,0,0,,mA1/azimuth_1_joint,mA1/azimuth_2_joint,mA1/azimuth_3_joint,mA1/azimuth_4_joint,2.3911010752322315,-2.3911010752322315,-0.4363323129985824,0.4363323129985824
2025/04/10 10:34:07.816269653,0,0,,mA1/azimuth_1_joint,mA1/azimuth_2_joint,mA1/azimuth_3_joint,mA1/azimuth_4_joint,2.3911010752322315,-2.3911010752322315,-0.4537856055185257,0.4363323129985824
2025/04/10 10:34:07.916572816,0,0,,mA1/azimuth_1_joint,mA1/azimuth_2_joint,mA1/azimuth_3_joint,mA1/azimuth_4_joint,2.3911010752322315,-2.3911010752322315,-0.4537856055185257,0.4537856055185257
2025/04/10 10:34:08.15890940,0,0,,mA1/azimuth_1_joint,mA1/azimuth_2_joint,mA1/azimuth_3_joint,mA1/azimuth_4_joint,2.3911010752322315,-2.3911010752322315,-0.4537856055185257,0.4537856055185257
2025/04/10 10:34:08.115989447,0,0,,mA1/azimuth_1_joint,mA1/azimuth_2_joint,mA1/azimuth_3_joint,mA1/azimuth_4_joint,2.3911010752322315,-2.3911010752322315,-0.47123889803846897,0.4537856055185257
2025/04/10 10:34:08.216469400,0,0,,mA1/azimuth_1_joint,mA1/azimuth_2_joint,mA1/azimuth_3_joint,mA1/azimuth_4_joint,2.3911010752322315,-2.3911010752322315,-0.47123889803846897,0.47123889803846897
2025/04/10 10:34:08.315924127,0,0,,mA1/azimuth_1_joint,mA1/azimuth_2_joint,mA1/azimuth_3_joint,mA1/azimuth_4_joint,2.3736477827122884,-2.3911010752322315,-0.47123889803846897,0.47123889803846897
2025/04/10 10:34:08.415819053,0,0,,mA1/azimuth_1_joint,mA1/azimuth_2_joint,mA1/azimuth_3_joint,mA1/azimuth_4_joint,2.3736477827122884,-2.3911010752322315,-0.4886921905584123,0.4886921905584123
2025/04/10 10:34:08.515823431,0,0,,mA1/azimuth_1_joint,mA1/azimuth_2_joint,mA1/azimuth_3_joint,mA1/azimuth_4_joint,2.3736477827122884,-2.3911010752322315,-0.4886921905584123,0.4886921905584123
2025/04/10 10:34:08.616232058,0,0,,mA1/azimuth_1_joint,mA1/azimuth_2_joint,mA1/azimuth_3_joint,mA1/azimuth_4_joint,2.3736477827122884,-2.3911010752322315,-0.4886921905584123,0.4886921905584123
2025/04/10 10:34:08.717548580,0,0,,mA1/azimuth_1_joint,mA1/azimuth_2_joint,mA1/azimuth_3_joint,mA1/azimuth_4_joint,2.3736477827122884,-2.3911010752322315,-0.4886921905584123,0.5061454830783556
2025/04/10 10:34:08.815967751,0,0,,mA1/azimuth_1_joint,mA1/azimuth_2_joint,mA1/azimuth_3_joint,mA1/azimuth_4_joint,2.3736477827122884,-2.3911010752322315,-0.5061454830783556,0.5061454830783556
2025/04/10 10:34:08.915905918,0,0,,mA1/azimuth_1_joint,mA1/azimuth_2_joint,mA1/azimuth_3_joint,mA1/azimuth_4_joint,2.3736477827122884,-2.3736477827122884,-0.5061454830783556,0.5061454830783556
2025/04/10 10:34:09.15931256,0,0,,mA1/azimuth_1_joint,mA1/azimuth_2_joint,mA1/azimuth_3_joint,mA1/azimuth_4_joint,2.3736477827122884,-2.3736477827122884,-0.5061454830783556,0.5061454830783556
2025/04/10 10:34:09.115794836,0,0,,mA1/azimuth_1_joint,mA1/azimuth_2_joint,mA1/azimuth_3_joint,mA1/azimuth_4_joint,2.3736477827122884,-2.3736477827122884,-0.5061454830783556,0.5235987755982988
2025/04/10 10:34:09.215834006,0,0,,mA1/azimuth_1_joint,mA1/azimuth_2_joint,mA1/azimuth_3_joint,mA1/azimuth_4_joint,2.3736477827122884,-2.3736477827122884,-0.5235987755982988,0.5235987755982988
2025/04/10 10:34:09.315879245,0,0,,mA1/azimuth_1_joint,mA1/azimuth_2_joint,mA1/azimuth_3_joint,mA1/azimuth_4_joint,2.3736477827122884,-2.3736477827122884,-0.5235987755982988,0.5235987755982988
2025/04/10 10:34:09.416393704,0,0,,mA1/azimuth_1_joint,mA1/azimuth_2_joint,mA1/azimuth_3_joint,mA1/azimuth_4_joint,2.3736477827122884,-2.3736477827122884,-0.5235987755982988,0.5235987755982988
2025/04/10 10:34:09.515860235,0,0,,mA1/azimuth_1_joint,mA1/azimuth_2_joint,mA1/azimuth_3_joint,mA1/azimuth_4_joint,2.3736477827122884,-2.3736477827122884,-0.5235987755982988,0.5235987755982988
2025/04/10 10:34:09.616874293,0,0,,mA1/azimuth_1_joint,mA1/azimuth_2_joint,mA1/azimuth_3_joint,mA1/azimuth_4_joint,2.3736477827122884,-2.3736477827122884,-0.5410520681182421,0.5410520681182421
2025/04/10 10:34:09.716396197,0,0,,mA1/azimuth_1_joint,mA1/azimuth_2_joint,mA1/azimuth_3_joint,mA1/azimuth_4_joint,2.3736477827122884,-2.3736477827122884,-0.5410520681182421,0.5410520681182421
2025/04/10 10:34:09.816493584,0,0,,mA1/azimuth_1_joint,mA1/azimuth_2_joint,mA1/azimuth_3_joint,mA1/azimuth_4_joint,2.3736477827122884,-2.3736477827122884,-0.5410520681182421,0.5410520681182421
2025/04/10 10:34:09.916270117,0,0,,mA1/azimuth_1_joint,mA1/azimuth_2_joint,mA1/azimuth_3_joint,mA1/azimuth_4_joint,2.3736477827122884,-2.3736477827122884,-0.5410520681182421,0.5410520681182421
2025/04/10 10:34:10.16614922,0,0,,mA1/azimuth_1_joint,mA1/azimuth_2_joint,mA1/azimuth_3_joint,mA1/azimuth_4_joint,2.3736477827122884,-2.3736477827122884,-0.5410520681182421,0.5410520681182421
2025/04/10 10:34:10.115836314,0,0,,mA1/azimuth_1_joint,mA1/azimuth_2_joint,mA1/azimuth_3_joint,mA1/azimuth_4_joint,2.3736477827122884,-2.3736477827122884,-0.5585053606381855,0.5410520681182421
2025/04/10 10:34:10.215766385,0,0,,mA1/azimuth_1_joint,mA1/azimuth_2_joint,mA1/azimuth_3_joint,mA1/azimuth_4_joint,2.3736477827122884,-2.3736477827122884,-0.5585053606381855,0.5410520681182421
2025/04/10 10:34:10.315765632,0,0,,mA1/azimuth_1_joint,mA1/azimuth_2_joint,mA1/azimuth_3_joint,mA1/azimuth_4_joint,2.3736477827122884,-2.3736477827122884,-0.5585053606381855,0.5585053606381855
2025/04/10 10:34:10.416154689,0,0,,mA1/azimuth_1_joint,mA1/azimuth_2_joint,mA1/azimuth_3_joint,mA1/azimuth_4_joint,2.3736477827122884,-2.3736477827122884,-0.5585053606381855,0.5585053606381855
2025/04/10 10:34:10.517925748,0,0,,mA1/azimuth_1_joint,mA1/azimuth_2_joint,mA1/azimuth_3_joint,mA1/azimuth_4_joint,2.3736477827122884,-2.3736477827122884,-0.5585053606381855,0.5585053606381855
2025/04/10 10:34:10.618711687,0,0,,mA1/azimuth_1_joint,mA1/azimuth_2_joint,mA1/azimuth_3_joint,mA1/azimuth_4_joint,2.3736477827122884,-2.3736477827122884,-0.5585053606381855,0.5585053606381855
2025/04/10 10:34:10.716723949,0,0,,mA1/azimuth_1_joint,mA1/azimuth_2_joint,mA1/azimuth_3_joint,mA1/azimuth_4_joint,2.3736477827122884,-2.3736477827122884,-0.5759586531581288,0.5585053606381855
2025/04/10 10:34:10.816470381,0,0,,mA1/azimuth_1_joint,mA1/azimuth_2_joint,mA1/azimuth_3_joint,mA1/azimuth_4_joint,2.3736477827122884,-2.3736477827122884,-0.5759586531581288,0.5585053606381855
2025/04/10 10:34:10.916160627,0,0,,mA1/azimuth_1_joint,mA1/azimuth_2_joint,mA1/azimuth_3_joint,mA1/azimuth_4_joint,2.3736477827122884,-2.3736477827122884,-0.5759586531581288,0.5585053606381855
2025/04/10 10:34:11.15744215,0,0,,mA1/azimuth_1_joint,mA1/azimuth_2_joint,mA1/azimuth_3_joint,mA1/azimuth_4_joint,2.3736477827122884,-2.3736477827122884,-0.5759586531581288,0.5585053606381855
2025/04/10 10:34:11.116083804,0,0,,mA1/azimuth_1_joint,mA1/azimuth_2_joint,mA1/azimuth_3_joint,mA1/azimuth_4_joint,2.3736477827122884,-2.3736477827122884,-0.5759586531581288,0.5585053606381855
2025/04/10 10:34:11.216320738,0,0,,mA1/azimuth_1_joint,mA1/azimuth_2_joint,mA1/azimuth_3_joint,mA1/azimuth_4_joint,2.3736477827122884,-2.3736477827122884,-0.5759586531581288,0.5585053606381855
2025/04/10 10:34:11.316592001,0,0,,mA1/azimuth_1_joint,mA1/azimuth_2_joint,mA1/azimuth_3_joint,mA1/azimuth_4_joint,2.3736477827122884,-2.3736477827122884,-0.5759586531581288,0.5585053606381855
2025/04/10 10:34:11.415896492,0,0,,mA1/azimuth_1_joint,mA1/azimuth_2_joint,mA1/azimuth_3_joint,mA1/azimuth_4_joint,2.3736477827122884,-2.3736477827122884,-0.5759586531581288,0.5585053606381855
2025/04/10 10:34:11.516720408,0,0,,mA1/azimuth_1_joint,mA1/azimuth_2_joint,mA1/azimuth_3_joint,mA1/azimuth_4_joint,2.3736477827122884,-2.3736477827122884,-0.5759586531581288,0.5585053606381855
2025/04/10 10:34:11.619339377,0,0,,mA1/azimuth_1_joint,mA1/azimuth_2_joint,mA1/azimuth_3_joint,mA1/azimuth_4_joint,2.3736477827122884,-2.3736477827122884,-0.5759586531581288,0.5585053606381855
2025/04/10 10:34:11.716982291,0,0,,mA1/azimuth_1_joint,mA1/azimuth_2_joint,mA1/azimuth_3_joint,mA1/azimuth_4_joint,2.3736477827122884,-2.3736477827122884,-0.5759586531581288,0.5585053606381855
2025/04/10 10:34:11.816315996,0,0,,mA1/azimuth_1_joint,mA1/azimuth_2_joint,mA1/azimuth_3_joint,mA1/azimuth_4_joint,2.3736477827122884,-2.3736477827122884,-0.5759586531581288,0.5585053606381855
2025/04/10 10:34:11.915856042,0,0,,mA1/azimuth_1_joint,mA1/azimuth_2_joint,mA1/azimuth_3_joint,mA1/azimuth_4_joint,2.3736477827122884,-2.3736477827122884,-0.5759586531581288,0.5585053606381855
2025/04/10 10:34:12.16413360,0,0,,mA1/azimuth_1_joint,mA1/azimuth_2_joint,mA1/azimuth_3_joint,mA1/azimuth_4_joint,2.3736477827122884,-2.3736477827122884,-0.5759586531581288,0.5585053606381855
2025/04/10 10:34:12.115828623,0,0,,mA1/azimuth_1_joint,mA1/azimuth_2_joint,mA1/azimuth_3_joint,mA1/azimuth_4_joint,2.3736477827122884,-2.3736477827122884,-0.5759586531581288,0.5585053606381855
2025/04/10 10:34:12.216454674,0,0,,mA1/azimuth_1_joint,mA1/azimuth_2_joint,mA1/azimuth_3_joint,mA1/azimuth_4_joint,2.3736477827122884,-2.3736477827122884,-0.5934119456780721,0.5585053606381855
2025/04/10 10:34:12.315880778,0,0,,mA1/azimuth_1_joint,mA1/azimuth_2_joint,mA1/azimuth_3_joint,mA1/azimuth_4_joint,2.3736477827122884,-2.3736477827122884,-0.5934119456780721,0.5410520681182421
2025/04/10 10:34:12.415836174,0,0,,mA1/azimuth_1_joint,mA1/azimuth_2_joint,mA1/azimuth_3_joint,mA1/azimuth_4_joint,2.3736477827122884,-2.3736477827122884,-0.5934119456780721,0.5410520681182421
2025/04/10 10:34:12.515723622,0,0,,mA1/azimuth_1_joint,mA1/azimuth_2_joint,mA1/azimuth_3_joint,mA1/azimuth_4_joint,2.3736477827122884,-2.3736477827122884,-0.5934119456780721,0.5410520681182421
2025/04/10 10:34:12.615865209,0,0,,mA1/azimuth_1_joint,mA1/azimuth_2_joint,mA1/azimuth_3_joint,mA1/azimuth_4_joint,2.3736477827122884,-2.3736477827122884,-0.5759586531581288,0.5410520681182421
2025/04/10 10:34:12.715912500,0,0,,mA1/azimuth_1_joint,mA1/azimuth_2_joint,mA1/azimuth_3_joint,mA1/azimuth_4_joint,2.3736477827122884,-2.3736477827122884,-0.5759586531581288,0.5410520681182421
2025/04/10 10:34:12.816424755,0,0,,mA1/azimuth_1_joint,mA1/azimuth_2_joint,mA1/azimuth_3_joint,mA1/azimuth_4_joint,2.3736477827122884,-2.3736477827122884,-0.5759586531581288,0.5410520681182421
2025/04/10 10:34:12.915866097,0,0,,mA1/azimuth_1_joint,mA1/azimuth_2_joint,mA1/azimuth_3_joint,mA1/azimuth_4_joint,2.3736477827122884,-2.3736477827122884,-0.5759586531581288,0.5410520681182421
2025/04/10 10:34:13.15962790,0,0,,mA1/azimuth_1_joint,mA1/azimuth_2_joint,mA1/azimuth_3_joint,mA1/azimuth_4_joint,2.3736477827122884,-2.3736477827122884,-0.5759586531581288,0.5235987755982988
2025/04/10 10:34:13.116702446,0,0,,mA1/azimuth_1_joint,mA1/azimuth_2_joint,mA1/azimuth_3_joint,mA1/azimuth_4_joint,2.3736477827122884,-2.3736477827122884,-0.5759586531581288,0.5235987755982988
2025/04/10 10:34:13.215804006,0,0,,mA1/azimuth_1_joint,mA1/azimuth_2_joint,mA1/azimuth_3_joint,mA1/azimuth_4_joint,2.3736477827122884,-2.3736477827122884,-0.5759586531581288,0.5235987755982988
2025/04/10 10:34:13.316299830,0,0,,mA1/azimuth_1_joint,mA1/azimuth_2_joint,mA1/azimuth_3_joint,mA1/azimuth_4_joint,2.3736477827122884,-2.356194490192345,-0.5759586531581288,0.5235987755982988
2025/04/10 10:34:13.415874905,0,0,,mA1/azimuth_1_joint,mA1/azimuth_2_joint,mA1/azimuth_3_joint,mA1/azimuth_4_joint,2.3736477827122884,-2.356194490192345,-0.5759586531581288,0.5235987755982988
2025/04/10 10:34:13.515883992,0,0,,mA1/azimuth_1_joint,mA1/azimuth_2_joint,mA1/azimuth_3_joint,mA1/azimuth_4_joint,2.3736477827122884,-2.356194490192345,-0.5759586531581288,0.5235987755982988
2025/04/10 10:34:13.615973681,0,0,,mA1/azimuth_1_joint,mA1/azimuth_2_joint,mA1/azimuth_3_joint,mA1/azimuth_4_joint,2.3736477827122884,-2.356194490192345,-0.5759586531581288,0.5061454830783556
2025/04/10 10:34:13.715927562,0,0,,mA1/azimuth_1_joint,mA1/azimuth_2_joint,mA1/azimuth_3_joint,mA1/azimuth_4_joint,2.3736477827122884,-2.356194490192345,-0.5759586531581288,0.5061454830783556
2025/04/10 10:34:13.815899301,0,0,,mA1/azimuth_1_joint,mA1/azimuth_2_joint,mA1/azimuth_3_joint,mA1/azimuth_4_joint,2.3736477827122884,-2.356194490192345,-0.5759586531581288,0.5061454830783556
2025/04/10 10:34:13.916026080,0,0,,mA1/azimuth_1_joint,mA1/azimuth_2_joint,mA1/azimuth_3_joint,mA1/azimuth_4_joint,2.3736477827122884,-2.356194490192345,-0.5759586531581288,0.5061454830783556
2025/04/10 10:34:14.16078608,0,0,,mA1/azimuth_1_joint,mA1/azimuth_2_joint,mA1/azimuth_3_joint,mA1/azimuth_4_joint,2.3736477827122884,-2.356194490192345,-0.5585053606381855,0.4886921905584123
2025/04/10 10:34:14.116241386,0,0,,mA1/azimuth_1_joint,mA1/azimuth_2_joint,mA1/azimuth_3_joint,mA1/azimuth_4_joint,2.3736477827122884,-2.356194490192345,-0.5585053606381855,0.4886921905584123
2025/04/10 10:34:14.216019329,0,0,,mA1/azimuth_1_joint,mA1/azimuth_2_joint,mA1/azimuth_3_joint,mA1/azimuth_4_joint,2.3736477827122884,-2.356194490192345,-0.5585053606381855,0.4886921905584123
2025/04/10 10:34:14.316068176,0,0,,mA1/azimuth_1_joint,mA1/azimuth_2_joint,mA1/azimuth_3_joint,mA1/azimuth_4_joint,2.3736477827122884,-2.356194490192345,-0.5585053606381855,0.4886921905584123
2025/04/10 10:34:14.415776831,0,0,,mA1/azimuth_1_joint,mA1/azimuth_2_joint,mA1/azimuth_3_joint,mA1/azimuth_4_joint,2.3736477827122884,-2.356194490192345,-0.5585053606381855,0.47123889803846897
2025/04/10 10:34:14.516574112,0,0,,mA1/azimuth_1_joint,mA1/azimuth_2_joint,mA1/azimuth_3_joint,mA1/azimuth_4_joint,2.3736477827122884,-2.356194490192345,-0.5585053606381855,0.47123889803846897
2025/04/10 10:34:14.617070571,0,0,,mA1/azimuth_1_joint,mA1/azimuth_2_joint,mA1/azimuth_3_joint,mA1/azimuth_4_joint,2.3736477827122884,-2.356194490192345,-0.5585053606381855,0.47123889803846897
2025/04/10 10:34:14.716587838,0,0,,mA1/azimuth_1_joint,mA1/azimuth_2_joint,mA1/azimuth_3_joint,mA1/azimuth_4_joint,2.3736477827122884,-2.356194490192345,-0.5410520681182421,0.47123889803846897
2025/04/10 10:34:14.815895516,0,0,,mA1/azimuth_1_joint,mA1/azimuth_2_joint,mA1/azimuth_3_joint,mA1/azimuth_4_joint,2.3736477827122884,-2.356194490192345,-0.5410520681182421,0.47123889803846897
2025/04/10 10:34:14.915750968,0,0,,mA1/azimuth_1_joint,mA1/azimuth_2_joint,mA1/azimuth_3_joint,mA1/azimuth_4_joint,2.3736477827122884,-2.356194490192345,-0.5410520681182421,0.4537856055185257
2025/04/10 10:34:15.15908913,0,0,,mA1/azimuth_1_joint,mA1/azimuth_2_joint,mA1/azimuth_3_joint,mA1/azimuth_4_joint,2.3736477827122884,-2.356194490192345,-0.5410520681182421,0.4537856055185257
2025/04/10 10:34:15.115970379,0,0,,mA1/azimuth_1_joint,mA1/azimuth_2_joint,mA1/azimuth_3_joint,mA1/azimuth_4_joint,2.3736477827122884,-2.356194490192345,-0.5410520681182421,0.4537856055185257
2025/04/10 10:34:15.215931019,0,0,,mA1/azimuth_1_joint,mA1/azimuth_2_joint,mA1/azimuth_3_joint,mA1/azimuth_4_joint,2.3736477827122884,-2.356194490192345,-0.5410520681182421,0.4537856055185257
2025/04/10 10:34:15.315805091,0,0,,mA1/azimuth_1_joint,mA1/azimuth_2_joint,mA1/azimuth_3_joint,mA1/azimuth_4_joint,2.3736477827122884,-2.356194490192345,-0.5235987755982988,0.4537856055185257
2025/04/10 10:34:15.416482518,0,0,,mA1/azimuth_1_joint,mA1/azimuth_2_joint,mA1/azimuth_3_joint,mA1/azimuth_4_joint,2.3736477827122884,-2.356194490192345,-0.5235987755982988,0.4537856055185257
2025/04/10 10:34:15.516416374,0,0,,mA1/azimuth_1_joint,mA1/azimuth_2_joint,mA1/azimuth_3_joint,mA1/azimuth_4_joint,2.3736477827122884,-2.356194490192345,-0.5235987755982988,0.4537856055185257
2025/04/10 10:34:15.616021406,0,0,,mA1/azimuth_1_joint,mA1/azimuth_2_joint,mA1/azimuth_3_joint,mA1/azimuth_4_joint,2.3736477827122884,-2.356194490192345,-0.5235987755982988,0.4537856055185257
2025/04/10 10:34:15.716266728,0,0,,mA1/azimuth_1_joint,mA1/azimuth_2_joint,mA1/azimuth_3_joint,mA1/azimuth_4_joint,2.3736477827122884,-2.356194490192345,-0.5061454830783556,0.4363323129985824
2025/04/10 10:34:15.817319890,0,0,,mA1/azimuth_1_joint,mA1/azimuth_2_joint,mA1/azimuth_3_joint,mA1/azimuth_4_joint,2.3736477827122884,-2.356194490192345,-0.5061454830783556,0.4363323129985824
2025/04/10 10:34:15.916069638,0,0,,mA1/azimuth_1_joint,mA1/azimuth_2_joint,mA1/azimuth_3_joint,mA1/azimuth_4_joint,2.3736477827122884,-2.3736477827122884,-0.5061454830783556,0.4363323129985824
2025/04/10 10:34:16.16738140,0,0,,mA1/azimuth_1_joint,mA1/azimuth_2_joint,mA1/azimuth_3_joint,mA1/azimuth_4_joint,2.3736477827122884,-2.3736477827122884,-0.5061454830783556,0.4363323129985824
2025/04/10 10:34:16.115845755,0,0,,mA1/azimuth_1_joint,mA1/azimuth_2_joint,mA1/azimuth_3_joint,mA1/azimuth_4_joint,2.3736477827122884,-2.3736477827122884,-0.5061454830783556,0.4363323129985824
2025/04/10 10:34:16.216306692,0,0,,mA1/azimuth_1_joint,mA1/azimuth_2_joint,mA1/azimuth_3_joint,mA1/azimuth_4_joint,2.3736477827122884,-2.3736477827122884,-0.5061454830783556,0.4363323129985824
2025/04/10 10:34:16.315890910,0,0,,mA1/azimuth_1_joint,mA1/azimuth_2_joint,mA1/azimuth_3_joint,mA1/azimuth_4_joint,2.3736477827122884,-2.3736477827122884,-0.4886921905584123,0.4188790204786391
2025/04/10 10:34:16.416313991,0,0,,mA1/azimuth_1_joint,mA1/azimuth_2_joint,mA1/azimuth_3_joint,mA1/azimuth_4_joint,2.3736477827122884,-2.3736477827122884,-0.5061454830783556,0.4188790204786391
2025/04/10 10:34:16.518699371,0,0,,mA1/azimuth_1_joint,mA1/azimuth_2_joint,mA1/azimuth_3_joint,mA1/azimuth_4_joint,2.3736477827122884,-2.356194490192345,-0.5061454830783556,0.4188790204786391
2025/04/10 10:34:16.615873502,0,0,,mA1/azimuth_1_joint,mA1/azimuth_2_joint,mA1/azimuth_3_joint,mA1/azimuth_4_joint,2.3736477827122884,-2.356194490192345,-0.5061454830783556,0.4014257279586958
2025/04/10 10:34:16.716319975,0,0,,mA1/azimuth_1_joint,mA1/azimuth_2_joint,mA1/azimuth_3_joint,mA1/azimuth_4_joint,2.3736477827122884,-2.356194490192345,-0.5061454830783556,0.4014257279586958
2025/04/10 10:34:16.815991102,0,0,,mA1/azimuth_1_joint,mA1/azimuth_2_joint,mA1/azimuth_3_joint,mA1/azimuth_4_joint,2.3736477827122884,-2.356194490192345,-0.5061454830783556,0.3839724354387525
2025/04/10 10:34:16.916016607,0,0,,mA1/azimuth_1_joint,mA1/azimuth_2_joint,mA1/azimuth_3_joint,mA1/azimuth_4_joint,2.3736477827122884,-2.356194490192345,-0.5061454830783556,0.3839724354387525
2025/04/10 10:34:17.16356781,0,0,,mA1/azimuth_1_joint,mA1/azimuth_2_joint,mA1/azimuth_3_joint,mA1/azimuth_4_joint,2.3736477827122884,-2.356194490192345,-0.5061454830783556,0.3839724354387525
2025/04/10 10:34:17.115993736,0,0,,mA1/azimuth_1_joint,mA1/azimuth_2_joint,mA1/azimuth_3_joint,mA1/azimuth_4_joint,2.3736477827122884,-2.356194490192345,-0.5061454830783556,0.3665191429188092
2025/04/10 10:34:17.215915325,0,0,,mA1/azimuth_1_joint,mA1/azimuth_2_joint,mA1/azimuth_3_joint,mA1/azimuth_4_joint,2.3736477827122884,-2.356194490192345,-0.4886921905584123,0.3665191429188092
2025/04/10 10:34:17.316207820,0,0,,mA1/azimuth_1_joint,mA1/azimuth_2_joint,mA1/azimuth_3_joint,mA1/azimuth_4_joint,2.3736477827122884,-2.356194490192345,-0.4886921905584123,0.3665191429188092
2025/04/10 10:34:17.415898134,0,0,,mA1/azimuth_1_joint,mA1/azimuth_2_joint,mA1/azimuth_3_joint,mA1/azimuth_4_joint,2.3736477827122884,-2.356194490192345,-0.4886921905584123,0.3665191429188092
2025/04/10 10:34:17.516305726,0,0,,mA1/azimuth_1_joint,mA1/azimuth_2_joint,mA1/azimuth_3_joint,mA1/azimuth_4_joint,2.3736477827122884,-2.356194490192345,-0.4886921905584123,0.3665191429188092
2025/04/10 10:34:17.616070272,0,0,,mA1/azimuth_1_joint,mA1/azimuth_2_joint,mA1/azimuth_3_joint,mA1/azimuth_4_joint,2.3736477827122884,-2.356194490192345,-0.47123889803846897,0.3665191429188092
2025/04/10 10:34:17.716331982,0,0,,mA1/azimuth_1_joint,mA1/azimuth_2_joint,mA1/azimuth_3_joint,mA1/azimuth_4_joint,2.3736477827122884,-2.356194490192345,-0.47123889803846897,0.3665191429188092
2025/04/10 10:34:17.816017152,0,0,,mA1/azimuth_1_joint,mA1/azimuth_2_joint,mA1/azimuth_3_joint,mA1/azimuth_4_joint,2.3736477827122884,-2.356194490192345,-0.47123889803846897,0.3665191429188092
2025/04/10 10:34:17.917039007,0,0,,mA1/azimuth_1_joint,mA1/azimuth_2_joint,mA1/azimuth_3_joint,mA1/azimuth_4_joint,2.3736477827122884,-2.3736477827122884,-0.47123889803846897,0.3665191429188092
2025/04/10 10:34:18.15788754,0,0,,mA1/azimuth_1_joint,mA1/azimuth_2_joint,mA1/azimuth_3_joint,mA1/azimuth_4_joint,2.3736477827122884,-2.3736477827122884,-0.4537856055185257,0.3665191429188092
2025/04/10 10:34:18.116515774,0,0,,mA1/azimuth_1_joint,mA1/azimuth_2_joint,mA1/azimuth_3_joint,mA1/azimuth_4_joint,2.3736477827122884,-2.3736477827122884,-0.4537856055185257,0.3665191429188092
2025/04/10 10:34:18.216546439,0,0,,mA1/azimuth_1_joint,mA1/azimuth_2_joint,mA1/azimuth_3_joint,mA1/azimuth_4_joint,2.3736477827122884,-2.3736477827122884,-0.4537856055185257,0.3665191429188092
2025/04/10 10:34:18.316021700,0,0,,mA1/azimuth_1_joint,mA1/azimuth_2_joint,mA1/azimuth_3_joint,mA1/azimuth_4_joint,2.3736477827122884,-2.3736477827122884,-0.4537856055185257,0.3665191429188092
2025/04/10 10:34:18.415985010,0,0,,mA1/azimuth_1_joint,mA1/azimuth_2_joint,mA1/azimuth_3_joint,mA1/azimuth_4_joint,2.3736477827122884,-2.3736477827122884,-0.4537856055185257,0.3665191429188092
2025/04/10 10:34:18.517423192,0,0,,mA1/azimuth_1_joint,mA1/azimuth_2_joint,mA1/azimuth_3_joint,mA1/azimuth_4_joint,2.3736477827122884,-2.3736477827122884,-0.4537856055185257,0.3665191429188092
2025/04/10 10:34:18.616452672,0,0,,mA1/azimuth_1_joint,mA1/azimuth_2_joint,mA1/azimuth_3_joint,mA1/azimuth_4_joint,2.3736477827122884,-2.3736477827122884,-0.4537856055185257,0.3490658503988659
2025/04/10 10:34:18.715856733,0,0,,mA1/azimuth_1_joint,mA1/azimuth_2_joint,mA1/azimuth_3_joint,mA1/azimuth_4_joint,2.3736477827122884,-2.3736477827122884,-0.4537856055185257,0.3490658503988659
