time,header_stamp_secs,header_stamp_nsecs,header_frame_id,status_status,status_service,latitude,longitude,altitude,position_covariance_0,position_covariance_1,position_covariance_2,position_covariance_3,position_covariance_4,position_covariance_5,position_covariance_6,position_covariance_7,position_covariance_8,position_covariance_type
2025/04/09 09:49:47.703659275,1744184987,703444352,mA1/gps,0,1,63.43459676237856,10.393091443386673,0.0,1.4400000000000002e-10,0.0,0.0,0.0,1.4400000000000002e-10,0.0,0.0,0.0,1.0,2
2025/04/09 09:49:47.753479060,1744184987,753262745,mA1/gps,0,1,63.43459676253427,10.393091443290123,0.0,1.4400000000000002e-10,0.0,0.0,0.0,1.4400000000000002e-10,0.0,0.0,0.0,1.0,2
2025/04/09 09:49:47.800399217,1744184987,799830507,mA1/gps,0,1,63.43459676240746,10.393091443407183,0.0,1.4400000000000002e-10,0.0,0.0,0.0,1.4400000000000002e-10,0.0,0.0,0.0,1.0,2
2025/04/09 09:49:47.849935911,1744184987,849654201,mA1/gps,0,1,63.43459676260832,10.393091443280897,0.0,1.4400000000000002e-10,0.0,0.0,0.0,1.4400000000000002e-10,0.0,0.0,0.0,1.0,2
2025/04/09 09:49:47.903334859,1744184987,902829017,mA1/gps,0,1,63.43459676268286,10.39309144345188,0.0,1.4400000000000002e-10,0.0,0.0,0.0,1.4400000000000002e-10,0.0,0.0,0.0,1.0,2
2025/04/09 09:49:47.952988018,1744184987,952737856,mA1/gps,0,1,63.43459676254654,10.39309144307034,0.0,1.4400000000000002e-10,0.0,0.0,0.0,1.4400000000000002e-10,0.0,0.0,0.0,1.0,2
2025/04/09 09:49:48.4174085,1744184988,3626681,mA1/gps,0,1,63.434596762855634,10.393091443319276,0.0,1.4400000000000002e-10,0.0,0.0,0.0,1.4400000000000002e-10,0.0,0.0,0.0,1.0,2
2025/04/09 09:49:48.54294141,1744184988,53770988,mA1/gps,0,1,63.43459676295498,10.393091443435301,0.0,1.4400000000000002e-10,0.0,0.0,0.0,1.4400000000000002e-10,0.0,0.0,0.0,1.0,2
2025/04/09 09:49:48.104763866,1744184988,104455656,mA1/gps,0,1,63.43459676304409,10.393091443130414,0.0,1.4400000000000002e-10,0.0,0.0,0.0,1.4400000000000002e-10,0.0,0.0,0.0,1.0,2
2025/04/09 09:49:48.156308946,1744184988,154288826,mA1/gps,0,1,63.434596763241835,10.393091443487826,0.0,1.4400000000000002e-10,0.0,0.0,0.0,1.4400000000000002e-10,0.0,0.0,0.0,1.0,2
2025/04/09 09:49:48.206879973,1744184988,206121195,mA1/gps,0,1,63.43459676365689,10.393091442998886,0.0,1.4400000000000002e-10,0.0,0.0,0.0,1.4400000000000002e-10,0.0,0.0,0.0,1.0,2
2025/04/09 09:49:48.256020800,1744184988,255832795,mA1/gps,0,1,63.434596763493545,10.393091442925867,0.0,1.4400000000000002e-10,0.0,0.0,0.0,1.4400000000000002e-10,0.0,0.0,0.0,1.0,2
2025/04/09 09:49:48.297804681,1744184988,297359366,mA1/gps,0,1,63.43459676381435,10.393091444274685,0.0,1.4400000000000002e-10,0.0,0.0,0.0,1.4400000000000002e-10,0.0,0.0,0.0,1.0,2
2025/04/09 09:49:48.348445016,1744184988,348270557,mA1/gps,0,1,63.43459676382041,10.393091443237,0.0,1.4400000000000002e-10,0.0,0.0,0.0,1.4400000000000002e-10,0.0,0.0,0.0,1.0,2
2025/04/09 09:49:48.399922779,1744184988,399309899,mA1/gps,0,1,63.43459676430398,10.39309144295739,0.0,1.4400000000000002e-10,0.0,0.0,0.0,1.4400000000000002e-10,0.0,0.0,0.0,1.0,2
2025/04/09 09:49:48.449320324,1744184988,449102514,mA1/gps,0,1,63.4345967642663,10.39309144317959,0.0,1.4400000000000002e-10,0.0,0.0,0.0,1.4400000000000002e-10,0.0,0.0,0.0,1.0,2
2025/04/09 09:49:48.505803157,1744184988,504217275,mA1/gps,0,1,63.43459676461563,10.393091443417553,0.0,1.4400000000000002e-10,0.0,0.0,0.0,1.4400000000000002e-10,0.0,0.0,0.0,1.0,2
2025/04/09 09:49:48.557540565,1744184988,556995202,mA1/gps,0,1,63.43459676469766,10.393091443498104,0.0,1.4400000000000002e-10,0.0,0.0,0.0,1.4400000000000002e-10,0.0,0.0,0.0,1.0,2
2025/04/09 09:49:48.598501513,1744184988,596691116,mA1/gps,0,1,63.434596764823915,10.393091443081538,0.0,1.4400000000000002e-10,0.0,0.0,0.0,1.4400000000000002e-10,0.0,0.0,0.0,1.0,2
2025/04/09 09:49:48.647162328,1744184988,646639534,mA1/gps,0,1,63.43459676462153,10.393091443451627,0.0,1.4400000000000002e-10,0.0,0.0,0.0,1.4400000000000002e-10,0.0,0.0,0.0,1.0,2
2025/04/09 09:49:48.702112919,1744184988,701604466,mA1/gps,0,1,63.434596764994474,10.39309144338996,0.0,1.4400000000000002e-10,0.0,0.0,0.0,1.4400000000000002e-10,0.0,0.0,0.0,1.0,2
2025/04/09 09:49:48.751767751,1744184988,751336732,mA1/gps,0,1,63.43459676490862,10.393091443608034,0.0,1.4400000000000002e-10,0.0,0.0,0.0,1.4400000000000002e-10,0.0,0.0,0.0,1.0,2
2025/04/09 09:49:48.806621807,1744184988,803370543,mA1/gps,0,1,63.43459676519981,10.393091443034006,0.0,1.4400000000000002e-10,0.0,0.0,0.0,1.4400000000000002e-10,0.0,0.0,0.0,1.0,2
2025/04/09 09:49:48.853147737,1744184988,852921414,mA1/gps,0,1,63.43459676507894,10.393091443011699,0.0,1.4400000000000002e-10,0.0,0.0,0.0,1.4400000000000002e-10,0.0,0.0,0.0,1.0,2
2025/04/09 09:49:48.906569308,1744184988,904714752,mA1/gps,0,1,63.43459676510658,10.393091443511667,0.0,1.4400000000000002e-10,0.0,0.0,0.0,1.4400000000000002e-10,0.0,0.0,0.0,1.0,2
2025/04/09 09:49:48.954745406,1744184988,954527472,mA1/gps,0,1,63.434596765019,10.393091443035031,0.0,1.4400000000000002e-10,0.0,0.0,0.0,1.4400000000000002e-10,0.0,0.0,0.0,1.0,2
2025/04/09 09:49:49.6248473,1744184989,6050212,mA1/gps,0,1,63.4345967651405,10.393091443445746,0.0,1.4400000000000002e-10,0.0,0.0,0.0,1.4400000000000002e-10,0.0,0.0,0.0,1.0,2
2025/04/09 09:49:49.47070782,1744184989,46558285,mA1/gps,0,1,63.434596765202635,10.393091443873548,0.0,1.4400000000000002e-10,0.0,0.0,0.0,1.4400000000000002e-10,0.0,0.0,0.0,1.0,2
2025/04/09 09:49:49.97904874,1744184989,97673261,mA1/gps,0,1,63.434596765331825,10.393091443519399,0.0,1.4400000000000002e-10,0.0,0.0,0.0,1.4400000000000002e-10,0.0,0.0,0.0,1.0,2
2025/04/09 09:49:49.147790800,1744184989,147496286,mA1/gps,0,1,63.43459676519647,10.39309144302583,0.0,1.4400000000000002e-10,0.0,0.0,0.0,1.4400000000000002e-10,0.0,0.0,0.0,1.0,2
2025/04/09 09:49:49.201123552,1744184989,200189259,mA1/gps,0,1,63.43459676524543,10.393091443271988,0.0,1.4400000000000002e-10,0.0,0.0,0.0,1.4400000000000002e-10,0.0,0.0,0.0,1.0,2
2025/04/09 09:49:49.252554470,1744184989,251692946,mA1/gps,0,1,63.434596765187145,10.39309144316925,0.0,1.4400000000000002e-10,0.0,0.0,0.0,1.4400000000000002e-10,0.0,0.0,0.0,1.0,2
2025/04/09 09:49:49.303785554,1744184989,302641352,mA1/gps,0,1,63.434596765172,10.393091443256083,0.0,1.4400000000000002e-10,0.0,0.0,0.0,1.4400000000000002e-10,0.0,0.0,0.0,1.0,2
2025/04/09 09:49:49.352766777,1744184989,352441311,mA1/gps,0,1,63.434596765254604,10.393091443008311,0.0,1.4400000000000002e-10,0.0,0.0,0.0,1.4400000000000002e-10,0.0,0.0,0.0,1.0,2
2025/04/09 09:49:49.403627543,1744184989,403397484,mA1/gps,0,1,63.434596765369534,10.393091443536576,0.0,1.4400000000000002e-10,0.0,0.0,0.0,1.4400000000000002e-10,0.0,0.0,0.0,1.0,2
2025/04/09 09:49:49.453374330,1744184989,453146638,mA1/gps,0,1,63.43459676541558,10.39309144294764,0.0,1.4400000000000002e-10,0.0,0.0,0.0,1.4400000000000002e-10,0.0,0.0,0.0,1.0,2
2025/04/09 09:49:49.504536467,1744184989,504152648,mA1/gps,0,1,63.434596765536305,10.393091443133336,0.0,1.4400000000000002e-10,0.0,0.0,0.0,1.4400000000000002e-10,0.0,0.0,0.0,1.0,2
2025/04/09 09:49:49.555496554,1744184989,555361980,mA1/gps,0,1,63.434596765752026,10.393091443108046,0.0,1.4400000000000002e-10,0.0,0.0,0.0,1.4400000000000002e-10,0.0,0.0,0.0,1.0,2
2025/04/09 09:49:49.605062532,1744184989,604902812,mA1/gps,0,1,63.43459676574772,10.393091443219959,0.0,1.4400000000000002e-10,0.0,0.0,0.0,1.4400000000000002e-10,0.0,0.0,0.0,1.0,2
2025/04/09 09:49:49.654913283,1744184989,654723063,mA1/gps,0,1,63.43459676606382,10.39309144352589,0.0,1.4400000000000002e-10,0.0,0.0,0.0,1.4400000000000002e-10,0.0,0.0,0.0,1.0,2
2025/04/09 09:49:49.706034503,1744184989,705790185,mA1/gps,0,1,63.434596766154726,10.393091442822868,0.0,1.4400000000000002e-10,0.0,0.0,0.0,1.4400000000000002e-10,0.0,0.0,0.0,1.0,2
2025/04/09 09:49:49.746802984,1744184989,746509638,mA1/gps,0,1,63.43459676632703,10.393091443253942,0.0,1.4400000000000002e-10,0.0,0.0,0.0,1.4400000000000002e-10,0.0,0.0,0.0,1.0,2
2025/04/09 09:49:49.798999108,1744184989,797132485,mA1/gps,0,1,63.43459676646754,10.393091443080525,0.0,1.4400000000000002e-10,0.0,0.0,0.0,1.4400000000000002e-10,0.0,0.0,0.0,1.0,2
2025/04/09 09:49:49.847252283,1744184989,846981925,mA1/gps,0,1,63.43459676702679,10.393091443399658,0.0,1.4400000000000002e-10,0.0,0.0,0.0,1.4400000000000002e-10,0.0,0.0,0.0,1.0,2
2025/04/09 09:49:49.898153596,1744184989,897904220,mA1/gps,0,1,63.43459676688333,10.393091443301108,0.0,1.4400000000000002e-10,0.0,0.0,0.0,1.4400000000000002e-10,0.0,0.0,0.0,1.0,2
2025/04/09 09:49:49.951393875,1744184989,951170802,mA1/gps,0,1,63.43459676699785,10.393091443241234,0.0,1.4400000000000002e-10,0.0,0.0,0.0,1.4400000000000002e-10,0.0,0.0,0.0,1.0,2
2025/04/09 09:49:50.4946526,1744184990,3616624,mA1/gps,0,1,63.434596767123,10.393091443303517,0.0,1.4400000000000002e-10,0.0,0.0,0.0,1.4400000000000002e-10,0.0,0.0,0.0,1.0,2
2025/04/09 09:49:50.54692349,1744184990,53819705,mA1/gps,0,1,63.43459676751322,10.393091443568016,0.0,1.4400000000000002e-10,0.0,0.0,0.0,1.4400000000000002e-10,0.0,0.0,0.0,1.0,2
2025/04/09 09:49:50.105305504,1744184990,105191890,mA1/gps,0,1,63.434596767304456,10.39309144305391,0.0,1.4400000000000002e-10,0.0,0.0,0.0,1.4400000000000002e-10,0.0,0.0,0.0,1.0,2
2025/04/09 09:49:50.156753168,1744184990,155001280,mA1/gps,0,1,63.43459676763325,10.393091442873288,0.0,1.4400000000000002e-10,0.0,0.0,0.0,1.4400000000000002e-10,0.0,0.0,0.0,1.0,2
2025/04/09 09:49:50.206269014,1744184990,206125642,mA1/gps,0,1,63.434596767666235,10.3930914431542,0.0,1.4400000000000002e-10,0.0,0.0,0.0,1.4400000000000002e-10,0.0,0.0,0.0,1.0,2
2025/04/09 09:49:50.246776605,1744184990,246483224,mA1/gps,0,1,63.43459676756431,10.393091443303913,0.0,1.4400000000000002e-10,0.0,0.0,0.0,1.4400000000000002e-10,0.0,0.0,0.0,1.0,2
2025/04/09 09:49:50.300049286,1744184990,296743473,mA1/gps,0,1,63.43459676793222,10.39309144290192,0.0,1.4400000000000002e-10,0.0,0.0,0.0,1.4400000000000002e-10,0.0,0.0,0.0,1.0,2
2025/04/09 09:49:50.346823444,1744184990,346555926,mA1/gps,0,1,63.43459676804709,10.393091443327938,0.0,1.4400000000000002e-10,0.0,0.0,0.0,1.4400000000000002e-10,0.0,0.0,0.0,1.0,2
2025/04/09 09:49:50.397819944,1744184990,397548646,mA1/gps,0,1,63.434596767740025,10.39309144302758,0.0,1.4400000000000002e-10,0.0,0.0,0.0,1.4400000000000002e-10,0.0,0.0,0.0,1.0,2
2025/04/09 09:49:50.450076659,1744184990,449846711,mA1/gps,0,1,63.434596767799505,10.393091443428538,0.0,1.4400000000000002e-10,0.0,0.0,0.0,1.4400000000000002e-10,0.0,0.0,0.0,1.0,2
2025/04/09 09:49:50.503217675,1744184990,500772687,mA1/gps,0,1,63.43459676797087,10.393091443030967,0.0,1.4400000000000002e-10,0.0,0.0,0.0,1.4400000000000002e-10,0.0,0.0,0.0,1.0,2
2025/04/09 09:49:50.551197654,1744184990,550972115,mA1/gps,0,1,63.43459676819726,10.393091443484613,0.0,1.4400000000000002e-10,0.0,0.0,0.0,1.4400000000000002e-10,0.0,0.0,0.0,1.0,2
2025/04/09 09:49:50.602185250,1744184990,601982529,mA1/gps,0,1,63.43459676795266,10.39309144286609,0.0,1.4400000000000002e-10,0.0,0.0,0.0,1.4400000000000002e-10,0.0,0.0,0.0,1.0,2
2025/04/09 09:49:50.652011272,1744184990,651771020,mA1/gps,0,1,63.4345967678999,10.39309144352342,0.0,1.4400000000000002e-10,0.0,0.0,0.0,1.4400000000000002e-10,0.0,0.0,0.0,1.0,2
2025/04/09 09:49:50.705018236,1744184990,703645773,mA1/gps,0,1,63.43459676808173,10.393091443095399,0.0,1.4400000000000002e-10,0.0,0.0,0.0,1.4400000000000002e-10,0.0,0.0,0.0,1.0,2
2025/04/09 09:49:50.753607047,1744184990,753447517,mA1/gps,0,1,63.434596767965296,10.393091442962861,0.0,1.4400000000000002e-10,0.0,0.0,0.0,1.4400000000000002e-10,0.0,0.0,0.0,1.0,2
2025/04/09 09:49:50.805154139,1744184990,805053756,mA1/gps,0,1,63.434596767918926,10.393091443548165,0.0,1.4400000000000002e-10,0.0,0.0,0.0,1.4400000000000002e-10,0.0,0.0,0.0,1.0,2
2025/04/09 09:49:50.854823520,1744184990,854566482,mA1/gps,0,1,63.434596767998116,10.393091443350537,0.0,1.4400000000000002e-10,0.0,0.0,0.0,1.4400000000000002e-10,0.0,0.0,0.0,1.0,2
2025/04/09 09:49:50.905571931,1744184990,905362709,mA1/gps,0,1,63.434596768189735,10.393091443267386,0.0,1.4400000000000002e-10,0.0,0.0,0.0,1.4400000000000002e-10,0.0,0.0,0.0,1.0,2
2025/04/09 09:49:50.955364257,1744184990,955150230,mA1/gps,0,1,63.43459676831529,10.393091443446474,0.0,1.4400000000000002e-10,0.0,0.0,0.0,1.4400000000000002e-10,0.0,0.0,0.0,1.0,2
2025/04/09 09:49:50.996951009,1744184990,996721761,mA1/gps,0,1,63.43459676849485,10.393091442953919,0.0,1.4400000000000002e-10,0.0,0.0,0.0,1.4400000000000002e-10,0.0,0.0,0.0,1.0,2
2025/04/09 09:49:51.47719005,1744184991,46572331,mA1/gps,0,1,63.43459676834451,10.393091443189336,0.0,1.4400000000000002e-10,0.0,0.0,0.0,1.4400000000000002e-10,0.0,0.0,0.0,1.0,2
2025/04/09 09:49:51.98270103,1744184991,97633672,mA1/gps,0,1,63.43459676882368,10.393091443247716,0.0,1.4400000000000002e-10,0.0,0.0,0.0,1.4400000000000002e-10,0.0,0.0,0.0,1.0,2
2025/04/09 09:49:51.148260934,1744184991,147493714,mA1/gps,0,1,63.43459676886208,10.393091443324836,0.0,1.4400000000000002e-10,0.0,0.0,0.0,1.4400000000000002e-10,0.0,0.0,0.0,1.0,2
2025/04/09 09:49:51.201975068,1744184991,200478652,mA1/gps,0,1,63.43459676911943,10.393091442834399,0.0,1.4400000000000002e-10,0.0,0.0,0.0,1.4400000000000002e-10,0.0,0.0,0.0,1.0,2
2025/04/09 09:49:51.250580853,1744184991,250466154,mA1/gps,0,1,63.43459676923494,10.393091442875978,0.0,1.4400000000000002e-10,0.0,0.0,0.0,1.4400000000000002e-10,0.0,0.0,0.0,1.0,2
2025/04/09 09:49:51.302004379,1744184991,301388741,mA1/gps,0,1,63.43459676940891,10.39309144331354,0.0,1.4400000000000002e-10,0.0,0.0,0.0,1.4400000000000002e-10,0.0,0.0,0.0,1.0,2
2025/04/09 09:49:51.354918996,1744184991,354682673,mA1/gps,0,1,63.43459676964203,10.393091443028336,0.0,1.4400000000000002e-10,0.0,0.0,0.0,1.4400000000000002e-10,0.0,0.0,0.0,1.0,2
2025/04/09 09:49:51.405888157,1744184991,405704299,mA1/gps,0,1,63.434596769779844,10.393091442995937,0.0,1.4400000000000002e-10,0.0,0.0,0.0,1.4400000000000002e-10,0.0,0.0,0.0,1.0,2
2025/04/09 09:49:51.455842233,1744184991,455506313,mA1/gps,0,1,63.43459676989648,10.393091443329693,0.0,1.4400000000000002e-10,0.0,0.0,0.0,1.4400000000000002e-10,0.0,0.0,0.0,1.0,2
2025/04/09 09:49:51.499797746,1744184991,497916455,mA1/gps,0,1,63.434596770059024,10.393091443186378,0.0,1.4400000000000002e-10,0.0,0.0,0.0,1.4400000000000002e-10,0.0,0.0,0.0,1.0,2
2025/04/09 09:49:51.546636352,1744184991,546391788,mA1/gps,0,1,63.43459677009754,10.393091443370412,0.0,1.4400000000000002e-10,0.0,0.0,0.0,1.4400000000000002e-10,0.0,0.0,0.0,1.0,2
2025/04/09 09:49:51.600097568,1744184991,598156149,mA1/gps,0,1,63.43459677034967,10.393091443039053,0.0,1.4400000000000002e-10,0.0,0.0,0.0,1.4400000000000002e-10,0.0,0.0,0.0,1.0,2
2025/04/09 09:49:51.648144559,1744184991,648051369,mA1/gps,0,1,63.434596770444095,10.393091442786071,0.0,1.4400000000000002e-10,0.0,0.0,0.0,1.4400000000000002e-10,0.0,0.0,0.0,1.0,2
2025/04/09 09:49:51.702825076,1744184991,702492146,mA1/gps,0,1,63.434596770328014,10.393091442762346,0.0,1.4400000000000002e-10,0.0,0.0,0.0,1.4400000000000002e-10,0.0,0.0,0.0,1.0,2
2025/04/09 09:49:51.752669070,1744184991,752373915,mA1/gps,0,1,63.434596770519406,10.393091443087581,0.0,1.4400000000000002e-10,0.0,0.0,0.0,1.4400000000000002e-10,0.0,0.0,0.0,1.0,2
2025/04/09 09:49:51.803536742,1744184991,803328610,mA1/gps,0,1,63.43459677045739,10.393091442633061,0.0,1.4400000000000002e-10,0.0,0.0,0.0,1.4400000000000002e-10,0.0,0.0,0.0,1.0,2
2025/04/09 09:49:51.853265691,1744184991,853061407,mA1/gps,0,1,63.43459677057218,10.393091442914512,0.0,1.4400000000000002e-10,0.0,0.0,0.0,1.4400000000000002e-10,0.0,0.0,0.0,1.0,2
2025/04/09 09:49:51.904289197,1744184991,904089466,mA1/gps,0,1,63.43459677083704,10.393091443417314,0.0,1.4400000000000002e-10,0.0,0.0,0.0,1.4400000000000002e-10,0.0,0.0,0.0,1.0,2
2025/04/09 09:49:51.956431371,1744184991,954667015,mA1/gps,0,1,63.43459677069623,10.393091443257678,0.0,1.4400000000000002e-10,0.0,0.0,0.0,1.4400000000000002e-10,0.0,0.0,0.0,1.0,2
2025/04/09 09:49:52.7482795,1744184992,5632529,mA1/gps,0,1,63.43459677067373,10.393091443075694,0.0,1.4400000000000002e-10,0.0,0.0,0.0,1.4400000000000002e-10,0.0,0.0,0.0,1.0,2
2025/04/09 09:49:52.55646260,1744184992,55386544,mA1/gps,0,1,63.434596770654544,10.39309144297184,0.0,1.4400000000000002e-10,0.0,0.0,0.0,1.4400000000000002e-10,0.0,0.0,0.0,1.0,2
2025/04/09 09:49:52.106719285,1744184992,106407765,mA1/gps,0,1,63.43459677066128,10.393091443525565,0.0,1.4400000000000002e-10,0.0,0.0,0.0,1.4400000000000002e-10,0.0,0.0,0.0,1.0,2
2025/04/09 09:49:52.146383872,1744184992,146120728,mA1/gps,0,1,63.434596770637725,10.393091442846897,0.0,1.4400000000000002e-10,0.0,0.0,0.0,1.4400000000000002e-10,0.0,0.0,0.0,1.0,2
2025/04/09 09:49:52.199382013,1744184992,198482396,mA1/gps,0,1,63.43459677072268,10.39309144345861,0.0,1.4400000000000002e-10,0.0,0.0,0.0,1.4400000000000002e-10,0.0,0.0,0.0,1.0,2
2025/04/09 09:49:52.248507626,1744184992,248356145,mA1/gps,0,1,63.43459677063664,10.393091443207666,0.0,1.4400000000000002e-10,0.0,0.0,0.0,1.4400000000000002e-10,0.0,0.0,0.0,1.0,2
2025/04/09 09:49:52.300060724,1744184992,299514465,mA1/gps,0,1,63.43459677097975,10.393091443079303,0.0,1.4400000000000002e-10,0.0,0.0,0.0,1.4400000000000002e-10,0.0,0.0,0.0,1.0,2
2025/04/09 09:49:52.349429235,1744184992,349288297,mA1/gps,0,1,63.43459677094391,10.393091443337921,0.0,1.4400000000000002e-10,0.0,0.0,0.0,1.4400000000000002e-10,0.0,0.0,0.0,1.0,2
2025/04/09 09:49:52.401742374,1744184992,401620799,mA1/gps,0,1,63.43459677111293,10.393091443336452,0.0,1.4400000000000002e-10,0.0,0.0,0.0,1.4400000000000002e-10,0.0,0.0,0.0,1.0,2
2025/04/09 09:49:52.451983684,1744184992,451547062,mA1/gps,0,1,63.434596771142544,10.393091443207389,0.0,1.4400000000000002e-10,0.0,0.0,0.0,1.4400000000000002e-10,0.0,0.0,0.0,1.0,2
2025/04/09 09:49:52.502730192,1744184992,502518626,mA1/gps,0,1,63.43459677141428,10.393091442764982,0.0,1.4400000000000002e-10,0.0,0.0,0.0,1.4400000000000002e-10,0.0,0.0,0.0,1.0,2
2025/04/09 09:49:52.552498633,1744184992,552335824,mA1/gps,0,1,63.43459677173763,10.393091443146556,0.0,1.4400000000000002e-10,0.0,0.0,0.0,1.4400000000000002e-10,0.0,0.0,0.0,1.0,2
2025/04/09 09:49:52.603617749,1744184992,603355140,mA1/gps,0,1,63.434596771669106,10.393091443591466,0.0,1.4400000000000002e-10,0.0,0.0,0.0,1.4400000000000002e-10,0.0,0.0,0.0,1.0,2
2025/04/09 09:49:52.653473852,1744184992,653360195,mA1/gps,0,1,63.43459677225839,10.393091444807066,0.0,1.4400000000000002e-10,0.0,0.0,0.0,1.4400000000000002e-10,0.0,0.0,0.0,1.0,2
2025/04/09 09:49:52.706710774,1744184992,706473093,mA1/gps,0,1,63.4345967740076,10.393091445340383,0.0,1.4400000000000002e-10,0.0,0.0,0.0,1.4400000000000002e-10,0.0,0.0,0.0,1.0,2
2025/04/09 09:49:52.755250151,1744184992,754887284,mA1/gps,0,1,63.43459677576393,10.393091447485967,0.0,1.4400000000000002e-10,0.0,0.0,0.0,1.4400000000000002e-10,0.0,0.0,0.0,1.0,2
2025/04/09 09:49:52.810127937,1744184992,809047823,mA1/gps,0,1,63.43459677918821,10.393091448597445,0.0,1.4400000000000002e-10,0.0,0.0,0.0,1.4400000000000002e-10,0.0,0.0,0.0,1.0,2
2025/04/09 09:49:52.846731871,1744184992,846543591,mA1/gps,0,1,63.434596783795044,10.39309144993233,0.0,1.4400000000000002e-10,0.0,0.0,0.0,1.4400000000000002e-10,0.0,0.0,0.0,1.0,2
2025/04/09 09:49:52.898284356,1744184992,897743923,mA1/gps,0,1,63.43459678952344,10.393091450903144,0.0,1.4400000000000002e-10,0.0,0.0,0.0,1.4400000000000002e-10,0.0,0.0,0.0,1.0,2
2025/04/09 09:49:52.947741224,1744184992,947489377,mA1/gps,0,1,63.43459679703612,10.393091451034193,0.0,1.4400000000000002e-10,0.0,0.0,0.0,1.4400000000000002e-10,0.0,0.0,0.0,1.0,2
2025/04/09 09:49:53.1572810,1744184992,998401257,mA1/gps,0,1,63.43459680713514,10.393091450826832,0.0,1.4400000000000002e-10,0.0,0.0,0.0,1.4400000000000002e-10,0.0,0.0,0.0,1.0,2
2025/04/09 09:49:53.48654728,1744184993,48371744,mA1/gps,0,1,63.43459681924614,10.393091450067386,0.0,1.4400000000000002e-10,0.0,0.0,0.0,1.4400000000000002e-10,0.0,0.0,0.0,1.0,2
2025/04/09 09:49:53.101084681,1744184993,100879176,mA1/gps,0,1,63.434596835412584,10.39309144862685,0.0,1.4400000000000002e-10,0.0,0.0,0.0,1.4400000000000002e-10,0.0,0.0,0.0,1.0,2
2025/04/09 09:49:53.151025599,1744184993,150735293,mA1/gps,0,1,63.43459685342509,10.393091446381717,0.0,1.4400000000000002e-10,0.0,0.0,0.0,1.4400000000000002e-10,0.0,0.0,0.0,1.0,2
2025/04/09 09:49:53.203014304,1744184993,202679972,mA1/gps,0,1,63.4345968759673,10.393091444934345,0.0,1.4400000000000002e-10,0.0,0.0,0.0,1.4400000000000002e-10,0.0,0.0,0.0,1.0,2
2025/04/09 09:49:53.252566982,1744184993,252447724,mA1/gps,0,1,63.43459690226082,10.39309144226371,0.0,1.4400000000000002e-10,0.0,0.0,0.0,1.4400000000000002e-10,0.0,0.0,0.0,1.0,2
2025/04/09 09:49:53.303634422,1744184993,303530727,mA1/gps,0,1,63.434596932870136,10.393091439911231,0.0,1.4400000000000002e-10,0.0,0.0,0.0,1.4400000000000002e-10,0.0,0.0,0.0,1.0,2
2025/04/09 09:49:53.353554267,1744184993,353333195,mA1/gps,0,1,63.434596966411426,10.393091437762124,0.0,1.4400000000000002e-10,0.0,0.0,0.0,1.4400000000000002e-10,0.0,0.0,0.0,1.0,2
2025/04/09 09:49:53.406071825,1744184993,404382074,mA1/gps,0,1,63.43459700269839,10.393091434816819,0.0,1.4400000000000002e-10,0.0,0.0,0.0,1.4400000000000002e-10,0.0,0.0,0.0,1.0,2
2025/04/09 09:49:53.454548365,1744184993,454237101,mA1/gps,0,1,63.434597045162434,10.393091430305399,0.0,1.4400000000000002e-10,0.0,0.0,0.0,1.4400000000000002e-10,0.0,0.0,0.0,1.0,2
2025/04/09 09:49:53.505430978,1744184993,505316986,mA1/gps,0,1,63.43459709056625,10.39309142467496,0.0,1.4400000000000002e-10,0.0,0.0,0.0,1.4400000000000002e-10,0.0,0.0,0.0,1.0,2
2025/04/09 09:49:53.555342032,1744184993,555104079,mA1/gps,0,1,63.43459713913412,10.393091417699745,0.0,1.4400000000000002e-10,0.0,0.0,0.0,1.4400000000000002e-10,0.0,0.0,0.0,1.0,2
2025/04/09 09:49:53.606301028,1744184993,606066032,mA1/gps,0,1,63.434597190908804,10.393091409755113,0.0,1.4400000000000002e-10,0.0,0.0,0.0,1.4400000000000002e-10,0.0,0.0,0.0,1.0,2
2025/04/09 09:49:53.646881873,1744184993,646517815,mA1/gps,0,1,63.43459724526665,10.393091399632654,0.0,1.4400000000000002e-10,0.0,0.0,0.0,1.4400000000000002e-10,0.0,0.0,0.0,1.0,2
2025/04/09 09:49:53.697260575,1744184993,697154505,mA1/gps,0,1,63.43459730054782,10.393091388758688,0.0,1.4400000000000002e-10,0.0,0.0,0.0,1.4400000000000002e-10,0.0,0.0,0.0,1.0,2
2025/04/09 09:49:53.747012377,1744184993,746863789,mA1/gps,0,1,63.43459735802629,10.393091376815446,0.0,1.4400000000000002e-10,0.0,0.0,0.0,1.4400000000000002e-10,0.0,0.0,0.0,1.0,2
2025/04/09 09:49:53.798066697,1744184993,797872896,mA1/gps,0,1,63.434597416859106,10.393091365254191,0.0,1.4400000000000002e-10,0.0,0.0,0.0,1.4400000000000002e-10,0.0,0.0,0.0,1.0,2
2025/04/09 09:49:53.847894246,1744184993,847686212,mA1/gps,0,1,63.43459747688858,10.393091353947288,0.0,1.4400000000000002e-10,0.0,0.0,0.0,1.4400000000000002e-10,0.0,0.0,0.0,1.0,2
2025/04/09 09:49:53.900548097,1744184993,898990811,mA1/gps,0,1,63.43459753694656,10.393091342090885,0.0,1.4400000000000002e-10,0.0,0.0,0.0,1.4400000000000002e-10,0.0,0.0,0.0,1.0,2
2025/04/09 09:49:53.949735666,1744184993,949522370,mA1/gps,0,1,63.434597596108446,10.393091330406433,0.0,1.4400000000000002e-10,0.0,0.0,0.0,1.4400000000000002e-10,0.0,0.0,0.0,1.0,2
2025/04/09 09:49:54.3339274,1744184994,1840998,mA1/gps,0,1,63.4345976564032,10.393091319098195,0.0,1.4400000000000002e-10,0.0,0.0,0.0,1.4400000000000002e-10,0.0,0.0,0.0,1.0,2
2025/04/09 09:49:54.51805845,1744184994,51631693,mA1/gps,0,1,63.43459771634712,10.39309130836874,0.0,1.4400000000000002e-10,0.0,0.0,0.0,1.4400000000000002e-10,0.0,0.0,0.0,1.0,2
2025/04/09 09:49:54.104050487,1744184994,102661292,mA1/gps,0,1,63.43459777531422,10.393091297611363,0.0,1.4400000000000002e-10,0.0,0.0,0.0,1.4400000000000002e-10,0.0,0.0,0.0,1.0,2
2025/04/09 09:49:54.152631036,1744184994,152460529,mA1/gps,0,1,63.434597833789226,10.393091286900775,0.0,1.4400000000000002e-10,0.0,0.0,0.0,1.4400000000000002e-10,0.0,0.0,0.0,1.0,2
2025/04/09 09:49:54.203896404,1744184994,203578165,mA1/gps,0,1,63.43459789148009,10.393091276378094,0.0,1.4400000000000002e-10,0.0,0.0,0.0,1.4400000000000002e-10,0.0,0.0,0.0,1.0,2
2025/04/09 09:49:54.253738543,1744184994,253369650,mA1/gps,0,1,63.43459795018435,10.393091265693558,0.0,1.4400000000000002e-10,0.0,0.0,0.0,1.4400000000000002e-10,0.0,0.0,0.0,1.0,2
2025/04/09 09:49:54.305276421,1744184994,305194384,mA1/gps,0,1,63.434598009035554,10.393091256384592,0.0,1.4400000000000002e-10,0.0,0.0,0.0,1.4400000000000002e-10,0.0,0.0,0.0,1.0,2
2025/04/09 09:49:54.354478673,1744184994,354184832,mA1/gps,0,1,63.434598068313825,10.393091246467232,0.0,1.4400000000000002e-10,0.0,0.0,0.0,1.4400000000000002e-10,0.0,0.0,0.0,1.0,2
2025/04/09 09:49:54.405438895,1744184994,405156727,mA1/gps,0,1,63.43459812862532,10.393091237692325,0.0,1.4400000000000002e-10,0.0,0.0,0.0,1.4400000000000002e-10,0.0,0.0,0.0,1.0,2
2025/04/09 09:49:54.455540446,1744184994,455137383,mA1/gps,0,1,63.43459819017431,10.393091230595488,0.0,1.4400000000000002e-10,0.0,0.0,0.0,1.4400000000000002e-10,0.0,0.0,0.0,1.0,2
2025/04/09 09:49:54.506247825,1744184994,506017741,mA1/gps,0,1,63.434598252307005,10.39309122509268,0.0,1.4400000000000002e-10,0.0,0.0,0.0,1.4400000000000002e-10,0.0,0.0,0.0,1.0,2
2025/04/09 09:49:54.556129988,1744184994,555849750,mA1/gps,0,1,63.434598317511714,10.393091220171195,0.0,1.4400000000000002e-10,0.0,0.0,0.0,1.4400000000000002e-10,0.0,0.0,0.0,1.0,2
2025/04/09 09:49:54.596794345,1744184994,596667119,mA1/gps,0,1,63.43459838492253,10.393091215515415,0.0,1.4400000000000002e-10,0.0,0.0,0.0,1.4400000000000002e-10,0.0,0.0,0.0,1.0,2
2025/04/09 09:49:54.648196248,1744184994,647817691,mA1/gps,0,1,63.43459845463336,10.393091212077497,0.0,1.4400000000000002e-10,0.0,0.0,0.0,1.4400000000000002e-10,0.0,0.0,0.0,1.0,2
2025/04/09 09:49:54.700013168,1744184994,699657002,mA1/gps,0,1,63.4345985282051,10.393091208931734,0.0,1.4400000000000002e-10,0.0,0.0,0.0,1.4400000000000002e-10,0.0,0.0,0.0,1.0,2
2025/04/09 09:49:54.751787106,1744184994,749561049,mA1/gps,0,1,63.434598604434115,10.393091206018036,0.0,1.4400000000000002e-10,0.0,0.0,0.0,1.4400000000000002e-10,0.0,0.0,0.0,1.0,2
2025/04/09 09:49:54.800970637,1744184994,800830692,mA1/gps,0,1,63.434598682925646,10.393091202878269,0.0,1.4400000000000002e-10,0.0,0.0,0.0,1.4400000000000002e-10,0.0,0.0,0.0,1.0,2
2025/04/09 09:49:54.851265432,1744184994,850850308,mA1/gps,0,1,63.43459876429623,10.393091198854528,0.0,1.4400000000000002e-10,0.0,0.0,0.0,1.4400000000000002e-10,0.0,0.0,0.0,1.0,2
2025/04/09 09:49:54.902411251,1744184994,901848477,mA1/gps,0,1,63.434598850739725,10.393091194159348,0.0,1.4400000000000002e-10,0.0,0.0,0.0,1.4400000000000002e-10,0.0,0.0,0.0,1.0,2
2025/04/09 09:49:54.954083623,1744184994,953826189,mA1/gps,0,1,63.43459894014754,10.393091189695436,0.0,1.4400000000000002e-10,0.0,0.0,0.0,1.4400000000000002e-10,0.0,0.0,0.0,1.0,2
2025/04/09 09:49:55.5123442,1744184995,4949786,mA1/gps,0,1,63.4345990307221,10.393091183897203,0.0,1.4400000000000002e-10,0.0,0.0,0.0,1.4400000000000002e-10,0.0,0.0,0.0,1.0,2
2025/04/09 09:49:55.56491109,1744184995,54804075,mA1/gps,0,1,63.43459912475088,10.393091181669067,0.0,1.4400000000000002e-10,0.0,0.0,0.0,1.4400000000000002e-10,0.0,0.0,0.0,1.0,2
2025/04/09 09:49:55.106078116,1744184995,105674909,mA1/gps,0,1,63.43459922054471,10.393091177963953,0.0,1.4400000000000002e-10,0.0,0.0,0.0,1.4400000000000002e-10,0.0,0.0,0.0,1.0,2
2025/04/09 09:49:55.155826690,1744184995,155529580,mA1/gps,0,1,63.434599317719616,10.393091172963958,0.0,1.4400000000000002e-10,0.0,0.0,0.0,1.4400000000000002e-10,0.0,0.0,0.0,1.0,2
2025/04/09 09:49:55.196684856,1744184995,196559750,mA1/gps,0,1,63.43459941576059,10.39309116547633,0.0,1.4400000000000002e-10,0.0,0.0,0.0,1.4400000000000002e-10,0.0,0.0,0.0,1.0,2
2025/04/09 09:49:55.246510230,1744184995,246280001,mA1/gps,0,1,63.43459951553818,10.393091154732506,0.0,1.4400000000000002e-10,0.0,0.0,0.0,1.4400000000000002e-10,0.0,0.0,0.0,1.0,2
2025/04/09 09:49:55.297557834,1744184995,297323037,mA1/gps,0,1,63.434599617711015,10.393091141365865,0.0,1.4400000000000002e-10,0.0,0.0,0.0,1.4400000000000002e-10,0.0,0.0,0.0,1.0,2
2025/04/09 09:49:55.349312572,1744184995,347216724,mA1/gps,0,1,63.43459971512328,10.393091125601012,0.0,1.4400000000000002e-10,0.0,0.0,0.0,1.4400000000000002e-10,0.0,0.0,0.0,1.0,2
2025/04/09 09:49:55.398343594,1744184995,398254981,mA1/gps,0,1,63.43459981488685,10.393091108872298,0.0,1.4400000000000002e-10,0.0,0.0,0.0,1.4400000000000002e-10,0.0,0.0,0.0,1.0,2
2025/04/09 09:49:55.448188340,1744184995,447892865,mA1/gps,0,1,63.43459991332506,10.393091091005898,0.0,1.4400000000000002e-10,0.0,0.0,0.0,1.4400000000000002e-10,0.0,0.0,0.0,1.0,2
2025/04/09 09:49:55.499406580,1744184995,498948959,mA1/gps,0,1,63.43460001045189,10.393091073021633,0.0,1.4400000000000002e-10,0.0,0.0,0.0,1.4400000000000002e-10,0.0,0.0,0.0,1.0,2
2025/04/09 09:49:55.550578441,1744184995,548730342,mA1/gps,0,1,63.43460010710356,10.393091054913441,0.0,1.4400000000000002e-10,0.0,0.0,0.0,1.4400000000000002e-10,0.0,0.0,0.0,1.0,2
2025/04/09 09:49:55.601700159,1744184995,600289869,mA1/gps,0,1,63.43460020188441,10.393091037792392,0.0,1.4400000000000002e-10,0.0,0.0,0.0,1.4400000000000002e-10,0.0,0.0,0.0,1.0,2
2025/04/09 09:49:55.650465035,1744184995,650126438,mA1/gps,0,1,63.434600297218175,10.393091022717813,0.0,1.4400000000000002e-10,0.0,0.0,0.0,1.4400000000000002e-10,0.0,0.0,0.0,1.0,2
2025/04/09 09:49:55.701427764,1744184995,701158048,mA1/gps,0,1,63.43460039097496,10.393091009595027,0.0,1.4400000000000002e-10,0.0,0.0,0.0,1.4400000000000002e-10,0.0,0.0,0.0,1.0,2
2025/04/09 09:49:55.751471705,1744184995,751173981,mA1/gps,0,1,63.43460048436305,10.393091000133548,0.0,1.4400000000000002e-10,0.0,0.0,0.0,1.4400000000000002e-10,0.0,0.0,0.0,1.0,2
2025/04/09 09:49:55.804817935,1744184995,802462633,mA1/gps,0,1,63.43460057692369,10.393090992950144,0.0,1.4400000000000002e-10,0.0,0.0,0.0,1.4400000000000002e-10,0.0,0.0,0.0,1.0,2
2025/04/09 09:49:55.853540088,1744184995,853146656,mA1/gps,0,1,63.434600669265706,10.393090989037637,0.0,1.4400000000000002e-10,0.0,0.0,0.0,1.4400000000000002e-10,0.0,0.0,0.0,1.0,2
2025/04/09 09:49:55.903399928,1744184995,903196103,mA1/gps,0,1,63.43460076212581,10.393090987964733,0.0,1.4400000000000002e-10,0.0,0.0,0.0,1.4400000000000002e-10,0.0,0.0,0.0,1.0,2
2025/04/09 09:49:55.954921667,1744184995,952967097,mA1/gps,0,1,63.434600856069494,10.393090988763538,0.0,1.4400000000000002e-10,0.0,0.0,0.0,1.4400000000000002e-10,0.0,0.0,0.0,1.0,2
2025/04/09 09:49:56.4389771,1744184996,4140231,mA1/gps,0,1,63.4346009508946,10.393090991779875,0.0,1.4400000000000002e-10,0.0,0.0,0.0,1.4400000000000002e-10,0.0,0.0,0.0,1.0,2
2025/04/09 09:49:56.54180237,1744184996,53908433,mA1/gps,0,1,63.434601047734645,10.393090995635147,0.0,1.4400000000000002e-10,0.0,0.0,0.0,1.4400000000000002e-10,0.0,0.0,0.0,1.0,2
2025/04/09 09:49:56.105316928,1744184996,105036322,mA1/gps,0,1,63.434601146749024,10.393091000212394,0.0,1.4400000000000002e-10,0.0,0.0,0.0,1.4400000000000002e-10,0.0,0.0,0.0,1.0,2
2025/04/09 09:49:56.155037933,1744184996,154763477,mA1/gps,0,1,63.4346012480017,10.393091005872847,0.0,1.4400000000000002e-10,0.0,0.0,0.0,1.4400000000000002e-10,0.0,0.0,0.0,1.0,2
2025/04/09 09:49:56.206184286,1744184996,205947805,mA1/gps,0,1,63.43460135104432,10.393091011195597,0.0,1.4400000000000002e-10,0.0,0.0,0.0,1.4400000000000002e-10,0.0,0.0,0.0,1.0,2
2025/04/09 09:49:56.256457438,1744184996,255755804,mA1/gps,0,1,63.43460145727834,10.393091015761184,0.0,1.4400000000000002e-10,0.0,0.0,0.0,1.4400000000000002e-10,0.0,0.0,0.0,1.0,2
2025/04/09 09:49:56.298738482,1744184996,296588293,mA1/gps,0,1,63.43460156587228,10.393091019238845,0.0,1.4400000000000002e-10,0.0,0.0,0.0,1.4400000000000002e-10,0.0,0.0,0.0,1.0,2
2025/04/09 09:49:56.346807390,1744184996,346654471,mA1/gps,0,1,63.4346016775523,10.393091020247718,0.0,1.4400000000000002e-10,0.0,0.0,0.0,1.4400000000000002e-10,0.0,0.0,0.0,1.0,2
2025/04/09 09:49:56.403130416,1744184996,399191677,mA1/gps,0,1,63.43460179220374,10.393091019647002,0.0,1.4400000000000002e-10,0.0,0.0,0.0,1.4400000000000002e-10,0.0,0.0,0.0,1.0,2
2025/04/09 09:49:56.451247764,1744184996,449250646,mA1/gps,0,1,63.4346019082364,10.393091016571537,0.0,1.4400000000000002e-10,0.0,0.0,0.0,1.4400000000000002e-10,0.0,0.0,0.0,1.0,2
2025/04/09 09:49:56.500537861,1744184996,500215166,mA1/gps,0,1,63.43460202580519,10.393091011350512,0.0,1.4400000000000002e-10,0.0,0.0,0.0,1.4400000000000002e-10,0.0,0.0,0.0,1.0,2
2025/04/09 09:49:56.550704676,1744184996,550176173,mA1/gps,0,1,63.43460214638524,10.393091003579931,0.0,1.4400000000000002e-10,0.0,0.0,0.0,1.4400000000000002e-10,0.0,0.0,0.0,1.0,2
2025/04/09 09:49:56.601388116,1744184996,601214747,mA1/gps,0,1,63.434602268323665,10.393090993888551,0.0,1.4400000000000002e-10,0.0,0.0,0.0,1.4400000000000002e-10,0.0,0.0,0.0,1.0,2
2025/04/09 09:49:56.654208893,1744184996,654008915,mA1/gps,0,1,63.43460239031659,10.393090982476778,0.0,1.4400000000000002e-10,0.0,0.0,0.0,1.4400000000000002e-10,0.0,0.0,0.0,1.0,2
2025/04/09 09:49:56.705806113,1744184996,705544029,mA1/gps,0,1,63.43460251351142,10.393090969835635,0.0,1.4400000000000002e-10,0.0,0.0,0.0,1.4400000000000002e-10,0.0,0.0,0.0,1.0,2
2025/04/09 09:49:56.747436910,1744184996,747010758,mA1/gps,0,1,63.434602636876924,10.393090956468496,0.0,1.4400000000000002e-10,0.0,0.0,0.0,1.4400000000000002e-10,0.0,0.0,0.0,1.0,2
2025/04/09 09:49:56.797702400,1744184996,797474863,mA1/gps,0,1,63.43460276021544,10.39309094397481,0.0,1.4400000000000002e-10,0.0,0.0,0.0,1.4400000000000002e-10,0.0,0.0,0.0,1.0,2
2025/04/09 09:49:56.850704967,1744184996,847313781,mA1/gps,0,1,63.434602882496705,10.393090931384556,0.0,1.4400000000000002e-10,0.0,0.0,0.0,1.4400000000000002e-10,0.0,0.0,0.0,1.0,2
2025/04/09 09:49:56.898487686,1744184996,898285524,mA1/gps,0,1,63.434603002740005,10.393090920516578,0.0,1.4400000000000002e-10,0.0,0.0,0.0,1.4400000000000002e-10,0.0,0.0,0.0,1.0,2
2025/04/09 09:49:56.949225903,1744184996,949137799,mA1/gps,0,1,63.434603124051655,10.393090909768858,0.0,1.4400000000000002e-10,0.0,0.0,0.0,1.4400000000000002e-10,0.0,0.0,0.0,1.0,2
2025/04/09 09:49:56.999442313,1744184996,999062442,mA1/gps,0,1,63.434603243470036,10.393090901004054,0.0,1.4400000000000002e-10,0.0,0.0,0.0,1.4400000000000002e-10,0.0,0.0,0.0,1.0,2
2025/04/09 09:49:57.49339651,1744184997,48853223,mA1/gps,0,1,63.43460336115241,10.39309089434712,0.0,1.4400000000000002e-10,0.0,0.0,0.0,1.4400000000000002e-10,0.0,0.0,0.0,1.0,2
2025/04/09 09:49:57.101438632,1744184997,101165198,mA1/gps,0,1,63.43460347762757,10.393090889538241,0.0,1.4400000000000002e-10,0.0,0.0,0.0,1.4400000000000002e-10,0.0,0.0,0.0,1.0,2
2025/04/09 09:49:57.150076264,1744184997,149806268,mA1/gps,0,1,63.43460359384205,10.393090887120996,0.0,1.4400000000000002e-10,0.0,0.0,0.0,1.4400000000000002e-10,0.0,0.0,0.0,1.0,2
2025/04/09 09:49:57.202297575,1744184997,202098663,mA1/gps,0,1,63.43460370878087,10.393090887644021,0.0,1.4400000000000002e-10,0.0,0.0,0.0,1.4400000000000002e-10,0.0,0.0,0.0,1.0,2
2025/04/09 09:49:57.252075085,1744184997,251868473,mA1/gps,0,1,63.43460382282901,10.39309089317894,0.0,1.4400000000000002e-10,0.0,0.0,0.0,1.4400000000000002e-10,0.0,0.0,0.0,1.0,2
2025/04/09 09:49:57.305739966,1744184997,303902645,mA1/gps,0,1,63.43460393635843,10.393090901712212,0.0,1.4400000000000002e-10,0.0,0.0,0.0,1.4400000000000002e-10,0.0,0.0,0.0,1.0,2
2025/04/09 09:49:57.354144456,1744184997,353778041,mA1/gps,0,1,63.43460405010873,10.393090910998618,0.0,1.4400000000000002e-10,0.0,0.0,0.0,1.4400000000000002e-10,0.0,0.0,0.0,1.0,2
2025/04/09 09:49:57.406410925,1744184997,406160161,mA1/gps,0,1,63.4346041646692,10.393090920520711,0.0,1.4400000000000002e-10,0.0,0.0,0.0,1.4400000000000002e-10,0.0,0.0,0.0,1.0,2
2025/04/09 09:49:57.446071960,1744184997,445878642,mA1/gps,0,1,63.43460427813337,10.393090928761312,0.0,1.4400000000000002e-10,0.0,0.0,0.0,1.4400000000000002e-10,0.0,0.0,0.0,1.0,2
2025/04/09 09:49:57.499533834,1744184997,498536019,mA1/gps,0,1,63.4346043942206,10.393090936358735,0.0,1.4400000000000002e-10,0.0,0.0,0.0,1.4400000000000002e-10,0.0,0.0,0.0,1.0,2
2025/04/09 09:49:57.550090010,1744184997,549846866,mA1/gps,0,1,63.43460451178009,10.393090939899022,0.0,1.4400000000000002e-10,0.0,0.0,0.0,1.4400000000000002e-10,0.0,0.0,0.0,1.0,2
2025/04/09 09:49:57.601832011,1744184997,601549924,mA1/gps,0,1,63.43460463244552,10.393090941630206,0.0,1.4400000000000002e-10,0.0,0.0,0.0,1.4400000000000002e-10,0.0,0.0,0.0,1.0,2
2025/04/09 09:49:57.651575169,1744184997,651359027,mA1/gps,0,1,63.43460475323905,10.393090940734218,0.0,1.4400000000000002e-10,0.0,0.0,0.0,1.4400000000000002e-10,0.0,0.0,0.0,1.0,2
2025/04/09 09:49:57.702549247,1744184997,702234143,mA1/gps,0,1,63.43460487603329,10.393090936347408,0.0,1.4400000000000002e-10,0.0,0.0,0.0,1.4400000000000002e-10,0.0,0.0,0.0,1.0,2
2025/04/09 09:49:57.752280929,1744184997,752080372,mA1/gps,0,1,63.434605002075216,10.393090928808483,0.0,1.4400000000000002e-10,0.0,0.0,0.0,1.4400000000000002e-10,0.0,0.0,0.0,1.0,2
2025/04/09 09:49:57.803279824,1744184997,803080170,mA1/gps,0,1,63.434605130855374,10.393090917742738,0.0,1.4400000000000002e-10,0.0,0.0,0.0,1.4400000000000002e-10,0.0,0.0,0.0,1.0,2
2025/04/09 09:49:57.854743749,1744184997,852917382,mA1/gps,0,1,63.43460526138495,10.393090905536368,0.0,1.4400000000000002e-10,0.0,0.0,0.0,1.4400000000000002e-10,0.0,0.0,0.0,1.0,2
2025/04/09 09:49:57.903968101,1744184997,903861318,mA1/gps,0,1,63.43460539396439,10.393090891515106,0.0,1.4400000000000002e-10,0.0,0.0,0.0,1.4400000000000002e-10,0.0,0.0,0.0,1.0,2
2025/04/09 09:49:57.954168317,1744184997,953738812,mA1/gps,0,1,63.43460552787982,10.393090877333222,0.0,1.4400000000000002e-10,0.0,0.0,0.0,1.4400000000000002e-10,0.0,0.0,0.0,1.0,2
2025/04/09 09:49:58.6214851,1744184998,6086825,mA1/gps,0,1,63.43460566440453,10.393090863003753,0.0,1.4400000000000002e-10,0.0,0.0,0.0,1.4400000000000002e-10,0.0,0.0,0.0,1.0,2
2025/04/09 09:49:58.46908634,1744184998,46653789,mA1/gps,0,1,63.43460580124469,10.39309084904218,0.0,1.4400000000000002e-10,0.0,0.0,0.0,1.4400000000000002e-10,0.0,0.0,0.0,1.0,2
2025/04/09 09:49:58.97549554,1744184998,97306581,mA1/gps,0,1,63.43460593977922,10.393090836800154,0.0,1.4400000000000002e-10,0.0,0.0,0.0,1.4400000000000002e-10,0.0,0.0,0.0,1.0,2
2025/04/09 09:49:58.148524659,1744184998,148384642,mA1/gps,0,1,63.434606077762716,10.39309082639971,0.0,1.4400000000000002e-10,0.0,0.0,0.0,1.4400000000000002e-10,0.0,0.0,0.0,1.0,2
2025/04/09 09:49:58.198699651,1744184998,198115415,mA1/gps,0,1,63.43460621760129,10.393090816950625,0.0,1.4400000000000002e-10,0.0,0.0,0.0,1.4400000000000002e-10,0.0,0.0,0.0,1.0,2
2025/04/09 09:49:58.250126800,1744184998,248535881,mA1/gps,0,1,63.43460635601357,10.393090810563589,0.0,1.4400000000000002e-10,0.0,0.0,0.0,1.4400000000000002e-10,0.0,0.0,0.0,1.0,2
2025/04/09 09:49:58.302860084,1744184998,299503091,mA1/gps,0,1,63.43460649397965,10.393090806720402,0.0,1.4400000000000002e-10,0.0,0.0,0.0,1.4400000000000002e-10,0.0,0.0,0.0,1.0,2
2025/04/09 09:49:58.349478297,1744184998,349271395,mA1/gps,0,1,63.43460663081852,10.393090805890642,0.0,1.4400000000000002e-10,0.0,0.0,0.0,1.4400000000000002e-10,0.0,0.0,0.0,1.0,2
2025/04/09 09:49:58.400524283,1744184998,400291353,mA1/gps,0,1,63.434606766848034,10.393090807613525,0.0,1.4400000000000002e-10,0.0,0.0,0.0,1.4400000000000002e-10,0.0,0.0,0.0,1.0,2
2025/04/09 09:49:58.450286326,1744184998,450081098,mA1/gps,0,1,63.434606901539716,10.393090812803475,0.0,1.4400000000000002e-10,0.0,0.0,0.0,1.4400000000000002e-10,0.0,0.0,0.0,1.0,2
2025/04/09 09:49:58.502031666,1744184998,501174817,mA1/gps,0,1,63.434607034191174,10.393090819019209,0.0,1.4400000000000002e-10,0.0,0.0,0.0,1.4400000000000002e-10,0.0,0.0,0.0,1.0,2
2025/04/09 09:49:58.551156497,1744184998,550967591,mA1/gps,0,1,63.43460716623218,10.393090827225153,0.0,1.4400000000000002e-10,0.0,0.0,0.0,1.4400000000000002e-10,0.0,0.0,0.0,1.0,2
2025/04/09 09:49:58.602388583,1744184998,602082610,mA1/gps,0,1,63.43460729602751,10.393090835530332,0.0,1.4400000000000002e-10,0.0,0.0,0.0,1.4400000000000002e-10,0.0,0.0,0.0,1.0,2
2025/04/09 09:49:58.653921171,1744184998,651899228,mA1/gps,0,1,63.4346074255653,10.393090843532113,0.0,1.4400000000000002e-10,0.0,0.0,0.0,1.4400000000000002e-10,0.0,0.0,0.0,1.0,2
2025/04/09 09:49:58.703212186,1744184998,702952880,mA1/gps,0,1,63.434607554829924,10.393090850135529,0.0,1.4400000000000002e-10,0.0,0.0,0.0,1.4400000000000002e-10,0.0,0.0,0.0,1.0,2
2025/04/09 09:49:58.752990579,1744184998,752893158,mA1/gps,0,1,63.43460768291362,10.393090856616332,0.0,1.4400000000000002e-10,0.0,0.0,0.0,1.4400000000000002e-10,0.0,0.0,0.0,1.0,2
2025/04/09 09:49:58.804525947,1744184998,804308857,mA1/gps,0,1,63.434607810791036,10.393090861405827,0.0,1.4400000000000002e-10,0.0,0.0,0.0,1.4400000000000002e-10,0.0,0.0,0.0,1.0,2
2025/04/09 09:49:58.855927944,1744184998,854185589,mA1/gps,0,1,63.434607938220964,10.393090864002419,0.0,1.4400000000000002e-10,0.0,0.0,0.0,1.4400000000000002e-10,0.0,0.0,0.0,1.0,2
2025/04/09 09:49:58.905295846,1744184998,905156749,mA1/gps,0,1,63.434608066424346,10.393090864071857,0.0,1.4400000000000002e-10,0.0,0.0,0.0,1.4400000000000002e-10,0.0,0.0,0.0,1.0,2
2025/04/09 09:49:58.955404114,1744184998,955081881,mA1/gps,0,1,63.43460819471046,10.393090862006433,0.0,1.4400000000000002e-10,0.0,0.0,0.0,1.4400000000000002e-10,0.0,0.0,0.0,1.0,2
2025/04/09 09:49:59.6143869,1744184999,5927967,mA1/gps,0,1,63.4346083260337,10.393090858635519,0.0,1.4400000000000002e-10,0.0,0.0,0.0,1.4400000000000002e-10,0.0,0.0,0.0,1.0,2
2025/04/09 09:49:59.46202158,1744184999,45984396,mA1/gps,0,1,63.43460845879138,10.393090852981834,0.0,1.4400000000000002e-10,0.0,0.0,0.0,1.4400000000000002e-10,0.0,0.0,0.0,1.0,2
2025/04/09 09:49:59.98722527,1744184999,96910952,mA1/gps,0,1,63.43460859228501,10.393090845967789,0.0,1.4400000000000002e-10,0.0,0.0,0.0,1.4400000000000002e-10,0.0,0.0,0.0,1.0,2
2025/04/09 09:49:59.146972040,1744184999,146750097,mA1/gps,0,1,63.43460872833365,10.393090838363381,0.0,1.4400000000000002e-10,0.0,0.0,0.0,1.4400000000000002e-10,0.0,0.0,0.0,1.0,2
2025/04/09 09:49:59.197905089,1744184999,197695693,mA1/gps,0,1,63.43460886481921,10.393090830241336,0.0,1.4400000000000002e-10,0.0,0.0,0.0,1.4400000000000002e-10,0.0,0.0,0.0,1.0,2
2025/04/09 09:49:59.248513441,1744184999,247582401,mA1/gps,0,1,63.43460900429847,10.393090822107624,0.0,1.4400000000000002e-10,0.0,0.0,0.0,1.4400000000000002e-10,0.0,0.0,0.0,1.0,2
2025/04/09 09:49:59.299046282,1744184999,298528792,mA1/gps,0,1,63.434609146087645,10.393090814906287,0.0,1.4400000000000002e-10,0.0,0.0,0.0,1.4400000000000002e-10,0.0,0.0,0.0,1.0,2
2025/04/09 09:49:59.348561189,1744184999,348368772,mA1/gps,0,1,63.43460928984412,10.393090807550397,0.0,1.4400000000000002e-10,0.0,0.0,0.0,1.4400000000000002e-10,0.0,0.0,0.0,1.0,2
2025/04/09 09:49:59.400303687,1744184999,399396258,mA1/gps,0,1,63.43460943618117,10.393090800731498,0.0,1.4400000000000002e-10,0.0,0.0,0.0,1.4400000000000002e-10,0.0,0.0,0.0,1.0,2
2025/04/09 09:49:59.449420765,1744184999,449190477,mA1/gps,0,1,63.4346095825905,10.393090796091574,0.0,1.4400000000000002e-10,0.0,0.0,0.0,1.4400000000000002e-10,0.0,0.0,0.0,1.0,2
2025/04/09 09:49:59.502106942,1744184999,501740689,mA1/gps,0,1,63.434609730269095,10.393090793778835,0.0,1.4400000000000002e-10,0.0,0.0,0.0,1.4400000000000002e-10,0.0,0.0,0.0,1.0,2
2025/04/09 09:49:59.551698395,1744184999,551535811,mA1/gps,0,1,63.43460987822734,10.393090792191689,0.0,1.4400000000000002e-10,0.0,0.0,0.0,1.4400000000000002e-10,0.0,0.0,0.0,1.0,2
2025/04/09 09:49:59.603857149,1744184999,602518677,mA1/gps,0,1,63.434610027991106,10.393090792184802,0.0,1.4400000000000002e-10,0.0,0.0,0.0,1.4400000000000002e-10,0.0,0.0,0.0,1.0,2
2025/04/09 09:49:59.652657318,1744184999,652492838,mA1/gps,0,1,63.43461017788188,10.39309079332814,0.0,1.4400000000000002e-10,0.0,0.0,0.0,1.4400000000000002e-10,0.0,0.0,0.0,1.0,2
2025/04/09 09:49:59.703799984,1744184999,703499198,mA1/gps,0,1,63.43461032825408,10.393090794891133,0.0,1.4400000000000002e-10,0.0,0.0,0.0,1.4400000000000002e-10,0.0,0.0,0.0,1.0,2
2025/04/09 09:49:59.755517494,1744184999,755430173,mA1/gps,0,1,63.43461047721985,10.393090797666224,0.0,1.4400000000000002e-10,0.0,0.0,0.0,1.4400000000000002e-10,0.0,0.0,0.0,1.0,2
2025/04/09 09:49:59.806320101,1744184999,806092528,mA1/gps,0,1,63.43461062520068,10.393090801268594,0.0,1.4400000000000002e-10,0.0,0.0,0.0,1.4400000000000002e-10,0.0,0.0,0.0,1.0,2
2025/04/09 09:49:59.846815844,1744184999,846530325,mA1/gps,0,1,63.43461077126157,10.393090806324038,0.0,1.4400000000000002e-10,0.0,0.0,0.0,1.4400000000000002e-10,0.0,0.0,0.0,1.0,2
2025/04/09 09:49:59.896985628,1744184999,896760788,mA1/gps,0,1,63.43461091699615,10.393090810526765,0.0,1.4400000000000002e-10,0.0,0.0,0.0,1.4400000000000002e-10,0.0,0.0,0.0,1.0,2
2025/04/09 09:49:59.946871771,1744184999,946668976,mA1/gps,0,1,63.43461106232607,10.39309081536431,0.0,1.4400000000000002e-10,0.0,0.0,0.0,1.4400000000000002e-10,0.0,0.0,0.0,1.0,2
2025/04/09 09:49:59.997935277,1744184999,997678993,mA1/gps,0,1,63.43461120651379,10.393090818768338,0.0,1.4400000000000002e-10,0.0,0.0,0.0,1.4400000000000002e-10,0.0,0.0,0.0,1.0,2
2025/04/09 09:50:00.47584616,1744185000,47398683,mA1/gps,0,1,63.43461134871834,10.393090821991185,0.0,1.4400000000000002e-10,0.0,0.0,0.0,1.4400000000000002e-10,0.0,0.0,0.0,1.0,2
2025/04/09 09:50:00.98620759,1744185000,98367194,mA1/gps,0,1,63.434611488599984,10.393090822964675,0.0,1.4400000000000002e-10,0.0,0.0,0.0,1.4400000000000002e-10,0.0,0.0,0.0,1.0,2
2025/04/09 09:50:00.148357922,1744185000,148178838,mA1/gps,0,1,63.43461162752975,10.39309082321777,0.0,1.4400000000000002e-10,0.0,0.0,0.0,1.4400000000000002e-10,0.0,0.0,0.0,1.0,2
2025/04/09 09:50:00.199567466,1744185000,199417656,mA1/gps,0,1,63.43461176631002,10.39309082124883,0.0,1.4400000000000002e-10,0.0,0.0,0.0,1.4400000000000002e-10,0.0,0.0,0.0,1.0,2
2025/04/09 09:50:00.249256829,1744185000,248989156,mA1/gps,0,1,63.43461190601994,10.393090818275375,0.0,1.4400000000000002e-10,0.0,0.0,0.0,1.4400000000000002e-10,0.0,0.0,0.0,1.0,2
2025/04/09 09:50:00.300713326,1744185000,300592755,mA1/gps,0,1,63.43461204580135,10.393090813888556,0.0,1.4400000000000002e-10,0.0,0.0,0.0,1.4400000000000002e-10,0.0,0.0,0.0,1.0,2
2025/04/09 09:50:00.350585899,1744185000,350418402,mA1/gps,0,1,63.434612184823116,10.393090808789553,0.0,1.4400000000000002e-10,0.0,0.0,0.0,1.4400000000000002e-10,0.0,0.0,0.0,1.0,2
2025/04/09 09:50:00.401973157,1744185000,401803577,mA1/gps,0,1,63.4346123230485,10.393090803362199,0.0,1.4400000000000002e-10,0.0,0.0,0.0,1.4400000000000002e-10,0.0,0.0,0.0,1.0,2
2025/04/09 09:50:00.451866121,1744185000,451700478,mA1/gps,0,1,63.43461246291858,10.393090797699916,0.0,1.4400000000000002e-10,0.0,0.0,0.0,1.4400000000000002e-10,0.0,0.0,0.0,1.0,2
2025/04/09 09:50:00.505297108,1744185000,504937318,mA1/gps,0,1,63.4346126046086,10.393090792681184,0.0,1.4400000000000002e-10,0.0,0.0,0.0,1.4400000000000002e-10,0.0,0.0,0.0,1.0,2
2025/04/09 09:50:00.552977382,1744185000,552727481,mA1/gps,0,1,63.43461274701617,10.393090788190346,0.0,1.4400000000000002e-10,0.0,0.0,0.0,1.4400000000000002e-10,0.0,0.0,0.0,1.0,2
2025/04/09 09:50:00.606425585,1744185000,606085451,mA1/gps,0,1,63.43461289223236,10.393090784449758,0.0,1.4400000000000002e-10,0.0,0.0,0.0,1.4400000000000002e-10,0.0,0.0,0.0,1.0,2
2025/04/09 09:50:00.656764849,1744185000,655925112,mA1/gps,0,1,63.43461303892304,10.39309078196277,0.0,1.4400000000000002e-10,0.0,0.0,0.0,1.4400000000000002e-10,0.0,0.0,0.0,1.0,2
2025/04/09 09:50:00.696878197,1744185000,696701597,mA1/gps,0,1,63.434613187742805,10.393090781053903,0.0,1.4400000000000002e-10,0.0,0.0,0.0,1.4400000000000002e-10,0.0,0.0,0.0,1.0,2
2025/04/09 09:50:00.747990882,1744185000,746775940,mA1/gps,0,1,63.434613337851935,10.393090783075975,0.0,1.4400000000000002e-10,0.0,0.0,0.0,1.4400000000000002e-10,0.0,0.0,0.0,1.0,2
2025/04/09 09:50:00.797979292,1744185000,797664494,mA1/gps,0,1,63.434613489649124,10.393090785928708,0.0,1.4400000000000002e-10,0.0,0.0,0.0,1.4400000000000002e-10,0.0,0.0,0.0,1.0,2
2025/04/09 09:50:00.847707733,1744185000,847466874,mA1/gps,0,1,63.434613644228065,10.39309079002198,0.0,1.4400000000000002e-10,0.0,0.0,0.0,1.4400000000000002e-10,0.0,0.0,0.0,1.0,2
2025/04/09 09:50:00.900965721,1744185000,898494492,mA1/gps,0,1,63.43461379826726,10.39309079723066,0.0,1.4400000000000002e-10,0.0,0.0,0.0,1.4400000000000002e-10,0.0,0.0,0.0,1.0,2
2025/04/09 09:50:00.949519800,1744185000,948346864,mA1/gps,0,1,63.43461395592242,10.393090803940774,0.0,1.4400000000000002e-10,0.0,0.0,0.0,1.4400000000000002e-10,0.0,0.0,0.0,1.0,2
2025/04/09 09:50:00.999897768,1744185000,999341237,mA1/gps,0,1,63.43461411385811,10.393090812083411,0.0,1.4400000000000002e-10,0.0,0.0,0.0,1.4400000000000002e-10,0.0,0.0,0.0,1.0,2
2025/04/09 09:50:01.49573556,1744185001,49145563,mA1/gps,0,1,63.43461426993962,10.393090819854505,0.0,1.4400000000000002e-10,0.0,0.0,0.0,1.4400000000000002e-10,0.0,0.0,0.0,1.0,2
2025/04/09 09:50:01.103508760,1744185001,102386722,mA1/gps,0,1,63.43461442939891,10.393090827788217,0.0,1.4400000000000002e-10,0.0,0.0,0.0,1.4400000000000002e-10,0.0,0.0,0.0,1.0,2
2025/04/09 09:50:01.153713095,1744185001,152244395,mA1/gps,0,1,63.43461458648143,10.393090835414782,0.0,1.4400000000000002e-10,0.0,0.0,0.0,1.4400000000000002e-10,0.0,0.0,0.0,1.0,2
2025/04/09 09:50:01.203394337,1744185001,203176340,mA1/gps,0,1,63.434614744636114,10.393090841152336,0.0,1.4400000000000002e-10,0.0,0.0,0.0,1.4400000000000002e-10,0.0,0.0,0.0,1.0,2
2025/04/09 09:50:01.253208093,1744185001,252987302,mA1/gps,0,1,63.434614901926736,10.393090846808379,0.0,1.4400000000000002e-10,0.0,0.0,0.0,1.4400000000000002e-10,0.0,0.0,0.0,1.0,2
2025/04/09 09:50:01.304072709,1744185001,303935826,mA1/gps,0,1,63.43461505801546,10.393090849919762,0.0,1.4400000000000002e-10,0.0,0.0,0.0,1.4400000000000002e-10,0.0,0.0,0.0,1.0,2
2025/04/09 09:50:01.353831235,1744185001,353718444,mA1/gps,0,1,63.43461521345289,10.393090852864525,0.0,1.4400000000000002e-10,0.0,0.0,0.0,1.4400000000000002e-10,0.0,0.0,0.0,1.0,2
2025/04/09 09:50:01.405002194,1744185001,404849938,mA1/gps,0,1,63.43461536718789,10.393090853851495,0.0,1.4400000000000002e-10,0.0,0.0,0.0,1.4400000000000002e-10,0.0,0.0,0.0,1.0,2
2025/04/09 09:50:01.456445416,1744185001,454575801,mA1/gps,0,1,63.43461552099979,10.393090853834796,0.0,1.4400000000000002e-10,0.0,0.0,0.0,1.4400000000000002e-10,0.0,0.0,0.0,1.0,2
2025/04/09 09:50:01.507656950,1744185001,505617365,mA1/gps,0,1,63.434615672219955,10.393090853525171,0.0,1.4400000000000002e-10,0.0,0.0,0.0,1.4400000000000002e-10,0.0,0.0,0.0,1.0,2
2025/04/09 09:50:01.555485506,1744185001,555333787,mA1/gps,0,1,63.4346158218834,10.393090851189786,0.0,1.4400000000000002e-10,0.0,0.0,0.0,1.4400000000000002e-10,0.0,0.0,0.0,1.0,2
2025/04/09 09:50:01.606640780,1744185001,606416720,mA1/gps,0,1,63.43461597165287,10.393090849064698,0.0,1.4400000000000002e-10,0.0,0.0,0.0,1.4400000000000002e-10,0.0,0.0,0.0,1.0,2
2025/04/09 09:50:01.646347792,1744185001,646197881,mA1/gps,0,1,63.43461611906094,10.39309084813179,0.0,1.4400000000000002e-10,0.0,0.0,0.0,1.4400000000000002e-10,0.0,0.0,0.0,1.0,2
2025/04/09 09:50:01.697425070,1744185001,697144330,mA1/gps,0,1,63.43461626818792,10.393090846965222,0.0,1.4400000000000002e-10,0.0,0.0,0.0,1.4400000000000002e-10,0.0,0.0,0.0,1.0,2
2025/04/09 09:50:01.748350497,1744185001,746978007,mA1/gps,0,1,63.434616414894975,10.393090847428404,0.0,1.4400000000000002e-10,0.0,0.0,0.0,1.4400000000000002e-10,0.0,0.0,0.0,1.0,2
2025/04/09 09:50:01.800376334,1744185001,798372093,mA1/gps,0,1,63.434616562491996,10.393090848533932,0.0,1.4400000000000002e-10,0.0,0.0,0.0,1.4400000000000002e-10,0.0,0.0,0.0,1.0,2
2025/04/09 09:50:01.849336424,1744185001,849173283,mA1/gps,0,1,63.434616712905616,10.393090851553668,0.0,1.4400000000000002e-10,0.0,0.0,0.0,1.4400000000000002e-10,0.0,0.0,0.0,1.0,2
2025/04/09 09:50:01.903096976,1744185001,902639885,mA1/gps,0,1,63.434616860605324,10.393090855523168,0.0,1.4400000000000002e-10,0.0,0.0,0.0,1.4400000000000002e-10,0.0,0.0,0.0,1.0,2
2025/04/09 09:50:01.950924476,1744185001,950645847,mA1/gps,0,1,63.43461701177689,10.393090861015793,0.0,1.4400000000000002e-10,0.0,0.0,0.0,1.4400000000000002e-10,0.0,0.0,0.0,1.0,2
2025/04/09 09:50:02.2050834,1744185002,1636061,mA1/gps,0,1,63.43461716402027,10.393090867264435,0.0,1.4400000000000002e-10,0.0,0.0,0.0,1.4400000000000002e-10,0.0,0.0,0.0,1.0,2
2025/04/09 09:50:02.52421455,1744185002,52024727,mA1/gps,0,1,63.434617316242665,10.39309087473057,0.0,1.4400000000000002e-10,0.0,0.0,0.0,1.4400000000000002e-10,0.0,0.0,0.0,1.0,2
2025/04/09 09:50:02.103534134,1744185002,103339578,mA1/gps,0,1,63.43461747158292,10.393090883321088,0.0,1.4400000000000002e-10,0.0,0.0,0.0,1.4400000000000002e-10,0.0,0.0,0.0,1.0,2
2025/04/09 09:50:02.153337407,1744185002,153150961,mA1/gps,0,1,63.43461762834751,10.393090892868408,0.0,1.4400000000000002e-10,0.0,0.0,0.0,1.4400000000000002e-10,0.0,0.0,0.0,1.0,2
2025/04/09 09:50:02.204436491,1744185002,204258333,mA1/gps,0,1,63.43461778723607,10.393090902408886,0.0,1.4400000000000002e-10,0.0,0.0,0.0,1.4400000000000002e-10,0.0,0.0,0.0,1.0,2
2025/04/09 09:50:02.254788674,1744185002,254130177,mA1/gps,0,1,63.43461794821679,10.39309091243868,0.0,1.4400000000000002e-10,0.0,0.0,0.0,1.4400000000000002e-10,0.0,0.0,0.0,1.0,2
2025/04/09 09:50:02.305395562,1744185002,305156664,mA1/gps,0,1,63.434618109310726,10.393090922097006,0.0,1.4400000000000002e-10,0.0,0.0,0.0,1.4400000000000002e-10,0.0,0.0,0.0,1.0,2
2025/04/09 09:50:02.355165441,1744185002,354927441,mA1/gps,0,1,63.43461827260047,10.393090930920637,0.0,1.4400000000000002e-10,0.0,0.0,0.0,1.4400000000000002e-10,0.0,0.0,0.0,1.0,2
2025/04/09 09:50:02.408192231,1744185002,405925452,mA1/gps,0,1,63.43461843729487,10.393090938737409,0.0,1.4400000000000002e-10,0.0,0.0,0.0,1.4400000000000002e-10,0.0,0.0,0.0,1.0,2
2025/04/09 09:50:02.456020749,1744185002,455722066,mA1/gps,0,1,63.43461860314496,10.393090944623646,0.0,1.4400000000000002e-10,0.0,0.0,0.0,1.4400000000000002e-10,0.0,0.0,0.0,1.0,2
2025/04/09 09:50:02.498128195,1744185002,496542019,mA1/gps,0,1,63.43461876892067,10.393090948717617,0.0,1.4400000000000002e-10,0.0,0.0,0.0,1.4400000000000002e-10,0.0,0.0,0.0,1.0,2
2025/04/09 09:50:02.546604083,1744185002,546385346,mA1/gps,0,1,63.434618934770164,10.393090951311017,0.0,1.4400000000000002e-10,0.0,0.0,0.0,1.4400000000000002e-10,0.0,0.0,0.0,1.0,2
2025/04/09 09:50:02.600136797,1744185002,597384275,mA1/gps,0,1,63.43461909937498,10.393090951454317,0.0,1.4400000000000002e-10,0.0,0.0,0.0,1.4400000000000002e-10,0.0,0.0,0.0,1.0,2
2025/04/09 09:50:02.647797466,1744185002,647536343,mA1/gps,0,1,63.43461926425096,10.39309095101023,0.0,1.4400000000000002e-10,0.0,0.0,0.0,1.4400000000000002e-10,0.0,0.0,0.0,1.0,2
2025/04/09 09:50:02.700376506,1744185002,699278797,mA1/gps,0,1,63.43461942966317,10.393090948480667,0.0,1.4400000000000002e-10,0.0,0.0,0.0,1.4400000000000002e-10,0.0,0.0,0.0,1.0,2
2025/04/09 09:50:02.748751274,1744185002,748626102,mA1/gps,0,1,63.434619589581246,10.393090944848714,0.0,1.4400000000000002e-10,0.0,0.0,0.0,1.4400000000000002e-10,0.0,0.0,0.0,1.0,2
2025/04/09 09:50:02.799903931,1744185002,799632373,mA1/gps,0,1,63.4346197492586,10.393090941406124,0.0,1.4400000000000002e-10,0.0,0.0,0.0,1.4400000000000002e-10,0.0,0.0,0.0,1.0,2
2025/04/09 09:50:02.849635795,1744185002,849408419,mA1/gps,0,1,63.4346199073106,10.393090937848227,0.0,1.4400000000000002e-10,0.0,0.0,0.0,1.4400000000000002e-10,0.0,0.0,0.0,1.0,2
2025/04/09 09:50:02.902552656,1744185002,901289570,mA1/gps,0,1,63.43462006426939,10.393090932456408,0.0,1.4400000000000002e-10,0.0,0.0,0.0,1.4400000000000002e-10,0.0,0.0,0.0,1.0,2
2025/04/09 09:50:02.951268765,1744185002,950990028,mA1/gps,0,1,63.43462021538976,10.3930909303421,0.0,1.4400000000000002e-10,0.0,0.0,0.0,1.4400000000000002e-10,0.0,0.0,0.0,1.0,2
2025/04/09 09:50:03.4677944,1744185003,2029688,mA1/gps,0,1,63.434620366347275,10.393090928187604,0.0,1.4400000000000002e-10,0.0,0.0,0.0,1.4400000000000002e-10,0.0,0.0,0.0,1.0,2
2025/04/09 09:50:03.53211624,1744185003,52868708,mA1/gps,0,1,63.43462051489558,10.393090927785089,0.0,1.4400000000000002e-10,0.0,0.0,0.0,1.4400000000000002e-10,0.0,0.0,0.0,1.0,2
2025/04/09 09:50:03.104667940,1744185003,104416151,mA1/gps,0,1,63.4346206604434,10.3930909301876,0.0,1.4400000000000002e-10,0.0,0.0,0.0,1.4400000000000002e-10,0.0,0.0,0.0,1.0,2
2025/04/09 09:50:03.154617051,1744185003,154199885,mA1/gps,0,1,63.4346208048929,10.393090935196446,0.0,1.4400000000000002e-10,0.0,0.0,0.0,1.4400000000000002e-10,0.0,0.0,0.0,1.0,2
2025/04/09 09:50:03.205456311,1744185003,205168539,mA1/gps,0,1,63.4346209466074,10.393090942647772,0.0,1.4400000000000002e-10,0.0,0.0,0.0,1.4400000000000002e-10,0.0,0.0,0.0,1.0,2
2025/04/09 09:50:03.255244041,1744185003,254959246,mA1/gps,0,1,63.43462108702256,10.39309095122654,0.0,1.4400000000000002e-10,0.0,0.0,0.0,1.4400000000000002e-10,0.0,0.0,0.0,1.0,2
2025/04/09 09:50:03.306110472,1744185003,305880433,mA1/gps,0,1,63.4346212249022,10.393090962301805,0.0,1.4400000000000002e-10,0.0,0.0,0.0,1.4400000000000002e-10,0.0,0.0,0.0,1.0,2
2025/04/09 09:50:03.356038742,1744185003,355658938,mA1/gps,0,1,63.43462136267222,10.393090973376133,0.0,1.4400000000000002e-10,0.0,0.0,0.0,1.4400000000000002e-10,0.0,0.0,0.0,1.0,2
2025/04/09 09:50:03.396793422,1744185003,396552355,mA1/gps,0,1,63.43462149944828,10.393090986758049,0.0,1.4400000000000002e-10,0.0,0.0,0.0,1.4400000000000002e-10,0.0,0.0,0.0,1.0,2
2025/04/09 09:50:03.447756899,1744185003,447668942,mA1/gps,0,1,63.43462163594729,10.393091001520796,0.0,1.4400000000000002e-10,0.0,0.0,0.0,1.4400000000000002e-10,0.0,0.0,0.0,1.0,2
2025/04/09 09:50:03.498376241,1744185003,497372592,mA1/gps,0,1,63.434621772983775,10.393091016890923,0.0,1.4400000000000002e-10,0.0,0.0,0.0,1.4400000000000002e-10,0.0,0.0,0.0,1.0,2
2025/04/09 09:50:03.547444729,1744185003,547207028,mA1/gps,0,1,63.43462191010669,10.393091031018647,0.0,1.4400000000000002e-10,0.0,0.0,0.0,1.4400000000000002e-10,0.0,0.0,0.0,1.0,2
2025/04/09 09:50:03.599340883,1744185003,598209838,mA1/gps,0,1,63.43462204509069,10.393091044425947,0.0,1.4400000000000002e-10,0.0,0.0,0.0,1.4400000000000002e-10,0.0,0.0,0.0,1.0,2
2025/04/09 09:50:03.648207435,1744185003,647971351,mA1/gps,0,1,63.43462218234699,10.393091054097576,0.0,1.4400000000000002e-10,0.0,0.0,0.0,1.4400000000000002e-10,0.0,0.0,0.0,1.0,2
2025/04/09 09:50:03.703110930,1744185003,700020562,mA1/gps,0,1,63.43462231952371,10.393091060642966,0.0,1.4400000000000002e-10,0.0,0.0,0.0,1.4400000000000002e-10,0.0,0.0,0.0,1.0,2
2025/04/09 09:50:03.749153333,1744185003,748964536,mA1/gps,0,1,63.43462245790605,10.393091065104013,0.0,1.4400000000000002e-10,0.0,0.0,0.0,1.4400000000000002e-10,0.0,0.0,0.0,1.0,2
2025/04/09 09:50:03.800967154,1744185003,800729832,mA1/gps,0,1,63.43462259440677,10.393091066440862,0.0,1.4400000000000002e-10,0.0,0.0,0.0,1.4400000000000002e-10,0.0,0.0,0.0,1.0,2
2025/04/09 09:50:03.851482093,1744185003,851396771,mA1/gps,0,1,63.43462273313078,10.393091065773822,0.0,1.4400000000000002e-10,0.0,0.0,0.0,1.4400000000000002e-10,0.0,0.0,0.0,1.0,2
2025/04/09 09:50:03.901448100,1744185003,901341073,mA1/gps,0,1,63.43462287000679,10.393091063200442,0.0,1.4400000000000002e-10,0.0,0.0,0.0,1.4400000000000002e-10,0.0,0.0,0.0,1.0,2
2025/04/09 09:50:03.953799372,1744185003,952086287,mA1/gps,0,1,63.43462300862159,10.393091058941186,0.0,1.4400000000000002e-10,0.0,0.0,0.0,1.4400000000000002e-10,0.0,0.0,0.0,1.0,2
2025/04/09 09:50:04.4699963,1744185004,4398462,mA1/gps,0,1,63.434623145374665,10.393091053710469,0.0,1.4400000000000002e-10,0.0,0.0,0.0,1.4400000000000002e-10,0.0,0.0,0.0,1.0,2
2025/04/09 09:50:04.56122780,1744185004,54227824,mA1/gps,0,1,63.43462328189463,10.393091048357402,0.0,1.4400000000000002e-10,0.0,0.0,0.0,1.4400000000000002e-10,0.0,0.0,0.0,1.0,2
2025/04/09 09:50:04.105638662,1744185004,105413351,mA1/gps,0,1,63.43462341561087,10.393091043075103,0.0,1.4400000000000002e-10,0.0,0.0,0.0,1.4400000000000002e-10,0.0,0.0,0.0,1.0,2
2025/04/09 09:50:04.157592090,1744185004,155231501,mA1/gps,0,1,63.434623548627954,10.393091038418051,0.0,1.4400000000000002e-10,0.0,0.0,0.0,1.4400000000000002e-10,0.0,0.0,0.0,1.0,2
