time,header_stamp_secs,header_stamp_nsecs,header_frame_id,name_0,name_1,name_2,name_3,position_0,position_1,position_2,position_3
2025/04/09 09:49:46.883574304,0,0,,mA1/azimuth_1_joint,mA1/azimuth_2_joint,mA1/azimuth_3_joint,mA1/azimuth_4_joint,2.3387411976724017,-2.356194490192345,-0.767944870877505,0.767944870877505
2025/04/09 09:49:46.983415600,0,0,,mA1/azimuth_1_joint,mA1/azimuth_2_joint,mA1/azimuth_3_joint,mA1/azimuth_4_joint,2.3387411976724017,-2.356194490192345,-0.767944870877505,0.767944870877505
2025/04/09 09:49:47.86202196,0,0,,mA1/azimuth_1_joint,mA1/azimuth_2_joint,mA1/azimuth_3_joint,mA1/azimuth_4_joint,2.3387411976724017,-2.356194490192345,-0.767944870877505,0.767944870877505
2025/04/09 09:49:47.185173915,0,0,,mA1/azimuth_1_joint,mA1/azimuth_2_joint,mA1/azimuth_3_joint,mA1/azimuth_4_joint,2.3387411976724017,-2.356194490192345,-0.767944870877505,0.767944870877505
2025/04/09 09:49:47.286688420,0,0,,mA1/azimuth_1_joint,mA1/azimuth_2_joint,mA1/azimuth_3_joint,mA1/azimuth_4_joint,2.3387411976724017,-2.356194490192345,-0.767944870877505,0.767944870877505
2025/04/09 09:49:47.383607073,0,0,,mA1/azimuth_1_joint,mA1/azimuth_2_joint,mA1/azimuth_3_joint,mA1/azimuth_4_joint,2.3387411976724017,-2.356194490192345,-0.767944870877505,0.767944870877505
2025/04/09 09:49:47.483462135,0,0,,mA1/azimuth_1_joint,mA1/azimuth_2_joint,mA1/azimuth_3_joint,mA1/azimuth_4_joint,2.3387411976724017,-2.356194490192345,-0.767944870877505,0.767944870877505
2025/04/09 09:49:47.584132285,0,0,,mA1/azimuth_1_joint,mA1/azimuth_2_joint,mA1/azimuth_3_joint,mA1/azimuth_4_joint,2.3387411976724017,-2.356194490192345,-0.767944870877505,0.767944870877505
2025/04/09 09:49:47.689448956,0,0,,mA1/azimuth_1_joint,mA1/azimuth_2_joint,mA1/azimuth_3_joint,mA1/azimuth_4_joint,2.3387411976724017,-2.356194490192345,-0.767944870877505,0.767944870877505
2025/04/09 09:49:47.784178229,0,0,,mA1/azimuth_1_joint,mA1/azimuth_2_joint,mA1/azimuth_3_joint,mA1/azimuth_4_joint,2.3387411976724017,-2.356194490192345,-0.767944870877505,0.767944870877505
2025/04/09 09:49:47.883948233,0,0,,mA1/azimuth_1_joint,mA1/azimuth_2_joint,mA1/azimuth_3_joint,mA1/azimuth_4_joint,2.3387411976724017,-2.356194490192345,-0.767944870877505,0.767944870877505
2025/04/09 09:49:47.983746955,0,0,,mA1/azimuth_1_joint,mA1/azimuth_2_joint,mA1/azimuth_3_joint,mA1/azimuth_4_joint,2.3387411976724017,-2.356194490192345,-0.767944870877505,0.767944870877505
2025/04/09 09:49:48.83933596,0,0,,mA1/azimuth_1_joint,mA1/azimuth_2_joint,mA1/azimuth_3_joint,mA1/azimuth_4_joint,2.3387411976724017,-2.356194490192345,-0.767944870877505,0.767944870877505
2025/04/09 09:49:48.183737611,0,0,,mA1/azimuth_1_joint,mA1/azimuth_2_joint,mA1/azimuth_3_joint,mA1/azimuth_4_joint,2.3387411976724017,-2.356194490192345,-0.767944870877505,0.767944870877505
2025/04/09 09:49:48.284136801,0,0,,mA1/azimuth_1_joint,mA1/azimuth_2_joint,mA1/azimuth_3_joint,mA1/azimuth_4_joint,2.3387411976724017,-2.356194490192345,-0.767944870877505,0.767944870877505
2025/04/09 09:49:48.383447908,0,0,,mA1/azimuth_1_joint,mA1/azimuth_2_joint,mA1/azimuth_3_joint,mA1/azimuth_4_joint,2.3387411976724017,-2.356194490192345,-0.767944870877505,0.767944870877505
2025/04/09 09:49:48.483451413,0,0,,mA1/azimuth_1_joint,mA1/azimuth_2_joint,mA1/azimuth_3_joint,mA1/azimuth_4_joint,2.3387411976724017,-2.356194490192345,-0.767944870877505,0.767944870877505
2025/04/09 09:49:48.583588382,0,0,,mA1/azimuth_1_joint,mA1/azimuth_2_joint,mA1/azimuth_3_joint,mA1/azimuth_4_joint,2.3387411976724017,-2.356194490192345,-0.767944870877505,0.767944870877505
2025/04/09 09:49:48.685116452,0,0,,mA1/azimuth_1_joint,mA1/azimuth_2_joint,mA1/azimuth_3_joint,mA1/azimuth_4_joint,2.3387411976724017,-2.356194490192345,-0.767944870877505,0.767944870877505
2025/04/09 09:49:48.783825404,0,0,,mA1/azimuth_1_joint,mA1/azimuth_2_joint,mA1/azimuth_3_joint,mA1/azimuth_4_joint,2.3387411976724017,-2.356194490192345,-0.767944870877505,0.767944870877505
2025/04/09 09:49:48.884641626,0,0,,mA1/azimuth_1_joint,mA1/azimuth_2_joint,mA1/azimuth_3_joint,mA1/azimuth_4_joint,2.3387411976724017,-2.356194490192345,-0.767944870877505,0.767944870877505
2025/04/09 09:49:48.983502166,0,0,,mA1/azimuth_1_joint,mA1/azimuth_2_joint,mA1/azimuth_3_joint,mA1/azimuth_4_joint,2.3387411976724017,-2.356194490192345,-0.767944870877505,0.767944870877505
2025/04/09 09:49:49.84296955,0,0,,mA1/azimuth_1_joint,mA1/azimuth_2_joint,mA1/azimuth_3_joint,mA1/azimuth_4_joint,2.3387411976724017,-2.356194490192345,-0.767944870877505,0.767944870877505
2025/04/09 09:49:49.184440494,0,0,,mA1/azimuth_1_joint,mA1/azimuth_2_joint,mA1/azimuth_3_joint,mA1/azimuth_4_joint,2.3387411976724017,-2.356194490192345,-0.767944870877505,0.767944870877505
2025/04/09 09:49:49.284192922,0,0,,mA1/azimuth_1_joint,mA1/azimuth_2_joint,mA1/azimuth_3_joint,mA1/azimuth_4_joint,2.3387411976724017,-2.356194490192345,-0.767944870877505,0.767944870877505
2025/04/09 09:49:49.383616103,0,0,,mA1/azimuth_1_joint,mA1/azimuth_2_joint,mA1/azimuth_3_joint,mA1/azimuth_4_joint,2.3387411976724017,-2.356194490192345,-0.767944870877505,0.767944870877505
2025/04/09 09:49:49.484304712,0,0,,mA1/azimuth_1_joint,mA1/azimuth_2_joint,mA1/azimuth_3_joint,mA1/azimuth_4_joint,2.3387411976724017,-2.356194490192345,-0.767944870877505,0.767944870877505
2025/04/09 09:49:49.583628039,0,0,,mA1/azimuth_1_joint,mA1/azimuth_2_joint,mA1/azimuth_3_joint,mA1/azimuth_4_joint,2.3387411976724017,-2.356194490192345,-0.767944870877505,0.767944870877505
2025/04/09 09:49:49.684413393,0,0,,mA1/azimuth_1_joint,mA1/azimuth_2_joint,mA1/azimuth_3_joint,mA1/azimuth_4_joint,2.3387411976724017,-2.356194490192345,-0.767944870877505,0.767944870877505
2025/04/09 09:49:49.784280006,0,0,,mA1/azimuth_1_joint,mA1/azimuth_2_joint,mA1/azimuth_3_joint,mA1/azimuth_4_joint,2.3387411976724017,-2.356194490192345,-0.767944870877505,0.767944870877505
2025/04/09 09:49:49.885169137,0,0,,mA1/azimuth_1_joint,mA1/azimuth_2_joint,mA1/azimuth_3_joint,mA1/azimuth_4_joint,2.3387411976724017,-2.356194490192345,-0.767944870877505,0.767944870877505
2025/04/09 09:49:49.984453021,0,0,,mA1/azimuth_1_joint,mA1/azimuth_2_joint,mA1/azimuth_3_joint,mA1/azimuth_4_joint,2.3387411976724017,-2.356194490192345,-0.767944870877505,0.767944870877505
2025/04/09 09:49:50.85099501,0,0,,mA1/azimuth_1_joint,mA1/azimuth_2_joint,mA1/azimuth_3_joint,mA1/azimuth_4_joint,2.3387411976724017,-2.356194490192345,-0.767944870877505,0.767944870877505
2025/04/09 09:49:50.183640213,0,0,,mA1/azimuth_1_joint,mA1/azimuth_2_joint,mA1/azimuth_3_joint,mA1/azimuth_4_joint,2.3387411976724017,-2.356194490192345,-0.767944870877505,0.767944870877505
2025/04/09 09:49:50.283551551,0,0,,mA1/azimuth_1_joint,mA1/azimuth_2_joint,mA1/azimuth_3_joint,mA1/azimuth_4_joint,2.3387411976724017,-2.356194490192345,-0.767944870877505,0.767944870877505
2025/04/09 09:49:50.384013909,0,0,,mA1/azimuth_1_joint,mA1/azimuth_2_joint,mA1/azimuth_3_joint,mA1/azimuth_4_joint,2.3387411976724017,-2.356194490192345,-0.767944870877505,0.767944870877505
2025/04/09 09:49:50.484037259,0,0,,mA1/azimuth_1_joint,mA1/azimuth_2_joint,mA1/azimuth_3_joint,mA1/azimuth_4_joint,2.3387411976724017,-2.356194490192345,-0.767944870877505,0.767944870877505
2025/04/09 09:49:50.583343576,0,0,,mA1/azimuth_1_joint,mA1/azimuth_2_joint,mA1/azimuth_3_joint,mA1/azimuth_4_joint,2.3387411976724017,-2.356194490192345,-0.767944870877505,0.767944870877505
2025/04/09 09:49:50.684693924,0,0,,mA1/azimuth_1_joint,mA1/azimuth_2_joint,mA1/azimuth_3_joint,mA1/azimuth_4_joint,2.3387411976724017,-2.356194490192345,-0.767944870877505,0.767944870877505
2025/04/09 09:49:50.784464211,0,0,,mA1/azimuth_1_joint,mA1/azimuth_2_joint,mA1/azimuth_3_joint,mA1/azimuth_4_joint,2.3387411976724017,-2.356194490192345,-0.767944870877505,0.767944870877505
2025/04/09 09:49:50.883687551,0,0,,mA1/azimuth_1_joint,mA1/azimuth_2_joint,mA1/azimuth_3_joint,mA1/azimuth_4_joint,2.3387411976724017,-2.356194490192345,-0.767944870877505,0.767944870877505
2025/04/09 09:49:50.983478742,0,0,,mA1/azimuth_1_joint,mA1/azimuth_2_joint,mA1/azimuth_3_joint,mA1/azimuth_4_joint,2.3387411976724017,-2.356194490192345,-0.767944870877505,0.767944870877505
2025/04/09 09:49:51.83637367,0,0,,mA1/azimuth_1_joint,mA1/azimuth_2_joint,mA1/azimuth_3_joint,mA1/azimuth_4_joint,2.3387411976724017,-2.356194490192345,-0.767944870877505,0.767944870877505
2025/04/09 09:49:51.184540576,0,0,,mA1/azimuth_1_joint,mA1/azimuth_2_joint,mA1/azimuth_3_joint,mA1/azimuth_4_joint,2.3387411976724017,-2.356194490192345,-0.767944870877505,0.767944870877505
2025/04/09 09:49:51.283383344,0,0,,mA1/azimuth_1_joint,mA1/azimuth_2_joint,mA1/azimuth_3_joint,mA1/azimuth_4_joint,2.3387411976724017,-2.356194490192345,-0.767944870877505,0.767944870877505
2025/04/09 09:49:51.383669342,0,0,,mA1/azimuth_1_joint,mA1/azimuth_2_joint,mA1/azimuth_3_joint,mA1/azimuth_4_joint,2.3387411976724017,-2.356194490192345,-0.767944870877505,0.767944870877505
2025/04/09 09:49:51.483881532,0,0,,mA1/azimuth_1_joint,mA1/azimuth_2_joint,mA1/azimuth_3_joint,mA1/azimuth_4_joint,2.3387411976724017,-2.356194490192345,-0.767944870877505,0.767944870877505
2025/04/09 09:49:51.583468011,0,0,,mA1/azimuth_1_joint,mA1/azimuth_2_joint,mA1/azimuth_3_joint,mA1/azimuth_4_joint,2.3387411976724017,-2.356194490192345,-0.767944870877505,0.767944870877505
2025/04/09 09:49:51.684327881,0,0,,mA1/azimuth_1_joint,mA1/azimuth_2_joint,mA1/azimuth_3_joint,mA1/azimuth_4_joint,2.3387411976724017,-2.356194490192345,-0.767944870877505,0.767944870877505
2025/04/09 09:49:51.784927766,0,0,,mA1/azimuth_1_joint,mA1/azimuth_2_joint,mA1/azimuth_3_joint,mA1/azimuth_4_joint,2.3387411976724017,-2.356194490192345,-0.767944870877505,0.767944870877505
2025/04/09 09:49:51.884319163,0,0,,mA1/azimuth_1_joint,mA1/azimuth_2_joint,mA1/azimuth_3_joint,mA1/azimuth_4_joint,2.3387411976724017,-2.356194490192345,-0.767944870877505,0.767944870877505
2025/04/09 09:49:51.983545596,0,0,,mA1/azimuth_1_joint,mA1/azimuth_2_joint,mA1/azimuth_3_joint,mA1/azimuth_4_joint,2.3387411976724017,-2.356194490192345,-0.767944870877505,0.767944870877505
2025/04/09 09:49:52.83836918,0,0,,mA1/azimuth_1_joint,mA1/azimuth_2_joint,mA1/azimuth_3_joint,mA1/azimuth_4_joint,2.3387411976724017,-2.356194490192345,-0.767944870877505,0.767944870877505
2025/04/09 09:49:52.183917042,0,0,,mA1/azimuth_1_joint,mA1/azimuth_2_joint,mA1/azimuth_3_joint,mA1/azimuth_4_joint,2.3387411976724017,-2.356194490192345,-0.767944870877505,0.767944870877505
2025/04/09 09:49:52.284047581,0,0,,mA1/azimuth_1_joint,mA1/azimuth_2_joint,mA1/azimuth_3_joint,mA1/azimuth_4_joint,2.3387411976724017,-2.356194490192345,-0.767944870877505,0.767944870877505
2025/04/09 09:49:52.383436952,0,0,,mA1/azimuth_1_joint,mA1/azimuth_2_joint,mA1/azimuth_3_joint,mA1/azimuth_4_joint,2.3387411976724017,-2.356194490192345,-0.767944870877505,0.767944870877505
2025/04/09 09:49:52.483415902,0,0,,mA1/azimuth_1_joint,mA1/azimuth_2_joint,mA1/azimuth_3_joint,mA1/azimuth_4_joint,2.4085543677521746,-2.4085543677521746,-0.7155849933176751,0.7155849933176751
2025/04/09 09:49:52.584976649,0,0,,mA1/azimuth_1_joint,mA1/azimuth_2_joint,mA1/azimuth_3_joint,mA1/azimuth_4_joint,2.4609142453120048,-2.4609142453120048,-0.6632251157578453,0.6632251157578453
2025/04/09 09:49:52.683414555,0,0,,mA1/azimuth_1_joint,mA1/azimuth_2_joint,mA1/azimuth_3_joint,mA1/azimuth_4_joint,2.530727415391778,-2.530727415391778,-0.5934119456780721,0.5934119456780721
2025/04/09 09:49:52.783450746,0,0,,mA1/azimuth_1_joint,mA1/azimuth_2_joint,mA1/azimuth_3_joint,mA1/azimuth_4_joint,2.5830872929516078,-2.5830872929516078,-0.5410520681182421,0.5410520681182421
2025/04/09 09:49:52.883553778,0,0,,mA1/azimuth_1_joint,mA1/azimuth_2_joint,mA1/azimuth_3_joint,mA1/azimuth_4_joint,2.652900463031381,-2.6354471705114375,-0.47123889803846897,0.4886921905584123
2025/04/09 09:49:52.983598531,0,0,,mA1/azimuth_1_joint,mA1/azimuth_2_joint,mA1/azimuth_3_joint,mA1/azimuth_4_joint,2.705260340591211,-2.6179938779914944,-0.4188790204786391,0.4188790204786391
2025/04/09 09:49:53.83851036,0,0,,mA1/azimuth_1_joint,mA1/azimuth_2_joint,mA1/azimuth_3_joint,mA1/azimuth_4_joint,2.652900463031381,-2.548180707911721,-0.3490658503988659,0.3665191429188092
2025/04/09 09:49:53.183311621,0,0,,mA1/azimuth_1_joint,mA1/azimuth_2_joint,mA1/azimuth_3_joint,mA1/azimuth_4_joint,2.5830872929516078,-2.4958208303518914,-0.29670597283903605,0.33161255787892263
2025/04/09 09:49:53.283703171,0,0,,mA1/azimuth_1_joint,mA1/azimuth_2_joint,mA1/azimuth_3_joint,mA1/azimuth_4_joint,2.548180707911721,-2.478367537831948,-0.24434609527920614,0.2617993877991494
2025/04/09 09:49:53.384374251,0,0,,mA1/azimuth_1_joint,mA1/azimuth_2_joint,mA1/azimuth_3_joint,mA1/azimuth_4_joint,2.530727415391778,-2.478367537831948,-0.17453292519943295,0.20943951023931956
2025/04/09 09:49:53.484182522,0,0,,mA1/azimuth_1_joint,mA1/azimuth_2_joint,mA1/azimuth_3_joint,mA1/azimuth_4_joint,2.5132741228718345,-2.530727415391778,-0.12217304763960307,0.15707963267948966
2025/04/09 09:49:53.584691938,0,0,,mA1/azimuth_1_joint,mA1/azimuth_2_joint,mA1/azimuth_3_joint,mA1/azimuth_4_joint,2.5132741228718345,-2.530727415391778,-0.06981317007977318,0.08726646259971647
2025/04/09 09:49:53.683557807,0,0,,mA1/azimuth_1_joint,mA1/azimuth_2_joint,mA1/azimuth_3_joint,mA1/azimuth_4_joint,2.530727415391778,-2.5132741228718345,0.0,0.03490658503988659
2025/04/09 09:49:53.783994068,0,0,,mA1/azimuth_1_joint,mA1/azimuth_2_joint,mA1/azimuth_3_joint,mA1/azimuth_4_joint,2.5132741228718345,-2.4958208303518914,0.0,0.05235987755982989
2025/04/09 09:49:53.884331895,0,0,,mA1/azimuth_1_joint,mA1/azimuth_2_joint,mA1/azimuth_3_joint,mA1/azimuth_4_joint,2.530727415391778,-2.5132741228718345,0.0,0.017453292519943295
2025/04/09 09:49:53.984169018,0,0,,mA1/azimuth_1_joint,mA1/azimuth_2_joint,mA1/azimuth_3_joint,mA1/azimuth_4_joint,2.5132741228718345,-2.5132741228718345,0.0,0.017453292519943295
2025/04/09 09:49:54.84299971,0,0,,mA1/azimuth_1_joint,mA1/azimuth_2_joint,mA1/azimuth_3_joint,mA1/azimuth_4_joint,2.5132741228718345,-2.5132741228718345,-0.017453292519943295,0.017453292519943295
2025/04/09 09:49:54.183769759,0,0,,mA1/azimuth_1_joint,mA1/azimuth_2_joint,mA1/azimuth_3_joint,mA1/azimuth_4_joint,2.5132741228718345,-2.5132741228718345,-0.017453292519943295,0.0
2025/04/09 09:49:54.284811136,0,0,,mA1/azimuth_1_joint,mA1/azimuth_2_joint,mA1/azimuth_3_joint,mA1/azimuth_4_joint,2.5132741228718345,-2.530727415391778,-0.03490658503988659,0.0
2025/04/09 09:49:54.384408615,0,0,,mA1/azimuth_1_joint,mA1/azimuth_2_joint,mA1/azimuth_3_joint,mA1/azimuth_4_joint,2.5132741228718345,-2.530727415391778,-0.017453292519943295,0.0
2025/04/09 09:49:54.484445837,0,0,,mA1/azimuth_1_joint,mA1/azimuth_2_joint,mA1/azimuth_3_joint,mA1/azimuth_4_joint,2.5132741228718345,-2.5132741228718345,-0.017453292519943295,0.0
2025/04/09 09:49:54.586460304,0,0,,mA1/azimuth_1_joint,mA1/azimuth_2_joint,mA1/azimuth_3_joint,mA1/azimuth_4_joint,2.5132741228718345,-2.530727415391778,-0.017453292519943295,0.0
2025/04/09 09:49:54.683958656,0,0,,mA1/azimuth_1_joint,mA1/azimuth_2_joint,mA1/azimuth_3_joint,mA1/azimuth_4_joint,2.5132741228718345,-2.530727415391778,-0.017453292519943295,0.0
2025/04/09 09:49:54.783435529,0,0,,mA1/azimuth_1_joint,mA1/azimuth_2_joint,mA1/azimuth_3_joint,mA1/azimuth_4_joint,2.5132741228718345,-2.530727415391778,-0.017453292519943295,0.0
2025/04/09 09:49:54.883602723,0,0,,mA1/azimuth_1_joint,mA1/azimuth_2_joint,mA1/azimuth_3_joint,mA1/azimuth_4_joint,2.5132741228718345,-2.530727415391778,-0.017453292519943295,0.0
2025/04/09 09:49:54.984469418,0,0,,mA1/azimuth_1_joint,mA1/azimuth_2_joint,mA1/azimuth_3_joint,mA1/azimuth_4_joint,2.5132741228718345,-2.4958208303518914,0.0,0.03490658503988659
2025/04/09 09:49:55.84310395,0,0,,mA1/azimuth_1_joint,mA1/azimuth_2_joint,mA1/azimuth_3_joint,mA1/azimuth_4_joint,2.5132741228718345,-2.478367537831948,0.0,0.06981317007977318
2025/04/09 09:49:55.183577813,0,0,,mA1/azimuth_1_joint,mA1/azimuth_2_joint,mA1/azimuth_3_joint,mA1/azimuth_4_joint,2.530727415391778,-2.5132741228718345,0.0,0.03490658503988659
2025/04/09 09:49:55.283895292,0,0,,mA1/azimuth_1_joint,mA1/azimuth_2_joint,mA1/azimuth_3_joint,mA1/azimuth_4_joint,2.5132741228718345,-2.4958208303518914,0.0,0.05235987755982989
2025/04/09 09:49:55.383402430,0,0,,mA1/azimuth_1_joint,mA1/azimuth_2_joint,mA1/azimuth_3_joint,mA1/azimuth_4_joint,2.5132741228718345,-2.4958208303518914,0.0,0.05235987755982989
2025/04/09 09:49:55.483590291,0,0,,mA1/azimuth_1_joint,mA1/azimuth_2_joint,mA1/azimuth_3_joint,mA1/azimuth_4_joint,2.530727415391778,-2.5132741228718345,0.0,0.017453292519943295
2025/04/09 09:49:55.584282548,0,0,,mA1/azimuth_1_joint,mA1/azimuth_2_joint,mA1/azimuth_3_joint,mA1/azimuth_4_joint,2.530727415391778,-2.5132741228718345,0.0,0.017453292519943295
2025/04/09 09:49:55.684941877,0,0,,mA1/azimuth_1_joint,mA1/azimuth_2_joint,mA1/azimuth_3_joint,mA1/azimuth_4_joint,2.530727415391778,-2.4958208303518914,0.0,0.03490658503988659
2025/04/09 09:49:55.783324165,0,0,,mA1/azimuth_1_joint,mA1/azimuth_2_joint,mA1/azimuth_3_joint,mA1/azimuth_4_joint,2.5132741228718345,-2.4958208303518914,0.0,0.03490658503988659
2025/04/09 09:49:55.883640658,0,0,,mA1/azimuth_1_joint,mA1/azimuth_2_joint,mA1/azimuth_3_joint,mA1/azimuth_4_joint,2.5132741228718345,-2.4958208303518914,0.0,0.05235987755982989
2025/04/09 09:49:55.984382228,0,0,,mA1/azimuth_1_joint,mA1/azimuth_2_joint,mA1/azimuth_3_joint,mA1/azimuth_4_joint,2.530727415391778,-2.5132741228718345,0.0,0.017453292519943295
2025/04/09 09:49:56.85035792,0,0,,mA1/azimuth_1_joint,mA1/azimuth_2_joint,mA1/azimuth_3_joint,mA1/azimuth_4_joint,2.530727415391778,-2.5132741228718345,0.0,0.017453292519943295
2025/04/09 09:49:56.183634189,0,0,,mA1/azimuth_1_joint,mA1/azimuth_2_joint,mA1/azimuth_3_joint,mA1/azimuth_4_joint,2.530727415391778,-2.4958208303518914,0.0,0.03490658503988659
2025/04/09 09:49:56.283613364,0,0,,mA1/azimuth_1_joint,mA1/azimuth_2_joint,mA1/azimuth_3_joint,mA1/azimuth_4_joint,2.530727415391778,-2.5132741228718345,0.0,0.017453292519943295
2025/04/09 09:49:56.383398629,0,0,,mA1/azimuth_1_joint,mA1/azimuth_2_joint,mA1/azimuth_3_joint,mA1/azimuth_4_joint,2.530727415391778,-2.4958208303518914,0.0,0.03490658503988659
2025/04/09 09:49:56.483414933,0,0,,mA1/azimuth_1_joint,mA1/azimuth_2_joint,mA1/azimuth_3_joint,mA1/azimuth_4_joint,2.530727415391778,-2.5132741228718345,0.0,0.017453292519943295
2025/04/09 09:49:56.585310558,0,0,,mA1/azimuth_1_joint,mA1/azimuth_2_joint,mA1/azimuth_3_joint,mA1/azimuth_4_joint,2.530727415391778,-2.5132741228718345,0.0,0.03490658503988659
2025/04/09 09:49:56.687443328,0,0,,mA1/azimuth_1_joint,mA1/azimuth_2_joint,mA1/azimuth_3_joint,mA1/azimuth_4_joint,2.530727415391778,-2.5132741228718345,0.0,0.017453292519943295
2025/04/09 09:49:56.784274982,0,0,,mA1/azimuth_1_joint,mA1/azimuth_2_joint,mA1/azimuth_3_joint,mA1/azimuth_4_joint,2.530727415391778,-2.4958208303518914,0.0,0.03490658503988659
2025/04/09 09:49:56.883515410,0,0,,mA1/azimuth_1_joint,mA1/azimuth_2_joint,mA1/azimuth_3_joint,mA1/azimuth_4_joint,2.530727415391778,-2.5132741228718345,0.0,0.017453292519943295
2025/04/09 09:49:56.983722384,0,0,,mA1/azimuth_1_joint,mA1/azimuth_2_joint,mA1/azimuth_3_joint,mA1/azimuth_4_joint,2.530727415391778,-2.530727415391778,-0.017453292519943295,0.017453292519943295
2025/04/09 09:49:57.83429501,0,0,,mA1/azimuth_1_joint,mA1/azimuth_2_joint,mA1/azimuth_3_joint,mA1/azimuth_4_joint,2.530727415391778,-2.530727415391778,-0.017453292519943295,0.0
2025/04/09 09:49:57.183460709,0,0,,mA1/azimuth_1_joint,mA1/azimuth_2_joint,mA1/azimuth_3_joint,mA1/azimuth_4_joint,2.530727415391778,-2.5132741228718345,0.0,0.017453292519943295
2025/04/09 09:49:57.284238612,0,0,,mA1/azimuth_1_joint,mA1/azimuth_2_joint,mA1/azimuth_3_joint,mA1/azimuth_4_joint,2.530727415391778,-2.4958208303518914,0.0,0.03490658503988659
2025/04/09 09:49:57.383492325,0,0,,mA1/azimuth_1_joint,mA1/azimuth_2_joint,mA1/azimuth_3_joint,mA1/azimuth_4_joint,2.530727415391778,-2.4958208303518914,0.0,0.05235987755982989
2025/04/09 09:49:57.484235141,0,0,,mA1/azimuth_1_joint,mA1/azimuth_2_joint,mA1/azimuth_3_joint,mA1/azimuth_4_joint,2.530727415391778,-2.4958208303518914,0.0,0.05235987755982989
2025/04/09 09:49:57.583421656,0,0,,mA1/azimuth_1_joint,mA1/azimuth_2_joint,mA1/azimuth_3_joint,mA1/azimuth_4_joint,2.530727415391778,-2.478367537831948,0.0,0.05235987755982989
2025/04/09 09:49:57.688334441,0,0,,mA1/azimuth_1_joint,mA1/azimuth_2_joint,mA1/azimuth_3_joint,mA1/azimuth_4_joint,2.548180707911721,-2.5132741228718345,0.0,0.017453292519943295
2025/04/09 09:49:57.784446572,0,0,,mA1/azimuth_1_joint,mA1/azimuth_2_joint,mA1/azimuth_3_joint,mA1/azimuth_4_joint,2.530727415391778,-2.4958208303518914,0.0,0.03490658503988659
2025/04/09 09:49:57.883783970,0,0,,mA1/azimuth_1_joint,mA1/azimuth_2_joint,mA1/azimuth_3_joint,mA1/azimuth_4_joint,2.530727415391778,-2.4958208303518914,0.0,0.03490658503988659
2025/04/09 09:49:57.985066499,0,0,,mA1/azimuth_1_joint,mA1/azimuth_2_joint,mA1/azimuth_3_joint,mA1/azimuth_4_joint,2.5132741228718345,-2.478367537831948,0.0,0.05235987755982989
2025/04/09 09:49:58.84167643,0,0,,mA1/azimuth_1_joint,mA1/azimuth_2_joint,mA1/azimuth_3_joint,mA1/azimuth_4_joint,2.548180707911721,-2.5132741228718345,0.0,0.03490658503988659
2025/04/09 09:49:58.183940044,0,0,,mA1/azimuth_1_joint,mA1/azimuth_2_joint,mA1/azimuth_3_joint,mA1/azimuth_4_joint,2.548180707911721,-2.4958208303518914,0.0,0.03490658503988659
2025/04/09 09:49:58.283369599,0,0,,mA1/azimuth_1_joint,mA1/azimuth_2_joint,mA1/azimuth_3_joint,mA1/azimuth_4_joint,2.548180707911721,-2.4958208303518914,0.0,0.03490658503988659
2025/04/09 09:49:58.383598930,0,0,,mA1/azimuth_1_joint,mA1/azimuth_2_joint,mA1/azimuth_3_joint,mA1/azimuth_4_joint,2.5132741228718345,-2.478367537831948,0.0,0.06981317007977318
2025/04/09 09:49:58.484021583,0,0,,mA1/azimuth_1_joint,mA1/azimuth_2_joint,mA1/azimuth_3_joint,mA1/azimuth_4_joint,2.4958208303518914,-2.4609142453120048,0.0,0.08726646259971647
2025/04/09 09:49:58.583894690,0,0,,mA1/azimuth_1_joint,mA1/azimuth_2_joint,mA1/azimuth_3_joint,mA1/azimuth_4_joint,2.4958208303518914,-2.4609142453120048,0.0,0.08726646259971647
2025/04/09 09:49:58.683827990,0,0,,mA1/azimuth_1_joint,mA1/azimuth_2_joint,mA1/azimuth_3_joint,mA1/azimuth_4_joint,2.4958208303518914,-2.4609142453120048,0.0,0.06981317007977318
2025/04/09 09:49:58.783673513,0,0,,mA1/azimuth_1_joint,mA1/azimuth_2_joint,mA1/azimuth_3_joint,mA1/azimuth_4_joint,2.5132741228718345,-2.478367537831948,0.0,0.06981317007977318
2025/04/09 09:49:58.883639317,0,0,,mA1/azimuth_1_joint,mA1/azimuth_2_joint,mA1/azimuth_3_joint,mA1/azimuth_4_joint,2.548180707911721,-2.4958208303518914,0.0,0.03490658503988659
2025/04/09 09:49:58.984261898,0,0,,mA1/azimuth_1_joint,mA1/azimuth_2_joint,mA1/azimuth_3_joint,mA1/azimuth_4_joint,2.548180707911721,-2.4958208303518914,0.0,0.03490658503988659
2025/04/09 09:49:59.83965116,0,0,,mA1/azimuth_1_joint,mA1/azimuth_2_joint,mA1/azimuth_3_joint,mA1/azimuth_4_joint,2.548180707911721,-2.4958208303518914,0.0,0.03490658503988659
2025/04/09 09:49:59.184012096,0,0,,mA1/azimuth_1_joint,mA1/azimuth_2_joint,mA1/azimuth_3_joint,mA1/azimuth_4_joint,2.5132741228718345,-2.478367537831948,0.0,0.06981317007977318
2025/04/09 09:49:59.283381738,0,0,,mA1/azimuth_1_joint,mA1/azimuth_2_joint,mA1/azimuth_3_joint,mA1/azimuth_4_joint,2.5656340004316642,-2.4958208303518914,0.0,0.03490658503988659
2025/04/09 09:49:59.383428945,0,0,,mA1/azimuth_1_joint,mA1/azimuth_2_joint,mA1/azimuth_3_joint,mA1/azimuth_4_joint,2.4958208303518914,-2.4609142453120048,0.0,0.06981317007977318
2025/04/09 09:49:59.483377979,0,0,,mA1/azimuth_1_joint,mA1/azimuth_2_joint,mA1/azimuth_3_joint,mA1/azimuth_4_joint,2.4958208303518914,-2.4609142453120048,0.0,0.08726646259971647
2025/04/09 09:49:59.583300031,0,0,,mA1/azimuth_1_joint,mA1/azimuth_2_joint,mA1/azimuth_3_joint,mA1/azimuth_4_joint,2.5132741228718345,-2.4609142453120048,0.0,0.06981317007977318
2025/04/09 09:49:59.683534234,0,0,,mA1/azimuth_1_joint,mA1/azimuth_2_joint,mA1/azimuth_3_joint,mA1/azimuth_4_joint,2.530727415391778,-2.478367537831948,0.0,0.06981317007977318
2025/04/09 09:49:59.784330114,0,0,,mA1/azimuth_1_joint,mA1/azimuth_2_joint,mA1/azimuth_3_joint,mA1/azimuth_4_joint,2.478367537831948,-2.426007660272118,0.0,0.10471975511965978
2025/04/09 09:49:59.883436376,0,0,,mA1/azimuth_1_joint,mA1/azimuth_2_joint,mA1/azimuth_3_joint,mA1/azimuth_4_joint,2.4085543677521746,-2.426007660272118,0.0,0.10471975511965978
2025/04/09 09:49:59.984855177,0,0,,mA1/azimuth_1_joint,mA1/azimuth_2_joint,mA1/azimuth_3_joint,mA1/azimuth_4_joint,2.356194490192345,-2.426007660272118,0.0,0.10471975511965978
2025/04/09 09:50:00.83538301,0,0,,mA1/azimuth_1_joint,mA1/azimuth_2_joint,mA1/azimuth_3_joint,mA1/azimuth_4_joint,2.2863813201125716,-2.443460952792061,0.0,0.10471975511965978
2025/04/09 09:50:00.183524344,0,0,,mA1/azimuth_1_joint,mA1/azimuth_2_joint,mA1/azimuth_3_joint,mA1/azimuth_4_joint,2.234021442552742,-2.4609142453120048,0.0,0.10471975511965978
2025/04/09 09:50:00.283913274,0,0,,mA1/azimuth_1_joint,mA1/azimuth_2_joint,mA1/azimuth_3_joint,mA1/azimuth_4_joint,2.181661564992912,-2.478367537831948,0.0,0.08726646259971647
2025/04/09 09:50:00.383591252,0,0,,mA1/azimuth_1_joint,mA1/azimuth_2_joint,mA1/azimuth_3_joint,mA1/azimuth_4_joint,2.111848394913139,-2.478367537831948,0.0,0.08726646259971647
2025/04/09 09:50:00.483727193,0,0,,mA1/azimuth_1_joint,mA1/azimuth_2_joint,mA1/azimuth_3_joint,mA1/azimuth_4_joint,2.059488517353309,-2.4958208303518914,0.0,0.08726646259971647
2025/04/09 09:50:00.583498139,0,0,,mA1/azimuth_1_joint,mA1/azimuth_2_joint,mA1/azimuth_3_joint,mA1/azimuth_4_joint,1.9896753472735358,-2.5132741228718345,0.0,0.05235987755982989
2025/04/09 09:50:00.683488031,0,0,,mA1/azimuth_1_joint,mA1/azimuth_2_joint,mA1/azimuth_3_joint,mA1/azimuth_4_joint,1.9373154697137058,-2.530727415391778,0.0,0.05235987755982989
2025/04/09 09:50:00.783469293,0,0,,mA1/azimuth_1_joint,mA1/azimuth_2_joint,mA1/azimuth_3_joint,mA1/azimuth_4_joint,1.8675022996339325,-2.530727415391778,0.0,0.03490658503988659
2025/04/09 09:50:00.884195014,0,0,,mA1/azimuth_1_joint,mA1/azimuth_2_joint,mA1/azimuth_3_joint,mA1/azimuth_4_joint,1.8151424220741028,-2.548180707911721,0.0,0.05235987755982989
2025/04/09 09:50:00.984017777,0,0,,mA1/azimuth_1_joint,mA1/azimuth_2_joint,mA1/azimuth_3_joint,mA1/azimuth_4_joint,1.7627825445142729,-2.5656340004316642,0.0,0.03490658503988659
2025/04/09 09:50:01.83335109,0,0,,mA1/azimuth_1_joint,mA1/azimuth_2_joint,mA1/azimuth_3_joint,mA1/azimuth_4_joint,1.6929693744344996,-2.5656340004316642,0.0,0.03490658503988659
2025/04/09 09:50:01.184354569,0,0,,mA1/azimuth_1_joint,mA1/azimuth_2_joint,mA1/azimuth_3_joint,mA1/azimuth_4_joint,1.6406094968746698,-2.5830872929516078,0.0,0.03490658503988659
2025/04/09 09:50:01.284876031,0,0,,mA1/azimuth_1_joint,mA1/azimuth_2_joint,mA1/azimuth_3_joint,mA1/azimuth_4_joint,1.5707963267948966,-2.5830872929516078,0.0,0.03490658503988659
2025/04/09 09:50:01.384428104,0,0,,mA1/azimuth_1_joint,mA1/azimuth_2_joint,mA1/azimuth_3_joint,mA1/azimuth_4_joint,1.5533430342749532,-2.600540585471551,0.0,0.017453292519943295
2025/04/09 09:50:01.483522485,0,0,,mA1/azimuth_1_joint,mA1/azimuth_2_joint,mA1/azimuth_3_joint,mA1/azimuth_4_joint,1.5533430342749532,-2.600540585471551,0.0,0.03490658503988659
2025/04/09 09:50:01.583502533,0,0,,mA1/azimuth_1_joint,mA1/azimuth_2_joint,mA1/azimuth_3_joint,mA1/azimuth_4_joint,1.5533430342749532,-2.600540585471551,0.0,0.017453292519943295
2025/04/09 09:50:01.685524900,0,0,,mA1/azimuth_1_joint,mA1/azimuth_2_joint,mA1/azimuth_3_joint,mA1/azimuth_4_joint,1.5533430342749532,-2.600540585471551,0.0,0.017453292519943295
2025/04/09 09:50:01.783338509,0,0,,mA1/azimuth_1_joint,mA1/azimuth_2_joint,mA1/azimuth_3_joint,mA1/azimuth_4_joint,1.5533430342749532,-2.600540585471551,0.0,0.017453292519943295
2025/04/09 09:50:01.883773162,0,0,,mA1/azimuth_1_joint,mA1/azimuth_2_joint,mA1/azimuth_3_joint,mA1/azimuth_4_joint,1.5533430342749532,-2.600540585471551,0.0,0.017453292519943295
2025/04/09 09:50:01.983902111,0,0,,mA1/azimuth_1_joint,mA1/azimuth_2_joint,mA1/azimuth_3_joint,mA1/azimuth_4_joint,1.5533430342749532,-2.600540585471551,0.0,0.017453292519943295
2025/04/09 09:50:02.83782178,0,0,,mA1/azimuth_1_joint,mA1/azimuth_2_joint,mA1/azimuth_3_joint,mA1/azimuth_4_joint,1.5533430342749532,-2.5830872929516078,0.0,0.0
2025/04/09 09:50:02.184231162,0,0,,mA1/azimuth_1_joint,mA1/azimuth_2_joint,mA1/azimuth_3_joint,mA1/azimuth_4_joint,1.5533430342749532,-2.5656340004316642,0.0,0.017453292519943295
2025/04/09 09:50:02.284353029,0,0,,mA1/azimuth_1_joint,mA1/azimuth_2_joint,mA1/azimuth_3_joint,mA1/azimuth_4_joint,1.5533430342749532,-2.548180707911721,0.0,0.017453292519943295
2025/04/09 09:50:02.384681679,0,0,,mA1/azimuth_1_joint,mA1/azimuth_2_joint,mA1/azimuth_3_joint,mA1/azimuth_4_joint,1.5533430342749532,-2.530727415391778,0.0,0.017453292519943295
2025/04/09 09:50:02.484277818,0,0,,mA1/azimuth_1_joint,mA1/azimuth_2_joint,mA1/azimuth_3_joint,mA1/azimuth_4_joint,1.5533430342749532,-2.5132741228718345,0.0,0.017453292519943295
2025/04/09 09:50:02.583522713,0,0,,mA1/azimuth_1_joint,mA1/azimuth_2_joint,mA1/azimuth_3_joint,mA1/azimuth_4_joint,1.5533430342749532,-2.4958208303518914,0.0,0.03490658503988659
2025/04/09 09:50:02.683874223,0,0,,mA1/azimuth_1_joint,mA1/azimuth_2_joint,mA1/azimuth_3_joint,mA1/azimuth_4_joint,1.5533430342749532,-2.478367537831948,0.0,0.03490658503988659
2025/04/09 09:50:02.783598678,0,0,,mA1/azimuth_1_joint,mA1/azimuth_2_joint,mA1/azimuth_3_joint,mA1/azimuth_4_joint,1.5533430342749532,-2.4609142453120048,-0.017453292519943295,0.03490658503988659
2025/04/09 09:50:02.883821551,0,0,,mA1/azimuth_1_joint,mA1/azimuth_2_joint,mA1/azimuth_3_joint,mA1/azimuth_4_joint,1.5533430342749532,-2.4609142453120048,-0.03490658503988659,0.017453292519943295
2025/04/09 09:50:02.983620763,0,0,,mA1/azimuth_1_joint,mA1/azimuth_2_joint,mA1/azimuth_3_joint,mA1/azimuth_4_joint,1.5533430342749532,-2.443460952792061,-0.03490658503988659,0.017453292519943295
2025/04/09 09:50:03.83905722,0,0,,mA1/azimuth_1_joint,mA1/azimuth_2_joint,mA1/azimuth_3_joint,mA1/azimuth_4_joint,1.5533430342749532,-2.443460952792061,-0.03490658503988659,0.017453292519943295
2025/04/09 09:50:03.183359525,0,0,,mA1/azimuth_1_joint,mA1/azimuth_2_joint,mA1/azimuth_3_joint,mA1/azimuth_4_joint,1.5533430342749532,-2.426007660272118,-0.05235987755982989,0.017453292519943295
2025/04/09 09:50:03.283827328,0,0,,mA1/azimuth_1_joint,mA1/azimuth_2_joint,mA1/azimuth_3_joint,mA1/azimuth_4_joint,1.5533430342749532,-2.426007660272118,-0.06981317007977318,0.017453292519943295
2025/04/09 09:50:03.383540964,0,0,,mA1/azimuth_1_joint,mA1/azimuth_2_joint,mA1/azimuth_3_joint,mA1/azimuth_4_joint,1.5533430342749532,-2.4085543677521746,-0.05235987755982989,0.03490658503988659
2025/04/09 09:50:03.484134425,0,0,,mA1/azimuth_1_joint,mA1/azimuth_2_joint,mA1/azimuth_3_joint,mA1/azimuth_4_joint,1.5533430342749532,-2.4085543677521746,-0.05235987755982989,0.05235987755982989
2025/04/09 09:50:03.583451083,0,0,,mA1/azimuth_1_joint,mA1/azimuth_2_joint,mA1/azimuth_3_joint,mA1/azimuth_4_joint,1.5533430342749532,-2.4085543677521746,-0.06981317007977318,0.03490658503988659
2025/04/09 09:50:03.683657276,0,0,,mA1/azimuth_1_joint,mA1/azimuth_2_joint,mA1/azimuth_3_joint,mA1/azimuth_4_joint,1.5533430342749532,-2.3911010752322315,-0.08726646259971647,0.03490658503988659
2025/04/09 09:50:03.783556977,0,0,,mA1/azimuth_1_joint,mA1/azimuth_2_joint,mA1/azimuth_3_joint,mA1/azimuth_4_joint,1.5533430342749532,-2.3911010752322315,-0.10471975511965978,0.03490658503988659
2025/04/09 09:50:03.883369583,0,0,,mA1/azimuth_1_joint,mA1/azimuth_2_joint,mA1/azimuth_3_joint,mA1/azimuth_4_joint,1.5533430342749532,-2.3911010752322315,-0.12217304763960307,0.03490658503988659
2025/04/09 09:50:03.983617773,0,0,,mA1/azimuth_1_joint,mA1/azimuth_2_joint,mA1/azimuth_3_joint,mA1/azimuth_4_joint,1.5533430342749532,-2.3911010752322315,-0.12217304763960307,0.05235987755982989
2025/04/09 09:50:04.83504221,0,0,,mA1/azimuth_1_joint,mA1/azimuth_2_joint,mA1/azimuth_3_joint,mA1/azimuth_4_joint,1.5533430342749532,-2.3736477827122884,-0.13962634015954636,0.06981317007977318
2025/04/09 09:50:04.183455501,0,0,,mA1/azimuth_1_joint,mA1/azimuth_2_joint,mA1/azimuth_3_joint,mA1/azimuth_4_joint,1.6231562043547265,-2.3736477827122884,-0.17453292519943295,0.06981317007977318
2025/04/09 09:50:04.283643424,0,0,,mA1/azimuth_1_joint,mA1/azimuth_2_joint,mA1/azimuth_3_joint,mA1/azimuth_4_joint,1.6755160819145565,-2.3736477827122884,-0.17453292519943295,0.08726646259971647
2025/04/09 09:50:04.384164991,0,0,,mA1/azimuth_1_joint,mA1/azimuth_2_joint,mA1/azimuth_3_joint,mA1/azimuth_4_joint,1.710422666954443,-2.3736477827122884,-0.17453292519943295,0.12217304763960307
2025/04/09 09:50:04.483544957,0,0,,mA1/azimuth_1_joint,mA1/azimuth_2_joint,mA1/azimuth_3_joint,mA1/azimuth_4_joint,1.7802358370342162,-2.3736477827122884,-0.19198621771937624,0.13962634015954636
2025/04/09 09:50:04.584331394,0,0,,mA1/azimuth_1_joint,mA1/azimuth_2_joint,mA1/azimuth_3_joint,mA1/azimuth_4_joint,1.7278759594743862,-2.356194490192345,-0.19198621771937624,0.17453292519943295
2025/04/09 09:50:04.684117381,0,0,,mA1/azimuth_1_joint,mA1/azimuth_2_joint,mA1/azimuth_3_joint,mA1/azimuth_4_joint,1.7802358370342162,-2.356194490192345,-0.24434609527920614,0.17453292519943295
2025/04/09 09:50:04.784353930,0,0,,mA1/azimuth_1_joint,mA1/azimuth_2_joint,mA1/azimuth_3_joint,mA1/azimuth_4_joint,1.8500490071139892,-2.356194490192345,-0.24434609527920614,0.22689280275926285
2025/04/09 09:50:04.883379451,0,0,,mA1/azimuth_1_joint,mA1/azimuth_2_joint,mA1/azimuth_3_joint,mA1/azimuth_4_joint,1.9024088846738192,-2.356194490192345,-0.2792526803190927,0.24434609527920614
2025/04/09 09:50:04.983546021,0,0,,mA1/azimuth_1_joint,mA1/azimuth_2_joint,mA1/azimuth_3_joint,mA1/azimuth_4_joint,1.9547687622336491,-2.356194490192345,-0.2792526803190927,0.29670597283903605
2025/04/09 09:50:05.85088215,0,0,,mA1/azimuth_1_joint,mA1/azimuth_2_joint,mA1/azimuth_3_joint,mA1/azimuth_4_joint,2.007128639793479,-2.356194490192345,-0.3141592653589793,0.3141592653589793
2025/04/09 09:50:05.183931058,0,0,,mA1/azimuth_1_joint,mA1/azimuth_2_joint,mA1/azimuth_3_joint,mA1/azimuth_4_joint,2.076941809873252,-2.356194490192345,-0.3665191429188092,0.3141592653589793
2025/04/09 09:50:05.283385708,0,0,,mA1/azimuth_1_joint,mA1/azimuth_2_joint,mA1/azimuth_3_joint,mA1/azimuth_4_joint,2.111848394913139,-2.356194490192345,-0.3665191429188092,0.3665191429188092
2025/04/09 09:50:05.383619176,0,0,,mA1/azimuth_1_joint,mA1/azimuth_2_joint,mA1/azimuth_3_joint,mA1/azimuth_4_joint,2.1467549799530254,-2.356194490192345,-0.3665191429188092,0.4188790204786391
2025/04/09 09:50:05.484953622,0,0,,mA1/azimuth_1_joint,mA1/azimuth_2_joint,mA1/azimuth_3_joint,mA1/azimuth_4_joint,2.199114857512855,-2.356194490192345,-0.4014257279586958,0.4537856055185257
2025/04/09 09:50:05.583475777,0,0,,mA1/azimuth_1_joint,mA1/azimuth_2_joint,mA1/azimuth_3_joint,mA1/azimuth_4_joint,2.2165681500327987,-2.356194490192345,-0.4188790204786391,0.47123889803846897
2025/04/09 09:50:05.683514227,0,0,,mA1/azimuth_1_joint,mA1/azimuth_2_joint,mA1/azimuth_3_joint,mA1/azimuth_4_joint,2.1642082724729685,-2.356194490192345,-0.4188790204786391,0.4886921905584123
2025/04/09 09:50:05.783914835,0,0,,mA1/azimuth_1_joint,mA1/azimuth_2_joint,mA1/azimuth_3_joint,mA1/azimuth_4_joint,2.199114857512855,-2.356194490192345,-0.4363323129985824,0.5061454830783556
2025/04/09 09:50:05.884676687,0,0,,mA1/azimuth_1_joint,mA1/azimuth_2_joint,mA1/azimuth_3_joint,mA1/azimuth_4_joint,2.251474735072685,-2.356194490192345,-0.47123889803846897,0.5410520681182421
2025/04/09 09:50:05.983356658,0,0,,mA1/azimuth_1_joint,mA1/azimuth_2_joint,mA1/azimuth_3_joint,mA1/azimuth_4_joint,2.321287905152458,-2.356194490192345,-0.5235987755982988,0.5759586531581288
2025/04/09 09:50:06.83766877,0,0,,mA1/azimuth_1_joint,mA1/azimuth_2_joint,mA1/azimuth_3_joint,mA1/azimuth_4_joint,2.3387411976724017,-2.356194490192345,-0.5235987755982988,0.5759586531581288
2025/04/09 09:50:06.184492275,0,0,,mA1/azimuth_1_joint,mA1/azimuth_2_joint,mA1/azimuth_3_joint,mA1/azimuth_4_joint,2.356194490192345,-2.356194490192345,-0.5759586531581288,0.5934119456780721
2025/04/09 09:50:06.283875649,0,0,,mA1/azimuth_1_joint,mA1/azimuth_2_joint,mA1/azimuth_3_joint,mA1/azimuth_4_joint,2.356194490192345,-2.303834612632515,-0.6283185307179586,0.5235987755982988
2025/04/09 09:50:06.383715298,0,0,,mA1/azimuth_1_joint,mA1/azimuth_2_joint,mA1/azimuth_3_joint,mA1/azimuth_4_joint,2.2863813201125716,-2.356194490192345,-0.5585053606381855,0.5934119456780721
2025/04/09 09:50:06.484239881,0,0,,mA1/azimuth_1_joint,mA1/azimuth_2_joint,mA1/azimuth_3_joint,mA1/azimuth_4_joint,2.234021442552742,-2.356194490192345,-0.5061454830783556,0.5934119456780721
2025/04/09 09:50:06.584446556,0,0,,mA1/azimuth_1_joint,mA1/azimuth_2_joint,mA1/azimuth_3_joint,mA1/azimuth_4_joint,2.181661564992912,-2.356194490192345,-0.4886921905584123,0.5934119456780721
2025/04/09 09:50:06.683995095,0,0,,mA1/azimuth_1_joint,mA1/azimuth_2_joint,mA1/azimuth_3_joint,mA1/azimuth_4_joint,2.234021442552742,-2.356194490192345,-0.5235987755982988,0.6108652381980153
2025/04/09 09:50:06.784236974,0,0,,mA1/azimuth_1_joint,mA1/azimuth_2_joint,mA1/azimuth_3_joint,mA1/azimuth_4_joint,2.199114857512855,-2.356194490192345,-0.47123889803846897,0.5934119456780721
2025/04/09 09:50:06.883488971,0,0,,mA1/azimuth_1_joint,mA1/azimuth_2_joint,mA1/azimuth_3_joint,mA1/azimuth_4_joint,2.199114857512855,-2.356194490192345,-0.47123889803846897,0.5934119456780721
2025/04/09 09:50:06.984062910,0,0,,mA1/azimuth_1_joint,mA1/azimuth_2_joint,mA1/azimuth_3_joint,mA1/azimuth_4_joint,2.1642082724729685,-2.356194490192345,-0.4537856055185257,0.5759586531581288
2025/04/09 09:50:07.83431549,0,0,,mA1/azimuth_1_joint,mA1/azimuth_2_joint,mA1/azimuth_3_joint,mA1/azimuth_4_joint,2.111848394913139,-2.356194490192345,-0.4363323129985824,0.5759586531581288
2025/04/09 09:50:07.185829490,0,0,,mA1/azimuth_1_joint,mA1/azimuth_2_joint,mA1/azimuth_3_joint,mA1/azimuth_4_joint,2.1642082724729685,-2.356194490192345,-0.4537856055185257,0.5759586531581288
2025/04/09 09:50:07.284450940,0,0,,mA1/azimuth_1_joint,mA1/azimuth_2_joint,mA1/azimuth_3_joint,mA1/azimuth_4_joint,2.199114857512855,-2.356194490192345,-0.4537856055185257,0.5759586531581288
2025/04/09 09:50:07.384079520,0,0,,mA1/azimuth_1_joint,mA1/azimuth_2_joint,mA1/azimuth_3_joint,mA1/azimuth_4_joint,2.1467549799530254,-2.356194490192345,-0.4188790204786391,0.5585053606381855
2025/04/09 09:50:07.483625786,0,0,,mA1/azimuth_1_joint,mA1/azimuth_2_joint,mA1/azimuth_3_joint,mA1/azimuth_4_joint,2.1642082724729685,-2.356194490192345,-0.4363323129985824,0.5410520681182421
2025/04/09 09:50:07.584647738,0,0,,mA1/azimuth_1_joint,mA1/azimuth_2_joint,mA1/azimuth_3_joint,mA1/azimuth_4_joint,2.234021442552742,-2.356194490192345,-0.4537856055185257,0.5235987755982988
2025/04/09 09:50:07.684621864,0,0,,mA1/azimuth_1_joint,mA1/azimuth_2_joint,mA1/azimuth_3_joint,mA1/azimuth_4_joint,2.2863813201125716,-2.356194490192345,-0.5235987755982988,0.47123889803846897
2025/04/09 09:50:07.783983760,0,0,,mA1/azimuth_1_joint,mA1/azimuth_2_joint,mA1/azimuth_3_joint,mA1/azimuth_4_joint,2.234021442552742,-2.356194490192345,-0.4537856055185257,0.5061454830783556
2025/04/09 09:50:07.883559280,0,0,,mA1/azimuth_1_joint,mA1/azimuth_2_joint,mA1/azimuth_3_joint,mA1/azimuth_4_joint,2.303834612632515,-2.356194490192345,-0.47123889803846897,0.4886921905584123
2025/04/09 09:50:07.984155999,0,0,,mA1/azimuth_1_joint,mA1/azimuth_2_joint,mA1/azimuth_3_joint,mA1/azimuth_4_joint,2.2689280275926285,-2.356194490192345,-0.4188790204786391,0.4886921905584123
2025/04/09 09:50:08.84519792,0,0,,mA1/azimuth_1_joint,mA1/azimuth_2_joint,mA1/azimuth_3_joint,mA1/azimuth_4_joint,2.2863813201125716,-2.356194490192345,-0.3839724354387525,0.4537856055185257
2025/04/09 09:50:08.183592447,0,0,,mA1/azimuth_1_joint,mA1/azimuth_2_joint,mA1/azimuth_3_joint,mA1/azimuth_4_joint,2.251474735072685,-2.356194490192345,-0.3665191429188092,0.4363323129985824
2025/04/09 09:50:08.283462524,0,0,,mA1/azimuth_1_joint,mA1/azimuth_2_joint,mA1/azimuth_3_joint,mA1/azimuth_4_joint,2.199114857512855,-2.356194490192345,-0.3141592653589793,0.4363323129985824
2025/04/09 09:50:08.383647261,0,0,,mA1/azimuth_1_joint,mA1/azimuth_2_joint,mA1/azimuth_3_joint,mA1/azimuth_4_joint,2.251474735072685,-2.356194490192345,-0.3665191429188092,0.4014257279586958
2025/04/09 09:50:08.486687186,0,0,,mA1/azimuth_1_joint,mA1/azimuth_2_joint,mA1/azimuth_3_joint,mA1/azimuth_4_joint,2.234021442552742,-2.356194490192345,-0.3490658503988659,0.3839724354387525
2025/04/09 09:50:08.583888087,0,0,,mA1/azimuth_1_joint,mA1/azimuth_2_joint,mA1/azimuth_3_joint,mA1/azimuth_4_joint,2.2863813201125716,-2.356194490192345,-0.3665191429188092,0.3490658503988659
2025/04/09 09:50:08.684918915,0,0,,mA1/azimuth_1_joint,mA1/azimuth_2_joint,mA1/azimuth_3_joint,mA1/azimuth_4_joint,2.3387411976724017,-2.356194490192345,-0.3490658503988659,0.3665191429188092
2025/04/09 09:50:08.783733222,0,0,,mA1/azimuth_1_joint,mA1/azimuth_2_joint,mA1/azimuth_3_joint,mA1/azimuth_4_joint,2.356194490192345,-2.356194490192345,-0.3839724354387525,0.29670597283903605
2025/04/09 09:50:08.883823628,0,0,,mA1/azimuth_1_joint,mA1/azimuth_2_joint,mA1/azimuth_3_joint,mA1/azimuth_4_joint,2.356194490192345,-2.356194490192345,-0.4014257279586958,0.24434609527920614
2025/04/09 09:50:08.983710286,0,0,,mA1/azimuth_1_joint,mA1/azimuth_2_joint,mA1/azimuth_3_joint,mA1/azimuth_4_joint,2.356194490192345,-2.356194490192345,-0.4537856055185257,0.17453292519943295
2025/04/09 09:50:09.84333474,0,0,,mA1/azimuth_1_joint,mA1/azimuth_2_joint,mA1/azimuth_3_joint,mA1/azimuth_4_joint,2.303834612632515,-2.356194490192345,-0.3839724354387525,0.24434609527920614
2025/04/09 09:50:09.184199586,0,0,,mA1/azimuth_1_joint,mA1/azimuth_2_joint,mA1/azimuth_3_joint,mA1/azimuth_4_joint,2.2863813201125716,-2.356194490192345,-0.33161255787892263,0.29670597283903605
2025/04/09 09:50:09.283482051,0,0,,mA1/azimuth_1_joint,mA1/azimuth_2_joint,mA1/azimuth_3_joint,mA1/azimuth_4_joint,2.321287905152458,-2.356194490192345,-0.2792526803190927,0.29670597283903605
2025/04/09 09:50:09.384355847,0,0,,mA1/azimuth_1_joint,mA1/azimuth_2_joint,mA1/azimuth_3_joint,mA1/azimuth_4_joint,2.2689280275926285,-2.356194490192345,-0.20943951023931956,0.33161255787892263
2025/04/09 09:50:09.483548549,0,0,,mA1/azimuth_1_joint,mA1/azimuth_2_joint,mA1/azimuth_3_joint,mA1/azimuth_4_joint,2.303834612632515,-2.356194490192345,-0.20943951023931956,0.2792526803190927
2025/04/09 09:50:09.586275254,0,0,,mA1/azimuth_1_joint,mA1/azimuth_2_joint,mA1/azimuth_3_joint,mA1/azimuth_4_joint,2.2689280275926285,-2.356194490192345,-0.20943951023931956,0.2617993877991494
2025/04/09 09:50:09.685927964,0,0,,mA1/azimuth_1_joint,mA1/azimuth_2_joint,mA1/azimuth_3_joint,mA1/azimuth_4_joint,2.2165681500327987,-2.356194490192345,-0.19198621771937624,0.24434609527920614
2025/04/09 09:50:09.784738764,0,0,,mA1/azimuth_1_joint,mA1/azimuth_2_joint,mA1/azimuth_3_joint,mA1/azimuth_4_joint,2.1467549799530254,-2.356194490192345,-0.15707963267948966,0.24434609527920614
2025/04/09 09:50:09.883605351,0,0,,mA1/azimuth_1_joint,mA1/azimuth_2_joint,mA1/azimuth_3_joint,mA1/azimuth_4_joint,2.0943951023931953,-2.356194490192345,-0.15707963267948966,0.24434609527920614
2025/04/09 09:50:09.983665300,0,0,,mA1/azimuth_1_joint,mA1/azimuth_2_joint,mA1/azimuth_3_joint,mA1/azimuth_4_joint,2.0245819323134224,-2.356194490192345,-0.15707963267948966,0.22689280275926285
2025/04/09 09:50:10.83681348,0,0,,mA1/azimuth_1_joint,mA1/azimuth_2_joint,mA1/azimuth_3_joint,mA1/azimuth_4_joint,2.0943951023931953,-2.356194490192345,-0.17453292519943295,0.19198621771937624
2025/04/09 09:50:10.183850562,0,0,,mA1/azimuth_1_joint,mA1/azimuth_2_joint,mA1/azimuth_3_joint,mA1/azimuth_4_joint,2.1467549799530254,-2.356194490192345,-0.17453292519943295,0.19198621771937624
2025/04/09 09:50:10.285197620,0,0,,mA1/azimuth_1_joint,mA1/azimuth_2_joint,mA1/azimuth_3_joint,mA1/azimuth_4_joint,2.181661564992912,-2.356194490192345,-0.15707963267948966,0.17453292519943295
2025/04/09 09:50:10.385095818,0,0,,mA1/azimuth_1_joint,mA1/azimuth_2_joint,mA1/azimuth_3_joint,mA1/azimuth_4_joint,2.251474735072685,-2.356194490192345,-0.15707963267948966,0.17453292519943295
2025/04/09 09:50:10.484033947,0,0,,mA1/azimuth_1_joint,mA1/azimuth_2_joint,mA1/azimuth_3_joint,mA1/azimuth_4_joint,2.181661564992912,-2.356194490192345,-0.12217304763960307,0.19198621771937624
2025/04/09 09:50:10.584181657,0,0,,mA1/azimuth_1_joint,mA1/azimuth_2_joint,mA1/azimuth_3_joint,mA1/azimuth_4_joint,2.129301687433082,-2.3736477827122884,-0.12217304763960307,0.17453292519943295
2025/04/09 09:50:10.683721052,0,0,,mA1/azimuth_1_joint,mA1/azimuth_2_joint,mA1/azimuth_3_joint,mA1/azimuth_4_joint,2.111848394913139,-2.3736477827122884,-0.13962634015954636,0.15707963267948966
2025/04/09 09:50:10.784090604,0,0,,mA1/azimuth_1_joint,mA1/azimuth_2_joint,mA1/azimuth_3_joint,mA1/azimuth_4_joint,2.1642082724729685,-2.3736477827122884,-0.12217304763960307,0.13962634015954636
2025/04/09 09:50:10.884165686,0,0,,mA1/azimuth_1_joint,mA1/azimuth_2_joint,mA1/azimuth_3_joint,mA1/azimuth_4_joint,2.2165681500327987,-2.3736477827122884,-0.13962634015954636,0.13962634015954636
2025/04/09 09:50:10.983497211,0,0,,mA1/azimuth_1_joint,mA1/azimuth_2_joint,mA1/azimuth_3_joint,mA1/azimuth_4_joint,2.2863813201125716,-2.3736477827122884,-0.12217304763960307,0.13962634015954636
2025/04/09 09:50:11.83752862,0,0,,mA1/azimuth_1_joint,mA1/azimuth_2_joint,mA1/azimuth_3_joint,mA1/azimuth_4_joint,2.3387411976724017,-2.3736477827122884,-0.13962634015954636,0.10471975511965978
2025/04/09 09:50:11.184175055,0,0,,mA1/azimuth_1_joint,mA1/azimuth_2_joint,mA1/azimuth_3_joint,mA1/azimuth_4_joint,2.3736477827122884,-2.3736477827122884,-0.15707963267948966,0.06981317007977318
2025/04/09 09:50:11.283669267,0,0,,mA1/azimuth_1_joint,mA1/azimuth_2_joint,mA1/azimuth_3_joint,mA1/azimuth_4_joint,2.303834612632515,-2.356194490192345,-0.10471975511965978,0.12217304763960307
2025/04/09 09:50:11.383578597,0,0,,mA1/azimuth_1_joint,mA1/azimuth_2_joint,mA1/azimuth_3_joint,mA1/azimuth_4_joint,2.251474735072685,-2.3736477827122884,-0.08726646259971647,0.12217304763960307
2025/04/09 09:50:11.483376530,0,0,,mA1/azimuth_1_joint,mA1/azimuth_2_joint,mA1/azimuth_3_joint,mA1/azimuth_4_joint,2.303834612632515,-2.3736477827122884,-0.10471975511965978,0.10471975511965978
2025/04/09 09:50:11.583623603,0,0,,mA1/azimuth_1_joint,mA1/azimuth_2_joint,mA1/azimuth_3_joint,mA1/azimuth_4_joint,2.356194490192345,-2.3736477827122884,-0.12217304763960307,0.08726646259971647
2025/04/09 09:50:11.683435670,0,0,,mA1/azimuth_1_joint,mA1/azimuth_2_joint,mA1/azimuth_3_joint,mA1/azimuth_4_joint,2.356194490192345,-2.3736477827122884,-0.10471975511965978,0.10471975511965978
2025/04/09 09:50:11.783503343,0,0,,mA1/azimuth_1_joint,mA1/azimuth_2_joint,mA1/azimuth_3_joint,mA1/azimuth_4_joint,2.356194490192345,-2.3736477827122884,-0.10471975511965978,0.08726646259971647
2025/04/09 09:50:11.886191528,0,0,,mA1/azimuth_1_joint,mA1/azimuth_2_joint,mA1/azimuth_3_joint,mA1/azimuth_4_joint,2.356194490192345,-2.3736477827122884,-0.08726646259971647,0.10471975511965978
2025/04/09 09:50:11.983493548,0,0,,mA1/azimuth_1_joint,mA1/azimuth_2_joint,mA1/azimuth_3_joint,mA1/azimuth_4_joint,2.2863813201125716,-2.3736477827122884,-0.06981317007977318,0.12217304763960307
2025/04/09 09:50:12.84438200,0,0,,mA1/azimuth_1_joint,mA1/azimuth_2_joint,mA1/azimuth_3_joint,mA1/azimuth_4_joint,2.234021442552742,-2.3736477827122884,-0.06981317007977318,0.10471975511965978
2025/04/09 09:50:12.184382729,0,0,,mA1/azimuth_1_joint,mA1/azimuth_2_joint,mA1/azimuth_3_joint,mA1/azimuth_4_joint,2.1642082724729685,-2.3736477827122884,-0.06981317007977318,0.10471975511965978
2025/04/09 09:50:12.283617347,0,0,,mA1/azimuth_1_joint,mA1/azimuth_2_joint,mA1/azimuth_3_joint,mA1/azimuth_4_joint,2.111848394913139,-2.3736477827122884,-0.05235987755982989,0.12217304763960307
2025/04/09 09:50:12.383530398,0,0,,mA1/azimuth_1_joint,mA1/azimuth_2_joint,mA1/azimuth_3_joint,mA1/azimuth_4_joint,2.059488517353309,-2.3736477827122884,-0.05235987755982989,0.12217304763960307
2025/04/09 09:50:12.483644907,0,0,,mA1/azimuth_1_joint,mA1/azimuth_2_joint,mA1/azimuth_3_joint,mA1/azimuth_4_joint,2.0245819323134224,-2.3911010752322315,-0.08726646259971647,0.06981317007977318
2025/04/09 09:50:12.584097675,0,0,,mA1/azimuth_1_joint,mA1/azimuth_2_joint,mA1/azimuth_3_joint,mA1/azimuth_4_joint,2.007128639793479,-2.3911010752322315,-0.08726646259971647,0.06981317007977318
2025/04/09 09:50:12.683643626,0,0,,mA1/azimuth_1_joint,mA1/azimuth_2_joint,mA1/azimuth_3_joint,mA1/azimuth_4_joint,1.9373154697137058,-2.3911010752322315,-0.06981317007977318,0.06981317007977318
2025/04/09 09:50:12.785726972,0,0,,mA1/azimuth_1_joint,mA1/azimuth_2_joint,mA1/azimuth_3_joint,mA1/azimuth_4_joint,1.8849555921538759,-2.3911010752322315,-0.06981317007977318,0.06981317007977318
2025/04/09 09:50:12.884179775,0,0,,mA1/azimuth_1_joint,mA1/azimuth_2_joint,mA1/azimuth_3_joint,mA1/azimuth_4_joint,1.8151424220741028,-2.3911010752322315,-0.06981317007977318,0.06981317007977318
2025/04/09 09:50:12.983482514,0,0,,mA1/azimuth_1_joint,mA1/azimuth_2_joint,mA1/azimuth_3_joint,mA1/azimuth_4_joint,1.7627825445142729,-2.3911010752322315,-0.06981317007977318,0.06981317007977318
2025/04/09 09:50:13.83898309,0,0,,mA1/azimuth_1_joint,mA1/azimuth_2_joint,mA1/azimuth_3_joint,mA1/azimuth_4_joint,1.710422666954443,-2.3911010752322315,-0.05235987755982989,0.06981317007977318
2025/04/09 09:50:13.183869685,0,0,,mA1/azimuth_1_joint,mA1/azimuth_2_joint,mA1/azimuth_3_joint,mA1/azimuth_4_joint,1.6406094968746698,-2.3911010752322315,-0.06981317007977318,0.05235987755982989
2025/04/09 09:50:13.283499204,0,0,,mA1/azimuth_1_joint,mA1/azimuth_2_joint,mA1/azimuth_3_joint,mA1/azimuth_4_joint,1.5882496193148399,-2.3911010752322315,-0.06981317007977318,0.05235987755982989
2025/04/09 09:50:13.383706417,0,0,,mA1/azimuth_1_joint,mA1/azimuth_2_joint,mA1/azimuth_3_joint,mA1/azimuth_4_joint,1.5533430342749532,-2.3911010752322315,-0.08726646259971647,0.03490658503988659
2025/04/09 09:50:13.483590109,0,0,,mA1/azimuth_1_joint,mA1/azimuth_2_joint,mA1/azimuth_3_joint,mA1/azimuth_4_joint,1.6231562043547265,-2.4085543677521746,-0.08726646259971647,0.03490658503988659
2025/04/09 09:50:13.584092161,0,0,,mA1/azimuth_1_joint,mA1/azimuth_2_joint,mA1/azimuth_3_joint,mA1/azimuth_4_joint,1.6755160819145565,-2.4085543677521746,-0.08726646259971647,0.017453292519943295
2025/04/09 09:50:13.683533987,0,0,,mA1/azimuth_1_joint,mA1/azimuth_2_joint,mA1/azimuth_3_joint,mA1/azimuth_4_joint,1.6231562043547265,-2.4085543677521746,-0.06981317007977318,0.03490658503988659
2025/04/09 09:50:13.783385813,0,0,,mA1/azimuth_1_joint,mA1/azimuth_2_joint,mA1/azimuth_3_joint,mA1/azimuth_4_joint,1.5707963267948966,-2.4085543677521746,-0.06981317007977318,0.03490658503988659
2025/04/09 09:50:13.883526253,0,0,,mA1/azimuth_1_joint,mA1/azimuth_2_joint,mA1/azimuth_3_joint,mA1/azimuth_4_joint,1.5533430342749532,-2.4085543677521746,-0.06981317007977318,0.03490658503988659
2025/04/09 09:50:13.984168924,0,0,,mA1/azimuth_1_joint,mA1/azimuth_2_joint,mA1/azimuth_3_joint,mA1/azimuth_4_joint,1.6231562043547265,-2.4085543677521746,-0.08726646259971647,0.03490658503988659
2025/04/09 09:50:14.84799648,0,0,,mA1/azimuth_1_joint,mA1/azimuth_2_joint,mA1/azimuth_3_joint,mA1/azimuth_4_joint,1.5533430342749532,-2.4085543677521746,-0.06981317007977318,0.03490658503988659
2025/04/09 09:50:14.183743490,0,0,,mA1/azimuth_1_joint,mA1/azimuth_2_joint,mA1/azimuth_3_joint,mA1/azimuth_4_joint,1.6231562043547265,-2.4085543677521746,-0.06981317007977318,0.03490658503988659
2025/04/09 09:50:14.283488416,0,0,,mA1/azimuth_1_joint,mA1/azimuth_2_joint,mA1/azimuth_3_joint,mA1/azimuth_4_joint,1.5707963267948966,-2.4085543677521746,-0.06981317007977318,0.03490658503988659
2025/04/09 09:50:14.384198101,0,0,,mA1/azimuth_1_joint,mA1/azimuth_2_joint,mA1/azimuth_3_joint,mA1/azimuth_4_joint,1.5533430342749532,-2.4085543677521746,-0.06981317007977318,0.03490658503988659
2025/04/09 09:50:14.483489352,0,0,,mA1/azimuth_1_joint,mA1/azimuth_2_joint,mA1/azimuth_3_joint,mA1/azimuth_4_joint,1.5533430342749532,-2.4085543677521746,-0.05235987755982989,0.03490658503988659
2025/04/09 09:50:14.583462566,0,0,,mA1/azimuth_1_joint,mA1/azimuth_2_joint,mA1/azimuth_3_joint,mA1/azimuth_4_joint,1.5533430342749532,-2.4085543677521746,-0.05235987755982989,0.03490658503988659
2025/04/09 09:50:14.683477303,0,0,,mA1/azimuth_1_joint,mA1/azimuth_2_joint,mA1/azimuth_3_joint,mA1/azimuth_4_joint,1.5533430342749532,-2.4085543677521746,-0.05235987755982989,0.05235987755982989
2025/04/09 09:50:14.783510217,0,0,,mA1/azimuth_1_joint,mA1/azimuth_2_joint,mA1/azimuth_3_joint,mA1/azimuth_4_joint,1.5533430342749532,-2.4085543677521746,-0.05235987755982989,0.03490658503988659
2025/04/09 09:50:14.884213585,0,0,,mA1/azimuth_1_joint,mA1/azimuth_2_joint,mA1/azimuth_3_joint,mA1/azimuth_4_joint,1.5533430342749532,-2.4085543677521746,-0.05235987755982989,0.03490658503988659
2025/04/09 09:50:14.983526680,0,0,,mA1/azimuth_1_joint,mA1/azimuth_2_joint,mA1/azimuth_3_joint,mA1/azimuth_4_joint,1.6231562043547265,-2.4085543677521746,-0.06981317007977318,0.03490658503988659
2025/04/09 09:50:15.83582380,0,0,,mA1/azimuth_1_joint,mA1/azimuth_2_joint,mA1/azimuth_3_joint,mA1/azimuth_4_joint,1.5533430342749532,-2.4085543677521746,-0.05235987755982989,0.03490658503988659
2025/04/09 09:50:15.183587130,0,0,,mA1/azimuth_1_joint,mA1/azimuth_2_joint,mA1/azimuth_3_joint,mA1/azimuth_4_joint,1.5533430342749532,-2.4085543677521746,-0.05235987755982989,0.03490658503988659
2025/04/09 09:50:15.283390297,0,0,,mA1/azimuth_1_joint,mA1/azimuth_2_joint,mA1/azimuth_3_joint,mA1/azimuth_4_joint,1.5533430342749532,-2.4085543677521746,-0.05235987755982989,0.03490658503988659
2025/04/09 09:50:15.384249205,0,0,,mA1/azimuth_1_joint,mA1/azimuth_2_joint,mA1/azimuth_3_joint,mA1/azimuth_4_joint,1.5533430342749532,-2.4085543677521746,-0.05235987755982989,0.03490658503988659
2025/04/09 09:50:15.483483807,0,0,,mA1/azimuth_1_joint,mA1/azimuth_2_joint,mA1/azimuth_3_joint,mA1/azimuth_4_joint,1.5533430342749532,-2.426007660272118,-0.05235987755982989,0.017453292519943295
2025/04/09 09:50:15.583974011,0,0,,mA1/azimuth_1_joint,mA1/azimuth_2_joint,mA1/azimuth_3_joint,mA1/azimuth_4_joint,1.5533430342749532,-2.426007660272118,-0.05235987755982989,0.03490658503988659
2025/04/09 09:50:15.684460943,0,0,,mA1/azimuth_1_joint,mA1/azimuth_2_joint,mA1/azimuth_3_joint,mA1/azimuth_4_joint,1.5533430342749532,-2.426007660272118,-0.05235987755982989,0.017453292519943295
2025/04/09 09:50:15.783548252,0,0,,mA1/azimuth_1_joint,mA1/azimuth_2_joint,mA1/azimuth_3_joint,mA1/azimuth_4_joint,1.6231562043547265,-2.426007660272118,-0.05235987755982989,0.017453292519943295
2025/04/09 09:50:15.883965780,0,0,,mA1/azimuth_1_joint,mA1/azimuth_2_joint,mA1/azimuth_3_joint,mA1/azimuth_4_joint,1.6755160819145565,-2.426007660272118,-0.05235987755982989,0.03490658503988659
2025/04/09 09:50:15.983574432,0,0,,mA1/azimuth_1_joint,mA1/azimuth_2_joint,mA1/azimuth_3_joint,mA1/azimuth_4_joint,1.7453292519943295,-2.426007660272118,-0.05235987755982989,0.017453292519943295
2025/04/09 09:50:16.83765288,0,0,,mA1/azimuth_1_joint,mA1/azimuth_2_joint,mA1/azimuth_3_joint,mA1/azimuth_4_joint,1.7976891295541595,-2.426007660272118,-0.05235987755982989,0.03490658503988659
2025/04/09 09:50:16.184806876,0,0,,mA1/azimuth_1_joint,mA1/azimuth_2_joint,mA1/azimuth_3_joint,mA1/azimuth_4_joint,1.7453292519943295,-2.426007660272118,-0.03490658503988659,0.05235987755982989
2025/04/09 09:50:16.283995684,0,0,,mA1/azimuth_1_joint,mA1/azimuth_2_joint,mA1/azimuth_3_joint,mA1/azimuth_4_joint,1.6755160819145565,-2.426007660272118,-0.03490658503988659,0.03490658503988659
2025/04/09 09:50:16.383495334,0,0,,mA1/azimuth_1_joint,mA1/azimuth_2_joint,mA1/azimuth_3_joint,mA1/azimuth_4_joint,1.6231562043547265,-2.426007660272118,-0.03490658503988659,0.05235987755982989
2025/04/09 09:50:16.483409805,0,0,,mA1/azimuth_1_joint,mA1/azimuth_2_joint,mA1/azimuth_3_joint,mA1/azimuth_4_joint,1.5533430342749532,-2.426007660272118,-0.05235987755982989,0.03490658503988659
2025/04/09 09:50:16.583488621,0,0,,mA1/azimuth_1_joint,mA1/azimuth_2_joint,mA1/azimuth_3_joint,mA1/azimuth_4_joint,1.5533430342749532,-2.426007660272118,-0.03490658503988659,0.03490658503988659
2025/04/09 09:50:16.683536704,0,0,,mA1/azimuth_1_joint,mA1/azimuth_2_joint,mA1/azimuth_3_joint,mA1/azimuth_4_joint,1.5533430342749532,-2.426007660272118,-0.03490658503988659,0.03490658503988659
2025/04/09 09:50:16.785744951,0,0,,mA1/azimuth_1_joint,mA1/azimuth_2_joint,mA1/azimuth_3_joint,mA1/azimuth_4_joint,1.5533430342749532,-2.426007660272118,-0.03490658503988659,0.03490658503988659
2025/04/09 09:50:16.883500619,0,0,,mA1/azimuth_1_joint,mA1/azimuth_2_joint,mA1/azimuth_3_joint,mA1/azimuth_4_joint,1.5533430342749532,-2.426007660272118,-0.03490658503988659,0.03490658503988659
2025/04/09 09:50:16.984166744,0,0,,mA1/azimuth_1_joint,mA1/azimuth_2_joint,mA1/azimuth_3_joint,mA1/azimuth_4_joint,1.5533430342749532,-2.426007660272118,-0.03490658503988659,0.03490658503988659
2025/04/09 09:50:17.84070306,0,0,,mA1/azimuth_1_joint,mA1/azimuth_2_joint,mA1/azimuth_3_joint,mA1/azimuth_4_joint,1.5533430342749532,-2.426007660272118,-0.03490658503988659,0.03490658503988659
2025/04/09 09:50:17.183765258,0,0,,mA1/azimuth_1_joint,mA1/azimuth_2_joint,mA1/azimuth_3_joint,mA1/azimuth_4_joint,1.5533430342749532,-2.426007660272118,-0.03490658503988659,0.05235987755982989
2025/04/09 09:50:17.283440504,0,0,,mA1/azimuth_1_joint,mA1/azimuth_2_joint,mA1/azimuth_3_joint,mA1/azimuth_4_joint,1.5533430342749532,-2.426007660272118,-0.017453292519943295,0.05235987755982989
2025/04/09 09:50:17.384179631,0,0,,mA1/azimuth_1_joint,mA1/azimuth_2_joint,mA1/azimuth_3_joint,mA1/azimuth_4_joint,1.5533430342749532,-2.426007660272118,-0.03490658503988659,0.03490658503988659
2025/04/09 09:50:17.483430926,0,0,,mA1/azimuth_1_joint,mA1/azimuth_2_joint,mA1/azimuth_3_joint,mA1/azimuth_4_joint,1.5533430342749532,-2.426007660272118,-0.03490658503988659,0.03490658503988659
2025/04/09 09:50:17.583454921,0,0,,mA1/azimuth_1_joint,mA1/azimuth_2_joint,mA1/azimuth_3_joint,mA1/azimuth_4_joint,1.6231562043547265,-2.426007660272118,-0.05235987755982989,0.017453292519943295
2025/04/09 09:50:17.683634280,0,0,,mA1/azimuth_1_joint,mA1/azimuth_2_joint,mA1/azimuth_3_joint,mA1/azimuth_4_joint,1.5533430342749532,-2.426007660272118,-0.03490658503988659,0.03490658503988659
2025/04/09 09:50:17.783624126,0,0,,mA1/azimuth_1_joint,mA1/azimuth_2_joint,mA1/azimuth_3_joint,mA1/azimuth_4_joint,1.6231562043547265,-2.426007660272118,-0.05235987755982989,0.017453292519943295
2025/04/09 09:50:17.884318208,0,0,,mA1/azimuth_1_joint,mA1/azimuth_2_joint,mA1/azimuth_3_joint,mA1/azimuth_4_joint,1.6755160819145565,-2.426007660272118,-0.05235987755982989,0.017453292519943295
2025/04/09 09:50:17.984793270,0,0,,mA1/azimuth_1_joint,mA1/azimuth_2_joint,mA1/azimuth_3_joint,mA1/azimuth_4_joint,1.7453292519943295,-2.426007660272118,-0.03490658503988659,0.03490658503988659
2025/04/09 09:50:18.84235320,0,0,,mA1/azimuth_1_joint,mA1/azimuth_2_joint,mA1/azimuth_3_joint,mA1/azimuth_4_joint,1.7976891295541595,-2.426007660272118,-0.03490658503988659,0.03490658503988659
2025/04/09 09:50:18.184400560,0,0,,mA1/azimuth_1_joint,mA1/azimuth_2_joint,mA1/azimuth_3_joint,mA1/azimuth_4_joint,1.7453292519943295,-2.426007660272118,-0.03490658503988659,0.03490658503988659
2025/04/09 09:50:18.283534345,0,0,,mA1/azimuth_1_joint,mA1/azimuth_2_joint,mA1/azimuth_3_joint,mA1/azimuth_4_joint,1.7976891295541595,-2.426007660272118,-0.03490658503988659,0.03490658503988659
2025/04/09 09:50:18.383496139,0,0,,mA1/azimuth_1_joint,mA1/azimuth_2_joint,mA1/azimuth_3_joint,mA1/azimuth_4_joint,1.8675022996339325,-2.426007660272118,-0.03490658503988659,0.05235987755982989
