time,header_stamp_secs,header_stamp_nsecs,header_frame_id,wrench_force_x,wrench_force_y,wrench_force_z,wrench_torque_x,wrench_torque_y,wrench_torque_z
2025/04/10 10:33:47.887270513,1744274027,755423006,,-0.568318009376526,0.7734737992286681,0.0,0.0,0.0,-0.18740420043468484
2025/04/10 10:33:47.888791617,1744274027,864976402,,-0.5684803128242493,0.7735229134559631,0.0,0.0,0.0,-0.18765673041343683
2025/04/10 10:33:47.956029919,1744274027,955440441,,-0.5737921595573426,0.6146113872528075,0.0,0.0,0.0,-0.186253324151039
2025/04/10 10:33:48.65738663,1744274028,60472175,,-0.5739561319351196,0.6146461963653564,0.0,0.0,0.0,-0.1865051984786985
2025/04/10 10:33:48.168051623,1744274028,163823064,,-0.568701922893524,1.8540444374084473,0.0,0.0,0.0,-0.18902967870235465
2025/04/10 10:33:48.250694973,1744274028,248344378,,-0.5636438727378846,1.4292464256286619,0.0,0.0,0.0,-0.18881434202194228
2025/04/10 10:33:48.352425012,1744274028,352185746,,-0.5568888187408445,0.7452384829521183,0.0,0.0,0.0,-0.1893743723630904
2025/04/10 10:33:48.448463025,1744274028,448047277,,-0.5652149319648743,0.3777024447917938,0.0,0.0,0.0,-0.18958507478237116
2025/04/10 10:33:48.548223050,1744274028,547883295,,-0.5653802752494812,0.3777237832546235,0.0,0.0,0.0,-0.1898374408483503
2025/04/10 10:33:48.649455940,1744274028,649038105,,-0.5688635110855101,0.0042750099673867885,0.0,0.0,0.0,-0.1906956285238266
2025/04/10 10:33:48.748662761,1744274028,748225859,,-0.565754234790802,0.04236891493201265,0.0,0.0,0.0,-0.1893901526927948
2025/04/10 10:33:48.854427163,1744274028,854041574,,-0.565482497215271,-1.3662809133529663,0.0,0.0,0.0,-0.18998478353023485
2025/04/10 10:33:48.953280808,1744274028,952995371,,-0.5655120611190797,0.6326324343681335,0.0,0.0,0.0,-0.19165942072868347
2025/04/10 10:33:49.49939561,1744274029,49094312,,-0.5656795501708985,0.6326397061347963,0.0,0.0,0.0,-0.19191196560859666
2025/04/10 10:33:49.148186190,1744274029,147846659,,-0.5676838159561157,0.6468390822410586,0.0,0.0,0.0,-0.19172182679176317
2025/04/10 10:33:49.248877812,1744274029,248501371,,-0.5682275295257567,1.2671300172805786,0.0,0.0,0.0,-0.19162528216838834
2025/04/10 10:33:49.352125317,1744274029,351751439,,-0.5697074532508852,1.7655508518218994,0.0,0.0,0.0,-0.1919748932123187
2025/04/10 10:33:49.447901715,1744274029,447563885,,-0.5698769688606263,1.7656725645065308,0.0,0.0,0.0,-0.19222715497016873
2025/04/10 10:33:49.548210325,1744274029,547912628,,-0.5733484029769895,1.5686957836151123,0.0,0.0,0.0,-0.19246575236320523
2025/04/10 10:33:49.658084851,1744274029,655949292,,-0.5848565697669983,0.7602077126502993,0.0,0.0,0.0,-0.19619856774807015
2025/04/10 10:33:49.749273896,1744274029,748685730,,-0.5850290060043334,0.7602676153182985,0.0,0.0,0.0,-0.19645173847675376
2025/04/10 10:33:49.850401074,1744274029,849653923,,-0.5899882316589358,0.2562052309513093,0.0,0.0,0.0,-0.19615332782268524
2025/04/10 10:33:49.949795567,1744274029,949326569,,-0.5867164134979248,0.14375434815883645,0.0,0.0,0.0,-0.19629962742328633
2025/04/10 10:33:50.55228449,1744274030,54905295,,-0.5868903994560243,0.14374330639839175,0.0,0.0,0.0,-0.19655257463455197
2025/04/10 10:33:50.149046710,1744274030,148719100,,-0.5850538015365601,1.31273090839386,0.0,0.0,0.0,-0.19857035577297108
2025/04/10 10:33:50.248369967,1744274030,248096414,,-0.5852283835411075,1.3128204345703123,0.0,0.0,0.0,-0.19882372021675132
2025/04/10 10:33:50.351856936,1744274030,350592081,,-0.5855022072792057,1.0338159799575806,0.0,0.0,0.0,-0.19953908026218442
2025/04/10 10:33:50.448441122,1744274030,448115582,,-0.5919927954673769,0.4967519938945771,0.0,0.0,0.0,-0.20733551681041715
2025/04/10 10:33:50.548319128,1744274030,547807127,,-0.5988852977752683,0.36841449141502386,0.0,0.0,0.0,-0.20745965838432306
2025/04/10 10:33:50.648520276,1744274030,648269823,,-0.6039759516716001,-1.389096975326538,0.0,0.0,0.0,-0.20306620001792774
2025/04/10 10:33:50.748095410,1744274030,747749660,,-0.604154586791992,-1.3892635107040403,0.0,0.0,0.0,-0.20332050323486262
2025/04/10 10:33:50.850090672,1744274030,849733527,,-0.5961288809776306,0.4616281390190123,0.0,0.0,0.0,-0.2060552388429645
2025/04/10 10:33:50.948533658,1744274030,948300108,,-0.5963074564933778,0.46162328124046337,0.0,0.0,0.0,-0.2063101232051846
2025/04/10 10:33:51.50970235,1744274031,49622079,,-0.5846916437149048,0.20252723991870866,0.0,0.0,0.0,-0.2084274441003801
2025/04/10 10:33:51.148344844,1744274031,147567908,,-0.5861713290214537,0.2526035904884337,0.0,0.0,0.0,-0.2073342204093936
2025/04/10 10:33:51.250041706,1744274031,249020043,,-0.5863497257232667,0.2525767683982848,0.0,0.0,0.0,-0.2075894325971604
2025/04/10 10:33:51.349865841,1744274031,348192732,,-0.5943723917007446,1.5234805345535278,0.0,0.0,0.0,-0.2094707638025287
2025/04/10 10:33:51.449532159,1744274031,447572424,,-0.5966312289237976,1.182284951210022,0.0,0.0,0.0,-0.20869618654251093
2025/04/10 10:33:51.549210685,1744274031,548868316,,-0.6017030477523803,-0.6979165077209474,0.0,0.0,0.0,-0.21043446660041787
2025/04/10 10:33:51.649482152,1744274031,649169367,,-0.6096882224082947,-0.6742213368415833,0.0,0.0,0.0,-0.2096305191516875
2025/04/10 10:33:51.748459418,1744274031,748043039,,-0.6165270805358889,-0.3820028007030486,0.0,0.0,0.0,-0.22325707972049696
2025/04/10 10:33:51.847968095,1744274031,847583007,,-0.616710901260376,-0.382104605436325,0.0,0.0,0.0,-0.2235152721405027
2025/04/10 10:33:51.948663357,1744274031,948377205,,-0.6071343421936032,1.3219661712646484,0.0,0.0,0.0,-0.21406550705432884
2025/04/10 10:33:52.48718082,1744274032,48411033,,-0.6073179244995114,1.3220216035842896,0.0,0.0,0.0,-0.21432206034660334
2025/04/10 10:33:52.149345076,1744274032,149118548,,-0.6054580807685854,1.1961665153503416,0.0,0.0,0.0,-0.21468251943588273
2025/04/10 10:33:52.250670536,1744274032,249558834,,-0.6118251085281371,0.7510246038436889,0.0,0.0,0.0,-0.21433429419994438
2025/04/10 10:33:52.349297162,1744274032,348922495,,-0.612010061740875,0.751049935817719,0.0,0.0,0.0,-0.21459077298641183
2025/04/10 10:33:52.448262214,1744274032,447962073,,-0.6227928996086121,0.27322608232498174,0.0,0.0,0.0,-0.21617139875888824
2025/04/10 10:33:52.548173964,1744274032,547902822,,-0.6229797601699827,0.2732086181640625,0.0,0.0,0.0,-0.21642816066741938
2025/04/10 10:33:52.649156796,1744274032,648755359,,-0.6236900687217714,1.6007819175720215,0.0,0.0,0.0,-0.21705237030982916
2025/04/10 10:33:52.748357695,1744274032,748020054,,-0.6213762164115906,-0.4048556685447694,0.0,0.0,0.0,-0.21826909482479123
2025/04/10 10:33:52.849271567,1744274032,848941525,,-0.6215640306472777,-0.4049279987812043,0.0,0.0,0.0,-0.21852630376815824
2025/04/10 10:33:52.948903313,1744274032,948420181,,-0.6265736222267151,0.8382078409194946,0.0,0.0,0.0,-0.22018417716026306
2025/04/10 10:33:53.52041157,1744274033,51732490,,-0.623932421207428,0.3679165840148926,0.0,0.0,0.0,-0.21954613924026478
2025/04/10 10:33:53.150108311,1744274033,149781178,,-0.619991660118103,0.04040974378585812,0.0,0.0,0.0,-0.2206496447324754
2025/04/10 10:33:53.247933045,1744274033,247610002,,-0.62523353099823,0.12218429893255228,0.0,0.0,0.0,-0.22116938233375552
2025/04/10 10:33:53.347836170,1744274033,347599441,,-0.6254232525825499,0.122149184346199,0.0,0.0,0.0,-0.2214269638061524
2025/04/10 10:33:53.449699563,1744274033,448511776,,-0.6265995502471923,-0.10851253569126126,0.0,0.0,0.0,-0.22270639240741738
2025/04/10 10:33:53.548561587,1744274033,548315766,,-0.6250240802764893,0.012449892237782596,0.0,0.0,0.0,-0.2272918522357938
2025/04/10 10:33:53.651080268,1744274033,650665008,,-0.6266558170318604,-1.5334209203720093,0.0,0.0,0.0,-0.22752399742603258
2025/04/10 10:33:53.750134577,1744274033,749818050,,-0.6217179298400878,0.6870625615119934,0.0,0.0,0.0,-0.22434778511524187
2025/04/10 10:33:53.848123500,1744274033,847818025,,-0.6205438971519469,0.6716362833976746,0.0,0.0,0.0,-0.2240051925182341
2025/04/10 10:33:53.961808144,1744274033,960707738,,28.30571623531857,-0.12963171263029594,0.0,0.0,0.0,0.2854870855794367
2025/04/10 10:33:54.56967355,1744274034,56560049,,58.64181672397129,-2.379371950939463,0.0,0.0,0.0,0.0816894471645071
2025/04/10 10:33:54.157066043,1744274034,156730389,,91.61987847282079,-3.543943881991723,0.0,0.0,0.0,-0.0649222880601954
2025/04/10 10:33:54.250926020,1744274034,250604006,,120.9751739501953,-3.982383728027351,0.0,0.0,0.0,-0.14014534652231703
2025/04/10 10:33:54.352716788,1744274034,352120981,,121.13465118408145,-2.301730155944707,0.0,0.0,0.0,-0.39570984244421936
2025/04/10 10:33:54.449599953,1744274034,449207425,,121.44063568115234,-1.2923270463943552,0.0,0.0,0.0,-0.3522485792636729
2025/04/10 10:33:54.549207711,1744274034,548960344,,121.7255172729492,-1.2703628540038991,0.0,0.0,0.0,-0.34989538788799734
2025/04/10 10:33:54.649424456,1744274034,649128942,,121.95033264160156,-2.5618135929107737,0.0,0.0,0.0,-0.504587829112964
2025/04/10 10:33:54.749493236,1744274034,749128539,,122.2299575805664,-2.859933614730828,0.0,0.0,0.0,-0.44006791710855
2025/04/10 10:33:54.851678494,1744274034,851377261,,122.40103149414062,-2.892584562301625,0.0,0.0,0.0,-0.43878650665287466
2025/04/10 10:33:54.948513837,1744274034,948152808,,122.4360580444336,-0.5174323916435171,0.0,0.0,0.0,-0.4334268867969371
2025/04/10 10:33:55.48342582,1744274035,48051297,,122.84049224853516,-0.33739191293716075,0.0,0.0,0.0,-0.405992329120636
2025/04/10 10:33:55.148787385,1744274035,148478600,,122.86456298828125,0.5202196836471522,0.0,0.0,0.0,-0.5041120052337646
2025/04/10 10:33:55.249201482,1744274035,248880360,,122.78046417236328,-0.3606380522251129,0.0,0.0,0.0,-0.4464560151100443
2025/04/10 10:33:55.350958420,1744274035,349216848,,123.25606536865232,-0.1849494427442515,0.0,0.0,0.0,-0.42074376344682207
2025/04/10 10:33:55.449400961,1744274035,448705014,,122.74141693115234,-0.7133217453956604,0.0,0.0,0.0,-0.49163442850112915
2025/04/10 10:33:55.549477313,1744274035,549244730,,122.68717956542969,-1.4763008356094325,0.0,0.0,0.0,-0.4236663281917714
2025/04/10 10:33:55.648528115,1744274035,648233555,,123.23367309570314,-1.320727109909054,0.0,0.0,0.0,-0.40212029218673706
2025/04/10 10:33:55.750250288,1744274035,748597378,,123.06024932861327,-1.470134973526001,0.0,0.0,0.0,-0.40024033188818464
2025/04/10 10:33:55.848454359,1744274035,848170842,,123.12122344970703,-3.580171108245846,0.0,0.0,0.0,-0.6305469274520874
2025/04/10 10:33:55.949096182,1744274035,948787398,,123.21662139892578,-2.19868350028991,0.0,0.0,0.0,-0.5804097056389423
2025/04/10 10:33:56.49218862,1744274036,48091874,,123.0937728881836,-1.8853524923324656,0.0,0.0,0.0,-0.4118690490722514
2025/04/10 10:33:56.148481253,1744274036,148230150,,123.51785278320311,-2.728396892547604,0.0,0.0,0.0,-0.3671947419643544
2025/04/10 10:33:56.248628317,1744274036,248225084,,123.76347351074219,-2.3653075695037806,0.0,0.0,0.0,-0.4364113211631633
2025/04/10 10:33:56.350231468,1744274036,349881468,,123.72817993164062,-1.0375868082046438,0.0,0.0,0.0,-0.4654388427734375
2025/04/10 10:33:56.449063840,1744274036,448746859,,123.90538787841794,-1.089652419090271,0.0,0.0,0.0,-0.4811685085296631
2025/04/10 10:33:56.551742549,1744274036,551401723,,124.66464233398439,-0.9979991912841903,0.0,0.0,0.0,-0.47210732102392683
2025/04/10 10:33:56.649552772,1744274036,649143246,,124.59268951416016,-1.1219819784164429,0.0,0.0,0.0,-0.5567815303802632
2025/04/10 10:33:56.750110436,1744274036,749835650,,124.40869140625,-2.5804381370544505,0.0,0.0,0.0,-0.5296493172645285
2025/04/10 10:33:56.849643523,1744274036,848128869,,125.23889923095703,-2.5056173801422155,0.0,0.0,0.0,-0.5238417387008525
2025/04/10 10:33:56.948918444,1744274036,948503007,,125.04815673828122,-2.145341157913201,0.0,0.0,0.0,-0.5725953578948975
2025/04/10 10:33:57.49489546,1744274037,48236144,,125.19529724121095,-3.2998828887939453,0.0,0.0,0.0,-0.9537703394889974
2025/04/10 10:33:57.149931709,1744274037,148803344,,125.31270599365234,-1.7242687940597534,0.0,0.0,0.0,-0.9046347737312033
2025/04/10 10:33:57.248512619,1744274037,248150333,,125.04905700683594,-0.6762655973434413,0.0,0.0,0.0,-0.6519165039062784
2025/04/10 10:33:57.348572316,1744274037,348249259,,125.66419219970705,-0.5662793517112661,0.0,0.0,0.0,-0.6059477925301024
2025/04/10 10:33:57.451987615,1744274037,451217109,,125.95837402343749,-0.424465149641037,0.0,0.0,0.0,-0.7410216927528523
2025/04/10 10:33:57.549412196,1744274037,549174527,,126.0494613647461,-1.6278916597366333,0.0,0.0,0.0,-0.7924759387969971
2025/04/10 10:33:57.649142045,1744274037,648861171,,127.06889343261717,-1.587570309638977,0.0,0.0,0.0,-0.7933980822563029
2025/04/10 10:33:57.750052635,1744274037,748528572,,127.06456756591797,0.029663097113367343,0.0,0.0,0.0,-0.8812195658683493
2025/04/10 10:33:57.849472703,1744274037,848316417,,127.06177520751953,1.507757306098945,0.0,0.0,0.0,-0.8483306765556478
2025/04/10 10:33:57.950880740,1744274037,949768829,,128.15220642089844,1.5383780002593959,0.0,0.0,0.0,-0.8511505722999715
2025/04/10 10:33:58.48419049,1744274038,48101049,,127.7612762451172,-0.06101399287582154,0.0,0.0,0.0,-1.003794193267808
2025/04/10 10:33:58.148028934,1744274038,147756744,,128.45970153808594,-0.15899175405502675,0.0,0.0,0.0,-0.9598705172538757
2025/04/10 10:33:58.248396241,1744274038,247987780,,128.80009460449216,-0.16308194398880005,0.0,0.0,0.0,-0.9960408806801127
2025/04/10 10:33:58.354213060,1744274038,353841006,,128.71376037597656,-0.4532953500747716,0.0,0.0,0.0,-1.0126268863677836
2025/04/10 10:33:58.450008336,1744274038,449495500,,129.1126556396484,1.0707470178604162,0.0,0.0,0.0,-0.9825118780136108
2025/04/10 10:33:58.549999555,1744274038,549484279,,130.3451080322266,1.0860328674316406,0.0,0.0,0.0,-0.9883232116699219
2025/04/10 10:33:58.648932830,1744274038,648476474,,129.8491668701172,-0.14416852593421936,0.0,0.0,0.0,-1.1397150754928873
2025/04/10 10:33:58.753807834,1744274038,753481980,,130.2563934326172,-0.6663556694984472,0.0,0.0,0.0,-1.1133177280425883
2025/04/10 10:33:58.849978072,1744274038,848570125,,131.5598602294922,-0.6574444770812988,0.0,0.0,0.0,-1.1204750537872314
2025/04/10 10:33:58.948136466,1744274038,947803682,,131.66574096679688,-0.7566027641296351,0.0,0.0,0.0,-1.1390427350997783
2025/04/10 10:33:59.48637596,1744274039,48313848,,132.23489379882812,-2.421854019165041,0.0,0.0,0.0,-1.2487094402313232
2025/04/10 10:33:59.156168000,1744274039,155820646,,132.84498596191403,-0.3905238509178126,0.0,0.0,0.0,-1.2692700624466227
2025/04/10 10:33:59.249015670,1744274039,248448292,,133.4646301269531,-0.460829496383667,0.0,0.0,0.0,-1.2617728710174276
2025/04/10 10:33:59.348976859,1744274039,348655000,,133.6304931640625,0.2893737852573359,0.0,0.0,0.0,-1.2305585145950175
2025/04/10 10:33:59.449025946,1744274039,448761201,,134.2733154296875,-0.014194784685958695,0.0,0.0,0.0,-1.2826123237610147
2025/04/10 10:33:59.555562038,1744274039,553319320,,135.74266052246094,-0.016284268349409103,0.0,0.0,0.0,-1.2919775247573853
2025/04/10 10:33:59.650896202,1744274039,650573930,,135.48345947265625,-2.960339307785034,0.0,0.0,0.0,-1.347355008125291
2025/04/10 10:33:59.752312741,1744274039,751059350,,136.50953674316406,-0.7379764318466187,0.0,0.0,0.0,-1.326072096824646
2025/04/10 10:33:59.848681631,1744274039,848306907,,137.30410766601562,-0.5885561704635585,0.0,0.0,0.0,-1.3648910522460795
2025/04/10 10:33:59.949155044,1744274039,948487722,,137.79415893554688,0.7458385825157166,0.0,0.0,0.0,-1.3503812551498413
2025/04/10 10:34:00.48506520,1744274040,48242382,,137.93710327148438,0.47285974025726674,0.0,0.0,0.0,-1.393091559410081
2025/04/10 10:34:00.148519904,1744274040,148201290,,139.5486602783203,0.46391221880912425,0.0,0.0,0.0,-1.4039102792739868
2025/04/10 10:34:00.248713777,1744274040,248368421,,139.76248168945312,0.0202588196843827,0.0,0.0,0.0,-1.4679487943649576
2025/04/10 10:34:00.349010857,1744274040,348750346,,140.07777404785156,-0.41388076543808694,0.0,0.0,0.0,-1.4823490381240987
2025/04/10 10:34:00.449743364,1744274040,449428667,,141.76046752929688,-0.4257219433784485,0.0,0.0,0.0,-1.4938542842865274
2025/04/10 10:34:00.548825259,1744274040,548550084,,142.09988403320312,1.0975676774978638,0.0,0.0,0.0,-1.525028705596938
2025/04/10 10:34:00.648519427,1744274040,648285410,,142.94932556152344,-0.5476973056793213,0.0,0.0,0.0,-1.6657130718231343
2025/04/10 10:34:00.748923823,1744274040,748591346,,143.8193817138672,0.4234707355499232,0.0,0.0,0.0,-1.677367210388212
2025/04/10 10:34:00.849926922,1744274040,848744099,,144.34857177734375,-1.3513976335525477,0.0,0.0,0.0,-1.5338995456695557
2025/04/10 10:34:00.948423758,1744274040,948096212,,145.6402130126953,-2.7414221763610858,0.0,0.0,0.0,-1.5484225749969482
2025/04/10 10:34:01.48619463,1744274041,48292224,,146.47840881347656,-2.2711715698242205,0.0,0.0,0.0,-1.5704468488693237
2025/04/10 10:34:01.149531649,1744274041,148354556,,147.36000061035156,-0.31604939699172974,0.0,0.0,0.0,-1.579996109008789
2025/04/10 10:34:01.249511905,1744274041,248984200,,147.6822967529297,-1.8994220495224,0.0,0.0,0.0,-1.6209088563919067
2025/04/10 10:34:01.349685160,1744274041,348623022,,149.57858276367185,-1.9172583818435704,0.0,0.0,0.0,-1.6337621212005757
2025/04/10 10:34:01.448037991,1744274041,447703012,,149.92713928222656,-1.3516606092453038,0.0,0.0,0.0,-1.7028813362121298
2025/04/10 10:34:01.548525813,1744274041,548209522,,150.7729949951172,-1.6647309064865166,0.0,0.0,0.0,-1.7026443481445028
2025/04/10 10:34:01.648384551,1744274041,648079867,,151.18646240234375,-0.6456182599067688,0.0,0.0,0.0,-1.926741123199463
2025/04/10 10:34:01.748666214,1744274041,748400040,,153.17764282226562,-0.6663761734962428,0.0,0.0,0.0,-1.9406284093856527
2025/04/10 10:34:01.849005184,1744274041,848715035,,153.6800079345703,-2.376157760620119,0.0,0.0,0.0,-1.9180766344070435
2025/04/10 10:34:01.949123142,1744274041,948899552,,154.3336181640625,1.1868667602539062,0.0,0.0,0.0,-1.8821763992309712
2025/04/10 10:34:02.49178145,1744274042,48863484,,156.3960571289062,1.165009737014767,0.0,0.0,0.0,-1.8963192701340006
2025/04/10 10:34:02.149045582,1744274042,148758232,,157.0013885498047,-0.755932390689857,0.0,0.0,0.0,-1.9242919683456137
2025/04/10 10:34:02.249457857,1744274042,249216141,,157.60742187499997,-2.241577386856079,0.0,0.0,0.0,-2.3251495361328267
2025/04/10 10:34:02.349215772,1744274042,348960791,,159.7410736083985,-2.2661108970642125,0.0,0.0,0.0,-2.3404881954193257
2025/04/10 10:34:02.449951351,1744274042,449017188,,160.3456573486328,-1.5351415872573817,0.0,0.0,0.0,-2.17584490776062
2025/04/10 10:34:02.549873726,1744274042,548436852,,160.9451446533203,-0.5685908794403076,0.0,0.0,0.0,-2.2835657596588135
2025/04/10 10:34:02.649368479,1744274042,648202836,,163.15008544921875,-0.5938348174095189,0.0,0.0,0.0,-2.2990670204162598
2025/04/10 10:34:02.749335230,1744274042,749022314,,163.72662353515625,-2.3917975425720197,0.0,0.0,0.0,-2.2552130222320557
2025/04/10 10:34:02.849244788,1744274042,848871673,,164.8296051025391,-2.073946237564087,0.0,0.0,0.0,-2.380558490753174
2025/04/10 10:34:02.950520416,1744274042,950273950,,165.94052124023438,-3.338067770004276,0.0,0.0,0.0,-2.3853840827941752
2025/04/10 10:34:03.50015410,1744274043,49784606,,167.10572814941406,-1.2231504917144775,0.0,0.0,0.0,-2.370382070541382
2025/04/10 10:34:03.149130813,1744274043,148907980,,167.8501434326172,-0.7722740769386256,0.0,0.0,0.0,-2.2807207107543803
2025/04/10 10:34:03.250023410,1744274043,248887384,,170.1976623535156,-0.7990672588348406,0.0,0.0,0.0,-2.296742439270048
2025/04/10 10:34:03.351332602,1744274043,349554889,,168.1435546875,-2.303810119628908,0.0,0.0,0.0,-2.4185800552368164
2025/04/10 10:34:03.450812476,1744274043,448791481,,163.6834716796875,-0.582152247428894,0.0,0.0,0.0,-2.4809865951538086
2025/04/10 10:34:03.552304785,1744274043,550762919,,159.1677703857422,-0.4868004024028796,0.0,0.0,0.0,-2.496921539306669
2025/04/10 10:34:03.648539991,1744274043,648268861,,152.02098083496097,-0.37699070572853266,0.0,0.0,0.0,-2.554445505142212
2025/04/10 10:34:03.748706862,1744274043,748412415,,144.29969787597656,-0.9657897353172302,0.0,0.0,0.0,-2.628454685211196
2025/04/10 10:34:03.849867969,1744274043,848795967,,138.00765991210938,-0.8353235125541723,0.0,0.0,0.0,-2.6421751976013184
2025/04/10 10:34:03.949331525,1744274043,948473357,,129.9593811035156,-0.13246227800845922,0.0,0.0,0.0,-2.711522102355957
2025/04/10 10:34:04.49841971,1744274044,48566752,,122.53753662109375,0.9376633167266828,0.0,0.0,0.0,-3.106836318969698
2025/04/10 10:34:04.148665261,1744274044,148371574,,114.60588836669922,-0.6211901307106018,0.0,0.0,0.0,-3.0801575183868692
2025/04/10 10:34:04.255787253,1744274044,255388221,,108.68982696533203,-0.4877876937389374,0.0,0.0,0.0,-3.083298206329353
2025/04/10 10:34:04.351255298,1744274044,350968973,,102.2029342651367,-1.441171884536745,0.0,0.0,0.0,-2.926100254058831
2025/04/10 10:34:04.449408674,1744274044,449188173,,96.43055725097656,-1.0846397876739537,0.0,0.0,0.0,-2.944953918457024
2025/04/10 10:34:04.549074769,1744274044,548600878,,92.98153686523438,-1.0053918361663818,0.0,0.0,0.0,-2.9480364322662425
2025/04/10 10:34:04.658531242,1744274044,658052642,,88.1171875,-1.0230481624603271,0.0,0.0,0.0,-3.06166291236876
2025/04/10 10:34:04.748828716,1744274044,748585200,,83.5324478149414,-2.160531044006346,0.0,0.0,0.0,-3.0677311420440603
2025/04/10 10:34:04.848431597,1744274044,848177187,,80.76117706298828,-2.0928208827972394,0.0,0.0,0.0,-3.0708181858062815
2025/04/10 10:34:04.950283367,1744274044,949905508,,76.51459503173828,-3.113537073135376,0.0,0.0,0.0,-3.2034986019134593
2025/04/10 10:34:05.50150116,1744274045,48942508,,72.40699005126953,-0.6397261619567889,0.0,0.0,0.0,-3.228831291198752
2025/04/10 10:34:05.148828087,1744274045,148461402,,69.82210540771484,-0.5731872916221619,0.0,0.0,0.0,-3.231928348541267
2025/04/10 10:34:05.251883929,1744274045,249901997,,65.82519531249999,-1.62251901626587,0.0,0.0,0.0,-3.387094497680671
2025/04/10 10:34:05.348935723,1744274045,348614851,,61.94951629638672,-0.27440619468688965,0.0,0.0,0.0,-3.390112876892104
2025/04/10 10:34:05.448951295,1744274045,448218976,,58.96672439575195,0.08425476402044296,0.0,0.0,0.0,-3.3277418613433696
2025/04/10 10:34:05.550801098,1744274045,549309364,,55.51641082763672,-0.607516884803772,0.0,0.0,0.0,-3.5195875167846467
2025/04/10 10:34:05.649883805,1744274045,649553770,,51.740039825439446,0.7507554292678851,0.0,0.0,0.0,-3.545048952102654
2025/04/10 10:34:05.749557707,1744274045,749190281,,48.57244873046875,0.6235238909721375,0.0,0.0,0.0,-3.483155250549302
2025/04/10 10:34:05.849012395,1744274045,848740241,,46.516990661621094,0.6812242865562439,0.0,0.0,0.0,-3.4830207824706996
2025/04/10 10:34:05.951644016,1744274045,951335536,,43.2612190246582,0.9346386790275556,0.0,0.0,0.0,-3.9859094619750977
2025/04/10 10:34:06.49520243,1744274046,48602757,,40.12606430053711,0.8426781892776471,0.0,0.0,0.0,-3.986814022064216
2025/04/10 10:34:06.149260925,1744274046,148119054,,38.5500602722168,0.8940778374671927,0.0,0.0,0.0,-3.9848647117614675
2025/04/10 10:34:06.248494901,1744274046,248149327,,35.80659484863281,2.0865654945373526,0.0,0.0,0.0,-3.944090127944939
2025/04/10 10:34:06.353813358,1744274046,352807549,,33.279857635498054,2.696045398712159,0.0,0.0,0.0,-4.048046588897705
2025/04/10 10:34:06.448855728,1744274046,448530911,,31.489175796508793,3.625156879425048,0.0,0.0,0.0,-4.071535587310791
2025/04/10 10:34:06.550445155,1744274046,549364387,,30.513347625732422,3.661165475845337,0.0,0.0,0.0,-4.067832946777347
2025/04/10 10:34:06.658639747,1744274046,656176586,,28.61930274963379,2.729906082153322,0.0,0.0,0.0,-4.304847240447998
2025/04/10 10:34:06.751727292,1744274046,749669758,,27.010541915893555,0.11029718816280276,0.0,0.0,0.0,-4.20723724365234
2025/04/10 10:34:06.848801081,1744274046,848466965,,25.752288818359375,1.1265605688095093,0.0,0.0,0.0,-4.12827205657959
2025/04/10 10:34:06.949946191,1744274046,948145386,,25.27965545654297,1.1494257450103769,0.0,0.0,0.0,-4.123148918151852
2025/04/10 10:34:07.48680496,1744274047,48261826,,23.87835121154785,-0.7721685767173785,0.0,0.0,0.0,-4.577075004577637
2025/04/10 10:34:07.149169227,1744274047,148781991,,22.613094329833988,-0.9657680392265329,0.0,0.0,0.0,-4.5719990730285645
2025/04/10 10:34:07.248056356,1744274047,247730258,,22.454278945922855,-0.950432181358337,0.0,0.0,0.0,-4.56560039520264
2025/04/10 10:34:07.348411195,1744274047,348108770,,21.37816047668457,-0.1757490038871765,0.0,0.0,0.0,-4.535202026367186
2025/04/10 10:34:07.448337710,1744274047,447986901,,20.389705657958984,1.1428018808364868,0.0,0.0,0.0,-4.616765499114996
2025/04/10 10:34:07.548224057,1744274047,547935405,,20.496374130249023,1.1503204107284555,0.0,0.0,0.0,-4.609754085540775
2025/04/10 10:34:07.650706312,1744274047,649581976,,19.80919647216797,1.294203758239746,0.0,0.0,0.0,-4.713569641113281
2025/04/10 10:34:07.749388141,1744274047,749014973,,19.210842132568356,0.9799403548240657,0.0,0.0,0.0,-4.711174964904782
2025/04/10 10:34:07.848861723,1744274047,848358072,,19.091894149780273,2.246068477630614,0.0,0.0,0.0,-4.664794921874998
2025/04/10 10:34:07.950097435,1744274047,949823794,,19.488121032714844,2.244790077209473,0.0,0.0,0.0,-4.657169342041016
2025/04/10 10:34:08.51814356,1744274048,50405218,,19.255765914916992,3.1199550628662105,0.0,0.0,0.0,-4.989848613739007
2025/04/10 10:34:08.149736092,1744274048,148723862,,19.116451263427734,3.9711625576019296,0.0,0.0,0.0,-4.988114833831787
2025/04/10 10:34:08.248716217,1744274048,248411069,,19.688888549804688,3.9643058776855464,0.0,0.0,0.0,-4.979820251464844
2025/04/10 10:34:08.348627161,1744274048,348334054,,19.65296745300293,4.415646553039551,0.0,0.0,0.0,-4.997004032135006
2025/04/10 10:34:08.449026711,1744274048,448722521,,19.6591739654541,2.78480625152588,0.0,0.0,0.0,-4.998735427856445
2025/04/10 10:34:08.548705949,1744274048,548385303,,20.378236770629883,2.772914409637452,0.0,0.0,0.0,-4.990337371826179
2025/04/10 10:34:08.648979612,1744274048,648713867,,20.464675903320312,2.497776508331299,0.0,0.0,0.0,-5.1102223396301305
2025/04/10 10:34:08.750017853,1744274048,748427968,,20.850431442260742,0.185737043619155,0.0,0.0,0.0,-5.055332660675049
2025/04/10 10:34:08.850622373,1744274048,850298082,,20.999826431274414,-0.05880192667245865,0.0,0.0,0.0,-5.074555397033695
2025/04/10 10:34:08.949262020,1744274048,948456799,,21.875574111938477,-0.07658187299966723,0.0,0.0,0.0,-5.066061496734619
2025/04/10 10:34:09.48519040,1744274049,48258665,,22.130706787109375,1.3411474227905282,0.0,0.0,0.0,-5.2374420166015625
2025/04/10 10:34:09.149389109,1744274049,148963932,,22.694110870361328,2.657900810241702,0.0,0.0,0.0,-5.185822010040283
2025/04/10 10:34:09.248518352,1744274049,248137222,,23.113510131835938,0.3501030206680307,0.0,0.0,0.0,-5.192619800567623
2025/04/10 10:34:09.352741967,1744274049,352341618,,23.980976104736328,0.556781291961669,0.0,0.0,0.0,-5.155503749847409
2025/04/10 10:34:09.450092515,1744274049,449777801,,24.59319305419922,1.854196548461914,0.0,0.0,0.0,-5.294234752655033
2025/04/10 10:34:09.549184389,1744274049,548874432,,25.37778091430664,1.4336122274398821,0.0,0.0,0.0,-5.232170104980469
2025/04/10 10:34:09.648910738,1744274049,648700915,,25.973560333251953,-0.6727899312973022,0.0,0.0,0.0,-5.303793430328373
2025/04/10 10:34:09.749384482,1744274049,748962053,,26.941553115844727,1.1175124645233154,0.0,0.0,0.0,-5.2693772315979075
2025/04/10 10:34:09.850008167,1744274049,849725085,,27.729812622070312,-0.5951650142669669,0.0,0.0,0.0,-5.388247489929203
2025/04/10 10:34:09.951745148,1744274049,948386101,,28.5240421295166,1.2160092592239389,0.0,0.0,0.0,-5.329441547393802
2025/04/10 10:34:10.48898283,1744274050,48621691,,29.123117446899414,-0.624927759170534,0.0,0.0,0.0,-5.381499290466312
2025/04/10 10:34:10.149112995,1744274050,148830606,,30.274829864501953,-0.6542457342147827,0.0,0.0,0.0,-5.37330436706543
2025/04/10 10:34:10.249685778,1744274050,248583506,,30.890327453613285,-0.44553279876708984,0.0,0.0,0.0,-5.481835365295417
2025/04/10 10:34:10.348729179,1744274050,348431744,,31.43871307373047,1.2979516983032244,0.0,0.0,0.0,-5.483003616333011
2025/04/10 10:34:10.450219200,1744274050,449968277,,32.30670166015625,1.0987675189971942,0.0,0.0,0.0,-5.453099250793457
2025/04/10 10:34:10.551425698,1744274050,549457235,,33.50469207763672,1.06720280647278,0.0,0.0,0.0,-5.445182323455825
2025/04/10 10:34:10.649200674,1744274050,648984204,,34.2183723449707,0.8997564315795898,0.0,0.0,0.0,-5.61278867721558
2025/04/10 10:34:10.748850749,1744274050,748597665,,34.97344970703125,0.9400614500045776,0.0,0.0,0.0,-5.594367980957035
2025/04/10 10:34:10.848569679,1744274050,848374263,,36.19553756713867,0.9067800045013428,0.0,0.0,0.0,-5.5866150856017995
2025/04/10 10:34:10.949396473,1744274050,948780914,,37.00105667114258,-0.9440020322799647,0.0,0.0,0.0,-5.578854084014893
2025/04/10 10:34:11.48736974,1744274051,48347752,,37.90324401855469,0.6928421258926374,0.0,0.0,0.0,-5.566998958587654
2025/04/10 10:34:11.148813488,1744274051,148448793,,38.881954193115234,0.7087517380714417,0.0,0.0,0.0,-5.601530075073242
2025/04/10 10:34:11.248443341,1744274051,248091034,,40.124603271484375,0.6743978261947596,0.0,0.0,0.0,-5.594265937805169
2025/04/10 10:34:11.349330342,1744274051,348857323,,40.94371795654297,0.39306339621543884,0.0,0.0,0.0,-5.655052661895752
2025/04/10 10:34:11.450259120,1744274051,448682547,,41.721656799316406,0.30200991034507574,0.0,0.0,0.0,-5.6169118881225515
2025/04/10 10:34:11.549157222,1744274051,548862550,,42.604007720947266,0.18109597265720723,0.0,0.0,0.0,-5.626511096954346
2025/04/10 10:34:11.648553498,1744274051,647952094,,43.482967376708984,0.07850860804319382,0.0,0.0,0.0,-5.641592025756843
2025/04/10 10:34:11.749728929,1744274051,748772909,,44.73626708984375,0.04305802658200264,0.0,0.0,0.0,-5.634886741638191
2025/04/10 10:34:11.850183986,1744274051,848206818,,45.45488739013672,-1.3154317140579241,0.0,0.0,0.0,-5.680737495422363
2025/04/10 10:34:11.951146470,1744274051,950912390,,46.347957611083984,-1.061708211898802,0.0,0.0,0.0,-5.6574907302856445
2025/04/10 10:34:12.50154531,1744274052,48672786,,47.10041809082031,-0.531100809574129,0.0,0.0,0.0,-5.880029201507561
2025/04/10 10:34:12.148806128,1744274052,148496847,,48.35273361206055,-0.567744851112371,0.0,0.0,0.0,-5.8736395835876465
2025/04/10 10:34:12.248743703,1744274052,248470531,,49.14371871948242,-1.8551410436630213,0.0,0.0,0.0,-5.77834272384645
2025/04/10 10:34:12.353929964,1744274052,353345809,,49.96242904663087,-1.3987406492233259,0.0,0.0,0.0,-5.690033435821533
2025/04/10 10:34:12.448819179,1744274052,448491759,,50.93760299682617,0.6572121381759608,0.0,0.0,0.0,-5.6751489639282156
2025/04/10 10:34:12.549818383,1744274052,549491930,,52.18241882324219,0.6211618781089765,0.0,0.0,0.0,-5.669372081756592
2025/04/10 10:34:12.652185940,1744274052,651856447,,52.99431228637696,-0.8804734349250793,0.0,0.0,0.0,-5.751058578491211
2025/04/10 10:34:12.750032217,1744274052,749776529,,53.73873519897462,-1.9389061927795375,0.0,0.0,0.0,-5.7890892028808665
2025/04/10 10:34:12.848809711,1744274052,848528650,,54.60060501098633,0.2536740303039551,0.0,0.0,0.0,-5.7257471084594656
2025/04/10 10:34:12.948412127,1744274052,948130731,,55.832664489746094,0.21760298311710002,0.0,0.0,0.0,-5.720422744750977
2025/04/10 10:34:13.53054077,1744274053,52688194,,56.51181411743164,0.26372432708740234,0.0,0.0,0.0,-5.754457950592062
2025/04/10 10:34:13.149072904,1744274053,148336116,,57.13714599609376,-0.6549607515335047,0.0,0.0,0.0,-5.734007358551025
2025/04/10 10:34:13.248241651,1744274053,247910950,,57.940082550048835,-0.6969931721687317,0.0,0.0,0.0,-5.720127582550042
2025/04/10 10:34:13.348667578,1744274053,348343797,,59.15528869628906,-0.7328549623489344,0.0,0.0,0.0,-5.715263366699219
2025/04/10 10:34:13.448605489,1744274053,448268463,,59.77874755859375,-1.1570729017257655,0.0,0.0,0.0,-5.817233562469482
2025/04/10 10:34:13.550183849,1744274053,549800072,,60.43613433837891,-1.582229614257809,0.0,0.0,0.0,-5.8123855590820455
2025/04/10 10:34:13.650427053,1744274053,650081836,,61.28608703613281,-0.9710200428962672,0.0,0.0,0.0,-5.796308994293213
2025/04/10 10:34:13.749291322,1744274053,749035714,,62.481239318847656,-1.0068342685699534,0.0,0.0,0.0,-5.7918348312378
2025/04/10 10:34:13.849368784,1744274053,848563319,,63.12984085083008,-2.450867414474491,0.0,0.0,0.0,-5.862091064453104
2025/04/10 10:34:13.948910472,1744274053,948554211,,63.77014541625976,-1.3062841892242432,0.0,0.0,0.0,-5.914568901062005
2025/04/10 10:34:14.49726433,1744274054,49258956,,64.56876373291016,-2.780833482742306,0.0,0.0,0.0,-5.86326074600219
2025/04/10 10:34:14.151166742,1744274054,150739673,,65.3626708984375,-0.7218458652496338,0.0,0.0,0.0,-5.879463672637932
2025/04/10 10:34:14.249116349,1744274054,248417443,,66.52938842773438,-0.7571861743926966,0.0,0.0,0.0,-5.875494480133035
2025/04/10 10:34:14.349094011,1744274054,348651380,,67.0808334350586,-2.152571439743042,0.0,0.0,0.0,-5.9376139640808105
2025/04/10 10:34:14.449794270,1744274054,448797198,,67.78401947021484,-0.18529020249844308,0.0,0.0,0.0,-5.913295745849595
2025/04/10 10:34:14.548451125,1744274054,548068357,,68.26667785644531,-0.39519241452216747,0.0,0.0,0.0,-5.9176201820373535
2025/04/10 10:34:14.647912932,1744274054,647672929,,69.4086685180664,-0.43003296852111816,0.0,0.0,0.0,-5.914035320281975
2025/04/10 10:34:14.748799012,1744274054,748522685,,69.86795806884766,-1.7695105075836182,0.0,0.0,0.0,-6.0235490798950195
2025/04/10 10:34:14.850534842,1744274054,850265816,,70.51069641113281,-3.081543922424313,0.0,0.0,0.0,-5.991460800170898
2025/04/10 10:34:14.950281223,1744274054,949976315,,71.04557800292969,-0.7847664952278137,0.0,0.0,0.0,-6.012695789337137
2025/04/10 10:34:15.48833463,1744274055,48600799,,71.67167663574219,-0.7049736976623535,0.0,0.0,0.0,-5.98805189132689
2025/04/10 10:34:15.149032827,1744274055,148498854,,72.78106689453125,-0.7393279075622594,0.0,0.0,0.0,-5.984908580780036
2025/04/10 10:34:15.249979502,1744274055,248232138,,73.21044158935547,-0.6739912629127431,0.0,0.0,0.0,-6.211553096771269
2025/04/10 10:34:15.349057695,1744274055,348734463,,73.62222290039064,0.8472144603729248,0.0,0.0,0.0,-6.225941658020034
2025/04/10 10:34:15.448410547,1744274055,448082063,,74.46187591552734,0.27914175391197915,0.0,0.0,0.0,-6.198732376098654
2025/04/10 10:34:15.548487990,1744274055,548163901,,75.14371490478516,-0.04609337076544762,0.0,0.0,0.0,-6.218250751495354
2025/04/10 10:34:15.649143917,1744274055,648737505,,75.71747589111328,-0.8781542181968689,0.0,0.0,0.0,-6.166656970977776
2025/04/10 10:34:15.749109077,1744274055,748847381,,76.05315399169922,-0.5839253664016759,0.0,0.0,0.0,-6.240724563598633
2025/04/10 10:34:15.848252739,1744274055,848008947,,76.62017822265625,-0.9987132549285924,0.0,0.0,0.0,-6.330092906951926
2025/04/10 10:34:15.949297851,1744274055,948151533,,77.67505645751953,-1.0327074527740443,0.0,0.0,0.0,-6.32753658294677
2025/04/10 10:34:16.49521525,1744274056,49030319,,77.93479919433594,0.32594436407088523,0.0,0.0,0.0,-6.467751979827874
2025/04/10 10:34:16.149768538,1744274056,148501315,,78.4090805053711,-1.9849426746368373,0.0,0.0,0.0,-6.427598953247077
2025/04/10 10:34:16.248209385,1744274056,247923199,,78.6459732055664,-2.0633323192596436,0.0,0.0,0.0,-6.413612365722649
2025/04/10 10:34:16.348776965,1744274056,348496542,,79.11612701416016,-3.276617288589481,0.0,0.0,0.0,-6.51080703735353
2025/04/10 10:34:16.447974350,1744274056,447738686,,79.59705352783203,-3.171787977218628,0.0,0.0,0.0,-6.450256347656236
2025/04/10 10:34:16.548442737,1744274056,548072525,,80.61028289794922,-3.2054557800293004,0.0,0.0,0.0,-6.448139190673828
2025/04/10 10:34:16.651349458,1744274056,651117217,,80.8324661254883,-4.756817817687988,0.0,0.0,0.0,-6.755346775054946
2025/04/10 10:34:16.750925524,1744274056,749933767,,81.34553527832031,-3.7032780647277868,0.0,0.0,0.0,-7.21949195861815
2025/04/10 10:34:16.848929499,1744274056,848263366,,81.54784393310547,-4.568588256835934,0.0,0.0,0.0,-7.125068664550767
2025/04/10 10:34:16.949230572,1744274056,949009795,,82.53318023681639,-4.6042613983154315,0.0,0.0,0.0,-7.123033046722398
2025/04/10 10:34:17.52057830,1744274057,48603009,,82.72687530517578,-4.796501636505127,0.0,0.0,0.0,-6.901328086853013
2025/04/10 10:34:17.148534307,1744274057,148230712,,83.17192840576172,-1.949205756187439,0.0,0.0,0.0,-6.8422107696533345
2025/04/10 10:34:17.248101831,1744274057,247772440,,83.33018493652344,-1.7254410982131922,0.0,0.0,0.0,-6.913056373596206
2025/04/10 10:34:17.348689481,1744274057,347866524,,84.28799438476562,-1.7589280605316198,0.0,0.0,0.0,-6.911427497863755
2025/04/10 10:34:17.454712430,1744274057,454411508,,84.3930130004883,-0.4578189253807068,0.0,0.0,0.0,-7.166476249694853
2025/04/10 10:34:17.548743413,1744274057,548457401,,84.70092010498047,-0.4909719228744507,0.0,0.0,0.0,-7.098145961761475
2025/04/10 10:34:17.650445171,1744274057,650193525,,84.75177001953125,-0.9823021292686462,0.0,0.0,0.0,-7.178281784057596
2025/04/10 10:34:17.750872595,1744274057,747970859,,85.03533172607422,-0.6509941816329956,0.0,0.0,0.0,-7.120582580566406
2025/04/10 10:34:17.848259367,1744274057,847893661,,85.95899200439453,-0.684116661548618,0.0,0.0,0.0,-7.119256019592285
2025/04/10 10:34:17.948753578,1744274057,948382367,,85.94826507568358,-0.846194207668308,0.0,0.0,0.0,-7.6823463439941335
2025/04/10 10:34:18.48542787,1744274058,48202547,,85.95618438720703,-1.300840020179745,0.0,0.0,0.0,-7.689186096191406
2025/04/10 10:34:18.149028361,1744274058,147877543,,86.23773193359375,-1.7972486019134557,0.0,0.0,0.0,-7.631376266479478
2025/04/10 10:34:18.250694225,1744274058,249526630,,87.13441467285156,-1.8314613103866577,0.0,0.0,0.0,-7.630211830139146
2025/04/10 10:34:18.351749173,1744274058,349046453,,87.15161895751953,-2.6310462951660156,0.0,0.0,0.0,-7.986509799957304
2025/04/10 10:34:18.448608258,1744274058,448390359,,87.45983123779297,-2.450195550918586,0.0,0.0,0.0,-8.64432048797606
2025/04/10 10:34:18.548641269,1744274058,548398681,,87.67298126220703,-4.130916595458979,0.0,0.0,0.0,-8.57968139648436
2025/04/10 10:34:18.649950686,1744274058,648735582,,87.60326385498047,-2.633248805999756,0.0,0.0,0.0,-8.017711639404283
2025/04/10 10:34:18.749618256,1744274058,748589342,,87.86431121826172,-0.9753862023353506,0.0,0.0,0.0,-7.958271026611335
2025/04/10 10:34:18.850686415,1744274058,848027104,,88.72147369384764,-1.0092239379882812,0.0,0.0,0.0,-7.9574666023254395
2025/04/10 10:34:18.949015502,1744274058,948610228,,88.65972900390626,-2.8654825687408447,0.0,0.0,0.0,-8.450129508972154
2025/04/10 10:34:19.49210476,1744274059,48481058,,88.54209899902344,-2.8696002960205007,0.0,0.0,0.0,-8.463309288024902
2025/04/10 10:34:19.149116888,1744274059,148847108,,88.7154846191406,-2.6591458320617676,0.0,0.0,0.0,-8.39877414703372
2025/04/10 10:34:19.249082998,1744274059,248839382,,89.18966674804688,-2.5422835350036586,0.0,0.0,0.0,-8.540916442871094
2025/04/10 10:34:19.348382984,1744274059,348077358,,89.36336517333984,-2.818204641342163,0.0,0.0,0.0,-8.308652877807631
2025/04/10 10:34:19.449658259,1744274059,448547301,,89.5289535522461,-4.071291923522947,0.0,0.0,0.0,-8.632358551025419
2025/04/10 10:34:19.548466724,1744274059,548168692,,89.40242004394531,-3.2056543827056867,0.0,0.0,0.0,-8.696268081665053
2025/04/10 10:34:19.648168232,1744274059,647949801,,89.57003784179688,-2.6979789733886683,0.0,0.0,0.0,-8.871272087097168
2025/04/10 10:34:19.748019691,1744274059,747763412,,90.37001037597655,-2.7324042320251447,0.0,0.0,0.0,-8.870952606201186
2025/04/10 10:34:19.848720069,1744274059,847929111,,90.22325134277344,-2.9156038761138916,0.0,0.0,0.0,-9.189674377441378
2025/04/10 10:34:19.950692183,1744274059,950283198,,90.34878540039062,-1.247227787971493,0.0,0.0,0.0,-9.087960243225098
2025/04/10 10:34:20.48997599,1744274060,48651734,,90.22264099121094,-1.5755664110183751,0.0,0.0,0.0,-9.063584327697747
2025/04/10 10:34:20.150699073,1744274060,150436482,,90.32249450683595,-0.8899837136268545,0.0,0.0,0.0,-9.305709838867188
2025/04/10 10:34:20.249706985,1744274060,248725749,,91.0919189453125,-0.9242669939994848,0.0,0.0,0.0,-9.30566596984864
2025/04/10 10:34:20.348986171,1744274060,348553767,,90.81104278564453,-2.9945063591003436,0.0,0.0,0.0,-9.679430961608873
2025/04/10 10:34:20.448249963,1744274060,447878517,,90.82093811035156,-3.142152786254881,0.0,0.0,0.0,-9.573445320129395
2025/04/10 10:34:20.548200514,1744274060,547927183,,90.61835479736328,-3.335071325302124,0.0,0.0,0.0,-9.546272277832031
2025/04/10 10:34:20.649218762,1744274060,648824942,,90.6540298461914,-3.0229768753051687,0.0,0.0,0.0,-9.470370292663603
2025/04/10 10:34:20.749547606,1744274060,748215164,,90.67488098144531,-4.236219882965084,0.0,0.0,0.0,-10.116817474365206
2025/04/10 10:34:20.848468649,1744274060,848134175,,91.40882110595703,-4.2713398933410645,0.0,0.0,0.0,-10.117098808288574
2025/04/10 10:34:20.948906141,1744274060,948369421,,91.06291198730469,-4.3172125816345215,0.0,0.0,0.0,-10.53250122070314
2025/04/10 10:34:21.49417502,1744274061,48817132,,91.05440521240234,-2.8149368762969953,0.0,0.0,0.0,-10.418382644653327
2025/04/10 10:34:21.151589049,1744274061,151329296,,90.8347396850586,-2.427844762802126,0.0,0.0,0.0,-10.186505317687988
2025/04/10 10:34:21.250798531,1744274061,250246191,,90.85845947265625,-3.948298215866087,0.0,0.0,0.0,-10.443245887756348
2025/04/10 10:34:21.347979264,1744274061,347676512,,91.56388092041014,-3.9833643436431885,0.0,0.0,0.0,-10.443807601928704
2025/04/10 10:34:21.448057227,1744274061,447841763,,91.22295379638672,-3.6439490318298375,0.0,0.0,0.0,-10.862792015075684
2025/04/10 10:34:21.549567435,1744274061,548323663,,91.21166229248047,-3.5273575782775897,0.0,0.0,0.0,-10.74220275878907
2025/04/10 10:34:21.649760826,1744274061,648871569,,90.90750885009766,-3.2811679840087855,0.0,0.0,0.0,-10.73970794677733
2025/04/10 10:34:21.749163139,1744274061,748012258,,90.90457153320312,-3.2771925926208514,0.0,0.0,0.0,-10.649141311645522
2025/04/10 10:34:21.848814425,1744274061,848514375,,91.58243560791016,-3.311845302581787,0.0,0.0,0.0,-10.649981498718255
2025/04/10 10:34:21.948841424,1744274061,948603129,,91.21752166748047,-3.296473264694219,0.0,0.0,0.0,-11.599730491638176
2025/04/10 10:34:22.51660829,1744274062,50528998,,91.06708526611328,-3.7224619388580393,0.0,0.0,0.0,-12.771046638488755
2025/04/10 10:34:22.149022977,1744274062,148819472,,90.60932159423828,-3.736234903335573,0.0,0.0,0.0,-12.449213981628432
2025/04/10 10:34:22.248550455,1744274062,248145308,,90.42096710205077,-5.469593524932861,0.0,0.0,0.0,-12.353036880493136
2025/04/10 10:34:22.349018164,1744274062,347888428,,91.07181549072267,-5.507861137390135,0.0,0.0,0.0,-12.354204177856452
2025/04/10 10:34:22.449187337,1744274062,448900361,,90.72567749023438,-3.369000196456911,0.0,0.0,0.0,-12.302230834960938
2025/04/10 10:34:22.550232418,1744274062,549855592,,90.60742950439453,-4.745978355407711,0.0,0.0,0.0,-13.60608005523681
2025/04/10 10:34:22.649151191,1744274062,648895322,,90.27905273437499,-3.053441047668457,0.0,0.0,0.0,-13.10797214508056
2025/04/10 10:34:22.748533032,1744274062,748291536,,90.14662170410156,-1.567281723022461,0.0,0.0,0.0,-12.323173522949233
2025/04/10 10:34:22.851459829,1744274062,850004013,,90.77192687988281,-1.6030169725418109,0.0,0.0,0.0,-12.324599266052239
2025/04/10 10:34:22.950588279,1744274062,948450536,,90.01428985595703,-2.261631011962896,0.0,0.0,0.0,-12.923001289367662
2025/04/10 10:34:23.48156241,1744274063,47903587,,90.62942504882814,-2.2985181808471697,0.0,0.0,0.0,-12.92457389831543
2025/04/10 10:34:23.148554998,1744274063,148209863,,90.16126251220703,-2.9518811702728307,0.0,0.0,0.0,-13.040560722351074
2025/04/10 10:34:23.253179263,1744274063,251411802,,89.68355560302734,-2.9483847618103063,0.0,0.0,0.0,-12.92957687377929
2025/04/10 10:34:23.349547968,1744274063,349329116,,89.57319641113281,-5.240516662597653,0.0,0.0,0.0,-13.208588600158706
2025/04/10 10:34:23.448694124,1744274063,448350989,,89.49551391601562,-5.164721012115482,0.0,0.0,0.0,-13.009057044982889
2025/04/10 10:34:23.550701972,1744274063,550364130,,90.08624267578125,-5.200966835021974,0.0,0.0,0.0,-13.010898590087905
2025/04/10 10:34:23.651138465,1744274063,650032638,,89.55657196044922,-5.298399448394775,0.0,0.0,0.0,-14.010938644409187
2025/04/10 10:34:23.749286906,1744274063,748239865,,89.32412719726562,-5.308078289031979,0.0,0.0,0.0,-15.441643714904785
2025/04/10 10:34:23.850178158,1744274063,848759439,,88.79962921142578,-5.297701358795164,0.0,0.0,0.0,-15.022584915161147
2025/04/10 10:34:23.948227656,1744274063,947872049,,88.5417709350586,-5.127691745758057,0.0,0.0,0.0,-14.913154602050767
2025/04/10 10:34:24.48258192,1744274064,47952863,,89.10846710205077,-5.1671566963195765,0.0,0.0,0.0,-14.915441513061523
2025/04/10 10:34:24.149720368,1744274064,147757765,,88.71226501464844,-4.866615295410156,0.0,0.0,0.0,-14.726146697998033
2025/04/10 10:34:24.248254510,1744274064,247897463,,88.52840423583984,-4.967051506042482,0.0,0.0,0.0,-16.27492713928224
2025/04/10 10:34:24.349437817,1744274064,349092889,,87.95994567871094,-5.019598484039307,0.0,0.0,0.0,-15.81530475616455
2025/04/10 10:34:24.453079603,1744274064,451953356,,87.73921203613281,-4.951537609100344,0.0,0.0,0.0,-15.695858001708999
2025/04/10 10:34:24.552345069,1744274064,550451384,,88.28307342529297,-4.991198539733887,0.0,0.0,0.0,-15.698487281799316
2025/04/10 10:34:24.650748424,1744274064,649646813,,87.92367553710938,-4.792513370513916,0.0,0.0,0.0,-15.732966423034675
2025/04/10 10:34:24.749182233,1744274064,748409518,,87.70473480224611,-4.892302036285399,0.0,0.0,0.0,-15.852674484252937
2025/04/10 10:34:24.849522936,1744274064,849131657,,87.46500396728514,-4.914521694183353,0.0,0.0,0.0,-15.605269432067857
2025/04/10 10:34:24.948902737,1744274064,948178083,,86.99846649169922,-4.8080668449401855,0.0,0.0,0.0,-15.345129013061523
2025/04/10 10:34:25.48845542,1744274065,48437388,,86.84092712402344,-4.917730808258053,0.0,0.0,0.0,-15.800780296325676
2025/04/10 10:34:25.148758843,1744274065,148528758,,86.59346008300781,-5.030430793762207,0.0,0.0,0.0,-16.01844787597657
2025/04/10 10:34:25.250949350,1744274065,248539675,,86.35889434814453,-6.658165454864495,0.0,0.0,0.0,-15.780054092407234
2025/04/10 10:34:25.348832661,1744274065,347955014,,86.86833953857422,-6.695569038391115,0.0,0.0,0.0,-15.783053398132346
2025/04/10 10:34:25.449560734,1744274065,449243573,,86.27754974365234,-6.456167221069334,0.0,0.0,0.0,-16.93930625915528
2025/04/10 10:34:25.549807516,1744274065,548623724,,85.97633361816406,-6.168883800506592,0.0,0.0,0.0,-18.681594848632834
2025/04/10 10:34:25.656854562,1744274065,656005272,,85.40914154052734,-6.359397888183597,0.0,0.0,0.0,-18.141553878784165
2025/04/10 10:34:25.749082757,1744274065,748835273,,85.09547424316406,-4.493882179260254,0.0,0.0,0.0,-18.009065628051765
2025/04/10 10:34:25.849259207,1744274065,848105403,,85.58376312255858,-4.534255981445307,0.0,0.0,0.0,-18.01264190673829
2025/04/10 10:34:25.948982069,1744274065,948482583,,85.14388275146484,-5.914980411529541,0.0,0.0,0.0,-17.874774932861342
2025/04/10 10:34:26.50548792,1744274066,49354286,,84.88426208496094,-5.790191650390623,0.0,0.0,0.0,-18.088369369506815
2025/04/10 10:34:26.149247596,1744274066,148848291,,84.32792663574219,-5.815752029418945,0.0,0.0,0.0,-17.752010345458977
2025/04/10 10:34:26.248580677,1744274066,248327484,,84.08524322509766,-6.565359592437746,0.0,0.0,0.0,-17.863079071044908
2025/04/10 10:34:26.350217172,1744274066,349993558,,83.84739685058594,-7.693737506866453,0.0,0.0,0.0,-17.603925704956055
2025/04/10 10:34:26.449497528,1744274066,448235392,,84.31231689453125,-7.7315850257873535,0.0,0.0,0.0,-17.607669830322266
2025/04/10 10:34:26.549548161,1744274066,549089203,,83.66271209716797,-7.263184070587158,0.0,0.0,0.0,-18.96879005432129
2025/04/10 10:34:26.649944828,1744274066,649598609,,83.27525329589844,-8.254755973815918,0.0,0.0,0.0,-20.786478042602553
2025/04/10 10:34:26.748356681,1744274066,748044146,,82.68128204345703,-6.178418159484863,0.0,0.0,0.0,-20.20205879211425
2025/04/10 10:34:26.848887610,1744274066,848571116,,82.4228515625,-6.510185718536373,0.0,0.0,0.0,-18.9536418914795
2025/04/10 10:34:26.950552461,1744274066,949364050,,82.22456359863281,-5.920281887054445,0.0,0.0,0.0,-18.691320419311523
2025/04/10 10:34:27.50767917,1744274067,49769573,,82.6667251586914,-5.958182811737064,0.0,0.0,0.0,-18.695493698120096
2025/04/10 10:34:27.149803655,1744274067,149553814,,82.18325805664061,-5.678620815277098,0.0,0.0,0.0,-20.00435638427735
2025/04/10 10:34:27.249464738,1744274067,249108228,,81.87116241455078,-4.804833412170408,0.0,0.0,0.0,-20.276624679565444
2025/04/10 10:34:27.350727510,1744274067,350353287,,81.23533630371092,-5.016999244689943,0.0,0.0,0.0,-19.946239471435533
2025/04/10 10:34:27.452795693,1744274067,452063678,,81.66278076171875,-5.055544376373291,0.0,0.0,0.0,-19.950777053833008
2025/04/10 10:34:27.549236068,1744274067,548900643,,80.72927856445312,-5.629147529602053,0.0,0.0,0.0,-20.302076339721673
2025/04/10 10:34:27.654583633,1744274067,653386060,,80.44012451171875,-7.475958824157708,0.0,0.0,0.0,-20.476947784423857
2025/04/10 10:34:27.750995526,1744274067,750511380,,80.1976089477539,-5.432460784912108,0.0,0.0,0.0,-20.218475341796868
2025/04/10 10:34:27.848045078,1744274067,847791089,,80.61100769042969,-5.470492362976078,0.0,0.0,0.0,-20.223236083984375
2025/04/10 10:34:27.948501621,1744274067,948298213,,79.94221496582033,-6.315261363983151,0.0,0.0,0.0,-21.52200317382811
2025/04/10 10:34:28.49590426,1744274068,48893856,,79.56304168701172,-5.782763004302982,0.0,0.0,0.0,-21.747758865356452
2025/04/10 10:34:28.148323853,1744274068,148016536,,79.21197509765625,-5.467221260070801,0.0,0.0,0.0,-21.461273193359368
2025/04/10 10:34:28.248248860,1744274068,247931390,,78.6913070678711,-5.905563831329339,0.0,0.0,0.0,-21.223031997680685
2025/04/10 10:34:28.348624829,1744274068,348344573,,78.43663787841797,-4.889480113983158,0.0,0.0,0.0,-21.672018051147447
2025/04/10 10:34:28.450185271,1744274068,449027480,,78.18330383300781,-6.792743682861328,0.0,0.0,0.0,-21.41149520874024
2025/04/10 10:34:28.548916967,1744274068,548626250,,78.57302856445312,-6.83065557479858,0.0,0.0,0.0,-21.416740417480455
2025/04/10 10:34:28.648744132,1744274068,648507402,,77.95048522949219,-7.065138816833494,0.0,0.0,0.0,-22.785366058349595
2025/04/10 10:34:28.750627396,1744274068,750318696,,77.64971923828126,-8.58759593963623,0.0,0.0,0.0,-22.952493667602546
2025/04/10 10:34:28.848257364,1744274068,847972146,,77.32488250732422,-8.243241310119624,0.0,0.0,0.0,-22.643547058105497
2025/04/10 10:34:28.956729713,1744274068,956346572,,76.8001480102539,-7.644114017486569,0.0,0.0,0.0,-22.470123291015625
2025/04/10 10:34:29.51322315,1744274069,49259306,,76.51453399658203,-8.830108642578125,0.0,0.0,0.0,-22.906959533691413
2025/04/10 10:34:29.149907610,1744274069,148059135,,76.88491821289062,-8.868339538574219,0.0,0.0,0.0,-22.912666320800767
2025/04/10 10:34:29.249204962,1744274069,248753780,,76.21151733398438,-7.438793182373043,0.0,0.0,0.0,-23.57688140869142
2025/04/10 10:34:29.350236460,1744274069,349921294,,75.86547088623048,-8.526612281799316,0.0,0.0,0.0,-23.389736175537095
2025/04/10 10:34:29.448911584,1744274069,448594199,,75.4864730834961,-6.647863388061525,0.0,0.0,0.0,-25.59400558471679
2025/04/10 10:34:29.550214325,1744274069,549985751,,74.79096984863281,-7.81632566452026,0.0,0.0,0.0,-25.110792160034194
2025/04/10 10:34:29.650814161,1744274069,649717563,,74.50594329833984,-5.894767761230472,0.0,0.0,0.0,-23.94229316711425
2025/04/10 10:34:29.752726677,1744274069,752415172,,74.21881866455078,-7.562883853912357,0.0,0.0,0.0,-24.154325485229492
2025/04/10 10:34:29.849950021,1744274069,848360281,,73.9437026977539,-8.562674522399902,0.0,0.0,0.0,-24.27464294433593
2025/04/10 10:34:29.948678604,1744274069,948346136,,73.7002944946289,-6.46754217147827,0.0,0.0,0.0,-24.05312538146972
2025/04/10 10:34:30.47934427,1744274070,47672852,,74.04349517822266,-6.50480127334594,0.0,0.0,0.0,-24.059412002563484
2025/04/10 10:34:30.155540172,1744274070,152009154,,73.46573638916016,-6.320490837097168,0.0,0.0,0.0,-25.218828201293952
2025/04/10 10:34:30.251552979,1744274070,250254596,,73.17042541503906,-5.0479841232299805,0.0,0.0,0.0,-25.41438293457029
2025/04/10 10:34:30.349558569,1744274070,348723694,,72.88838958740234,-7.119275093078617,0.0,0.0,0.0,-25.15779685974121
2025/04/10 10:34:30.450290242,1744274070,449243905,,72.36853790283205,-5.3434524536132795,0.0,0.0,0.0,-24.96105575561522
2025/04/10 10:34:30.550733570,1744274070,548164146,,72.05694580078125,-5.857237339019775,0.0,0.0,0.0,-25.3551731109619
2025/04/10 10:34:30.648561555,1744274070,647891355,,72.383056640625,-5.89401340484619,0.0,0.0,0.0,-25.361873626709
2025/04/10 10:34:30.748449287,1744274070,748202922,,71.71166992187501,-6.537659168243406,0.0,0.0,0.0,-25.971357345581062
2025/04/10 10:34:30.849085644,1744274070,848737685,,71.35922241210938,-5.358132362365719,0.0,0.0,0.0,-25.80481147766114
2025/04/10 10:34:30.949044228,1744274070,948733621,,70.94599151611328,-7.770274162292481,0.0,0.0,0.0,-27.84430503845214
2025/04/10 10:34:31.49005086,1744274071,48677289,,70.3203125,-6.498257637023929,0.0,0.0,0.0,-27.383817672729478
2025/04/10 10:34:31.148739461,1744274071,148503441,,69.99225616455078,-6.5154805183410645,0.0,0.0,0.0,-26.262319564819336
2025/04/10 10:34:31.252711218,1744274071,251521012,,69.77450561523438,-7.057338237762449,0.0,0.0,0.0,-26.519590377807617
2025/04/10 10:34:31.348899511,1744274071,348377975,,69.50145721435545,-5.625968456268312,0.0,0.0,0.0,-26.263032913207986
2025/04/10 10:34:31.447994436,1744274071,447685482,,69.80612182617188,-5.6617531776428205,0.0,0.0,0.0,-26.27020263671877
2025/04/10 10:34:31.549411617,1744274071,548374942,,69.21662139892578,-7.806848049163818,0.0,0.0,0.0,-27.32125473022461
2025/04/10 10:34:31.650122480,1744274071,648860481,,68.88957214355469,-7.890529155731201,0.0,0.0,0.0,-27.474952697753913
2025/04/10 10:34:31.748142775,1744274071,747841737,,68.58024597167967,-7.498068332672123,0.0,0.0,0.0,-27.250719070434556
2025/04/10 10:34:31.848764579,1744274071,848345391,,68.10411834716797,-7.448792934417725,0.0,0.0,0.0,-27.05173301696778
2025/04/10 10:34:31.949450661,1744274071,948826808,,67.84276580810547,-6.138885974884033,0.0,0.0,0.0,-27.39141845703125
2025/04/10 10:34:32.49754492,1744274072,49361056,,67.59515380859374,-7.896881103515622,0.0,0.0,0.0,-27.196859359741225
2025/04/10 10:34:32.150031358,1744274072,149686000,,67.25382995605469,-8.121788024902347,0.0,0.0,0.0,-27.995698928832994
2025/04/10 10:34:32.248018602,1744274072,247725068,,66.89524841308594,-7.978971958160402,0.0,0.0,0.0,-27.969831466674812
2025/04/10 10:34:32.348200241,1744274072,347867025,,67.17733764648438,-8.014174461364743,0.0,0.0,0.0,-27.977579116821296
2025/04/10 10:34:32.450426195,1744274072,449180441,,66.54202270507812,-7.884705066680908,0.0,0.0,0.0,-28.28252601623536
2025/04/10 10:34:32.549221226,1744274072,548924440,,66.20542907714842,-6.404244899749754,0.0,0.0,0.0,-28.143939971923842
2025/04/10 10:34:32.648262768,1744274072,647999111,,65.95037841796875,-5.637448787689205,0.0,0.0,0.0,-28.290557861328125
2025/04/10 10:34:32.748602806,1744274072,748310150,,65.66202545166016,-7.034920215606691,0.0,0.0,0.0,-28.07133865356444
2025/04/10 10:34:32.849591625,1744274072,849322626,,65.10898590087892,-5.830673694610596,0.0,0.0,0.0,-28.366746902465835
2025/04/10 10:34:32.953569782,1744274072,953286385,,64.82445526123045,-6.468376159667969,0.0,0.0,0.0,-28.675193786621087
2025/04/10 10:34:33.48161830,1744274073,47781573,,64.54460906982422,-6.939864158630372,0.0,0.0,0.0,-28.854433059692376
2025/04/10 10:34:33.151057024,1744274073,148503177,,64.26709747314453,-5.81658411026001,0.0,0.0,0.0,-28.680295944213867
2025/04/10 10:34:33.255215341,1744274073,254919357,,64.5283966064453,-5.849945545196537,0.0,0.0,0.0,-28.688434600830078
2025/04/10 10:34:33.348297449,1744274073,347970598,,63.96847915649414,-5.83326625823975,0.0,0.0,0.0,-29.528781890869148
2025/04/10 10:34:33.448535328,1744274073,448256587,,63.62209701538086,-8.162796974182129,0.0,0.0,0.0,-29.652231216430657
2025/04/10 10:34:33.548347146,1744274073,548047361,,63.291114807128906,-6.775034904479979,0.0,0.0,0.0,-29.47473335266114
2025/04/10 10:34:33.650562840,1744274073,650216677,,62.93272018432617,-8.933755874633787,0.0,0.0,0.0,-30.77568054199221
2025/04/10 10:34:33.750553705,1744274073,750233014,,62.38040924072265,-7.474670886993406,0.0,0.0,0.0,-30.46354866027832
2025/04/10 10:34:33.848341199,1744274073,848038823,,62.11094284057617,-8.035706520080566,0.0,0.0,0.0,-29.710222244262702
2025/04/10 10:34:33.950053251,1744274073,948701818,,61.8232650756836,-9.555081367492676,0.0,0.0,0.0,-29.853576660156243
2025/04/10 10:34:34.54867586,1744274074,52525833,,61.534183502197266,-9.073981285095215,0.0,0.0,0.0,-29.937389373779283
2025/04/10 10:34:34.150392973,1744274074,149107483,,61.77612686157225,-9.10634994506836,0.0,0.0,0.0,-29.94596099853515
2025/04/10 10:34:34.248949203,1744274074,248223484,,61.19966506958008,-8.733618736267093,0.0,0.0,0.0,-30.287832260131843
2025/04/10 10:34:34.348986569,1744274074,348685711,,60.85811614990233,-7.568760871887204,0.0,0.0,0.0,-30.186597824096694
2025/04/10 10:34:34.452478074,1744274074,452115608,,60.63475036621094,-7.261447906494139,0.0,0.0,0.0,-30.285593032836935
2025/04/10 10:34:34.549847314,1744274074,549571470,,60.4234504699707,-5.77265739440918,0.0,0.0,0.0,-30.131160736083977
2025/04/10 10:34:34.648878190,1744274074,648568511,,60.20771026611327,-7.059661388397215,0.0,0.0,0.0,-30.496395111084
2025/04/10 10:34:34.749907556,1744274074,749690161,,59.945701599121094,-7.357409954071046,0.0,0.0,0.0,-30.331590652465827
2025/04/10 10:34:34.848810296,1744274074,848540694,,59.65790176391603,-7.403087139129641,0.0,0.0,0.0,-30.66758537292482
2025/04/10 10:34:34.949089910,1744274074,947939491,,59.37957763671875,-7.487781524658206,0.0,0.0,0.0,-30.52522087097166
2025/04/10 10:34:35.48840802,1744274075,48658360,,58.84514236450195,-7.6181888580322275,0.0,0.0,0.0,-30.732362747192383
2025/04/10 10:34:35.149824253,1744274075,148563431,,58.539146423339844,-9.366753578186035,0.0,0.0,0.0,-30.951213836669936
2025/04/10 10:34:35.248648339,1744274075,248144891,,58.229393005371094,-8.879161834716792,0.0,0.0,0.0,-31.073637008667006
2025/04/10 10:34:35.349368786,1744274075,348143247,,57.93264770507814,-6.9801521301269505,0.0,0.0,0.0,-30.95815467834474
2025/04/10 10:34:35.449898338,1744274075,449476615,,58.1491813659668,-7.010025501251215,0.0,0.0,0.0,-30.96720314025879
2025/04/10 10:34:35.549957131,1744274075,549663154,,57.59811782836914,-8.635518074035641,0.0,0.0,0.0,-31.55084800720214
2025/04/10 10:34:35.654205091,1744274075,652925431,,57.298858642578125,-8.488277435302733,0.0,0.0,0.0,-31.62055015563965
2025/04/10 10:34:35.748593196,1744274075,748235267,,56.98493576049805,-6.608593940734863,0.0,0.0,0.0,-31.49606895446778
2025/04/10 10:34:35.848683345,1744274075,848353847,,56.72616195678711,-8.384426116943361,0.0,0.0,0.0,-31.49375915527343
2025/04/10 10:34:35.948549697,1744274075,948226228,,56.48757553100585,-7.6421613693237305,0.0,0.0,0.0,-31.381126403808587
2025/04/10 10:34:36.50909823,1744274076,49292066,,55.99404525756835,-6.570135116577148,0.0,0.0,0.0,-31.4911651611328
2025/04/10 10:34:36.148070745,1744274076,147744379,,55.775787353515625,-6.344700336456295,0.0,0.0,0.0,-31.721826553344734
2025/04/10 10:34:36.249737898,1744274076,249354138,,55.52513885498047,-8.169818878173832,0.0,0.0,0.0,-31.83478927612304
2025/04/10 10:34:36.348880348,1744274076,348483046,,55.26257705688478,-8.091511726379391,0.0,0.0,0.0,-31.740066528320305
2025/04/10 10:34:36.448578812,1744274076,448358052,,55.00308609008789,-7.755453586578369,0.0,0.0,0.0,-32.175727844238295
2025/04/10 10:34:36.548369405,1744274076,548102669,,55.2001724243164,-7.783524036407474,0.0,0.0,0.0,-32.185150146484375
2025/04/10 10:34:36.648800876,1744274076,648528683,,54.62843322753906,-9.356487274169922,0.0,0.0,0.0,-32.4459686279297
