time,header_stamp_secs,header_stamp_nsecs,header_frame_id,wrench_force_x,wrench_force_y,wrench_force_z,wrench_torque_x,wrench_torque_y,wrench_torque_z
2025/04/10 10:33:47.887265435,1744274027,757880574,,1.1102230246251565e-16,1.1102230246251565e-16,0.0,0.0,0.0,8.326672684688674e-17
2025/04/10 10:33:47.888786851,1744274027,865113750,,0.0,0.0,0.0,0.0,0.0,-5.551115123125783e-17
2025/04/10 10:33:47.956715465,1744274027,955579096,,1.1102230246251565e-16,1.1102230246251565e-16,0.0,0.0,0.0,-1.1102230246251565e-16
2025/04/10 10:33:48.88890501,1744274028,65856179,,0.0,0.0,0.0,0.0,0.0,-2.220446049250313e-16
2025/04/10 10:33:48.168046236,1744274028,164109872,,-2.220446049250313e-16,0.0,0.0,0.0,0.0,2.220446049250313e-16
2025/04/10 10:33:48.250689937,1744274028,249639359,,1.1102230246251565e-16,2.220446049250313e-16,0.0,0.0,0.0,1.3877787807814457e-16
2025/04/10 10:33:48.352698478,1744274028,352572438,,-2.220446049250313e-16,-3.3306690738754696e-16,0.0,0.0,0.0,-1.1102230246251565e-16
2025/04/10 10:33:48.448519521,1744274028,448195783,,0.0,0.0,0.0,0.0,0.0,-3.608224830031759e-16
2025/04/10 10:33:48.548206552,1744274028,548017568,,0.0,-1.1102230246251565e-16,0.0,0.0,0.0,-2.220446049250313e-16
2025/04/10 10:33:48.649438964,1744274028,649192089,,-1.1102230246251565e-16,-6.591949208711867e-17,0.0,0.0,0.0,0.0
2025/04/10 10:33:48.748535244,1744274028,748374069,,0.0,-9.020562075079397e-17,0.0,0.0,0.0,0.0
2025/04/10 10:33:48.854571904,1744274028,854273906,,0.0,0.0,0.0,0.0,0.0,-4.440892098500626e-16
2025/04/10 10:33:48.953315823,1744274028,953121673,,1.1102230246251565e-16,0.0,0.0,0.0,0.0,0.0
2025/04/10 10:33:49.49918879,1744274029,49256223,,1.1102230246251565e-16,-1.1102230246251565e-16,0.0,0.0,0.0,-1.3877787807814457e-16
2025/04/10 10:33:49.149341876,1744274029,148182734,,0.0,-2.220446049250313e-16,0.0,0.0,0.0,-1.3877787807814457e-16
2025/04/10 10:33:49.249019237,1744274029,248693195,,-1.1102230246251565e-16,0.0,0.0,0.0,0.0,-2.7755575615628914e-17
2025/04/10 10:33:49.352692677,1744274029,352477396,,2.220446049250313e-16,0.0,0.0,0.0,0.0,2.7755575615628914e-16
2025/04/10 10:33:49.447888679,1744274029,447697264,,1.1102230246251565e-16,0.0,0.0,0.0,0.0,-3.3306690738754696e-16
2025/04/10 10:33:49.548194209,1744274029,548048430,,-2.220446049250313e-16,0.0,0.0,0.0,0.0,2.7755575615628914e-16
2025/04/10 10:33:49.658192316,1744274029,656114459,,0.0,-2.220446049250313e-16,0.0,0.0,0.0,3.885780586188048e-16
2025/04/10 10:33:49.749403549,1744274029,748838036,,-1.1102230246251565e-16,-1.1102230246251565e-16,0.0,0.0,0.0,5.273559366969494e-16
2025/04/10 10:33:49.850485965,1744274029,849801934,,2.220446049250313e-16,-1.1102230246251565e-16,0.0,0.0,0.0,0.0
2025/04/10 10:33:49.950209865,1744274029,949556566,,0.0,-8.326672684688674e-17,0.0,0.0,0.0,-1.1102230246251565e-16
2025/04/10 10:33:50.55215191,1744274030,55050263,,1.1102230246251565e-16,-2.7755575615628914e-17,0.0,0.0,0.0,-2.7755575615628914e-17
2025/04/10 10:33:50.149028567,1744274030,148862350,,0.0,-2.220446049250313e-16,0.0,0.0,0.0,-1.0269562977782698e-15
2025/04/10 10:33:50.248516012,1744274030,248229620,,3.3306690738754696e-16,2.220446049250313e-16,0.0,0.0,0.0,2.220446049250313e-16
2025/04/10 10:33:50.351922773,1744274030,350734683,,3.3306690738754696e-16,0.0,0.0,0.0,0.0,2.7755575615628914e-16
2025/04/10 10:33:50.448491089,1744274030,448310649,,2.220446049250313e-16,-5.551115123125783e-17,0.0,0.0,0.0,-2.7755575615628914e-17
2025/04/10 10:33:50.548302298,1744274030,547999323,,-2.220446049250313e-16,-5.551115123125783e-17,0.0,0.0,0.0,-5.551115123125783e-17
2025/04/10 10:33:50.648569718,1744274030,648400123,,-2.220446049250313e-16,0.0,0.0,0.0,0.0,-1.3322676295501878e-15
2025/04/10 10:33:50.748079630,1744274030,747875261,,-2.220446049250313e-16,-2.220446049250313e-16,0.0,0.0,0.0,-6.661338147750939e-16
2025/04/10 10:33:50.850278206,1744274030,849898491,,0.0,1.6653345369377348e-16,0.0,0.0,0.0,3.3306690738754696e-16
2025/04/10 10:33:50.948656740,1744274030,948536725,,1.1102230246251565e-16,-1.1102230246251565e-16,0.0,0.0,0.0,-3.3306690738754696e-16
2025/04/10 10:33:51.50957798,1744274031,49809359,,0.0,1.3877787807814457e-16,0.0,0.0,0.0,1.6653345369377348e-16
2025/04/10 10:33:51.148340189,1744274031,147694060,,-1.1102230246251565e-16,1.1102230246251565e-16,0.0,0.0,0.0,2.7755575615628914e-16
2025/04/10 10:33:51.250036524,1744274031,249175864,,1.1102230246251565e-16,1.1102230246251565e-16,0.0,0.0,0.0,5.551115123125783e-17
2025/04/10 10:33:51.349845264,1744274031,348373058,,0.0,0.0,0.0,0.0,0.0,3.0531133177191805e-16
2025/04/10 10:33:51.449513460,1744274031,447740943,,0.0,0.0,0.0,0.0,0.0,-5.551115123125783e-17
2025/04/10 10:33:51.549271844,1744274031,548999868,,-1.1102230246251565e-16,1.1102230246251565e-16,0.0,0.0,0.0,-2.220446049250313e-16
2025/04/10 10:33:51.650462946,1744274031,649471355,,0.0,0.0,0.0,0.0,0.0,-1.1102230246251565e-16
2025/04/10 10:33:51.748441778,1744274031,748198720,,2.220446049250313e-16,-1.1102230246251565e-16,0.0,0.0,0.0,-1.6653345369377348e-16
2025/04/10 10:33:51.847951408,1744274031,847733619,,0.0,-5.551115123125783e-17,0.0,0.0,0.0,-2.220446049250313e-16
2025/04/10 10:33:51.948749722,1744274031,948651513,,-3.3306690738754696e-16,0.0,0.0,0.0,0.0,-8.326672684688674e-17
2025/04/10 10:33:52.48773544,1744274032,48536659,,-3.3306690738754696e-16,0.0,0.0,0.0,0.0,-5.551115123125783e-17
2025/04/10 10:33:52.149388841,1744274032,149272037,,2.220446049250313e-16,2.220446049250313e-16,0.0,0.0,0.0,1.6653345369377348e-16
2025/04/10 10:33:52.250755407,1744274032,249718103,,-1.1102230246251565e-16,1.1102230246251565e-16,0.0,0.0,0.0,8.326672684688674e-16
2025/04/10 10:33:52.349343341,1744274032,349063430,,-2.220446049250313e-16,-4.440892098500626e-16,0.0,0.0,0.0,-2.220446049250313e-16
2025/04/10 10:33:52.448470078,1744274032,448366272,,0.0,-5.551115123125783e-17,0.0,0.0,0.0,0.0
2025/04/10 10:33:52.548389033,1744274032,548285579,,-2.220446049250313e-16,0.0,0.0,0.0,0.0,-5.551115123125783e-17
2025/04/10 10:33:52.649140502,1744274032,648928287,,1.1102230246251565e-16,0.0,0.0,0.0,0.0,-5.551115123125783e-16
2025/04/10 10:33:52.748342105,1744274032,748174817,,0.0,1.1102230246251565e-16,0.0,0.0,0.0,2.7755575615628914e-16
2025/04/10 10:33:52.849254367,1744274032,849077688,,-1.1102230246251565e-16,5.551115123125783e-17,0.0,0.0,0.0,2.7755575615628914e-16
2025/04/10 10:33:52.948887551,1744274032,948554702,,0.0,0.0,0.0,0.0,0.0,0.0
2025/04/10 10:33:53.52027464,1744274033,51877445,,0.0,0.0,0.0,0.0,0.0,-1.1102230246251565e-16
2025/04/10 10:33:53.150214559,1744274033,149916750,,0.0,3.469446951953614e-17,0.0,0.0,0.0,1.1102230246251565e-16
2025/04/10 10:33:53.247918647,1744274033,247755804,,0.0,5.551115123125783e-17,0.0,0.0,0.0,2.7755575615628914e-17
2025/04/10 10:33:53.348011467,1744274033,347730727,,-1.1102230246251565e-16,4.163336342344337e-17,0.0,0.0,0.0,5.551115123125783e-17
2025/04/10 10:33:53.449681708,1744274033,448655998,,-1.1102230246251565e-16,-2.7755575615628914e-17,0.0,0.0,0.0,8.326672684688674e-17
2025/04/10 10:33:53.548803838,1744274033,548555749,,0.0,-1.1796119636642288e-16,0.0,0.0,0.0,-2.7755575615628914e-16
2025/04/10 10:33:53.651245273,1744274033,650834344,,0.0,0.0,0.0,0.0,0.0,-4.440892098500626e-16
2025/04/10 10:33:53.750117139,1744274033,749943129,,-1.1102230246251565e-16,0.0,0.0,0.0,0.0,-1.3877787807814457e-16
2025/04/10 10:33:53.848108819,1744274033,847945190,,-1.1102230246251565e-16,0.0,0.0,0.0,0.0,-1.6653345369377348e-16
2025/04/10 10:33:53.962061292,1744274033,960867524,,92.12551240237674,-2.1138859246225117,0.0,0.0,0.0,1.3891110484109959e-12
2025/04/10 10:33:54.56944655,1744274034,56717469,,61.94321287807949,-0.9007629653660789,0.0,0.0,0.0,2.842170943040401e-14
2025/04/10 10:33:54.157132309,1744274034,156880219,,29.143862066729994,3.197442310920451e-12,0.0,0.0,0.0,7.105427357601002e-15
2025/04/10 10:33:54.250981247,1744274034,250764459,,1.4210854715202004e-14,7.105427357601002e-15,0.0,0.0,0.0,-1.4210854715202004e-14
2025/04/10 10:33:54.352574109,1744274034,352277294,,5.826450433232822e-13,-1.1723955140041653e-13,0.0,0.0,0.0,7.531752999057062e-13
2025/04/10 10:33:54.449583255,1744274034,449348846,,0.0,7.105427357601002e-15,0.0,0.0,0.0,-1.4210854715202004e-14
2025/04/10 10:33:54.551701440,1744274034,549117601,,1.4210854715202004e-14,-7.105427357601002e-15,0.0,0.0,0.0,4.263256414560601e-14
2025/04/10 10:33:54.649476982,1744274034,649309329,,0.0,7.105427357601002e-15,0.0,0.0,0.0,-4.263256414560601e-14
2025/04/10 10:33:54.749534904,1744274034,749399373,,0.0,-7.105427357601002e-15,0.0,0.0,0.0,1.4210854715202004e-14
2025/04/10 10:33:54.851908279,1744274034,851790136,,0.0,-1.0658141036401503e-14,0.0,0.0,0.0,4.263256414560601e-14
2025/04/10 10:33:54.948493946,1744274034,948306648,,0.0,-7.105427357601002e-15,0.0,0.0,0.0,-1.4210854715202004e-14
2025/04/10 10:33:55.48398166,1744274035,48180295,,0.0,-3.552713678800501e-15,0.0,0.0,0.0,0.0
2025/04/10 10:33:55.148912195,1744274035,148605244,,0.0,3.552713678800501e-15,0.0,0.0,0.0,0.0
2025/04/10 10:33:55.249184591,1744274035,249008065,,0.0,0.0,0.0,0.0,0.0,2.842170943040401e-14
2025/04/10 10:33:55.350938011,1744274035,349388561,,2.842170943040401e-14,-3.552713678800501e-15,0.0,0.0,0.0,1.4210854715202004e-14
2025/04/10 10:33:55.449385840,1744274035,448850939,,0.0,0.0,0.0,0.0,0.0,0.0
2025/04/10 10:33:55.549585124,1744274035,549476614,,0.0,-3.552713678800501e-15,0.0,0.0,0.0,1.4210854715202004e-14
2025/04/10 10:33:55.648578221,1744274035,648363351,,-1.4210854715202004e-14,-3.552713678800501e-15,0.0,0.0,0.0,0.0
2025/04/10 10:33:55.750244924,1744274035,748742763,,1.4210854715202004e-14,0.0,0.0,0.0,0.0,-1.4210854715202004e-14
2025/04/10 10:33:55.848511931,1744274035,848297490,,0.0,-3.552713678800501e-15,0.0,0.0,0.0,0.0
2025/04/10 10:33:55.949159440,1744274035,948932978,,0.0,-7.105427357601002e-15,0.0,0.0,0.0,5.684341886080802e-14
2025/04/10 10:33:56.49302314,1744274036,48229281,,0.0,7.105427357601002e-15,0.0,0.0,0.0,-1.4210854715202004e-14
2025/04/10 10:33:56.148675612,1744274036,148481347,,1.4210854715202004e-14,-3.552713678800501e-15,0.0,0.0,0.0,1.4210854715202004e-14
2025/04/10 10:33:56.248613004,1744274036,248366997,,0.0,-3.552713678800501e-15,0.0,0.0,0.0,-1.4210854715202004e-14
2025/04/10 10:33:56.350297517,1744274036,350051731,,0.0,-7.105427357601002e-15,0.0,0.0,0.0,0.0
2025/04/10 10:33:56.449049552,1744274036,448878626,,2.842170943040401e-14,0.0,0.0,0.0,0.0,0.0
2025/04/10 10:33:56.551801058,1744274036,551603124,,-1.4210854715202004e-14,1.0658141036401503e-14,0.0,0.0,0.0,-1.4210854715202004e-14
2025/04/10 10:33:56.649536277,1744274036,649366305,,0.0,0.0,0.0,0.0,0.0,1.4210854715202004e-14
2025/04/10 10:33:56.750095968,1744274036,749961412,,0.0,7.105427357601002e-15,0.0,0.0,0.0,-2.842170943040401e-14
2025/04/10 10:33:56.849638594,1744274036,848249703,,0.0,3.552713678800501e-15,0.0,0.0,0.0,-1.4210854715202004e-14
2025/04/10 10:33:56.948902047,1744274036,948668196,,2.842170943040401e-14,-7.105427357601002e-15,0.0,0.0,0.0,0.0
2025/04/10 10:33:57.49474129,1744274037,48455175,,-1.4210854715202004e-14,0.0,0.0,0.0,0.0,1.4210854715202004e-14
2025/04/10 10:33:57.150319244,1744274037,149447700,,0.0,0.0,0.0,0.0,0.0,-2.842170943040401e-14
2025/04/10 10:33:57.248497036,1744274037,248285573,,0.0,-3.552713678800501e-15,0.0,0.0,0.0,2.842170943040401e-14
2025/04/10 10:33:57.348635811,1744274037,348376583,,-1.4210854715202004e-14,-7.105427357601002e-15,0.0,0.0,0.0,4.263256414560601e-14
2025/04/10 10:33:57.451969875,1744274037,451370348,,1.4210854715202004e-14,0.0,0.0,0.0,0.0,1.4210854715202004e-14
2025/04/10 10:33:57.549511671,1744274037,549410355,,0.0,0.0,0.0,0.0,0.0,0.0
2025/04/10 10:33:57.649358089,1744274037,649145196,,1.4210854715202004e-14,0.0,0.0,0.0,0.0,-1.4210854715202004e-14
2025/04/10 10:33:57.750047304,1744274037,748675708,,0.0,3.552713678800501e-15,0.0,0.0,0.0,-2.842170943040401e-14
2025/04/10 10:33:57.849566094,1744274037,848461677,,0.0,-7.105427357601002e-15,0.0,0.0,0.0,1.4210854715202004e-14
2025/04/10 10:33:57.950859291,1744274037,949924037,,0.0,3.552713678800501e-15,0.0,0.0,0.0,1.4210854715202004e-14
2025/04/10 10:33:58.48481190,1744274038,48246205,,-1.4210854715202004e-14,7.105427357601002e-15,0.0,0.0,0.0,-1.4210854715202004e-14
2025/04/10 10:33:58.148015230,1744274038,147886835,,0.0,3.552713678800501e-15,0.0,0.0,0.0,0.0
2025/04/10 10:33:58.248378695,1744274038,248131959,,2.842170943040401e-14,0.0,0.0,0.0,0.0,2.842170943040401e-14
2025/04/10 10:33:58.354195470,1744274038,353989759,,0.0,3.552713678800501e-15,0.0,0.0,0.0,-1.4210854715202004e-14
2025/04/10 10:33:58.450066446,1744274038,449746414,,2.842170943040401e-14,-3.552713678800501e-15,0.0,0.0,0.0,0.0
2025/04/10 10:33:58.549991939,1744274038,549697475,,-2.842170943040401e-14,0.0,0.0,0.0,0.0,0.0
2025/04/10 10:33:58.649060745,1744274038,648600410,,0.0,0.0,0.0,0.0,0.0,2.842170943040401e-14
2025/04/10 10:33:58.753875325,1744274038,753652438,,0.0,3.552713678800501e-15,0.0,0.0,0.0,-1.4210854715202004e-14
2025/04/10 10:33:58.849969273,1744274038,848709937,,0.0,0.0,0.0,0.0,0.0,0.0
2025/04/10 10:33:58.948195287,1744274038,947928757,,0.0,-3.552713678800501e-15,0.0,0.0,0.0,-1.4210854715202004e-14
2025/04/10 10:33:59.48700255,1744274039,48463100,,0.0,1.7763568394002505e-15,0.0,0.0,0.0,0.0
2025/04/10 10:33:59.156148109,1744274039,155984913,,2.842170943040401e-14,-3.552713678800501e-15,0.0,0.0,0.0,2.842170943040401e-14
2025/04/10 10:33:59.248999587,1744274039,248676313,,2.842170943040401e-14,0.0,0.0,0.0,0.0,-2.842170943040401e-14
2025/04/10 10:33:59.349027952,1744274039,348796685,,0.0,3.552713678800501e-15,0.0,0.0,0.0,-1.4210854715202004e-14
2025/04/10 10:33:59.449079391,1744274039,448891331,,0.0,-1.0658141036401503e-14,0.0,0.0,0.0,2.842170943040401e-14
2025/04/10 10:33:59.555598853,1744274039,553466606,,0.0,0.0,0.0,0.0,0.0,0.0
2025/04/10 10:33:59.650946119,1744274039,650719982,,0.0,0.0,0.0,0.0,0.0,-1.4210854715202004e-14
2025/04/10 10:33:59.752308141,1744274039,751467965,,0.0,0.0,0.0,0.0,0.0,0.0
2025/04/10 10:33:59.848666581,1744274039,848487438,,0.0,-3.552713678800501e-15,0.0,0.0,0.0,-1.4210854715202004e-14
2025/04/10 10:33:59.949134982,1744274039,948665234,,0.0,0.0,0.0,0.0,0.0,0.0
2025/04/10 10:34:00.48552087,1744274040,48374440,,0.0,-3.552713678800501e-15,0.0,0.0,0.0,-1.4210854715202004e-14
2025/04/10 10:34:00.148503084,1744274040,148334263,,0.0,3.552713678800501e-15,0.0,0.0,0.0,0.0
2025/04/10 10:34:00.248696387,1744274040,248506926,,0.0,3.552713678800501e-15,0.0,0.0,0.0,2.842170943040401e-14
2025/04/10 10:34:00.349138028,1744274040,349036504,,0.0,7.105427357601002e-15,0.0,0.0,0.0,1.4210854715202004e-14
2025/04/10 10:34:00.449943717,1744274040,449700563,,0.0,0.0,0.0,0.0,0.0,2.842170943040401e-14
2025/04/10 10:34:00.548813107,1744274040,548694748,,0.0,0.0,0.0,0.0,0.0,1.4210854715202004e-14
2025/04/10 10:34:00.648828821,1744274040,648424141,,0.0,0.0,0.0,0.0,0.0,1.4210854715202004e-14
2025/04/10 10:34:00.749581937,1744274040,748805351,,0.0,3.552713678800501e-15,0.0,0.0,0.0,2.842170943040401e-14
2025/04/10 10:34:00.849909333,1744274040,848909182,,0.0,-3.552713678800501e-15,0.0,0.0,0.0,0.0
2025/04/10 10:34:00.948408811,1744274040,948220359,,0.0,1.7763568394002505e-15,0.0,0.0,0.0,0.0
2025/04/10 10:34:01.48605620,1744274041,48424607,,0.0,1.7763568394002505e-15,0.0,0.0,0.0,0.0
2025/04/10 10:34:01.149516591,1744274041,148496193,,0.0,0.0,0.0,0.0,0.0,0.0
2025/04/10 10:34:01.249645362,1744274041,249116304,,0.0,0.0,0.0,0.0,0.0,0.0
2025/04/10 10:34:01.349679746,1744274041,348754819,,2.842170943040401e-14,3.552713678800501e-15,0.0,0.0,0.0,1.4210854715202004e-14
2025/04/10 10:34:01.448024447,1744274041,447830254,,0.0,3.552713678800501e-15,0.0,0.0,0.0,-2.842170943040401e-14
2025/04/10 10:34:01.548606313,1744274041,548350513,,0.0,5.329070518200751e-15,0.0,0.0,0.0,-2.842170943040401e-14
2025/04/10 10:34:01.649296222,1744274041,648345544,,0.0,0.0,0.0,0.0,0.0,0.0
2025/04/10 10:34:01.748717028,1744274041,748526339,,0.0,-3.552713678800501e-15,0.0,0.0,0.0,-2.842170943040401e-14
2025/04/10 10:34:01.849090253,1744274041,848980524,,0.0,1.7763568394002505e-15,0.0,0.0,0.0,0.0
2025/04/10 10:34:01.949170474,1744274041,949025668,,0.0,0.0,0.0,0.0,0.0,1.4210854715202004e-14
2025/04/10 10:34:02.49235009,1744274042,48993571,,5.684341886080802e-14,3.552713678800501e-15,0.0,0.0,0.0,2.842170943040401e-14
2025/04/10 10:34:02.149103930,1744274042,148912023,,0.0,7.105427357601002e-15,0.0,0.0,0.0,-2.842170943040401e-14
2025/04/10 10:34:02.249508475,1744274042,249345712,,2.842170943040401e-14,0.0,0.0,0.0,0.0,1.4210854715202004e-14
2025/04/10 10:34:02.349464790,1744274042,349089730,,-5.684341886080802e-14,3.552713678800501e-15,0.0,0.0,0.0,1.4210854715202004e-14
2025/04/10 10:34:02.449932691,1744274042,449180523,,0.0,-3.552713678800501e-15,0.0,0.0,0.0,0.0
2025/04/10 10:34:02.549855496,1744274042,548583633,,0.0,0.0,0.0,0.0,0.0,0.0
2025/04/10 10:34:02.649435382,1744274042,648333013,,0.0,3.552713678800501e-15,0.0,0.0,0.0,0.0
2025/04/10 10:34:02.751216179,1744274042,749318487,,0.0,-1.7763568394002505e-15,0.0,0.0,0.0,0.0
2025/04/10 10:34:02.849230444,1744274042,849009716,,-2.842170943040401e-14,0.0,0.0,0.0,0.0,0.0
2025/04/10 10:34:02.950624314,1744274042,950522905,,0.0,3.552713678800501e-15,0.0,0.0,0.0,-1.4210854715202004e-14
2025/04/10 10:34:03.50801325,1744274043,49926815,,0.0,0.0,0.0,0.0,0.0,0.0
2025/04/10 10:34:03.149326783,1744274043,149214864,,0.0,-3.552713678800501e-15,0.0,0.0,0.0,-1.4210854715202004e-14
2025/04/10 10:34:03.250012808,1744274043,249906344,,2.842170943040401e-14,1.7763568394002505e-15,0.0,0.0,0.0,2.842170943040401e-14
2025/04/10 10:34:03.351318015,1744274043,349708557,,0.0,1.7763568394002505e-15,0.0,0.0,0.0,0.0
2025/04/10 10:34:03.450806692,1744274043,448918046,,0.0,0.0,0.0,0.0,0.0,0.0
2025/04/10 10:34:03.552387445,1744274043,551160200,,0.0,1.7763568394002505e-15,0.0,0.0,0.0,2.842170943040401e-14
2025/04/10 10:34:03.648592747,1744274043,648406129,,-2.842170943040401e-14,1.7763568394002505e-15,0.0,0.0,0.0,0.0
2025/04/10 10:34:03.748757295,1744274043,748541818,,0.0,0.0,0.0,0.0,0.0,1.4210854715202004e-14
2025/04/10 10:34:03.849852321,1744274043,848949184,,0.0,3.552713678800501e-15,0.0,0.0,0.0,0.0
2025/04/10 10:34:03.949310512,1744274043,948657325,,2.842170943040401e-14,-1.7763568394002505e-15,0.0,0.0,0.0,0.0
2025/04/10 10:34:04.49821883,1744274044,48726915,,0.0,1.7763568394002505e-15,0.0,0.0,0.0,-2.842170943040401e-14
2025/04/10 10:34:04.148717648,1744274044,148505586,,0.0,0.0,0.0,0.0,0.0,2.842170943040401e-14
2025/04/10 10:34:04.255855063,1744274044,255546432,,0.0,0.0,0.0,0.0,0.0,7.105427357601002e-15
2025/04/10 10:34:04.351243227,1744274044,351107496,,1.4210854715202004e-14,1.7763568394002505e-15,0.0,0.0,0.0,-7.105427357601002e-15
2025/04/10 10:34:04.449456745,1744274044,449317380,,0.0,3.552713678800501e-15,0.0,0.0,0.0,-7.105427357601002e-15
2025/04/10 10:34:04.549221333,1744274044,548988544,,0.0,0.0,0.0,0.0,0.0,7.105427357601002e-15
2025/04/10 10:34:04.658514654,1744274044,658206955,,0.0,0.0,0.0,0.0,0.0,-1.4210854715202004e-14
2025/04/10 10:34:04.748991028,1744274044,748725575,,0.0,-1.7763568394002505e-15,0.0,0.0,0.0,-7.105427357601002e-15
2025/04/10 10:34:04.848483407,1744274044,848303255,,0.0,-1.7763568394002505e-15,0.0,0.0,0.0,7.105427357601002e-15
2025/04/10 10:34:04.950262154,1744274044,950063832,,0.0,0.0,0.0,0.0,0.0,7.105427357601002e-15
2025/04/10 10:34:05.50137382,1744274045,49098829,,0.0,1.7763568394002505e-15,0.0,0.0,0.0,2.1316282072803006e-14
2025/04/10 10:34:05.148876049,1744274045,148602293,,0.0,0.0,0.0,0.0,0.0,7.105427357601002e-15
2025/04/10 10:34:05.251878777,1744274045,250036827,,1.4210854715202004e-14,8.881784197001252e-16,0.0,0.0,0.0,7.105427357601002e-15
2025/04/10 10:34:05.348988815,1744274045,348765388,,0.0,0.0,0.0,0.0,0.0,1.4210854715202004e-14
2025/04/10 10:34:05.448931984,1744274045,448359832,,0.0,0.0,0.0,0.0,0.0,-1.4210854715202004e-14
2025/04/10 10:34:05.550781719,1744274045,549461396,,0.0,0.0,0.0,0.0,0.0,-2.1316282072803006e-14
2025/04/10 10:34:05.649942888,1744274045,649705366,,7.105427357601002e-15,-1.7763568394002505e-15,0.0,0.0,0.0,-7.105427357601002e-15
2025/04/10 10:34:05.749650620,1744274045,749315125,,0.0,0.0,0.0,0.0,0.0,-1.4210854715202004e-14
2025/04/10 10:34:05.849060154,1744274045,848913253,,0.0,0.0,0.0,0.0,0.0,-3.552713678800501e-15
2025/04/10 10:34:05.951702432,1744274045,951478035,,0.0,1.7763568394002505e-15,0.0,0.0,0.0,0.0
2025/04/10 10:34:06.49510808,1744274046,48767746,,0.0,1.7763568394002505e-15,0.0,0.0,0.0,7.105427357601002e-15
2025/04/10 10:34:06.149242947,1744274046,148253610,,0.0,8.881784197001252e-16,0.0,0.0,0.0,-7.105427357601002e-15
2025/04/10 10:34:06.248478130,1744274046,248290441,,0.0,8.881784197001252e-16,0.0,0.0,0.0,-7.105427357601002e-15
2025/04/10 10:34:06.353799607,1744274046,352962110,,-7.105427357601002e-15,-8.881784197001252e-16,0.0,0.0,0.0,0.0
2025/04/10 10:34:06.448839621,1744274046,448674145,,-3.552713678800501e-15,8.881784197001252e-16,0.0,0.0,0.0,0.0
2025/04/10 10:34:06.550430916,1744274046,549494999,,0.0,0.0,0.0,0.0,0.0,3.552713678800501e-15
2025/04/10 10:34:06.658618435,1744274046,656320656,,0.0,-1.7763568394002505e-15,0.0,0.0,0.0,0.0
2025/04/10 10:34:06.751709831,1744274046,749824019,,0.0,8.881784197001252e-16,0.0,0.0,0.0,-3.552713678800501e-15
2025/04/10 10:34:06.848792395,1744274046,848597834,,0.0,0.0,0.0,0.0,0.0,0.0
2025/04/10 10:34:06.949941656,1744274046,948267212,,0.0,-8.881784197001252e-16,0.0,0.0,0.0,-3.552713678800501e-15
2025/04/10 10:34:07.48672899,1744274047,48405903,,0.0,1.7763568394002505e-15,0.0,0.0,0.0,0.0
2025/04/10 10:34:07.149229454,1744274047,148948723,,-3.552713678800501e-15,8.881784197001252e-16,0.0,0.0,0.0,0.0
2025/04/10 10:34:07.248041188,1744274047,247856971,,-3.552713678800501e-15,-4.440892098500626e-16,0.0,0.0,0.0,3.552713678800501e-15
2025/04/10 10:34:07.348467568,1744274047,348243451,,0.0,0.0,0.0,0.0,0.0,-1.7763568394002505e-15
2025/04/10 10:34:07.448321969,1744274047,448129260,,0.0,0.0,0.0,0.0,0.0,5.329070518200751e-15
2025/04/10 10:34:07.549298179,1744274047,548198904,,0.0,-8.881784197001252e-16,0.0,0.0,0.0,3.552713678800501e-15
2025/04/10 10:34:07.650700914,1744274047,649733983,,0.0,0.0,0.0,0.0,0.0,0.0
2025/04/10 10:34:07.749446571,1744274047,749161463,,3.552713678800501e-15,4.440892098500626e-16,0.0,0.0,0.0,-3.552713678800501e-15
2025/04/10 10:34:07.849341583,1744274047,848597209,,0.0,1.3322676295501878e-15,0.0,0.0,0.0,-1.7763568394002505e-15
2025/04/10 10:34:07.950083989,1744274047,949952921,,0.0,-4.440892098500626e-16,0.0,0.0,0.0,0.0
2025/04/10 10:34:08.51794001,1744274048,50558336,,0.0,4.440892098500626e-16,0.0,0.0,0.0,-7.105427357601002e-15
2025/04/10 10:34:08.149731012,1744274048,148849971,,0.0,-8.881784197001252e-16,0.0,0.0,0.0,0.0
2025/04/10 10:34:08.248772270,1744274048,248545268,,0.0,4.440892098500626e-16,0.0,0.0,0.0,0.0
2025/04/10 10:34:08.348701717,1744274048,348589704,,0.0,0.0,0.0,0.0,0.0,-3.552713678800501e-15
2025/04/10 10:34:08.449092550,1744274048,448864707,,0.0,-8.881784197001252e-16,0.0,0.0,0.0,0.0
2025/04/10 10:34:08.548762582,1744274048,548516461,,0.0,-8.881784197001252e-16,0.0,0.0,0.0,7.105427357601002e-15
2025/04/10 10:34:08.649183494,1744274048,648945166,,0.0,0.0,0.0,0.0,0.0,3.552713678800501e-15
2025/04/10 10:34:08.750012990,1744274048,748545832,,0.0,8.881784197001252e-16,0.0,0.0,0.0,0.0
2025/04/10 10:34:08.850688944,1744274048,850453124,,0.0,0.0,0.0,0.0,0.0,3.552713678800501e-15
2025/04/10 10:34:08.949339080,1744274048,948604363,,0.0,-8.881784197001252e-16,0.0,0.0,0.0,0.0
2025/04/10 10:34:09.48565958,1744274049,48382243,,0.0,-8.881784197001252e-16,0.0,0.0,0.0,0.0
2025/04/10 10:34:09.149383507,1744274049,149122604,,0.0,-2.6645352591003757e-15,0.0,0.0,0.0,0.0
2025/04/10 10:34:09.248502299,1744274049,248286516,,0.0,-8.881784197001252e-16,0.0,0.0,0.0,-3.552713678800501e-15
2025/04/10 10:34:09.352810145,1744274049,352558846,,0.0,8.881784197001252e-16,0.0,0.0,0.0,-3.552713678800501e-15
2025/04/10 10:34:09.450080320,1744274049,449905471,,0.0,0.0,0.0,0.0,0.0,3.552713678800501e-15
2025/04/10 10:34:09.549168933,1744274049,549002523,,0.0,-1.7763568394002505e-15,0.0,0.0,0.0,0.0
2025/04/10 10:34:09.648964113,1744274049,648832411,,0.0,0.0,0.0,0.0,0.0,3.552713678800501e-15
2025/04/10 10:34:09.749474769,1744274049,749332210,,0.0,0.0,0.0,0.0,0.0,7.105427357601002e-15
2025/04/10 10:34:09.850159930,1744274049,850028374,,0.0,-8.881784197001252e-16,0.0,0.0,0.0,3.552713678800501e-15
2025/04/10 10:34:09.951727101,1744274049,948542740,,0.0,-8.881784197001252e-16,0.0,0.0,0.0,3.552713678800501e-15
2025/04/10 10:34:10.48943299,1744274050,48770818,,0.0,1.7763568394002505e-15,0.0,0.0,0.0,3.552713678800501e-15
2025/04/10 10:34:10.149201535,1744274050,149094288,,0.0,0.0,0.0,0.0,0.0,0.0
2025/04/10 10:34:10.249847040,1744274050,248753148,,-3.552713678800501e-15,0.0,0.0,0.0,0.0,7.105427357601002e-15
2025/04/10 10:34:10.348826373,1744274050,348715553,,0.0,-1.7763568394002505e-15,0.0,0.0,0.0,3.552713678800501e-15
2025/04/10 10:34:10.450433782,1744274050,450331951,,0.0,-1.7763568394002505e-15,0.0,0.0,0.0,0.0
2025/04/10 10:34:10.551508215,1744274050,549707482,,0.0,-1.7763568394002505e-15,0.0,0.0,0.0,1.4210854715202004e-14
2025/04/10 10:34:10.649281523,1744274050,649120930,,0.0,0.0,0.0,0.0,0.0,3.552713678800501e-15
2025/04/10 10:34:10.748897736,1744274050,748737150,,0.0,0.0,0.0,0.0,0.0,3.552713678800501e-15
2025/04/10 10:34:10.848702740,1744274050,848586486,,0.0,0.0,0.0,0.0,0.0,-7.105427357601002e-15
2025/04/10 10:34:10.951398278,1744274050,948981292,,0.0,-3.552713678800501e-15,0.0,0.0,0.0,0.0
2025/04/10 10:34:11.48798751,1744274051,48507299,,0.0,1.7763568394002505e-15,0.0,0.0,0.0,7.105427357601002e-15
2025/04/10 10:34:11.148874646,1744274051,148585076,,0.0,0.0,0.0,0.0,0.0,0.0
2025/04/10 10:34:11.248429193,1744274051,248217481,,0.0,3.552713678800501e-15,0.0,0.0,0.0,-7.105427357601002e-15
2025/04/10 10:34:11.349309936,1744274051,349022700,,0.0,0.0,0.0,0.0,0.0,0.0
2025/04/10 10:34:11.450254243,1744274051,448812756,,0.0,1.7763568394002505e-15,0.0,0.0,0.0,-7.105427357601002e-15
2025/04/10 10:34:11.549219022,1744274051,549002562,,0.0,-3.552713678800501e-15,0.0,0.0,0.0,0.0
2025/04/10 10:34:11.648548960,1744274051,648075436,,0.0,0.0,0.0,0.0,0.0,7.105427357601002e-15
2025/04/10 10:34:11.749723890,1744274051,748903092,,0.0,0.0,0.0,0.0,0.0,7.105427357601002e-15
2025/04/10 10:34:11.850179292,1744274051,848328240,,0.0,1.7763568394002505e-15,0.0,0.0,0.0,0.0
2025/04/10 10:34:11.951239158,1744274051,951060006,,0.0,-1.7763568394002505e-15,0.0,0.0,0.0,0.0
2025/04/10 10:34:12.50137998,1744274052,48828578,,0.0,1.7763568394002505e-15,0.0,0.0,0.0,-7.105427357601002e-15
2025/04/10 10:34:12.148860363,1744274052,148623600,,0.0,5.329070518200751e-15,0.0,0.0,0.0,0.0
2025/04/10 10:34:12.248843477,1744274052,248737200,,0.0,-3.552713678800501e-15,0.0,0.0,0.0,1.4210854715202004e-14
2025/04/10 10:34:12.353925061,1744274052,353470913,,-7.105427357601002e-15,-1.7763568394002505e-15,0.0,0.0,0.0,0.0
2025/04/10 10:34:12.448803810,1744274052,448619702,,0.0,3.552713678800501e-15,0.0,0.0,0.0,-7.105427357601002e-15
2025/04/10 10:34:12.549802381,1744274052,549614599,,0.0,1.7763568394002505e-15,0.0,0.0,0.0,0.0
2025/04/10 10:34:12.652169991,1744274052,651998369,,-7.105427357601002e-15,0.0,0.0,0.0,0.0,0.0
2025/04/10 10:34:12.750081100,1744274052,749908257,,-7.105427357601002e-15,-3.552713678800501e-15,0.0,0.0,0.0,7.105427357601002e-15
2025/04/10 10:34:12.848858167,1744274052,848661762,,0.0,0.0,0.0,0.0,0.0,-7.105427357601002e-15
2025/04/10 10:34:12.948400185,1744274052,948258371,,0.0,3.552713678800501e-15,0.0,0.0,0.0,0.0
2025/04/10 10:34:13.53314941,1744274053,53177770,,0.0,0.0,0.0,0.0,0.0,2.1316282072803006e-14
2025/04/10 10:34:13.149055141,1744274053,148507891,,-7.105427357601002e-15,-3.552713678800501e-15,0.0,0.0,0.0,0.0
2025/04/10 10:34:13.248291859,1744274053,248104701,,-7.105427357601002e-15,0.0,0.0,0.0,0.0,-7.105427357601002e-15
2025/04/10 10:34:13.348724828,1744274053,348468121,,0.0,-3.552713678800501e-15,0.0,0.0,0.0,0.0
2025/04/10 10:34:13.448674990,1744274053,448443893,,0.0,-3.552713678800501e-15,0.0,0.0,0.0,0.0
2025/04/10 10:34:13.550166594,1744274053,549935896,,-7.105427357601002e-15,-3.552713678800501e-15,0.0,0.0,0.0,1.4210854715202004e-14
2025/04/10 10:34:13.650411679,1744274053,650229192,,0.0,-3.552713678800501e-15,0.0,0.0,0.0,0.0
2025/04/10 10:34:13.749351964,1744274053,749254062,,0.0,7.105427357601002e-15,0.0,0.0,0.0,7.105427357601002e-15
2025/04/10 10:34:13.849441818,1744274053,848719480,,0.0,3.552713678800501e-15,0.0,0.0,0.0,-2.1316282072803006e-14
2025/04/10 10:34:13.948898561,1744274053,948701189,,7.105427357601002e-15,0.0,0.0,0.0,0.0,-7.105427357601002e-15
2025/04/10 10:34:14.49941760,1744274054,49789107,,0.0,-3.552713678800501e-15,0.0,0.0,0.0,-7.105427357601002e-15
2025/04/10 10:34:14.151226035,1744274054,151088687,,0.0,0.0,0.0,0.0,0.0,-7.105427357601002e-15
2025/04/10 10:34:14.249178810,1744274054,248550969,,0.0,-3.552713678800501e-15,0.0,0.0,0.0,-2.1316282072803006e-14
2025/04/10 10:34:14.349077498,1744274054,348804432,,0.0,0.0,0.0,0.0,0.0,0.0
2025/04/10 10:34:14.449778424,1744274054,448956468,,0.0,7.105427357601002e-15,0.0,0.0,0.0,-1.4210854715202004e-14
2025/04/10 10:34:14.548433307,1744274054,548202238,,0.0,-3.552713678800501e-15,0.0,0.0,0.0,0.0
2025/04/10 10:34:14.647971757,1744274054,647802299,,0.0,0.0,0.0,0.0,0.0,-7.105427357601002e-15
2025/04/10 10:34:14.748863065,1744274054,748655349,,0.0,0.0,0.0,0.0,0.0,0.0
2025/04/10 10:34:14.850589896,1744274054,850494822,,0.0,-3.552713678800501e-15,0.0,0.0,0.0,0.0
2025/04/10 10:34:14.950240411,1744274054,950121950,,0.0,0.0,0.0,0.0,0.0,-2.1316282072803006e-14
2025/04/10 10:34:15.49062740,1744274055,48834738,,0.0,0.0,0.0,0.0,0.0,-1.4210854715202004e-14
2025/04/10 10:34:15.149024165,1744274055,148669398,,0.0,3.552713678800501e-15,0.0,0.0,0.0,7.105427357601002e-15
2025/04/10 10:34:15.249957934,1744274055,248392460,,0.0,-7.105427357601002e-15,0.0,0.0,0.0,2.842170943040401e-14
2025/04/10 10:34:15.349120583,1744274055,348891895,,-1.4210854715202004e-14,0.0,0.0,0.0,0.0,1.4210854715202004e-14
2025/04/10 10:34:15.448396447,1744274055,448208143,,0.0,-7.105427357601002e-15,0.0,0.0,0.0,2.1316282072803006e-14
2025/04/10 10:34:15.548471367,1744274055,548331034,,0.0,0.0,0.0,0.0,0.0,-7.105427357601002e-15
2025/04/10 10:34:15.649401691,1744274055,648889490,,0.0,0.0,0.0,0.0,0.0,-7.105427357601002e-15
2025/04/10 10:34:15.749100779,1744274055,748996568,,0.0,3.552713678800501e-15,0.0,0.0,0.0,0.0
2025/04/10 10:34:15.848241154,1744274055,848137924,,0.0,3.552713678800501e-15,0.0,0.0,0.0,2.1316282072803006e-14
2025/04/10 10:34:15.949384222,1744274055,948277319,,0.0,-3.552713678800501e-15,0.0,0.0,0.0,-7.105427357601002e-15
2025/04/10 10:34:16.49516705,1744274056,49195508,,0.0,7.105427357601002e-15,0.0,0.0,0.0,-7.105427357601002e-15
2025/04/10 10:34:16.152243195,1744274056,148692335,,0.0,-3.552713678800501e-15,0.0,0.0,0.0,7.105427357601002e-15
2025/04/10 10:34:16.248269741,1744274056,248045621,,0.0,0.0,0.0,0.0,0.0,-7.105427357601002e-15
2025/04/10 10:34:16.348829075,1744274056,348648242,,0.0,3.552713678800501e-15,0.0,0.0,0.0,1.4210854715202004e-14
2025/04/10 10:34:16.448028794,1744274056,447859937,,0.0,0.0,0.0,0.0,0.0,-1.4210854715202004e-14
2025/04/10 10:34:16.548429637,1744274056,548201527,,0.0,3.552713678800501e-15,0.0,0.0,0.0,0.0
2025/04/10 10:34:16.651502010,1744274056,651269147,,-1.4210854715202004e-14,0.0,0.0,0.0,0.0,1.4210854715202004e-14
2025/04/10 10:34:16.750970705,1744274056,750846488,,0.0,3.552713678800501e-15,0.0,0.0,0.0,-1.4210854715202004e-14
2025/04/10 10:34:16.849074854,1744274056,848395307,,0.0,-3.552713678800501e-15,0.0,0.0,0.0,-1.4210854715202004e-14
2025/04/10 10:34:16.949459688,1744274056,949325614,,1.4210854715202004e-14,1.7763568394002505e-15,0.0,0.0,0.0,-1.4210854715202004e-14
2025/04/10 10:34:17.52045167,1744274057,48745335,,0.0,0.0,0.0,0.0,0.0,-1.4210854715202004e-14
2025/04/10 10:34:17.148595108,1744274057,148364390,,0.0,0.0,0.0,0.0,0.0,1.4210854715202004e-14
2025/04/10 10:34:17.248088102,1744274057,247907884,,0.0,-3.552713678800501e-15,0.0,0.0,0.0,1.4210854715202004e-14
2025/04/10 10:34:17.348672733,1744274057,348005678,,0.0,3.552713678800501e-15,0.0,0.0,0.0,-1.4210854715202004e-14
2025/04/10 10:34:17.454767542,1744274057,454551833,,-1.4210854715202004e-14,0.0,0.0,0.0,0.0,2.842170943040401e-14
2025/04/10 10:34:17.548795386,1744274057,548595887,,0.0,0.0,0.0,0.0,0.0,0.0
2025/04/10 10:34:17.650496976,1744274057,650324755,,0.0,0.0,0.0,0.0,0.0,-2.1316282072803006e-14
2025/04/10 10:34:17.750857333,1744274057,748100214,,0.0,0.0,0.0,0.0,0.0,0.0
2025/04/10 10:34:17.848315739,1744274057,848041068,,0.0,3.552713678800501e-15,0.0,0.0,0.0,0.0
2025/04/10 10:34:17.948820217,1744274057,948583976,,1.4210854715202004e-14,3.552713678800501e-15,0.0,0.0,0.0,-7.105427357601002e-15
2025/04/10 10:34:18.48524384,1744274058,48338926,,0.0,-3.552713678800501e-15,0.0,0.0,0.0,0.0
2025/04/10 10:34:18.149008836,1744274058,148014768,,0.0,3.552713678800501e-15,0.0,0.0,0.0,-1.4210854715202004e-14
2025/04/10 10:34:18.250676440,1744274058,249673580,,0.0,0.0,0.0,0.0,0.0,-1.4210854715202004e-14
2025/04/10 10:34:18.351732827,1744274058,349196649,,0.0,0.0,0.0,0.0,0.0,2.842170943040401e-14
2025/04/10 10:34:18.449458353,1744274058,448534348,,0.0,7.105427357601002e-15,0.0,0.0,0.0,-1.4210854715202004e-14
2025/04/10 10:34:18.549064410,1744274058,548544638,,0.0,-5.329070518200751e-15,0.0,0.0,0.0,-1.4210854715202004e-14
2025/04/10 10:34:18.649946057,1744274058,648855628,,0.0,0.0,0.0,0.0,0.0,-1.4210854715202004e-14
2025/04/10 10:34:18.749711024,1744274058,748726275,,0.0,-7.105427357601002e-15,0.0,0.0,0.0,7.105427357601002e-15
2025/04/10 10:34:18.850681449,1744274058,848160232,,1.4210854715202004e-14,0.0,0.0,0.0,0.0,0.0
2025/04/10 10:34:18.949062807,1744274058,948889231,,-1.4210854715202004e-14,0.0,0.0,0.0,0.0,-1.4210854715202004e-14
2025/04/10 10:34:19.49193058,1744274059,48649044,,0.0,-7.105427357601002e-15,0.0,0.0,0.0,0.0
2025/04/10 10:34:19.149209181,1744274059,149111381,,2.842170943040401e-14,0.0,0.0,0.0,0.0,2.842170943040401e-14
2025/04/10 10:34:19.249979398,1744274059,249063135,,0.0,-3.552713678800501e-15,0.0,0.0,0.0,0.0
2025/04/10 10:34:19.348367509,1744274059,348199066,,0.0,0.0,0.0,0.0,0.0,1.4210854715202004e-14
2025/04/10 10:34:19.449641293,1744274059,448697068,,0.0,-1.7763568394002505e-15,0.0,0.0,0.0,2.842170943040401e-14
2025/04/10 10:34:19.548529791,1744274059,548301084,,0.0,-1.7763568394002505e-15,0.0,0.0,0.0,1.4210854715202004e-14
2025/04/10 10:34:19.648294376,1744274059,648166144,,0.0,-3.552713678800501e-15,0.0,0.0,0.0,0.0
2025/04/10 10:34:19.748004634,1744274059,747880207,,1.4210854715202004e-14,-1.7763568394002505e-15,0.0,0.0,0.0,1.4210854715202004e-14
2025/04/10 10:34:19.848831935,1744274059,848721891,,0.0,0.0,0.0,0.0,0.0,-2.842170943040401e-14
2025/04/10 10:34:19.950675438,1744274059,950522654,,0.0,-3.552713678800501e-15,0.0,0.0,0.0,0.0
2025/04/10 10:34:20.48985231,1744274060,48837271,,0.0,3.552713678800501e-15,0.0,0.0,0.0,-7.105427357601002e-15
2025/04/10 10:34:20.150748566,1744274060,150572876,,-1.4210854715202004e-14,-7.105427357601002e-15,0.0,0.0,0.0,0.0
2025/04/10 10:34:20.249803250,1744274060,248960720,,0.0,3.552713678800501e-15,0.0,0.0,0.0,7.105427357601002e-15
2025/04/10 10:34:20.349027127,1744274060,348715503,,0.0,1.7763568394002505e-15,0.0,0.0,0.0,-1.4210854715202004e-14
2025/04/10 10:34:20.448309535,1744274060,448015423,,0.0,-1.7763568394002505e-15,0.0,0.0,0.0,0.0
2025/04/10 10:34:20.548250608,1744274060,548069286,,0.0,0.0,0.0,0.0,0.0,0.0
2025/04/10 10:34:20.649201745,1744274060,648972160,,0.0,-7.105427357601002e-15,0.0,0.0,0.0,2.842170943040401e-14
2025/04/10 10:34:20.749531639,1744274060,748382221,,0.0,-3.552713678800501e-15,0.0,0.0,0.0,-2.842170943040401e-14
2025/04/10 10:34:20.848453752,1744274060,848278032,,0.0,0.0,0.0,0.0,0.0,0.0
2025/04/10 10:34:20.948884270,1744274060,948527080,,0.0,0.0,0.0,0.0,0.0,1.4210854715202004e-14
2025/04/10 10:34:21.49401959,1744274061,48970543,,0.0,-1.7763568394002505e-15,0.0,0.0,0.0,7.105427357601002e-15
2025/04/10 10:34:21.151651648,1744274061,151471717,,0.0,1.7763568394002505e-15,0.0,0.0,0.0,0.0
2025/04/10 10:34:21.250902528,1744274061,250717558,,0.0,-1.7763568394002505e-15,0.0,0.0,0.0,0.0
2025/04/10 10:34:21.347967272,1744274061,347801487,,1.4210854715202004e-14,0.0,0.0,0.0,0.0,-7.105427357601002e-15
2025/04/10 10:34:21.448177737,1744274061,448074197,,0.0,3.552713678800501e-15,0.0,0.0,0.0,0.0
2025/04/10 10:34:21.549548219,1744274061,548474956,,0.0,1.7763568394002505e-15,0.0,0.0,0.0,7.105427357601002e-15
2025/04/10 10:34:21.649745674,1744274061,649023656,,0.0,-3.552713678800501e-15,0.0,0.0,0.0,-1.4210854715202004e-14
2025/04/10 10:34:21.749353346,1744274061,748151164,,0.0,1.7763568394002505e-15,0.0,0.0,0.0,1.4210854715202004e-14
2025/04/10 10:34:21.848802802,1744274061,848648246,,0.0,0.0,0.0,0.0,0.0,-7.105427357601002e-15
2025/04/10 10:34:21.949102353,1744274061,948845576,,0.0,5.329070518200751e-15,0.0,0.0,0.0,-7.105427357601002e-15
2025/04/10 10:34:22.51655862,1744274062,50693450,,0.0,7.105427357601002e-15,0.0,0.0,0.0,-1.4210854715202004e-14
2025/04/10 10:34:22.149202168,1744274062,149103220,,0.0,1.7763568394002505e-15,0.0,0.0,0.0,1.4210854715202004e-14
2025/04/10 10:34:22.248620364,1744274062,248290622,,1.4210854715202004e-14,0.0,0.0,0.0,0.0,-2.842170943040401e-14
2025/04/10 10:34:22.349001195,1744274062,348015509,,-1.4210854715202004e-14,-1.7763568394002505e-15,0.0,0.0,0.0,7.105427357601002e-15
2025/04/10 10:34:22.449704627,1744274062,449059800,,0.0,1.7763568394002505e-15,0.0,0.0,0.0,0.0
2025/04/10 10:34:22.550163709,1744274062,549990970,,0.0,-3.552713678800501e-15,0.0,0.0,0.0,-7.105427357601002e-15
2025/04/10 10:34:22.649203552,1744274062,649033321,,1.4210854715202004e-14,0.0,0.0,0.0,0.0,-7.105427357601002e-15
2025/04/10 10:34:22.748577985,1744274062,748419615,,0.0,0.0,0.0,0.0,0.0,1.4210854715202004e-14
2025/04/10 10:34:22.851552421,1744274062,850187279,,0.0,1.7763568394002505e-15,0.0,0.0,0.0,-7.105427357601002e-15
2025/04/10 10:34:22.950583009,1744274062,948575074,,0.0,5.329070518200751e-15,0.0,0.0,0.0,-1.4210854715202004e-14
2025/04/10 10:34:23.48240898,1744274063,48144730,,-1.4210854715202004e-14,1.7763568394002505e-15,0.0,0.0,0.0,0.0
2025/04/10 10:34:23.148612428,1744274063,148344577,,0.0,3.552713678800501e-15,0.0,0.0,0.0,0.0
2025/04/10 10:34:23.253158451,1744274063,251568343,,0.0,3.552713678800501e-15,0.0,0.0,0.0,-7.105427357601002e-15
2025/04/10 10:34:23.350498604,1744274063,349551793,,0.0,-3.552713678800501e-15,0.0,0.0,0.0,1.4210854715202004e-14
2025/04/10 10:34:23.448745819,1744274063,448489669,,0.0,3.552713678800501e-15,0.0,0.0,0.0,-2.1316282072803006e-14
2025/04/10 10:34:23.550757416,1744274063,550493534,,0.0,1.7763568394002505e-15,0.0,0.0,0.0,1.4210854715202004e-14
2025/04/10 10:34:23.651122858,1744274063,650192218,,0.0,0.0,0.0,0.0,0.0,7.105427357601002e-15
2025/04/10 10:34:23.749405920,1744274063,748367769,,0.0,-3.552713678800501e-15,0.0,0.0,0.0,0.0
2025/04/10 10:34:23.850062016,1744274063,848894552,,0.0,-1.7763568394002505e-15,0.0,0.0,0.0,1.4210854715202004e-14
2025/04/10 10:34:23.948212513,1744274063,948005965,,0.0,0.0,0.0,0.0,0.0,-1.4210854715202004e-14
2025/04/10 10:34:24.48245276,1744274064,48088770,,1.4210854715202004e-14,-3.552713678800501e-15,0.0,0.0,0.0,0.0
2025/04/10 10:34:24.149705930,1744274064,147911362,,0.0,0.0,0.0,0.0,0.0,-1.4210854715202004e-14
2025/04/10 10:34:24.248315887,1744274064,248037522,,0.0,1.7763568394002505e-15,0.0,0.0,0.0,1.4210854715202004e-14
2025/04/10 10:34:24.349537491,1744274064,349417691,,0.0,0.0,0.0,0.0,0.0,0.0
2025/04/10 10:34:24.453154251,1744274064,452096394,,0.0,1.7763568394002505e-15,0.0,0.0,0.0,1.4210854715202004e-14
2025/04/10 10:34:24.552339544,1744274064,550587908,,0.0,0.0,0.0,0.0,0.0,0.0
2025/04/10 10:34:24.650853231,1744274064,649771769,,0.0,0.0,0.0,0.0,0.0,7.105427357601002e-15
2025/04/10 10:34:24.749347598,1744274064,748621671,,-1.4210854715202004e-14,-1.7763568394002505e-15,0.0,0.0,0.0,7.105427357601002e-15
2025/04/10 10:34:24.849584449,1744274064,849291015,,1.4210854715202004e-14,3.552713678800501e-15,0.0,0.0,0.0,-1.4210854715202004e-14
2025/04/10 10:34:24.948887693,1744274064,948373752,,0.0,0.0,0.0,0.0,0.0,0.0
2025/04/10 10:34:25.48830179,1744274065,48582341,,0.0,-3.552713678800501e-15,0.0,0.0,0.0,-7.105427357601002e-15
2025/04/10 10:34:25.149310825,1744274065,148663606,,0.0,0.0,0.0,0.0,0.0,7.105427357601002e-15
2025/04/10 10:34:25.250944278,1744274065,248684786,,0.0,-7.105427357601002e-15,0.0,0.0,0.0,7.105427357601002e-15
2025/04/10 10:34:25.348826776,1744274065,348271238,,0.0,1.7763568394002505e-15,0.0,0.0,0.0,2.1316282072803006e-14
2025/04/10 10:34:25.449550575,1744274065,449374943,,0.0,-1.7763568394002505e-15,0.0,0.0,0.0,7.105427357601002e-15
2025/04/10 10:34:25.549787799,1744274065,548801357,,0.0,0.0,0.0,0.0,0.0,2.1316282072803006e-14
2025/04/10 10:34:25.656834139,1744274065,656259494,,0.0,3.552713678800501e-15,0.0,0.0,0.0,-1.4210854715202004e-14
2025/04/10 10:34:25.749135687,1744274065,748962755,,0.0,0.0,0.0,0.0,0.0,7.105427357601002e-15
2025/04/10 10:34:25.849241218,1744274065,848237534,,1.4210854715202004e-14,-5.329070518200751e-15,0.0,0.0,0.0,7.105427357601002e-15
2025/04/10 10:34:25.948879431,1744274065,948699179,,0.0,0.0,0.0,0.0,0.0,1.4210854715202004e-14
2025/04/10 10:34:26.50867077,1744274066,49507981,,0.0,-1.7763568394002505e-15,0.0,0.0,0.0,-2.1316282072803006e-14
2025/04/10 10:34:26.149300859,1744274066,149087924,,0.0,0.0,0.0,0.0,0.0,-7.105427357601002e-15
2025/04/10 10:34:26.248698019,1744274066,248581865,,0.0,1.7763568394002505e-15,0.0,0.0,0.0,-1.4210854715202004e-14
2025/04/10 10:34:26.350476167,1744274066,350217165,,0.0,-1.7763568394002505e-15,0.0,0.0,0.0,0.0
2025/04/10 10:34:26.449581677,1744274066,448534904,,0.0,0.0,0.0,0.0,0.0,0.0
2025/04/10 10:34:26.549530503,1744274066,549243290,,0.0,0.0,0.0,0.0,0.0,0.0
2025/04/10 10:34:26.650007666,1744274066,649754960,,0.0,0.0,0.0,0.0,0.0,1.4210854715202004e-14
2025/04/10 10:34:26.748341998,1744274066,748170866,,0.0,0.0,0.0,0.0,0.0,-7.105427357601002e-15
2025/04/10 10:34:26.849835917,1744274066,848839635,,0.0,-3.552713678800501e-15,0.0,0.0,0.0,7.105427357601002e-15
2025/04/10 10:34:26.950709468,1744274066,949507651,,0.0,1.7763568394002505e-15,0.0,0.0,0.0,0.0
2025/04/10 10:34:27.50745026,1744274067,49937715,,0.0,3.552713678800501e-15,0.0,0.0,0.0,-2.1316282072803006e-14
2025/04/10 10:34:27.149903457,1744274067,149796542,,1.4210854715202004e-14,-1.7763568394002505e-15,0.0,0.0,0.0,7.105427357601002e-15
2025/04/10 10:34:27.249518340,1744274067,249250681,,0.0,-1.7763568394002505e-15,0.0,0.0,0.0,1.4210854715202004e-14
2025/04/10 10:34:27.351062444,1744274067,350867132,,1.4210854715202004e-14,1.7763568394002505e-15,0.0,0.0,0.0,-1.4210854715202004e-14
2025/04/10 10:34:27.452778129,1744274067,452187154,,0.0,0.0,0.0,0.0,0.0,0.0
2025/04/10 10:34:27.549343276,1744274067,549192082,,0.0,1.7763568394002505e-15,0.0,0.0,0.0,-7.105427357601002e-15
2025/04/10 10:34:27.654567063,1744274067,653883997,,0.0,-7.105427357601002e-15,0.0,0.0,0.0,2.842170943040401e-14
2025/04/10 10:34:27.750978404,1744274067,750748650,,0.0,-1.7763568394002505e-15,0.0,0.0,0.0,-7.105427357601002e-15
2025/04/10 10:34:27.848035527,1744274067,847925766,,0.0,3.552713678800501e-15,0.0,0.0,0.0,0.0
2025/04/10 10:34:27.948544814,1744274067,948435300,,-1.4210854715202004e-14,-3.552713678800501e-15,0.0,0.0,0.0,-1.4210854715202004e-14
2025/04/10 10:34:28.49574269,1744274068,49030038,,0.0,3.552713678800501e-15,0.0,0.0,0.0,7.105427357601002e-15
2025/04/10 10:34:28.149066095,1744274068,148306268,,0.0,0.0,0.0,0.0,0.0,-7.105427357601002e-15
2025/04/10 10:34:28.248236822,1744274068,248061283,,0.0,-7.105427357601002e-15,0.0,0.0,0.0,2.1316282072803006e-14
2025/04/10 10:34:28.348691260,1744274068,348488186,,0.0,3.552713678800501e-15,0.0,0.0,0.0,-1.4210854715202004e-14
2025/04/10 10:34:28.450167384,1744274068,449167016,,0.0,0.0,0.0,0.0,0.0,7.105427357601002e-15
2025/04/10 10:34:28.549116641,1744274068,548907805,,0.0,-3.552713678800501e-15,0.0,0.0,0.0,-1.4210854715202004e-14
2025/04/10 10:34:28.648823888,1744274068,648725524,,0.0,-1.7763568394002505e-15,0.0,0.0,0.0,-1.4210854715202004e-14
2025/04/10 10:34:28.750612113,1744274068,750467804,,-1.4210854715202004e-14,0.0,0.0,0.0,0.0,7.105427357601002e-15
2025/04/10 10:34:28.848247147,1744274068,848104143,,0.0,-5.329070518200751e-15,0.0,0.0,0.0,2.842170943040401e-14
2025/04/10 10:34:28.956800039,1744274068,956493515,,0.0,-3.552713678800501e-15,0.0,0.0,0.0,0.0
2025/04/10 10:34:29.51312850,1744274069,51198687,,0.0,0.0,0.0,0.0,0.0,7.105427357601002e-15
2025/04/10 10:34:29.150965910,1744274069,149764003,,0.0,0.0,0.0,0.0,0.0,-1.4210854715202004e-14
2025/04/10 10:34:29.249270030,1744274069,248993069,,0.0,-3.552713678800501e-15,0.0,0.0,0.0,1.4210854715202004e-14
2025/04/10 10:34:29.350298246,1744274069,350197072,,-1.4210854715202004e-14,0.0,0.0,0.0,0.0,-1.4210854715202004e-14
2025/04/10 10:34:29.448899112,1744274069,448744169,,0.0,1.7763568394002505e-15,0.0,0.0,0.0,-7.105427357601002e-15
2025/04/10 10:34:29.550267317,1744274069,550123706,,0.0,-3.552713678800501e-15,0.0,0.0,0.0,1.4210854715202004e-14
2025/04/10 10:34:29.651033475,1744274069,650835703,,0.0,3.552713678800501e-15,0.0,0.0,0.0,-7.105427357601002e-15
2025/04/10 10:34:29.754725993,1744274069,752582368,,0.0,3.552713678800501e-15,0.0,0.0,0.0,0.0
2025/04/10 10:34:29.849945171,1744274069,848527714,,0.0,0.0,0.0,0.0,0.0,-7.105427357601002e-15
2025/04/10 10:34:29.948728286,1744274069,948483678,,0.0,-1.7763568394002505e-15,0.0,0.0,0.0,-7.105427357601002e-15
2025/04/10 10:34:30.47991092,1744274070,47805608,,0.0,-7.105427357601002e-15,0.0,0.0,0.0,7.105427357601002e-15
2025/04/10 10:34:30.156266944,1744274070,155577450,,0.0,0.0,0.0,0.0,0.0,7.105427357601002e-15
2025/04/10 10:34:30.251539610,1744274070,250417725,,0.0,0.0,0.0,0.0,0.0,-2.1316282072803006e-14
2025/04/10 10:34:30.349546302,1744274070,348857333,,0.0,3.552713678800501e-15,0.0,0.0,0.0,0.0
2025/04/10 10:34:30.450278043,1744274070,449384496,,-1.4210854715202004e-14,-1.7763568394002505e-15,0.0,0.0,0.0,-1.4210854715202004e-14
2025/04/10 10:34:30.550715980,1744274070,548310754,,0.0,0.0,0.0,0.0,0.0,-1.4210854715202004e-14
2025/04/10 10:34:30.648622868,1744274070,648026109,,0.0,-1.7763568394002505e-15,0.0,0.0,0.0,1.4210854715202004e-14
2025/04/10 10:34:30.748494600,1744274070,748333855,,-1.4210854715202004e-14,-1.7763568394002505e-15,0.0,0.0,0.0,7.105427357601002e-15
2025/04/10 10:34:30.849473821,1744274070,848934819,,0.0,-3.552713678800501e-15,0.0,0.0,0.0,7.105427357601002e-15
2025/04/10 10:34:30.949268844,1744274070,949024383,,0.0,8.881784197001252e-16,0.0,0.0,0.0,-7.105427357601002e-15
2025/04/10 10:34:31.49064367,1744274071,48818687,,0.0,3.552713678800501e-15,0.0,0.0,0.0,-1.4210854715202004e-14
2025/04/10 10:34:31.148898481,1744274071,148739743,,0.0,0.0,0.0,0.0,0.0,0.0
2025/04/10 10:34:31.252911753,1744274071,251683292,,0.0,-1.7763568394002505e-15,0.0,0.0,0.0,0.0
2025/04/10 10:34:31.349150585,1744274071,348977062,,1.4210854715202004e-14,1.7763568394002505e-15,0.0,0.0,0.0,-2.1316282072803006e-14
2025/04/10 10:34:31.448049430,1744274071,447810828,,0.0,-1.7763568394002505e-15,0.0,0.0,0.0,2.1316282072803006e-14
2025/04/10 10:34:31.549397492,1744274071,548497826,,0.0,0.0,0.0,0.0,0.0,0.0
2025/04/10 10:34:31.650104472,1744274071,649000870,,0.0,0.0,0.0,0.0,0.0,7.105427357601002e-15
2025/04/10 10:34:31.748126993,1744274071,747967745,,1.4210854715202004e-14,3.552713678800501e-15,0.0,0.0,0.0,-1.4210854715202004e-14
2025/04/10 10:34:31.848748702,1744274071,848489720,,0.0,0.0,0.0,0.0,0.0,7.105427357601002e-15
2025/04/10 10:34:31.949431808,1744274071,949133186,,0.0,0.0,0.0,0.0,0.0,0.0
2025/04/10 10:34:32.49819309,1744274072,49533999,,1.4210854715202004e-14,-2.6645352591003757e-15,0.0,0.0,0.0,1.4210854715202004e-14
2025/04/10 10:34:32.150012948,1744274072,149828583,,0.0,3.552713678800501e-15,0.0,0.0,0.0,-1.4210854715202004e-14
2025/04/10 10:34:32.248070760,1744274072,247854228,,0.0,1.7763568394002505e-15,0.0,0.0,0.0,7.105427357601002e-15
2025/04/10 10:34:32.348187586,1744274072,348058894,,0.0,-3.552713678800501e-15,0.0,0.0,0.0,7.105427357601002e-15
2025/04/10 10:34:32.450512788,1744274072,449338636,,0.0,0.0,0.0,0.0,0.0,7.105427357601002e-15
2025/04/10 10:34:32.549278007,1744274072,549053243,,1.4210854715202004e-14,-1.7763568394002505e-15,0.0,0.0,0.0,1.4210854715202004e-14
2025/04/10 10:34:32.648313936,1744274072,648123621,,0.0,-3.552713678800501e-15,0.0,0.0,0.0,0.0
2025/04/10 10:34:32.748658356,1744274072,748439519,,0.0,1.7763568394002505e-15,0.0,0.0,0.0,-1.4210854715202004e-14
2025/04/10 10:34:32.849644465,1744274072,849452943,,-1.4210854715202004e-14,0.0,0.0,0.0,0.0,1.4210854715202004e-14
2025/04/10 10:34:32.953624837,1744274072,953418486,,1.4210854715202004e-14,0.0,0.0,0.0,0.0,-7.105427357601002e-15
2025/04/10 10:34:33.48282450,1744274073,47913190,,0.0,8.881784197001252e-16,0.0,0.0,0.0,-7.105427357601002e-15
2025/04/10 10:34:33.151052536,1744274073,148656247,,0.0,0.0,0.0,0.0,0.0,0.0
2025/04/10 10:34:33.255198849,1744274073,255054323,,1.4210854715202004e-14,3.552713678800501e-15,0.0,0.0,0.0,0.0
2025/04/10 10:34:33.348282120,1744274073,348095287,,0.0,3.552713678800501e-15,0.0,0.0,0.0,7.105427357601002e-15
2025/04/10 10:34:33.448593976,1744274073,448378269,,0.0,0.0,0.0,0.0,0.0,-7.105427357601002e-15
2025/04/10 10:34:33.548332931,1744274073,548175367,,0.0,-1.7763568394002505e-15,0.0,0.0,0.0,7.105427357601002e-15
2025/04/10 10:34:33.650626493,1744274073,650388105,,0.0,-1.7763568394002505e-15,0.0,0.0,0.0,2.1316282072803006e-14
2025/04/10 10:34:33.750610601,1744274073,750357572,,7.105427357601002e-15,-1.7763568394002505e-15,0.0,0.0,0.0,0.0
2025/04/10 10:34:33.848335344,1744274073,848166347,,0.0,0.0,0.0,0.0,0.0,7.105427357601002e-15
2025/04/10 10:34:33.950035883,1744274073,948869332,,-7.105427357601002e-15,0.0,0.0,0.0,0.0,-7.105427357601002e-15
2025/04/10 10:34:34.54850306,1744274074,52692103,,0.0,0.0,0.0,0.0,0.0,-1.4210854715202004e-14
2025/04/10 10:34:34.150681356,1744274074,149263918,,1.4210854715202004e-14,0.0,0.0,0.0,0.0,-7.105427357601002e-15
2025/04/10 10:34:34.249124193,1744274074,248424307,,0.0,3.552713678800501e-15,0.0,0.0,0.0,7.105427357601002e-15
2025/04/10 10:34:34.349047215,1744274074,348829800,,1.4210854715202004e-14,-2.6645352591003757e-15,0.0,0.0,0.0,1.4210854715202004e-14
2025/04/10 10:34:34.452543315,1744274074,452277765,,0.0,-1.7763568394002505e-15,0.0,0.0,0.0,2.1316282072803006e-14
2025/04/10 10:34:34.549898362,1744274074,549723522,,0.0,0.0,0.0,0.0,0.0,-7.105427357601002e-15
2025/04/10 10:34:34.648927941,1744274074,648696923,,1.4210854715202004e-14,-1.7763568394002505e-15,0.0,0.0,0.0,1.4210854715202004e-14
2025/04/10 10:34:34.750012229,1744274074,749903157,,0.0,8.881784197001252e-16,0.0,0.0,0.0,7.105427357601002e-15
2025/04/10 10:34:34.848971936,1744274074,848821633,,-1.4210854715202004e-14,2.6645352591003757e-15,0.0,0.0,0.0,1.4210854715202004e-14
2025/04/10 10:34:34.949073734,1744274074,948070064,,0.0,2.6645352591003757e-15,0.0,0.0,0.0,-2.1316282072803006e-14
2025/04/10 10:34:35.48883488,1744274075,48785185,,0.0,8.881784197001252e-16,0.0,0.0,0.0,0.0
2025/04/10 10:34:35.149901133,1744274075,148742795,,0.0,0.0,0.0,0.0,0.0,1.4210854715202004e-14
2025/04/10 10:34:35.248623613,1744274075,248462207,,0.0,-5.329070518200751e-15,0.0,0.0,0.0,1.4210854715202004e-14
2025/04/10 10:34:35.349352661,1744274075,348345026,,-1.4210854715202004e-14,-2.6645352591003757e-15,0.0,0.0,0.0,1.4210854715202004e-14
2025/04/10 10:34:35.450003692,1744274075,449889644,,0.0,-5.329070518200751e-15,0.0,0.0,0.0,0.0
2025/04/10 10:34:35.550669969,1744274075,549803711,,0.0,-3.552713678800501e-15,0.0,0.0,0.0,-7.105427357601002e-15
2025/04/10 10:34:35.655471671,1744274075,654042626,,0.0,-1.7763568394002505e-15,0.0,0.0,0.0,0.0
2025/04/10 10:34:35.748575672,1744274075,748412747,,0.0,0.0,0.0,0.0,0.0,7.105427357601002e-15
2025/04/10 10:34:35.848742351,1744274075,848483238,,0.0,1.7763568394002505e-15,0.0,0.0,0.0,-7.105427357601002e-15
2025/04/10 10:34:35.948533963,1744274075,948362036,,7.105427357601002e-15,0.0,0.0,0.0,0.0,-7.105427357601002e-15
2025/04/10 10:34:36.50895023,1744274076,49435871,,7.105427357601002e-15,0.0,0.0,0.0,0.0,-1.4210854715202004e-14
2025/04/10 10:34:36.148057243,1744274076,147878080,,0.0,-3.552713678800501e-15,0.0,0.0,0.0,7.105427357601002e-15
2025/04/10 10:34:36.249722380,1744274076,249506740,,0.0,3.552713678800501e-15,0.0,0.0,0.0,-7.105427357601002e-15
2025/04/10 10:34:36.348933893,1744274076,348627694,,-1.4210854715202004e-14,-3.552713678800501e-15,0.0,0.0,0.0,-7.105427357601002e-15
2025/04/10 10:34:36.448703741,1744274076,448482233,,0.0,0.0,0.0,0.0,0.0,1.4210854715202004e-14
2025/04/10 10:34:36.548419020,1744274076,548232372,,7.105427357601002e-15,3.552713678800501e-15,0.0,0.0,0.0,0.0
2025/04/10 10:34:36.648904968,1744274076,648654977,,0.0,0.0,0.0,0.0,0.0,1.4210854715202004e-14
2025/04/10 10:34:36.751812145,1744274076,749852894,,0.0,0.0,0.0,0.0,0.0,1.4210854715202004e-14
2025/04/10 10:34:36.849458048,1744274076,848245622,,0.0,-1.7763568394002505e-15,0.0,0.0,0.0,-1.4210854715202004e-14
2025/04/10 10:34:36.951156214,1744274076,950543188,,-7.105427357601002e-15,-8.881784197001252e-16,0.0,0.0,0.0,-7.105427357601002e-15
2025/04/10 10:34:37.51503117,1744274077,50302893,,7.105427357601002e-15,4.440892098500626e-15,0.0,0.0,0.0,-7.105427357601002e-15
2025/04/10 10:34:37.149980961,1744274077,149828038,,7.105427357601002e-15,-1.7763568394002505e-15,0.0,0.0,0.0,0.0
2025/04/10 10:34:37.251154297,1744274077,248690719,,0.0,7.105427357601002e-15,0.0,0.0,0.0,-7.105427357601002e-15
2025/04/10 10:34:37.349710045,1744274077,348939772,,0.0,5.329070518200751e-15,0.0,0.0,0.0,7.105427357601002e-15
2025/04/10 10:34:37.451770360,1744274077,450728623,,0.0,1.7763568394002505e-15,0.0,0.0,0.0,1.4210854715202004e-14
2025/04/10 10:34:37.549859721,1744274077,548874863,,-1.4210854715202004e-14,0.0,0.0,0.0,0.0,-1.4210854715202004e-14
2025/04/10 10:34:37.648320437,1744274077,648064965,,0.0,4.440892098500626e-15,0.0,0.0,0.0,7.105427357601002e-15
2025/04/10 10:34:37.749858017,1744274077,749716074,,0.0,1.7763568394002505e-15,0.0,0.0,0.0,-7.105427357601002e-15
2025/04/10 10:34:37.851918232,1744274077,851378882,,7.105427357601002e-15,3.552713678800501e-15,0.0,0.0,0.0,-7.105427357601002e-15
2025/04/10 10:34:37.948293243,1744274077,948122652,,0.0,1.7763568394002505e-15,0.0,0.0,0.0,-7.105427357601002e-15
2025/04/10 10:34:38.48414193,1744274078,48013078,,-7.105427357601002e-15,1.7763568394002505e-15,0.0,0.0,0.0,7.105427357601002e-15
2025/04/10 10:34:38.148153027,1744274078,148059584,,0.0,0.0,0.0,0.0,0.0,0.0
2025/04/10 10:34:38.248243944,1744274078,248008248,,0.0,0.0,0.0,0.0,0.0,7.105427357601002e-15
2025/04/10 10:34:38.348148574,1744274078,347921891,,0.0,-1.7763568394002505e-15,0.0,0.0,0.0,2.842170943040401e-14
2025/04/10 10:34:38.448743450,1744274078,448045346,,-7.105427357601002e-15,-1.7763568394002505e-15,0.0,0.0,0.0,2.842170943040401e-14
2025/04/10 10:34:38.548366519,1744274078,548188765,,0.0,-1.7763568394002505e-15,0.0,0.0,0.0,-7.105427357601002e-15
2025/04/10 10:34:38.649302412,1744274078,649086447,,0.0,0.0,0.0,0.0,0.0,7.105427357601002e-15
2025/04/10 10:34:38.750200109,1744274078,749873171,,-7.105427357601002e-15,1.7763568394002505e-15,0.0,0.0,0.0,-7.105427357601002e-15
2025/04/10 10:34:38.850177796,1744274078,849937676,,-7.105427357601002e-15,0.0,0.0,0.0,0.0,-7.105427357601002e-15
2025/04/10 10:34:38.952884205,1744274078,950227130,,0.0,1.7763568394002505e-15,0.0,0.0,0.0,-7.105427357601002e-15
2025/04/10 10:34:39.51371825,1744274079,51059401,,7.105427357601002e-15,0.0,0.0,0.0,0.0,0.0
2025/04/10 10:34:39.148083347,1744274079,147912784,,-7.105427357601002e-15,5.329070518200751e-15,0.0,0.0,0.0,0.0
2025/04/10 10:34:39.248076370,1744274079,247914273,,0.0,-1.7763568394002505e-15,0.0,0.0,0.0,-7.105427357601002e-15
2025/04/10 10:34:39.348195463,1744274079,347967281,,0.0,1.7763568394002505e-15,0.0,0.0,0.0,7.105427357601002e-15
2025/04/10 10:34:39.448470619,1744274079,448272936,,-7.105427357601002e-15,1.7763568394002505e-15,0.0,0.0,0.0,0.0
2025/04/10 10:34:39.547882361,1744274079,547775733,,7.105427357601002e-15,1.7763568394002505e-15,0.0,0.0,0.0,0.0
2025/04/10 10:34:39.649905146,1744274079,649652513,,7.105427357601002e-15,1.7763568394002505e-15,0.0,0.0,0.0,0.0
2025/04/10 10:34:39.748082482,1744274079,747875450,,0.0,1.7763568394002505e-15,0.0,0.0,0.0,-7.105427357601002e-15
2025/04/10 10:34:39.849874062,1744274079,849670213,,0.0,-5.329070518200751e-15,0.0,0.0,0.0,0.0
2025/04/10 10:34:39.949917468,1744274079,948810236,,0.0,3.552713678800501e-15,0.0,0.0,0.0,-7.105427357601002e-15
2025/04/10 10:34:40.50475413,1744274080,49523107,,0.0,-1.7763568394002505e-15,0.0,0.0,0.0,0.0
2025/04/10 10:34:40.150396152,1744274080,148324020,,0.0,5.329070518200751e-15,0.0,0.0,0.0,0.0
2025/04/10 10:34:40.253277619,1744274080,253135926,,-1.4210854715202004e-14,0.0,0.0,0.0,0.0,2.1316282072803006e-14
2025/04/10 10:34:40.348615282,1744274080,348510148,,0.0,-3.552713678800501e-15,0.0,0.0,0.0,1.4210854715202004e-14
2025/04/10 10:34:40.447918328,1744274080,447730468,,0.0,3.552713678800501e-15,0.0,0.0,0.0,7.105427357601002e-15
2025/04/10 10:34:40.548305717,1744274080,548151374,,0.0,3.552713678800501e-15,0.0,0.0,0.0,-7.105427357601002e-15
2025/04/10 10:34:40.648454837,1744274080,648113372,,0.0,1.7763568394002505e-15,0.0,0.0,0.0,-7.105427357601002e-15
2025/04/10 10:34:40.748143151,1744274080,748011929,,7.105427357601002e-15,0.0,0.0,0.0,0.0,0.0
2025/04/10 10:34:40.848811073,1744274080,848203451,,0.0,0.0,0.0,0.0,0.0,0.0
2025/04/10 10:34:40.950068757,1744274080,949712022,,0.0,1.7763568394002505e-15,0.0,0.0,0.0,7.105427357601002e-15
2025/04/10 10:34:41.49162633,1744274081,49054242,,0.0,1.7763568394002505e-15,0.0,0.0,0.0,-1.4210854715202004e-14
2025/04/10 10:34:41.148469789,1744274081,148275450,,7.105427357601002e-15,0.0,0.0,0.0,0.0,-2.1316282072803006e-14
2025/04/10 10:34:41.250622586,1744274081,249059791,,0.0,0.0,0.0,0.0,0.0,-7.105427357601002e-15
2025/04/10 10:34:41.349726956,1744274081,349555861,,0.0,0.0,0.0,0.0,0.0,-1.4210854715202004e-14
2025/04/10 10:34:41.451256392,1744274081,449414565,,0.0,-1.7763568394002505e-15,0.0,0.0,0.0,0.0
2025/04/10 10:34:41.550300589,1744274081,548196394,,7.105427357601002e-15,0.0,0.0,0.0,0.0,-7.105427357601002e-15
2025/04/10 10:34:41.648054763,1744274081,647885361,,0.0,-1.7763568394002505e-15,0.0,0.0,0.0,7.105427357601002e-15
2025/04/10 10:34:41.751126625,1744274081,748824226,,0.0,1.7763568394002505e-15,0.0,0.0,0.0,1.4210854715202004e-14
2025/04/10 10:34:41.849000428,1744274081,848099858,,0.0,0.0,0.0,0.0,0.0,7.105427357601002e-15
2025/04/10 10:34:41.947876688,1744274081,947768482,,0.0,0.0,0.0,0.0,0.0,0.0
2025/04/10 10:34:42.48508921,1744274082,48357621,,1.4210854715202004e-14,-1.7763568394002505e-15,0.0,0.0,0.0,7.105427357601002e-15
2025/04/10 10:34:42.150666954,1744274082,150541356,,7.105427357601002e-15,-1.7763568394002505e-15,0.0,0.0,0.0,-7.105427357601002e-15
2025/04/10 10:34:42.250075987,1744274082,249027816,,0.0,1.7763568394002505e-15,0.0,0.0,0.0,0.0
2025/04/10 10:34:42.349510667,1744274082,348943601,,0.0,-1.7763568394002505e-15,0.0,0.0,0.0,2.1316282072803006e-14
2025/04/10 10:34:42.449500369,1744274082,448420092,,-7.105427357601002e-15,0.0,0.0,0.0,0.0,-7.105427357601002e-15
2025/04/10 10:34:42.551494641,1744274082,550461373,,0.0,0.0,0.0,0.0,0.0,7.105427357601002e-15
2025/04/10 10:34:42.648726834,1744274082,648609864,,0.0,-1.7763568394002505e-15,0.0,0.0,0.0,-1.4210854715202004e-14
2025/04/10 10:34:42.748063933,1744274082,747828585,,0.0,-3.552713678800501e-15,0.0,0.0,0.0,0.0
2025/04/10 10:34:42.848868908,1744274082,847779480,,0.0,0.0,0.0,0.0,0.0,0.0
2025/04/10 10:34:42.948586431,1744274082,948419571,,-7.105427357601002e-15,0.0,0.0,0.0,0.0,0.0
