time,header_stamp_secs,header_stamp_nsecs,header_frame_id,status_status,status_service,latitude,longitude,altitude,position_covariance_0,position_covariance_1,position_covariance_2,position_covariance_3,position_covariance_4,position_covariance_5,position_covariance_6,position_covariance_7,position_covariance_8,position_covariance_type
2025/04/09 10:24:45.456042406,1744187085,455146446,mA1/gps,0,1,63.434594894195804,10.393091730199666,0.0,1.4400000000000002e-10,0.0,0.0,0.0,1.4400000000000002e-10,0.0,0.0,0.0,1.0,2
2025/04/09 10:24:45.508108358,1744187085,506085398,mA1/gps,0,1,63.434594900055515,10.39309172994285,0.0,1.4400000000000002e-10,0.0,0.0,0.0,1.4400000000000002e-10,0.0,0.0,0.0,1.0,2
2025/04/09 10:24:45.546979518,1744187085,545984754,mA1/gps,0,1,63.43459490488775,10.39309173023548,0.0,1.4400000000000002e-10,0.0,0.0,0.0,1.4400000000000002e-10,0.0,0.0,0.0,1.0,2
2025/04/09 10:24:45.597842265,1744187085,597020181,mA1/gps,0,1,63.434594909525245,10.393091730064654,0.0,1.4400000000000002e-10,0.0,0.0,0.0,1.4400000000000002e-10,0.0,0.0,0.0,1.0,2
2025/04/09 10:24:45.647763054,1744187085,646841047,mA1/gps,0,1,63.43459491419875,10.393091729282743,0.0,1.4400000000000002e-10,0.0,0.0,0.0,1.4400000000000002e-10,0.0,0.0,0.0,1.0,2
2025/04/09 10:24:45.699114027,1744187085,697856600,mA1/gps,0,1,63.43459491986871,10.39309172934593,0.0,1.4400000000000002e-10,0.0,0.0,0.0,1.4400000000000002e-10,0.0,0.0,0.0,1.0,2
2025/04/09 10:24:45.748461500,1744187085,747687338,mA1/gps,0,1,63.43459492509278,10.393091728796282,0.0,1.4400000000000002e-10,0.0,0.0,0.0,1.4400000000000002e-10,0.0,0.0,0.0,1.0,2
2025/04/09 10:24:45.800373017,1744187085,798626558,mA1/gps,0,1,63.434594930453244,10.393091728425128,0.0,1.4400000000000002e-10,0.0,0.0,0.0,1.4400000000000002e-10,0.0,0.0,0.0,1.0,2
2025/04/09 10:24:45.849287589,1744187085,848430031,mA1/gps,0,1,63.4345949364085,10.393091727857186,0.0,1.4400000000000002e-10,0.0,0.0,0.0,1.4400000000000002e-10,0.0,0.0,0.0,1.0,2
2025/04/09 10:24:45.899988069,1744187085,899400533,mA1/gps,0,1,63.43459494199421,10.393091727102496,0.0,1.4400000000000002e-10,0.0,0.0,0.0,1.4400000000000002e-10,0.0,0.0,0.0,1.0,2
2025/04/09 10:24:45.955403949,1744187085,954587431,mA1/gps,0,1,63.43459495008289,10.393091726716388,0.0,1.4400000000000002e-10,0.0,0.0,0.0,1.4400000000000002e-10,0.0,0.0,0.0,1.0,2
2025/04/09 10:24:46.7061412,1744187086,5810426,mA1/gps,0,1,63.43459495657905,10.393091726210251,0.0,1.4400000000000002e-10,0.0,0.0,0.0,1.4400000000000002e-10,0.0,0.0,0.0,1.0,2
2025/04/09 10:24:46.47887951,1744187086,46363067,mA1/gps,0,1,63.43459496320371,10.393091726184236,0.0,1.4400000000000002e-10,0.0,0.0,0.0,1.4400000000000002e-10,0.0,0.0,0.0,1.0,2
2025/04/09 10:24:46.98844461,1744187086,97915485,mA1/gps,0,1,63.434594971840255,10.393091725263648,0.0,1.4400000000000002e-10,0.0,0.0,0.0,1.4400000000000002e-10,0.0,0.0,0.0,1.0,2
2025/04/09 10:24:46.150844036,1744187086,148656430,mA1/gps,0,1,63.43459498111387,10.393091724910219,0.0,1.4400000000000002e-10,0.0,0.0,0.0,1.4400000000000002e-10,0.0,0.0,0.0,1.0,2
2025/04/09 10:24:46.201463453,1744187086,199546921,mA1/gps,0,1,63.43459498904801,10.393091724551933,0.0,1.4400000000000002e-10,0.0,0.0,0.0,1.4400000000000002e-10,0.0,0.0,0.0,1.0,2
2025/04/09 10:24:46.252012139,1744187086,250998670,mA1/gps,0,1,63.43459499852695,10.393091723866894,0.0,1.4400000000000002e-10,0.0,0.0,0.0,1.4400000000000002e-10,0.0,0.0,0.0,1.0,2
2025/04/09 10:24:46.303760976,1744187086,301922991,mA1/gps,0,1,63.43459500691029,10.39309172321757,0.0,1.4400000000000002e-10,0.0,0.0,0.0,1.4400000000000002e-10,0.0,0.0,0.0,1.0,2
2025/04/09 10:24:46.352774622,1744187086,351830761,mA1/gps,0,1,63.43459501653086,10.393091722947856,0.0,1.4400000000000002e-10,0.0,0.0,0.0,1.4400000000000002e-10,0.0,0.0,0.0,1.0,2
2025/04/09 10:24:46.403427654,1744187086,402732605,mA1/gps,0,1,63.43459502495881,10.393091722405927,0.0,1.4400000000000002e-10,0.0,0.0,0.0,1.4400000000000002e-10,0.0,0.0,0.0,1.0,2
2025/04/09 10:24:46.454244900,1744187086,452560818,mA1/gps,0,1,63.43459503328809,10.393091722292818,0.0,1.4400000000000002e-10,0.0,0.0,0.0,1.4400000000000002e-10,0.0,0.0,0.0,1.0,2
2025/04/09 10:24:46.505585382,1744187086,504586534,mA1/gps,0,1,63.434595042912456,10.393091721874674,0.0,1.4400000000000002e-10,0.0,0.0,0.0,1.4400000000000002e-10,0.0,0.0,0.0,1.0,2
2025/04/09 10:24:46.554007980,1744187086,553283478,mA1/gps,0,1,63.43459505066761,10.393091721844108,0.0,1.4400000000000002e-10,0.0,0.0,0.0,1.4400000000000002e-10,0.0,0.0,0.0,1.0,2
2025/04/09 10:24:46.605252278,1744187086,604302762,mA1/gps,0,1,63.43459505755561,10.39309172160412,0.0,1.4400000000000002e-10,0.0,0.0,0.0,1.4400000000000002e-10,0.0,0.0,0.0,1.0,2
2025/04/09 10:24:46.654928732,1744187086,654087456,mA1/gps,0,1,63.43459506481996,10.393091721177555,0.0,1.4400000000000002e-10,0.0,0.0,0.0,1.4400000000000002e-10,0.0,0.0,0.0,1.0,2
2025/04/09 10:24:46.705980568,1744187086,705067586,mA1/gps,0,1,63.43459507247101,10.393091721655576,0.0,1.4400000000000002e-10,0.0,0.0,0.0,1.4400000000000002e-10,0.0,0.0,0.0,1.0,2
2025/04/09 10:24:46.755857085,1744187086,754908528,mA1/gps,0,1,63.43459507833931,10.393091721742863,0.0,1.4400000000000002e-10,0.0,0.0,0.0,1.4400000000000002e-10,0.0,0.0,0.0,1.0,2
2025/04/09 10:24:46.806534727,1744187086,805834212,mA1/gps,0,1,63.43459508337951,10.393091721874711,0.0,1.4400000000000002e-10,0.0,0.0,0.0,1.4400000000000002e-10,0.0,0.0,0.0,1.0,2
2025/04/09 10:24:46.860687183,1744187086,855835116,mA1/gps,0,1,63.43459508860696,10.393091720923794,0.0,1.4400000000000002e-10,0.0,0.0,0.0,1.4400000000000002e-10,0.0,0.0,0.0,1.0,2
2025/04/09 10:24:46.897571740,1744187086,896675846,mA1/gps,0,1,63.43459509465431,10.393091720344367,0.0,1.4400000000000002e-10,0.0,0.0,0.0,1.4400000000000002e-10,0.0,0.0,0.0,1.0,2
2025/04/09 10:24:46.947158480,1744187086,946528661,mA1/gps,0,1,63.434595099538626,10.393091720257118,0.0,1.4400000000000002e-10,0.0,0.0,0.0,1.4400000000000002e-10,0.0,0.0,0.0,1.0,2
2025/04/09 10:24:46.999441708,1744187086,997629462,mA1/gps,0,1,63.43459510293996,10.393091719900776,0.0,1.4400000000000002e-10,0.0,0.0,0.0,1.4400000000000002e-10,0.0,0.0,0.0,1.0,2
2025/04/09 10:24:47.48165225,1744187087,47310598,mA1/gps,0,1,63.434595107429395,10.393091718965245,0.0,1.4400000000000002e-10,0.0,0.0,0.0,1.4400000000000002e-10,0.0,0.0,0.0,1.0,2
2025/04/09 10:24:47.99260743,1744187087,98306376,mA1/gps,0,1,63.4345951130193,10.393091718757402,0.0,1.4400000000000002e-10,0.0,0.0,0.0,1.4400000000000002e-10,0.0,0.0,0.0,1.0,2
2025/04/09 10:24:47.149281282,1744187087,148593280,mA1/gps,0,1,63.434595117054045,10.393091717943909,0.0,1.4400000000000002e-10,0.0,0.0,0.0,1.4400000000000002e-10,0.0,0.0,0.0,1.0,2
2025/04/09 10:24:47.200339728,1744187087,199534709,mA1/gps,0,1,63.43459512082691,10.393091716921106,0.0,1.4400000000000002e-10,0.0,0.0,0.0,1.4400000000000002e-10,0.0,0.0,0.0,1.0,2
2025/04/09 10:24:47.252027622,1744187087,251052448,mA1/gps,0,1,63.4345951256536,10.393091715760908,0.0,1.4400000000000002e-10,0.0,0.0,0.0,1.4400000000000002e-10,0.0,0.0,0.0,1.0,2
2025/04/09 10:24:47.303910293,1744187087,301976546,mA1/gps,0,1,63.43459513196143,10.393091714863885,0.0,1.4400000000000002e-10,0.0,0.0,0.0,1.4400000000000002e-10,0.0,0.0,0.0,1.0,2
2025/04/09 10:24:47.355175641,1744187087,353851014,mA1/gps,0,1,63.434595137366486,10.393091713912671,0.0,1.4400000000000002e-10,0.0,0.0,0.0,1.4400000000000002e-10,0.0,0.0,0.0,1.0,2
2025/04/09 10:24:47.406027283,1744187087,404718382,mA1/gps,0,1,63.43459514245046,10.393091712150941,0.0,1.4400000000000002e-10,0.0,0.0,0.0,1.4400000000000002e-10,0.0,0.0,0.0,1.0,2
2025/04/09 10:24:47.458433058,1744187087,454688024,mA1/gps,0,1,63.434595149034976,10.393091709712918,0.0,1.4400000000000002e-10,0.0,0.0,0.0,1.4400000000000002e-10,0.0,0.0,0.0,1.0,2
2025/04/09 10:24:47.507862192,1744187087,505945619,mA1/gps,0,1,63.43459515663517,10.393091707256763,0.0,1.4400000000000002e-10,0.0,0.0,0.0,1.4400000000000002e-10,0.0,0.0,0.0,1.0,2
2025/04/09 10:24:47.556874285,1744187087,555844632,mA1/gps,0,1,63.434595163783776,10.393091705801433,0.0,1.4400000000000002e-10,0.0,0.0,0.0,1.4400000000000002e-10,0.0,0.0,0.0,1.0,2
2025/04/09 10:24:47.598783600,1744187087,597263763,mA1/gps,0,1,63.43459517012149,10.393091703229443,0.0,1.4400000000000002e-10,0.0,0.0,0.0,1.4400000000000002e-10,0.0,0.0,0.0,1.0,2
2025/04/09 10:24:47.649538902,1744187087,647452533,mA1/gps,0,1,63.43459517791873,10.393091700208878,0.0,1.4400000000000002e-10,0.0,0.0,0.0,1.4400000000000002e-10,0.0,0.0,0.0,1.0,2
2025/04/09 10:24:47.699560313,1744187087,698414084,mA1/gps,0,1,63.434595186852995,10.393091698487684,0.0,1.4400000000000002e-10,0.0,0.0,0.0,1.4400000000000002e-10,0.0,0.0,0.0,1.0,2
2025/04/09 10:24:47.749286914,1744187087,748307988,mA1/gps,0,1,63.43459519505721,10.393091696434082,0.0,1.4400000000000002e-10,0.0,0.0,0.0,1.4400000000000002e-10,0.0,0.0,0.0,1.0,2
2025/04/09 10:24:47.800042789,1744187087,799272794,mA1/gps,0,1,63.43459520256491,10.393091694825381,0.0,1.4400000000000002e-10,0.0,0.0,0.0,1.4400000000000002e-10,0.0,0.0,0.0,1.0,2
2025/04/09 10:24:47.849934403,1744187087,849081831,mA1/gps,0,1,63.434595210779364,10.393091693950517,0.0,1.4400000000000002e-10,0.0,0.0,0.0,1.4400000000000002e-10,0.0,0.0,0.0,1.0,2
2025/04/09 10:24:47.900960487,1744187087,900059738,mA1/gps,0,1,63.43459521973153,10.393091693716835,0.0,1.4400000000000002e-10,0.0,0.0,0.0,1.4400000000000002e-10,0.0,0.0,0.0,1.0,2
2025/04/09 10:24:47.951680877,1744187087,949961709,mA1/gps,0,1,63.43459522772601,10.393091693870076,0.0,1.4400000000000002e-10,0.0,0.0,0.0,1.4400000000000002e-10,0.0,0.0,0.0,1.0,2
2025/04/09 10:24:48.1749386,1744187088,1036034,mA1/gps,0,1,63.43459523420466,10.393091694569653,0.0,1.4400000000000002e-10,0.0,0.0,0.0,1.4400000000000002e-10,0.0,0.0,0.0,1.0,2
2025/04/09 10:24:48.53838017,1744187088,50800734,mA1/gps,0,1,63.4345952413565,10.393091695458757,0.0,1.4400000000000002e-10,0.0,0.0,0.0,1.4400000000000002e-10,0.0,0.0,0.0,1.0,2
2025/04/09 10:24:48.103264644,1744187088,102591477,mA1/gps,0,1,63.43459524900958,10.393091696962289,0.0,1.4400000000000002e-10,0.0,0.0,0.0,1.4400000000000002e-10,0.0,0.0,0.0,1.0,2
2025/04/09 10:24:48.153163462,1744187088,152415900,mA1/gps,0,1,63.43459525507067,10.393091699541516,0.0,1.4400000000000002e-10,0.0,0.0,0.0,1.4400000000000002e-10,0.0,0.0,0.0,1.0,2
2025/04/09 10:24:48.204551053,1744187088,203402494,mA1/gps,0,1,63.43459525998536,10.393091701565647,0.0,1.4400000000000002e-10,0.0,0.0,0.0,1.4400000000000002e-10,0.0,0.0,0.0,1.0,2
2025/04/09 10:24:48.254260791,1744187088,253600291,mA1/gps,0,1,63.434595265342686,10.393091704064815,0.0,1.4400000000000002e-10,0.0,0.0,0.0,1.4400000000000002e-10,0.0,0.0,0.0,1.0,2
2025/04/09 10:24:48.305457263,1744187088,304544157,mA1/gps,0,1,63.43459527133012,10.39309170666541,0.0,1.4400000000000002e-10,0.0,0.0,0.0,1.4400000000000002e-10,0.0,0.0,0.0,1.0,2
2025/04/09 10:24:48.348896840,1744187088,346086151,mA1/gps,0,1,63.434595275969606,10.393091708589916,0.0,1.4400000000000002e-10,0.0,0.0,0.0,1.4400000000000002e-10,0.0,0.0,0.0,1.0,2
2025/04/09 10:24:48.398571882,1744187088,397262583,mA1/gps,0,1,63.43459527924341,10.393091709783995,0.0,1.4400000000000002e-10,0.0,0.0,0.0,1.4400000000000002e-10,0.0,0.0,0.0,1.0,2
2025/04/09 10:24:48.447759437,1744187088,447030870,mA1/gps,0,1,63.43459528348187,10.393091711106088,0.0,1.4400000000000002e-10,0.0,0.0,0.0,1.4400000000000002e-10,0.0,0.0,0.0,1.0,2
2025/04/09 10:24:48.498738167,1744187088,497995752,mA1/gps,0,1,63.43459528834992,10.393091711674742,0.0,1.4400000000000002e-10,0.0,0.0,0.0,1.4400000000000002e-10,0.0,0.0,0.0,1.0,2
2025/04/09 10:24:48.550071604,1744187088,549450725,mA1/gps,0,1,63.434595292112796,10.39309171154919,0.0,1.4400000000000002e-10,0.0,0.0,0.0,1.4400000000000002e-10,0.0,0.0,0.0,1.0,2
2025/04/09 10:24:48.600807865,1744187088,600089483,mA1/gps,0,1,63.4345952949139,10.393091709556485,0.0,1.4400000000000002e-10,0.0,0.0,0.0,1.4400000000000002e-10,0.0,0.0,0.0,1.0,2
2025/04/09 10:24:48.652033267,1744187088,651130535,mA1/gps,0,1,63.434595299409885,10.393091707853854,0.0,1.4400000000000002e-10,0.0,0.0,0.0,1.4400000000000002e-10,0.0,0.0,0.0,1.0,2
2025/04/09 10:24:48.704012723,1744187088,703225626,mA1/gps,0,1,63.43459530458688,10.393091705183474,0.0,1.4400000000000002e-10,0.0,0.0,0.0,1.4400000000000002e-10,0.0,0.0,0.0,1.0,2
2025/04/09 10:24:48.754051683,1744187088,753293593,mA1/gps,0,1,63.43459530897699,10.393091701979642,0.0,1.4400000000000002e-10,0.0,0.0,0.0,1.4400000000000002e-10,0.0,0.0,0.0,1.0,2
2025/04/09 10:24:48.806184107,1744187088,804306257,mA1/gps,0,1,63.43459531294232,10.39309169807377,0.0,1.4400000000000002e-10,0.0,0.0,0.0,1.4400000000000002e-10,0.0,0.0,0.0,1.0,2
2025/04/09 10:24:48.858574794,1744187088,855717466,mA1/gps,0,1,63.43459531787425,10.393091693908149,0.0,1.4400000000000002e-10,0.0,0.0,0.0,1.4400000000000002e-10,0.0,0.0,0.0,1.0,2
2025/04/09 10:24:48.898315842,1744187088,896792747,mA1/gps,0,1,63.43459532432843,10.393091689049488,0.0,1.4400000000000002e-10,0.0,0.0,0.0,1.4400000000000002e-10,0.0,0.0,0.0,1.0,2
2025/04/09 10:24:48.950863360,1744187088,946671551,mA1/gps,0,1,63.434595330206754,10.393091685077344,0.0,1.4400000000000002e-10,0.0,0.0,0.0,1.4400000000000002e-10,0.0,0.0,0.0,1.0,2
2025/04/09 10:24:48.999590896,1744187088,997579764,mA1/gps,0,1,63.43459533534879,10.393091680074974,0.0,1.4400000000000002e-10,0.0,0.0,0.0,1.4400000000000002e-10,0.0,0.0,0.0,1.0,2
2025/04/09 10:24:49.49033404,1744187089,47248373,mA1/gps,0,1,63.43459534207702,10.393091676286671,0.0,1.4400000000000002e-10,0.0,0.0,0.0,1.4400000000000002e-10,0.0,0.0,0.0,1.0,2
2025/04/09 10:24:49.101152950,1744187089,98280831,mA1/gps,0,1,63.43459535014677,10.393091673083953,0.0,1.4400000000000002e-10,0.0,0.0,0.0,1.4400000000000002e-10,0.0,0.0,0.0,1.0,2
2025/04/09 10:24:49.148910545,1744187089,148093054,mA1/gps,0,1,63.43459535728882,10.393091670550797,0.0,1.4400000000000002e-10,0.0,0.0,0.0,1.4400000000000002e-10,0.0,0.0,0.0,1.0,2
2025/04/09 10:24:49.200047578,1744187089,199084807,mA1/gps,0,1,63.43459536408425,10.393091669275972,0.0,1.4400000000000002e-10,0.0,0.0,0.0,1.4400000000000002e-10,0.0,0.0,0.0,1.0,2
2025/04/09 10:24:49.252185675,1744187089,250901184,mA1/gps,0,1,63.43459537187765,10.393091669467292,0.0,1.4400000000000002e-10,0.0,0.0,0.0,1.4400000000000002e-10,0.0,0.0,0.0,1.0,2
2025/04/09 10:24:49.302582735,1744187089,301825884,mA1/gps,0,1,63.43459538060496,10.393091670404967,0.0,1.4400000000000002e-10,0.0,0.0,0.0,1.4400000000000002e-10,0.0,0.0,0.0,1.0,2
2025/04/09 10:24:49.352723852,1744187089,351658838,mA1/gps,0,1,63.43459538946478,10.393091672676901,0.0,1.4400000000000002e-10,0.0,0.0,0.0,1.4400000000000002e-10,0.0,0.0,0.0,1.0,2
2025/04/09 10:24:49.403199790,1744187089,402617327,mA1/gps,0,1,63.434595397807975,10.393091675281786,0.0,1.4400000000000002e-10,0.0,0.0,0.0,1.4400000000000002e-10,0.0,0.0,0.0,1.0,2
2025/04/09 10:24:49.454054065,1744187089,452606708,mA1/gps,0,1,63.434595407786446,10.39309167895511,0.0,1.4400000000000002e-10,0.0,0.0,0.0,1.4400000000000002e-10,0.0,0.0,0.0,1.0,2
2025/04/09 10:24:49.504367631,1744187089,503369897,mA1/gps,0,1,63.43459541838651,10.393091681614445,0.0,1.4400000000000002e-10,0.0,0.0,0.0,1.4400000000000002e-10,0.0,0.0,0.0,1.0,2
2025/04/09 10:24:49.554174583,1744187089,553197471,mA1/gps,0,1,63.43459542953352,10.393091682716788,0.0,1.4400000000000002e-10,0.0,0.0,0.0,1.4400000000000002e-10,0.0,0.0,0.0,1.0,2
2025/04/09 10:24:49.605595971,1744187089,604282491,mA1/gps,0,1,63.434595443755676,10.39309168472443,0.0,1.4400000000000002e-10,0.0,0.0,0.0,1.4400000000000002e-10,0.0,0.0,0.0,1.0,2
2025/04/09 10:24:49.654858963,1744187089,654193880,mA1/gps,0,1,63.434595461745936,10.393091686576401,0.0,1.4400000000000002e-10,0.0,0.0,0.0,1.4400000000000002e-10,0.0,0.0,0.0,1.0,2
2025/04/09 10:24:49.706145540,1744187089,705592227,mA1/gps,0,1,63.434595477820984,10.393091689217817,0.0,1.4400000000000002e-10,0.0,0.0,0.0,1.4400000000000002e-10,0.0,0.0,0.0,1.0,2
2025/04/09 10:24:49.757205387,1744187089,755485429,mA1/gps,0,1,63.434595498714344,10.393091692283518,0.0,1.4400000000000002e-10,0.0,0.0,0.0,1.4400000000000002e-10,0.0,0.0,0.0,1.0,2
2025/04/09 10:24:49.797438466,1744187089,796649406,mA1/gps,0,1,63.43459552289399,10.393091698551304,0.0,1.4400000000000002e-10,0.0,0.0,0.0,1.4400000000000002e-10,0.0,0.0,0.0,1.0,2
2025/04/09 10:24:49.847890085,1744187089,846825678,mA1/gps,0,1,63.43459554909703,10.39309170633188,0.0,1.4400000000000002e-10,0.0,0.0,0.0,1.4400000000000002e-10,0.0,0.0,0.0,1.0,2
2025/04/09 10:24:49.898392184,1744187089,897767601,mA1/gps,0,1,63.43459557915954,10.393091712308358,0.0,1.4400000000000002e-10,0.0,0.0,0.0,1.4400000000000002e-10,0.0,0.0,0.0,1.0,2
2025/04/09 10:24:49.948222641,1744187089,947639197,mA1/gps,0,1,63.43459561243984,10.393091716874617,0.0,1.4400000000000002e-10,0.0,0.0,0.0,1.4400000000000002e-10,0.0,0.0,0.0,1.0,2
2025/04/09 10:24:50.1664206,1744187090,266903,mA1/gps,0,1,63.434595650190296,10.393091719861879,0.0,1.4400000000000002e-10,0.0,0.0,0.0,1.4400000000000002e-10,0.0,0.0,0.0,1.0,2
2025/04/09 10:24:50.50934332,1744187090,50046022,mA1/gps,0,1,63.43459569126381,10.393091719554647,0.0,1.4400000000000002e-10,0.0,0.0,0.0,1.4400000000000002e-10,0.0,0.0,0.0,1.0,2
2025/04/09 10:24:50.102677498,1744187090,101128656,mA1/gps,0,1,63.43459573693662,10.39309171553101,0.0,1.4400000000000002e-10,0.0,0.0,0.0,1.4400000000000002e-10,0.0,0.0,0.0,1.0,2
2025/04/09 10:24:50.151514830,1744187090,150824912,mA1/gps,0,1,63.43459578485706,10.393091706636824,0.0,1.4400000000000002e-10,0.0,0.0,0.0,1.4400000000000002e-10,0.0,0.0,0.0,1.0,2
2025/04/09 10:24:50.203069920,1744187090,201805848,mA1/gps,0,1,63.434595837010455,10.393091693815647,0.0,1.4400000000000002e-10,0.0,0.0,0.0,1.4400000000000002e-10,0.0,0.0,0.0,1.0,2
2025/04/09 10:24:50.252492580,1744187090,251643855,mA1/gps,0,1,63.43459589249605,10.393091678624195,0.0,1.4400000000000002e-10,0.0,0.0,0.0,1.4400000000000002e-10,0.0,0.0,0.0,1.0,2
2025/04/09 10:24:50.303399146,1744187090,302606580,mA1/gps,0,1,63.43459594962428,10.393091660126668,0.0,1.4400000000000002e-10,0.0,0.0,0.0,1.4400000000000002e-10,0.0,0.0,0.0,1.0,2
2025/04/09 10:24:50.353758046,1744187090,352887199,mA1/gps,0,1,63.43459600997167,10.393091639208272,0.0,1.4400000000000002e-10,0.0,0.0,0.0,1.4400000000000002e-10,0.0,0.0,0.0,1.0,2
2025/04/09 10:24:50.405340770,1744187090,404438472,mA1/gps,0,1,63.43459607192278,10.393091617893205,0.0,1.4400000000000002e-10,0.0,0.0,0.0,1.4400000000000002e-10,0.0,0.0,0.0,1.0,2
2025/04/09 10:24:50.456036583,1744187090,454295469,mA1/gps,0,1,63.43459613476733,10.393091596405448,0.0,1.4400000000000002e-10,0.0,0.0,0.0,1.4400000000000002e-10,0.0,0.0,0.0,1.0,2
2025/04/09 10:24:50.505873665,1744187090,505208552,mA1/gps,0,1,63.43459619900612,10.393091574163613,0.0,1.4400000000000002e-10,0.0,0.0,0.0,1.4400000000000002e-10,0.0,0.0,0.0,1.0,2
2025/04/09 10:24:50.557117804,1744187090,555214578,mA1/gps,0,1,63.434596264386876,10.393091552984849,0.0,1.4400000000000002e-10,0.0,0.0,0.0,1.4400000000000002e-10,0.0,0.0,0.0,1.0,2
2025/04/09 10:24:50.607988778,1744187090,606106343,mA1/gps,0,1,63.43459632892646,10.393091535917305,0.0,1.4400000000000002e-10,0.0,0.0,0.0,1.4400000000000002e-10,0.0,0.0,0.0,1.0,2
2025/04/09 10:24:50.647352555,1744187090,646699999,mA1/gps,0,1,63.43459639392561,10.393091522334462,0.0,1.4400000000000002e-10,0.0,0.0,0.0,1.4400000000000002e-10,0.0,0.0,0.0,1.0,2
2025/04/09 10:24:50.698558358,1744187090,697594372,mA1/gps,0,1,63.434596458737055,10.39309150780851,0.0,1.4400000000000002e-10,0.0,0.0,0.0,1.4400000000000002e-10,0.0,0.0,0.0,1.0,2
2025/04/09 10:24:50.749727778,1744187090,747470751,mA1/gps,0,1,63.434596523530175,10.39309149395074,0.0,1.4400000000000002e-10,0.0,0.0,0.0,1.4400000000000002e-10,0.0,0.0,0.0,1.0,2
2025/04/09 10:24:50.800373870,1744187090,798467977,mA1/gps,0,1,63.43459658713185,10.393091483544286,0.0,1.4400000000000002e-10,0.0,0.0,0.0,1.4400000000000002e-10,0.0,0.0,0.0,1.0,2
2025/04/09 10:24:50.849690429,1744187090,848903563,mA1/gps,0,1,63.43459665076947,10.39309147767816,0.0,1.4400000000000002e-10,0.0,0.0,0.0,1.4400000000000002e-10,0.0,0.0,0.0,1.0,2
2025/04/09 10:24:50.901077681,1744187090,900196343,mA1/gps,0,1,63.43459671422722,10.39309147481639,0.0,1.4400000000000002e-10,0.0,0.0,0.0,1.4400000000000002e-10,0.0,0.0,0.0,1.0,2
2025/04/09 10:24:50.951451031,1744187090,950663667,mA1/gps,0,1,63.43459677783748,10.393091477366267,0.0,1.4400000000000002e-10,0.0,0.0,0.0,1.4400000000000002e-10,0.0,0.0,0.0,1.0,2
2025/04/09 10:24:51.2556895,1744187091,1629334,mA1/gps,0,1,63.43459684177334,10.393091484463,0.0,1.4400000000000002e-10,0.0,0.0,0.0,1.4400000000000002e-10,0.0,0.0,0.0,1.0,2
2025/04/09 10:24:51.53486019,1744187091,51573215,mA1/gps,0,1,63.43459690538074,10.393091495250303,0.0,1.4400000000000002e-10,0.0,0.0,0.0,1.4400000000000002e-10,0.0,0.0,0.0,1.0,2
2025/04/09 10:24:51.103810684,1744187091,102523059,mA1/gps,0,1,63.43459697048207,10.393091509361614,0.0,1.4400000000000002e-10,0.0,0.0,0.0,1.4400000000000002e-10,0.0,0.0,0.0,1.0,2
2025/04/09 10:24:51.154698958,1744187091,152383680,mA1/gps,0,1,63.43459703627269,10.393091524026916,0.0,1.4400000000000002e-10,0.0,0.0,0.0,1.4400000000000002e-10,0.0,0.0,0.0,1.0,2
2025/04/09 10:24:51.204951054,1744187091,203430234,mA1/gps,0,1,63.43459710385,10.393091538640103,0.0,1.4400000000000002e-10,0.0,0.0,0.0,1.4400000000000002e-10,0.0,0.0,0.0,1.0,2
2025/04/09 10:24:51.253939605,1744187091,253125818,mA1/gps,0,1,63.434597174182805,10.393091552318554,0.0,1.4400000000000002e-10,0.0,0.0,0.0,1.4400000000000002e-10,0.0,0.0,0.0,1.0,2
2025/04/09 10:24:51.305005761,1744187091,304106274,mA1/gps,0,1,63.43459724645056,10.393091563987078,0.0,1.4400000000000002e-10,0.0,0.0,0.0,1.4400000000000002e-10,0.0,0.0,0.0,1.0,2
2025/04/09 10:24:51.355403388,1744187091,354001437,mA1/gps,0,1,63.43459732073649,10.393091572518346,0.0,1.4400000000000002e-10,0.0,0.0,0.0,1.4400000000000002e-10,0.0,0.0,0.0,1.0,2
2025/04/09 10:24:51.405576983,1744187091,404982703,mA1/gps,0,1,63.43459739790708,10.393091577417056,0.0,1.4400000000000002e-10,0.0,0.0,0.0,1.4400000000000002e-10,0.0,0.0,0.0,1.0,2
2025/04/09 10:24:51.456228982,1744187091,455333993,mA1/gps,0,1,63.43459747945791,10.393091577487118,0.0,1.4400000000000002e-10,0.0,0.0,0.0,1.4400000000000002e-10,0.0,0.0,0.0,1.0,2
2025/04/09 10:24:51.508374332,1744187091,506302749,mA1/gps,0,1,63.43459756356901,10.393091570368014,0.0,1.4400000000000002e-10,0.0,0.0,0.0,1.4400000000000002e-10,0.0,0.0,0.0,1.0,2
2025/04/09 10:24:51.549150820,1744187091,546116833,mA1/gps,0,1,63.43459764921955,10.39309155795341,0.0,1.4400000000000002e-10,0.0,0.0,0.0,1.4400000000000002e-10,0.0,0.0,0.0,1.0,2
2025/04/09 10:24:51.598508132,1744187091,597061046,mA1/gps,0,1,63.43459774098757,10.393091542790435,0.0,1.4400000000000002e-10,0.0,0.0,0.0,1.4400000000000002e-10,0.0,0.0,0.0,1.0,2
2025/04/09 10:24:51.648335905,1744187091,646938012,mA1/gps,0,1,63.43459783216441,10.393091523694226,0.0,1.4400000000000002e-10,0.0,0.0,0.0,1.4400000000000002e-10,0.0,0.0,0.0,1.0,2
2025/04/09 10:24:51.698621173,1744187091,697803686,mA1/gps,0,1,63.434597926289065,10.39309149998748,0.0,1.4400000000000002e-10,0.0,0.0,0.0,1.4400000000000002e-10,0.0,0.0,0.0,1.0,2
2025/04/09 10:24:51.750028037,1744187091,749036619,mA1/gps,0,1,63.43459802338934,10.393091474022524,0.0,1.4400000000000002e-10,0.0,0.0,0.0,1.4400000000000002e-10,0.0,0.0,0.0,1.0,2
2025/04/09 10:24:51.800541290,1744187091,798639016,mA1/gps,0,1,63.43459812231449,10.393091447431983,0.0,1.4400000000000002e-10,0.0,0.0,0.0,1.4400000000000002e-10,0.0,0.0,0.0,1.0,2
2025/04/09 10:24:51.849745063,1744187091,848550701,mA1/gps,0,1,63.43459822238782,10.393091421303641,0.0,1.4400000000000002e-10,0.0,0.0,0.0,1.4400000000000002e-10,0.0,0.0,0.0,1.0,2
2025/04/09 10:24:51.901436302,1744187091,899799037,mA1/gps,0,1,63.434598324294114,10.39309139686293,0.0,1.4400000000000002e-10,0.0,0.0,0.0,1.4400000000000002e-10,0.0,0.0,0.0,1.0,2
2025/04/09 10:24:51.950405402,1744187091,949657369,mA1/gps,0,1,63.43459842612855,10.39309137458436,0.0,1.4400000000000002e-10,0.0,0.0,0.0,1.4400000000000002e-10,0.0,0.0,0.0,1.0,2
2025/04/09 10:24:52.1270786,1744187092,640092,mA1/gps,0,1,63.434598528009076,10.39309135869481,0.0,1.4400000000000002e-10,0.0,0.0,0.0,1.4400000000000002e-10,0.0,0.0,0.0,1.0,2
2025/04/09 10:24:52.51507854,1744187092,50451303,mA1/gps,0,1,63.434598628871115,10.393091347812982,0.0,1.4400000000000002e-10,0.0,0.0,0.0,1.4400000000000002e-10,0.0,0.0,0.0,1.0,2
2025/04/09 10:24:52.103592366,1744187092,101368679,mA1/gps,0,1,63.434598729911464,10.393091340582004,0.0,1.4400000000000002e-10,0.0,0.0,0.0,1.4400000000000002e-10,0.0,0.0,0.0,1.0,2
2025/04/09 10:24:52.152648402,1744187092,151742395,mA1/gps,0,1,63.4345988300666,10.393091339453568,0.0,1.4400000000000002e-10,0.0,0.0,0.0,1.4400000000000002e-10,0.0,0.0,0.0,1.0,2
2025/04/09 10:24:52.205147414,1744187092,202773852,mA1/gps,0,1,63.43459893001602,10.393091343760045,0.0,1.4400000000000002e-10,0.0,0.0,0.0,1.4400000000000002e-10,0.0,0.0,0.0,1.0,2
2025/04/09 10:24:52.254642989,1744187092,252599335,mA1/gps,0,1,63.43459902794418,10.393091353218532,0.0,1.4400000000000002e-10,0.0,0.0,0.0,1.4400000000000002e-10,0.0,0.0,0.0,1.0,2
2025/04/09 10:24:52.304304439,1744187092,303502002,mA1/gps,0,1,63.434599125390584,10.393091367682485,0.0,1.4400000000000002e-10,0.0,0.0,0.0,1.4400000000000002e-10,0.0,0.0,0.0,1.0,2
2025/04/09 10:24:52.354400858,1744187092,353448753,mA1/gps,0,1,63.43459922197814,10.393091386908509,0.0,1.4400000000000002e-10,0.0,0.0,0.0,1.4400000000000002e-10,0.0,0.0,0.0,1.0,2
2025/04/09 10:24:52.405254922,1744187092,404383828,mA1/gps,0,1,63.43459931799665,10.393091407785976,0.0,1.4400000000000002e-10,0.0,0.0,0.0,1.4400000000000002e-10,0.0,0.0,0.0,1.0,2
2025/04/09 10:24:52.447810188,1744187092,445855019,mA1/gps,0,1,63.43459941278979,10.393091429697717,0.0,1.4400000000000002e-10,0.0,0.0,0.0,1.4400000000000002e-10,0.0,0.0,0.0,1.0,2
2025/04/09 10:24:52.497826625,1744187092,497080826,mA1/gps,0,1,63.43459950727901,10.393091449303144,0.0,1.4400000000000002e-10,0.0,0.0,0.0,1.4400000000000002e-10,0.0,0.0,0.0,1.0,2
2025/04/09 10:24:52.548825446,1744187092,547973143,mA1/gps,0,1,63.43459960324995,10.393091467041035,0.0,1.4400000000000002e-10,0.0,0.0,0.0,1.4400000000000002e-10,0.0,0.0,0.0,1.0,2
2025/04/09 10:24:52.599625096,1744187092,599009556,mA1/gps,0,1,63.43459969909854,10.393091480355725,0.0,1.4400000000000002e-10,0.0,0.0,0.0,1.4400000000000002e-10,0.0,0.0,0.0,1.0,2
2025/04/09 10:24:52.649475073,1744187092,648729879,mA1/gps,0,1,63.434599796830014,10.393091488374665,0.0,1.4400000000000002e-10,0.0,0.0,0.0,1.4400000000000002e-10,0.0,0.0,0.0,1.0,2
2025/04/09 10:24:52.701763290,1744187092,699862598,mA1/gps,0,1,63.43459989427009,10.393091490561755,0.0,1.4400000000000002e-10,0.0,0.0,0.0,1.4400000000000002e-10,0.0,0.0,0.0,1.0,2
2025/04/09 10:24:52.751238050,1744187092,749556070,mA1/gps,0,1,63.43459999464558,10.393091486871459,0.0,1.4400000000000002e-10,0.0,0.0,0.0,1.4400000000000002e-10,0.0,0.0,0.0,1.0,2
2025/04/09 10:24:52.801189645,1744187092,800483282,mA1/gps,0,1,63.43460009730422,10.393091477143427,0.0,1.4400000000000002e-10,0.0,0.0,0.0,1.4400000000000002e-10,0.0,0.0,0.0,1.0,2
2025/04/09 10:24:52.851011971,1744187092,850390225,mA1/gps,0,1,63.434600200454206,10.39309146361648,0.0,1.4400000000000002e-10,0.0,0.0,0.0,1.4400000000000002e-10,0.0,0.0,0.0,1.0,2
2025/04/09 10:24:52.902799699,1744187092,901884532,mA1/gps,0,1,63.434600305735714,10.393091445215733,0.0,1.4400000000000002e-10,0.0,0.0,0.0,1.4400000000000002e-10,0.0,0.0,0.0,1.0,2
2025/04/09 10:24:52.952855741,1744187092,951866759,mA1/gps,0,1,63.43460041598171,10.39309142416387,0.0,1.4400000000000002e-10,0.0,0.0,0.0,1.4400000000000002e-10,0.0,0.0,0.0,1.0,2
2025/04/09 10:24:53.5167243,1744187093,4585978,mA1/gps,0,1,63.43460052719419,10.393091401610718,0.0,1.4400000000000002e-10,0.0,0.0,0.0,1.4400000000000002e-10,0.0,0.0,0.0,1.0,2
2025/04/09 10:24:53.57718353,1744187093,54491055,mA1/gps,0,1,63.43460064059669,10.393091377043444,0.0,1.4400000000000002e-10,0.0,0.0,0.0,1.4400000000000002e-10,0.0,0.0,0.0,1.0,2
2025/04/09 10:24:53.106034242,1744187093,105451511,mA1/gps,0,1,63.43460075622523,10.393091351765664,0.0,1.4400000000000002e-10,0.0,0.0,0.0,1.4400000000000002e-10,0.0,0.0,0.0,1.0,2
2025/04/09 10:24:53.156682445,1744187093,155387989,mA1/gps,0,1,63.434600874473766,10.393091328676116,0.0,1.4400000000000002e-10,0.0,0.0,0.0,1.4400000000000002e-10,0.0,0.0,0.0,1.0,2
2025/04/09 10:24:53.201200753,1744187093,200175937,mA1/gps,0,1,63.43460099413546,10.393091308829549,0.0,1.4400000000000002e-10,0.0,0.0,0.0,1.4400000000000002e-10,0.0,0.0,0.0,1.0,2
2025/04/09 10:24:53.249069920,1744187093,248170597,mA1/gps,0,1,63.434601115067515,10.393091294138712,0.0,1.4400000000000002e-10,0.0,0.0,0.0,1.4400000000000002e-10,0.0,0.0,0.0,1.0,2
2025/04/09 10:24:53.302763427,1744187093,300430568,mA1/gps,0,1,63.43460123739515,10.393091284167983,0.0,1.4400000000000002e-10,0.0,0.0,0.0,1.4400000000000002e-10,0.0,0.0,0.0,1.0,2
2025/04/09 10:24:53.350000454,1744187093,349430583,mA1/gps,0,1,63.434601359178636,10.39309128057992,0.0,1.4400000000000002e-10,0.0,0.0,0.0,1.4400000000000002e-10,0.0,0.0,0.0,1.0,2
2025/04/09 10:24:53.400873865,1744187093,400362293,mA1/gps,0,1,63.434601482027944,10.393091282971405,0.0,1.4400000000000002e-10,0.0,0.0,0.0,1.4400000000000002e-10,0.0,0.0,0.0,1.0,2
2025/04/09 10:24:53.453286872,1744187093,451127319,mA1/gps,0,1,63.434601606399006,10.393091290251059,0.0,1.4400000000000002e-10,0.0,0.0,0.0,1.4400000000000002e-10,0.0,0.0,0.0,1.0,2
2025/04/09 10:24:53.503262850,1744187093,502093894,mA1/gps,0,1,63.43460172921347,10.393091302755963,0.0,1.4400000000000002e-10,0.0,0.0,0.0,1.4400000000000002e-10,0.0,0.0,0.0,1.0,2
2025/04/09 10:24:53.553938131,1744187093,551914744,mA1/gps,0,1,63.4346018513001,10.393091318723087,0.0,1.4400000000000002e-10,0.0,0.0,0.0,1.4400000000000002e-10,0.0,0.0,0.0,1.0,2
2025/04/09 10:24:53.603940661,1744187093,602951568,mA1/gps,0,1,63.434601973619564,10.393091335806325,0.0,1.4400000000000002e-10,0.0,0.0,0.0,1.4400000000000002e-10,0.0,0.0,0.0,1.0,2
2025/04/09 10:24:53.654432549,1744187093,652765636,mA1/gps,0,1,63.43460209337344,10.39309135310948,0.0,1.4400000000000002e-10,0.0,0.0,0.0,1.4400000000000002e-10,0.0,0.0,0.0,1.0,2
2025/04/09 10:24:53.704404966,1744187093,703671828,mA1/gps,0,1,63.43460221288029,10.393091373947563,0.0,1.4400000000000002e-10,0.0,0.0,0.0,1.4400000000000002e-10,0.0,0.0,0.0,1.0,2
2025/04/09 10:24:53.754124792,1744187093,753566823,mA1/gps,0,1,63.43460233017764,10.393091395037159,0.0,1.4400000000000002e-10,0.0,0.0,0.0,1.4400000000000002e-10,0.0,0.0,0.0,1.0,2
2025/04/09 10:24:53.805854717,1744187093,805013279,mA1/gps,0,1,63.43460244732542,10.393091413190005,0.0,1.4400000000000002e-10,0.0,0.0,0.0,1.4400000000000002e-10,0.0,0.0,0.0,1.0,2
2025/04/09 10:24:53.855687102,1744187093,854813102,mA1/gps,0,1,63.43460256261144,10.393091428454593,0.0,1.4400000000000002e-10,0.0,0.0,0.0,1.4400000000000002e-10,0.0,0.0,0.0,1.0,2
2025/04/09 10:24:53.907698662,1744187093,905742636,mA1/gps,0,1,63.43460267733697,10.393091437727916,0.0,1.4400000000000002e-10,0.0,0.0,0.0,1.4400000000000002e-10,0.0,0.0,0.0,1.0,2
2025/04/09 10:24:53.957309553,1744187093,955565214,mA1/gps,0,1,63.434602792433,10.39309144051195,0.0,1.4400000000000002e-10,0.0,0.0,0.0,1.4400000000000002e-10,0.0,0.0,0.0,1.0,2
2025/04/09 10:24:53.998399113,1744187093,996479831,mA1/gps,0,1,63.434602906580714,10.393091435653382,0.0,1.4400000000000002e-10,0.0,0.0,0.0,1.4400000000000002e-10,0.0,0.0,0.0,1.0,2
2025/04/09 10:24:54.48543130,1744187094,47803184,mA1/gps,0,1,63.434603021024124,10.39309142543094,0.0,1.4400000000000002e-10,0.0,0.0,0.0,1.4400000000000002e-10,0.0,0.0,0.0,1.0,2
2025/04/09 10:24:54.100848967,1744187094,98765178,mA1/gps,0,1,63.43460313545785,10.393091409163244,0.0,1.4400000000000002e-10,0.0,0.0,0.0,1.4400000000000002e-10,0.0,0.0,0.0,1.0,2
2025/04/09 10:24:54.150503931,1744187094,148580965,mA1/gps,0,1,63.43460325208181,10.393091388874558,0.0,1.4400000000000002e-10,0.0,0.0,0.0,1.4400000000000002e-10,0.0,0.0,0.0,1.0,2
2025/04/09 10:24:54.200306980,1744187094,199574201,mA1/gps,0,1,63.43460336870546,10.393091363514236,0.0,1.4400000000000002e-10,0.0,0.0,0.0,1.4400000000000002e-10,0.0,0.0,0.0,1.0,2
2025/04/09 10:24:54.251226645,1744187094,249469900,mA1/gps,0,1,63.43460348722956,10.393091335466405,0.0,1.4400000000000002e-10,0.0,0.0,0.0,1.4400000000000002e-10,0.0,0.0,0.0,1.0,2
2025/04/09 10:24:54.302417497,1744187094,300486236,mA1/gps,0,1,63.43460360774863,10.393091309736118,0.0,1.4400000000000002e-10,0.0,0.0,0.0,1.4400000000000002e-10,0.0,0.0,0.0,1.0,2
2025/04/09 10:24:54.351244328,1744187094,350349650,mA1/gps,0,1,63.434603730066634,10.393091285186454,0.0,1.4400000000000002e-10,0.0,0.0,0.0,1.4400000000000002e-10,0.0,0.0,0.0,1.0,2
2025/04/09 10:24:54.402171153,1744187094,401349596,mA1/gps,0,1,63.43460385336095,10.393091264577977,0.0,1.4400000000000002e-10,0.0,0.0,0.0,1.4400000000000002e-10,0.0,0.0,0.0,1.0,2
2025/04/09 10:24:54.451706209,1744187094,451178818,mA1/gps,0,1,63.434603979560144,10.393091247212261,0.0,1.4400000000000002e-10,0.0,0.0,0.0,1.4400000000000002e-10,0.0,0.0,0.0,1.0,2
2025/04/09 10:24:54.504229700,1744187094,502148270,mA1/gps,0,1,63.43460410726932,10.393091234553546,0.0,1.4400000000000002e-10,0.0,0.0,0.0,1.4400000000000002e-10,0.0,0.0,0.0,1.0,2
2025/04/09 10:24:54.555443201,1744187094,553465092,mA1/gps,0,1,63.43460423777183,10.39309122707061,0.0,1.4400000000000002e-10,0.0,0.0,0.0,1.4400000000000002e-10,0.0,0.0,0.0,1.0,2
2025/04/09 10:24:54.605587065,1744187094,604406787,mA1/gps,0,1,63.43460436898773,10.393091225326064,0.0,1.4400000000000002e-10,0.0,0.0,0.0,1.4400000000000002e-10,0.0,0.0,0.0,1.0,2
2025/04/09 10:24:54.655844492,1744187094,654189912,mA1/gps,0,1,63.43460450257306,10.393091229284765,0.0,1.4400000000000002e-10,0.0,0.0,0.0,1.4400000000000002e-10,0.0,0.0,0.0,1.0,2
2025/04/09 10:24:54.707307354,1744187094,705308645,mA1/gps,0,1,63.434604638055156,10.393091238957968,0.0,1.4400000000000002e-10,0.0,0.0,0.0,1.4400000000000002e-10,0.0,0.0,0.0,1.0,2
2025/04/09 10:24:54.755689759,1744187094,755029790,mA1/gps,0,1,63.43460477381319,10.393091253121533,0.0,1.4400000000000002e-10,0.0,0.0,0.0,1.4400000000000002e-10,0.0,0.0,0.0,1.0,2
2025/04/09 10:24:54.807981421,1744187094,806042481,mA1/gps,0,1,63.43460491062462,10.393091272074598,0.0,1.4400000000000002e-10,0.0,0.0,0.0,1.4400000000000002e-10,0.0,0.0,0.0,1.0,2
2025/04/09 10:24:54.859882444,1744187094,855935963,mA1/gps,0,1,63.43460504802241,10.393091294545338,0.0,1.4400000000000002e-10,0.0,0.0,0.0,1.4400000000000002e-10,0.0,0.0,0.0,1.0,2
2025/04/09 10:24:54.898014371,1744187094,896660393,mA1/gps,0,1,63.43460518484443,10.393091321979684,0.0,1.4400000000000002e-10,0.0,0.0,0.0,1.4400000000000002e-10,0.0,0.0,0.0,1.0,2
2025/04/09 10:24:54.947864516,1744187094,946593159,mA1/gps,0,1,63.434605322516475,10.393091350831497,0.0,1.4400000000000002e-10,0.0,0.0,0.0,1.4400000000000002e-10,0.0,0.0,0.0,1.0,2
2025/04/09 10:24:54.999433235,1744187094,997900674,mA1/gps,0,1,63.434605458316746,10.393091378460717,0.0,1.4400000000000002e-10,0.0,0.0,0.0,1.4400000000000002e-10,0.0,0.0,0.0,1.0,2
2025/04/09 10:24:55.49369856,1744187095,47410187,mA1/gps,0,1,63.434605594268994,10.393091402166037,0.0,1.4400000000000002e-10,0.0,0.0,0.0,1.4400000000000002e-10,0.0,0.0,0.0,1.0,2
2025/04/09 10:24:55.99212570,1744187095,98367686,mA1/gps,0,1,63.43460572811664,10.393091420346547,0.0,1.4400000000000002e-10,0.0,0.0,0.0,1.4400000000000002e-10,0.0,0.0,0.0,1.0,2
2025/04/09 10:24:55.148645550,1744187095,148115315,mA1/gps,0,1,63.43460586136254,10.393091431281285,0.0,1.4400000000000002e-10,0.0,0.0,0.0,1.4400000000000002e-10,0.0,0.0,0.0,1.0,2
2025/04/09 10:24:55.202878929,1744187095,199158417,mA1/gps,0,1,63.43460599279258,10.393091432369024,0.0,1.4400000000000002e-10,0.0,0.0,0.0,1.4400000000000002e-10,0.0,0.0,0.0,1.0,2
2025/04/09 10:24:55.249449753,1744187095,248939590,mA1/gps,0,1,63.43460612316843,10.393091424659982,0.0,1.4400000000000002e-10,0.0,0.0,0.0,1.4400000000000002e-10,0.0,0.0,0.0,1.0,2
2025/04/09 10:24:55.302517728,1744187095,300111977,mA1/gps,0,1,63.4346062526288,10.393091411313529,0.0,1.4400000000000002e-10,0.0,0.0,0.0,1.4400000000000002e-10,0.0,0.0,0.0,1.0,2
2025/04/09 10:24:55.350625677,1744187095,349827178,mA1/gps,0,1,63.43460638126601,10.393091392486015,0.0,1.4400000000000002e-10,0.0,0.0,0.0,1.4400000000000002e-10,0.0,0.0,0.0,1.0,2
2025/04/09 10:24:55.403921614,1744187095,400832507,mA1/gps,0,1,63.43460650958568,10.393091368089056,0.0,1.4400000000000002e-10,0.0,0.0,0.0,1.4400000000000002e-10,0.0,0.0,0.0,1.0,2
2025/04/09 10:24:55.451477096,1744187095,450602125,mA1/gps,0,1,63.43460663698565,10.393091340813115,0.0,1.4400000000000002e-10,0.0,0.0,0.0,1.4400000000000002e-10,0.0,0.0,0.0,1.0,2
2025/04/09 10:24:55.503715054,1744187095,503010633,mA1/gps,0,1,63.43460676317454,10.393091310678466,0.0,1.4400000000000002e-10,0.0,0.0,0.0,1.4400000000000002e-10,0.0,0.0,0.0,1.0,2
2025/04/09 10:24:55.554105000,1744187095,553142602,mA1/gps,0,1,63.434606889334425,10.393091280941963,0.0,1.4400000000000002e-10,0.0,0.0,0.0,1.4400000000000002e-10,0.0,0.0,0.0,1.0,2
2025/04/09 10:24:55.606182860,1744187095,604415551,mA1/gps,0,1,63.434607016961266,10.393091250887988,0.0,1.4400000000000002e-10,0.0,0.0,0.0,1.4400000000000002e-10,0.0,0.0,0.0,1.0,2
2025/04/09 10:24:55.654837325,1744187095,654199863,mA1/gps,0,1,63.434607146552324,10.39309122457219,0.0,1.4400000000000002e-10,0.0,0.0,0.0,1.4400000000000002e-10,0.0,0.0,0.0,1.0,2
2025/04/09 10:24:55.708927891,1744187095,705298445,mA1/gps,0,1,63.4346072772102,10.393091202967772,0.0,1.4400000000000002e-10,0.0,0.0,0.0,1.4400000000000002e-10,0.0,0.0,0.0,1.0,2
2025/04/09 10:24:55.755655038,1744187095,755057198,mA1/gps,0,1,63.434607408656255,10.393091187716783,0.0,1.4400000000000002e-10,0.0,0.0,0.0,1.4400000000000002e-10,0.0,0.0,0.0,1.0,2
2025/04/09 10:24:55.810729803,1744187095,806098069,mA1/gps,0,1,63.43460754055186,10.393091181878987,0.0,1.4400000000000002e-10,0.0,0.0,0.0,1.4400000000000002e-10,0.0,0.0,0.0,1.0,2
2025/04/09 10:24:55.846977991,1744187095,846009784,mA1/gps,0,1,63.43460767576678,10.393091184176782,0.0,1.4400000000000002e-10,0.0,0.0,0.0,1.4400000000000002e-10,0.0,0.0,0.0,1.0,2
2025/04/09 10:24:55.897694694,1744187095,896961132,mA1/gps,0,1,63.43460781244595,10.39309119184177,0.0,1.4400000000000002e-10,0.0,0.0,0.0,1.4400000000000002e-10,0.0,0.0,0.0,1.0,2
2025/04/09 10:24:55.948116448,1744187095,946837055,mA1/gps,0,1,63.43460795141779,10.393091205984662,0.0,1.4400000000000002e-10,0.0,0.0,0.0,1.4400000000000002e-10,0.0,0.0,0.0,1.0,2
2025/04/09 10:24:55.998246065,1744187095,997707298,mA1/gps,0,1,63.434608092022145,10.393091221604239,0.0,1.4400000000000002e-10,0.0,0.0,0.0,1.4400000000000002e-10,0.0,0.0,0.0,1.0,2
2025/04/09 10:24:56.50473463,1744187096,47737633,mA1/gps,0,1,63.434608234130685,10.393091238927482,0.0,1.4400000000000002e-10,0.0,0.0,0.0,1.4400000000000002e-10,0.0,0.0,0.0,1.0,2
2025/04/09 10:24:56.101133524,1744187096,99741551,mA1/gps,0,1,63.43460837788502,10.393091258508738,0.0,1.4400000000000002e-10,0.0,0.0,0.0,1.4400000000000002e-10,0.0,0.0,0.0,1.0,2
2025/04/09 10:24:56.149458582,1744187096,148541167,mA1/gps,0,1,63.43460852305827,10.393091279919686,0.0,1.4400000000000002e-10,0.0,0.0,0.0,1.4400000000000002e-10,0.0,0.0,0.0,1.0,2
2025/04/09 10:24:56.201909683,1744187096,199721548,mA1/gps,0,1,63.434608669019305,10.393091303267362,0.0,1.4400000000000002e-10,0.0,0.0,0.0,1.4400000000000002e-10,0.0,0.0,0.0,1.0,2
2025/04/09 10:24:56.250267320,1744187096,249381538,mA1/gps,0,1,63.43460881736732,10.39309132511506,0.0,1.4400000000000002e-10,0.0,0.0,0.0,1.4400000000000002e-10,0.0,0.0,0.0,1.0,2
2025/04/09 10:24:56.302926002,1744187096,301247270,mA1/gps,0,1,63.434608965593476,10.393091346264361,0.0,1.4400000000000002e-10,0.0,0.0,0.0,1.4400000000000002e-10,0.0,0.0,0.0,1.0,2
2025/04/09 10:24:56.352311255,1744187096,351044452,mA1/gps,0,1,63.4346091133833,10.393091363465901,0.0,1.4400000000000002e-10,0.0,0.0,0.0,1.4400000000000002e-10,0.0,0.0,0.0,1.0,2
2025/04/09 10:24:56.403788124,1744187096,402009493,mA1/gps,0,1,63.434609260393664,10.393091375524595,0.0,1.4400000000000002e-10,0.0,0.0,0.0,1.4400000000000002e-10,0.0,0.0,0.0,1.0,2
2025/04/09 10:24:56.452751166,1744187096,451763834,mA1/gps,0,1,63.43460940832001,10.39309138138073,0.0,1.4400000000000002e-10,0.0,0.0,0.0,1.4400000000000002e-10,0.0,0.0,0.0,1.0,2
2025/04/09 10:24:56.503987223,1744187096,502808126,mA1/gps,0,1,63.434609555287864,10.393091382145418,0.0,1.4400000000000002e-10,0.0,0.0,0.0,1.4400000000000002e-10,0.0,0.0,0.0,1.0,2
2025/04/09 10:24:56.554640161,1744187096,552890198,mA1/gps,0,1,63.43460969920277,10.393091377472857,0.0,1.4400000000000002e-10,0.0,0.0,0.0,1.4400000000000002e-10,0.0,0.0,0.0,1.0,2
2025/04/09 10:24:56.607686963,1744187096,603879923,mA1/gps,0,1,63.43460984304854,10.393091367011241,0.0,1.4400000000000002e-10,0.0,0.0,0.0,1.4400000000000002e-10,0.0,0.0,0.0,1.0,2
2025/04/09 10:24:56.654412245,1744187096,653634537,mA1/gps,0,1,63.43460998717546,10.393091350154815,0.0,1.4400000000000002e-10,0.0,0.0,0.0,1.4400000000000002e-10,0.0,0.0,0.0,1.0,2
2025/04/09 10:24:56.706945578,1744187096,705380534,mA1/gps,0,1,63.43461012819226,10.393091327901525,0.0,1.4400000000000002e-10,0.0,0.0,0.0,1.4400000000000002e-10,0.0,0.0,0.0,1.0,2
2025/04/09 10:24:56.755367460,1744187096,754434846,mA1/gps,0,1,63.43461026829835,10.393091301968141,0.0,1.4400000000000002e-10,0.0,0.0,0.0,1.4400000000000002e-10,0.0,0.0,0.0,1.0,2
2025/04/09 10:24:56.807295214,1744187096,806237802,mA1/gps,0,1,63.434610407525895,10.39309127352462,0.0,1.4400000000000002e-10,0.0,0.0,0.0,1.4400000000000002e-10,0.0,0.0,0.0,1.0,2
2025/04/09 10:24:56.856302127,1744187096,855414408,mA1/gps,0,1,63.434610545015595,10.393091245402909,0.0,1.4400000000000002e-10,0.0,0.0,0.0,1.4400000000000002e-10,0.0,0.0,0.0,1.0,2
2025/04/09 10:24:56.909207346,1744187096,907111196,mA1/gps,0,1,63.43461068407675,10.393091217231582,0.0,1.4400000000000002e-10,0.0,0.0,0.0,1.4400000000000002e-10,0.0,0.0,0.0,1.0,2
2025/04/09 10:24:56.947366984,1744187096,946819833,mA1/gps,0,1,63.43461082285449,10.39309119249439,0.0,1.4400000000000002e-10,0.0,0.0,0.0,1.4400000000000002e-10,0.0,0.0,0.0,1.0,2
2025/04/09 10:24:56.998478593,1744187096,997739213,mA1/gps,0,1,63.434610960971554,10.39309117206302,0.0,1.4400000000000002e-10,0.0,0.0,0.0,1.4400000000000002e-10,0.0,0.0,0.0,1.0,2
2025/04/09 10:24:57.48499754,1744187097,47713862,mA1/gps,0,1,63.434611098139904,10.393091158096512,0.0,1.4400000000000002e-10,0.0,0.0,0.0,1.4400000000000002e-10,0.0,0.0,0.0,1.0,2
2025/04/09 10:24:57.99363049,1744187097,98573421,mA1/gps,0,1,63.434611237462704,10.393091151186539,0.0,1.4400000000000002e-10,0.0,0.0,0.0,1.4400000000000002e-10,0.0,0.0,0.0,1.0,2
2025/04/09 10:24:57.150938437,1744187097,148516624,mA1/gps,0,1,63.43461137766706,10.393091151813445,0.0,1.4400000000000002e-10,0.0,0.0,0.0,1.4400000000000002e-10,0.0,0.0,0.0,1.0,2
2025/04/09 10:24:57.200637530,1744187097,199399679,mA1/gps,0,1,63.434611519643646,10.393091157068756,0.0,1.4400000000000002e-10,0.0,0.0,0.0,1.4400000000000002e-10,0.0,0.0,0.0,1.0,2
2025/04/09 10:24:57.250646391,1744187097,249271884,mA1/gps,0,1,63.434611662747635,10.393091169280844,0.0,1.4400000000000002e-10,0.0,0.0,0.0,1.4400000000000002e-10,0.0,0.0,0.0,1.0,2
2025/04/09 10:24:57.302309951,1744187097,301480294,mA1/gps,0,1,63.434611807876,10.393091185597639,0.0,1.4400000000000002e-10,0.0,0.0,0.0,1.4400000000000002e-10,0.0,0.0,0.0,1.0,2
2025/04/09 10:24:57.352047153,1744187097,351307296,mA1/gps,0,1,63.43461195500245,10.393091206510361,0.0,1.4400000000000002e-10,0.0,0.0,0.0,1.4400000000000002e-10,0.0,0.0,0.0,1.0,2
2025/04/09 10:24:57.404257793,1744187097,403296681,mA1/gps,0,1,63.434612103317185,10.393091232735804,0.0,1.4400000000000002e-10,0.0,0.0,0.0,1.4400000000000002e-10,0.0,0.0,0.0,1.0,2
2025/04/09 10:24:57.454108858,1744187097,453051575,mA1/gps,0,1,63.43461225616227,10.393091262058832,0.0,1.4400000000000002e-10,0.0,0.0,0.0,1.4400000000000002e-10,0.0,0.0,0.0,1.0,2
2025/04/09 10:24:57.507517702,1744187097,504022046,mA1/gps,0,1,63.43461240706769,10.393091289026335,0.0,1.4400000000000002e-10,0.0,0.0,0.0,1.4400000000000002e-10,0.0,0.0,0.0,1.0,2
2025/04/09 10:24:57.556232778,1744187097,555223668,mA1/gps,0,1,63.43461256248842,10.393091314838006,0.0,1.4400000000000002e-10,0.0,0.0,0.0,1.4400000000000002e-10,0.0,0.0,0.0,1.0,2
2025/04/09 10:24:57.607483448,1744187097,606220040,mA1/gps,0,1,63.43461271755988,10.393091338895319,0.0,1.4400000000000002e-10,0.0,0.0,0.0,1.4400000000000002e-10,0.0,0.0,0.0,1.0,2
2025/04/09 10:24:57.647158708,1744187097,646034849,mA1/gps,0,1,63.434612874445605,10.393091358223412,0.0,1.4400000000000002e-10,0.0,0.0,0.0,1.4400000000000002e-10,0.0,0.0,0.0,1.0,2
2025/04/09 10:24:57.698475131,1744187097,697035771,mA1/gps,0,1,63.43461303160012,10.393091372302793,0.0,1.4400000000000002e-10,0.0,0.0,0.0,1.4400000000000002e-10,0.0,0.0,0.0,1.0,2
2025/04/09 10:24:57.748280825,1744187097,746935678,mA1/gps,0,1,63.43461318964643,10.393091379463723,0.0,1.4400000000000002e-10,0.0,0.0,0.0,1.4400000000000002e-10,0.0,0.0,0.0,1.0,2
2025/04/09 10:24:57.798550330,1744187097,797998231,mA1/gps,0,1,63.43461334811223,10.393091380758783,0.0,1.4400000000000002e-10,0.0,0.0,0.0,1.4400000000000002e-10,0.0,0.0,0.0,1.0,2
2025/04/09 10:24:57.849582292,1744187097,848856652,mA1/gps,0,1,63.43461350560298,10.393091375333897,0.0,1.4400000000000002e-10,0.0,0.0,0.0,1.4400000000000002e-10,0.0,0.0,0.0,1.0,2
2025/04/09 10:24:57.900613607,1744187097,899957878,mA1/gps,0,1,63.43461366348907,10.393091363634229,0.0,1.4400000000000002e-10,0.0,0.0,0.0,1.4400000000000002e-10,0.0,0.0,0.0,1.0,2
2025/04/09 10:24:57.951120461,1744187097,950190897,mA1/gps,0,1,63.434613819856345,10.393091345749168,0.0,1.4400000000000002e-10,0.0,0.0,0.0,1.4400000000000002e-10,0.0,0.0,0.0,1.0,2
2025/04/09 10:24:58.2988906,1744187098,1188601,mA1/gps,0,1,63.434613976109745,10.393091321857133,0.0,1.4400000000000002e-10,0.0,0.0,0.0,1.4400000000000002e-10,0.0,0.0,0.0,1.0,2
2025/04/09 10:24:58.52599252,1744187098,51133469,mA1/gps,0,1,63.43461413048627,10.393091295133836,0.0,1.4400000000000002e-10,0.0,0.0,0.0,1.4400000000000002e-10,0.0,0.0,0.0,1.0,2
2025/04/09 10:24:58.104153560,1744187098,102031292,mA1/gps,0,1,63.43461428480137,10.393091267335562,0.0,1.4400000000000002e-10,0.0,0.0,0.0,1.4400000000000002e-10,0.0,0.0,0.0,1.0,2
2025/04/09 10:24:58.152471422,1744187098,151777375,mA1/gps,0,1,63.43461443700603,10.393091240212643,0.0,1.4400000000000002e-10,0.0,0.0,0.0,1.4400000000000002e-10,0.0,0.0,0.0,1.0,2
2025/04/09 10:24:58.204459526,1744187098,202813250,mA1/gps,0,1,63.43461458934369,10.393091214311612,0.0,1.4400000000000002e-10,0.0,0.0,0.0,1.4400000000000002e-10,0.0,0.0,0.0,1.0,2
2025/04/09 10:24:58.254378942,1744187098,253095691,mA1/gps,0,1,63.434614740547815,10.393091191430809,0.0,1.4400000000000002e-10,0.0,0.0,0.0,1.4400000000000002e-10,0.0,0.0,0.0,1.0,2
2025/04/09 10:24:58.305043958,1744187098,304019160,mA1/gps,0,1,63.43461489063251,10.393091171429115,0.0,1.4400000000000002e-10,0.0,0.0,0.0,1.4400000000000002e-10,0.0,0.0,0.0,1.0,2
2025/04/09 10:24:58.356669054,1744187098,353928175,mA1/gps,0,1,63.43461504082448,10.393091156784424,0.0,1.4400000000000002e-10,0.0,0.0,0.0,1.4400000000000002e-10,0.0,0.0,0.0,1.0,2
2025/04/09 10:24:58.405735072,1744187098,404852292,mA1/gps,0,1,63.434615191019105,10.393091149283965,0.0,1.4400000000000002e-10,0.0,0.0,0.0,1.4400000000000002e-10,0.0,0.0,0.0,1.0,2
2025/04/09 10:24:58.455494407,1744187098,454663827,mA1/gps,0,1,63.434615341117215,10.39309114880014,0.0,1.4400000000000002e-10,0.0,0.0,0.0,1.4400000000000002e-10,0.0,0.0,0.0,1.0,2
2025/04/09 10:24:58.509378691,1744187098,505670647,mA1/gps,0,1,63.43461549088436,10.393091152391673,0.0,1.4400000000000002e-10,0.0,0.0,0.0,1.4400000000000002e-10,0.0,0.0,0.0,1.0,2
2025/04/09 10:24:58.555931521,1744187098,555412389,mA1/gps,0,1,63.43461564148383,10.393091162755281,0.0,1.4400000000000002e-10,0.0,0.0,0.0,1.4400000000000002e-10,0.0,0.0,0.0,1.0,2
2025/04/09 10:24:58.598851537,1744187098,596598558,mA1/gps,0,1,63.43461579359165,10.393091179637846,0.0,1.4400000000000002e-10,0.0,0.0,0.0,1.4400000000000002e-10,0.0,0.0,0.0,1.0,2
2025/04/09 10:24:58.647256676,1744187098,646426139,mA1/gps,0,1,63.43461594825412,10.393091200695915,0.0,1.4400000000000002e-10,0.0,0.0,0.0,1.4400000000000002e-10,0.0,0.0,0.0,1.0,2
2025/04/09 10:24:58.698335270,1744187098,697433611,mA1/gps,0,1,63.43461610361444,10.393091223812542,0.0,1.4400000000000002e-10,0.0,0.0,0.0,1.4400000000000002e-10,0.0,0.0,0.0,1.0,2
2025/04/09 10:24:58.748458759,1744187098,747235694,mA1/gps,0,1,63.43461626010615,10.393091249214324,0.0,1.4400000000000002e-10,0.0,0.0,0.0,1.4400000000000002e-10,0.0,0.0,0.0,1.0,2
2025/04/09 10:24:58.799179626,1744187098,798212040,mA1/gps,0,1,63.43461641874503,10.393091275869413,0.0,1.4400000000000002e-10,0.0,0.0,0.0,1.4400000000000002e-10,0.0,0.0,0.0,1.0,2
2025/04/09 10:24:58.848685992,1744187098,848017862,mA1/gps,0,1,63.43461657889694,10.393091300764953,0.0,1.4400000000000002e-10,0.0,0.0,0.0,1.4400000000000002e-10,0.0,0.0,0.0,1.0,2
2025/04/09 10:24:58.899907976,1744187098,899131824,mA1/gps,0,1,63.434616740111196,10.393091322450116,0.0,1.4400000000000002e-10,0.0,0.0,0.0,1.4400000000000002e-10,0.0,0.0,0.0,1.0,2
2025/04/09 10:24:58.949322993,1744187098,948876129,mA1/gps,0,1,63.434616903059705,10.393091339207661,0.0,1.4400000000000002e-10,0.0,0.0,0.0,1.4400000000000002e-10,0.0,0.0,0.0,1.0,2
2025/04/09 10:24:59.643955,1744187098,999840214,mA1/gps,0,1,63.43461706803431,10.393091349596867,0.0,1.4400000000000002e-10,0.0,0.0,0.0,1.4400000000000002e-10,0.0,0.0,0.0,1.0,2
2025/04/09 10:24:59.50952958,1744187099,50223572,mA1/gps,0,1,63.434617236131,10.3930913552661,0.0,1.4400000000000002e-10,0.0,0.0,0.0,1.4400000000000002e-10,0.0,0.0,0.0,1.0,2
2025/04/09 10:24:59.102907901,1744187099,101107348,mA1/gps,0,1,63.43461740263064,10.393091353906252,0.0,1.4400000000000002e-10,0.0,0.0,0.0,1.4400000000000002e-10,0.0,0.0,0.0,1.0,2
2025/04/09 10:24:59.151672889,1744187099,150902651,mA1/gps,0,1,63.434617569990415,10.393091346850024,0.0,1.4400000000000002e-10,0.0,0.0,0.0,1.4400000000000002e-10,0.0,0.0,0.0,1.0,2
2025/04/09 10:24:59.206148324,1744187099,201874586,mA1/gps,0,1,63.43461773819399,10.393091333837994,0.0,1.4400000000000002e-10,0.0,0.0,0.0,1.4400000000000002e-10,0.0,0.0,0.0,1.0,2
2025/04/09 10:24:59.252600120,1744187099,251672602,mA1/gps,0,1,63.43461790582529,10.393091317288684,0.0,1.4400000000000002e-10,0.0,0.0,0.0,1.4400000000000002e-10,0.0,0.0,0.0,1.0,2
2025/04/09 10:24:59.306231750,1744187099,304557413,mA1/gps,0,1,63.43461807306027,10.393091296622362,0.0,1.4400000000000002e-10,0.0,0.0,0.0,1.4400000000000002e-10,0.0,0.0,0.0,1.0,2
2025/04/09 10:24:59.356726215,1744187099,355248969,mA1/gps,0,1,63.43461824049047,10.393091272503959,0.0,1.4400000000000002e-10,0.0,0.0,0.0,1.4400000000000002e-10,0.0,0.0,0.0,1.0,2
2025/04/09 10:24:59.408079494,1744187099,406249850,mA1/gps,0,1,63.434618406327985,10.393091247935168,0.0,1.4400000000000002e-10,0.0,0.0,0.0,1.4400000000000002e-10,0.0,0.0,0.0,1.0,2
2025/04/09 10:24:59.447185433,1744187099,446037044,mA1/gps,0,1,63.43461857037803,10.393091222594617,0.0,1.4400000000000002e-10,0.0,0.0,0.0,1.4400000000000002e-10,0.0,0.0,0.0,1.0,2
2025/04/09 10:24:59.497942689,1744187099,496953290,mA1/gps,0,1,63.4346187327787,10.39309119960158,0.0,1.4400000000000002e-10,0.0,0.0,0.0,1.4400000000000002e-10,0.0,0.0,0.0,1.0,2
2025/04/09 10:24:59.547595045,1744187099,546779027,mA1/gps,0,1,63.43461889428599,10.39309118048979,0.0,1.4400000000000002e-10,0.0,0.0,0.0,1.4400000000000002e-10,0.0,0.0,0.0,1.0,2
2025/04/09 10:24:59.598419410,1744187099,597747653,mA1/gps,0,1,63.434619053285786,10.393091166197841,0.0,1.4400000000000002e-10,0.0,0.0,0.0,1.4400000000000002e-10,0.0,0.0,0.0,1.0,2
2025/04/09 10:24:59.649497563,1744187099,647663108,mA1/gps,0,1,63.43461921013805,10.393091156889712,0.0,1.4400000000000002e-10,0.0,0.0,0.0,1.4400000000000002e-10,0.0,0.0,0.0,1.0,2
2025/04/09 10:24:59.700982700,1744187099,698631397,mA1/gps,0,1,63.434619365725965,10.3930911531293,0.0,1.4400000000000002e-10,0.0,0.0,0.0,1.4400000000000002e-10,0.0,0.0,0.0,1.0,2
2025/04/09 10:24:59.749960899,1744187099,748467325,mA1/gps,0,1,63.434619518722926,10.393091154880246,0.0,1.4400000000000002e-10,0.0,0.0,0.0,1.4400000000000002e-10,0.0,0.0,0.0,1.0,2
2025/04/09 10:24:59.801392618,1744187099,799385975,mA1/gps,0,1,63.43461966970778,10.393091163103177,0.0,1.4400000000000002e-10,0.0,0.0,0.0,1.4400000000000002e-10,0.0,0.0,0.0,1.0,2
2025/04/09 10:24:59.850131809,1744187099,849150675,mA1/gps,0,1,63.434619821211776,10.393091176227284,0.0,1.4400000000000002e-10,0.0,0.0,0.0,1.4400000000000002e-10,0.0,0.0,0.0,1.0,2
2025/04/09 10:24:59.900958121,1744187099,900106305,mA1/gps,0,1,63.43461996924766,10.393091193770164,0.0,1.4400000000000002e-10,0.0,0.0,0.0,1.4400000000000002e-10,0.0,0.0,0.0,1.0,2
2025/04/09 10:24:59.950956096,1744187099,950091326,mA1/gps,0,1,63.43462011648241,10.393091214541162,0.0,1.4400000000000002e-10,0.0,0.0,0.0,1.4400000000000002e-10,0.0,0.0,0.0,1.0,2
2025/04/09 10:25:00.2174504,1744187100,1088255,mA1/gps,0,1,63.4346202625198,10.393091239276268,0.0,1.4400000000000002e-10,0.0,0.0,0.0,1.4400000000000002e-10,0.0,0.0,0.0,1.0,2
2025/04/09 10:25:00.60838061,1744187100,56413193,mA1/gps,0,1,63.43462040769721,10.393091266035167,0.0,1.4400000000000002e-10,0.0,0.0,0.0,1.4400000000000002e-10,0.0,0.0,0.0,1.0,2
2025/04/09 10:25:00.98797691,1744187100,98009768,mA1/gps,0,1,63.43462055196281,10.393091291913377,0.0,1.4400000000000002e-10,0.0,0.0,0.0,1.4400000000000002e-10,0.0,0.0,0.0,1.0,2
2025/04/09 10:25:00.151746581,1744187100,147854462,mA1/gps,0,1,63.434620696432646,10.393091313308856,0.0,1.4400000000000002e-10,0.0,0.0,0.0,1.4400000000000002e-10,0.0,0.0,0.0,1.0,2
2025/04/09 10:25:00.199754877,1744187100,199113734,mA1/gps,0,1,63.434620841668284,10.393091329758253,0.0,1.4400000000000002e-10,0.0,0.0,0.0,1.4400000000000002e-10,0.0,0.0,0.0,1.0,2
2025/04/09 10:25:00.250935327,1744187100,249188622,mA1/gps,0,1,63.43462098689234,10.393091341239511,0.0,1.4400000000000002e-10,0.0,0.0,0.0,1.4400000000000002e-10,0.0,0.0,0.0,1.0,2
2025/04/09 10:25:00.302406491,1744187100,300077036,mA1/gps,0,1,63.43462113124462,10.393091348062681,0.0,1.4400000000000002e-10,0.0,0.0,0.0,1.4400000000000002e-10,0.0,0.0,0.0,1.0,2
2025/04/09 10:25:00.351227824,1744187100,349901626,mA1/gps,0,1,63.43462127659709,10.393091349939073,0.0,1.4400000000000002e-10,0.0,0.0,0.0,1.4400000000000002e-10,0.0,0.0,0.0,1.0,2
2025/04/09 10:25:00.401587938,1744187100,400801632,mA1/gps,0,1,63.43462142208417,10.393091348730547,0.0,1.4400000000000002e-10,0.0,0.0,0.0,1.4400000000000002e-10,0.0,0.0,0.0,1.0,2
2025/04/09 10:25:00.451472628,1744187100,450620497,mA1/gps,0,1,63.43462156778177,10.393091342622764,0.0,1.4400000000000002e-10,0.0,0.0,0.0,1.4400000000000002e-10,0.0,0.0,0.0,1.0,2
2025/04/09 10:25:00.503479161,1744187100,501576775,mA1/gps,0,1,63.43462171332698,10.3930913317204,0.0,1.4400000000000002e-10,0.0,0.0,0.0,1.4400000000000002e-10,0.0,0.0,0.0,1.0,2
2025/04/09 10:25:00.553635445,1744187100,553045557,mA1/gps,0,1,63.43462185861432,10.393091315575312,0.0,1.4400000000000002e-10,0.0,0.0,0.0,1.4400000000000002e-10,0.0,0.0,0.0,1.0,2
2025/04/09 10:25:00.604646477,1744187100,603807963,mA1/gps,0,1,63.434622004069645,10.393091297420323,0.0,1.4400000000000002e-10,0.0,0.0,0.0,1.4400000000000002e-10,0.0,0.0,0.0,1.0,2
2025/04/09 10:25:00.656161023,1744187100,654810897,mA1/gps,0,1,63.43462214911985,10.393091277487523,0.0,1.4400000000000002e-10,0.0,0.0,0.0,1.4400000000000002e-10,0.0,0.0,0.0,1.0,2
2025/04/09 10:25:00.705507296,1744187100,704692624,mA1/gps,0,1,63.43462229251451,10.393091258490061,0.0,1.4400000000000002e-10,0.0,0.0,0.0,1.4400000000000002e-10,0.0,0.0,0.0,1.0,2
2025/04/09 10:25:00.755303300,1744187100,754505123,mA1/gps,0,1,63.43462243502046,10.393091240771144,0.0,1.4400000000000002e-10,0.0,0.0,0.0,1.4400000000000002e-10,0.0,0.0,0.0,1.0,2
2025/04/09 10:25:00.806390495,1744187100,805468138,mA1/gps,0,1,63.43462257685564,10.393091225434672,0.0,1.4400000000000002e-10,0.0,0.0,0.0,1.4400000000000002e-10,0.0,0.0,0.0,1.0,2
2025/04/09 10:25:00.856317903,1744187100,855286340,mA1/gps,0,1,63.434622716587384,10.39309121389395,0.0,1.4400000000000002e-10,0.0,0.0,0.0,1.4400000000000002e-10,0.0,0.0,0.0,1.0,2
2025/04/09 10:25:00.907527601,1744187100,906279080,mA1/gps,0,1,63.43462285417364,10.393091206352771,0.0,1.4400000000000002e-10,0.0,0.0,0.0,1.4400000000000002e-10,0.0,0.0,0.0,1.0,2
2025/04/09 10:25:00.948791076,1744187100,946951480,mA1/gps,0,1,63.43462299084404,10.393091203232236,0.0,1.4400000000000002e-10,0.0,0.0,0.0,1.4400000000000002e-10,0.0,0.0,0.0,1.0,2
2025/04/09 10:25:00.997819280,1744187100,997164874,mA1/gps,0,1,63.434623123961124,10.393091203315976,0.0,1.4400000000000002e-10,0.0,0.0,0.0,1.4400000000000002e-10,0.0,0.0,0.0,1.0,2
2025/04/09 10:25:01.48162721,1744187101,47030313,mA1/gps,0,1,63.434623254810546,10.393091206989748,0.0,1.4400000000000002e-10,0.0,0.0,0.0,1.4400000000000002e-10,0.0,0.0,0.0,1.0,2
2025/04/09 10:25:01.99596380,1744187101,97922160,mA1/gps,0,1,63.434623383611154,10.39309121669994,0.0,1.4400000000000002e-10,0.0,0.0,0.0,1.4400000000000002e-10,0.0,0.0,0.0,1.0,2
2025/04/09 10:25:01.149528374,1744187101,147928124,mA1/gps,0,1,63.43462350906721,10.393091234944915,0.0,1.4400000000000002e-10,0.0,0.0,0.0,1.4400000000000002e-10,0.0,0.0,0.0,1.0,2
2025/04/09 10:25:01.199371200,1744187101,198772516,mA1/gps,0,1,63.43462363177922,10.393091255938641,0.0,1.4400000000000002e-10,0.0,0.0,0.0,1.4400000000000002e-10,0.0,0.0,0.0,1.0,2
2025/04/09 10:25:01.249947200,1744187101,248675410,mA1/gps,0,1,63.43462375366388,10.39309128023018,0.0,1.4400000000000002e-10,0.0,0.0,0.0,1.4400000000000002e-10,0.0,0.0,0.0,1.0,2
2025/04/09 10:25:01.304951552,1744187101,302762498,mA1/gps,0,1,63.434623870982385,10.393091304671302,0.0,1.4400000000000002e-10,0.0,0.0,0.0,1.4400000000000002e-10,0.0,0.0,0.0,1.0,2
2025/04/09 10:25:01.355344867,1744187101,353038167,mA1/gps,0,1,63.43462398646293,10.393091328707557,0.0,1.4400000000000002e-10,0.0,0.0,0.0,1.4400000000000002e-10,0.0,0.0,0.0,1.0,2
2025/04/09 10:25:01.409819553,1744187101,404551410,mA1/gps,0,1,63.4346241027819,10.3930913509025,0.0,1.4400000000000002e-10,0.0,0.0,0.0,1.4400000000000002e-10,0.0,0.0,0.0,1.0,2
2025/04/09 10:25:01.457353366,1744187101,454199846,mA1/gps,0,1,63.43462421445734,10.393091370903079,0.0,1.4400000000000002e-10,0.0,0.0,0.0,1.4400000000000002e-10,0.0,0.0,0.0,1.0,2
2025/04/09 10:25:01.506495845,1744187101,505308222,mA1/gps,0,1,63.4346243255921,10.393091386943247,0.0,1.4400000000000002e-10,0.0,0.0,0.0,1.4400000000000002e-10,0.0,0.0,0.0,1.0,2
2025/04/09 10:25:01.549209663,1744187101,546933115,mA1/gps,0,1,63.43462443494915,10.393091400451,0.0,1.4400000000000002e-10,0.0,0.0,0.0,1.4400000000000002e-10,0.0,0.0,0.0,1.0,2
2025/04/09 10:25:01.598321842,1744187101,597323529,mA1/gps,0,1,63.43462454421064,10.393091409692143,0.0,1.4400000000000002e-10,0.0,0.0,0.0,1.4400000000000002e-10,0.0,0.0,0.0,1.0,2
2025/04/09 10:25:01.647617491,1744187101,647101221,mA1/gps,0,1,63.43462465203482,10.393091415830975,0.0,1.4400000000000002e-10,0.0,0.0,0.0,1.4400000000000002e-10,0.0,0.0,0.0,1.0,2
2025/04/09 10:25:01.699558583,1744187101,698206024,mA1/gps,0,1,63.434624759513795,10.393091416213688,0.0,1.4400000000000002e-10,0.0,0.0,0.0,1.4400000000000002e-10,0.0,0.0,0.0,1.0,2
2025/04/09 10:25:01.749638240,1744187101,747908764,mA1/gps,0,1,63.43462486707435,10.393091413304045,0.0,1.4400000000000002e-10,0.0,0.0,0.0,1.4400000000000002e-10,0.0,0.0,0.0,1.0,2
2025/04/09 10:25:01.801601231,1744187101,800401925,mA1/gps,0,1,63.4346249745551,10.39309140655376,0.0,1.4400000000000002e-10,0.0,0.0,0.0,1.4400000000000002e-10,0.0,0.0,0.0,1.0,2
2025/04/09 10:25:01.850872429,1744187101,849545002,mA1/gps,0,1,63.43462508140669,10.39309139654532,0.0,1.4400000000000002e-10,0.0,0.0,0.0,1.4400000000000002e-10,0.0,0.0,0.0,1.0,2
2025/04/09 10:25:01.902389807,1744187101,900450858,mA1/gps,0,1,63.434625187537584,10.393091384432617,0.0,1.4400000000000002e-10,0.0,0.0,0.0,1.4400000000000002e-10,0.0,0.0,0.0,1.0,2
