time,header_stamp_secs,header_stamp_nsecs,header_frame_id,quaternion_x,quaternion_y,quaternion_z,quaternion_w
2025/04/09 10:24:45.466876019,1744187085,466747129,,-0.00038329561496354864,-0.0001126018426642752,0.004529949836118894,0.9999896599264309
2025/04/09 10:24:45.557943125,1744187085,557697191,,-0.0003823359511190126,-2.4561737559574546e-05,0.00450045940820795,0.9999897994885031
2025/04/09 10:24:45.661811804,1744187085,660929707,,-0.00038594270283553544,5.849412365295675e-05,0.004470942267573583,0.9999899291002423
2025/04/09 10:24:45.761339199,1744187085,760107692,,-0.00039047607573375375,0.00012842652385298576,0.004441716832249105,0.9999900510438313
2025/04/09 10:24:45.860581978,1744187085,860310269,,-0.00039249512507433324,0.00017631965181594378,0.0044128259848361774,0.9999901708645864
2025/04/09 10:24:45.967786826,1744187085,965967105,,-0.0003938327682994262,0.00018982968965718631,0.0043841284229102755,0.9999902940921032
2025/04/09 10:24:46.58089066,1744187086,57915758,,-0.0003963082646444171,0.00016918199279174773,0.004355600984212423,0.9999904214827655
2025/04/09 10:24:46.161855296,1744187086,161522535,,-0.0004026903856426621,0.00010918540157296992,0.004327467665255499,0.9999905494266471
2025/04/09 10:24:46.265705701,1744187086,264588368,,-0.00040825686499625937,3.493320327643282e-05,0.004299538050427765,0.9999906729957817
2025/04/09 10:24:46.364827536,1744187086,363123580,,-0.00040538306338877875,-5.566690192105244e-05,0.004271771104028026,0.9999907922263098
2025/04/09 10:24:46.464801054,1744187086,464562763,,-0.0004067800745141887,-0.00012889826952472205,0.004245673605848593,0.9999908960439788
2025/04/09 10:24:46.566284436,1744187086,565033629,,-0.0004026604723997196,-0.00017948273674655,0.004217811059098189,0.9999910078197508
2025/04/09 10:24:46.666312037,1744187086,665780371,,-0.00039398643727618947,-0.0002104146957578245,0.004190045593037382,0.999991121969726
2025/04/09 10:24:46.767099243,1744187086,766540924,,-0.0003846505112853503,-0.00018965548171321654,0.004162459851542722,0.999991244963058
2025/04/09 10:24:46.859830318,1744187086,858116009,,-0.0003830999868770523,-0.00015575754405924245,0.004135741062911916,0.9999913622726189
2025/04/09 10:24:46.958213389,1744187086,958017732,,-0.0003761204548194703,-7.953219254960698e-05,0.0041070147412290755,0.999991492282784
2025/04/09 10:24:47.59126958,1744187087,58862830,,-0.00037155000188242873,-8.263512846140386e-06,0.004078431898300579,0.999991614102619
2025/04/09 10:24:47.160475960,1744187087,160170120,,-0.00036844981129718066,7.829062668394914e-05,0.004049937880192366,0.9999917280250277
2025/04/09 10:24:47.263867409,1744187087,262565082,,-0.00037065668188393514,0.0001312393699877344,0.00402156736676477,0.9999918361595591
2025/04/09 10:24:47.365395536,1744187087,365170943,,-0.00037487062637396156,0.0001743274962865634,0.003993129206631219,0.9999919419680724
2025/04/09 10:24:47.466170929,1744187087,465954842,,-0.00039408862182539544,0.00016724343469435684,0.003965816059019757,0.9999920444817437
2025/04/09 10:24:47.558216578,1744187087,557873010,,-0.00042017016542245653,0.0001444963932599866,0.003937122239718513,0.9999921507923419
2025/04/09 10:24:47.659193142,1744187087,658968587,,-0.0004525346629112791,8.007546676077849e-05,0.003909559579502972,0.999992252042081
2025/04/09 10:24:47.760527949,1744187087,760030995,,-0.00047626876624451745,1.4149412119868994e-05,0.003880867684461945,0.9999923558877198
2025/04/09 10:24:47.862327355,1744187087,862045713,,-0.0004923270790430509,-7.361941665370542e-05,0.0038536016098957774,0.9999924509459364
2025/04/09 10:24:47.962663816,1744187087,961570918,,-0.00048220801682041835,-0.00013186664879540858,0.003825153642072805,0.9999925591154316
2025/04/09 10:24:48.62921038,1744187088,62682606,,-0.0004607818296172794,-0.00018429603450030037,0.0037979461681272855,0.9999926646330868
2025/04/09 10:24:48.164278823,1744187088,163952469,,-0.0004193265493820101,-0.0001891025064607394,0.0037694956532471364,0.9999927896280089
2025/04/09 10:24:48.266621244,1744187088,265276205,,-0.0003707518106494484,-0.00017904469824332728,0.003741430017833919,0.9999929160686652
2025/04/09 10:24:48.358568775,1744187088,358319428,,-0.00032275338148718007,-0.0001231189259950869,0.0037137420541288324,0.9999930443717797
2025/04/09 10:24:48.459223022,1744187088,458779179,,-0.00029045419171672994,-6.521857684898748e-05,0.003686458946230866,0.9999931606782806
2025/04/09 10:24:48.560540601,1744187088,560395246,,-0.00027745555478998855,1.773828368503832e-05,0.0036594842876032695,0.9999932654165813
2025/04/09 10:24:48.662867496,1744187088,662720039,,-0.00029359264449767595,7.700415377967227e-05,0.0036328917302377805,0.9999933549636196
2025/04/09 10:24:48.765764612,1744187088,765077576,,-0.00032858183477743814,0.000137347962814909,0.0036065873889411064,0.9999934328268966
2025/04/09 10:24:48.867789081,1744187088,867536856,,-0.0003870930224534331,0.0001547311018229922,0.0035815994267349295,0.9999934991602818
2025/04/09 10:24:48.958436261,1744187088,958305531,,-0.00045158316343186876,0.00016018645301504414,0.003555397211376714,0.9999935647611019
2025/04/09 10:24:49.60265962,1744187089,58743086,,-0.000512616658814603,0.00011780334472437396,0.003530497169122858,0.999993629447844
2025/04/09 10:24:49.160241623,1744187089,159730976,,-0.0005494260771655089,7.097879874080784e-05,0.003504413270518918,0.9999937060705059
2025/04/09 10:24:49.263910293,1744187089,262361090,,-0.0005440393422569765,2.984249443981408e-05,0.0034794961977679477,0.9999937980991829
2025/04/09 10:24:49.363993373,1744187089,363851181,,-0.0005007588761933335,7.591598767968364e-05,0.003461427625412315,0.9999938809793312
2025/04/09 10:24:49.464495143,1744187089,464209583,,-0.0004195129974864193,0.00021683334979837095,0.0034372107602838307,0.9999939812690538
2025/04/09 10:24:49.566497301,1744187089,564919587,,-0.00039590087006043036,0.00048054017234944716,0.003465056021569756,0.9999938028460033
2025/04/09 10:24:49.666784687,1744187089,665732709,,-0.00035790328808595864,0.0007824893742163254,0.0035085822139767865,0.999993474711942
2025/04/09 10:24:49.767387233,1744187089,767055305,,-0.0002849179680231267,0.0010771779431611023,0.0035480367767692558,0.9999930849483215
2025/04/09 10:24:49.859453449,1744187089,858551966,,-9.957314727713002e-05,0.0013151523763071803,0.003504342958879245,0.9999929899953509
2025/04/09 10:24:49.962077915,1744187089,961541872,,7.525979339750831e-05,0.0014279602122607017,0.0034201006632625006,0.9999931290649196
2025/04/09 10:24:50.62792341,1744187090,61697095,,0.00018500816708130874,0.0013934690378825036,0.0033030886926455993,0.9999935567897961
2025/04/09 10:24:50.163877041,1744187090,162239867,,0.00016652603900530006,0.001221895899845957,0.003182779579261214,0.9999941745598512
2025/04/09 10:24:50.263588379,1744187090,263246738,,2.213875166973182e-05,0.0009244971358167442,0.003063259578358282,0.9999948806147345
2025/04/09 10:24:50.364865036,1744187090,364673778,,-0.00020799608542392938,0.0005905957215375514,0.002943876246003842,0.9999954707532281
2025/04/09 10:24:50.466154816,1744187090,465948660,,-0.000459548126333249,0.0002475648842525274,0.002812855248837059,0.9999959076778748
2025/04/09 10:24:50.568274913,1744187090,566681866,,-0.0007146385472184282,-4.838307293319467e-05,0.0026975813718673855,0.9999961049951981
2025/04/09 10:24:50.658367688,1744187090,658143424,,-0.000841290195546359,-0.00021544370297829895,0.002538389985433013,0.9999964011890741
2025/04/09 10:24:50.759331216,1744187090,759057881,,-0.0009912158200101754,-0.0002768023478774698,0.0024578789424048926,0.9999964498450796
2025/04/09 10:24:50.860709120,1744187090,860402065,,-0.0010396321563410165,-0.00018959851235520692,0.0024196126340816195,0.9999965143399674
2025/04/09 10:24:50.963692540,1744187090,961996666,,-0.0009585903294325927,2.3556869191110833e-05,0.002421413588819293,0.9999966086471924
2025/04/09 10:24:51.64238366,1744187091,63100965,,-0.0007083659260489553,0.00032230638256866654,0.0024149978663808086,0.9999967810556272
2025/04/09 10:24:51.165679409,1744187091,163972441,,-0.0003648384577735091,0.0006497504891050457,0.0023921463962630002,0.9999968611714841
2025/04/09 10:24:51.265150593,1744187091,264796802,,-4.244956610204061e-05,0.0009397361721414275,0.00237231880912553,0.9999967435934124
2025/04/09 10:24:51.365797446,1744187091,365571628,,0.00021829369471127922,0.0011529307676750617,0.002326204928979268,0.9999966059288082
2025/04/09 10:24:51.467308022,1744187091,466954826,,0.00033484555139374496,0.001230758517895286,0.002250870378881134,0.9999966533416323
2025/04/09 10:24:51.557877026,1744187091,557728732,,0.00022646613949285304,0.0011637907455574088,0.0021951407208356017,0.9999968878258592
2025/04/09 10:24:51.658627207,1744187091,658413391,,9.293558267270036e-06,0.000959969596521028,0.0020944704020757214,0.9999973457793467
2025/04/09 10:24:51.759512340,1744187091,759299997,,-0.0003525751402235522,0.0006652481008986976,0.00201258775963308,0.9999976913104572
2025/04/09 10:24:51.861482938,1744187091,860398637,,-0.0007337324764798305,0.0003148019847092846,0.0019307103257079276,0.999997817444619
2025/04/09 10:24:51.961587166,1744187091,961163234,,-0.0010671624311523915,-2.4038303220023806e-05,0.0018771846719092403,0.9999976683793883
2025/04/09 10:24:52.62049813,1744187092,61721210,,-0.001213843601743663,-0.00028581274546051003,0.0018028868872612578,0.9999975972439418
2025/04/09 10:24:52.164742771,1744187092,163187416,,-0.001212082508075642,-0.00042690941516694835,0.0017644413603756246,0.9999976176726776
2025/04/09 10:24:52.264527606,1744187092,264333935,,-0.0010272631094338177,-0.00042787872336149264,0.0017469858490542706,0.9999978548430718
2025/04/09 10:24:52.365455139,1744187092,365046963,,-0.0006680242841795539,-0.00029658744714929113,0.001715076803396235,0.9999982621439901
2025/04/09 10:24:52.458732270,1744187092,457530644,,-0.0002342654031575369,-4.356910913491141e-05,0.0016598451960864345,0.999998594066701
2025/04/09 10:24:52.561370759,1744187092,559673654,,0.00013610969877029443,0.00026771426275636675,0.0016017981614421392,0.999998672022055
2025/04/09 10:24:52.661533054,1744187092,660407946,,0.0003595022842635191,0.0005700497296226338,0.0015497877805074694,0.9999985719786048
2025/04/09 10:24:52.761403631,1744187092,760918537,,0.00035797088633383563,0.0008324128959653385,0.0015319439013641288,0.9999984160454947
2025/04/09 10:24:52.862180038,1744187092,861914406,,0.0001824280448982498,0.0009898571307059866,0.00151805875243677,0.9999983411988709
2025/04/09 10:24:52.963385932,1744187092,963168122,,-0.00012460416188421242,0.001037916764651388,0.0015087751808949413,0.9999983153986041
2025/04/09 10:24:53.66495496,1744187093,66238791,,-0.0004984815449750065,0.0009383376590779355,0.0015115745105682824,0.9999982930890862
2025/04/09 10:24:53.169041459,1744187093,167532266,,-0.0008899627828637936,0.0007294463618812315,0.0015637464513786337,0.999998115283867
2025/04/09 10:24:53.260010483,1744187093,259718924,,-0.0011372922011763514,0.0004395555092527281,0.0016148511504082558,0.9999979528044872
2025/04/09 10:24:53.361222888,1744187093,360986591,,-0.0012011131975002037,0.0001087309307630684,0.0016711465143331536,0.9999978763847447
2025/04/09 10:24:53.464062879,1744187093,462531428,,-0.0010474388518992486,-0.00018022762595424236,0.001705672856400705,0.9999979805329415
2025/04/09 10:24:53.564711879,1744187093,563669869,,-0.0007559426035088938,-0.00039063822922878885,0.001740344078868227,0.9999981235757601
2025/04/09 10:24:53.665748879,1744187093,664681976,,-0.00042471481039301834,-0.0004905158394931785,0.0018034428139763355,0.9999981633010921
2025/04/09 10:24:53.766750828,1744187093,765155883,,-1.8394230762433458e-05,-0.0004578209534204742,0.0018126273959217373,0.9999982522202479
2025/04/09 10:24:53.866460467,1744187093,866234074,,0.00031548845782571093,-0.0002854332687039839,0.0017754864414101848,0.9999983333200003
2025/04/09 10:24:53.967663707,1744187093,967178763,,0.00044370807105739734,-3.0251353753822502e-05,0.001723661922850607,0.9999984155975343
2025/04/09 10:24:54.59510750,1744187094,59322100,,0.0003183581885856825,0.00026137395751020276,0.0016883946458587339,0.9999984898264787
2025/04/09 10:24:54.160380670,1744187094,160124922,,1.3622068549385182e-05,0.0005563100529935862,0.0016550423039225686,0.9999984755831063
2025/04/09 10:24:54.261641085,1744187094,261453232,,-0.00044047327690892763,0.0007815141329027674,0.0016633917488437131,0.9999982141718265
2025/04/09 10:24:54.365764214,1744187094,362072829,,-0.0008466242270498932,0.0009101782636398472,0.0016559603032926386,0.9999978562969125
2025/04/09 10:24:54.463934928,1744187094,462668169,,-0.001133885846467241,0.0009208224890353074,0.0016374784221945317,0.9999975925237259
2025/04/09 10:24:54.565291545,1744187094,565029876,,-0.0012849414863253907,0.0007967859540861876,0.0016448591811563907,0.9999975042447827
2025/04/09 10:24:54.666861952,1744187094,665748931,,-0.0012282095862197753,0.0005819369533499564,0.0016579013123526256,0.9999977021042764
2025/04/09 10:24:54.766573562,1744187094,766324524,,-0.0010086888599316727,0.00029365048569979235,0.001706009527959531,0.9999979929218191
2025/04/09 10:24:54.859890474,1744187094,858669568,,-0.0006284297509283417,-5.785067298272345e-06,0.0017653459238060724,0.999998244296634
2025/04/09 10:24:54.961709524,1744187094,958190247,,-9.741383813366167e-05,-0.0002658368660094529,0.001760024398264374,0.9999984110764488
2025/04/09 10:24:55.60044182,1744187095,58921219,,0.0003823297412860921,-0.00043230073347137954,0.0017168034636587544,0.9999983597616108
2025/04/09 10:24:55.160700604,1744187095,159570532,,0.0006487461390891075,-0.000495268989356581,0.0016673684327851842,0.9999982768583077
2025/04/09 10:24:55.261729973,1744187095,260738241,,0.0005742248664193562,-0.0004279384570356432,0.0016769558325278608,0.9999983374754258
2025/04/09 10:24:55.362446927,1744187095,361394458,,0.0002933315119061138,-0.00024502104062225854,0.0016771516173858024,0.9999985205407886
2025/04/09 10:24:55.462395051,1744187095,462203717,,-0.00014556714176550313,4.2342973656191e-06,0.001676981050505661,0.9999985832624135
2025/04/09 10:24:55.568333731,1744187095,567696201,,-0.0006389181015231195,0.00030331546058813644,0.0016780516836399678,0.9999983419615944
2025/04/09 10:24:55.667581998,1744187095,666229642,,-0.0010997665928947436,0.0005847463831845678,0.00171082924478206,0.9999977608216949
2025/04/09 10:24:55.766517302,1744187095,766364599,,-0.0013718854993718863,0.0007703837048786238,0.0017585170107749795,0.9999972160246481
2025/04/09 10:24:55.858973129,1744187095,857506941,,-0.0013328037843523283,0.0008802971176588519,0.0017558950148117852,0.9999971827679086
2025/04/09 10:24:55.958763162,1744187095,958505457,,-0.001078880072544949,0.0008632566256508566,0.0017385911490230808,0.9999975340502615
2025/04/09 10:24:56.62118281,1744187096,60540848,,-0.0007833077399013253,0.0007207862599744446,0.0017950814566787931,0.9999978222869867
2025/04/09 10:24:56.160113375,1744187096,159798364,,-0.00042308724238014666,0.0004731554557312856,0.0018943466096378596,0.9999980042840199
2025/04/09 10:24:56.262026615,1744187096,260948966,,-2.0770995511981114e-05,0.0001833603386333092,0.0019769639248374492,0.9999980287786531
2025/04/09 10:24:56.362975109,1744187096,362424568,,0.00031466810828507854,-0.00010231246138542693,0.0020376657790228195,0.9999978692148873
2025/04/09 10:24:56.464289937,1744187096,463260212,,0.00047391014729298284,-0.0003404533969389488,0.00209500153007445,0.9999976352318268
2025/04/09 10:24:56.564618466,1744187096,564298794,,0.00044738441761445495,-0.00046418777205349163,0.0021178679700415573,0.9999975495030758
2025/04/09 10:24:56.666329762,1744187096,665182541,,0.00023065774489736005,-0.0004688651607624068,0.002103178016278884,0.9999976517995918
2025/04/09 10:24:56.767317393,1744187096,765798626,,-0.00018533082348052925,-0.00036243412129875123,0.002110698198017729,0.9999976896208863
2025/04/09 10:24:56.867139608,1744187096,866928098,,-0.0006574573385070973,-0.0001367425008026884,0.002111117759425621,0.9999975461135604
2025/04/09 10:24:56.958386073,1744187096,958198844,,-0.0011021166785077923,0.00013310366018781685,0.002134620868432589,0.9999971055038063
2025/04/09 10:24:57.59660891,1744187097,59419641,,-0.0013713657056695714,0.0004089083764038876,0.0021637268129649063,0.999996635212499
2025/04/09 10:24:57.160394082,1744187097,160242159,,-0.0013857418000189138,0.0006576469948149618,0.0021653533090196207,0.9999964792263726
2025/04/09 10:24:57.263846982,1744187097,260702198,,-0.0012119827136162899,0.0008188203879134569,0.0021940717509757995,0.9999965233340693
2025/04/09 10:24:57.363221391,1744187097,362969181,,-0.0008808958080339849,0.0008605754767848544,0.002257567733535548,0.9999966934047095
2025/04/09 10:24:57.464948972,1744187097,464552049,,-0.0003897707125206517,0.0007876971710116129,0.0022910016938905682,0.9999969894570668
2025/04/09 10:24:57.566955825,1744187097,566673887,,5.8408373556333436e-05,0.0006117184017147178,0.0023510588131781672,0.9999970474513992
2025/04/09 10:24:57.661068225,1744187097,659765740,,0.0004208935380016788,0.000360968171486636,0.0023926570392914597,0.9999969838669021
2025/04/09 10:24:57.761835102,1744187097,761504456,,0.0005859509338767585,8.296419295709227e-05,0.0024429741317901973,0.9999968408229284
2025/04/09 10:24:57.860497681,1744187097,860325361,,0.000543870891667348,-0.0001632757480530473,0.002469386259107941,0.9999967898333407
2025/04/09 10:24:57.961962664,1744187097,961685713,,0.0002741852902689394,-0.00033192840768375063,0.0024921281957167975,0.9999968019663937
2025/04/09 10:24:58.63065638,1744187098,62850250,,-0.00017406566534590215,-0.00039907107062971765,0.002540358672836082,0.9999966785051029
2025/04/09 10:24:58.165035111,1744187098,163648884,,-0.0006303810790014496,-0.00034854813905678145,0.0025635996494217965,0.9999964545390786
2025/04/09 10:24:58.265991163,1744187098,264640848,,-0.0010264640413599892,-0.00019210229550129218,0.0025894237836312337,0.9999961021687778
2025/04/09 10:24:58.365832937,1744187098,365673373,,-0.0013014724782916226,3.119702480859003e-05,0.002645641033325039,0.9999956528803796
2025/04/09 10:24:58.466032960,1744187098,465849424,,-0.0013332601902634183,0.0002751214420440864,0.002683262423176779,0.9999954734038677
2025/04/09 10:24:58.567035136,1744187098,566828765,,-0.0011834185385776463,0.000521724461692721,0.0027517570556507185,0.9999953775679442
2025/04/09 10:24:58.658167452,1744187098,657918250,,-0.0008350217565717177,0.000698165033805101,0.002813858028755614,0.9999954487432658
2025/04/09 10:24:58.758887136,1744187098,758640610,,-0.0004013701860939171,0.0007936850728709061,0.0028896738068962895,0.9999954293651889
2025/04/09 10:24:58.859801359,1744187098,859502694,,5.226010360846388e-05,0.00077854265310872,0.002944343573343208,0.9999953609798102
2025/04/09 10:24:58.964108872,1744187098,963765077,,0.0003682770883483644,0.0006604377213246776,0.0030112506660706874,0.9999951802700994
2025/04/09 10:24:59.61820184,1744187099,61677548,,0.00048641647927302127,0.0004492001661112323,0.0030939771132424162,0.9999949944493933
2025/04/09 10:24:59.163233140,1744187099,162736561,,0.0003952424310757412,0.00017338753629132965,0.003186152155651125,0.999994831063953
2025/04/09 10:24:59.263432382,1744187099,263250164,,0.00012078219475219775,-0.00011773598710070584,0.0032865056899726883,0.9999945852004642
2025/04/09 10:24:59.367123934,1744187099,366825769,,-0.0002691176028441057,-0.00038217488868173214,0.003394390410857487,0.9999941297986749
2025/04/09 10:24:59.458772869,1744187099,457691949,,-0.0007081823753436045,-0.0005856467196056323,0.00353441447730129,0.9999933316827396
2025/04/09 10:24:59.559762522,1744187099,558405195,,-0.0010672040027865956,-0.0007075880681564092,0.0036910791059651922,0.9999923681357652
2025/04/09 10:24:59.660152531,1744187099,659017274,,-0.001253059698919857,-0.0007213196159223745,0.003847743565527983,0.9999915521687454
2025/04/09 10:24:59.760134913,1744187099,759915166,,-0.0012588039747520065,-0.000631011651930542,0.004025931394744026,0.9999909045152626
2025/04/09 10:24:59.861144488,1744187099,860838358,,-0.0010653971183598857,-0.0004723377224838724,0.00421104899681134,0.999990454400642
2025/04/09 10:24:59.961908963,1744187099,961702227,,-0.0007460162380396083,-0.00026749163184538587,0.0044206552495476515,0.9999899148067265
2025/04/09 10:25:00.62654304,1744187100,62353096,,-0.00028535628779044947,-6.388146971943036e-05,0.0045817345044966516,0.9999894610444038
2025/04/09 10:25:00.160982007,1744187100,160467429,,0.00010080471855682231,0.00011924853173304038,0.00475347894459334,0.9999886899641014
2025/04/09 10:25:00.262790051,1744187100,260585907,,0.00028651298481134017,0.0002065460032865268,0.0049884863285623495,0.999987495048417
2025/04/09 10:25:00.361576837,1744187100,361370069,,0.0003112043520618062,0.0002120799967786025,0.005228479812729522,0.999986260492
2025/04/09 10:25:00.463683936,1744187100,462068992,,0.00020799378249874127,0.00013057794026015364,0.005439333764746891,0.9999851765582246
2025/04/09 10:25:00.565475483,1744187100,564368299,,-7.142795595867605e-05,-3.524664365154884e-05,0.005668740244386615,0.9999839293907492
2025/04/09 10:25:00.665694110,1744187100,665185951,,-0.000445007906263741,-0.0002484195974487517,0.005914922472974748,0.9999823768186146
2025/04/09 10:25:00.766295934,1744187100,765926613,,-0.0007951604710719716,-0.0004980160877222507,0.006158223206534392,0.9999805978051475
2025/04/09 10:25:00.867066084,1744187100,866739903,,-0.0010508894806369336,-0.0007030994207194774,0.006400049348773761,0.9999787200990016
2025/04/09 10:25:00.958291041,1744187100,957977771,,-0.0011722333185651287,-0.0008643514054228517,0.00665197991803598,0.9999768146956532
2025/04/09 10:25:01.58824120,1744187101,58563733,,-0.0011896483859433976,-0.0009633919045987447,0.006963115644287907,0.9999745854936916
2025/04/09 10:25:01.159582192,1744187101,159447066,,-0.000979325970428905,-0.0009570361462411152,0.007245472609086458,0.9999728136950171
2025/04/09 10:25:01.260614210,1744187101,260459228,,-0.0006277156007747839,-0.0008602956206074567,0.007512512865781661,0.999971213593177
2025/04/09 10:25:01.366090391,1744187101,364508200,,-0.0002710131054564547,-0.0006861961514186904,0.007794700200285009,0.9999693486980119
2025/04/09 10:25:01.466769141,1744187101,466522916,,6.424979527654788e-06,-0.0004970999866025775,0.008094472372728248,0.9999671156429746
2025/04/09 10:25:01.558356682,1744187101,558140367,,0.00017693459188545085,-0.00028857261703867516,0.00839446836507009,0.9999647085376877
2025/04/09 10:25:01.659193961,1744187101,658993038,,0.00022706549747576009,-0.0001124203536725849,0.008680243615289919,0.9999622938759757
2025/04/09 10:25:01.760413936,1744187101,759317746,,0.00012278474660511228,-1.377594865358973e-05,0.008969294259379238,0.9999597674379794
2025/04/09 10:25:01.862283935,1744187101,861216714,,-9.582651384629132e-05,7.916642330281238e-06,0.009250087068373679,0.9999572124065277
2025/04/09 10:25:01.961876033,1744187101,961730416,,-0.0003761274983809122,-6.601662735181267e-05,0.009523167514357753,0.999954580693745
2025/04/09 10:25:02.62874316,1744187102,62695650,,-0.000660666777393743,-0.00021692932901261602,0.009783414102837519,0.9999518994779538
2025/04/09 10:25:02.163700417,1744187102,163543205,,-0.0008905256626178435,-0.00041008426571654194,0.010042514949760445,0.9999490920484018
2025/04/09 10:25:02.268891452,1744187102,268701636,,-0.0009868777417241373,-0.0006199737712655335,0.010291347245516877,0.9999463634999219
2025/04/09 10:25:02.367987209,1744187102,366811011,,-0.0009362641342822919,-0.0008030041053522627,0.010525675240855289,0.9999438428004853
2025/04/09 10:25:02.467940232,1744187102,467621094,,-0.0007933419924304572,-0.0009129081610202604,0.010772064238291234,0.999941248193722
2025/04/09 10:25:02.559752817,1744187102,557817634,,-0.000545755643698561,-0.0009632721351459912,0.010999984803441946,0.9999388854284521
2025/04/09 10:25:02.659318916,1744187102,659132326,,-0.00027137486981257197,-0.0009070823709765427,0.011220261142554816,0.9999366026389599
2025/04/09 10:25:02.761017379,1744187102,759312943,,-3.6823834192576374e-05,-0.0007817224526145547,0.011428382848718166,0.999934387657248
2025/04/09 10:25:02.860488429,1744187102,860319568,,0.00010090689113301617,-0.0005891169922164575,0.011628118263481015,0.9999322125147381
2025/04/09 10:25:02.961239482,1744187102,961073080,,0.0001004304818646894,-0.0003766387300743078,0.011826997373682445,0.999929982643839
2025/04/09 10:25:03.62421287,1744187103,62185992,,-2.136034844898738e-05,-0.00016754256709299896,0.012014286181829795,0.9999278115947995
2025/04/09 10:25:03.164552739,1744187103,162881589,,-0.00023000721048816182,-7.5384799239055875e-06,0.012193409340680698,0.9999256311388888
2025/04/09 10:25:03.266683698,1744187103,265202116,,-0.0004647771099924845,8.315219801424097e-05,0.012364424209370653,0.9999234461107114
2025/04/09 10:25:03.366842870,1744187103,365640621,,-0.000677218081370514,9.067089321948641e-05,0.012527615926412989,0.999921292899426
2025/04/09 10:25:03.468977756,1744187103,468526992,,-0.0008246828247671962,1.6805236815951956e-05,0.012682545558254743,0.9999192330653438
2025/04/09 10:25:03.558420147,1744187103,558074119,,-0.0008733383046259636,-0.00012619246801599248,0.0128296482813554,0.9999173073212821
2025/04/09 10:25:03.658681070,1744187103,658075701,,-0.0008187803413183141,-0.0003008527143463826,0.012969202304129583,0.9999155158702117
2025/04/09 10:25:03.761014351,1744187103,759850774,,-0.0006845438443489418,-0.0004822254439398838,0.013098942465682753,0.9999138545717962
2025/04/09 10:25:03.860900098,1744187103,860588097,,-0.0004957938935056811,-0.0006397673378959592,0.013223162759917252,0.9999122425757139
2025/04/09 10:25:03.962762210,1744187103,961562756,,-0.00029387123333383985,-0.0007295106142762422,0.013340852371261317,0.9999106975685229
2025/04/09 10:25:04.62730462,1744187104,62567606,,-0.00012962902482467495,-0.0007421517407510518,0.01345226806026679,0.9999092303260053
2025/04/09 10:25:04.163870130,1744187104,163659002,,-3.148882677489389e-05,-0.000678332913915793,0.013557508977011006,0.9999078621669348
2025/04/09 10:25:04.267043012,1744187104,265941203,,-1.883394349676252e-05,-0.0005351573059308159,0.013656644357767683,0.9999066002966607
2025/04/09 10:25:04.367780646,1744187104,366715447,,-8.687888969677092e-05,-0.00034363558828879996,0.013750129103177165,0.9999053996835335
2025/04/09 10:25:04.458074546,1744187104,457540588,,-0.00021915469907807553,-0.00012600344792672668,0.013842207319599929,0.9999041601027921
2025/04/09 10:25:04.559548930,1744187104,558398849,,-0.00038557266681111364,5.2364183683e-05,0.013929140423832944,0.9999029091060612
2025/04/09 10:25:04.659181453,1744187104,658818262,,-0.0005553863458768703,0.00019455500656984022,0.014010849915031341,0.9999016700551183
2025/04/09 10:25:04.762275172,1744187104,761321256,,-0.0006793991284949002,0.00026268278740279485,0.014080077862554538,0.9999006054713447
2025/04/09 10:25:04.862322038,1744187104,862147815,,-0.0007277389615594203,0.00024918361256014854,0.014145361369087183,0.9998996534929238
2025/04/09 10:25:04.963423088,1744187104,963001055,,-0.0007050282464969883,0.00017166722020402848,0.014204725234818529,0.9998988445070534
2025/04/09 10:25:05.64845497,1744187105,64663470,,-0.0006198588499539298,1.930244403356e-05,0.01426268814815457,0.999898090371819
2025/04/09 10:25:05.167004504,1744187105,166675724,,-0.0004935668811046613,-0.00014496410660089727,0.014317011202872338,0.9998973740176331
2025/04/09 10:25:05.259092253,1744187105,257304579,,-0.0003533165797158539,-0.0003243903525686383,0.01436764798805893,0.9998966649757288
2025/04/09 10:25:05.358710365,1744187105,358518507,,-0.00021953494679670992,-0.0004462888740102133,0.01441575439533893,0.9998959639161773
2025/04/09 10:25:05.458933694,1744187105,458727887,,-0.0001193002313508196,-0.0005225736860933644,0.014457820027084149,0.9998953365849157
2025/04/09 10:25:05.559853440,1744187105,559618580,,-7.908328424093434e-05,-0.0005245159104487598,0.014498201409252157,0.9998947548541249
2025/04/09 10:25:05.661710625,1744187105,660860885,,-0.00012571531616779603,-0.0004437631132440946,0.014535618619231212,0.9998942459386967
2025/04/09 10:25:05.763200398,1744187105,761454954,,-0.0002445481740329701,-0.0002900115464440677,0.01456861583243173,0.9998938001219032
2025/04/09 10:25:05.862600068,1744187105,862429073,,-0.0004035651089603175,-0.00011267249116667769,0.014603461477492233,0.9998932759814859
2025/04/09 10:25:05.964156472,1744187105,962940958,,-0.0005643606826188388,8.805478388962229e-05,0.014636498553786778,0.9998927175719703
2025/04/09 10:25:06.65441980,1744187106,64207792,,-0.0006769131678105147,0.00024900379777284017,0.014666984640061855,0.9998921738603819
2025/04/09 10:25:06.168182538,1744187106,167050281,,-0.0007354540873723549,0.00037218672535058926,0.014693116895426177,0.9998917105868136
2025/04/09 10:25:06.266983768,1744187106,266636360,,-0.0007150565487990005,0.0004082839948786704,0.014723417144444875,0.9998912655813642
2025/04/09 10:25:06.358741843,1744187106,358444336,,-0.0006188330494965028,0.00038292087413476015,0.01474132533160868,0.9998910759401389
2025/04/09 10:25:06.461495764,1744187106,461280028,,-0.00040669322737541604,0.000282403644125947,0.014699539441530763,0.999891833344491
2025/04/09 10:25:06.562544014,1744187106,562372769,,-0.0002427637838499835,0.0001393513264060396,0.014678078098987074,0.9998922320281687
2025/04/09 10:25:06.665206300,1744187106,664004288,,-0.00014000627102380285,-4.458683697042304e-05,0.014679229943787836,0.9998922435035265
2025/04/09 10:25:06.765002491,1744187106,764868431,,-6.057372158964662e-05,-0.00019994019183984822,0.01464963230608849,0.9998926665537858
2025/04/09 10:25:06.866060011,1744187106,865847582,,-0.00010185450407444972,-0.0003327578451949438,0.01465284904623767,0.9998925806868979
2025/04/09 10:25:06.967017096,1744187106,966801823,,-0.0002255768908915003,-0.00038631544187579076,0.014674221160188183,0.9998922277469645
2025/04/09 10:25:07.57803725,1744187107,57564355,,-0.0003389803945514125,-0.00036958475706942094,0.014658336263327087,0.9998924350535865
2025/04/09 10:25:07.160898806,1744187107,160557587,,-0.0004597734316266089,-0.0002657736349711257,0.014637590580073731,0.9998927237032864
2025/04/09 10:25:07.259353060,1744187107,259208848,,-0.0005818969765584557,-0.00012335856527611526,0.014637572155300062,0.9998926880720608
2025/04/09 10:25:07.361631890,1744187107,360894592,,-0.0006560737176195265,6.334854932025719e-05,0.014638056475516279,0.9998926406654156
2025/04/09 10:25:07.462329802,1744187107,462079546,,-0.0005927291401738951,0.00026554161108583666,0.014584533665132913,0.9998934290901155
2025/04/09 10:25:07.566069285,1744187107,565907013,,-0.00048126987181996484,0.0004167769830708771,0.014523891347815334,0.9998943200440603
2025/04/09 10:25:07.664575599,1744187107,664333948,,-0.0003210234893153106,0.0005045285668335324,0.014428818759370651,0.9998957203549047
2025/04/09 10:25:07.766599441,1744187107,766443139,,-0.00023426392578840182,0.0005156273251977018,0.014361361160026988,0.999896709942835
2025/04/09 10:25:07.868513925,1744187107,867930207,,-0.0002065589889846614,0.00044391182021317555,0.01430166778424149,0.9998976060448735
2025/04/09 10:25:07.959783102,1744187107,958642802,,-0.0002975675311172368,0.0003105676650712828,0.014298126666125338,0.9998976840532882
2025/04/09 10:25:08.59207222,1744187108,59007582,,-0.0004186833129121744,0.00011815414041565758,0.014320206301704273,0.9998973659508056
2025/04/09 10:25:08.159974344,1744187108,159763777,,-0.0005267402679364609,-5.621871695448968e-05,0.014347795243123745,0.9998969247656517
2025/04/09 10:25:08.262565519,1744187108,260807593,,-0.0006022602718635403,-0.00019828314001369402,0.014383219620572804,0.9998963551087221
2025/04/09 10:25:08.362117115,1744187108,361776541,,-0.0006369985466921097,-0.0002897673314979487,0.014438542982670605,0.9998955139134702
2025/04/09 10:25:08.463050666,1744187108,462850005,,-0.0006093918227076362,-0.0003122980104828127,0.014508306073354077,0.9998945145196272
2025/04/09 10:25:08.563635300,1744187108,563425108,,-0.0005243022333598442,-0.00025912552975746345,0.014585647599288942,0.99989345274646
2025/04/09 10:25:08.664722123,1744187108,664388770,,-0.00040356630142634304,-0.00013709298241376786,0.014675621527430904,0.9998922164276198
2025/04/09 10:25:08.765559184,1744187108,765145673,,-0.00027132361617205263,1.961791482691407e-05,0.014774701243262143,0.9998908111397989
2025/04/09 10:25:08.867358029,1744187108,866247314,,-0.00016939392031732755,0.00020102998136893192,0.014887342846310447,0.9998891428131534
2025/04/09 10:25:08.968201045,1744187108,966651017,,-2.7719603050739147e-05,0.0003589466161451805,0.014939330310775613,0.9998883371651136
2025/04/09 10:25:09.58288930,1744187109,58115477,,8.603501938603187e-05,0.00047837033309924116,0.01494294935663113,0.9998882297658699
2025/04/09 10:25:09.159650590,1744187109,159335363,,7.297040718609397e-05,0.000534537873087167,0.014953796863387521,0.9998880401844751
2025/04/09 10:25:09.262887122,1744187109,262735962,,1.3915593120292562e-05,0.0005298060203595787,0.01491554042261992,0.9998886166797971
2025/04/09 10:25:09.363665401,1744187109,363507522,,-0.00019534768111131994,0.0004530022466779466,0.014912353049641808,0.9998886829816461
2025/04/09 10:25:09.464417039,1744187109,464257089,,-0.0005173823682343993,0.000305369846653002,0.01496756890344909,0.999887799178419
2025/04/09 10:25:09.566593996,1744187109,566292468,,-0.0007940576383318823,0.000131675060388653,0.015023660541252567,0.9998868144735616
2025/04/09 10:25:09.668300262,1744187109,667218759,,-0.000928284946428895,-3.7770397049603834e-05,0.015049663666269928,0.9998863157799428
2025/04/09 10:25:09.759254356,1744187109,758135080,,-0.0009436984780664488,-0.00016404404843027023,0.015071789063182949,0.9998859553454922
2025/04/09 10:25:09.861062112,1744187109,859451119,,-0.0009059968601455289,-0.00024411865753049176,0.015142298545791032,0.9998849085622408
2025/04/09 10:25:09.965912771,1744187109,965546268,,-0.0007687919854211686,-0.0002591134615702736,0.01522597560405153,0.9998837489858519
2025/04/09 10:25:10.62856187,1744187110,62580481,,-0.0005536079366388559,-0.00021386171422345732,0.015310597711733463,0.999882609799335
2025/04/09 10:25:10.165838128,1744187110,164691461,,-0.000319942461996471,-9.694408102677197e-05,0.015400614974204882,0.9998813476093463
2025/04/09 10:25:10.267019292,1744187110,265938180,,-0.00016074972101267363,5.057042550738504e-05,0.015529367666867248,0.9998793978985798
2025/04/09 10:25:10.367317452,1744187110,367126868,,-0.00014126233658903365,0.00019349336372199167,0.01572688205704923,0.9998762962417072
2025/04/09 10:25:10.459793629,1744187110,457467225,,-9.122962122436155e-05,0.0003361676859504621,0.015873333763770304,0.9998739500275358
2025/04/09 10:25:10.559458323,1744187110,558368167,,-2.6196036950213823e-06,0.0004471143887501184,0.015938621021493776,0.9998728721401507
2025/04/09 10:25:10.663006314,1744187110,661841307,,-4.2764804291131985e-05,0.0004985224878790305,0.016024811405102903,0.9998714692728918
2025/04/09 10:25:10.765150712,1744187110,763627459,,-0.0001149646629794896,0.00048390625854286126,0.01607100586640955,0.9998707293386986
2025/04/09 10:25:10.866756521,1744187110,865674512,,-0.0002525286564136917,0.0004251440502126744,0.016102443040304365,0.9998702249841966
2025/04/09 10:25:10.966655373,1744187110,966187919,,-0.0005207571598492621,0.00030743245972615694,0.016193774026221998,0.9998686893687845
2025/04/09 10:25:11.67760453,1744187111,66595927,,-0.0008478980100938075,0.00014471958578245395,0.01636028264725528,0.999865791632511
2025/04/09 10:25:11.158363026,1744187111,157742561,,-0.0010730698865259738,-1.5624295150836803e-05,0.016549384362306973,0.9998624736203118
2025/04/09 10:25:11.261358502,1744187111,260817350,,-0.0011994478066400915,-0.00015796324919648417,0.016807060585430727,0.9998580194642881
2025/04/09 10:25:11.363163324,1744187111,361925965,,-0.0011313566068906972,-0.00025487162713835323,0.01709772765966916,0.9998531506084068
2025/04/09 10:25:11.462885170,1744187111,462746860,,-0.00087257214205809,-0.00028744818640711884,0.01740432039843405,0.9998481112763407
2025/04/09 10:25:11.563990891,1744187111,563705512,,-0.0004854125987383149,-0.0002559266358856697,0.017715843377513734,0.9998429115464036
2025/04/09 10:25:11.665052070,1744187111,664881358,,-6.66830017642522e-05,-0.00016852174734427163,0.01802977842860391,0.9998374339079396
2025/04/09 10:25:11.767291005,1744187111,765794082,,0.0003653946907370045,-3.263484392674712e-05,0.018281563014047823,0.9998328109616379
2025/04/09 10:25:11.866994785,1744187111,866702212,,0.0006265964346310026,0.00012219730667665453,0.01852612643001376,0.999828172779816
2025/04/09 10:25:11.958409869,1744187111,957800761,,0.0006480962954149245,0.00027352082442825984,0.018773504123758618,0.9998235147767158
2025/04/09 10:25:12.59113262,1744187112,58483137,,0.00047737139317211046,0.00039111164595001226,0.01898841971369388,0.9998195132447706
2025/04/09 10:25:12.160564241,1744187112,159469549,,0.00010004124025746808,0.00046791668197352623,0.0192131805491881,0.9998152953115457
2025/04/09 10:25:12.260663164,1744187112,260365459,,-0.00038756989494043463,0.00045959118012270763,0.01944364348297662,0.9998107737435272
2025/04/09 10:25:12.361450607,1744187112,361281183,,-0.0008442603594856375,0.0004091957287213235,0.019651526305482662,0.9998064499177658
2025/04/09 10:25:12.463485328,1744187112,463176666,,-0.0011982332081068078,0.00029230425572790056,0.01986129109565104,0.9998019843506087
2025/04/09 10:25:12.564333698,1744187112,564109522,,-0.001370728791645984,0.00013992862618760748,0.020072811356430263,0.9997975713947341
2025/04/09 10:25:12.666817210,1744187112,665149663,,-0.0013193254209693836,-1.5305844806631148e-05,0.020277445942146147,0.9997935208492942
2025/04/09 10:25:12.766291338,1744187112,766121556,,-0.0011766752115050794,-0.00016107366921108801,0.020560826998223473,0.9997878984484003
2025/04/09 10:25:12.868289661,1744187112,866580095,,-0.0009156342285527103,-0.0002722351558769788,0.02089578597559882,0.9997812028791306
2025/04/09 10:25:12.958720373,1744187112,957603567,,-0.000520190555680143,-0.00031837830974724204,0.021222982346589172,0.9997745811218417
2025/04/09 10:25:13.61056008,1744187113,59789273,,-0.00016596563475839335,-0.00030298656500209306,0.021596935365598764,0.9997666993040745
2025/04/09 10:25:13.159649056,1744187113,159498882,,0.0002281848230231579,-0.0002299833780486043,0.021904494157505505,0.9997600152911879
2025/04/09 10:25:13.260280111,1744187113,260093512,,0.00047654375339437397,-9.697535415484922e-05,0.02220038225410594,0.9997534228646598
2025/04/09 10:25:13.365392188,1744187113,363023540,,0.0004945791942997202,4.9886321115853956e-05,0.022512665616189913,0.999746434247019
2025/04/09 10:25:13.464041831,1744187113,463899537,,0.0003084471393342158,0.00020669053963673492,0.022823348464794307,0.9997394445075365
2025/04/09 10:25:13.565341837,1744187113,565063134,,-0.00012252985636016368,0.0003167122253800431,0.0232014986179915,0.999730751323415
2025/04/09 10:25:13.667658096,1744187113,666092007,,-0.0006400996590143026,0.00037862152211731053,0.02362824875276197,0.9997205373398343
2025/04/09 10:25:13.767066589,1744187113,766870323,,-0.0010697041998594008,0.0003650503105528911,0.02407048176039162,0.9997096250306977
2025/04/09 10:25:13.857960274,1744187113,857708664,,-0.0012465874888571528,0.0003017848393511603,0.02446627914627081,0.9996998330150306
2025/04/09 10:25:13.959453814,1744187113,958377181,,-0.001212110910398825,0.00018136041829014141,0.024857903650361595,0.9996902432862136
2025/04/09 10:25:14.60650103,1744187114,58993829,,-0.001033858623156939,3.312160882764543e-05,0.025291777394728432,0.9996795766822096
2025/04/09 10:25:14.162665818,1744187114,161033191,,-0.0007209563338997819,-0.00011940625356733196,0.02575589853448404,0.9996679947136412
2025/04/09 10:25:14.262013898,1744187114,261738485,,-0.0003359845676628653,-0.00024862670770345655,0.026231997179140237,0.999655794572874
2025/04/09 10:25:14.363335254,1744187114,362091060,,5.6249212108725166e-05,-0.00034488020271237964,0.02669623089311806,0.9996435310398268
2025/04/09 10:25:14.464377930,1744187114,463203517,,0.0002881313051292294,-0.0003777377126760792,0.02719837487983632,0.9996299428780969
2025/04/09 10:25:14.564588005,1744187114,564411704,,0.0003704603971321695,-0.0003548370134145707,0.027704041646790713,0.9996160377496056
2025/04/09 10:25:14.665265196,1744187114,665034631,,0.0002792830687800361,-0.00026985105861455016,0.02821904432945688,0.9996016880330414
2025/04/09 10:25:14.767764673,1744187114,766092748,,6.563780054886179e-05,-0.00013419981849731373,0.028716912904175256,0.9995875732497588
2025/04/09 10:25:14.867029246,1744187114,866740984,,-0.0002295929727032985,1.535219926961729e-05,0.029194923263339667,0.9995737108923106
2025/04/09 10:25:14.958418821,1744187114,958130896,,-0.0006477815017718479,0.00014317431330413614,0.029734549090140307,0.9995576103810365
2025/04/09 10:25:15.60565975,1744187115,59498447,,-0.0010097494750393465,0.0002506652861149024,0.030294832472895245,0.9995404647628585
2025/04/09 10:25:15.166316013,1744187115,164210211,,-0.0012192000216798104,0.00030241569328467646,0.030876435278835605,0.9995224198788777
2025/04/09 10:25:15.265583073,1744187115,263993920,,-0.0011801748555316696,0.0002831971162370425,0.03144252452698461,0.9995048247197578
2025/04/09 10:25:15.365328196,1744187115,365043267,,-0.0009567884600854482,0.0002195697792323043,0.03201682605116789,0.999486847934761
2025/04/09 10:25:15.472756905,1744187115,471060191,,-0.0006176820472393276,9.653058804420355e-05,0.0325979589920104,0.9994683497841687
2025/04/09 10:25:15.563191831,1744187115,563043955,,-0.0002432291492566384,-5.030707556171448e-05,0.033196378119662945,0.9994488174931798
2025/04/09 10:25:15.665907433,1744187115,665355674,,9.997136142468733e-05,-0.00019836668342167136,0.03378841249205212,0.9994289838891269
2025/04/09 10:25:15.770529371,1744187115,767386734,,0.00030954002072561645,-0.0003175599151547272,0.03438665491519574,0.9994085057194676
2025/04/09 10:25:15.867550856,1744187115,867345858,,0.0003397020657243891,-0.00040212063498619205,0.03499284822483031,0.9993874241126989
2025/04/09 10:25:15.959565419,1744187115,958490422,,0.00019328799283196217,-0.0004266608874017247,0.035605419663979815,0.9993658162508816
2025/04/09 10:25:16.60560101,1744187116,60366119,,-7.41476400260106e-05,-0.0003902688389151372,0.03622318200592169,0.9993436462387334
2025/04/09 10:25:16.164498209,1744187116,164062310,,-0.0003926544284561861,-0.00028751093875512424,0.03684210332722879,0.9993209807576271
2025/04/09 10:25:16.267477671,1744187116,266268129,,-0.0007107453877705133,-0.0001601027873041649,0.03746786459907707,0.9992975674595013
2025/04/09 10:25:16.358907117,1744187116,358672460,,-0.0009612382919584392,-1.3418562832661302e-05,0.03810295718469256,0.9992733562417592
2025/04/09 10:25:16.464387730,1744187116,463786079,,-0.0010370603847631682,0.00012139729982174408,0.03870456529780156,0.9992501520608151
2025/04/09 10:25:16.564411751,1744187116,564257336,,-0.0009927978304310465,0.00020606690984531525,0.03932666225985594,0.9992258931414837
2025/04/09 10:25:16.663941819,1744187116,659340497,,-0.0008265124437845435,0.00024359600816217523,0.039954545912068186,0.9992011268003682
2025/04/09 10:25:16.761853553,1744187116,761579212,,-0.000571011213499199,0.00021773968357968875,0.04058899340191941,0.9991757403731554
2025/04/09 10:25:16.862666586,1744187116,862453630,,-0.00028908107829655994,0.00012556678763961485,0.04122883046158847,0.9991496805803831
2025/04/09 10:25:16.967814083,1744187116,967565153,,-5.867771964249377e-05,-5.15473545149462e-06,0.04187280764171779,0.99912294764486
2025/04/09 10:25:17.63263569,1744187117,60862510,,7.081171361586337e-05,-0.0001536280876830773,0.042520677561024324,0.9990955726875499
2025/04/09 10:25:17.163741488,1744187117,163571482,,8.683827698884353e-05,-0.0002906826270929234,0.043166897290376406,0.9990678289991356
2025/04/09 10:25:17.258370308,1744187117,258176122,,-1.2515202423115169e-06,-0.00039289177980274845,0.0438143443552731,0.9990396132602554
2025/04/09 10:25:17.366360752,1744187117,363283799,,-0.00018428826949533957,-0.0004598236094643989,0.044462357853614326,0.9990109375448194
2025/04/09 10:25:17.468575836,1744187117,466597005,,-0.0004190700553798458,-0.0004522571084855544,0.045112728451218324,0.998981712332855
2025/04/09 10:25:17.564664402,1744187117,561708571,,-0.0006414373946539335,-0.00038633789495295246,0.04576102612583914,0.9989521348838541
2025/04/09 10:25:17.670393569,1744187117,667919262,,-0.0008033988043564343,-0.0002783092666432753,0.046410087304794484,0.9989221095213954
2025/04/09 10:25:17.763890860,1744187117,763173215,,-0.0008728219579556471,-0.0001321619637123275,0.0470597962681848,0.998891683962902
2025/04/09 10:25:17.862685352,1744187117,862316525,,-0.0008327778085806457,5.011932365342168e-06,0.047706541432119026,0.9988610475739794
2025/04/09 10:25:17.965132255,1744187117,963732052,,-0.0006963951818148939,0.00011654111629800277,0.04835011200231907,0.9988301998444391
2025/04/09 10:25:18.66057081,1744187118,64926093,,-0.0005006248682142018,0.00018194705154861277,0.0489976772303924,0.9987987504477757
2025/04/09 10:25:18.166734651,1744187118,165576699,,-0.0002981434771326992,0.00018663911411803888,0.049644123310560534,0.998766908391059
2025/04/09 10:25:18.269940787,1744187118,269565265,,-0.00012762587526000087,0.00013209123050436877,0.050292414721087995,0.9987345189213522
2025/04/09 10:25:18.367650586,1744187118,367346389,,-3.9232209295564244e-05,2.7960919068138407e-05,0.050940997954730026,0.9987016633641885
2025/04/09 10:25:18.459257178,1744187118,458937945,,-5.677230056733777e-05,-0.00010462549356203066,0.05159228397180942,0.9986682242191268
2025/04/09 10:25:18.559744911,1744187118,559528516,,-0.00016399784150265088,-0.0002507928088415541,0.0522424527970476,0.9986343857155247
2025/04/09 10:25:18.661106372,1744187118,660679113,,-0.00033499076356355794,-0.00036945998115920855,0.05289285109647616,0.9986000688881393
2025/04/09 10:25:18.761666539,1744187118,760987142,,-0.0005283239464224041,-0.0004371611957298731,0.05354360874114561,0.9985652766478873
2025/04/09 10:25:18.863577091,1744187118,861990159,,-0.0006933167458107788,-0.000474909798654277,0.05419358511446202,0.9985300942410372
2025/04/09 10:25:18.963602399,1744187118,963306781,,-0.000780682627045879,-0.0004390564716169425,0.05482789308237293,0.9984954180687052
2025/04/09 10:25:19.64041010,1744187119,63416685,,-0.000780302915253038,-0.0003367908904458936,0.0554590830222452,0.9984605990271165
2025/04/09 10:25:19.164896294,1744187119,164581946,,-0.0006883901895169099,-0.00022388391846161871,0.05608456255037472,0.9984257598031369
2025/04/09 10:25:19.258660340,1744187119,258490549,,-0.000543541848069771,-8.84048328946567e-05,0.056708311700260354,0.9983906370409085
2025/04/09 10:25:19.359523706,1744187119,359346861,,-0.00039929335339084453,3.454682366508528e-05,0.05733015583023666,0.9983551936078741
2025/04/09 10:25:19.460528513,1744187119,460373291,,-0.0002756583579625489,0.00011993672475790645,0.05795349150590789,0.9983192387457663
2025/04/09 10:25:19.561390929,1744187119,561163011,,-0.00018803289738515537,0.00015314640675266313,0.05857145139585186,0.9982831894163053
2025/04/09 10:25:19.662995228,1744187119,662390117,,-0.00015302755151836748,0.00013788881794625962,0.059182831577069786,0.9982471387465944
2025/04/09 10:25:19.763776085,1744187119,763545198,,-0.0001793221341825511,6.13721436480198e-05,0.05979012727851402,0.9982109520322101
2025/04/09 10:25:19.866805833,1744187119,864201160,,-0.0002689695542248031,-5.2340848945452995e-05,0.06039108864831938,0.9981747549040124
2025/04/09 10:25:19.965749199,1744187119,965346463,,-0.00039655530003074167,-0.0001816400460664504,0.06098669150026254,0.9981384839843815
2025/04/09 10:25:20.66582249,1744187120,65866660,,-0.0005236979020412779,-0.00030565272067073403,0.06157991373617498,0.9981019720154685
2025/04/09 10:25:20.166951666,1744187120,166715110,,-0.0006262009524806765,-0.0004030198534366719,0.06216508144697571,0.998065603102349
2025/04/09 10:25:20.259072036,1744187120,258685769,,-0.0006830686980664445,-0.00045246308937983346,0.06274421012770529,0.9980293045746487
2025/04/09 10:25:20.360073664,1744187120,358938049,,-0.0006819069956050948,-0.00044905941786653697,0.06331740010314156,0.9979931062851423
2025/04/09 10:25:20.462750381,1744187120,461596994,,-0.0006257932353946778,-0.00038843112215136217,0.06388506138907393,0.9979569912753776
2025/04/09 10:25:20.562803827,1744187120,562392719,,-0.0005295736702664119,-0.00028829653722770395,0.0644474511841246,0.9979209199494238
2025/04/09 10:25:20.663694488,1744187120,663211373,,-0.00041775132464100825,-0.0001748628200492051,0.0650051299996601,0.9978848270118913
2025/04/09 10:25:20.764105895,1744187120,763848441,,-0.0003365579229492058,-4.092663970814008e-05,0.06556887975070887,0.9978479879530808
2025/04/09 10:25:20.866396970,1744187120,865222152,,-0.0002730480098039417,4.52516161199434e-05,0.06612655462928088,0.9978112056746689
2025/04/09 10:25:20.965755854,1744187120,965571591,,-0.0002468928255794356,0.00011118414473704856,0.0666800210573935,0.9977743740314261
2025/04/09 10:25:21.66688551,1744187121,66475745,,-0.00026766046876885,0.00011714676055128998,0.06723232372561933,0.9977373047455745
2025/04/09 10:25:21.158766387,1744187121,157601440,,-0.00032884748344849343,8.491489740811401e-05,0.06778060125550349,0.9977001928145726
2025/04/09 10:25:21.259778248,1744187121,259571180,,-0.000384612013641677,1.9019908012847214e-06,0.06829842134383972,0.9976648624222068
2025/04/09 10:25:21.362315268,1744187121,361084020,,-0.00045117981427725,-9.620704915312014e-05,0.06880924982407441,0.9976297280652913
2025/04/09 10:25:21.464726912,1744187121,464499219,,-0.0005186635808634272,-0.00021540002382459437,0.06931098080916544,0.9975949441181983
2025/04/09 10:25:21.562612527,1744187121,562470012,,-0.000580912117253637,-0.0003123552675253655,0.06981971466487463,0.9975594079649664
2025/04/09 10:25:21.663567921,1744187121,663294469,,-0.0006082071192416471,-0.0003945287224289775,0.07032113894754215,0.9975241409852234
2025/04/09 10:25:21.764869376,1744187121,764639005,,-0.0005873658765073571,-0.00042556832927027075,0.07081729516909135,0.9974890398384626
2025/04/09 10:25:21.865776553,1744187121,865546134,,-0.0005362060745263434,-0.00040061890430690686,0.0713072728973898,0.9974541717890985
2025/04/09 10:25:21.969712966,1744187121,968651941,,-0.00045231723968965613,-0.00033866547876588114,0.071792459913394,0.9974194320417022
2025/04/09 10:25:22.61789841,1744187122,59409278,,-0.00036026255618131165,-0.000244998808775007,0.07227420003652603,0.9973847052143694
2025/04/09 10:25:22.160485244,1744187122,160008597,,-0.00029770906168139226,-0.00012486919122074372,0.07275197685318789,0.9973500116012196
2025/04/09 10:25:22.261197081,1744187122,260947686,,-0.0002628206067932411,-1.9562359803831057e-05,0.07322643886088773,0.9973153058057393
2025/04/09 10:25:22.362337004,1744187122,362015082,,-0.0002673567605830999,6.272003170635017e-05,0.07369183576776435,0.9972810225446672
2025/04/09 10:25:22.464769822,1744187122,463181252,,-0.0003156613455648533,0.00011811139608067056,0.07415363732663213,0.9972467721075077
2025/04/09 10:25:22.565026665,1744187122,563391878,,-0.0003880944753122636,0.00011173291103256912,0.07462144320468965,0.9972118516706889
2025/04/09 10:25:22.665510372,1744187122,664354894,,-0.00045177478056773805,6.47587751076319e-05,0.07507409961670149,0.9971778533805242
2025/04/09 10:25:22.765590293,1744187122,765387963,,-0.00051609019189239,-9.553342789463623e-06,0.07552262265021327,0.9971439550173691
2025/04/09 10:25:22.866536545,1744187122,866382728,,-0.0005610914230577172,-0.00011804933687166376,0.07596930823252813,0.9971099916495874
2025/04/09 10:25:22.958719986,1744187122,958122015,,-0.0005727218716482326,-0.00022813703228802067,0.0764107099763745,0.9970762374783879
2025/04/09 10:25:23.60313349,1744187123,58501261,,-0.0005620848063157141,-0.0003074818740549928,0.0768445078825662,0.9970428832923155
2025/04/09 10:25:23.159524149,1744187123,159266014,,-0.0005224377820129728,-0.00037611521838682316,0.07727922418613403,0.997009281353637
2025/04/09 10:25:23.261261629,1744187123,260146381,,-0.00046421862801226304,-0.00039271557239291456,0.07771019996645359,0.9969758046696612
2025/04/09 10:25:23.361053145,1744187123,360748029,,-0.00037541401324825185,-0.00035876764365733605,0.078112679408926,0.9969444014917055
2025/04/09 10:25:23.462444490,1744187123,462136413,,-0.00031938890040817335,-0.0002939607128915469,0.07852096862369054,0.9969123677957993
2025/04/09 10:25:23.562771325,1744187123,562392477,,-0.0002814304567196738,-0.00020022301006683612,0.07891518268954646,0.9968812740987363
2025/04/09 10:25:23.663448416,1744187123,663235394,,-0.000296281314526295,-9.517971809565913e-05,0.07930994894496571,0.9968499561902738
2025/04/09 10:25:23.765513335,1744187123,764376428,,-0.00033798193962563284,-7.702404139910895e-06,0.07970265834997395,0.9968186254082679
2025/04/09 10:25:23.867339944,1744187123,865824547,,-0.00040677744557590293,6.90011531984706e-05,0.0800879208337998,0.9967877179758334
2025/04/09 10:25:23.967384554,1744187123,967215559,,-0.0004693806906559531,9.450275630768972e-05,0.08046911112461365,0.9967569878891298
2025/04/09 10:25:24.59723665,1744187124,58823210,,-0.0005078913886771674,9.354052782057986e-05,0.0808415667432703,0.9967268303717927
2025/04/09 10:25:24.168313750,1744187124,166784989,,-0.0005242113884299999,4.0426606360333155e-05,0.08120523692006774,0.996697262494919
2025/04/09 10:25:24.265409140,1744187124,264696990,,-0.0005256356360267385,-2.9544017775312174e-05,0.08156475839119094,0.9966679050831906
2025/04/09 10:25:24.365546290,1744187124,365399148,,-0.0005028687268412617,-0.0001343365238678574,0.08192010954883386,0.9966387634084122
2025/04/09 10:25:24.470867413,1744187124,465207089,,-0.0004651626746700687,-0.00022286894749340094,0.08226860352932949,0.9966100595651503
2025/04/09 10:25:24.572459247,1744187124,571818788,,-0.00042169965350164856,-0.0003001889155138508,0.08261378626077645,0.9965815041308342
2025/04/09 10:25:24.662882458,1744187124,661449009,,-0.00038757471777156887,-0.00035160587838967545,0.08295324313740078,0.996553302945774
2025/04/09 10:25:24.762267121,1744187124,762000059,,-0.0003579747209322421,-0.00035958331457440067,0.08328791630580717,0.9965253963403923
2025/04/09 10:25:24.864361120,1744187124,863130319,,-0.0003365587029862135,-0.00032700576838015985,0.083616404246951,0.9964979060370761
2025/04/09 10:25:24.964311434,1744187124,964112620,,-0.00033216658686175093,-0.0002610830342620036,0.08394225482188454,0.9964705311028649
2025/04/09 10:25:25.66148346,1744187125,65961211,,-0.00034674860581058184,-0.0001632613096432645,0.08426380110481446,0.996443407793196
2025/04/09 10:25:25.171847725,1744187125,168743926,,-0.0003694246546382738,-6.762672617721574e-05,0.08457042778512815,0.9964174334566266
2025/04/09 10:25:25.258192811,1744187125,258038703,,-0.00040450414260006015,2.3760773749652585e-05,0.08486946290939279,0.9963919961929117
2025/04/09 10:25:25.361383289,1744187125,359941639,,-0.0004462214236302464,8.813916026590746e-05,0.08516188349641154,0.9963670241016978
2025/04/09 10:25:25.468267463,1744187125,466148925,,-0.00048735191777806537,0.00011473447295158321,0.08544962075437794,0.996342366677761
2025/04/09 10:25:25.567093830,1744187125,566068649,,-0.0005155129321679387,0.00010099641323358072,0.08573162699333135,0.9963181279988925
2025/04/09 10:25:25.661309497,1744187125,660844469,,-0.0005297992173187531,5.007787868966022e-05,0.08600925640137279,0.9962941958168171
2025/04/09 10:25:25.759488496,1744187125,759244137,,-0.0005327746739329012,-3.043183386681504e-05,0.0862856263067465,0.9962702976190261
2025/04/09 10:25:25.860549621,1744187125,860382598,,-0.0005073909596652927,-0.0001308592815743067,0.08655234273749236,0.9962471668200187
2025/04/09 10:25:25.962600920,1744187125,962423194,,-0.00047398432991185564,-0.00022143350375197142,0.0868173437110494,0.996224108891677
2025/04/09 10:25:26.65011785,1744187126,63328227,,-0.00043276550802121575,-0.0002905975049196801,0.08707657738345999,0.996201484609558
2025/04/09 10:25:26.164806663,1744187126,164224016,,-0.0003906195588448017,-0.0003313894228872886,0.08733266896977641,0.9961790715167761
2025/04/09 10:25:26.267295514,1744187126,267087359,,-0.0003490374607790415,-0.00032820270782403353,0.0875729157246323,0.9961579969499417
2025/04/09 10:25:26.358433108,1744187126,357737010,,-0.00034519983506564215,-0.0002914705148562514,0.0878160279805587,0.9961366076556621
2025/04/09 10:25:26.465784861,1744187126,461865460,,-0.00036484027044057907,-0.0002141812052969488,0.08805406215396083,0.99611560732486
2025/04/09 10:25:26.566676664,1744187126,565640645,,-0.00039745424061752156,-0.00013377025554291592,0.08828622738939097,0.9960950588116548
2025/04/09 10:25:26.668481995,1744187126,666206682,,-0.0004352035937046108,-3.4858394878866765e-05,0.08851046621893664,0.9960751511569952
2025/04/09 10:25:26.760211638,1744187126,759882386,,-0.0004779253847579755,4.074350172892626e-05,0.0887327693806396,0.9960553526613548
2025/04/09 10:25:26.860993414,1744187126,860850297,,-0.0005067935520846684,9.672009241343209e-05,0.08894915766438222,0.9960360340651919
2025/04/09 10:25:26.961823607,1744187126,961648299,,-0.0005169276183750596,0.00012143061228918445,0.08916028351227218,0.9960171493927477
2025/04/09 10:25:27.62584275,1744187127,62245958,,-0.0005007684839614182,0.00011086722273979133,0.08936346917381358,0.9959989494555731
2025/04/09 10:25:27.163492784,1744187127,163347218,,-0.0004631338210553806,4.01640619151125e-05,0.08956029448140468,0.9959812937732897
2025/04/09 10:25:27.264588140,1744187127,263978522,,-0.0004269927336712539,-2.661663550188622e-05,0.08975438350238182,0.9959638385056294
2025/04/09 10:25:27.364925558,1744187127,364795493,,-0.0003933459997501219,-0.0001197648787866853,0.08994410487762813,0.9959467299675523
2025/04/09 10:25:27.467388029,1744187127,466160164,,-0.00036264475027410046,-0.00021305056315026684,0.09012691435907734,0.9959301995653883
2025/04/09 10:25:27.566969028,1744187127,566805660,,-0.00034263590477871125,-0.00027183925224793463,0.09030410099648599,0.9959141419054527
2025/04/09 10:25:27.657602131,1744187127,657435408,,-0.0003426492523640727,-0.00030277589796581214,0.09047971816060581,0.9958981933510186
2025/04/09 10:25:27.760855435,1744187127,759243336,,-0.00035647396800009214,-0.0002996020161792681,0.09065445145190083,0.9958822990679657
2025/04/09 10:25:27.862340312,1744187127,859976277,,-0.00036702271867316844,-0.00025012946325024543,0.09082179989603403,0.9958670611046538
2025/04/09 10:25:27.961442024,1744187127,961061899,,-0.0003791497057297562,-0.00017467206203969292,0.09098542527055707,0.9958521366766792
2025/04/09 10:25:28.63472404,1744187128,63098946,,-0.00039676386280717907,-8.025438956334947e-05,0.09114068107045882,0.9958379448442819
2025/04/09 10:25:28.164235812,1744187128,163076486,,-0.00041298566889198183,7.196004281766561e-06,0.0912891088141098,0.9958243459581516
2025/04/09 10:25:28.266260334,1744187128,265096810,,-0.0004264245879922975,8.504771084240191e-05,0.09143120218170743,0.9958113004965174
2025/04/09 10:25:28.365574453,1744187128,365131286,,-0.0004422579857043056,0.00012246509549591157,0.09156993960066272,0.9957985416597603
2025/04/09 10:25:28.458500597,1744187128,458350914,,-0.00045763237516629487,0.00013932048204604193,0.09170423651946141,0.9957861739182741
2025/04/09 10:25:28.559427838,1744187128,559120845,,-0.00047349784739545575,0.00010251885090978232,0.091832431231519,0.9957743569020956
