time,header_stamp_secs,header_stamp_nsecs,header_frame_id,quaternion_x,quaternion_y,quaternion_z,quaternion_w
2025/04/10 10:33:47.887314307,1744274027,771068423,,-0.0003522994076977781,-2.0385149358803452e-07,0.0025134743608135808,0.9999967791606748
2025/04/10 10:33:47.888827703,1744274027,869225855,,-0.00037821828440824266,-7.02277136066491e-06,0.002512302289644481,0.9999967726141997
2025/04/10 10:33:47.964574241,1744274027,964236492,,-0.0004099756475014701,1.9701079616376222e-06,0.002511241852174532,0.9999967627849837
2025/04/10 10:33:48.88928745,1744274028,66720284,,-0.0004391695248387399,4.996460159310458e-06,0.0025102653087541254,0.9999967528313497
2025/04/10 10:33:48.168061959,1744274028,167060199,,-0.0004584049473423023,-2.4310183374346143e-06,0.0025095601631552056,0.9999967459780966
2025/04/10 10:33:48.259889106,1744274028,259572253,,-0.00046443986657349436,5.0258228682038315e-06,0.002509120430316634,0.999996744287209
2025/04/10 10:33:48.362745242,1744274028,361712554,,-0.00046058495423670175,5.9777724320755694e-06,0.0025087857563408137,0.9999967469046062
2025/04/10 10:33:48.464332216,1744274028,464082556,,-0.0004470380634283661,-3.529857493402532e-06,0.0025085104861646847,0.9999967537545563
2025/04/10 10:33:48.565171153,1744274028,563430193,,-0.00042433631734604374,2.2270514989417857e-06,0.0025082600050424383,0.9999967642775036
2025/04/10 10:33:48.665726057,1744274028,664963542,,-0.0003960333399514911,2.0111020582695028e-06,0.002508031737297451,0.9999967764599813
2025/04/10 10:33:48.756146067,1744274028,755974037,,-0.0003683023422059568,-7.977265953278016e-06,0.002507822130546758,0.9999967875537948
2025/04/10 10:33:48.858743979,1744274028,858161765,,-0.0003464886108527791,-1.925531950909385e-06,0.0025076117268663014,0.999996795907548
2025/04/10 10:33:48.962896857,1744274028,962663742,,-0.00033444141450798923,-1.2701636342184053e-06,0.0025073821985083476,0.9999968005858006
2025/04/10 10:33:49.64046074,1744274029,63513304,,-0.0003309894507951084,-1.0106644370001982e-05,0.002507001420653325,0.9999968026387465
2025/04/10 10:33:49.166098590,1744274029,165891157,,-0.000342581497874819,-2.5138373386994045e-06,0.002506821465699426,0.9999967992337461
2025/04/10 10:33:49.261868649,1744274029,261671858,,-0.00036709328283662904,-2.2336467944901935e-07,0.0025069195994664485,0.9999967902931457
2025/04/10 10:33:49.363329078,1744274029,362041273,,-0.00039857351161495385,-7.583179619562656e-06,0.002507288732561737,0.9999967772872385
2025/04/10 10:33:49.463484481,1744274029,462411047,,-0.00043253008528209826,8.434468086501388e-07,0.0025079026280837476,0.9999967616654676
2025/04/10 10:33:49.564722961,1744274029,564159270,,-0.0004631700089555583,3.548590163818095e-06,0.002508585370720012,0.9999967462249005
2025/04/10 10:33:49.667880508,1744274029,665993066,,-0.0004835183618284285,-3.7931932175101965e-06,0.002509326808760032,0.9999967347319552
2025/04/10 10:33:49.757606668,1744274029,756514435,,-0.0004883979813051942,4.021970715205004e-06,0.0025102845830524017,0.9999967299559273
2025/04/10 10:33:49.859148241,1744274029,858533096,,-0.0004736884481941128,5.517289440142308e-06,0.0025112902494724304,0.9999967344997165
2025/04/10 10:33:49.961829409,1744274029,960100046,,-0.00044225978963778346,-3.3723962544367076e-06,0.002512310814992217,0.999996746339344
2025/04/10 10:33:50.65969190,1744274030,63501267,,-0.0004002992229547168,2.8148399310203773e-06,0.0025135182584926454,0.9999967609840409
2025/04/10 10:33:50.165771219,1744274030,165181378,,-0.00035737213463242034,2.704525721776123e-06,0.0025149553930953654,0.9999967736334021
2025/04/10 10:33:50.257645840,1744274030,255822081,,-0.00032367213713656935,-7.458311224553023e-06,0.002516614701056947,0.9999967809104026
2025/04/10 10:33:50.360792051,1744274030,360233241,,-0.00031065197297440504,-2.1366571250360874e-06,0.0025185009021531186,0.9999967803168129
2025/04/10 10:33:50.460896693,1744274030,460623793,,-0.0003210146552499231,-1.9486408370719424e-06,0.0025206117000059697,0.999996771726015
2025/04/10 10:33:50.562667179,1744274030,562455524,,-0.00034960299907279386,-1.0887431073256585e-05,0.002522924144129663,0.999996756251224
2025/04/10 10:33:50.663594169,1744274030,663066884,,-0.0003876155977436185,-3.3870206530942076e-06,0.0025253816316354563,0.999996736089819
2025/04/10 10:33:50.764165004,1744274030,763929184,,-0.00042410515274564863,-9.94138697437652e-07,0.0025277604238872218,0.9999967152751406
2025/04/10 10:33:50.865077940,1744274030,864926862,,-0.00044487946463134167,-7.871974935370041e-06,0.0025298324687628004,0.9999967009785452
2025/04/10 10:33:50.957846272,1744274030,957499599,,-0.00044581243006468365,1.1589202262278152e-06,0.0025315787744020733,0.9999966961739639
2025/04/10 10:33:51.57121227,1744274031,56951605,,-0.00043340326605701665,4.392692715907246e-06,0.002533216854042406,0.9999966974718885
2025/04/10 10:33:51.159425744,1744274031,158248716,,-0.00041258425881906857,-2.560765625492671e-06,0.0025348113926966158,0.9999967022440001
2025/04/10 10:33:51.260030590,1744274031,258933234,,-0.00038810700676694134,5.347379376512371e-06,0.0025365311417931053,0.9999967076716421
2025/04/10 10:33:51.360591858,1744274031,360461380,,-0.00036546461726683364,6.540459287221737e-06,0.0025384345233232914,0.9999967113660958
2025/04/10 10:33:51.461373773,1744274031,461140190,,-0.00035032817232683575,-2.944392170233872e-06,0.002540487552355965,0.9999967115868424
2025/04/10 10:33:51.562269338,1744274031,562015523,,-0.0003504022603631607,2.7209410749894783e-06,0.0025424841003953277,0.9999967064873022
2025/04/10 10:33:51.664448977,1744274031,664150339,,-0.00036349218350802663,2.3554332176959016e-06,0.0025443664491141796,0.9999966970281737
2025/04/10 10:33:51.763884382,1744274031,763580083,,-0.00037983132587427674,-7.921677921036454e-06,0.002545949193086727,0.9999966868985702
2025/04/10 10:33:51.864532530,1744274031,864301732,,-0.00039502227934505357,-2.2925892034156244e-06,0.0025471975584316895,0.9999966778628523
2025/04/10 10:33:51.965083585,1744274031,964869129,,-0.0004070064476160188,-2.2383293323580577e-06,0.0025481341249642747,0.9999966706710691
2025/04/10 10:33:52.55991985,1744274032,55817605,,-0.00041392379100498993,-1.1457886200899794e-05,0.002548803793938676,0.9999966660619585
2025/04/10 10:33:52.158424193,1744274032,158225769,,-0.0004197619971305478,-4.0962211388411665e-06,0.0025495770627477995,0.9999966617143718
2025/04/10 10:33:52.258044096,1744274032,257919312,,-0.00042432903137745145,-1.543528447382054e-06,0.002550564582721643,0.9999966572758131
2025/04/10 10:33:52.359122787,1744274032,358809399,,-0.0004260441748363729,-8.218782042221827e-06,0.0025517334249171037,0.999996653532071
2025/04/10 10:33:52.462432814,1744274032,461801945,,-0.0004228011317227634,1.197636664894388e-06,0.0025528758003965984,0.9999966520258537
2025/04/10 10:33:52.566527806,1744274032,565336212,,-0.00041469633975947716,4.827745029042989e-06,0.002553991317285178,0.9999966525603923
2025/04/10 10:33:52.664406708,1744274032,663387324,,-0.00040172871774996484,-1.932462696267048e-06,0.0025552705924673244,0.9999966545956552
2025/04/10 10:33:52.764385195,1744274032,764192745,,-0.0003876989371754385,6.113979246560213e-06,0.002556735776468037,0.9999966563715714
2025/04/10 10:33:52.858150610,1744274032,858002524,,-0.00037995023648269887,7.328441197032596e-06,0.0025583400490616494,0.9999966552345588
2025/04/10 10:33:52.958477135,1744274032,958182112,,-0.00037436036286761374,-2.2960090675166144e-06,0.002559696977153543,0.9999966538946179
2025/04/10 10:33:53.59624415,1744274033,58561039,,-0.0003717489303982659,2.9900481057842992e-06,0.00256078248296328,0.9999966520878294
2025/04/10 10:33:53.159651303,1744274033,159037625,,-0.0003761204314434518,2.0614607068222776e-06,0.002561968380638648,0.9999966474179741
2025/04/10 10:33:53.260347050,1744274033,260071671,,-0.0003846679133215224,-8.584502744088259e-06,0.002563135020901943,0.9999966411422427
2025/04/10 10:33:53.362005783,1744274033,361770079,,-0.00039395480944584555,-3.055333799675718e-06,0.002564260227076639,0.9999966346742177
2025/04/10 10:33:53.463690248,1744274033,462652168,,-0.0004021314524035099,-2.5991148929617128e-06,0.00256554411509528,0.9999966281277818
2025/04/10 10:33:53.566441272,1744274033,565549860,,-0.0004072605142462667,-1.1634528635555829e-05,0.0025669689675138804,0.9999966223312112
2025/04/10 10:33:53.668785426,1744274033,667684941,,-0.0004073715511027657,-3.90170011784664e-06,0.0025681426489945016,0.9999966193325508
2025/04/10 10:33:53.755521823,1744274033,755378857,,-0.0004019826751805667,-1.0470675185059821e-06,0.0025689957189435173,0.9999966193291998
2025/04/10 10:33:53.856651501,1744274033,856393519,,-0.00038886836917810844,-7.64738345246039e-06,0.002569391331268744,0.9999966234698474
2025/04/10 10:33:53.959785228,1744274033,957995377,,-0.0003780583253167142,1.6469475439493923e-06,0.002569665801641475,0.9999966269377403
2025/04/10 10:33:54.60649472,1744274034,60445474,,-0.0003963254598465028,7.505006679483826e-06,0.002584393736884255,0.999996581883567
2025/04/10 10:33:54.159552067,1744274034,159419297,,-0.0005351362158922886,3.270435599284186e-05,0.0026914825418485598,0.9999962342336007
2025/04/10 10:33:54.260288516,1744274034,260162178,,-0.0006239666903584263,0.0001409536028436094,0.0028151879478832175,0.9999958327485516
2025/04/10 10:33:54.362086630,1744274034,360968671,,-0.0006183456414328042,0.0003271848609239437,0.0029404354605337486,0.9999954322085861
2025/04/10 10:33:54.463076657,1744274034,462672018,,-0.0005035843693405748,0.0005902932695380299,0.0030539783317641302,0.9999950355741712
2025/04/10 10:33:54.564955064,1744274034,564759094,,-0.00031580489267780043,0.0008735515069596506,0.003145443566644701,0.9999946216654385
2025/04/10 10:33:54.657573887,1744274034,656501715,,-0.00011732413485826489,0.0011413961504172852,0.0032235843013844316,0.9999941459599286
2025/04/10 10:33:54.758113225,1744274034,757843019,,2.6007145573804998e-05,0.001301944435452995,0.0033028261643059283,0.9999936977819629
2025/04/10 10:33:54.859847032,1744274034,859585577,,9.224661469976019e-05,0.0013436511420566858,0.0033861717436532977,0.9999933599445013
2025/04/10 10:33:54.960412825,1744274034,960173775,,7.057177063945818e-05,0.0012465459107730706,0.0034722660579622326,0.9999931922324973
2025/04/10 10:33:55.60818445,1744274035,60619207,,-3.8845418196688614e-05,0.001029745642622717,0.003562518752034917,0.9999931232638984
2025/04/10 10:33:55.164082755,1744274035,162995232,,-0.00021707308101706068,0.0007196256549785671,0.003657457269890889,0.999993028987959
2025/04/10 10:33:55.263935223,1744274035,263805312,,-0.00040721800555694574,0.0003795646661886816,0.0037453461988421863,0.9999928312173098
2025/04/10 10:33:55.365772001,1744274035,365534073,,-0.0005712098582930301,6.37902810844321e-05,0.0038262503000206422,0.9999925147013549
2025/04/10 10:33:55.456954334,1744274035,456663310,,-0.0006441099389214309,-0.0001703403762008459,0.0038736641829921043,0.9999922753863353
2025/04/10 10:33:55.558748406,1744274035,557089462,,-0.0006598266381637511,-0.0002826647519682768,0.003922612039351281,0.9999920488905071
2025/04/10 10:33:55.658890810,1744274035,658637194,,-0.0006165672857814536,-0.0002713575798252885,0.003979814311918756,0.9999918536107625
2025/04/10 10:33:55.763898281,1744274035,763536176,,-0.0005099755068017468,-0.000126898373196582,0.004031859947895439,0.999991733929409
2025/04/10 10:33:55.860955603,1744274035,860503491,,-0.0003782259833884532,0.00011972338636522549,0.0040918162695020854,0.9999915497898134
2025/04/10 10:33:55.962656286,1744274035,960964997,,-0.0002422127462089293,0.0004180920412716979,0.004154339514977762,0.9999912539593658
2025/04/10 10:33:56.63393997,1744274036,62303799,,-0.0001366411605379423,0.0007080829920197922,0.004219101311635636,0.9999908395239387
2025/04/10 10:33:56.164488093,1744274036,163328965,,-8.384264860210325e-05,0.0009415005381972533,0.004285407499601929,0.9999903708684945
2025/04/10 10:33:56.265145300,1744274036,263625621,,-0.00010529105714821859,0.0010799465220154086,0.004354784938466295,0.9999899291880107
2025/04/10 10:33:56.364758539,1744274036,364595054,,-0.0001888880012242846,0.0010809012092527176,0.0044332528512885366,0.9999895710671464
2025/04/10 10:33:56.456550125,1744274036,454940008,,-0.0002976045378643897,0.0009473839170747471,0.00450300139792623,0.9999893683803158
2025/04/10 10:33:56.556612849,1744274036,556395283,,-0.0004342503343979603,0.000721344288672816,0.00457732117510745,0.9999891695513128
2025/04/10 10:33:56.659158607,1744274036,657593694,,-0.0005539307611312765,0.0004251884410644148,0.004655411187004203,0.9999889196997042
2025/04/10 10:33:56.758556192,1744274036,758408776,,-0.000638314170536139,0.00011664773088162333,0.004737600758054237,0.9999885669783349
2025/04/10 10:33:56.860255232,1744274036,858911608,,-0.0006652909010136639,-0.0001488346526762888,0.004823072228981093,0.9999881365348977
2025/04/10 10:33:56.961236090,1744274036,961080064,,-0.000617070966191238,-0.00034194254052608274,0.004909555849164092,0.999987699204388
2025/04/10 10:33:57.62690789,1744274037,62548822,,-0.0005187083486258668,-0.0004111785495196017,0.0049984749174236155,0.9999872884803833
2025/04/10 10:33:57.163648258,1744274037,162478421,,-0.00039294894661663854,-0.00036289042119130594,0.005089530561748942,0.9999869052044275
2025/04/10 10:33:57.263515336,1744274037,263248301,,-0.0002678584921608425,-0.00020001330812634228,0.005191785315881172,0.9999864667142944
2025/04/10 10:33:57.364761281,1744274037,364424021,,-0.00017301358563842715,5.792846062659232e-05,0.005298630025546403,0.9999859455164583
2025/04/10 10:33:57.456318400,1744274037,455237580,,-0.00011659761567713755,0.00033081627058070893,0.005397790218118264,0.9999853703061622
2025/04/10 10:33:57.557538067,1744274037,556461330,,-0.00013564560727171777,0.0006062862362106789,0.005501669735826694,0.9999846727062305
2025/04/10 10:33:57.657332271,1744274037,657072096,,-0.0002213400005806937,0.0008134490459535047,0.005609400523622103,0.9999839118380952
2025/04/10 10:33:57.760438060,1744274037,759875671,,-0.00034088462850815325,0.0009163277540368134,0.005709884927233403,0.9999832205368423
2025/04/10 10:33:57.860696465,1744274037,860532297,,-0.00047855408688531146,0.0008970748467158682,0.005810166204568458,0.9999826039543791
2025/04/10 10:33:57.962368813,1744274037,962094291,,-0.0006042938492567574,0.0007760334321031741,0.005909273121622542,0.9999820563851284
2025/04/10 10:33:58.63649849,1744274038,62576577,,-0.0006761502675733475,0.0005447250034352445,0.005994729433188501,0.9999816544889757
2025/04/10 10:33:58.163267327,1744274038,163104968,,-0.0007016470685438826,0.00025801137692856816,0.006078091622480766,0.9999812487860706
2025/04/10 10:33:58.264913146,1744274038,264707229,,-0.0006659732702017399,-2.9086479247474024e-05,0.006155653571264701,0.9999808315976315
2025/04/10 10:33:58.356726198,1744274038,356334533,,-0.0005799045759227375,-0.00027570809074751177,0.00623049603933391,0.9999803841150262
2025/04/10 10:33:58.457213153,1744274038,456136430,,-0.0004656321878925372,-0.000414577570131656,0.006303051571862438,0.999979941225316
2025/04/10 10:33:58.559478098,1744274038,558372492,,-0.00034000521838926977,-0.0004579948413747891,0.006372237647274485,0.9999795344028514
2025/04/10 10:33:58.658908030,1744274038,658706795,,-0.00020109311398832435,-0.0003823373173506112,0.006402735892306196,0.999979408964419
2025/04/10 10:33:58.761138783,1744274038,759235270,,-0.0001329926783210539,-0.0001938942820243899,0.006430934161906647,0.9999792936875044
2025/04/10 10:33:58.860363425,1744274038,860140330,,-0.0001398472562155897,6.92322653804321e-05,0.006461866677693391,0.9999791097461377
2025/04/10 10:33:58.960907520,1744274038,960689844,,-0.00021586308782353306,0.00034743825725603043,0.006491108588953695,0.9999788488758505
2025/04/10 10:33:59.62975008,1744274039,61713114,,-0.000343279928734688,0.0006086635431938769,0.0065190477027873206,0.9999785066213326
2025/04/10 10:33:59.164039005,1744274039,163883922,,-0.0004990044873131811,0.0007976927363618152,0.006553016432386572,0.9999780860881187
2025/04/10 10:33:59.265576244,1744274039,264875042,,-0.0006737758323773357,0.0008777062958592366,0.006626732751302163,0.9999774307807295
2025/04/10 10:33:59.355828644,1744274039,355578765,,-0.0007648346319086433,0.0008421768800283135,0.0066903578381945486,0.9999769721739024
2025/04/10 10:33:59.457485473,1744274039,456456722,,-0.0007767271306807652,0.0006874506039331465,0.006755875493169647,0.9999766408536513
2025/04/10 10:33:59.562004565,1744274039,560887220,,-0.0007103325490119678,0.0004333176530509131,0.006823651832314998,0.9999763724404456
2025/04/10 10:33:59.659888351,1744274039,658445738,,-0.0005722222336423699,0.00015955325493801877,0.006887051551991345,0.9999761075272721
2025/04/10 10:33:59.760080933,1744274039,759725739,,-0.0003588132339375741,-0.00012863751528959018,0.006917732353140607,0.9999759995542609
2025/04/10 10:33:59.862238635,1744274039,861772230,,-0.00018529523605521756,-0.0003408033341109219,0.00696161384458578,0.9999756924302919
2025/04/10 10:33:59.963308956,1744274039,962183386,,-7.095528968113551e-05,-0.0004744986524433839,0.007008159299340118,0.9999753274554382
2025/04/10 10:34:00.64759297,1744274040,64459242,,-3.937791432812751e-05,-0.00047044132075094755,0.007055472784084313,0.9999749984065285
2025/04/10 10:34:00.164909955,1744274040,163771293,,-8.631629902320929e-05,-0.0003588306695574991,0.0070913193486222,0.9999747881721534
2025/04/10 10:34:00.257526836,1744274040,257244907,,-0.00021809227381219254,-0.0001429891101438465,0.007127470746455971,0.9999745652518532
2025/04/10 10:34:00.356761723,1744274040,356477994,,-0.00040014655783293164,0.0001394069410144842,0.0071633826157503425,0.9999742528675113
2025/04/10 10:34:00.460143825,1744274040,458842566,,-0.0005861682566195803,0.00042524370968361055,0.007198471798810208,0.9999738284466869
2025/04/10 10:34:00.558607762,1744274040,558289588,,-0.0007271369288040309,0.0006590858159477463,0.007238499357196017,0.9999733201465076
2025/04/10 10:34:00.660456797,1744274040,660261175,,-0.0007843357716372018,0.000834688520450783,0.007273574164537233,0.9999728912482299
2025/04/10 10:34:00.761060052,1744274040,760751600,,-0.0007092021684664887,0.0008882285505644868,0.007268842471977439,0.9999729356394821
2025/04/10 10:34:00.862984071,1744274040,862864368,,-0.000575803198419806,0.0008138923389374198,0.00726907493177138,0.9999730829275224
2025/04/10 10:34:00.963827129,1744274040,963494400,,-0.0004159256660238812,0.0006375234749449889,0.007269529110772017,0.9999732869012886
2025/04/10 10:34:01.59584112,1744274041,57830468,,-0.0002635318760738055,0.0003868874511549749,0.007270192122815171,0.9999734622356474
2025/04/10 10:34:01.157685898,1744274041,156522053,,-0.00017318354653403026,9.592568546562247e-05,0.007298934839916114,0.9999733428226598
2025/04/10 10:34:01.257855085,1744274041,257614080,,-0.00013164655487778854,-0.00017111247775415057,0.00733392466371365,0.9999730831071062
2025/04/10 10:34:01.358768965,1744274041,358452116,,-0.0001447055639751658,-0.0003627130852199178,0.0073664122783366716,0.9999727913646766
2025/04/10 10:34:01.463976971,1744274041,462362020,,-0.0002173308278841633,-0.0004558648042947374,0.007401899157522509,0.9999724780429976
2025/04/10 10:34:01.563514019,1744274041,563268618,,-0.0003329707771142179,-0.0004215534965302947,0.007440608578241932,0.999972173996405
2025/04/10 10:34:01.665110455,1744274041,663684809,,-0.00046592920601571796,-0.0002816021698024367,0.007482859352027005,0.9999718548169797
2025/04/10 10:34:01.765874230,1744274041,764803701,,-0.0005847861511640069,-5.456993448556058e-05,0.0075282301560501185,0.9999714899925883
2025/04/10 10:34:01.856161502,1744274041,855617345,,-0.0006652552611323651,0.00022406405450582046,0.007577164810210086,0.9999710464829349
2025/04/10 10:34:01.956553275,1744274041,956358174,,-0.000688766013923833,0.0004809932672667925,0.0076296134139151525,0.9999705411890938
2025/04/10 10:34:02.57689190,1744274042,57317521,,-0.0006425756715158485,0.0006981225186662323,0.007690275366643798,0.9999699792424973
2025/04/10 10:34:02.158575605,1744274042,158244542,,-0.0005208965856640834,0.0008189638676828573,0.0077324293920936005,0.9999696332892448
2025/04/10 10:34:02.259165609,1744274042,258994385,,-0.0003888596073185782,0.0008361737555687361,0.0077744095947254255,0.9999693536089542
2025/04/10 10:34:02.359980761,1744274042,359867698,,-0.00027040328287492244,0.0007326833172700193,0.007815951272555055,0.999969150005602
2025/04/10 10:34:02.462115091,1744274042,461879102,,-0.00018429080565352627,0.0005498214721949535,0.007863997235036021,0.9999689101570783
2025/04/10 10:34:02.562046228,1744274042,561803268,,-0.00015017381251261576,0.0002883980176783345,0.007914157494293955,0.9999686297007346
2025/04/10 10:34:02.664740026,1744274042,662641330,,-0.000175181549661172,2.988789079023049e-05,0.007965118045450895,0.9999682621526849
2025/04/10 10:34:02.763990442,1744274042,763666628,,-0.0002572368640385351,-0.00019330357450405268,0.008020417052518955,0.9999677841676838
2025/04/10 10:34:02.864360766,1744274042,864094545,,-0.00037476878260164575,-0.00035075533038277817,0.008080560526003665,0.9999672199930573
2025/04/10 10:34:02.956753359,1744274042,956460075,,-0.0004926026953500437,-0.00039438680121267904,0.008152070593290662,0.9999665722146304
2025/04/10 10:34:03.57900972,1744274043,55845146,,-0.0005809017421438171,-0.0003416749542055493,0.008229957491957662,0.9999659062243433
2025/04/10 10:34:03.157062882,1744274043,156840757,,-0.0006185079809987056,-0.0001848134728493827,0.00831380671404338,0.9999652313504601
2025/04/10 10:34:03.258404607,1744274043,257571442,,-0.0005996129614131067,3.867528844031059e-05,0.008402415039531923,0.9999645185655449
2025/04/10 10:34:03.359833864,1744274043,358278530,,-0.0005199837225052603,0.0003040281386037132,0.008481466833724218,0.9999638502986834
2025/04/10 10:34:03.460453813,1744274043,459336443,,-0.00042216018726808335,0.0005399090692168721,0.008563675732177962,0.999963096187518
2025/04/10 10:34:03.561888231,1744274043,561725309,,-0.0003250153441465453,0.0007173558040884972,0.008648047907840774,0.9999622948056892
2025/04/10 10:34:03.662442564,1744274043,661389148,,-0.0002546802096369752,0.000789530137730685,0.008735675443164118,0.9999614991361938
2025/04/10 10:34:03.762820622,1744274043,761773343,,-0.00022673213105248302,0.0007546846994930345,0.008826412963332643,0.9999607359680408
2025/04/10 10:34:03.864940218,1744274043,864319040,,-0.00024573475414276164,0.0005907858203804551,0.008919505356708416,0.9999600157059965
2025/04/10 10:34:03.965109542,1744274043,964945171,,-0.00030529311990830653,0.000358370997434771,0.00901404164405733,0.999959261879992
2025/04/10 10:34:04.65369565,1744274044,64176212,,-0.00038927392391392,4.3407367011123545e-05,0.009109463508875757,0.9999584312641167
2025/04/10 10:34:04.155836721,1744274044,155612339,,-0.00048340713814041966,-0.0002629874522162742,0.009201061944905504,0.9999575179047482
2025/04/10 10:34:04.256788831,1744274044,256466353,,-0.0005696072238482557,-0.0005390504721557388,0.009292673091472609,0.9999565146540194
2025/04/10 10:34:04.357526417,1744274044,357256859,,-0.0006333301110980456,-0.0007329952206221664,0.009392387137126335,0.9999554213437933
2025/04/10 10:34:04.458541240,1744274044,458372870,,-0.0006461942317823725,-0.000816540261851988,0.009492735493163361,0.9999544007942924
2025/04/10 10:34:04.560646318,1744274044,559398954,,-0.0006115553023045828,-0.0007795622594186377,0.00959368002243635,0.9999534887115615
2025/04/10 10:34:04.660891810,1744274044,660648511,,-0.0005313072717172245,-0.0006445958853660938,0.009694140866966275,0.9999526618003369
2025/04/10 10:34:04.767677461,1744274044,767503688,,-0.00043100052955684473,-0.0004324543401390174,0.009796686912367946,0.9999518249132446
2025/04/10 10:34:04.862701599,1744274044,862442602,,-0.0003483787066280938,-0.00019693734541462404,0.009912423174364656,0.9999507906466053
2025/04/10 10:34:04.964678099,1744274044,963595529,,-0.00027694530244454593,4.3679268700912154e-05,0.010028138115126121,0.9999496776535132
2025/04/10 10:34:05.65684756,1744274045,64506014,,-0.000244796299960199,0.000224282241700954,0.010147661903021622,0.9999484560366847
2025/04/10 10:34:05.157651558,1744274045,156396118,,-0.00026420130164896296,0.0003019295504451886,0.010280383790157449,0.9999470749721436
2025/04/10 10:34:05.260401802,1744274045,259851998,,-0.00031538973676010324,0.0002845425514440052,0.010415848278124282,0.9999456633585134
2025/04/10 10:34:05.361194420,1744274045,360940448,,-0.00038927726379512034,0.00015949439521099166,0.010551113765257546,0.9999442469573303
2025/04/10 10:34:05.463585897,1744274045,463357794,,-0.00046762695248485483,-4.53576070091453e-05,0.010689792516511065,0.99994275216318
2025/04/10 10:34:05.568004408,1744274045,567589212,,-0.0005319161342472278,-0.0003051105926129736,0.010824630993970174,0.9999412239409858
2025/04/10 10:34:05.665456981,1744274045,664877427,,-0.000574861680964088,-0.0005594964614780984,0.010962324528036308,0.9999395901446744
2025/04/10 10:34:05.756143398,1744274045,755990440,,-0.0006003040592977478,-0.0007809926409845439,0.011112919285193456,0.9999377644186122
2025/04/10 10:34:05.857433826,1744274045,857275973,,-0.0005879803794824089,-0.0009232690214468327,0.011261070919711057,0.9999359930191175
2025/04/10 10:34:05.958917964,1744274045,958727911,,-0.0005469629205916626,-0.0009682896143384871,0.011407877009181062,0.9999343096368529
2025/04/10 10:34:06.59940152,1744274046,59229486,,-0.0005037171551259687,-0.0009004427514875776,0.011566005899291734,0.9999325792169272
2025/04/10 10:34:06.162503030,1744274046,162125537,,-0.0004517026522511922,-0.0007460639856745506,0.011721319242424614,0.9999309226283886
2025/04/10 10:34:06.264008489,1744274046,262493469,,-0.00041855447734480904,-0.0005245782652408659,0.011886767495746053,0.9999291246824923
2025/04/10 10:34:06.365858961,1744274046,365546702,,-0.0003891563362807378,-0.0002796311677477386,0.01204576111922277,0.9999273323611144
2025/04/10 10:34:06.464291338,1744274046,463996947,,-0.0003799049237576899,-6.260778355056253e-05,0.012203826522006434,0.9999254564069939
2025/04/10 10:34:06.565441872,1744274046,565207404,,-0.0004056822940373459,0.00011388146133717662,0.012362237326665868,0.9999234958441412
2025/04/10 10:34:06.658677675,1744274046,656854997,,-0.00045018957741757874,0.00017713204075182825,0.012520187203994624,0.9999215023520404
2025/04/10 10:34:06.761073078,1744274046,759788469,,-0.0005068531050553119,0.0001628461473997311,0.012674219781840529,0.9999195371298552
2025/04/10 10:34:06.859637215,1744274046,858722862,,-0.0005655317339168322,4.6886929263536134e-05,0.012832926846001505,0.9999174935783647
2025/04/10 10:34:06.960850991,1744274046,960494375,,-0.0005862916150856922,-0.00015161217585468232,0.012981217088713958,0.9999155570740891
2025/04/10 10:34:07.60220902,1744274047,59972437,,-0.0005701568334011605,-0.0003834980850894399,0.013125027857531897,0.9999136270169254
2025/04/10 10:34:07.161380078,1744274047,161078252,,-0.0005405117404648985,-0.0006095756518434107,0.013276920029435658,0.9999115259157257
2025/04/10 10:34:07.265994270,1744274047,265724878,,-0.00047919568255743513,-0.0007830706285469846,0.013420896224698553,0.999909514264373
2025/04/10 10:34:07.363003396,1744274047,362830489,,-0.00041576005673939263,-0.0008784330198906426,0.01357075283109411,0.9999074407996983
2025/04/10 10:34:07.464259999,1744274047,463685377,,-0.00034234135197583863,-0.0008875295672882289,0.013709611471970265,0.999905566364621
2025/04/10 10:34:07.564296819,1744274047,564075030,,-0.0002859998952984654,-0.0007963951709821348,0.013845431618340951,0.9999037893628033
2025/04/10 10:34:07.666827107,1744274047,666538705,,-0.0002857529888296149,-0.0006095961596636251,0.013990350751453861,0.9999019036003496
2025/04/10 10:34:07.758271445,1744274047,757184265,,-0.0003147410429601908,-0.0003804277068405577,0.014127089548489954,0.9999000857854372
2025/04/10 10:34:07.856727995,1744274047,856567599,,-0.0003680947366623077,-0.00013907111871898725,0.014260018469707066,0.9998982433421575
2025/04/10 10:34:07.959599375,1744274047,959111163,,-0.0004445085186844632,7.150353332436133e-05,0.014396866347442498,0.9998962583882367
2025/04/10 10:34:08.60807375,1744274048,60512223,,-0.0005203456113022727,0.00022176984840772236,0.014526806986639086,0.9998943203845855
2025/04/10 10:34:08.160046493,1744274048,159810493,,-0.0005804053623043724,0.0002656294451288774,0.01465558005705694,0.9998923974827514
2025/04/10 10:34:08.261548785,1744274048,261230977,,-0.0006301961076277361,0.00021973987845089963,0.014793350032747168,0.9998903496694327
2025/04/10 10:34:08.363922099,1744274048,362767315,,-0.000640786945148446,8.425881893507694e-05,0.014924487181574604,0.999888414761822
2025/04/10 10:34:08.464339590,1744274048,464042371,,-0.0006144898191633565,-0.0001092800173674135,0.01505321771278497,0.9998864991070894
2025/04/10 10:34:08.569583034,1744274048,568505111,,-0.0005658587955144913,-0.0003142743759030053,0.015181003209281084,0.9998845524244286
2025/04/10 10:34:08.657060143,1744274048,656768589,,-0.0004901204557157322,-0.0005183302980494209,0.015305319148002709,0.9998826122707699
2025/04/10 10:34:08.760162967,1744274048,758529942,,-0.0004044366682666722,-0.0006754229524014505,0.015425372912900692,0.9998807119378365
2025/04/10 10:34:08.860189949,1744274048,859724521,,-0.000334961705551442,-0.0007301866424215218,0.015538064520009928,0.9998789542635124
2025/04/10 10:34:08.961705238,1744274048,961534684,,-0.0002952403989494584,-0.0007060228541755649,0.01565691404621658,0.9998771301551934
2025/04/10 10:34:09.62070679,1744274049,61836151,,-0.0002702925222259929,-0.0005784296728038377,0.0157683158331953,0.9998754685343824
2025/04/10 10:34:09.162797927,1744274049,162655352,,-0.00026927455043346894,-0.00039416048385340884,0.015873947220108302,0.9998738870119485
2025/04/10 10:34:09.264043481,1744274049,263848334,,-0.00030371894345018643,-0.00016074027663037145,0.015973457725828432,0.9998723571364737
2025/04/10 10:34:09.365642785,1744274049,364381890,,-0.0003886038688835747,5.808204583310871e-05,0.016081485126589898,0.9998706073535877
2025/04/10 10:34:09.456705399,1744274049,456141709,,-0.00046994476226663986,0.00023963667645455935,0.016184496628972797,0.999868883301731
2025/04/10 10:34:09.557093324,1744274049,556837650,,-0.0005274262645782045,0.0003465031853161034,0.01628253991047259,0.9998672315118352
2025/04/10 10:34:09.659076072,1744274049,658036999,,-0.0005559512273310579,0.0003856563327006926,0.016376553543476453,0.9998656663179627
2025/04/10 10:34:09.759753415,1744274049,758735031,,-0.0005530302651713948,0.00030814176785046204,0.01646687449803715,0.9998642114059502
2025/04/10 10:34:09.861852451,1744274049,860042010,,-0.0005074558594658286,0.00017470479125662278,0.01655213491789059,0.9998628599945327
2025/04/10 10:34:09.961753835,1744274049,961427184,,-0.00043518362187947474,-1.4465623847584768e-05,0.016633038888251083,0.9998615666297525
2025/04/10 10:34:10.64581694,1744274050,62926661,,-0.0003481930619331932,-0.00021594106805662719,0.01670921924270796,0.9998603073046484
2025/04/10 10:34:10.163687319,1744274050,162560119,,-0.0002752252822778066,-0.0003956549747942895,0.016783509291971442,0.9998590308258616
2025/04/10 10:34:10.264613801,1744274050,264397380,,-0.00024411830996641425,-0.000503449740821976,0.016866234279985994,0.9998575984038036
2025/04/10 10:34:10.365411604,1744274050,365087117,,-0.00023757598311986263,-0.000544837282485433,0.016943910820637915,0.9998562649681654
2025/04/10 10:34:10.457042103,1744274050,455509917,,-0.00026036198932195777,-0.0004965167104397695,0.017013011989738144,0.9998551110565109
2025/04/10 10:34:10.556817367,1744274050,556526961,,-0.0003135393325504986,-0.0003610133491326925,0.017078258545925047,0.9998540415718122
2025/04/10 10:34:10.658065177,1744274050,657871816,,-0.0003856787586056274,-0.00017961423325565896,0.0171399286341585,0.9998530101155061
2025/04/10 10:34:10.759695938,1744274050,758636642,,-0.0004634632068578743,3.38135829023966e-05,0.017200126332022808,0.9998519588982461
2025/04/10 10:34:10.859741275,1744274050,859475367,,-0.0005424892012821807,0.00022167316617028123,0.017269421696636044,0.9998507006752246
2025/04/10 10:34:10.962150234,1744274050,960507355,,-0.0005850761390301503,0.00037825543933535757,0.01733566276953684,0.9998494833749103
2025/04/10 10:34:11.63093214,1744274051,62906122,,-0.0005810335806040632,0.00044772207125777643,0.017398879078943087,0.999848358978361
2025/04/10 10:34:11.167880326,1744274051,165670892,,-0.0005261155153344525,0.000450756178476677,0.01745838486585505,0.9998473507587085
2025/04/10 10:34:11.264098075,1744274051,263862010,,-0.0004402940744403902,0.0003672067321178517,0.017514926920665985,0.9998464375269372
2025/04/10 10:34:11.366193223,1744274051,365330559,,-0.0003450554919080791,0.00021924110803830683,0.017568853217119106,0.9998455722093684
2025/04/10 10:34:11.457018771,1744274051,455817343,,-0.0002619399237705648,3.980472573792534e-05,0.017620286494811076,0.9998447155968275
2025/04/10 10:34:11.558755758,1744274051,556334973,,-0.00020955307775207812,-0.00013731166287735965,0.017668997391155114,0.9998438596922052
2025/04/10 10:34:11.657553852,1744274051,657094440,,-0.000198444321369651,-0.0002905004263046782,0.0177150895851148,0.9998430135928065
2025/04/10 10:34:11.759109113,1744274051,758009153,,-0.0002289923545366587,-0.0003816351466266901,0.017758495397737505,0.9998422064297571
2025/04/10 10:34:11.859264296,1744274051,859112034,,-0.0002929364578145985,-0.0003988697570006056,0.017799269261227463,0.9998414579846722
2025/04/10 10:34:11.961165522,1744274051,960071552,,-0.0003741462697430116,-0.00033628458910792255,0.01783744857578597,0.9998407735012361
2025/04/10 10:34:12.61105966,1744274052,60956007,,-0.00044879240579371275,-0.0002053444098649537,0.017872535247680583,0.9998401516756917
2025/04/10 10:34:12.162330825,1744274052,162041218,,-0.0005005555560994347,-2.9527821887144358e-05,0.01790438557599063,0.9998395779070707
2025/04/10 10:34:12.263044602,1744274052,262796447,,-0.0005248035380918741,0.0001633635595878412,0.0179354294424683,0.9998389961710376
2025/04/10 10:34:12.364870242,1744274052,363662550,,-0.0005301018668009644,0.00033953496362476804,0.017977423556186447,0.9998381948847027
2025/04/10 10:34:12.464803552,1744274052,464515745,,-0.000490382863079787,0.0004617001398436141,0.018023433970447915,0.9998373378632853
2025/04/10 10:34:12.567846720,1744274052,565677325,,-0.00041897523599609374,0.0005155418430728535,0.01806892891230017,0.9998365228797765
2025/04/10 10:34:12.656101473,1744274052,655975517,,-0.00034227113551162157,0.00048529843842378263,0.01811475741813048,0.9998357379587798
2025/04/10 10:34:12.758090776,1744274052,756812133,,-0.0002696796599572265,0.0003983916543716325,0.018153009979136554,0.9998351047976202
2025/04/10 10:34:12.857952977,1744274052,857745565,,-0.00022161424155128765,0.00024428534874565877,0.018189938211091144,0.9998344949838813
2025/04/10 10:34:12.958233839,1744274052,958075920,,-0.00020658001212195602,7.311098595268166e-05,0.018225162256289937,0.9998338839228316
2025/04/10 10:34:13.59564285,1744274053,59266980,,-0.0002359468798829567,-0.00010223657229435726,0.018260863100118728,0.9998332234705906
2025/04/10 10:34:13.160117204,1744274053,159896131,,-0.00030216501223818395,-0.00023742520493119765,0.0183025602501738,0.9998324202654494
2025/04/10 10:34:13.262333418,1744274053,262161446,,-0.0003871500576105284,-0.0003176718453141697,0.018345532532981254,0.9998315811352995
2025/04/10 10:34:13.364822190,1744274053,363472085,,-0.00046634619610258385,-0.00031600453854844005,0.018388808762080124,0.999830752865038
2025/04/10 10:34:13.464442868,1744274053,464190749,,-0.0005182067903876045,-0.0002482727131278785,0.01843049284843039,0.99982997892429
2025/04/10 10:34:13.565777219,1744274053,565645091,,-0.0005361075807396412,-0.00010017769632107444,0.01847315747247294,0.9998292079180765
2025/04/10 10:34:13.655918980,1744274053,655691984,,-0.0005151788616935661,6.194208145460316e-05,0.018516717962652536,0.999828416234411
2025/04/10 10:34:13.756845216,1744274053,756571047,,-0.00046029582007130345,0.00024724347673705924,0.018565353160638495,0.9998275124542443
2025/04/10 10:34:13.857782013,1744274053,857431696,,-0.00038711027367506213,0.00039847776862860445,0.01861645522400178,0.9998265444345817
2025/04/10 10:34:13.958310369,1744274053,958116830,,-0.00031347131752888324,0.00048436810512052925,0.018669903736991754,0.9998255356899639
2025/04/10 10:34:14.59633644,1744274054,59495783,,-0.00024886939212438627,0.0005228512607323411,0.018724850181368803,0.9998245069392279
2025/04/10 10:34:14.160015417,1744274054,159672435,,-0.00020028378782920622,0.0004792631812652856,0.0187799223071337,0.9998235067807445
2025/04/10 10:34:14.262007138,1744274054,260861234,,-0.0001883085794398724,0.00036490437271639257,0.01883670472030007,0.9998224892149395
2025/04/10 10:34:14.362146388,1744274054,361937205,,-0.00022298543050695006,0.00021200633501599654,0.018896340326867263,0.9998214008777082
2025/04/10 10:34:14.462972857,1744274054,462740877,,-0.0002952227165816601,4.2771874900449066e-05,0.0189598245065658,0.9998202018707136
2025/04/10 10:34:14.563624767,1744274054,563505224,,-0.00038249081112595935,-0.00011258660460495953,0.019032048816477687,0.9998187946537528
2025/04/10 10:34:14.665460388,1744274054,664274207,,-0.0004690289510249363,-0.00022733877936325283,0.01910942471046582,0.9998172624115657
2025/04/10 10:34:14.765405481,1744274054,765281007,,-0.000531989035967014,-0.0002832793015844191,0.019189930421544196,0.9998156746675455
2025/04/10 10:34:14.856014550,1744274054,855403015,,-0.0005442428792262101,-0.00026286765376368903,0.019262750893937093,0.9998142733169412
2025/04/10 10:34:14.957452096,1744274054,956316603,,-0.0005182992391763105,-0.00017533618073701862,0.019338546609046336,0.9998128431052344
2025/04/10 10:34:15.58023723,1744274055,57798582,,-0.0004555192762610132,-3.995893425779554e-05,0.019420582725772777,0.9998112981318344
2025/04/10 10:34:15.160190568,1744274055,158664056,,-0.0003788116610028775,0.0001221157950323295,0.0195076814215906,0.9998096278567294
2025/04/10 10:34:15.261614772,1744274055,261371875,,-0.00030950530014881743,0.0002810310413864496,0.019600122871886415,0.9998078117375508
2025/04/10 10:34:15.364729192,1744274055,362874435,,-0.000259129036806801,0.00041297431565372634,0.019695614917133262,0.9998059036920081
2025/04/10 10:34:15.463337703,1744274055,462769780,,-0.00022355672750243462,0.00047787309777720747,0.019781840885760398,0.9998041810428993
2025/04/10 10:34:15.564093865,1744274055,563765830,,-0.00024078493523989049,0.00048289397070602167,0.019872799000064535,0.999802370819319
2025/04/10 10:34:15.665023305,1744274055,664650331,,-0.00030266719790810343,0.00042087420444502705,0.01996831740355428,0.9998004788744314
2025/04/10 10:34:15.757088907,1744274055,756794444,,-0.0003881214676817246,0.0003031780105470435,0.02006736582404783,0.9997985088375078
2025/04/10 10:34:15.857451915,1744274055,857253038,,-0.00046589513111200615,0.00016564949517962788,0.020167320689841107,0.999796496632272
2025/04/10 10:34:15.959259890,1744274055,957640033,,-0.0005270595522357182,-4.777019514832677e-06,0.02027096534689539,0.9997943839356738
2025/04/10 10:34:16.59097062,1744274056,58903884,,-0.0005587157350970484,-0.00014103330194037715,0.02037939391149945,0.999792152524781
2025/04/10 10:34:16.161492373,1744274056,161013531,,-0.0005526930607094487,-0.0002166480477504213,0.020491053461400136,0.9997898600816304
2025/04/10 10:34:16.261214663,1744274056,260919924,,-0.0005158252820804459,-0.0002558867562641259,0.020606533975510672,0.9997874970231236
2025/04/10 10:34:16.362670811,1744274056,362373186,,-0.0004475848759023608,-0.00022739129119200298,0.02072405600708165,0.9997851076424348
2025/04/10 10:34:16.462887266,1744274056,462619662,,-0.000358620636976589,-0.00013664977221921546,0.020844986856611365,0.9997826459991322
2025/04/10 10:34:16.563725641,1744274056,563501264,,-0.0002919384189204769,-1.2016232073708781e-05,0.020981623460620887,0.9997798188123855
2025/04/10 10:34:16.657951339,1744274056,656819225,,-0.00023651580203663233,0.0001377772887039849,0.021118907817693513,0.999776933525815
2025/04/10 10:34:16.758684530,1744274056,757098434,,-0.0002064539721505236,0.0002745958682333957,0.021263381148106945,0.9997738497260352
2025/04/10 10:34:16.859560215,1744274056,858102947,,-0.00020380438016653714,0.000376426150933576,0.021413231877197802,0.9997706188259889
2025/04/10 10:34:16.960052908,1744274056,958964814,,-0.0002312269097897209,0.00042197204618965334,0.02157457307137666,0.9997671260201029
2025/04/10 10:34:17.62982671,1744274057,59827597,,-0.00027813776511812963,0.0004104240981164183,0.021741695179768986,0.9997634984745909
2025/04/10 10:34:17.161530881,1744274057,161114072,,-0.00033324598246239114,0.00033903992423343264,0.021915388881952377,0.9997597159963977
2025/04/10 10:34:17.262876273,1744274057,261171400,,-0.0003811461712487609,0.0002234933812981744,0.022098332397916722,0.9997557044015982
2025/04/10 10:34:17.362435144,1744274057,362215289,,-0.0004064660259062347,8.409838539256439e-05,0.022276722107218008,0.9997517568701688
2025/04/10 10:34:17.467489704,1744274057,466127603,,-0.00043173808414193895,-4.944849465662992e-05,0.022464211244447547,0.999747553320456
2025/04/10 10:34:17.556079397,1744274057,555922044,,-0.00044967477267333005,-0.000176415420132389,0.02266038537581644,0.9997431038045813
2025/04/10 10:34:17.659203927,1744274057,659057624,,-0.00045900251225178734,-0.00024818164428469833,0.02286341724273732,0.9997384617361431
2025/04/10 10:34:17.760126827,1744274057,759920024,,-0.00044162029508467354,-0.00026951479984323314,0.023060878845040093,0.9997339287031235
2025/04/10 10:34:17.863290090,1744274057,861962163,,-0.0004216456769446036,-0.00022247524831843306,0.023265260441169795,0.9997292135254884
2025/04/10 10:34:17.963480010,1744274057,962799509,,-0.0004047609217617381,-0.00013395975731016885,0.02347694835820606,0.9997242875509056
2025/04/10 10:34:18.63800923,1744274058,63519946,,-0.0003932483804384103,-6.681160223267469e-06,0.023694883544786945,0.9997191594667336
2025/04/10 10:34:18.164809728,1744274058,164497628,,-0.0003734170302898213,0.00013015105445912645,0.023905153001809454,0.9997141527858774
2025/04/10 10:34:18.264957867,1744274058,264793992,,-0.0003662841497566254,0.000257338520172949,0.02411876345018485,0.9997090000907473
2025/04/10 10:34:18.357029781,1744274058,355833799,,-0.00037009119117564255,0.00033561696983212315,0.024335121447557832,0.9997037322416539
2025/04/10 10:34:18.456570976,1744274058,456391082,,-0.00038422041247768304,0.00036936435008400926,0.024554090834623298,0.999698360790862
2025/04/10 10:34:18.558110679,1744274058,557815176,,-0.00040184779813471765,0.00034311049916184764,0.024774855616966036,0.999692916511211
2025/04/10 10:34:18.658871915,1744274058,658528688,,-0.0004181573025106666,0.00026722867460155604,0.024998073820553707,0.999687376152449
2025/04/10 10:34:18.759611307,1744274058,759401745,,-0.00042349197360973706,0.0001525735259381486,0.025228249177361432,0.999681615725383
2025/04/10 10:34:18.859985608,1744274058,859696043,,-0.00042108119099094606,1.19486779106988e-05,0.025462466657014505,0.9996756900813384
2025/04/10 10:34:18.961508339,1744274058,961085584,,-0.00041936056700757503,-0.00011112866923077644,0.025702412741964265,0.9996695442826972
2025/04/10 10:34:19.66340848,1744274059,65257805,,-0.00041709864422626193,-0.0002124387242909421,0.025947878813445423,0.9996631875204729
2025/04/10 10:34:19.158737830,1744274059,158508908,,-0.00040797016165194016,-0.00026680247108881494,0.02619695610344797,0.9996566820002268
2025/04/10 10:34:19.257747764,1744274059,257459988,,-0.00039397196983563326,-0.00026222996453404036,0.026449249468520553,0.9996500453779236
2025/04/10 10:34:19.358997855,1744274059,358660335,,-0.00037939504311824214,-0.0002140656130076679,0.026704745198700874,0.9996432697813691
2025/04/10 10:34:19.459864683,1744274059,459710070,,-0.00036010305325064436,-0.00012439969253336022,0.026962361799810014,0.9996363768374397
2025/04/10 10:34:19.562970341,1744274059,561862820,,-0.00035426027190354293,-1.758491788597604e-07,0.027226291383080525,0.9996292330445086
2025/04/10 10:34:19.662494999,1744274059,662331832,,-0.00037033639292759874,0.00012084660267673437,0.027505456854750775,0.9996215774433174
2025/04/10 10:34:19.763935152,1744274059,763543844,,-0.00037274753307005575,0.00022453251427391772,0.02777558434253303,0.9996140893159007
2025/04/10 10:34:19.867325837,1744274059,865971250,,-0.0003855401924608964,0.0002926498128574678,0.02804925940400955,0.999606424930199
2025/04/10 10:34:19.966562440,1744274059,966266175,,-0.0004059439677094433,0.00030347423583949835,0.028326495250978547,0.9995985958271848
2025/04/10 10:34:20.56139623,1744274060,55856522,,-0.0004290112243742677,0.0002737994290054477,0.028606855688160723,0.9995906105955972
2025/04/10 10:34:20.156843378,1744274060,156258432,,-0.00045474052873807505,0.00018714266141032867,0.028891605348787694,0.9995824294819541
2025/04/10 10:34:20.257875714,1744274060,257651522,,-0.00047796093908132647,7.149848809157758e-05,0.02918063201713849,0.9995740378563197
2025/04/10 10:34:20.360100585,1744274060,359325922,,-0.0004899140945986058,-5.3965371604244564e-05,0.029471693077139538,0.9995654937917202
2025/04/10 10:34:20.460156979,1744274060,459895113,,-0.0004779834492441613,-0.0001711178628624266,0.029755299249496273,0.9995570841212983
2025/04/10 10:34:20.561135703,1744274060,560950717,,-0.0004693722636039912,-0.0002509591559569166,0.03005322900696447,0.9995481579871153
2025/04/10 10:34:20.667075746,1744274060,665697492,,-0.0004435057344305458,-0.0002914425397381274,0.0303537751686303,0.9995390771235119
2025/04/10 10:34:20.762984649,1744274060,762835480,,-0.0004040628893470077,-0.0002767040176542934,0.030662207992785188,0.9995296839859611
2025/04/10 10:34:20.863804788,1744274060,863600537,,-0.00036094179644696175,-0.0002172772965696571,0.03097452630416551,0.9995200854569299
2025/04/10 10:34:20.967384817,1744274060,965113206,,-0.00032070588363214615,-0.00011952413460781596,0.0312896267089557,0.9995103011585882
2025/04/10 10:34:21.56729175,1744274061,56482195,,-0.0002949294641763661,2.680179197484775e-06,0.03160752803527134,0.9995003137472881
2025/04/10 10:34:21.159317474,1744274061,158237788,,-0.00029230330273856566,0.00010272433644110778,0.031928346028270126,0.9994901123704971
2025/04/10 10:34:21.259275004,1744274061,259086918,,-0.0003198188873487333,0.0001930723750753911,0.032253521439240214,0.9994796500147993
2025/04/10 10:34:21.360045259,1744274061,359879349,,-0.0003719841263798292,0.00024999965778845363,0.032584243465024046,0.9994688920650772
2025/04/10 10:34:21.463169590,1744274061,461825405,,-0.0004266629663575384,0.000249856849621568,0.0329250205696619,0.999457702231943
2025/04/10 10:34:21.564722205,1744274061,563629186,,-0.0004698936325792024,0.0001966558433157639,0.03327077505914386,0.9994462447042448
2025/04/10 10:34:21.664926348,1744274061,664585857,,-0.0004957803892340449,0.00010726942487325932,0.03362158575045409,0.9994345059415854
2025/04/10 10:34:21.766247725,1744274061,765195590,,-0.000500104003291857,-2.621108356481447e-06,0.033977579177748705,0.9994224702308506
2025/04/10 10:34:21.856714617,1744274061,856332693,,-0.00048159932635429703,-0.00012495820177549864,0.03433865223348936,0.9994101307322856
2025/04/10 10:34:21.957156318,1744274061,956878219,,-0.0004468294434275955,-0.00022440627197139532,0.03470459765716414,0.9993974889335714
2025/04/10 10:34:22.58926143,1744274062,58739713,,-0.00040476544212725404,-0.00028171261407640517,0.03507537059679425,0.9993845481997595
2025/04/10 10:34:22.159475791,1744274062,159237433,,-0.0003641848606882952,-0.00030494805257278324,0.03545001304408343,0.999371337867585
2025/04/10 10:34:22.261269449,1744274062,259802845,,-0.00033011227694628196,-0.0002913282927966803,0.03582534484234754,0.9993579693086143
2025/04/10 10:34:22.362484401,1744274062,360876991,,-0.0003155738708325116,-0.00021933843571823823,0.036204101039248204,0.9993443427426417
2025/04/10 10:34:22.466182425,1744274062,465718966,,-0.0003161964788230185,-0.00012730613402722063,0.03658611657859791,0.9993304457918973
2025/04/10 10:34:22.556105467,1744274062,555937715,,-0.0003311732360074447,-2.004291339221054e-05,0.03697730707382706,0.9993160504485742
2025/04/10 10:34:22.657261234,1744274062,656988480,,-0.0003631316394616294,7.867200197000293e-05,0.03737443817042336,0.9993012625417691
2025/04/10 10:34:22.759107251,1744274062,757431701,,-0.000402679006323829,0.0001528228558346075,0.03777647181900974,0.9992861215246113
2025/04/10 10:34:22.860065325,1744274062,859032753,,-0.00044659302337013266,0.0001866567852878931,0.038183575907064386,0.9992706241278513
2025/04/10 10:34:22.961724697,1744274062,959161319,,-0.0004945959350413648,0.00017335844030183238,0.038591715824464204,0.9992549248272115
2025/04/10 10:34:23.61407055,1744274063,59813727,,-0.0005359518495080955,0.00012194896357328463,0.03900457743892149,0.9992388807601896
2025/04/10 10:34:23.163345705,1744274063,163147031,,-0.0005572237917880704,2.965372137356679e-05,0.039420918748470556,0.9992225376698272
2025/04/10 10:34:23.265725806,1744274063,264613915,,-0.0005531230674864391,-7.059217538486751e-05,0.03984010851919807,0.9992059121246208
2025/04/10 10:34:23.355587896,1744274063,354961494,,-0.0005213957434123461,-0.00017939259865520696,0.04026135424057513,0.9991890308242426
2025/04/10 10:34:23.456537083,1744274063,456387522,,-0.0004701284934887112,-0.000263137966997013,0.04068426828203982,0.9991719071571042
2025/04/10 10:34:23.557312696,1744274063,557052083,,-0.00040371228826946133,-0.00031948064198842366,0.04110701895220352,0.9991546166341678
2025/04/10 10:34:23.659726004,1744274063,659201761,,-0.0003370060237033757,-0.00033013484534101544,0.0415297021150218,0.9991371583922607
2025/04/10 10:34:23.761795525,1744274063,761623740,,-0.00028462828872569216,-0.0002960156646733379,0.04195783117798004,0.999119298064202
2025/04/10 10:34:23.859957648,1744274063,859790013,,-0.00025745330245306237,-0.00022425232485166573,0.04238847493719873,0.9991011463416456
2025/04/10 10:34:23.962078963,1744274063,961807569,,-0.00026227630671917467,-0.0001288322679256507,0.04282126946786481,0.9990827060331623
2025/04/10 10:34:24.63801877,1744274064,62218149,,-0.0002989206612257465,-2.744200458568718e-05,0.04325620773941602,0.9990639671139077
2025/04/10 10:34:24.163536285,1744274064,163373279,,-0.0003640975085772373,6.240837375788833e-05,0.04369593082259179,0.9990448083883657
2025/04/10 10:34:24.265463443,1744274064,264267608,,-0.00045890804551751717,0.00012312062049514469,0.044153123127870335,0.999024662339611
2025/04/10 10:34:24.364874186,1744274064,364720236,,-0.0005389161044183126,0.00014545690782889824,0.04461392914518001,0.9990041470073832
2025/04/10 10:34:24.457882407,1744274064,456292618,,-0.0005866201110171126,0.00012539637949704913,0.04507782706526137,0.9989832979883436
2025/04/10 10:34:24.560228830,1744274064,558582834,,-0.0005930772748497982,6.379091913087934e-05,0.04554454461253873,0.9989621307367468
2025/04/10 10:34:24.660807827,1744274064,659711924,,-0.0005593798278740604,-2.7004904297885242e-05,0.04601498532773823,0.9989405925730676
2025/04/10 10:34:24.763589250,1744274064,763407582,,-0.0004925693144835361,-0.00013309148813129233,0.04649520445044801,0.998918382864805
2025/04/10 10:34:24.864799045,1744274064,864566902,,-0.0004091195531616731,-0.0002342811152547654,0.046980311594111056,0.9988957042935316
2025/04/10 10:34:24.956251304,1744274064,956021977,,-0.0003288776979085532,-0.00031280534970184337,0.04746999081248118,0.998872561423396
2025/04/10 10:34:25.57314623,1744274065,56783752,,-0.0002710814880689788,-0.0003593123573011544,0.04796415853226893,0.9988489560017311
2025/04/10 10:34:25.157681427,1744274065,157434196,,-0.0002503473664182116,-0.00035981131763819296,0.0484625111245614,0.998824906015821
2025/04/10 10:34:25.259575052,1744274065,258495136,,-0.0002688318510310339,-0.0003212269507116467,0.04896474476056462,0.9988004196601115
2025/04/10 10:34:25.360747404,1744274065,358914972,,-0.0003207151552701366,-0.00024295653550574636,0.049470555832860606,0.9987755014113526
2025/04/10 10:34:25.461363492,1744274065,460261104,,-0.0003877011175325968,-0.00014640518988078222,0.04997875110357275,0.9987501953399013
2025/04/10 10:34:25.561173522,1744274065,560950916,,-0.00045772322182443203,-4.8265740117001844e-05,0.05049154929571432,0.9987243822044143
2025/04/10 10:34:25.663757896,1744274065,662596290,,-0.0005316477440278366,3.842533919607199e-05,0.051020973133720865,0.9986974397557339
2025/04/10 10:34:25.762859030,1744274065,762618920,,-0.0005717493607378932,8.908470304833926e-05,0.051553156888211,0.9986700842527745
2025/04/10 10:34:25.863663742,1744274065,863433902,,-0.0005716108582254298,0.00010492171125019643,0.05208786566721903,0.9986423366264295
2025/04/10 10:34:25.964779474,1744274065,964353248,,-0.0005404904653864466,6.942313135461646e-05,0.052626005858345405,0.9986141429791003
2025/04/10 10:34:26.65606263,1744274066,65312137,,-0.0004885047735219609,4.790290662346976e-06,0.05316743149179343,0.9985854923684325
2025/04/10 10:34:26.157028112,1744274066,156712416,,-0.00042289055666015426,-8.706839478990669e-05,0.05371109352091494,0.9985564240519708
2025/04/10 10:34:26.258618113,1744274066,258385774,,-0.00035939132444824174,-0.00019361336727642545,0.05425661920578888,0.9985269413611723
2025/04/10 10:34:26.358483274,1744274066,358290186,,-0.0003089828810596074,-0.00028614839016165967,0.054801634610683825,0.9984971725010918
2025/04/10 10:34:26.459153856,1744274066,458922309,,-0.0002833990225003945,-0.00034897133605393604,0.055347613518295175,0.9984670448151156
2025/04/10 10:34:26.564307758,1744274066,562353878,,-0.0002828285155778037,-0.00039941363067897345,0.055893821125892855,0.9984365985062492
2025/04/10 10:34:26.664165585,1744274066,662452455,,-0.0003087515956035516,-0.00038334023168935853,0.05644031090824228,0.9984058538626964
2025/04/10 10:34:26.763864584,1744274066,763202328,,-0.0003540681331874622,-0.0003297668776238432,0.05698690197165604,0.998374808823438
2025/04/10 10:34:26.864808436,1744274066,864453941,,-0.0004066392973777923,-0.00024950266432008795,0.057533041064500065,0.9983434887746666
2025/04/10 10:34:26.967749947,1744274066,965266188,,-0.0004635685730503807,-0.00014150938450977884,0.058079847577445984,0.9983118232219094
2025/04/10 10:34:27.56702144,1744274067,56213036,,-0.000511447676129346,-4.822885839096065e-05,0.05862730348231354,0.9982798081608405
2025/04/10 10:34:27.158629068,1744274067,156972513,,-0.0005439184804468974,3.3491394052541494e-05,0.05917560899331253,0.9982474394313685
2025/04/10 10:34:27.259519073,1744274067,259354906,,-0.0005549192707741682,7.28594040196814e-05,0.059724782432942464,0.998214724956233
2025/04/10 10:34:27.361376266,1744274067,360770205,,-0.000545080152166853,7.606678073545606e-05,0.06027450707610674,0.9981816873185988
2025/04/10 10:34:27.462604084,1744274067,461051364,,-0.0005188309628207535,2.9086574157716355e-05,0.06082405757188487,0.9981483677234038
2025/04/10 10:34:27.563463992,1744274067,562354849,,-0.00048794791741831853,-4.095507623136273e-05,0.061366954521984644,0.9981151522355566
2025/04/10 10:34:27.667921458,1744274067,666773407,,-0.00046051946307325514,-0.0001420762302868537,0.06191072130994514,0.9980815749842551
2025/04/10 10:34:27.756219633,1744274067,756068480,,-0.00045710974862806815,-0.00024068214104959058,0.062467140226719765,0.9980468874329903
2025/04/10 10:34:27.857135971,1744274067,856920346,,-0.0004464082398430524,-0.0003311869216323401,0.0630210400600783,0.9980120437873745
2025/04/10 10:34:27.959567032,1744274067,959258847,,-0.0004364190209281556,-0.000392390713158192,0.06357347069729694,0.997976988407782
2025/04/10 10:34:28.62615789,1744274068,61806628,,-0.00042974658988018783,-0.0004085635545423281,0.06412445508381981,0.997941733095622
2025/04/10 10:34:28.164586839,1744274068,162849642,,-0.00042164010800591295,-0.0003796209508559466,0.06467101863884585,0.9979064773092552
2025/04/10 10:34:28.263320981,1744274068,263006710,,-0.00041965124655349664,-0.0003171482171419888,0.0652160211868979,0.9978710306900335
2025/04/10 10:34:28.363885519,1744274068,363698999,,-0.0004265484595317199,-0.00022686747460998235,0.06575962806624977,0.997835376153877
2025/04/10 10:34:28.464337424,1744274068,464101994,,-0.00043961932884456923,-0.00012807582937421653,0.06630163977500343,0.9977995203920341
2025/04/10 10:34:28.556607247,1744274068,556243192,,-0.00045800359206012186,-3.2130477229330264e-05,0.06684216982552299,0.9977634557014794
2025/04/10 10:34:28.657850855,1744274068,656730506,,-0.0004709365911804239,2.9971662532152273e-05,0.06738015235246812,0.9977272635291594
2025/04/10 10:34:28.758111544,1744274068,757349306,,-0.0004751046055744445,6.66850700851733e-05,0.06791551818937898,0.9976909602766697
2025/04/10 10:34:28.858664534,1744274068,858198837,,-0.00046841707135424293,5.486017927697916e-05,0.06844772432316153,0.9976545928380165
2025/04/10 10:34:28.959404344,1744274068,958877879,,-0.00044954706607783955,1.278732361956576e-05,0.06897569308765855,0.9976182393616292
2025/04/10 10:34:29.60924433,1744274069,60651218,,-0.00042257967015660737,-7.291604057177956e-05,0.06949966095111777,0.9975818829737001
2025/04/10 10:34:29.163124114,1744274069,161445924,,-0.0003987543003526019,-0.00016785322498015496,0.07001990848709501,0.9975455003335746
2025/04/10 10:34:29.262641880,1744274069,262442597,,-0.0003755604835677621,-0.00026628231085199286,0.07053513782672294,0.9975091891204909
2025/04/10 10:34:29.366238082,1744274069,364316446,,-0.00035766782376282563,-0.0003388706742657068,0.07104317474915232,0.9974731197190004
2025/04/10 10:34:29.465035206,1744274069,464840055,,-0.00035576471228740723,-0.0003867986723388045,0.07154761986099578,0.997437046590151
2025/04/10 10:34:29.556957307,1744274069,556297357,,-0.0003682419070185712,-0.0003896908581105247,0.0720482447835827,0.9974010040914025
2025/04/10 10:34:29.659969583,1744274069,657663589,,-0.00039824277550852566,-0.00034582059612225843,0.0725458496774513,0.9973649389794007
2025/04/10 10:34:29.761085643,1744274069,760825969,,-0.00043434735478650483,-0.00028953015742034626,0.0730404028667595,0.9973288460000166
2025/04/10 10:34:29.861478131,1744274069,860457082,,-0.0004917124319813502,-0.00019350791258690637,0.07354318087489924,0.9972918937404304
2025/04/10 10:34:29.963398679,1744274069,963099853,,-0.0005327134113804917,-0.00010365069534682522,0.07404427332119948,0.9972548074896858
2025/04/10 10:34:30.63568900,1744274070,63398994,,-0.0005441342276266934,-2.91092458170349e-05,0.07454157829335092,0.9972177576518232
2025/04/10 10:34:30.165681632,1744274070,164448145,,-0.0005364571531820914,3.454207665391706e-05,0.07503120493234365,0.9971810413896608
2025/04/10 10:34:30.257899165,1744274070,256244615,,-0.0005134837353751747,5.373385827286936e-05,0.07551748930047202,0.9971443437421079
2025/04/10 10:34:30.358131495,1744274070,357096134,,-0.0004824225607803563,3.262347577767464e-05,0.07600029244363292,0.9971076781133841
2025/04/10 10:34:30.458864933,1744274070,457797194,,-0.00045319439754780037,-2.5102011885702388e-05,0.07648019315122778,0.9970709974922939
2025/04/10 10:34:30.562300428,1744274070,560788529,,-0.00042728328794786665,-9.616580056860254e-05,0.07695625512729157,0.997034374020231
2025/04/10 10:34:30.661623012,1744274070,661382566,,-0.00041272016345147804,-0.0001945820377148971,0.07742888391646958,0.9969977731847485
2025/04/10 10:34:30.763743306,1744274070,762079500,,-0.0004110470869140605,-0.0002741954217390154,0.07789586695723537,0.9969613782730722
2025/04/10 10:34:30.863888364,1744274070,863432216,,-0.00042123679852236007,-0.0003463182291298314,0.07835985528006416,0.9969249900086421
