time,header_stamp_secs,header_stamp_nsecs,header_frame_id,quaternion_x,quaternion_y,quaternion_z,quaternion_w
2025/04/09 09:49:46.962502259,1744184986,961620619,,-0.0004020635387182781,-5.066436154028317e-06,-7.556336120156092e-05,0.9999999163047067
2025/04/09 09:49:47.64348247,1744184987,63999236,,-0.00040203700938834394,-7.678530142845398e-06,-7.531252012028317e-05,0.9999999163176503
2025/04/09 09:49:47.158829541,1744184987,157180487,,-0.000402091526097745,-8.901240409834608e-06,-7.506995400411461e-05,0.9999999163038338
2025/04/09 09:49:47.261289899,1744184987,258946701,,-0.00040220814754858276,-8.528925837782511e-06,-7.48345000950677e-05,0.999999916277827
2025/04/09 09:49:47.360323193,1744184987,359702141,,-0.00040238721196956276,-6.668783862221339e-06,-7.460552829802275e-05,0.9999999162370335
2025/04/09 09:49:47.461296232,1744184987,460811631,,-0.0004025778715834568,-3.739899921551588e-06,-7.438272843816792e-05,0.9999999161921366
2025/04/09 09:49:47.564059569,1744184987,562865366,,-0.0004027305273064355,-1.0418605057398544e-07,-7.416610587097924e-05,0.9999999161537466
2025/04/09 09:49:47.666992574,1744184987,663388938,,-0.00040279832133796524,3.5336394616165085e-06,-7.395568682066345e-05,0.9999999161357875
2025/04/09 09:49:47.765055204,1744184987,764709911,,-0.000402768197182257,6.506986516473102e-06,-7.375157404905851e-05,0.9999999161480684
2025/04/09 09:49:47.862101920,1744184987,861411465,,-0.0004026451082456959,8.283837525987077e-06,-7.355388780031222e-05,0.9999999161990567
2025/04/09 09:49:47.964455314,1744184987,964191111,,-0.000402478001175526,8.554564863453388e-06,-7.336273207101551e-05,0.9999999162780903
2025/04/09 09:49:48.65495877,1744184988,65339779,,-0.0004023067425520922,7.283452873940012e-06,-7.317817231897847e-05,0.9999999163705922
2025/04/09 09:49:48.172090785,1744184988,171573240,,-0.00040216780858732897,4.712026370296481e-06,-7.30002779149186e-05,0.9999999164549015
2025/04/09 09:49:48.259864831,1744184988,257785248,,-0.00040209507369246396,1.3150062317410684e-06,-7.282912484499082e-05,0.999999916506867
2025/04/09 09:49:48.360042139,1744184988,359751709,,-0.0004020854784529232,-2.288647339347901e-06,-7.266454911778077e-05,0.9999999165209432
2025/04/09 09:49:48.460643631,1744184988,460399798,,-0.0004021268199607205,-5.448952295306051e-06,-7.250597820091041e-05,0.9999999165036029
2025/04/09 09:49:48.567386805,1744184988,567173893,,-0.0004022181553441179,-7.603344490237233e-06,-7.23524385625177e-05,0.9999999164639312
2025/04/09 09:49:48.662223947,1744184988,661154203,,-0.0004023457385769838,-8.375945815816204e-06,-7.220307583294988e-05,0.9999999164172295
2025/04/09 09:49:48.762863787,1744184988,762692701,,-0.0004024691260672622,-7.642983625549427e-06,-7.205745461319157e-05,0.9999999163839518
2025/04/09 09:49:48.864817869,1744184988,864463140,,-0.0004025828888200057,-5.549305261775749e-06,-7.191538307354355e-05,0.9999999163621968
2025/04/09 09:49:48.966359182,1744184988,966187650,,-0.0004026388778482172,-2.4801010506908235e-06,-7.177683919552092e-05,0.9999999163619308
2025/04/09 09:49:49.59725169,1744184989,57497507,,-0.00040264903192094276,9.775730747279964e-07,-7.164191228640836e-05,0.9999999163701154
2025/04/09 09:49:49.159667496,1744184989,159073853,,-0.0004026172220486396,4.2397256910289e-06,-7.151077738671347e-05,0.9999999163837995
2025/04/09 09:49:49.263314513,1744184989,263167190,,-0.0004025379781818976,6.719527154465797e-06,-7.138358485268035e-05,0.9999999164112005
2025/04/09 09:49:49.364129646,1744184989,363970769,,-0.00040241115714444614,7.971949527746119e-06,-7.126045001295e-05,0.999999916461825
2025/04/09 09:49:49.465119190,1744184989,464958109,,-0.0004022856899890736,7.78467989208365e-06,-7.114142542450807e-05,0.9999999165222565
2025/04/09 09:49:49.565957229,1744184989,565728224,,-0.0004021821209898202,6.2050601483718966e-06,-7.102648169705261e-05,0.9999999165831354
2025/04/09 09:49:49.669763689,1744184989,667545847,,-0.00040213091721058363,3.5336927352967836e-06,-7.091551941801136e-05,0.9999999166246103
2025/04/09 09:49:49.758404337,1744184989,757355831,,-0.00040213444230249634,2.5717639140123666e-07,-7.080851476838554e-05,0.9999999166369857
2025/04/09 09:49:49.859639826,1744184989,858500724,,-0.0004021764188513381,-3.0318383330700674e-06,-7.070527984505623e-05,0.9999999166228463
2025/04/09 09:49:49.964193395,1744184989,963778105,,-0.00040227806609547626,-5.744555467679188e-06,-7.060531364019759e-05,0.9999999165771202
2025/04/09 09:49:50.66813652,1744184990,65671911,,-0.00040238505420182776,-7.399058219930927e-06,-7.05079440631084e-05,0.9999999165300725
2025/04/09 09:49:50.167796010,1744184990,166576222,,-0.00040247333900439956,-7.70657961274392e-06,-7.041279746932085e-05,0.9999999164989255
2025/04/09 09:49:50.257353895,1744184990,257203911,,-0.0004025398021456142,-6.624600971784113e-06,-7.031970810491646e-05,0.999999916486477
2025/04/09 09:49:50.358283310,1744184990,358122345,,-0.00040254489388928547,-4.377208586327502e-06,-7.022864378841402e-05,0.9999999165031895
2025/04/09 09:49:50.462213326,1744184990,461354277,,-0.00040248369784484173,-1.4161876830468778e-06,-7.01396798459694e-05,0.9999999165426429
2025/04/09 09:49:50.563046740,1744184990,562893684,,-0.000402407113114854,1.7575554685064543e-06,-7.005299114328722e-05,0.9999999165789989
2025/04/09 09:49:50.663585699,1744184990,663156602,,-0.0004023238517178977,4.656484637604625e-06,-6.99687820409575e-05,0.999999916609099
2025/04/09 09:49:50.765663038,1744184990,765141787,,-0.0004022461653783571,6.713347800512164e-06,-6.988718301606582e-05,0.999999916634364
2025/04/09 09:49:50.866209892,1744184990,865968174,,-0.00040217069523843874,7.55893128058597e-06,-6.980829476187938e-05,0.9999999166641947
2025/04/09 09:49:50.967791661,1744184990,967579578,,-0.00040213942199054963,7.051834888439408e-06,-6.973214086575308e-05,0.9999999166857892
2025/04/09 09:49:51.58439749,1744184991,58300978,,-0.0004021702022757389,5.292659303211901e-06,-6.965865055049629e-05,0.9999999166893908
2025/04/09 09:49:51.158988023,1744184991,158858368,,-0.00040225646758293687,2.6059297057676956e-06,-6.958769526790058e-05,0.9999999166702446
2025/04/09 09:49:51.262554184,1744184991,262287999,,-0.0004023220432801042,-5.173686634787614e-07,-6.951912237855934e-05,0.9999999166518952
2025/04/09 09:49:51.367085687,1744184991,366810348,,-0.0004023556151676398,-3.512747531887573e-06,-6.945258021957363e-05,0.9999999166369758
2025/04/09 09:49:51.467333952,1744184991,467066386,,-0.0004023721526696366,-5.8441000036219735e-06,-6.938770895803984e-05,0.9999999166239181
2025/04/09 09:49:51.559734273,1744184991,557803891,,-0.0004023861079489903,-7.1004762915972545e-06,-6.932422846311807e-05,0.9999999166145739
2025/04/09 09:49:51.659763221,1744184991,659560189,,-0.00040241085757549566,-7.068596643702285e-06,-6.92619547421519e-05,0.9999999166091557
2025/04/09 09:49:51.764573196,1744184991,764419652,,-0.0004024397914028483,-5.768203987250941e-06,-6.920082054934897e-05,0.9999999166100908
2025/04/09 09:49:51.864962301,1744184991,864558929,,-0.00040243899968891425,-3.443097138258476e-06,-6.914086830417692e-05,0.999999916625265
2025/04/09 09:49:51.967261822,1744184991,966206742,,-0.00040241926607999446,-5.158649469207133e-07,-6.908222574197638e-05,0.9999999166430537
2025/04/09 09:49:52.69629277,1744184992,69223684,,-0.0004023926286284546,2.4832445837741024e-06,-6.90250724835034e-05,0.9999999166547692
2025/04/09 09:49:52.159132075,1744184992,157580054,,-0.00040237008730448627,5.015606167250663e-06,-6.896959573772542e-05,0.9999999166581722
2025/04/09 09:49:52.261442290,1744184992,259771081,,-0.0004023609453698405,6.629641551369789e-06,-6.891595020392555e-05,0.9999999166561512
2025/04/09 09:49:52.362970239,1744184992,361024380,,-0.0004023628099181252,7.044642744521895e-06,-6.886422371328899e-05,0.999999916656127
2025/04/09 09:49:52.463722765,1744184992,463198174,,-0.00040233286726183546,6.197667557067861e-06,-6.881441958437616e-05,0.9999999166772108
2025/04/09 09:49:52.563905538,1744184992,563715036,,-0.0003990855802885188,1.5405509724969023e-05,-6.866840797446203e-05,0.9999999178890064
2025/04/09 09:49:52.665792982,1744184992,665326033,,-0.00037906358883109723,7.906577402037708e-05,-6.746218020644032e-05,0.9999999227541236
2025/04/09 09:49:52.768426345,1744184992,766812170,,-0.00034322430282388385,0.00022258508227886726,-6.564841947533139e-05,0.9999999141716184
2025/04/09 09:49:52.859393106,1744184992,858245383,,-0.0003025158249370484,0.0004688400708416262,-6.430742423733272e-05,0.999999842268847
2025/04/09 09:49:52.961381166,1744184992,959680310,,-0.0002653224704093743,0.0007853476900610032,-6.288977646202703e-05,0.9999996544388745
2025/04/09 09:49:53.60535781,1744184993,60353331,,-0.00024310208839596075,0.0011059815168338247,-6.057272011523726e-05,0.9999993570183956
2025/04/09 09:49:53.162689871,1744184993,162419981,,-0.00023517434635028363,0.0013667555281052495,-6.624120214342649e-05,0.9999990361417637
2025/04/09 09:49:53.264466047,1744184993,264045665,,-0.0002100569561880027,0.0014949582560209228,-0.00010360875633181398,0.9999988551199014
2025/04/09 09:49:53.367748330,1744184993,365270048,,-0.0001709740171844161,0.0014807068880643573,-0.00017096157115656794,0.9999988745229358
2025/04/09 09:49:53.466407893,1744184993,466268656,,-0.00013931095821777644,0.0013198147249637113,-0.00025741253477128167,0.9999990862097503
2025/04/09 09:49:53.566733527,1744184993,566506854,,-0.00014908562116579735,0.0010361984724112242,-0.00034249489153039285,0.9999993933815423
2025/04/09 09:49:53.657772680,1744184993,657521067,,-0.00020109189807543154,0.0006825204095957492,-0.0004240771799650848,0.9999996569431834
2025/04/09 09:49:53.760045334,1744184993,758764175,,-0.0002740471267330601,0.0003117193570398938,-0.0005111618251053444,0.9999997832213782
2025/04/09 09:49:53.859577459,1744184993,859390558,,-0.00034522961151712547,-6.450530593531108e-06,-0.0006097846632079913,0.9999997544687551
2025/04/09 09:49:53.961718568,1744184993,961568179,,-0.0004048785806632639,-0.00021885175504365886,-0.0007168378208604405,0.9999996371603256
2025/04/09 09:49:54.63434289,1744184994,63338446,,-0.0004452042317659542,-0.0003033882936743534,-0.0008294436120639099,0.9999995108858952
2025/04/09 09:49:54.164419193,1744184994,164238794,,-0.00048705213471756515,-0.0002157852409261771,-0.0009448783035313868,0.9999994117107966
2025/04/09 09:49:54.265237910,1744184994,264998490,,-0.0005302525281311888,-7.219586734315535e-06,-0.0010473397297379404,0.9999993109295748
2025/04/09 09:49:54.367475286,1744184994,365805075,,-0.0005648811838112648,0.00029692368699071723,-0.0011285391370730962,0.999999159572141
2025/04/09 09:49:54.469219349,1744184994,468935796,,-0.0005692882694978273,0.0006447361736033087,-0.001193072891228189,0.9999989184010195
2025/04/09 09:49:54.571109924,1744184994,570569968,,-0.0005292279607873324,0.0009554768268584022,-0.0012579235995638241,0.9999986123040454
2025/04/09 09:49:54.660453921,1744184994,659342734,,-0.0004661715121956828,0.0011908151448409598,-0.001316396159653279,0.9999983158708633
2025/04/09 09:49:54.762045414,1744184994,761349071,,-0.0003981565110654539,0.0012825534154601043,-0.0013662273814318605,0.999998164973752
2025/04/09 09:49:54.862910003,1744184994,862479288,,-0.00033914114349194684,0.001247454862859695,-0.001410245991930213,0.9999981700212717
2025/04/09 09:49:54.967023237,1744184994,965680394,,-0.00030322226019117597,0.0010510471260561675,-0.0014482097415707638,0.9999983530210158
2025/04/09 09:49:55.68634251,1744184995,67037008,,-0.000223751508838959,0.000751680378237236,-0.0015385349271738807,0.9999985089099629
2025/04/09 09:49:55.167980735,1744184995,166991984,,-0.00013668438810619397,0.0003826084243038402,-0.0017031739575792608,0.999998467062146
2025/04/09 09:49:55.258017646,1744184995,257695177,,-0.0001568277292614703,3.5569511172137514e-05,-0.0018801645229146,0.999998219559035
2025/04/09 09:49:55.360334314,1744184995,358723400,,-0.0002793030820817071,-0.0002856838645232557,-0.002045863563843787,0.9999978274060379
2025/04/09 09:49:55.462467802,1744184995,460141737,,-0.00045148153274919995,-0.00047015852002524344,-0.002230212591413007,0.9999973006299511
2025/04/09 09:49:55.561343309,1744184995,560242032,,-0.0006419543620092467,-0.000512965394123202,-0.0024206060043203133,0.9999967327084991
2025/04/09 09:49:55.662036086,1744184995,661914368,,-0.0007998512654969045,-0.00040782256705248164,-0.002603562886309376,0.9999962076823111
2025/04/09 09:49:55.763678938,1744184995,762797195,,-0.0008739274471713363,-0.00017886923394184545,-0.0027936659429565677,0.999995699834361
2025/04/09 09:49:55.866325687,1744184995,865535461,,-0.0008497249921673632,0.0001414221106294209,-0.0029975312110690276,0.9999951363751041
2025/04/09 09:49:55.966700670,1744184995,965977482,,-0.0007444481604825791,0.00048581601467816854,-0.0032126780452447767,0.9999944442243236
2025/04/09 09:49:56.65678296,1744184996,65462948,,-0.0005916439092134789,0.0007987734421810644,-0.0034348163554186796,0.9999936069571032
2025/04/09 09:49:56.166459608,1744184996,166202344,,-0.00041693018989798474,0.0010065170393704019,-0.0036471726669112894,0.9999927555858612
2025/04/09 09:49:56.267804028,1744184996,267572436,,-0.0002517806385151003,0.0010814424033816898,-0.0038722456170388747,0.9999918863684443
2025/04/09 09:49:56.359284062,1744184996,358033704,,-0.00014130404277036922,0.0010008131655473223,-0.004106944409541908,0.9999910556668955
2025/04/09 09:49:56.462485633,1744184996,462311930,,-0.00010787048609346432,0.0008004566497070551,-0.004342807297955247,0.9999902437813496
2025/04/09 09:49:56.563366177,1744184996,563092990,,-0.00015752919159256324,0.00048458962306429694,-0.004585433569352713,0.9999893570215795
2025/04/09 09:49:56.667211628,1744184996,665638656,,-0.00027794996681925117,0.00014786195098742268,-0.004826378578583713,0.9999883034068326
2025/04/09 09:49:56.760134743,1744184996,758522535,,-0.00043671084393227084,-0.00018475070358502983,-0.0050722056731863936,0.9999870238560225
2025/04/09 09:49:56.859496571,1744184996,859241491,,-0.0005893168503598786,-0.0004475411746781688,-0.005322448065461549,0.9999855618753389
2025/04/09 09:49:56.961323444,1744184996,959529733,,-0.0007088673575279058,-0.0005825853685354852,-0.005579890629032276,0.9999840113331442
2025/04/09 09:49:57.60455328,1744184997,60331784,,-0.0007855644597255937,-0.0005774741209459518,-0.005821430891741816,0.9999825800255182
2025/04/09 09:49:57.162573544,1744184997,161480187,,-0.0007909435364872397,-0.00043428568135138814,-0.006044205942076379,0.9999813265150499
2025/04/09 09:49:57.264953860,1744184997,264672867,,-0.0006668490785296583,-0.0001732221525080904,-0.006279681620281032,0.9999800452534742
2025/04/09 09:49:57.365984897,1744184997,365741991,,-0.00043799862503720894,0.00015616352078515785,-0.006554050588963768,0.9999784138625376
2025/04/09 09:49:57.457465818,1744184997,457335834,,-0.00021562996954933793,0.0004807209143487267,-0.006846684171529785,0.9999764223855351
2025/04/09 09:49:57.561606888,1744184997,561381362,,-6.254774597261428e-05,0.0007514400101770708,-0.007153794502789096,0.9999741269902449
2025/04/09 09:49:57.665358440,1744184997,664330624,,-1.1138429851551459e-05,0.0009124401992343697,-0.007473658982120653,0.9999716554734125
2025/04/09 09:49:57.765364474,1744184997,764135522,,-7.319651930677888e-05,0.0009402661417280756,-0.007798809069772698,0.999969144083429
2025/04/09 09:49:57.865320350,1744184997,865067733,,-0.00023003668588946364,0.0008269729827230394,-0.008113449828422782,0.9999667170114667
2025/04/09 09:49:57.965637234,1744184997,965236153,,-0.0004254962913393796,0.0005882932149549473,-0.008438975201056971,0.9999641276373644
2025/04/09 09:49:58.57363518,1744184998,57120620,,-0.0006096325877941132,0.00027864441501658375,-0.008782287508926652,0.9999612103134343
2025/04/09 09:49:58.158904792,1744184998,158684975,,-0.0007521348814970877,-5.703296898444478e-05,-0.009138596401194691,0.9999579576643093
2025/04/09 09:49:58.260303494,1744184998,260014907,,-0.000827915775138908,-0.0003651398891099265,-0.0094921587568722,0.9999545390418831
2025/04/09 09:49:58.362307040,1744184998,360919887,,-0.0008083930093169084,-0.00057028666443303,-0.009853229803460987,0.9999509663660029
2025/04/09 09:49:58.461909616,1744184998,461605150,,-0.0006997019072509511,-0.0006545175865562822,-0.010227617351648819,0.9999472375417006
2025/04/09 09:49:58.563650527,1744184998,562579135,,-0.0005313813581438947,-0.0005962903169900531,-0.010631943378065521,0.9999431603104827
2025/04/09 09:49:58.664390179,1744184998,663241762,,-0.00035676269056500036,-0.0004078996593345174,-0.011061464953675167,0.9999386732851816
2025/04/09 09:49:58.765645799,1744184998,765286855,,-0.00021883547936216302,-0.00013992591583102273,-0.011508369856255004,0.9999337427825019
2025/04/09 09:49:58.866440645,1744184998,866182902,,-0.00014330493188430816,0.00017183907606674326,-0.011967625802913107,0.9999283603677165
2025/04/09 09:49:58.966566958,1744184998,966383102,,-0.00015166811232532093,0.0004756397384531602,-0.012427303086477161,0.9999226534595662
2025/04/09 09:49:59.57578969,1744184999,57377183,,-0.0002245651567100072,0.0006948495221944199,-0.012878223219633394,0.9999168056000145
2025/04/09 09:49:59.158453518,1744184999,158302921,,-0.0003370002629214789,0.0007945565401449658,-0.013334284442740364,0.999910721999283
2025/04/09 09:49:59.260902107,1744184999,259098518,,-0.00045752440830067924,0.0007863089037024809,-0.013801510496986592,0.9999043407735189
2025/04/09 09:49:59.361834779,1744184999,361469302,,-0.0005635455673294743,0.0006441554742195281,-0.014284583350368802,0.9998976038368254
2025/04/09 09:49:59.461278948,1744184999,461098475,,-0.0006293623277519181,0.00039872411454139355,-0.014768707826806409,0.9998906591179194
2025/04/09 09:49:59.563479220,1744184999,563153754,,-0.0006321383152370791,9.29020447288128e-05,-0.015284787851393327,0.9998829766681191
2025/04/09 09:49:59.664022014,1744184999,663857569,,-0.0005966006398115479,-0.00020347804647172937,-0.015817798083871615,0.9998746921130363
2025/04/09 09:49:59.768446988,1744184999,767054013,,-0.0005305638428077738,-0.0004646304688204591,-0.01636092584568883,0.9998659023719171
2025/04/09 09:49:59.858757708,1744184999,857442669,,-0.00043801172091935425,-0.000631893772445024,-0.016930755023411244,0.9998563688802157
2025/04/09 09:49:59.959847617,1744184999,958012369,,-0.0003338508151167785,-0.0006644788430087365,-0.017547093749936304,0.9998457613614369
2025/04/09 09:50:00.59896369,1744185000,58849689,,-0.0002692207461657183,-0.0005966947653926602,-0.018186623920054133,0.9998343953805237
2025/04/09 09:50:00.160872064,1744185000,159782949,,-0.00025889512926769267,-0.000398629399017698,-0.018846138853454222,0.9998222827674079
2025/04/09 09:50:00.262505606,1744185000,260380159,,-0.0003073038172056303,-0.00012399857089164803,-0.0195212530401808,0.9998093872676229
2025/04/09 09:50:00.364734569,1744185000,361880633,,-0.0004008005408585702,0.000148662342412724,-0.020204425836904443,0.9997957783642795
2025/04/09 09:50:00.463333746,1744185000,463109853,,-0.0005093530042701614,0.00041931345694835306,-0.02089014614026939,0.9997815594068437
2025/04/09 09:50:00.564457012,1744185000,564206322,,-0.0006102335217967719,0.0006061559063367757,-0.021580120563763988,0.9997667520909662
2025/04/09 09:50:00.660284477,1744185000,660035636,,-0.0006809518404728705,0.0006826214264383438,-0.022266237160085682,0.9997516116592711
2025/04/09 09:50:00.759638925,1744185000,758496533,,-0.0006922072595562676,0.0006400092021166839,-0.02293756012690552,0.9997364550584097
2025/04/09 09:50:00.859383649,1744185000,859130073,,-0.0006401592032467408,0.0004790443365742176,-0.023597061589620067,0.9997212308424053
2025/04/09 09:50:00.960349786,1744185000,960088729,,-0.0005422698476813638,0.0002474732302365364,-0.024238969586488336,0.999706015313401
2025/04/09 09:50:01.60925922,1744185001,60781527,,-0.0004336767937910624,-1.882029301886435e-05,-0.024861108816600398,0.9996908206233787
2025/04/09 09:50:01.164894100,1744185001,163817924,,-0.0003356481983635676,-0.0002784038662902275,-0.025455721022246254,0.9996758555145822
2025/04/09 09:50:01.265379828,1744185001,264791064,,-0.000277837373583811,-0.00047536958178874767,-0.026022072305365317,0.9996612169045516
2025/04/09 09:50:01.365569308,1744185001,365305113,,-0.00027694126750988886,-0.0005754699121305542,-0.026556872200146076,0.9996471000692493
2025/04/09 09:50:01.467142233,1744185001,466074761,,-0.0003299597616963558,-0.0005674427384995522,-0.027055750787522852,0.9996337106583679
2025/04/09 09:50:01.568045323,1744185001,567751383,,-0.00041805736480593215,-0.0004331464448666323,-0.02751912159851704,0.9996210959951991
2025/04/09 09:50:01.658170226,1744185001,657893991,,-0.000518418098368589,-0.00021241878543915615,-0.027949500218105446,0.9996091794088793
2025/04/09 09:50:01.759297088,1744185001,759137070,,-0.0005935752172448942,5.3226933909268165e-05,-0.028347782807279495,0.999597943197797
2025/04/09 09:50:01.860895711,1744185001,860728715,,-0.0006243128255465736,0.00033737140310984845,-0.02871902742868061,0.9995872717664941
2025/04/09 09:50:01.962482845,1744185001,962275134,,-0.0006094284525266361,0.0005904627229824404,-0.029062222900351792,0.9995772442141849
2025/04/09 09:50:02.63874857,1744185002,63660218,,-0.0005515186119536569,0.0007480956326225992,-0.029378896111204176,0.9995679149729808
2025/04/09 09:50:02.165106967,1744185002,164955447,,-0.0004583952646787191,0.0007927799823346302,-0.029670080208346033,0.9995593267606037
2025/04/09 09:50:02.266218761,1744185002,266056957,,-0.0003419001015530422,0.0007062501109447643,-0.029938576654244816,0.9995514323650481
2025/04/09 09:50:02.366655267,1744185002,366353038,,-0.00023336626260070793,0.0005152508288885772,-0.030191597961586936,0.9995439697528552
2025/04/09 09:50:02.467879945,1744185002,467663820,,-0.00016743023127633843,0.00022634945392034853,-0.03042363940315713,0.9995370542898893
2025/04/09 09:50:02.558047583,1744185002,557820336,,-0.00016393252715521804,-9.634076798022366e-05,-0.030632254923990746,0.9995307042821919
2025/04/09 09:50:02.659289659,1744185002,659153820,,-0.00022009351222388091,-0.00040367555920139996,-0.03082174167370216,0.9995247915109902
2025/04/09 09:50:02.762987036,1744185002,762271102,,-0.00032375153581913483,-0.0006735600111417618,-0.030997050689550505,0.999519196589242
2025/04/09 09:50:02.861272716,1744185002,861119698,,-0.00045260575026684677,-0.0008297649832294953,-0.03115326071637505,0.999514172478232
2025/04/09 09:50:02.962778346,1744185002,962565467,,-0.0005819148539969246,-0.0008677860026038127,-0.03127733865936254,0.9995101982515956
2025/04/09 09:50:03.64159764,1744185003,63100588,,-0.0006658360544454337,-0.0007955658655753204,-0.03136830127174717,0.9995073553569414
2025/04/09 09:50:03.166225854,1744185003,165837996,,-0.0006728647494062084,-0.0006090432088370954,-0.0314400483589642,0.999505227439349
2025/04/09 09:50:03.266967140,1744185003,266664791,,-0.0006075675674936605,-0.00035952875035945,-0.031489971396015545,0.9995038185530892
2025/04/09 09:50:03.367974317,1744185003,367419240,,-0.0004920145348433987,-8.366106184902916e-05,-0.03151185412803836,0.9995032536074795
2025/04/09 09:50:03.458020087,1744185003,457706457,,-0.00031932211019331024,0.00016014931004516858,-0.03152648787143503,0.999502852896419
2025/04/09 09:50:03.559215759,1744185003,558939147,,-0.00012583437918097851,0.0003214805553676811,-0.03154787869443218,0.9995021821716263
2025/04/09 09:50:03.659785542,1744185003,659548720,,-8.851805644177556e-06,0.0003933529401381898,-0.031543781624995895,0.9995022936621529
2025/04/09 09:50:03.760885174,1744185003,760589185,,8.044673061400182e-06,0.00032575842575562064,-0.03150637472803375,0.9995034978269101
2025/04/09 09:50:03.863077578,1744185003,862247957,,-5.5685485990383956e-05,0.0001547380208172119,-0.03144833587418781,0.9995053652312307
2025/04/09 09:50:03.966119895,1744185003,964907304,,-0.00018193712727778796,-9.115114818560461e-05,-0.031367476409383976,0.9995078989252945
2025/04/09 09:50:04.66037189,1744185004,65780613,,-0.00033172037161404696,-0.00040567198720979804,-0.03126978664124004,0.9995108432804745
2025/04/09 09:50:04.167270882,1744185004,167098527,,-0.00047038675508349155,-0.0006918596962583344,-0.031161760774954427,0.9995140042700081
2025/04/09 09:50:04.257841038,1744185004,257538719,,-0.0005809203569743801,-0.0009357892279865031,-0.031033207701760282,0.9995177471409895
2025/04/09 09:50:04.358466654,1744185004,358211485,,-0.0006428394802947003,-0.0010803195174549896,-0.03087910446917625,0.9995223362058121
2025/04/09 09:50:04.460167470,1744185004,459054690,,-0.0006171221471830249,-0.0010960545806356365,-0.030721183834161222,0.9995272015750444
2025/04/09 09:50:04.560248323,1744185004,560034782,,-0.0005229745925734846,-0.001010983957150636,-0.030561486097907258,0.9995322405888173
2025/04/09 09:50:04.662310288,1744185004,660597485,,-0.00038224560881666724,-0.0008000795524522497,-0.030401066685371445,0.9995373874475111
2025/04/09 09:50:04.762858880,1744185004,761694578,,-0.00023423613689221815,-0.0005380771848007036,-0.030241695209323415,0.999542443059444
2025/04/09 09:50:04.862645466,1744185004,862476100,,-0.00014239889181622556,-0.00025677121354972715,-0.030058847896472132,0.9995480876147161
2025/04/09 09:50:04.964219238,1744185004,963953214,,-0.00010026786010772726,-7.225809082168266e-06,-0.0298774372068786,0.9995535646677935
2025/04/09 09:50:05.66057425,1744185005,64866479,,-0.00012214281935089545,0.0001664304768633379,-0.02969080476734654,0.9995591095549554
2025/04/09 09:50:05.168881116,1744185005,167670346,,-0.00018931648324634447,0.00022793880737572537,-0.02951332223735862,0.9995643431083779
2025/04/09 09:50:05.266566502,1744185005,266383470,,-0.00030578325196916386,0.00016656772472672758,-0.029323005703288066,0.9995699275630099
2025/04/09 09:50:05.362390100,1744185005,362074621,,-0.0004427124655860258,-3.795425831431665e-06,-0.0291145687938166,0.9995759830424187
2025/04/09 09:50:05.460581106,1744185005,459417675,,-0.0005325736015793254,-0.0002575390223285325,-0.02891794767769568,0.9995816136469903
2025/04/09 09:50:05.562661836,1744185005,561401454,,-0.0005604065686268953,-0.0005325060946673492,-0.028734066262168702,0.9995867925386861
2025/04/09 09:50:05.662931921,1744185005,661301811,,-0.0005343983070751988,-0.0007969796700086628,-0.028554150600284517,0.9995917865435626
2025/04/09 09:50:05.764210274,1744185005,763034733,,-0.0004504309431538762,-0.0009844014135722958,-0.02837971261232337,0.999596628634703
2025/04/09 09:50:05.863767605,1744185005,863561599,,-0.00033249039696439886,-0.0010720004318174041,-0.028210128502169793,0.9996013850105957
2025/04/09 09:50:05.959494933,1744185005,959019394,,-0.0002120199291608853,-0.0010376531085408384,-0.02804239296382963,0.999606173710646
2025/04/09 09:50:06.60830861,1744185006,60377213,,-0.00011784278341965233,-0.000884506413906575,-0.027876629570427088,0.9996109729716233
2025/04/09 09:50:06.161349441,1744185006,160981627,,-7.654644141586279e-05,-0.000649194051203359,-0.027702655742115306,0.9996159940459937
2025/04/09 09:50:06.263785006,1744185006,262220117,,-7.942754513941298e-05,-0.00035623947704562837,-0.027527129265182932,0.999620990145324
2025/04/09 09:50:06.364000602,1744185006,362912823,,-0.00016119249639899022,-6.096946797611246e-05,-0.027325827818452532,0.9996265649900163
2025/04/09 09:50:06.465286015,1744185006,465124176,,-0.0002932372159462228,0.00014651713171124267,-0.027089987922093547,0.9996329451849044
2025/04/09 09:50:06.569736630,1744185006,568631857,,-0.00036848330031174635,0.0002672820684331129,-0.02689255748111311,0.9996382261260712
2025/04/09 09:50:06.666477767,1744185006,666334634,,-0.0003696502171910294,0.0002900680070877964,-0.026736309866466558,0.999642410541886
2025/04/09 09:50:06.758980342,1744185006,758403525,,-0.0003322786434028324,0.00019560416587503055,-0.026599456689471907,0.9996460974933771
2025/04/09 09:50:06.860116926,1744185006,859973848,,-0.00030386100371802285,1.768350645152034e-05,-0.026454786323389157,0.9996499645557778
2025/04/09 09:50:06.964717178,1744185006,961401650,,-0.00024268757267978568,-0.00021140494574569053,-0.026335642159850528,0.9996531050132937
2025/04/09 09:50:07.62573262,1744185007,62181736,,-0.00019779287548908002,-0.00045310747014347787,-0.02622281017413178,0.9996560007313368
2025/04/09 09:50:07.165285101,1744185007,164349221,,-0.0001830481471563691,-0.0006503493061498813,-0.026116469595934305,0.9996586785273264
2025/04/09 09:50:07.264099018,1744185007,263898889,,-0.00021326887654316037,-0.0007695504622322675,-0.02601346536036313,0.9996612735964205
2025/04/09 09:50:07.366587121,1744185007,366325926,,-0.0002861111566201975,-0.0007923476173014944,-0.025906827373649386,0.9996640068648522
2025/04/09 09:50:07.466192268,1744185007,465986377,,-0.0003651781678190019,-0.0007305931481659514,-0.025805439101231255,0.9996666505347421
2025/04/09 09:50:07.567199027,1744185007,567093002,,-0.000452278632159557,-0.0005699248115060652,-0.02569553803217804,0.9996695503790165
2025/04/09 09:50:07.657849672,1744185007,657682604,,-0.000573933528475899,-0.00032878284956157464,-0.025544837868098382,0.9996734585655634
2025/04/09 09:50:07.765129955,1744185007,764942256,,-0.0006798971161810287,-8.249607927174239e-05,-0.025364319633597858,0.9996780392825647
2025/04/09 09:50:07.862987921,1744185007,862816625,,-0.000782879548219365,0.00012967597343384375,-0.02512617597305346,0.9996839728457819
2025/04/09 09:50:07.964071645,1744185007,963792004,,-0.0007101891493268694,0.00028798242213924033,-0.024934797809039285,0.9996887858507362
2025/04/09 09:50:08.65175541,1744185008,64925922,,-0.0005456188045003153,0.0003520245647342693,-0.024744381208956345,0.9996936000482407
2025/04/09 09:50:08.166299159,1744185008,165644213,,-0.00028395193238938787,0.00033510178292713743,-0.02458895762008083,0.9996975493824385
2025/04/09 09:50:08.267765655,1744185008,266651111,,-1.5955713202584347e-05,0.0002225343482864915,-0.024447325789487686,0.999701094570583
2025/04/09 09:50:08.359731442,1744185008,357307371,,0.00018795110499921945,5.881205876181197e-05,-0.024322680809899327,0.9997041404404323
2025/04/09 09:50:08.458665845,1744185008,458318879,,0.0002761415152908286,-0.0001338880044163816,-0.024213670906189966,0.99970675898541
2025/04/09 09:50:08.561279026,1744185008,560091457,,0.00014144673943580416,-0.0003056727182975613,-0.024051840965276454,0.9997106558915886
2025/04/09 09:50:08.660335551,1744185008,660024683,,-0.00011486235865866757,-0.0004460274127871878,-0.023881743285467483,0.9997146843994204
2025/04/09 09:50:08.761814280,1744185008,761676231,,-0.00041048037262577747,-0.0005389715227489511,-0.023709053230096772,0.9997186713323373
2025/04/09 09:50:08.867747963,1744185008,862953943,,-0.000675329127626948,-0.0005385923670903401,-0.02354154414965993,0.9997224862670046
2025/04/09 09:50:08.965122182,1744185008,964020159,,-0.0009349863341614086,-0.00045954505219623795,-0.02331336702139155,0.9997276636849787
2025/04/09 09:50:09.64741481,1744185009,64563303,,-0.0010809173979362291,-0.00033293729930849807,-0.023048578033276264,0.9997337064543625
2025/04/09 09:50:09.166041870,1744185009,165772832,,-0.0011263731089307223,-0.00015665332772365795,-0.02271954645063169,0.9997412309955171
2025/04/09 09:50:09.259527114,1744185009,258135126,,-0.0008756347611133786,2.4663408048533426e-05,-0.022462566703365872,0.9997473009478837
2025/04/09 09:50:09.359657073,1744185009,359500198,,-0.00037757692946502634,0.00019153076164513756,-0.02229943341933574,0.9997512470713934
2025/04/09 09:50:09.462236539,1744185009,460531870,,0.00018498460576003845,0.0003253960582636786,-0.022194452861376994,0.9997536027243338
2025/04/09 09:50:09.564279277,1744185009,561980250,,0.0006903584105994536,0.0003944259538318009,-0.022161276855752306,0.999754092585549
2025/04/09 09:50:09.665124838,1744185009,663849777,,0.0009478652372708059,0.0004062292085457785,-0.022139127166258172,0.9997543676211864
2025/04/09 09:50:09.766743163,1744185009,766525244,,0.0008855807541516369,0.00035439525408482,-0.022119314169017672,0.9997548830045413
2025/04/09 09:50:09.867721910,1744185009,867561056,,0.0005352433314761601,0.00024641058262899477,-0.022115559483575003,0.9997552474606619
2025/04/09 09:50:09.962397984,1744185009,962235515,,-1.22628052204645e-05,0.00010489989510384117,-0.022136316175604735,0.9997549561526611
2025/04/09 09:50:10.63134766,1744185010,62740521,,-0.0006538370562530849,-3.932706794319505e-05,-0.022159526378494488,0.9997542329698667
2025/04/09 09:50:10.164113733,1744185010,163586751,,-0.0012491648166910836,-0.00017057096794136122,-0.022170404152027385,0.9997534114333101
2025/04/09 09:50:10.266103651,1744185010,264518286,,-0.0016603403803535192,-0.0002437739791156156,-0.022162300565680148,0.9997529776288265
2025/04/09 09:50:10.365510298,1744185010,365271341,,-0.0017720428920583705,-0.00027342324795356064,-0.022158952386448078,0.9997528524254639
2025/04/09 09:50:10.466621668,1744185010,466356524,,-0.0015624562445184763,-0.00024214302005866857,-0.02216153266892493,0.999753152816737
2025/04/09 09:50:10.567127403,1744185010,566977133,,-0.0010561996333430534,-0.00014418426054815047,-0.022196963722369824,0.999753048734907
2025/04/09 09:50:10.657772380,1744185010,657601805,,-0.00039165140407632234,-5.418358781166918e-06,-0.022261754794457342,0.9997520996993657
2025/04/09 09:50:10.759142208,1744185010,758981238,,0.00020975653977341869,0.00014354304908879303,-0.022312449102646507,0.9997510140093027
2025/04/09 09:50:10.860149101,1744185010,859652891,,0.0006250791645680485,0.00028503581418094326,-0.022352288395036942,0.9997499203471475
2025/04/09 09:50:10.967705510,1744185010,966572454,,0.0007854728911749489,0.0003853038790746609,-0.022393774475195787,0.9997488451796341
2025/04/09 09:50:11.64120692,1744185011,62890546,,0.0006657059490428195,0.0004438189691726052,-0.022439956516106873,0.9997478723217506
2025/04/09 09:50:11.164722746,1744185011,164317799,,0.0002944583589025629,0.0004478269065931091,-0.022485732844355504,0.9997470202825257
2025/04/09 09:50:11.265617975,1744185011,265467351,,-0.0002608415440369447,0.0003944476633093945,-0.022498069436011053,0.9997467745606295
2025/04/09 09:50:11.368954114,1744185011,368594278,,-0.0007980448560538521,0.00029347237579798444,-0.02251606432587195,0.9997461196952182
2025/04/09 09:50:11.468165596,1744185011,467051726,,-0.0010794018578451719,0.00015494421671325337,-0.022636699789265205,0.9997431623705009
2025/04/09 09:50:11.562827781,1744185011,561604558,,-0.0012197155614292218,2.171755796728646e-05,-0.022752001661854482,0.99974039542407
2025/04/09 09:50:11.658807941,1744185011,658628145,,-0.0012180161830626344,-9.640525631900806e-05,-0.022839532607145024,0.9997383972284407
2025/04/09 09:50:11.761633460,1744185011,760075283,,-0.0010376527399018809,-0.0001816887204648223,-0.022922984772835105,0.9997366788485379
2025/04/09 09:50:11.861105884,1744185011,860855975,,-0.0006956357143294572,-0.00019897516281411738,-0.023023987320621074,0.9997346510488158
2025/04/09 09:50:11.962615393,1744185011,962413248,,-0.000280379791819929,-0.00016518364994018146,-0.02313770928619458,0.9997322344060542
2025/04/09 09:50:12.62787550,1744185012,62592437,,0.00012397784941825022,-8.639664581080752e-05,-0.02328411731329264,0.9997288767691235
2025/04/09 09:50:12.164579390,1744185012,164430570,,0.0004017607289714482,4.193354997637909e-05,-0.02345156414135562,0.9997248926425799
2025/04/09 09:50:12.267498856,1744185012,265967025,,0.00047301850575949496,0.00018066721434759623,-0.023622555668980572,0.9997208202675969
2025/04/09 09:50:12.367151727,1744185012,366872943,,0.00035598897279327953,0.0003002467154475698,-0.023822128523376448,0.9997161043598212
2025/04/09 09:50:12.457983406,1744185012,457839168,,6.839157336718144e-05,0.0004018288551759135,-0.024044385128246908,0.9997108088842335
2025/04/09 09:50:12.558882374,1744185012,558532268,,-0.0003926514268185614,0.00045213323274307683,-0.02423777943519202,0.9997060425187235
2025/04/09 09:50:12.662716065,1744185012,662538730,,-0.0009563294164156308,0.000423383670060074,-0.02435441687481139,0.9997028401275067
2025/04/09 09:50:12.762051679,1744185012,761302843,,-0.0013701696822338402,0.0003601707736381514,-0.024471783315160752,0.9996995172217658
2025/04/09 09:50:12.862141448,1744185012,861073849,,-0.0015475607766713255,0.00024314986917592021,-0.024593267273111504,0.9996963124562463
2025/04/09 09:50:12.963799426,1744185012,963145393,,-0.0014642550580223487,0.00011821044959351234,-0.024712422237102,0.9996935221209498
2025/04/09 09:50:13.64748418,1744185013,63100563,,-0.0011500642227387336,3.14520636546656e-07,-0.024827179375126834,0.9996910965475585
2025/04/09 09:50:13.165651449,1744185013,164111143,,-0.0006844337857074662,-9.25789367021114e-05,-0.024937907582077097,0.999688763438382
2025/04/09 09:50:13.265083619,1744185013,264859925,,-0.00019424488650700988,-0.0001463740530428154,-0.02503543306176741,0.9996865348372811
2025/04/09 09:50:13.366488615,1744185013,366331192,,0.00019970546187550093,-0.00014492932546033424,-0.02510801074648987,0.9996847137520776
2025/04/09 09:50:13.460757447,1744185013,458652010,,0.000402299558535219,-8.236029662574372e-05,-0.025146680540685917,0.9996836878881397
2025/04/09 09:50:13.559980569,1744185013,559828822,,0.0003882345225665293,2.790163534182305e-05,-0.025155498138321207,0.9996834746102724
2025/04/09 09:50:13.663225554,1744185013,661081000,,0.0001950601548457211,0.00017085479741613403,-0.025151819346482855,0.999683609320337
2025/04/09 09:50:13.762687102,1744185013,762353925,,-0.00010775601261092664,0.0003163079791190693,-0.025146630280385787,0.9996837176444586
2025/04/09 09:50:13.863122683,1744185013,862869631,,-0.00045417647285382715,0.00043464781020517116,-0.025145372452902763,0.999683607472493
2025/04/09 09:50:13.964569398,1744185013,963491458,,-0.0007852576982545734,0.00051159466732091,-0.025133068722156527,0.9996836752182418
2025/04/09 09:50:14.65107712,1744185014,64521647,,-0.0010270803012964896,0.0005276944650054161,-0.02510765784097431,0.9996840861804027
2025/04/09 09:50:14.166981298,1744185014,165694746,,-0.001118792721269579,0.0004839285696381207,-0.025071261948473346,0.9996849233334958
2025/04/09 09:50:14.267404397,1744185014,265931299,,-0.0010398530679643166,0.0003801778727773849,-0.02502877198466351,0.9996861181107407
2025/04/09 09:50:14.369012949,1744185014,367172799,,-0.0008161599784924967,0.0002524123044866246,-0.024978081534286628,0.9996876340206398
2025/04/09 09:50:14.458979600,1744185014,457460431,,-0.0005077599190103777,0.00011192026188411732,-0.024917598580584593,0.9996893732228509
2025/04/09 09:50:14.559293214,1744185014,558296281,,-0.00018393734926280543,-2.1225247594088113e-05,-0.024850605895243648,0.999691158860165
2025/04/09 09:50:14.660653232,1744185014,659519790,,7.826158534817512e-05,-0.0001155756299559327,-0.02477989045861764,0.9996929216245641
2025/04/09 09:50:14.760737755,1744185014,760314004,,0.00020912433195502904,-0.00015510890983989,-0.024701468616844236,0.9996948382663636
2025/04/09 09:50:14.861604141,1744185014,861496182,,0.00017956600100797553,-0.00013641676602344562,-0.024614981782643406,0.9996969799986181
2025/04/09 09:50:14.962465830,1744185014,962329375,,4.1164844097981955e-06,-6.479586726450978e-05,-0.024517457785488923,0.9996993998439165
2025/04/09 09:50:15.63399138,1744185015,63184819,,-0.0002739998305407644,4.737108647571657e-05,-0.024409622480863844,0.9997020021038343
2025/04/09 09:50:15.165521569,1744185015,164148987,,-0.0005769674041999702,0.0001770632929014083,-0.024294620556752418,0.999704659971738
2025/04/09 09:50:15.265518401,1744185015,265368564,,-0.0008298891078530182,0.00029348735158705167,-0.024177873545832708,0.9997072849489719
2025/04/09 09:50:15.366580237,1744185015,366381549,,-0.0009848897212723856,0.00039086768279861277,-0.02405405751125111,0.9997100977443095
2025/04/09 09:50:15.467263542,1744185015,466942822,,-0.0010088375595532922,0.00042747971700273364,-0.023923723540393172,0.9997131863488812
2025/04/09 09:50:15.559449527,1744185015,558288131,,-0.0008970157924101219,0.0004301918834006329,-0.02378545547431739,0.9997165910424268
2025/04/09 09:50:15.658976210,1744185015,658764316,,-0.0006765491268534081,0.00037539111599218036,-0.0236383189449467,0.9997202764975041
2025/04/09 09:50:15.763160795,1744185015,762577244,,-0.0004019483090859504,0.00027856833139450985,-0.023486732434835487,0.9997240290384022
2025/04/09 09:50:15.861148891,1744185015,860754542,,-0.00013293936400125188,0.00015615169820610775,-0.023327484434507953,0.9997278561757347
2025/04/09 09:50:15.963965231,1744185015,963587286,,7.100664310886552e-05,3.1267429223891724e-05,-0.023167356181619365,0.9997315977741018
2025/04/09 09:50:16.64599282,1744185016,64315864,,0.0001634871555349291,-7.21340780066261e-05,-0.02300827944449131,0.9997352585287912
2025/04/09 09:50:16.166107360,1744185016,165788929,,0.00013014141241334147,-0.0001272666884969748,-0.02285166624179648,0.9997388500085291
2025/04/09 09:50:16.266936177,1744185016,266681246,,-1.119695740935563e-06,-0.00014500786260449465,-0.02271894420519908,0.9997418809601142
2025/04/09 09:50:16.367255759,1744185016,367019831,,-0.00021213629882998303,-0.0001055267195702343,-0.02260055735850211,0.999744546706501
2025/04/09 09:50:16.458555975,1744185016,458291520,,-0.0004764383045151848,-2.9879186600544925e-05,-0.02248089672699475,0.9997471587337102
2025/04/09 09:50:16.560107407,1744185016,558496184,,-0.0007532063546123737,6.724596509845551e-05,-0.0223497086225905,0.9997499280733422
2025/04/09 09:50:16.660802510,1744185016,659849002,,-0.0009688380324146493,0.00017285689660652447,-0.02220143390892066,0.9997530334066249
2025/04/09 09:50:16.760907304,1744185016,760674223,,-0.0010513480901441106,0.0002639017398927759,-0.022053781438144307,0.9997561981540017
2025/04/09 09:50:16.862414606,1744185016,862068545,,-0.0009941742157182137,0.00033017968581851206,-0.021902305607093712,0.9997595669000109
2025/04/09 09:50:16.962799755,1744185016,962644846,,-0.0008150525653393069,0.00036555012098999956,-0.021746437218326354,0.9997631192091125
2025/04/09 09:50:17.64773758,1744185017,64621751,,-0.0005612749054966867,0.00034597299620004807,-0.021585275642833055,0.9997667933816312
2025/04/09 09:50:17.166536005,1744185017,165360334,,-0.00029203652317988176,0.0002944028814997261,-0.021419087015701242,0.9997704990411681
2025/04/09 09:50:17.266396428,1744185017,265972243,,-7.045771091536892e-05,0.00021584498129923407,-0.02125104594147714,0.9997741452413381
2025/04/09 09:50:17.367902085,1744185017,366825952,,5.7417498159687007e-05,9.470652770639048e-05,-0.021089583318490063,0.9997775838702111
2025/04/09 09:50:17.459020525,1744185017,457450261,,2.3615117742435793e-05,2.918137420806605e-06,-0.02090725031811461,0.9997814192702055
2025/04/09 09:50:17.559121130,1744185017,558952876,,-0.0001523353238625327,-8.623343670567661e-05,-0.02070149065275682,0.9997856858559725
2025/04/09 09:50:17.659577906,1744185017,659308424,,-0.0003981179832011532,-0.00016275549982578978,-0.020485001470494542,0.9997900678279779
2025/04/09 09:50:17.760391107,1744185017,760212518,,-0.000639277410857722,-0.000178749435481792,-0.020263082078744197,0.9997944623159809
2025/04/09 09:50:17.864088432,1744185017,862964448,,-0.0008216698192670491,-0.00016779033822135724,-0.020043036302149868,0.9997987664529804
2025/04/09 09:50:17.964237991,1744185017,963772620,,-0.0009112922212994183,-0.00011022880010266655,-0.019809690346906664,0.9998033474461159
2025/04/09 09:50:18.65456733,1744185018,65023633,,-0.0008554374001626414,-1.7202792468207235e-05,-0.019589208313721358,0.9998077469436611
2025/04/09 09:50:18.165795362,1744185018,165480167,,-0.000674912016644151,8.336595589334011e-05,-0.019389452716381265,0.9998117756194145
2025/04/09 09:50:18.266361499,1744185018,266125214,,-0.00043360714935650966,0.00018796810803458966,-0.019197928078066293,0.999815591101849
2025/04/09 09:50:18.367377746,1744185018,367211054,,-0.00019224491487165548,0.00027929544150106855,-0.019012424239234438,0.9998191900341263
2025/04/09 09:50:18.458283993,1744185018,457904855,,-6.149373681757595e-06,0.0003345196551191079,-0.01883815398796687,0.9998224902517002
2025/04/09 09:50:18.560722498,1744185018,558289549,,8.157953580676716e-05,0.00034507078581071354,-0.018673744698085082,0.9998255675516019
2025/04/09 09:50:18.659616464,1744185018,659330807,,5.522575319517305e-05,0.0003142492614733507,-0.018515236313006507,0.999828527409471
2025/04/09 09:50:18.760432899,1744185018,760223296,,-7.053930658832912e-05,0.0002390888467802425,-0.018373900761000962,0.9998311545613862
2025/04/09 09:50:18.861809913,1744185018,861659515,,-0.00026593059807098303,0.00014515428648708372,-0.018251310309874834,0.9998333850612925
2025/04/09 09:50:18.963061436,1744185018,962532715,,-0.0004990442164486173,3.5297413307427526e-05,-0.018138708950353036,0.9998353549192872
2025/04/09 09:50:19.63324425,1744185019,62990806,,-0.0007175672166681852,-7.046125305497872e-05,-0.018034015952197887,0.9998371139346335
2025/04/09 09:50:19.163980301,1744185019,163805372,,-0.0008724723460397504,-0.00013783788742769177,-0.01793517188970161,0.9998387617021102
2025/04/09 09:50:19.264548138,1744185019,264300361,,-0.0009378508780128822,-0.00017776654289050416,-0.01783136837700342,0.9998405528565995
2025/04/09 09:50:19.365470705,1744185019,365261323,,-0.0008931964388939996,-0.00016173527344171603,-0.017719230542231287,0.9998425900664635
2025/04/09 09:50:19.466442806,1744185019,466131445,,-0.0007063066073202982,-0.00010641121151116062,-0.017634854674120005,0.9998442387233389
2025/04/09 09:50:19.567590559,1744185019,567292799,,-0.0004624560430398506,-1.8949537503951935e-05,-0.017555873639085784,0.9998457766456244
2025/04/09 09:50:19.661512804,1744185019,660374889,,-0.00021887703437147095,9.149261039106144e-05,-0.01747833894196234,0.9998472140231106
2025/04/09 09:50:19.763949092,1744185019,763755362,,-1.4778890099033623e-05,0.00020568920423439069,-0.01742402072485715,0.9998481689613256
2025/04/09 09:50:19.863522304,1744185019,863281144,,8.919078709723971e-05,0.000295233400046228,-0.01738202035816717,0.9998488737056772
2025/04/09 09:50:19.964031071,1744185019,963888804,,6.843496087051692e-05,0.0003548572757307618,-0.017353516414489716,0.9998493510829629
2025/04/09 09:50:20.64591088,1744185020,64268026,,-7.614766742995527e-05,0.00038102818060102903,-0.017337184526785263,0.9998496242194336
2025/04/09 09:50:20.165925179,1744185020,165569923,,-0.00030712028255286763,0.00033009960714078414,-0.017327036131754566,0.9998497739812068
2025/04/09 09:50:20.266530582,1744185020,266397552,,-0.0005657988930158469,0.00025811271111023955,-0.01731874691048507,0.9998498258513083
2025/04/09 09:50:20.367753023,1744185020,367444403,,-0.0008035511522195147,0.00016056138692068216,-0.017304872485692745,0.9998499236954718
2025/04/09 09:50:20.458216368,1744185020,458040015,,-0.0009584199521835676,2.551109204170586e-05,-0.0172791989146294,0.9998502438191672
2025/04/09 09:50:20.559050350,1744185020,558851992,,-0.0009864150413512397,-7.776803909412769e-05,-0.017246747185100466,0.9998507741903446
2025/04/09 09:50:20.660049456,1744185020,659696422,,-0.0008917140425525146,-0.00014820048441910357,-0.017208865982835254,0.9998515078821792
2025/04/09 09:50:20.761023707,1744185020,760702664,,-0.0006953703899338346,-0.00020021384095102697,-0.01716133155103863,0.9998524716546107
2025/04/09 09:50:20.862429293,1744185020,862175792,,-0.0004414425104012787,-0.0001800517789168358,-0.01710774097268815,0.999853538228814
2025/04/09 09:50:20.962961635,1744185020,962712685,,-0.00019278686605017243,-0.00010699302711085414,-0.01704697128709339,0.9998546655167707
2025/04/09 09:50:21.63587547,1744185021,63431487,,-4.424963435632076e-06,-2.338341678242954e-05,-0.016980783629542195,0.9998558158159416
2025/04/09 09:50:21.164586643,1744185021,164299957,,8.845892177927098e-05,9.872652800843034e-05,-0.016913497990354902,0.9998569477749415
2025/04/09 09:50:21.265816210,1744185021,265638695,,6.511951511699214e-05,0.000220010301460796,-0.016844815993000813,0.9998580896952717
2025/04/09 09:50:21.366669018,1744185021,366429859,,-6.790612125649953e-05,0.00028942426226712044,-0.016773571126204288,0.9998592695644869
2025/04/09 09:50:21.468210606,1744185021,467083653,,-0.00027401324848734716,0.000337590078419862,-0.01670154990685724,0.9998604248495824
2025/04/09 09:50:21.561254185,1744185021,560998741,,-0.0005078777532190884,0.0003386233767132971,-0.016625918579946868,0.9998615935347099
2025/04/09 09:50:21.667302669,1744185021,666909119,,-0.0007131919104934999,0.0002686106764933317,-0.016546754035955714,0.9998628026566829
2025/04/09 09:50:21.760446707,1744185021,760190607,,-0.000840362244099651,0.00018082150706788912,-0.016465908688042045,0.9998640582328971
2025/04/09 09:50:21.862151390,1744185021,860655918,,-0.0008648184518428705,5.5266008629519336e-05,-0.016381740968786727,0.9998654347448687
2025/04/09 09:50:21.962089488,1744185021,961909552,,-0.0007799449710027387,-6.123810220396445e-05,-0.01629751391676754,0.9998668806275512
2025/04/09 09:50:22.63143149,1744185022,62938605,,-0.0006072752962120024,-0.00016096000683740383,-0.016215071761970807,0.9998683297096398
2025/04/09 09:50:22.163695036,1744185022,163533282,,-0.0003893917316584809,-0.00021501151039185379,-0.01613652917866276,0.999869698795896
2025/04/09 09:50:22.265807418,1744185022,264687646,,-0.00018435713558246538,-0.00022158765460012427,-0.016058655001849043,0.9998710099362265
2025/04/09 09:50:22.365441956,1744185022,365209566,,-4.046005286908942e-05,-0.00017928187135033162,-0.015974595224915903,0.9998723811209083
2025/04/09 09:50:22.466503739,1744185022,466314263,,1.06364114414671e-05,-8.745517107160459e-05,-0.015885469135851916,0.9998738140929553
2025/04/09 09:50:22.567309804,1744185022,567118990,,-4.0716086472576754e-05,1.713006862864667e-05,-0.015791236953943605,0.9998753096682733
2025/04/09 09:50:22.660175348,1744185022,658918486,,-0.00018694601012379358,0.00013109267173667973,-0.015686704937139712,0.999876930003946
2025/04/09 09:50:22.759642878,1744185022,759349092,,-0.00037635150391289614,0.0002256895652773862,-0.015579427565191912,0.9998785370536296
2025/04/09 09:50:22.861619437,1744185022,861395363,,-0.0005579063114220977,0.0002871252928754739,-0.015479421219041925,0.9998799897079336
2025/04/09 09:50:22.962650128,1744185022,962411929,,-0.0007052137674062629,0.00028888968088138206,-0.015378690952331468,0.9998814505134532
2025/04/09 09:50:23.63154466,1744185023,62927156,,-0.0007823914120700344,0.0002610134864628887,-0.015272067122195506,0.9998830350103223
2025/04/09 09:50:23.165038253,1744185023,164804752,,-0.0007734165998069431,0.0001746469724544886,-0.015161971886387836,0.9998847363239998
2025/04/09 09:50:23.265227142,1744185023,264960575,,-0.0006817570059225426,8.031796841979157e-05,-0.01504845024526397,0.9998865300130934
2025/04/09 09:50:23.366277836,1744185023,365535050,,-0.0005340695833172027,-3.368684830322314e-05,-0.014931991866776443,0.999888368396076
2025/04/09 09:50:23.466604475,1744185023,466432465,,-0.0003697163816911871,-0.00013097091118705994,-0.014809514342112222,0.9998902561988332
2025/04/09 09:50:23.568550082,1744185023,567082308,,-0.00022169318116305233,-0.00019211937654765258,-0.01468221472974048,0.999892167442524
2025/04/09 09:50:23.660957157,1744185023,660810837,,-0.0001278048273576277,-0.00022834952155906046,-0.014554616908177973,0.9998940417109596
2025/04/09 09:50:23.760260790,1744185023,760116438,,-0.00010795408720241966,-0.00019855874769595522,-0.014425766877462335,0.9998959176686021
2025/04/09 09:50:23.862137572,1744185023,861999200,,-0.00016356421491826086,-0.000149761969139235,-0.014296084917548076,0.9998977811627199
2025/04/09 09:50:23.963113924,1744185023,962027364,,-0.00027732395356530257,-5.9822020378934526e-05,-0.014163612539492047,0.999899650761306
2025/04/09 09:50:24.63240027,1744185024,63031801,,-0.00041880869555657637,3.930129286100659e-05,-0.014028319945463335,0.9999015097969363
2025/04/09 09:50:24.167128744,1744185024,166585575,,-0.0005546382278984746,0.0001292269884365122,-0.013898002875591372,0.999903255916737
2025/04/09 09:50:24.265993119,1744185024,265631427,,-0.0006500792806171535,0.0001966525543350575,-0.013773799486849165,0.9999049060647707
2025/04/09 09:50:24.366573692,1744185024,366404357,,-0.0006850943263417279,0.0002296270991622683,-0.01365577265090329,0.999906494523596
2025/04/09 09:50:24.458331704,1744185024,458088436,,-0.00065942992116973,0.00022403575833367952,-0.013539359371518699,0.9999080961308229
2025/04/09 09:50:24.558833489,1744185024,558680648,,-0.0005809266837237357,0.00018006367384614016,-0.013423503934833967,0.9999097157460632
2025/04/09 09:50:24.659412360,1744185024,659228868,,-0.0004693722419457574,0.00010657562820409294,-0.013307157031614005,0.999911340021239
2025/04/09 09:50:24.763477487,1744185024,763115973,,-0.00035036989712905047,1.787883740355789e-05,-0.013190807585457046,0.9999129359681901
2025/04/09 09:50:24.866957587,1744185024,866702342,,-0.00024856865583667903,-7.030610032070869e-05,-0.013076965664048076,0.9999144594612566
2025/04/09 09:50:24.959260086,1744185024,957308985,,-0.00018549212268141832,-0.00014213465761548654,-0.01296746832408362,0.9999158915407212
2025/04/09 09:50:25.61439068,1744185025,60291035,,-0.00017337489183643945,-0.00018618959439270545,-0.012863824383996166,0.9999172252225679
2025/04/09 09:50:25.159587042,1744185025,159268329,,-0.00021300411849354815,-0.00019617346867845564,-0.012769159382931059,0.9999184290300229
2025/04/09 09:50:25.260131108,1744185025,259803540,,-0.00029504318816545055,-0.0001681396837908265,-0.012687014101975888,0.9999194589324383
2025/04/09 09:50:25.363028349,1744185025,361737722,,-0.00039304892045789486,-0.00010843042431620475,-0.012621287385874003,0.9999202652512411
2025/04/09 09:50:25.462426164,1744185025,462295766,,-0.00048360355808907337,-2.563494951904391e-05,-0.012576352054707508,0.9999207972831868
2025/04/09 09:50:25.563328757,1744185025,563084429,,-0.0005543555285593007,6.3848220793938e-05,-0.01254927940192045,0.9999210989872377
2025/04/09 09:50:25.664345306,1744185025,664100906,,-0.0005902795876948513,0.00014737952145850688,-0.01254344027133398,0.9999211428684986
2025/04/09 09:50:25.764851666,1744185025,764639761,,-0.0005837663247430391,0.0002093097220062476,-0.012557513398517342,0.999920959008043
2025/04/09 09:50:25.867482036,1744185025,865698368,,-0.0005392541966193048,0.00023887965217617822,-0.012589652574761665,0.9999205732404299
2025/04/09 09:50:25.968411535,1744185025,966891441,,-0.00046766471130764697,0.00023030061579835286,-0.012639400991081042,0.9999199836956609
2025/04/09 09:50:26.57732774,1744185026,57297150,,-0.00038594257202974645,0.00018400093844447306,-0.012706431473355413,0.9999191786295524
2025/04/09 09:50:26.158473808,1744185026,158286946,,-0.0003129795014440568,0.00010739494925616824,-0.012790329472743396,0.9999181456409996
2025/04/09 09:50:26.260357975,1744185026,258847354,,-0.00026520087006815906,1.3571601833918685e-05,-0.012890631473567641,0.999916877097553
2025/04/09 09:50:26.361501652,1744185026,361180281,,-0.00025262511152734734,-8.23075876589212e-05,-0.01300685169867728,0.9999153720265044
2025/04/09 09:50:26.460879753,1744185026,460647731,,-0.0002771079897310589,-0.00016304181751105066,-0.013138327972941146,0.9999136367539965
2025/04/09 09:50:26.561989502,1744185026,561726052,,-0.00033276143869881354,-0.000224437833722662,-0.013284674525397836,0.9999116742594008
2025/04/09 09:50:26.662981756,1744185026,662671932,,-0.0004056878216455028,-0.0002418962502916722,-0.013445581389362395,0.9999094925265474
2025/04/09 09:50:26.763887260,1744185026,763692518,,-0.0004839982826391275,-0.000226528875049535,-0.013616393791097305,0.99990714981465
2025/04/09 09:50:26.865250151,1744185026,864888656,,-0.0005476287697635529,-0.00017257826406197682,-0.013793484077856771,0.9999047005172379
2025/04/09 09:50:26.965869852,1744185026,965628664,,-0.0004928768704998283,-0.00010562738478545782,-0.014038530335521781,0.9999013279225429
2025/04/09 09:50:27.68654830,1744185027,67641331,,-0.0003666279706026643,-1.989919480042039e-05,-0.014346527976027788,0.9998970158586264
2025/04/09 09:50:27.168689397,1744185027,167621287,,-0.00030114246456099873,4.8873704722937366e-05,-0.014637408115450522,0.9998928208604354
2025/04/09 09:50:27.259942782,1744185027,258263747,,-0.00029068252727892707,9.527928831231842e-05,-0.014908152531605524,0.9998888205263723
2025/04/09 09:50:27.361435983,1744185027,361259527,,-0.000303216810986815,0.00011402522735229768,-0.015186137699163766,0.9998846314848504
2025/04/09 09:50:27.463974057,1744185027,461848900,,-0.0003347700212387302,0.00010179006340399213,-0.015471582527779816,0.9998802466805222
2025/04/09 09:50:27.566280108,1744185027,565558826,,-0.0003768303685671942,6.008377550824511e-05,-0.015765333565723214,0.9998756465913022
2025/04/09 09:50:27.666193465,1744185027,664501897,,-0.0004194090752264568,-4.152327166099979e-06,-0.016068476872847418,0.9998708057193052
2025/04/09 09:50:27.766935652,1744185027,765201085,,-0.00045464497129299897,-7.988889260098121e-05,-0.016382339439988527,0.9998656939160319
2025/04/09 09:50:27.867951511,1744185027,867059682,,-0.00047483750010551476,-0.00015414664703801203,-0.016705223681261806,0.9998603333815772
2025/04/09 09:50:27.957931724,1744185027,957773527,,-0.0004740521821062725,-0.00021711217554480983,-0.017038634312317686,0.9998546959821727
2025/04/09 09:50:28.59184362,1744185028,58724094,,-0.000455664062310111,-0.00025448268207013496,-0.01738067988196358,0.9998488083583775
2025/04/09 09:50:28.159667976,1744185028,159525145,,-0.00042736752453222603,-0.0002536860755361145,-0.017727813614832808,0.9998427264449203
2025/04/09 09:50:28.261770840,1744185028,260236324,,-0.00039571166561049227,-0.00023306730757443963,-0.01807685825915538,0.9998364947767141
2025/04/09 09:50:28.361188472,1744185028,360953615,,-0.0003679238545863231,-0.00019466015310425772,-0.01842371779363231,0.9998301822620292
2025/04/09 09:50:28.464500304,1744185028,464318491,,-0.0003492271596968464,-0.00011538083779329445,-0.01877000194858555,0.999823760347044
2025/04/09 09:50:28.562797695,1744185028,562557095,,-0.0003455001133638358,-4.4563269375017186e-05,-0.01911423343685662,0.9998172456623801
2025/04/09 09:50:28.664917188,1744185028,663194448,,-0.00035905389224712055,2.0727020449786087e-05,-0.01945457228451345,0.9998106772124009
2025/04/09 09:50:28.764298190,1744185028,764147471,,-0.0003889368992745115,5.988140722312366e-05,-0.019790450114924082,0.9998040724194687
2025/04/09 09:50:28.866705251,1744185028,865622307,,-0.00044728962379400974,8.94643338216388e-05,-0.020111148420770185,0.9997976463451608
2025/04/09 09:50:28.966519409,1744185028,966228731,,-0.0005205081702113047,7.366998482484913e-05,-0.020407567744736645,0.9997916056972683
2025/04/09 09:50:29.68834240,1744185029,67142523,,-0.000572020709623507,2.3955206203934197e-05,-0.02068757587496889,0.9997858252760304
2025/04/09 09:50:29.157907889,1744185029,157585778,,-0.0005967659192221659,-4.461625674553577e-05,-0.020942696258540984,0.9997804985861896
2025/04/09 09:50:29.261805631,1744185029,260709776,,-0.0005833346194975546,-0.0001056524405115061,-0.021173998767279247,0.9997756299962941
2025/04/09 09:50:29.361641979,1744185029,361442771,,-0.0005281582181498636,-0.0001700407754740734,-0.0213843685748103,0.9997711742772383
2025/04/09 09:50:29.462944487,1744185029,462793253,,-0.00043791708403236745,-0.00020495218370562515,-0.021577230641678644,0.9997670675417678
2025/04/09 09:50:29.569429804,1744185029,569127251,,-0.000326120781298753,-0.00021659168429144523,-0.021758618045908434,0.9997631765943426
2025/04/09 09:50:29.665711135,1744185029,665507544,,-0.00020890095764526895,-0.00018563388032175483,-0.021939195429040634,0.9997592678261996
2025/04/09 09:50:29.759369552,1744185029,757305563,,-0.00011479708110062402,-0.0001393210378112639,-0.022126097886675262,0.9997551716313289
