time,header_stamp_secs,header_stamp_nsecs,header_frame_id,orientation_x,orientation_y,orientation_z,orientation_w,orientation_covariance_0,orientation_covariance_1,orientation_covariance_2,orientation_covariance_3,orientation_covariance_4,orientation_covariance_5,orientation_covariance_6,orientation_covariance_7,orientation_covariance_8,angular_velocity_x,angular_velocity_y,angular_velocity_z,angular_velocity_covariance_0,angular_velocity_covariance_1,angular_velocity_covariance_2,angular_velocity_covariance_3,angular_velocity_covariance_4,angular_velocity_covariance_5,angular_velocity_covariance_6,angular_velocity_covariance_7,angular_velocity_covariance_8,linear_acceleration_x,linear_acceleration_y,linear_acceleration_z,linear_acceleration_covariance_0,linear_acceleration_covariance_1,linear_acceleration_covariance_2,linear_acceleration_covariance_3,linear_acceleration_covariance_4,linear_acceleration_covariance_5,linear_acceleration_covariance_6,linear_acceleration_covariance_7,linear_acceleration_covariance_8
2025/04/01 17:52:24.56015153,1743522744,52730569,mA1/imu,0.7078175427984231,0.706389623022636,0.0025250522198821527,-0.001284797270943495,0.0,0.0,0.0,0.0,0.0,0.0,0.0,0.0,0.0,-0.0007693034292769415,-0.014513896460642649,-0.0009505996171044531,0.0,0.0,0.0,0.0,0.0,0.0,0.0,0.0,0.0,0.004906904762483406,0.5540701162206544,9.810190175442468,0.0,0.0,0.0,0.0,0.0,0.0,0.0,0.0,0.0
2025/04/01 17:52:24.120002425,1743522744,109644860,mA1/imu,0.7078020275437316,0.7064067517095599,0.0022043260234202978,-0.000965344971157014,0.0,0.0,0.0,0.0,0.0,0.0,0.0,0.0,0.0,-0.0005158326591516829,-0.020340795106847956,-0.0009313199388948127,0.0,0.0,0.0,0.0,0.0,0.0,0.0,0.0,0.0,0.0020476806961769872,-0.06855395986773254,9.810991103541706,0.0,0.0,0.0,0.0,0.0,0.0,0.0,0.0,0.0
2025/04/01 17:52:24.169865878,1743522744,159838180,mA1/imu,0.7077860222923636,0.706424412589302,0.0017835091540583793,-0.0005612846966441188,0.0,0.0,0.0,0.0,0.0,0.0,0.0,0.0,0.0,0.0011841648879530858,-0.025198018884449704,-0.0010009380425065892,0.0,0.0,0.0,0.0,0.0,0.0,0.0,0.0,0.0,0.009274621018446179,-0.5865509834550404,9.810868652892031,0.0,0.0,0.0,0.0,0.0,0.0,0.0,0.0,0.0
2025/04/01 17:52:24.212664741,1743522744,206960194,mA1/imu,0.7077687784949717,0.7064429710103411,0.0012947974032698668,-9.163788845038996e-05,0.0,0.0,0.0,0.0,0.0,0.0,0.0,0.0,0.0,0.0011276401345076464,-0.02816782400372725,-0.0010578027161244322,0.0,0.0,0.0,0.0,0.0,0.0,0.0,0.0,0.0,-0.013755236442356874,0.03292089514957443,9.809417405998149,0.0,0.0,0.0,0.0,0.0,0.0,0.0,0.0,0.0
2025/04/01 17:52:24.221479276,1743522744,206960194,mA1/imu,0.7077687784949717,0.7064429710103411,0.0012947974032698668,-9.163788845038996e-05,0.0,0.0,0.0,0.0,0.0,0.0,0.0,0.0,0.0,0.0011276401345076464,-0.02816782400372725,-0.0010578027161244322,0.0,0.0,0.0,0.0,0.0,0.0,0.0,0.0,0.0,-0.013755236442356874,0.03292089514957443,9.809417405998149,0.0,0.0,0.0,0.0,0.0,0.0,0.0,0.0,0.0
2025/04/01 17:52:24.278544026,1743522744,256626064,mA1/imu,0.7077503581351038,0.7064620694111927,0.0007744772264583499,0.0004186023329956888,0.0,0.0,0.0,0.0,0.0,0.0,0.0,0.0,0.0,-0.00041356236172652506,-0.02951291399562574,-0.0010978482301896991,0.0,0.0,0.0,0.0,0.0,0.0,0.0,0.0,0.0,-0.02069043215292804,0.5486290310323344,9.809261764534039,0.0,0.0,0.0,0.0,0.0,0.0,0.0,0.0,0.0
2025/04/01 17:52:24.280946611,1743522744,256626064,mA1/imu,0.7077503581351038,0.7064620694111927,0.0007744772264583499,0.0004186023329956888,0.0,0.0,0.0,0.0,0.0,0.0,0.0,0.0,0.0,-0.00041356236172652506,-0.02951291399562574,-0.0010978482301896991,0.0,0.0,0.0,0.0,0.0,0.0,0.0,0.0,0.0,-0.02069043215292804,0.5486290310323344,9.809261764534039,0.0,0.0,0.0,0.0,0.0,0.0,0.0,0.0,0.0
2025/04/01 17:52:24.308905579,1743522744,302695967,mA1/imu,0.7077309122497346,0.7064814381099256,0.00024756157243575346,0.0009338980444575038,0.0,0.0,0.0,0.0,0.0,0.0,0.0,0.0,0.0,-0.0002694662882110817,-0.029223796789884963,-0.0011390359613681043,0.0,0.0,0.0,0.0,0.0,0.0,0.0,0.0,0.0,-0.018613308980426686,-0.07134663313208717,9.810914129086278,0.0,0.0,0.0,0.0,0.0,0.0,0.0,0.0,0.0
2025/04/01 17:52:24.324622299,1743522744,302695967,mA1/imu,0.7077309122497346,0.7064814381099256,0.00024756157243575346,0.0009338980444575038,0.0,0.0,0.0,0.0,0.0,0.0,0.0,0.0,0.0,-0.0002694662882110817,-0.029223796789884963,-0.0011390359613681043,0.0,0.0,0.0,0.0,0.0,0.0,0.0,0.0,0.0,-0.018613308980426686,-0.07134663313208717,9.810914129086278,0.0,0.0,0.0,0.0,0.0,0.0,0.0,0.0,0.0
2025/04/01 17:52:24.359486019,1743522744,355584306,mA1/imu,0.707710393963572,0.7065011755450165,-0.00026290448692250677,0.0014206022194790048,0.0,0.0,0.0,0.0,0.0,0.0,0.0,0.0,0.0,0.0013423938765470247,-0.027308929917557033,-0.0011775129690098057,0.0,0.0,0.0,0.0,0.0,0.0,0.0,0.0,0.0,-0.020866609159537898,-0.5895766763831429,9.809947124154032,0.0,0.0,0.0,0.0,0.0,0.0,0.0,0.0,0.0
2025/04/01 17:52:24.364393217,1743522744,355584306,mA1/imu,0.707710393963572,0.7065011755450165,-0.00026290448692250677,0.0014206022194790048,0.0,0.0,0.0,0.0,0.0,0.0,0.0,0.0,0.0,0.0013423938765470247,-0.027308929917557033,-0.0011775129690098057,0.0,0.0,0.0,0.0,0.0,0.0,0.0,0.0,0.0,-0.020866609159537898,-0.5895766763831429,9.809947124154032,0.0,0.0,0.0,0.0,0.0,0.0,0.0,0.0,0.0
2025/04/01 17:52:24.429731735,1743522744,408023671,mA1/imu,0.7076889445967232,0.7065213321666647,-0.0007206556949093722,0.001856217763888792,0.0,0.0,0.0,0.0,0.0,0.0,0.0,0.0,0.0,0.0011912120091539932,-0.023721125751920643,-0.0012115051185077805,0.0,0.0,0.0,0.0,0.0,0.0,0.0,0.0,0.0,-0.03107131476274925,0.032033788225471704,9.809208981526403,0.0,0.0,0.0,0.0,0.0,0.0,0.0,0.0,0.0
2025/04/01 17:52:24.438642779,1743522744,408023671,mA1/imu,0.7076889445967232,0.7065213321666647,-0.0007206556949093722,0.001856217763888792,0.0,0.0,0.0,0.0,0.0,0.0,0.0,0.0,0.0,0.0011912120091539932,-0.023721125751920643,-0.0012115051185077805,0.0,0.0,0.0,0.0,0.0,0.0,0.0,0.0,0.0,-0.03107131476274925,0.032033788225471704,9.809208981526403,0.0,0.0,0.0,0.0,0.0,0.0,0.0,0.0,0.0
2025/04/01 17:52:24.461503446,1743522744,456265516,mA1/imu,0.7076667650284122,0.70654201597247,-0.001095341771225897,0.002220262638570752,0.0,0.0,0.0,0.0,0.0,0.0,0.0,0.0,0.0,-0.00041696740161099345,-0.01883767079144789,-0.0012410056491123545,0.0,0.0,0.0,0.0,0.0,0.0,0.0,0.0,0.0,-0.031047547844058762,0.5514623054646667,9.809738667120682,0.0,0.0,0.0,0.0,0.0,0.0,0.0,0.0,0.0
2025/04/01 17:52:24.465671299,1743522744,456265516,mA1/imu,0.7076667650284122,0.70654201597247,-0.001095341771225897,0.002220262638570752,0.0,0.0,0.0,0.0,0.0,0.0,0.0,0.0,0.0,-0.00041696740161099345,-0.01883767079144789,-0.0012410056491123545,0.0,0.0,0.0,0.0,0.0,0.0,0.0,0.0,0.0,-0.031047547844058762,0.5514623054646667,9.809738667120682,0.0,0.0,0.0,0.0,0.0,0.0,0.0,0.0,0.0
2025/04/01 17:52:24.536128399,1743522744,512493335,mA1/imu,0.7076441267918422,0.7065633199445196,-0.0013719561314220327,0.0024864557834831788,0.0,0.0,0.0,0.0,0.0,0.0,0.0,0.0,0.0,-0.000319933663679258,-0.012909725944672051,-0.0012643695502315834,0.0,0.0,0.0,0.0,0.0,0.0,0.0,0.0,0.0,-0.033163596711848375,-0.07035442728628478,9.81062769007133,0.0,0.0,0.0,0.0,0.0,0.0,0.0,0.0,0.0
2025/04/01 17:52:24.536197371,1743522744,512493335,mA1/imu,0.7076441267918422,0.7065633199445196,-0.0013719561314220327,0.0024864557834831788,0.0,0.0,0.0,0.0,0.0,0.0,0.0,0.0,0.0,-0.000319933663679258,-0.012909725944672051,-0.0012643695502315834,0.0,0.0,0.0,0.0,0.0,0.0,0.0,0.0,0.0,-0.033163596711848375,-0.07035442728628478,9.81062769007133,0.0,0.0,0.0,0.0,0.0,0.0,0.0,0.0,0.0
2025/04/01 17:52:24.563638351,1743522744,555736499,mA1/imu,0.7076213242401002,0.7065852646909421,-0.001541450125123722,0.0026361209816851213,0.0,0.0,0.0,0.0,0.0,0.0,0.0,0.0,0.0,0.0012163688305984756,-0.0063882424386521,-0.0012800128334337938,0.0,0.0,0.0,0.0,0.0,0.0,0.0,0.0,0.0,-0.03193767744683327,-0.5889481082730442,9.809684447822042,0.0,0.0,0.0,0.0,0.0,0.0,0.0,0.0,0.0
2025/04/01 17:52:24.564034944,1743522744,555736499,mA1/imu,0.7076213242401002,0.7065852646909421,-0.001541450125123722,0.0026361209816851213,0.0,0.0,0.0,0.0,0.0,0.0,0.0,0.0,0.0,0.0012163688305984756,-0.0063882424386521,-0.0012800128334337938,0.0,0.0,0.0,0.0,0.0,0.0,0.0,0.0,0.0,-0.03193767744683327,-0.5889481082730442,9.809684447822042,0.0,0.0,0.0,0.0,0.0,0.0,0.0,0.0,0.0
2025/04/01 17:52:24.613381509,1743522744,604176035,mA1/imu,0.7075984953390823,0.7066078897181842,-0.0015914625440214766,0.0026696121164301637,0.0,0.0,0.0,0.0,0.0,0.0,0.0,0.0,0.0,0.0010177591395911152,0.00030755146177602083,-0.0012945405322808384,0.0,0.0,0.0,0.0,0.0,0.0,0.0,0.0,0.0,-0.028259198913304362,0.03374735509327046,9.809097232851242,0.0,0.0,0.0,0.0,0.0,0.0,0.0,0.0,0.0
2025/04/01 17:52:24.613445193,1743522744,604176035,mA1/imu,0.7075984953390823,0.7066078897181842,-0.0015914625440214766,0.0026696121164301637,0.0,0.0,0.0,0.0,0.0,0.0,0.0,0.0,0.0,0.0010177591395911152,0.00030755146177602083,-0.0012945405322808384,0.0,0.0,0.0,0.0,0.0,0.0,0.0,0.0,0.0,-0.028259198913304362,0.03374735509327046,9.809097232851242,0.0,0.0,0.0,0.0,0.0,0.0,0.0,0.0,0.0
2025/04/01 17:52:24.671259373,1743522744,658657397,mA1/imu,0.7075756020565851,0.7066312595598171,-0.0015178213484586503,0.002593570034102202,0.0,0.0,0.0,0.0,0.0,0.0,0.0,0.0,0.0,-0.0006574387338515857,0.006809251928066524,-0.0013133719636409223,0.0,0.0,0.0,0.0,0.0,0.0,0.0,0.0,0.0,-0.025255858688352298,0.5522312298971788,9.809828049154516,0.0,0.0,0.0,0.0,0.0,0.0,0.0,0.0,0.0
2025/04/01 17:52:24.671458132,1743522744,658657397,mA1/imu,0.7075756020565851,0.7066312595598171,-0.0015178213484586503,0.002593570034102202,0.0,0.0,0.0,0.0,0.0,0.0,0.0,0.0,0.0,-0.0006574387338515857,0.006809251928066524,-0.0013133719636409223,0.0,0.0,0.0,0.0,0.0,0.0,0.0,0.0,0.0,-0.025255858688352298,0.5522312298971788,9.809828049154516,0.0,0.0,0.0,0.0,0.0,0.0,0.0,0.0,0.0
2025/04/01 17:52:24.744929494,1743522744,712210562,mA1/imu,0.7075525183687914,0.7066553984918683,-0.0013334008680555578,0.0024090608969052933,0.0,0.0,0.0,0.0,0.0,0.0,0.0,0.0,0.0,-0.0006145328590245685,0.012761328070986563,-0.0013377739156432067,0.0,0.0,0.0,0.0,0.0,0.0,0.0,0.0,0.0,-0.020832725765313483,-0.06978791093427757,9.810930134592805,0.0,0.0,0.0,0.0,0.0,0.0,0.0,0.0,0.0
2025/04/01 17:52:24.760806186,1743522744,712210562,mA1/imu,0.7075525183687914,0.7066553984918683,-0.0013334008680555578,0.0024090608969052933,0.0,0.0,0.0,0.0,0.0,0.0,0.0,0.0,0.0,-0.0006145328590245685,0.012761328070986563,-0.0013377739156432067,0.0,0.0,0.0,0.0,0.0,0.0,0.0,0.0,0.0,-0.020832725765313483,-0.06978791093427757,9.810930134592805,0.0,0.0,0.0,0.0,0.0,0.0,0.0,0.0,0.0
2025/04/01 17:52:24.807516495,1743522744,753779260,mA1/imu,0.7075292147903389,0.706680136854861,-0.001051167640457452,0.0021188297603193526,0.0,0.0,0.0,0.0,0.0,0.0,0.0,0.0,0.0,0.000879948357667057,0.018392425144516337,-0.0013461471528946644,0.0,0.0,0.0,0.0,0.0,0.0,0.0,0.0,0.0,-0.03303193660970912,-0.5798451252796339,9.81107595632339,0.0,0.0,0.0,0.0,0.0,0.0,0.0,0.0,0.0
2025/04/01 17:52:24.807655164,1743522744,753779260,mA1/imu,0.7075292147903389,0.706680136854861,-0.001051167640457452,0.0021188297603193526,0.0,0.0,0.0,0.0,0.0,0.0,0.0,0.0,0.0,0.000879948357667057,0.018392425144516337,-0.0013461471528946644,0.0,0.0,0.0,0.0,0.0,0.0,0.0,0.0,0.0,-0.03303193660970912,-0.5798451252796339,9.81107595632339,0.0,0.0,0.0,0.0,0.0,0.0,0.0,0.0,0.0
2025/04/01 17:52:24.838321041,1743522744,809459573,mA1/imu,0.7075056965410766,0.7067051738727886,-0.0006767762689796766,0.0017402750471157318,0.0,0.0,0.0,0.0,0.0,0.0,0.0,0.0,0.0,0.00068383213398507,0.02306227119916251,-0.0013683018743820374,0.0,0.0,0.0,0.0,0.0,0.0,0.0,0.0,0.0,-0.02913298826701803,0.03482473201366875,9.80974819646403,0.0,0.0,0.0,0.0,0.0,0.0,0.0,0.0,0.0
2025/04/01 17:52:24.838578120,1743522744,809459573,mA1/imu,0.7075056965410766,0.7067051738727886,-0.0006767762689796766,0.0017402750471157318,0.0,0.0,0.0,0.0,0.0,0.0,0.0,0.0,0.0,0.00068383213398507,0.02306227119916251,-0.0013683018743820374,0.0,0.0,0.0,0.0,0.0,0.0,0.0,0.0,0.0,-0.02913298826701803,0.03482473201366875,9.80974819646403,0.0,0.0,0.0,0.0,0.0,0.0,0.0,0.0,0.0
2025/04/01 17:52:24.871533501,1743522744,855087692,mA1/imu,0.7074814031069195,0.7067307266422213,-0.00022786309766114948,0.0013009058502603055,0.0,0.0,0.0,0.0,0.0,0.0,0.0,0.0,0.0,-0.0009644524003950565,0.026240412852081934,-0.0014113810788645323,0.0,0.0,0.0,0.0,0.0,0.0,0.0,0.0,0.0,-0.01556682013593838,0.5578331975260409,9.809828039378953,0.0,0.0,0.0,0.0,0.0,0.0,0.0,0.0,0.0
2025/04/01 17:52:24.876575719,1743522744,855087692,mA1/imu,0.7074814031069195,0.7067307266422213,-0.00022786309766114948,0.0013009058502603055,0.0,0.0,0.0,0.0,0.0,0.0,0.0,0.0,0.0,-0.0009644524003950565,0.026240412852081934,-0.0014113810788645323,0.0,0.0,0.0,0.0,0.0,0.0,0.0,0.0,0.0,-0.01556682013593838,0.5578331975260409,9.809828039378953,0.0,0.0,0.0,0.0,0.0,0.0,0.0,0.0,0.0
2025/04/01 17:52:24.914720561,1743522744,909650016,mA1/imu,0.7074559513165671,0.7067569108150904,0.00026006935248314985,0.000823605374670987,0.0,0.0,0.0,0.0,0.0,0.0,0.0,0.0,0.0,-0.0008973371940389403,0.027809666848091382,-0.001457398011659446,0.0,0.0,0.0,0.0,0.0,0.0,0.0,0.0,0.0,-0.016451036278983054,-0.06804160630330483,9.811570428919598,0.0,0.0,0.0,0.0,0.0,0.0,0.0,0.0,0.0
2025/04/01 17:52:24.917975928,1743522744,909650016,mA1/imu,0.7074559513165671,0.7067569108150904,0.00026006935248314985,0.000823605374670987,0.0,0.0,0.0,0.0,0.0,0.0,0.0,0.0,0.0,-0.0008973371940389403,0.027809666848091382,-0.001457398011659446,0.0,0.0,0.0,0.0,0.0,0.0,0.0,0.0,0.0,-0.016451036278983054,-0.06804160630330483,9.811570428919598,0.0,0.0,0.0,0.0,0.0,0.0,0.0,0.0,0.0
2025/04/01 17:52:24.955136553,1743522744,954213100,mA1/imu,0.7074293689904837,0.7067835658296597,0.0007547757031805562,0.00033056992464882524,0.0,0.0,0.0,0.0,0.0,0.0,0.0,0.0,0.0,0.0006313782411656982,0.02779807426546629,-0.0015030230449947933,0.0,0.0,0.0,0.0,0.0,0.0,0.0,0.0,0.0,-0.013925618190437111,-0.5868609892482524,9.81072526384965,0.0,0.0,0.0,0.0,0.0,0.0,0.0,0.0,0.0
2025/04/01 17:52:24.957095619,1743522744,954213100,mA1/imu,0.7074293689904837,0.7067835658296597,0.0007547757031805562,0.00033056992464882524,0.0,0.0,0.0,0.0,0.0,0.0,0.0,0.0,0.0,0.0006313782411656982,0.02779807426546629,-0.0015030230449947933,0.0,0.0,0.0,0.0,0.0,0.0,0.0,0.0,0.0,-0.013925618190437111,-0.5868609892482524,9.81072526384965,0.0,0.0,0.0,0.0,0.0,0.0,0.0,0.0,0.0
2025/04/01 17:52:25.11418353,1743522745,6712864,mA1/imu,0.7074016504656756,0.7068107004790931,0.0012322131619760647,-0.00014232854687034789,0.0,0.0,0.0,0.0,0.0,0.0,0.0,0.0,0.0,0.0004494539148211672,0.026053660859499346,-0.0015496411232950483,0.0,0.0,0.0,0.0,0.0,0.0,0.0,0.0,0.0,-0.0011165204967972416,0.03529964747957203,9.810132634492218,0.0,0.0,0.0,0.0,0.0,0.0,0.0,0.0,0.0
2025/04/01 17:52:25.11466265,1743522745,6712864,mA1/imu,0.7074016504656756,0.7068107004790931,0.0012322131619760647,-0.00014232854687034789,0.0,0.0,0.0,0.0,0.0,0.0,0.0,0.0,0.0,0.0004494539148211672,0.026053660859499346,-0.0015496411232950483,0.0,0.0,0.0,0.0,0.0,0.0,0.0,0.0,0.0,-0.0011165204967972416,0.03529964747957203,9.810132634492218,0.0,0.0,0.0,0.0,0.0,0.0,0.0,0.0,0.0
2025/04/01 17:52:25.62925275,1743522745,57762000,mA1/imu,0.7073730759530951,0.7068381801653641,0.0016727701140886292,-0.0005659658277349827,0.0,0.0,0.0,0.0,0.0,0.0,0.0,0.0,0.0,-0.001154050015922334,0.02321861059295097,-0.0015671197492363677,0.0,0.0,0.0,0.0,0.0,0.0,0.0,0.0,0.0,-0.008892262159139047,0.5585115642532311,9.809897733128118,0.0,0.0,0.0,0.0,0.0,0.0,0.0,0.0,0.0
2025/04/01 17:52:25.62976980,1743522745,57762000,mA1/imu,0.7073730759530951,0.7068381801653641,0.0016727701140886292,-0.0005659658277349827,0.0,0.0,0.0,0.0,0.0,0.0,0.0,0.0,0.0,-0.001154050015922334,0.02321861059295097,-0.0015671197492363677,0.0,0.0,0.0,0.0,0.0,0.0,0.0,0.0,0.0,-0.008892262159139047,0.5585115642532311,9.809897733128118,0.0,0.0,0.0,0.0,0.0,0.0,0.0,0.0,0.0
2025/04/01 17:52:25.109436354,1743522745,103777324,mA1/imu,0.7073440922981901,0.7068658117365636,0.002049513612361101,-0.0009267053531346552,0.0,0.0,0.0,0.0,0.0,0.0,0.0,0.0,0.0,-0.001026800328641218,0.019142645233014736,-0.0016001947775603595,0.0,0.0,0.0,0.0,0.0,0.0,0.0,0.0,0.0,-0.010594722118090805,-0.06633574809671698,9.81143986339926,0.0,0.0,0.0,0.0,0.0,0.0,0.0,0.0,0.0
2025/04/01 17:52:25.111328372,1743522745,103777324,mA1/imu,0.7073440922981901,0.7068658117365636,0.002049513612361101,-0.0009267053531346552,0.0,0.0,0.0,0.0,0.0,0.0,0.0,0.0,0.0,-0.001026800328641218,0.019142645233014736,-0.0016001947775603595,0.0,0.0,0.0,0.0,0.0,0.0,0.0,0.0,0.0,-0.010594722118090805,-0.06633574809671698,9.81143986339926,0.0,0.0,0.0,0.0,0.0,0.0,0.0,0.0,0.0
2025/04/01 17:52:25.159187017,1743522745,157630497,mA1/imu,0.707314627415424,0.7068939771055445,0.0023367845009451466,-0.0012093032217034396,0.0,0.0,0.0,0.0,0.0,0.0,0.0,0.0,0.0,0.0005695287552888509,0.013914436478878689,-0.0016216063459803495,0.0,0.0,0.0,0.0,0.0,0.0,0.0,0.0,0.0,-0.0016851946898883696,-0.5831679215209095,9.811221891303138,0.0,0.0,0.0,0.0,0.0,0.0,0.0,0.0,0.0
2025/04/01 17:52:25.160025304,1743522745,157630497,mA1/imu,0.707314627415424,0.7068939771055445,0.0023367845009451466,-0.0012093032217034396,0.0,0.0,0.0,0.0,0.0,0.0,0.0,0.0,0.0,0.0005695287552888509,0.013914436478878689,-0.0016216063459803495,0.0,0.0,0.0,0.0,0.0,0.0,0.0,0.0,0.0,-0.0016851946898883696,-0.5831679215209095,9.811221891303138,0.0,0.0,0.0,0.0,0.0,0.0,0.0,0.0,0.0
2025/04/01 17:52:25.217398000,1743522745,211927397,mA1/imu,0.7072852593808622,0.7069223920902592,0.0025220917576369846,-0.0013901356403240007,0.0,0.0,0.0,0.0,0.0,0.0,0.0,0.0,0.0,0.0004763044330049483,0.007946585001956488,-0.0016395040766071056,0.0,0.0,0.0,0.0,0.0,0.0,0.0,0.0,0.0,-0.005035109076720792,0.03681066081294308,9.809590086923166,0.0,0.0,0.0,0.0,0.0,0.0,0.0,0.0,0.0
2025/04/01 17:52:25.224524032,1743522745,211927397,mA1/imu,0.7072852593808622,0.7069223920902592,0.0025220917576369846,-0.0013901356403240007,0.0,0.0,0.0,0.0,0.0,0.0,0.0,0.0,0.0,0.0004763044330049483,0.007946585001956488,-0.0016395040766071056,0.0,0.0,0.0,0.0,0.0,0.0,0.0,0.0,0.0,-0.005035109076720792,0.03681066081294308,9.809590086923166,0.0,0.0,0.0,0.0,0.0,0.0,0.0,0.0,0.0
2025/04/01 17:52:25.262872498,1743522745,261003210,mA1/imu,0.7072556439851094,0.7069515917159159,0.0026035327833346606,-0.0014569277907593235,0.0,0.0,0.0,0.0,0.0,0.0,0.0,0.0,0.0,-0.0010852182672196021,0.0016604964700669635,-0.0016750594260209796,0.0,0.0,0.0,0.0,0.0,0.0,0.0,0.0,0.0,-0.004917178590802887,0.5554137838783599,9.810081248194653,0.0,0.0,0.0,0.0,0.0,0.0,0.0,0.0,0.0
2025/04/01 17:52:25.266151262,1743522745,261003210,mA1/imu,0.7072556439851094,0.7069515917159159,0.0026035327833346606,-0.0014569277907593235,0.0,0.0,0.0,0.0,0.0,0.0,0.0,0.0,0.0,-0.0010852182672196021,0.0016604964700669635,-0.0016750594260209796,0.0,0.0,0.0,0.0,0.0,0.0,0.0,0.0,0.0,-0.004917178590802887,0.5554137838783599,9.810081248194653,0.0,0.0,0.0,0.0,0.0,0.0,0.0,0.0,0.0
2025/04/01 17:52:25.312507213,1743522745,305998119,mA1/imu,0.7072258439459482,0.7069816094815745,0.0025716762567214845,-0.0014127954608601757,0.0,0.0,0.0,0.0,0.0,0.0,0.0,0.0,0.0,-0.0009075583162464155,-0.004659808330267201,-0.0017067516548731627,0.0,0.0,0.0,0.0,0.0,0.0,0.0,0.0,0.0,-0.00876680089476501,-0.06641968236133597,9.810682447927277,0.0,0.0,0.0,0.0,0.0,0.0,0.0,0.0,0.0
2025/04/01 17:52:25.315391766,1743522745,305998119,mA1/imu,0.7072258439459482,0.7069816094815745,0.0025716762567214845,-0.0014127954608601757,0.0,0.0,0.0,0.0,0.0,0.0,0.0,0.0,0.0,-0.0009075583162464155,-0.004659808330267201,-0.0017067516548731627,0.0,0.0,0.0,0.0,0.0,0.0,0.0,0.0,0.0,-0.00876680089476501,-0.06641968236133597,9.810682447927277,0.0,0.0,0.0,0.0,0.0,0.0,0.0,0.0,0.0
2025/04/01 17:52:25.365223024,1743522745,358810685,mA1/imu,0.7071958412252513,0.7070124389196795,0.0024206356183600628,-0.0012624934688669296,0.0,0.0,0.0,0.0,0.0,0.0,0.0,0.0,0.0,0.0007309369335144786,-0.011208030551653779,-0.0017493968853739767,0.0,0.0,0.0,0.0,0.0,0.0,0.0,0.0,0.0,0.013955634682759288,-0.5859252265301383,9.810405828429799,0.0,0.0,0.0,0.0,0.0,0.0,0.0,0.0,0.0
2025/04/01 17:52:25.365898199,1743522745,358810685,mA1/imu,0.7071958412252513,0.7070124389196795,0.0024206356183600628,-0.0012624934688669296,0.0,0.0,0.0,0.0,0.0,0.0,0.0,0.0,0.0,0.0007309369335144786,-0.011208030551653779,-0.0017493968853739767,0.0,0.0,0.0,0.0,0.0,0.0,0.0,0.0,0.0,0.013955634682759288,-0.5859252265301383,9.810405828429799,0.0,0.0,0.0,0.0,0.0,0.0,0.0,0.0,0.0
2025/04/01 17:52:25.419114357,1743522745,412545392,mA1/imu,0.7071653918100077,0.7070441721549404,0.0021558096076512248,-0.0009998664255815538,0.0,0.0,0.0,0.0,0.0,0.0,0.0,0.0,0.0,0.0006819719046092368,-0.017306418177310302,-0.0017770987967982341,0.0,0.0,0.0,0.0,0.0,0.0,0.0,0.0,0.0,0.013514851364876956,0.03951870158063124,9.808851463398398,0.0,0.0,0.0,0.0,0.0,0.0,0.0,0.0,0.0
2025/04/01 17:52:25.420887348,1743522745,412545392,mA1/imu,0.7071653918100077,0.7070441721549404,0.0021558096076512248,-0.0009998664255815538,0.0,0.0,0.0,0.0,0.0,0.0,0.0,0.0,0.0,0.0006819719046092368,-0.017306418177310302,-0.0017770987967982341,0.0,0.0,0.0,0.0,0.0,0.0,0.0,0.0,0.0,0.013514851364876956,0.03951870158063124,9.808851463398398,0.0,0.0,0.0,0.0,0.0,0.0,0.0,0.0,0.0
2025/04/01 17:52:25.456849975,1743522745,453797613,mA1/imu,0.7071348683153814,0.7070761225730292,0.0017975325132107026,-0.0006354341373136456,0.0,0.0,0.0,0.0,0.0,0.0,0.0,0.0,0.0,-0.0008284184291181773,-0.022341109794594555,-0.0017877753901749938,0.0,0.0,0.0,0.0,0.0,0.0,0.0,0.0,0.0,0.009581622729482361,0.558081956903159,9.809462981029244,0.0,0.0,0.0,0.0,0.0,0.0,0.0,0.0,0.0
2025/04/01 17:52:25.458210249,1743522745,453797613,mA1/imu,0.7071348683153814,0.7070761225730292,0.0017975325132107026,-0.0006354341373136456,0.0,0.0,0.0,0.0,0.0,0.0,0.0,0.0,0.0,-0.0008284184291181773,-0.022341109794594555,-0.0017877753901749938,0.0,0.0,0.0,0.0,0.0,0.0,0.0,0.0,0.0,0.009581622729482361,0.558081956903159,9.809462981029244,0.0,0.0,0.0,0.0,0.0,0.0,0.0,0.0,0.0
2025/04/01 17:52:25.511186336,1743522745,506480974,mA1/imu,0.7071038821884316,0.707108332956978,0.0013656320420962578,-0.00020076348695782082,0.0,0.0,0.0,0.0,0.0,0.0,0.0,0.0,0.0,-0.0006282701564063552,-0.02577154275399628,-0.0018120382612298192,0.0,0.0,0.0,0.0,0.0,0.0,0.0,0.0,0.0,-0.0016574713297530415,-0.06423485184126043,9.810231770589125,0.0,0.0,0.0,0.0,0.0,0.0,0.0,0.0,0.0
2025/04/01 17:52:25.511232501,1743522745,506480974,mA1/imu,0.7071038821884316,0.707108332956978,0.0013656320420962578,-0.00020076348695782082,0.0,0.0,0.0,0.0,0.0,0.0,0.0,0.0,0.0,-0.0006282701564063552,-0.02577154275399628,-0.0018120382612298192,0.0,0.0,0.0,0.0,0.0,0.0,0.0,0.0,0.0,-0.0016574713297530415,-0.06423485184126043,9.810231770589125,0.0,0.0,0.0,0.0,0.0,0.0,0.0,0.0,0.0
2025/04/01 17:52:25.563413646,1743522745,558523027,mA1/imu,0.7070725421817178,0.7071404179214661,0.0008800990209270825,0.00027360601348411803,0.0,0.0,0.0,0.0,0.0,0.0,0.0,0.0,0.0,0.0010338074672395484,-0.027881385308504245,-0.0018185621048231462,0.0,0.0,0.0,0.0,0.0,0.0,0.0,0.0,0.0,-0.0019046451084540426,-0.5817583296683916,9.810035661908557,0.0,0.0,0.0,0.0,0.0,0.0,0.0,0.0,0.0
2025/04/01 17:52:25.563657264,1743522745,558523027,mA1/imu,0.7070725421817178,0.7071404179214661,0.0008800990209270825,0.00027360601348411803,0.0,0.0,0.0,0.0,0.0,0.0,0.0,0.0,0.0,0.0010338074672395484,-0.027881385308504245,-0.0018185621048231462,0.0,0.0,0.0,0.0,0.0,0.0,0.0,0.0,0.0,-0.0019046451084540426,-0.5817583296683916,9.810035661908557,0.0,0.0,0.0,0.0,0.0,0.0,0.0,0.0,0.0
2025/04/01 17:52:25.613311058,1743522745,610632401,mA1/imu,0.7070414548453817,0.7071715878502077,0.0003754083987045732,0.0007652032903971722,0.0,0.0,0.0,0.0,0.0,0.0,0.0,0.0,0.0,0.0009863955842206622,-0.028150360750009422,-0.0017487685220789909,0.0,0.0,0.0,0.0,0.0,0.0,0.0,0.0,0.0,-0.01537950967966963,0.04049974174836254,9.80798722807316,0.0,0.0,0.0,0.0,0.0,0.0,0.0,0.0,0.0
2025/04/01 17:52:25.614178721,1743522745,610632401,mA1/imu,0.7070414548453817,0.7071715878502077,0.0003754083987045732,0.0007652032903971722,0.0,0.0,0.0,0.0,0.0,0.0,0.0,0.0,0.0,0.0009863955842206622,-0.028150360750009422,-0.0017487685220789909,0.0,0.0,0.0,0.0,0.0,0.0,0.0,0.0,0.0,-0.01537950967966963,0.04049974174836254,9.80798722807316,0.0,0.0,0.0,0.0,0.0,0.0,0.0,0.0,0.0
2025/04/01 17:52:25.658631458,1743522745,654280757,mA1/imu,0.7070110472169188,0.7072013868275956,-0.00011460623748554941,0.0012507788660338997,0.0,0.0,0.0,0.0,0.0,0.0,0.0,0.0,0.0,-0.0005285510865654627,-0.027042675084061694,-0.0016984729475340837,0.0,0.0,0.0,0.0,0.0,0.0,0.0,0.0,0.0,-0.007097168883857256,0.5614514216458546,9.809377560094685,0.0,0.0,0.0,0.0,0.0,0.0,0.0,0.0,0.0
2025/04/01 17:52:25.658703176,1743522745,654280757,mA1/imu,0.7070110472169188,0.7072013868275956,-0.00011460623748554941,0.0012507788660338997,0.0,0.0,0.0,0.0,0.0,0.0,0.0,0.0,0.0,-0.0005285510865654627,-0.027042675084061694,-0.0016984729475340837,0.0,0.0,0.0,0.0,0.0,0.0,0.0,0.0,0.0,-0.007097168883857256,0.5614514216458546,9.809377560094685,0.0,0.0,0.0,0.0,0.0,0.0,0.0,0.0,0.0
2025/04/01 17:52:25.709074538,1743522745,704233830,mA1/imu,0.7069815960488864,0.7072296732234978,-0.0005708920400748383,0.00169889453238074,0.0,0.0,0.0,0.0,0.0,0.0,0.0,0.0,0.0,-0.00032240151941643753,-0.024403298707526833,-0.0016234661234888824,0.0,0.0,0.0,0.0,0.0,0.0,0.0,0.0,0.0,-0.015442924106064237,-0.06115081338422247,9.810328133331465,0.0,0.0,0.0,0.0,0.0,0.0,0.0,0.0,0.0
2025/04/01 17:52:25.710659323,1743522745,704233830,mA1/imu,0.7069815960488864,0.7072296732234978,-0.0005708920400748383,0.00169889453238074,0.0,0.0,0.0,0.0,0.0,0.0,0.0,0.0,0.0,-0.00032240151941643753,-0.024403298707526833,-0.0016234661234888824,0.0,0.0,0.0,0.0,0.0,0.0,0.0,0.0,0.0,-0.015442924106064237,-0.06115081338422247,9.810328133331465,0.0,0.0,0.0,0.0,0.0,0.0,0.0,0.0,0.0
2025/04/01 17:52:25.756898228,1743522745,755746501,mA1/imu,0.7069528150209031,0.707256986725075,-0.0009729989389729149,0.0020797441314463405,0.0,0.0,0.0,0.0,0.0,0.0,0.0,0.0,0.0,0.0013002029572230821,-0.020478367262957087,-0.001602545987605738,0.0,0.0,0.0,0.0,0.0,0.0,0.0,0.0,0.0,-0.016149387718076932,-0.5827636322322266,9.809385490578256,0.0,0.0,0.0,0.0,0.0,0.0,0.0,0.0,0.0
2025/04/01 17:52:25.757315077,1743522745,755746501,mA1/imu,0.7069528150209031,0.707256986725075,-0.0009729989389729149,0.0020797441314463405,0.0,0.0,0.0,0.0,0.0,0.0,0.0,0.0,0.0,0.0013002029572230821,-0.020478367262957087,-0.001602545987605738,0.0,0.0,0.0,0.0,0.0,0.0,0.0,0.0,0.0,-0.016149387718076932,-0.5827636322322266,9.809385490578256,0.0,0.0,0.0,0.0,0.0,0.0,0.0,0.0,0.0
2025/04/01 17:52:25.811132299,1743522745,808349335,mA1/imu,0.7069241181538569,0.7072842137868077,-0.0012931890678964265,0.0023790255155525827,0.0,0.0,0.0,0.0,0.0,0.0,0.0,0.0,0.0,0.0011769039683939774,-0.015434690793053962,-0.0015927705230080452,0.0,0.0,0.0,0.0,0.0,0.0,0.0,0.0,0.0,-0.019341041878750895,0.03940174711090837,9.809036997368349,0.0,0.0,0.0,0.0,0.0,0.0,0.0,0.0,0.0
2025/04/01 17:52:25.811263489,1743522745,808349335,mA1/imu,0.7069241181538569,0.7072842137868077,-0.0012931890678964265,0.0023790255155525827,0.0,0.0,0.0,0.0,0.0,0.0,0.0,0.0,0.0,0.0011769039683939774,-0.015434690793053962,-0.0015927705230080452,0.0,0.0,0.0,0.0,0.0,0.0,0.0,0.0,0.0,-0.019341041878750895,0.03940174711090837,9.809036997368349,0.0,0.0,0.0,0.0,0.0,0.0,0.0,0.0,0.0
2025/04/01 17:52:25.869743124,1743522745,860291671,mA1/imu,0.7068960625620059,0.7073110729443569,-0.001514170825565252,0.002590388261692108,0.0,0.0,0.0,0.0,0.0,0.0,0.0,0.0,0.0,-0.0004216791740091174,-0.010024668741737517,-0.0015420710969919992,0.0,0.0,0.0,0.0,0.0,0.0,0.0,0.0,0.0,-0.00863914257104395,0.5573292696603913,9.80917180726373,0.0,0.0,0.0,0.0,0.0,0.0,0.0,0.0,0.0
2025/04/01 17:52:25.869826749,1743522745,860291671,mA1/imu,0.7068960625620059,0.7073110729443569,-0.001514170825565252,0.002590388261692108,0.0,0.0,0.0,0.0,0.0,0.0,0.0,0.0,0.0,-0.0004216791740091174,-0.010024668741737517,-0.0015420710969919992,0.0,0.0,0.0,0.0,0.0,0.0,0.0,0.0,0.0,-0.00863914257104395,0.5573292696603913,9.80917180726373,0.0,0.0,0.0,0.0,0.0,0.0,0.0,0.0,0.0
2025/04/01 17:52:25.911084066,1743522745,903444321,mA1/imu,0.7068692488971684,0.7073371785766359,-0.0016361894790112904,0.0027025267410400403,0.0,0.0,0.0,0.0,0.0,0.0,0.0,0.0,0.0,-0.0003180485186911813,-0.004313543885486617,-0.0014747042852744558,0.0,0.0,0.0,0.0,0.0,0.0,0.0,0.0,0.0,-0.0029098426349641535,-0.06245973622932944,9.810931593482573,0.0,0.0,0.0,0.0,0.0,0.0,0.0,0.0,0.0
2025/04/01 17:52:25.915704321,1743522745,903444321,mA1/imu,0.7068692488971684,0.7073371785766359,-0.0016361894790112904,0.0027025267410400403,0.0,0.0,0.0,0.0,0.0,0.0,0.0,0.0,0.0,-0.0003180485186911813,-0.004313543885486617,-0.0014747042852744558,0.0,0.0,0.0,0.0,0.0,0.0,0.0,0.0,0.0,-0.0029098426349641535,-0.06245973622932944,9.810931593482573,0.0,0.0,0.0,0.0,0.0,0.0,0.0,0.0,0.0
2025/04/01 17:52:25.956025678,1743522745,954124018,mA1/imu,0.7068435721694653,0.7073627608718692,-0.0016608899760901458,0.002707482026531495,0.0,0.0,0.0,0.0,0.0,0.0,0.0,0.0,0.0,0.0012174272174883378,0.001405289918643087,-0.0014546973936862841,0.0,0.0,0.0,0.0,0.0,0.0,0.0,0.0,0.0,0.008221853128004206,-0.5809218439613391,9.81085170581541,0.0,0.0,0.0,0.0,0.0,0.0,0.0,0.0,0.0
2025/04/01 17:52:25.956074399,1743522745,954124018,mA1/imu,0.7068435721694653,0.7073627608718692,-0.0016608899760901458,0.002707482026531495,0.0,0.0,0.0,0.0,0.0,0.0,0.0,0.0,0.0,0.0012174272174883378,0.001405289918643087,-0.0014546973936862841,0.0,0.0,0.0,0.0,0.0,0.0,0.0,0.0,0.0,0.008221853128004206,-0.5809218439613391,9.81085170581541,0.0,0.0,0.0,0.0,0.0,0.0,0.0,0.0,0.0
2025/04/01 17:52:26.9705627,1743522746,5306642,mA1/imu,0.706817964945407,0.7073888722677913,-0.001584922151382429,0.0026145446850201625,0.0,0.0,0.0,0.0,0.0,0.0,0.0,0.0,0.0,0.0010271681019888628,0.007034106895199847,-0.0014605706443778113,0.0,0.0,0.0,0.0,0.0,0.0,0.0,0.0,0.0,0.000341355379912138,0.0378973092780957,9.80988484196805,0.0,0.0,0.0,0.0,0.0,0.0,0.0,0.0,0.0
2025/04/01 17:52:26.9782997,1743522746,5306642,mA1/imu,0.706817964945407,0.7073888722677913,-0.001584922151382429,0.0026145446850201625,0.0,0.0,0.0,0.0,0.0,0.0,0.0,0.0,0.0,0.0010271681019888628,0.007034106895199847,-0.0014605706443778113,0.0,0.0,0.0,0.0,0.0,0.0,0.0,0.0,0.0,0.000341355379912138,0.0378973092780957,9.80988484196805,0.0,0.0,0.0,0.0,0.0,0.0,0.0,0.0,0.0
2025/04/01 17:52:26.61986860,1743522746,55422839,mA1/imu,0.7067938310347129,0.7074139181810022,-0.0014257135973209127,0.0024486967583125475,0.0,0.0,0.0,0.0,0.0,0.0,0.0,0.0,0.0,-0.0005290363959330238,0.01054712848081482,-0.0013274170999431688,0.0,0.0,0.0,0.0,0.0,0.0,0.0,0.0,0.0,0.055146097234044046,0.5686231915701414,9.810054595884884,0.0,0.0,0.0,0.0,0.0,0.0,0.0,0.0,0.0
2025/04/01 17:52:26.62538374,1743522746,55422839,mA1/imu,0.7067938310347129,0.7074139181810022,-0.0014257135973209127,0.0024486967583125475,0.0,0.0,0.0,0.0,0.0,0.0,0.0,0.0,0.0,-0.0005290363959330238,0.01054712848081482,-0.0013274170999431688,0.0,0.0,0.0,0.0,0.0,0.0,0.0,0.0,0.0,0.055146097234044046,0.5686231915701414,9.810054595884884,0.0,0.0,0.0,0.0,0.0,0.0,0.0,0.0,0.0
2025/04/01 17:52:26.108310012,1743522746,106951816,mA1/imu,0.706772272363726,0.7074366005217765,-0.001209201548366411,0.002224655394240744,0.0,0.0,0.0,0.0,0.0,0.0,0.0,0.0,0.0,0.00084924308717448,0.013629870655876586,-0.0011966898671948818,0.0,0.0,0.0,0.0,0.0,0.0,0.0,0.0,0.0,0.05213785624435528,-0.5936230087921434,9.81046766687727,0.0,0.0,0.0,0.0,0.0,0.0,0.0,0.0,0.0
2025/04/01 17:52:26.110853130,1743522746,106951816,mA1/imu,0.706772272363726,0.7074366005217765,-0.001209201548366411,0.002224655394240744,0.0,0.0,0.0,0.0,0.0,0.0,0.0,0.0,0.0,0.00084924308717448,0.013629870655876586,-0.0011966898671948818,0.0,0.0,0.0,0.0,0.0,0.0,0.0,0.0,0.0,0.05213785624435528,-0.5936230087921434,9.81046766687727,0.0,0.0,0.0,0.0,0.0,0.0,0.0,0.0,0.0
2025/04/01 17:52:26.158543659,1743522746,156782887,mA1/imu,0.7067519311124774,0.7074581114300684,-0.0009477701206398583,0.0019570826204422355,0.0,0.0,0.0,0.0,0.0,0.0,0.0,0.0,0.0,0.00023386629670433444,0.015702256047814403,-0.0011562614386095267,0.0,0.0,0.0,0.0,0.0,0.0,0.0,0.0,0.0,0.05978462200114304,-0.1150748876527417,9.81228234371851,0.0,0.0,0.0,0.0,0.0,0.0,0.0,0.0,0.0
2025/04/01 17:52:26.158596087,1743522746,156782887,mA1/imu,0.7067519311124774,0.7074581114300684,-0.0009477701206398583,0.0019570826204422355,0.0,0.0,0.0,0.0,0.0,0.0,0.0,0.0,0.0,0.00023386629670433444,0.015702256047814403,-0.0011562614386095267,0.0,0.0,0.0,0.0,0.0,0.0,0.0,0.0,0.0,0.05978462200114304,-0.1150748876527417,9.81228234371851,0.0,0.0,0.0,0.0,0.0,0.0,0.0,0.0,0.0
2025/04/01 17:52:26.212477054,1743522746,208819003,mA1/imu,0.7067319553487151,0.7074791511736127,-0.0006582752007595144,0.0016615105796459677,0.0,0.0,0.0,0.0,0.0,0.0,0.0,0.0,0.0,0.0008845401101586809,0.016974394991941696,-0.0011393329529614045,0.0,0.0,0.0,0.0,0.0,0.0,0.0,0.0,0.0,0.059947757581097896,-0.09841960225907424,9.810231884370744,0.0,0.0,0.0,0.0,0.0,0.0,0.0,0.0,0.0
2025/04/01 17:52:26.215120776,1743522746,208819003,mA1/imu,0.7067319553487151,0.7074791511736127,-0.0006582752007595144,0.0016615105796459677,0.0,0.0,0.0,0.0,0.0,0.0,0.0,0.0,0.0,0.0008845401101586809,0.016974394991941696,-0.0011393329529614045,0.0,0.0,0.0,0.0,0.0,0.0,0.0,0.0,0.0,0.059947757581097896,-0.09841960225907424,9.810231884370744,0.0,0.0,0.0,0.0,0.0,0.0,0.0,0.0,0.0
2025/04/01 17:52:26.262117084,1743522746,260756250,mA1/imu,0.7067124273784607,0.7074995143429326,-0.000346503182451595,0.0013645984401510682,0.0,0.0,0.0,0.0,0.0,0.0,0.0,0.0,0.0,1.8486288058901787e-05,0.0172196935748424,-0.0010998518282581077,0.0,0.0,0.0,0.0,0.0,0.0,0.0,0.0,0.0,0.06297226414859114,-0.003234489857541845,9.811925315497176,0.0,0.0,0.0,0.0,0.0,0.0,0.0,0.0,0.0
2025/04/01 17:52:26.262169319,1743522746,260756250,mA1/imu,0.7067124273784607,0.7074995143429326,-0.000346503182451595,0.0013645984401510682,0.0,0.0,0.0,0.0,0.0,0.0,0.0,0.0,0.0,1.8486288058901787e-05,0.0172196935748424,-0.0010998518282581077,0.0,0.0,0.0,0.0,0.0,0.0,0.0,0.0,0.0,0.06297226414859114,-0.003234489857541845,9.811925315497176,0.0,0.0,0.0,0.0,0.0,0.0,0.0,0.0,0.0
2025/04/01 17:52:26.305515353,1743522746,303329746,mA1/imu,0.7066934798348146,0.7075190368466332,-4.904565805156566e-05,0.0010656702569824326,0.0,0.0,0.0,0.0,0.0,0.0,0.0,0.0,0.0,-0.0015121089326143387,0.016522768033172867,-0.0010599239851207698,0.0,0.0,0.0,0.0,0.0,0.0,0.0,0.0,0.0,0.06337772847271783,0.2812318386173883,9.810801802000032,0.0,0.0,0.0,0.0,0.0,0.0,0.0,0.0,0.0
2025/04/01 17:52:26.307035646,1743522746,303329746,mA1/imu,0.7066934798348146,0.7075190368466332,-4.904565805156566e-05,0.0010656702569824326,0.0,0.0,0.0,0.0,0.0,0.0,0.0,0.0,0.0,-0.0015121089326143387,0.016522768033172867,-0.0010599239851207698,0.0,0.0,0.0,0.0,0.0,0.0,0.0,0.0,0.0,0.06337772847271783,0.2812318386173883,9.810801802000032,0.0,0.0,0.0,0.0,0.0,0.0,0.0,0.0,0.0
2025/04/01 17:52:26.357687935,1743522746,353110671,mA1/imu,0.7066750913217053,0.7075377243008206,0.0002319903266223057,0.0007938369880852697,0.0,0.0,0.0,0.0,0.0,0.0,0.0,0.0,0.0,0.001122386896217373,0.014936059271910522,-0.001021781443811491,0.0,0.0,0.0,0.0,0.0,0.0,0.0,0.0,0.0,0.062419345848526826,-0.5382471364243652,9.809562472369596,0.0,0.0,0.0,0.0,0.0,0.0,0.0,0.0,0.0
2025/04/01 17:52:26.357739030,1743522746,353110671,mA1/imu,0.7066750913217053,0.7075377243008206,0.0002319903266223057,0.0007938369880852697,0.0,0.0,0.0,0.0,0.0,0.0,0.0,0.0,0.0,0.001122386896217373,0.014936059271910522,-0.001021781443811491,0.0,0.0,0.0,0.0,0.0,0.0,0.0,0.0,0.0,0.062419345848526826,-0.5382471364243652,9.809562472369596,0.0,0.0,0.0,0.0,0.0,0.0,0.0,0.0,0.0
2025/04/01 17:52:26.409525216,1743522746,407486962,mA1/imu,0.7066572680250655,0.7075556170642544,0.00048348973266553136,0.0005661676882124283,0.0,0.0,0.0,0.0,0.0,0.0,0.0,0.0,0.0,-7.197180230028264e-05,0.012523811794205886,-0.000992583951617528,0.0,0.0,0.0,0.0,0.0,0.0,0.0,0.0,0.0,0.0661278216522012,-0.6180015545165752,9.81148439079587,0.0,0.0,0.0,0.0,0.0,0.0,0.0,0.0,0.0
2025/04/01 17:52:26.409788959,1743522746,407486962,mA1/imu,0.7066572680250655,0.7075556170642544,0.00048348973266553136,0.0005661676882124283,0.0,0.0,0.0,0.0,0.0,0.0,0.0,0.0,0.0,-7.197180230028264e-05,0.012523811794205886,-0.000992583951617528,0.0,0.0,0.0,0.0,0.0,0.0,0.0,0.0,0.0,0.0661278216522012,-0.6180015545165752,9.81148439079587,0.0,0.0,0.0,0.0,0.0,0.0,0.0,0.0,0.0
2025/04/01 17:52:26.462205811,1743522746,459798087,mA1/imu,0.7066395014367353,0.7075733318671702,0.0006736104874238852,0.00037588368556265507,0.0,0.0,0.0,0.0,0.0,0.0,0.0,0.0,0.0,-0.0010571388465859363,0.009521131856549696,-0.0009968418801456636,0.0,0.0,0.0,0.0,0.0,0.0,0.0,0.0,0.0,0.0653489747544833,0.5789793481481196,9.808532463363184,0.0,0.0,0.0,0.0,0.0,0.0,0.0,0.0,0.0
2025/04/01 17:52:26.462393485,1743522746,459798087,mA1/imu,0.7066395014367353,0.7075733318671702,0.0006736104874238852,0.00037588368556265507,0.0,0.0,0.0,0.0,0.0,0.0,0.0,0.0,0.0,-0.0010571388465859363,0.009521131856549696,-0.0009968418801456636,0.0,0.0,0.0,0.0,0.0,0.0,0.0,0.0,0.0,0.0653489747544833,0.5789793481481196,9.808532463363184,0.0,0.0,0.0,0.0,0.0,0.0,0.0,0.0,0.0
2025/04/01 17:52:26.512893174,1743522746,511483008,mA1/imu,0.7066216940347201,0.7075910183641099,0.0008164095787387418,0.00025636954642928815,0.0,0.0,0.0,0.0,0.0,0.0,0.0,0.0,0.0,0.0005428643754873828,0.005983493810271166,-0.0009931992573962533,0.0,0.0,0.0,0.0,0.0,0.0,0.0,0.0,0.0,0.062250819456430476,0.06515166437370705,9.809909432421577,0.0,0.0,0.0,0.0,0.0,0.0,0.0,0.0,0.0
2025/04/01 17:52:26.517497869,1743522746,511483008,mA1/imu,0.7066216940347201,0.7075910183641099,0.0008164095787387418,0.00025636954642928815,0.0,0.0,0.0,0.0,0.0,0.0,0.0,0.0,0.0,0.0005428643754873828,0.005983493810271166,-0.0009931992573962533,0.0,0.0,0.0,0.0,0.0,0.0,0.0,0.0,0.0,0.062250819456430476,0.06515166437370705,9.809909432421577,0.0,0.0,0.0,0.0,0.0,0.0,0.0,0.0,0.0
2025/04/01 17:52:26.555435988,1743522746,551995071,mA1/imu,0.7066044792913405,0.7076081274017457,0.0008980793246578308,0.00020330748854804307,0.0,0.0,0.0,0.0,0.0,0.0,0.0,0.0,0.0,-0.0009850151017321753,0.0023290152940928436,-0.0009519225095463212,0.0,0.0,0.0,0.0,0.0,0.0,0.0,0.0,0.0,0.06123365185890702,-0.04263735728735991,9.809729132744689,0.0,0.0,0.0,0.0,0.0,0.0,0.0,0.0,0.0
2025/04/01 17:52:26.557408680,1743522746,551995071,mA1/imu,0.7066044792913405,0.7076081274017457,0.0008980793246578308,0.00020330748854804307,0.0,0.0,0.0,0.0,0.0,0.0,0.0,0.0,0.0,-0.0009850151017321753,0.0023290152940928436,-0.0009519225095463212,0.0,0.0,0.0,0.0,0.0,0.0,0.0,0.0,0.0,0.06123365185890702,-0.04263735728735991,9.809729132744689,0.0,0.0,0.0,0.0,0.0,0.0,0.0,0.0,0.0
2025/04/01 17:52:26.607474489,1743522746,604340493,mA1/imu,0.7065880323379482,0.7076245413032808,0.0009046617643555766,0.0002066136502611009,0.0,0.0,0.0,0.0,0.0,0.0,0.0,0.0,0.0,0.0005156148074080684,-0.001375497364777023,-0.0009229359216774151,0.0,0.0,0.0,0.0,0.0,0.0,0.0,0.0,0.0,0.05828058272128539,0.06116120202405332,9.807909568323112,0.0,0.0,0.0,0.0,0.0,0.0,0.0,0.0,0.0
2025/04/01 17:52:26.607763787,1743522746,604340493,mA1/imu,0.7065880323379482,0.7076245413032808,0.0009046617643555766,0.0002066136502611009,0.0,0.0,0.0,0.0,0.0,0.0,0.0,0.0,0.0,0.0005156148074080684,-0.001375497364777023,-0.0009229359216774151,0.0,0.0,0.0,0.0,0.0,0.0,0.0,0.0,0.0,0.05828058272128539,0.06116120202405332,9.807909568323112,0.0,0.0,0.0,0.0,0.0,0.0,0.0,0.0,0.0
2025/04/01 17:52:26.655234278,1743522746,654316706,mA1/imu,0.7065698642692447,0.7076427074946994,0.0008599945350312478,0.0002929940479833738,0.0,0.0,0.0,0.0,0.0,0.0,0.0,0.0,0.0,-0.00036098385035538165,-0.005217597248401154,-0.0010847730070974993,0.0,0.0,0.0,0.0,0.0,0.0,0.0,0.0,0.0,0.059651571883184575,-0.6363518938805928,9.809220720153297,0.0,0.0,0.0,0.0,0.0,0.0,0.0,0.0,0.0
2025/04/01 17:52:26.656504464,1743522746,654316706,mA1/imu,0.7065698642692447,0.7076427074946994,0.0008599945350312478,0.0002929940479833738,0.0,0.0,0.0,0.0,0.0,0.0,0.0,0.0,0.0,-0.00036098385035538165,-0.005217597248401154,-0.0010847730070974993,0.0,0.0,0.0,0.0,0.0,0.0,0.0,0.0,0.0,0.059651571883184575,-0.6363518938805928,9.809220720153297,0.0,0.0,0.0,0.0,0.0,0.0,0.0,0.0,0.0
2025/04/01 17:52:26.707384738,1743522746,706079811,mA1/imu,0.7065513437733298,0.7076612787279846,0.0007350183565257673,0.0004158716045879392,0.0,0.0,0.0,0.0,0.0,0.0,0.0,0.0,0.0,-0.002495558468551097,-0.008061970134674414,-0.0010438794946706713,0.0,0.0,0.0,0.0,0.0,0.0,0.0,0.0,0.0,0.03703504956604446,0.46324948144227074,9.80934002068933,0.0,0.0,0.0,0.0,0.0,0.0,0.0,0.0,0.0
2025/04/01 17:52:26.710858821,1743522746,706079811,mA1/imu,0.7065513437733298,0.7076612787279846,0.0007350183565257673,0.0004158716045879392,0.0,0.0,0.0,0.0,0.0,0.0,0.0,0.0,0.0,-0.002495558468551097,-0.008061970134674414,-0.0010438794946706713,0.0,0.0,0.0,0.0,0.0,0.0,0.0,0.0,0.0,0.03703504956604446,0.46324948144227074,9.80934002068933,0.0,0.0,0.0,0.0,0.0,0.0,0.0,0.0,0.0
2025/04/01 17:52:26.757999621,1743522746,755872927,mA1/imu,0.7065329387553384,0.707679689182298,0.0005724915567558532,0.0005798499880283981,0.0,0.0,0.0,0.0,0.0,0.0,0.0,0.0,0.0,0.0006204890033030308,-0.009905164926695501,-0.0010519618187073269,0.0,0.0,0.0,0.0,0.0,0.0,0.0,0.0,0.0,0.0304409301117222,0.05559303708877501,9.80923051716137,0.0,0.0,0.0,0.0,0.0,0.0,0.0,0.0,0.0
2025/04/01 17:52:26.758457694,1743522746,755872927,mA1/imu,0.7065329387553384,0.707679689182298,0.0005724915567558532,0.0005798499880283981,0.0,0.0,0.0,0.0,0.0,0.0,0.0,0.0,0.0,0.0006204890033030308,-0.009905164926695501,-0.0010519618187073269,0.0,0.0,0.0,0.0,0.0,0.0,0.0,0.0,0.0,0.0304409301117222,0.05559303708877501,9.80923051716137,0.0,0.0,0.0,0.0,0.0,0.0,0.0,0.0,0.0
2025/04/01 17:52:26.809329900,1743522746,807158098,mA1/imu,0.7065143160108545,0.7076981965433405,0.00040304084546208057,0.0007883140839498758,0.0,0.0,0.0,0.0,0.0,0.0,0.0,0.0,0.0,0.00026261694530062475,-0.01098032566285726,-0.001053039460508897,0.0,0.0,0.0,0.0,0.0,0.0,0.0,0.0,0.0,-0.005858544397911068,-0.6029074175757777,9.810086928510458,0.0,0.0,0.0,0.0,0.0,0.0,0.0,0.0,0.0
2025/04/01 17:52:26.810067732,1743522746,807158098,mA1/imu,0.7065143160108545,0.7076981965433405,0.00040304084546208057,0.0007883140839498758,0.0,0.0,0.0,0.0,0.0,0.0,0.0,0.0,0.0,0.00026261694530062475,-0.01098032566285726,-0.001053039460508897,0.0,0.0,0.0,0.0,0.0,0.0,0.0,0.0,0.0,-0.005858544397911068,-0.6029074175757777,9.810086928510458,0.0,0.0,0.0,0.0,0.0,0.0,0.0,0.0,0.0
2025/04/01 17:52:26.861660354,1743522746,858184904,mA1/imu,0.7064962400369805,0.7077160897754253,0.00021460111152541886,0.0009762340673299548,0.0,0.0,0.0,0.0,0.0,0.0,0.0,0.0,0.0,-7.694721292473282e-05,-0.01032271488964498,-0.0010079760234588647,0.0,0.0,0.0,0.0,0.0,0.0,0.0,0.0,0.0,-0.008778250063301714,0.0011964309109455812,9.805733739272144,0.0,0.0,0.0,0.0,0.0,0.0,0.0,0.0,0.0
2025/04/01 17:52:26.861725966,1743522746,858184904,mA1/imu,0.7064962400369805,0.7077160897754253,0.00021460111152541886,0.0009762340673299548,0.0,0.0,0.0,0.0,0.0,0.0,0.0,0.0,0.0,-7.694721292473282e-05,-0.01032271488964498,-0.0010079760234588647,0.0,0.0,0.0,0.0,0.0,0.0,0.0,0.0,0.0,-0.008778250063301714,0.0011964309109455812,9.805733739272144,0.0,0.0,0.0,0.0,0.0,0.0,0.0,0.0,0.0
2025/04/01 17:52:26.911997441,1743522746,908939633,mA1/imu,0.7064790563069759,0.707732993871184,5.714286123880601e-05,0.0011615164350000044,0.0,0.0,0.0,0.0,0.0,0.0,0.0,0.0,0.0,0.00043530509040811863,-0.009210371573049832,-0.0009474520596776232,0.0,0.0,0.0,0.0,0.0,0.0,0.0,0.0,0.0,-0.009158683386770403,-0.5958690509712469,9.807216535773419,0.0,0.0,0.0,0.0,0.0,0.0,0.0,0.0,0.0
2025/04/01 17:52:26.913852711,1743522746,908939633,mA1/imu,0.7064790563069759,0.707732993871184,5.714286123880601e-05,0.0011615164350000044,0.0,0.0,0.0,0.0,0.0,0.0,0.0,0.0,0.0,0.00043530509040811863,-0.009210371573049832,-0.0009474520596776232,0.0,0.0,0.0,0.0,0.0,0.0,0.0,0.0,0.0,-0.009158683386770403,-0.5958690509712469,9.807216535773419,0.0,0.0,0.0,0.0,0.0,0.0,0.0,0.0,0.0
2025/04/01 17:52:26.960742986,1743522746,959636041,mA1/imu,0.7064629221362885,0.7077488321205855,-8.30216874794402e-05,0.0013127779716876195,0.0,0.0,0.0,0.0,0.0,0.0,0.0,0.0,0.0,-0.002934293580190628,-0.007539576568469759,-0.0008869585627617518,0.0,0.0,0.0,0.0,0.0,0.0,0.0,0.0,0.0,-0.008287469267536329,0.42477626808118507,9.810571989467936,0.0,0.0,0.0,0.0,0.0,0.0,0.0,0.0,0.0
2025/04/01 17:52:26.960789483,1743522746,959636041,mA1/imu,0.7064629221362885,0.7077488321205855,-8.30216874794402e-05,0.0013127779716876195,0.0,0.0,0.0,0.0,0.0,0.0,0.0,0.0,0.0,-0.002934293580190628,-0.007539576568469759,-0.0008869585627617518,0.0,0.0,0.0,0.0,0.0,0.0,0.0,0.0,0.0,-0.008287469267536329,0.42477626808118507,9.810571989467936,0.0,0.0,0.0,0.0,0.0,0.0,0.0,0.0,0.0
2025/04/01 17:52:27.17224442,1743522747,12975217,mA1/imu,0.7064478043992072,0.7077637000492645,-0.0002064538491837074,0.001414895375168923,0.0,0.0,0.0,0.0,0.0,0.0,0.0,0.0,0.0,-0.00010278900897482802,-0.005509113568955463,-0.0008375656916892388,0.0,0.0,0.0,0.0,0.0,0.0,0.0,0.0,0.0,-0.011783323537054219,0.614095687680858,9.808973326447632,0.0,0.0,0.0,0.0,0.0,0.0,0.0,0.0,0.0
2025/04/01 17:52:27.17296155,1743522747,12975217,mA1/imu,0.7064478043992072,0.7077637000492645,-0.0002064538491837074,0.001414895375168923,0.0,0.0,0.0,0.0,0.0,0.0,0.0,0.0,0.0,-0.00010278900897482802,-0.005509113568955463,-0.0008375656916892388,0.0,0.0,0.0,0.0,0.0,0.0,0.0,0.0,0.0,-0.011783323537054219,0.614095687680858,9.808973326447632,0.0,0.0,0.0,0.0,0.0,0.0,0.0,0.0,0.0
2025/04/01 17:52:27.55488851,1743522747,52924572,mA1/imu,0.7064336134296831,0.7077776704811717,-0.00026824721657181777,0.0014990091253036623,0.0,0.0,0.0,0.0,0.0,0.0,0.0,0.0,0.0,0.00041164477398425014,-0.0031989273082299124,-0.0007739578781017178,0.0,0.0,0.0,0.0,0.0,0.0,0.0,0.0,0.0,-0.00991786870585273,0.012007133292796578,9.811645881359423,0.0,0.0,0.0,0.0,0.0,0.0,0.0,0.0,0.0
2025/04/01 17:52:27.55868695,1743522747,52924572,mA1/imu,0.7064336134296831,0.7077776704811717,-0.00026824721657181777,0.0014990091253036623,0.0,0.0,0.0,0.0,0.0,0.0,0.0,0.0,0.0,0.00041164477398425014,-0.0031989273082299124,-0.0007739578781017178,0.0,0.0,0.0,0.0,0.0,0.0,0.0,0.0,0.0,-0.00991786870585273,0.012007133292796578,9.811645881359423,0.0,0.0,0.0,0.0,0.0,0.0,0.0,0.0,0.0
2025/04/01 17:52:27.108372638,1743522747,105123222,mA1/imu,0.7064205659861242,0.7077906171884413,-0.0002997614971921688,0.0015285008647917177,0.0,0.0,0.0,0.0,0.0,0.0,0.0,0.0,0.0,-0.0008546176752851521,-0.0007414608726873893,-0.000712226222422665,0.0,0.0,0.0,0.0,0.0,0.0,0.0,0.0,0.0,-0.009003835066451558,0.369243419964699,9.810777370063137,0.0,0.0,0.0,0.0,0.0,0.0,0.0,0.0,0.0
2025/04/01 17:52:27.109040333,1743522747,105123222,mA1/imu,0.7064205659861242,0.7077906171884413,-0.0002997614971921688,0.0015285008647917177,0.0,0.0,0.0,0.0,0.0,0.0,0.0,0.0,0.0,-0.0008546176752851521,-0.0007414608726873893,-0.000712226222422665,0.0,0.0,0.0,0.0,0.0,0.0,0.0,0.0,0.0,-0.009003835066451558,0.369243419964699,9.810777370063137,0.0,0.0,0.0,0.0,0.0,0.0,0.0,0.0,0.0
2025/04/01 17:52:27.156478076,1743522747,155100527,mA1/imu,0.706408595937078,0.7078025957056844,-0.00028825130307058957,0.0015159187603443615,0.0,0.0,0.0,0.0,0.0,0.0,0.0,0.0,0.0,0.000977887986316784,0.0016239410345396791,-0.0006538468234832428,0.0,0.0,0.0,0.0,0.0,0.0,0.0,0.0,0.0,-0.008425608914901326,0.012914768553776306,9.810361089557496,0.0,0.0,0.0,0.0,0.0,0.0,0.0,0.0,0.0
2025/04/01 17:52:27.156515713,1743522747,155100527,mA1/imu,0.706408595937078,0.7078025957056844,-0.00028825130307058957,0.0015159187603443615,0.0,0.0,0.0,0.0,0.0,0.0,0.0,0.0,0.0,0.000977887986316784,0.0016239410345396791,-0.0006538468234832428,0.0,0.0,0.0,0.0,0.0,0.0,0.0,0.0,0.0,-0.008425608914901326,0.012914768553776306,9.810361089557496,0.0,0.0,0.0,0.0,0.0,0.0,0.0,0.0,0.0
2025/04/01 17:52:27.208617456,1743522747,206205313,mA1/imu,0.7063976210669133,0.7078136680005971,-0.00022896554008445158,0.001469665719675983,0.0,0.0,0.0,0.0,0.0,0.0,0.0,0.0,0.0,-7.181915213858756e-05,0.003800383372352009,-0.0005982477120516506,0.0,0.0,0.0,0.0,0.0,0.0,0.0,0.0,0.0,0.003746259527084364,-0.6646998822419469,9.811826524469778,0.0,0.0,0.0,0.0,0.0,0.0,0.0,0.0,0.0
2025/04/01 17:52:27.210617931,1743522747,206205313,mA1/imu,0.7063976210669133,0.7078136680005971,-0.00022896554008445158,0.001469665719675983,0.0,0.0,0.0,0.0,0.0,0.0,0.0,0.0,0.0,-7.181915213858756e-05,0.003800383372352009,-0.0005982477120516506,0.0,0.0,0.0,0.0,0.0,0.0,0.0,0.0,0.0,0.003746259527084364,-0.6646998822419469,9.811826524469778,0.0,0.0,0.0,0.0,0.0,0.0,0.0,0.0,0.0
2025/04/01 17:52:27.258121098,1743522747,256052323,mA1/imu,0.7063874361226126,0.7078240475899409,-0.00015244637826580766,0.0013727715092770256,0.0,0.0,0.0,0.0,0.0,0.0,0.0,0.0,0.0,-0.00039412093728056504,0.005629759523970995,-0.0005642110897083031,0.0,0.0,0.0,0.0,0.0,0.0,0.0,0.0,0.0,0.0005508698633306039,-0.058683277577098944,9.808352591352508,0.0,0.0,0.0,0.0,0.0,0.0,0.0,0.0,0.0
2025/04/01 17:52:27.259416676,1743522747,256052323,mA1/imu,0.7063874361226126,0.7078240475899409,-0.00015244637826580766,0.0013727715092770256,0.0,0.0,0.0,0.0,0.0,0.0,0.0,0.0,0.0,-0.00039412093728056504,0.005629759523970995,-0.0005642110897083031,0.0,0.0,0.0,0.0,0.0,0.0,0.0,0.0,0.0,0.0005508698633306039,-0.058683277577098944,9.808352591352508,0.0,0.0,0.0,0.0,0.0,0.0,0.0,0.0,0.0
2025/04/01 17:52:27.313609229,1743522747,310194357,mA1/imu,0.7063778685324726,0.7078338191643743,-3.6392867740918074e-05,0.0012609402269347795,0.0,0.0,0.0,0.0,0.0,0.0,0.0,0.0,0.0,6.6297282286113966e-06,0.006939831390147223,-0.0005398610655571049,0.0,0.0,0.0,0.0,0.0,0.0,0.0,0.0,0.0,0.005767367946052,-0.03975891195093348,9.810370984526832,0.0,0.0,0.0,0.0,0.0,0.0,0.0,0.0,0.0
2025/04/01 17:52:27.313707610,1743522747,310194357,mA1/imu,0.7063778685324726,0.7078338191643743,-3.6392867740918074e-05,0.0012609402269347795,0.0,0.0,0.0,0.0,0.0,0.0,0.0,0.0,0.0,6.6297282286113966e-06,0.006939831390147223,-0.0005398610655571049,0.0,0.0,0.0,0.0,0.0,0.0,0.0,0.0,0.0,0.005767367946052,-0.03975891195093348,9.810370984526832,0.0,0.0,0.0,0.0,0.0,0.0,0.0,0.0,0.0
2025/04/01 17:52:27.361994066,1743522747,360221944,mA1/imu,0.7063681598256173,0.7078437386976737,8.976424859365422e-05,0.0011208538933926424,0.0,0.0,0.0,0.0,0.0,0.0,0.0,0.0,0.0,-0.001766272470573952,0.007866150210052845,-0.0005554697478318806,0.0,0.0,0.0,0.0,0.0,0.0,0.0,0.0,0.0,0.007873305148514878,0.46586170334535293,9.812488487478305,0.0,0.0,0.0,0.0,0.0,0.0,0.0,0.0,0.0
2025/04/01 17:52:27.362051108,1743522747,360221944,mA1/imu,0.7063681598256173,0.7078437386976737,8.976424859365422e-05,0.0011208538933926424,0.0,0.0,0.0,0.0,0.0,0.0,0.0,0.0,0.0,-0.001766272470573952,0.007866150210052845,-0.0005554697478318806,0.0,0.0,0.0,0.0,0.0,0.0,0.0,0.0,0.0,0.007873305148514878,0.46586170334535293,9.812488487478305,0.0,0.0,0.0,0.0,0.0,0.0,0.0,0.0,0.0
2025/04/01 17:52:27.412216131,1743522747,411554260,mA1/imu,0.7063583530088232,0.7078537335512076,0.0002179035779175604,0.0009599741191342268,0.0,0.0,0.0,0.0,0.0,0.0,0.0,0.0,0.0,0.0007335226209139293,0.008473504442274897,-0.000528096680412324,0.0,0.0,0.0,0.0,0.0,0.0,0.0,0.0,0.0,-0.0012966966697272458,0.6448716048523008,9.80874385505354,0.0,0.0,0.0,0.0,0.0,0.0,0.0,0.0,0.0
2025/04/01 17:52:27.412893084,1743522747,411554260,mA1/imu,0.7063583530088232,0.7078537335512076,0.0002179035779175604,0.0009599741191342268,0.0,0.0,0.0,0.0,0.0,0.0,0.0,0.0,0.0,0.0007335226209139293,0.008473504442274897,-0.000528096680412324,0.0,0.0,0.0,0.0,0.0,0.0,0.0,0.0,0.0,-0.0012966966697272458,0.6448716048523008,9.80874385505354,0.0,0.0,0.0,0.0,0.0,0.0,0.0,0.0,0.0
2025/04/01 17:52:27.453507125,1743522747,451656716,mA1/imu,0.7063499870949077,0.7078622037294188,0.0003771140671881564,0.0008087319300355056,0.0,0.0,0.0,0.0,0.0,0.0,0.0,0.0,0.0,0.0002991018930482357,0.00893730454300133,-0.00044282677062646916,0.0,0.0,0.0,0.0,0.0,0.0,0.0,0.0,0.0,-0.00815619626577416,-0.029384048067196782,9.812837620996682,0.0,0.0,0.0,0.0,0.0,0.0,0.0,0.0,0.0
2025/04/01 17:52:27.454344350,1743522747,451656716,mA1/imu,0.7063499870949077,0.7078622037294188,0.0003771140671881564,0.0008087319300355056,0.0,0.0,0.0,0.0,0.0,0.0,0.0,0.0,0.0,0.0002991018930482357,0.00893730454300133,-0.00044282677062646916,0.0,0.0,0.0,0.0,0.0,0.0,0.0,0.0,0.0,-0.00815619626577416,-0.029384048067196782,9.812837620996682,0.0,0.0,0.0,0.0,0.0,0.0,0.0,0.0,0.0
2025/04/01 17:52:27.507632902,1743522747,505317524,mA1/imu,0.7063425974271383,0.7078696618313954,0.0005220064860865933,0.0006359463955522639,0.0,0.0,0.0,0.0,0.0,0.0,0.0,0.0,0.0,-0.0008195635985524446,0.008818516659932723,-0.0003943048714532991,0.0,0.0,0.0,0.0,0.0,0.0,0.0,0.0,0.0,0.023869129847901484,0.5218768648820236,9.81179597674794,0.0,0.0,0.0,0.0,0.0,0.0,0.0,0.0,0.0
2025/04/01 17:52:27.507714759,1743522747,505317524,mA1/imu,0.7063425974271383,0.7078696618313954,0.0005220064860865933,0.0006359463955522639,0.0,0.0,0.0,0.0,0.0,0.0,0.0,0.0,0.0,-0.0008195635985524446,0.008818516659932723,-0.0003943048714532991,0.0,0.0,0.0,0.0,0.0,0.0,0.0,0.0,0.0,0.023869129847901484,0.5218768648820236,9.81179597674794,0.0,0.0,0.0,0.0,0.0,0.0,0.0,0.0,0.0
2025/04/01 17:52:27.557117607,1743522747,555455049,mA1/imu,0.7063359125663843,0.7078763470747401,0.0006505563015208413,0.00048233560273296816,0.0,0.0,0.0,0.0,0.0,0.0,0.0,0.0,0.0,0.002378260859228577,0.007366801408574592,-0.00035638678982667155,0.0,0.0,0.0,0.0,0.0,0.0,0.0,0.0,0.0,0.023497620400633547,-0.5165196404131359,9.810179407892816,0.0,0.0,0.0,0.0,0.0,0.0,0.0,0.0,0.0
2025/04/01 17:52:27.557619646,1743522747,555455049,mA1/imu,0.7063359125663843,0.7078763470747401,0.0006505563015208413,0.00048233560273296816,0.0,0.0,0.0,0.0,0.0,0.0,0.0,0.0,0.0,0.002378260859228577,0.007366801408574592,-0.00035638678982667155,0.0,0.0,0.0,0.0,0.0,0.0,0.0,0.0,0.0,0.023497620400633547,-0.5165196404131359,9.810179407892816,0.0,0.0,0.0,0.0,0.0,0.0,0.0,0.0,0.0
2025/04/01 17:52:27.609017297,1743522747,606957702,mA1/imu,0.7063298961624388,0.7078823098138962,0.0007597983124761539,0.0003687088627617462,0.0,0.0,0.0,0.0,0.0,0.0,0.0,0.0,0.0,0.00036011168405409075,0.005528465099324157,-0.000319215374412915,0.0,0.0,0.0,0.0,0.0,0.0,0.0,0.0,0.0,0.02629171023016364,-0.34076415426624546,9.81265536092417,0.0,0.0,0.0,0.0,0.0,0.0,0.0,0.0,0.0
2025/04/01 17:52:27.612878850,1743522747,606957702,mA1/imu,0.7063298961624388,0.7078823098138962,0.0007597983124761539,0.0003687088627617462,0.0,0.0,0.0,0.0,0.0,0.0,0.0,0.0,0.0,0.00036011168405409075,0.005528465099324157,-0.000319215374412915,0.0,0.0,0.0,0.0,0.0,0.0,0.0,0.0,0.0,0.02629171023016364,-0.34076415426624546,9.81265536092417,0.0,0.0,0.0,0.0,0.0,0.0,0.0,0.0,0.0
2025/04/01 17:52:27.658126212,1743522747,656769093,mA1/imu,0.706324556434359,0.7078876171163935,0.000816642807358467,0.0002749647348273039,0.0,0.0,0.0,0.0,0.0,0.0,0.0,0.0,0.0,-7.030559336462906e-05,0.00340174653671763,-0.0002826834481641121,0.0,0.0,0.0,0.0,0.0,0.0,0.0,0.0,0.0,0.025523314294447597,0.5720705870035616,9.808921724134278,0.0,0.0,0.0,0.0,0.0,0.0,0.0,0.0,0.0
2025/04/01 17:52:27.658171566,1743522747,656769093,mA1/imu,0.706324556434359,0.7078876171163935,0.000816642807358467,0.0002749647348273039,0.0,0.0,0.0,0.0,0.0,0.0,0.0,0.0,0.0,-7.030559336462906e-05,0.00340174653671763,-0.0002826834481641121,0.0,0.0,0.0,0.0,0.0,0.0,0.0,0.0,0.0,0.025523314294447597,0.5720705870035616,9.808921724134278,0.0,0.0,0.0,0.0,0.0,0.0,0.0,0.0,0.0
2025/04/01 17:52:27.709156396,1743522747,707679954,mA1/imu,0.7063198862745311,0.7078922530060257,0.0008487975752952469,0.00023649495266431903,0.0,0.0,0.0,0.0,0.0,0.0,0.0,0.0,0.0,0.0010768451611546227,0.0010337320390029054,-0.0002476601799148423,0.0,0.0,0.0,0.0,0.0,0.0,0.0,0.0,0.0,0.029142832105665303,0.027327698082046367,9.809814634644033,0.0,0.0,0.0,0.0,0.0,0.0,0.0,0.0,0.0
2025/04/01 17:52:27.709536166,1743522747,707679954,mA1/imu,0.7063198862745311,0.7078922530060257,0.0008487975752952469,0.00023649495266431903,0.0,0.0,0.0,0.0,0.0,0.0,0.0,0.0,0.0,0.0010768451611546227,0.0010337320390029054,-0.0002476601799148423,0.0,0.0,0.0,0.0,0.0,0.0,0.0,0.0,0.0,0.029142832105665303,0.027327698082046367,9.809814634644033,0.0,0.0,0.0,0.0,0.0,0.0,0.0,0.0,0.0
2025/04/01 17:52:27.759036191,1743522747,757444002,mA1/imu,0.7063158839155317,0.7078962658440525,0.0008328194607021041,0.00023525393434311562,0.0,0.0,0.0,0.0,0.0,0.0,0.0,0.0,0.0,-0.001137587732063057,-0.0013824654903733464,-0.00021300397940563243,0.0,0.0,0.0,0.0,0.0,0.0,0.0,0.0,0.0,0.02871894253914933,0.5034635728732044,9.811025456103467,0.0,0.0,0.0,0.0,0.0,0.0,0.0,0.0,0.0
2025/04/01 17:52:27.761903096,1743522747,757444002,mA1/imu,0.7063158839155317,0.7078962658440525,0.0008328194607021041,0.00023525393434311562,0.0,0.0,0.0,0.0,0.0,0.0,0.0,0.0,0.0,-0.001137587732063057,-0.0013824654903733464,-0.00021300397940563243,0.0,0.0,0.0,0.0,0.0,0.0,0.0,0.0,0.0,0.02871894253914933,0.5034635728732044,9.811025456103467,0.0,0.0,0.0,0.0,0.0,0.0,0.0,0.0,0.0
2025/04/01 17:52:27.811701927,1743522747,809152315,mA1/imu,0.7063124736723343,0.707899728448653,0.0007687845203655957,0.0002701250684428765,0.0,0.0,0.0,0.0,0.0,0.0,0.0,0.0,0.0,0.00017886488770588117,-0.0036743967820579066,-0.00018733262295959918,0.0,0.0,0.0,0.0,0.0,0.0,0.0,0.0,0.0,0.0252455154147891,0.6006451730090935,9.808849757476304,0.0,0.0,0.0,0.0,0.0,0.0,0.0,0.0,0.0
2025/04/01 17:52:27.812342272,1743522747,809152315,mA1/imu,0.7063124736723343,0.707899728448653,0.0007687845203655957,0.0002701250684428765,0.0,0.0,0.0,0.0,0.0,0.0,0.0,0.0,0.0,0.00017886488770588117,-0.0036743967820579066,-0.00018733262295959918,0.0,0.0,0.0,0.0,0.0,0.0,0.0,0.0,0.0,0.0252455154147891,0.6006451730090935,9.808849757476304,0.0,0.0,0.0,0.0,0.0,0.0,0.0,0.0,0.0
2025/04/01 17:52:27.861692145,1743522747,859234952,mA1/imu,0.7063096040455539,0.7079026343365535,0.0006871806792128425,0.00036237424686129464,0.0,0.0,0.0,0.0,0.0,0.0,0.0,0.0,0.0,0.0006330531455921565,-0.00572891245825176,-0.00015381655773624803,0.0,0.0,0.0,0.0,0.0,0.0,0.0,0.0,0.0,0.024976156901531727,-0.6222002588977634,9.809620098060524,0.0,0.0,0.0,0.0,0.0,0.0,0.0,0.0,0.0
2025/04/01 17:52:27.861839858,1743522747,859234952,mA1/imu,0.7063096040455539,0.7079026343365535,0.0006871806792128425,0.00036237424686129464,0.0,0.0,0.0,0.0,0.0,0.0,0.0,0.0,0.0,0.0006330531455921565,-0.00572891245825176,-0.00015381655773624803,0.0,0.0,0.0,0.0,0.0,0.0,0.0,0.0,0.0,0.024976156901531727,-0.6222002588977634,9.809620098060524,0.0,0.0,0.0,0.0,0.0,0.0,0.0,0.0,0.0
2025/04/01 17:52:27.913791318,1743522747,910680782,mA1/imu,0.7063072394199899,0.7079050482200508,0.0005547196232501356,0.0004674757962271982,0.0,0.0,0.0,0.0,0.0,0.0,0.0,0.0,0.0,4.3118052932932136e-05,-0.007315109347954014,-0.00014217643434152958,0.0,0.0,0.0,0.0,0.0,0.0,0.0,0.0,0.0,0.021355019272049948,-0.028550681345933658,9.808760469856471,0.0,0.0,0.0,0.0,0.0,0.0,0.0,0.0,0.0
2025/04/01 17:52:27.915314703,1743522747,910680782,mA1/imu,0.7063072394199899,0.7079050482200508,0.0005547196232501356,0.0004674757962271982,0.0,0.0,0.0,0.0,0.0,0.0,0.0,0.0,0.0,4.3118052932932136e-05,-0.007315109347954014,-0.00014217643434152958,0.0,0.0,0.0,0.0,0.0,0.0,0.0,0.0,0.0,0.021355019272049948,-0.028550681345933658,9.808760469856471,0.0,0.0,0.0,0.0,0.0,0.0,0.0,0.0,0.0
2025/04/01 17:52:27.962954361,1743522747,959716183,mA1/imu,0.7063044875006251,0.7079077910660262,0.0004058590913265589,0.0006046179758643996,0.0,0.0,0.0,0.0,0.0,0.0,0.0,0.0,0.0,0.0016447785471188968,-0.008525630316607202,-0.0001739530508722056,0.0,0.0,0.0,0.0,0.0,0.0,0.0,0.0,0.0,0.0193516188402914,0.09213119036882374,9.809436620735486,0.0,0.0,0.0,0.0,0.0,0.0,0.0,0.0,0.0
2025/04/01 17:52:27.963076091,1743522747,959716183,mA1/imu,0.7063044875006251,0.7079077910660262,0.0004058590913265589,0.0006046179758643996,0.0,0.0,0.0,0.0,0.0,0.0,0.0,0.0,0.0,0.0016447785471188968,-0.008525630316607202,-0.0001739530508722056,0.0,0.0,0.0,0.0,0.0,0.0,0.0,0.0,0.0,0.0193516188402914,0.09213119036882374,9.809436620735486,0.0,0.0,0.0,0.0,0.0,0.0,0.0,0.0,0.0
2025/04/01 17:52:28.13618612,1743522748,10819496,mA1/imu,0.7063011572904803,0.7079110144760099,0.0002615815662250207,0.000776124190501211,0.0,0.0,0.0,0.0,0.0,0.0,0.0,0.0,0.0,0.0004507030716192376,-0.009179820521047898,-0.00020386297640471977,0.0,0.0,0.0,0.0,0.0,0.0,0.0,0.0,0.0,0.019369542136771674,-0.6087193707242422,9.80972632322304,0.0,0.0,0.0,0.0,0.0,0.0,0.0,0.0,0.0
