time,header_stamp_secs,header_stamp_nsecs,header_frame_id,status_status,status_service,latitude,longitude,altitude,position_covariance_0,position_covariance_1,position_covariance_2,position_covariance_3,position_covariance_4,position_covariance_5,position_covariance_6,position_covariance_7,position_covariance_8,position_covariance_type
2025/04/11 12:08:16.122842049,1744366096,122541294,hemisphere,2,1,63.441190941,10.4199136355,43.838,0.000144,0.0,0.0,0.0,0.000144,0.0,0.0,0.0,0.002304,1
2025/04/11 12:08:16.174197015,1744366096,171641703,hemisphere,2,1,63.441190938666665,10.419913672666667,43.844,0.000144,0.0,0.0,0.0,0.000144,0.0,0.0,0.0,0.002304,1
2025/04/11 12:08:16.268784310,1744366096,221470605,hemisphere,2,1,63.441190917,10.419913666166666,43.842,0.000144,0.0,0.0,0.0,0.000144,0.0,0.0,0.0,0.002304,1
2025/04/11 12:08:16.282615622,1744366096,271713140,hemisphere,2,1,63.44119092016667,10.419913680833334,43.843,0.000144,0.0,0.0,0.0,0.000144,0.0,0.0,0.0,0.002304,1
2025/04/11 12:08:16.322117070,1744366096,320718686,hemisphere,2,1,63.44119091566667,10.419913676833334,43.841,0.000144,0.0,0.0,0.0,0.000144,0.0,0.0,0.0,0.002304,1
2025/04/11 12:08:16.375167574,1744366096,373954213,hemisphere,2,1,63.441190907333336,10.419913684333334,43.842,0.000144,0.0,0.0,0.0,0.000144,0.0,0.0,0.0,0.002304,1
2025/04/11 12:08:16.422407905,1744366096,421472469,hemisphere,2,1,63.441190891666665,10.419913726666667,43.837,0.000144,0.0,0.0,0.0,0.000144,0.0,0.0,0.0,0.002304,1
2025/04/11 12:08:16.476832369,1744366096,470332943,hemisphere,2,1,63.441190877333334,10.419913723833334,43.834,0.000144,0.0,0.0,0.0,0.000144,0.0,0.0,0.0,0.002304,1
2025/04/11 12:08:16.525987853,1744366096,522599088,hemisphere,2,1,63.441190889666665,10.4199137265,43.836,0.000144,0.0,0.0,0.0,0.000144,0.0,0.0,0.0,0.002304,1
2025/04/11 12:08:16.580189597,1744366096,571274910,hemisphere,2,1,63.44119086683333,10.419913751333333,43.836,0.000144,0.0,0.0,0.0,0.000144,0.0,0.0,0.0,0.002304,1
2025/04/11 12:08:16.629025392,1744366096,621062192,hemisphere,2,1,63.441190859,10.419913779333333,43.838,0.000144,0.0,0.0,0.0,0.000144,0.0,0.0,0.0,0.002304,1
2025/04/11 12:08:16.679456210,1744366096,671911546,hemisphere,2,1,63.4411908575,10.419913801666667,43.837,0.000144,0.0,0.0,0.0,0.000144,0.0,0.0,0.0,0.002304,1
2025/04/11 12:08:16.722085612,1744366096,721737028,hemisphere,2,1,63.44119084,10.419913821333333,43.838,0.000144,0.0,0.0,0.0,0.000144,0.0,0.0,0.0,0.002304,1
2025/04/11 12:08:16.783266947,1744366096,781364893,hemisphere,2,1,63.44119082733334,10.419913814333333,43.838,0.000144,0.0,0.0,0.0,0.000144,0.0,0.0,0.0,0.002304,1
2025/04/11 12:08:16.890225973,1744366096,821868136,hemisphere,2,1,63.44119083016667,10.419913814333333,43.838,0.000144,0.0,0.0,0.0,0.000144,0.0,0.0,0.0,0.002304,1
2025/04/11 12:08:16.922018345,1744366096,921670600,hemisphere,2,1,63.441190816,10.419913847666667,43.839,0.000144,0.0,0.0,0.0,0.000144,0.0,0.0,0.0,0.002304,1
2025/04/11 12:08:16.971619876,1744366096,970735123,hemisphere,2,1,63.441190799333334,10.419913858833333,43.839,0.000144,0.0,0.0,0.0,0.000144,0.0,0.0,0.0,0.002304,1
2025/04/11 12:08:17.28928696,1744366097,28040284,hemisphere,2,1,63.441190789833335,10.419913871666667,43.837,0.000144,0.0,0.0,0.0,0.000144,0.0,0.0,0.0,0.002304,1
2025/04/11 12:08:17.97261175,1744366097,71182903,hemisphere,2,1,63.44119078366667,10.4199138885,43.835,0.000144,0.0,0.0,0.0,0.000144,0.0,0.0,0.0,0.002304,1
2025/04/11 12:08:17.129607673,1744366097,122287801,hemisphere,2,1,63.44119076966667,10.419913889833333,43.838,0.000144,0.0,0.0,0.0,0.000144,0.0,0.0,0.0,0.002304,1
2025/04/11 12:08:17.172742211,1744366097,171421374,hemisphere,2,1,63.44119077116667,10.419913903333333,43.839,0.000144,0.0,0.0,0.0,0.000144,0.0,0.0,0.0,0.002304,1
2025/04/11 12:08:17.224012982,1744366097,222382767,hemisphere,2,1,63.4411907545,10.419913936,43.838,0.000144,0.0,0.0,0.0,0.000144,0.0,0.0,0.0,0.002304,1
2025/04/11 12:08:17.299914038,1744366097,270762839,hemisphere,2,1,63.44119074966667,10.419913905333333,43.837,0.000144,0.0,0.0,0.0,0.000144,0.0,0.0,0.0,0.002304,1
2025/04/11 12:08:17.325985730,1744366097,321899233,hemisphere,2,1,63.441190733,10.419913921833333,43.836,0.000144,0.0,0.0,0.0,0.000144,0.0,0.0,0.0,0.002304,1
2025/04/11 12:08:17.383512564,1744366097,374706146,hemisphere,2,1,63.441190722,10.419913945,43.841,0.000144,0.0,0.0,0.0,0.000144,0.0,0.0,0.0,0.002304,1
2025/04/11 12:08:17.422175353,1744366097,421388785,hemisphere,2,1,63.441190725333335,10.419913909333333,43.839,0.000144,0.0,0.0,0.0,0.000144,0.0,0.0,0.0,0.002304,1
2025/04/11 12:08:17.472592058,1744366097,471680643,hemisphere,2,1,63.4411907205,10.4199139365,43.835,0.000144,0.0,0.0,0.0,0.000144,0.0,0.0,0.0,0.002304,1
2025/04/11 12:08:17.528090853,1744366097,521362833,hemisphere,2,1,63.44119071266667,10.419913931166667,43.84,0.000144,0.0,0.0,0.0,0.000144,0.0,0.0,0.0,0.002304,1
2025/04/11 12:08:17.614132691,1744366097,575230823,hemisphere,2,1,63.44119070166666,10.4199139395,43.841,0.000144,0.0,0.0,0.0,0.000144,0.0,0.0,0.0,0.002304,1
2025/04/11 12:08:17.653810482,1744366097,621695782,hemisphere,2,1,63.44119068116667,10.419913955166667,43.838,0.000144,0.0,0.0,0.0,0.000144,0.0,0.0,0.0,0.002304,1
2025/04/11 12:08:17.683042462,1744366097,671168379,hemisphere,2,1,63.4411906835,10.4199139785,43.84,0.000144,0.0,0.0,0.0,0.000144,0.0,0.0,0.0,0.002304,1
2025/04/11 12:08:17.741292050,1744366097,721634764,hemisphere,2,1,63.44119067766667,10.419913974166667,43.84,0.000144,0.0,0.0,0.0,0.000144,0.0,0.0,0.0,0.002304,1
2025/04/11 12:08:17.845431800,1744366097,777789238,hemisphere,2,1,63.44119065833333,10.419913977166667,43.835,0.000144,0.0,0.0,0.0,0.000144,0.0,0.0,0.0,0.002304,1
2025/04/11 12:08:17.876121155,1744366097,828420252,hemisphere,2,1,63.441190651666666,10.419913980333334,43.841,0.000144,0.0,0.0,0.0,0.000144,0.0,0.0,0.0,0.002304,1
2025/04/11 12:08:17.905519848,1744366097,874087008,hemisphere,2,1,63.441190654,10.419913977,43.837,0.000144,0.0,0.0,0.0,0.000144,0.0,0.0,0.0,0.002304,1
2025/04/11 12:08:17.938890497,1744366097,921143242,hemisphere,2,1,63.441190636,10.419913990833333,43.838,0.000144,0.0,0.0,0.0,0.000144,0.0,0.0,0.0,0.002304,1
2025/04/11 12:08:17.980759115,1744366097,970862951,hemisphere,2,1,63.441190623833336,10.419913986,43.842,0.000144,0.0,0.0,0.0,0.000144,0.0,0.0,0.0,0.002304,1
2025/04/11 12:08:18.43852157,1744366098,21278826,hemisphere,2,1,63.441190613833335,10.419913973833333,43.839,0.000144,0.0,0.0,0.0,0.000144,0.0,0.0,0.0,0.002304,1
2025/04/11 12:08:18.106740533,1744366098,71384456,hemisphere,2,1,63.441190614,10.419913993333333,43.842,0.000144,0.0,0.0,0.0,0.000144,0.0,0.0,0.0,0.002304,1
2025/04/11 12:08:18.173307007,1744366098,121966970,hemisphere,2,1,63.4411905965,10.419913984,43.841,0.000144,0.0,0.0,0.0,0.000144,0.0,0.0,0.0,0.002304,1
2025/04/11 12:08:18.179463025,1744366098,171066923,hemisphere,2,1,63.44119058983333,10.419913989333333,43.84,0.000144,0.0,0.0,0.0,0.000144,0.0,0.0,0.0,0.002304,1
2025/04/11 12:08:18.227521987,1744366098,221013684,hemisphere,2,1,63.441190576333334,10.419914017333333,43.84,0.000144,0.0,0.0,0.0,0.000144,0.0,0.0,0.0,0.002304,1
2025/04/11 12:08:18.273433490,1744366098,271379027,hemisphere,2,1,63.441190582333334,10.4199139815,43.841,0.000144,0.0,0.0,0.0,0.000144,0.0,0.0,0.0,0.002304,1
2025/04/11 12:08:18.328040822,1744366098,320926746,hemisphere,2,1,63.44119056383333,10.419913994,43.842,0.000144,0.0,0.0,0.0,0.000144,0.0,0.0,0.0,0.002304,1
2025/04/11 12:08:18.434202163,1744366098,375219220,hemisphere,2,1,63.44119054716667,10.419913997333333,43.838,0.000144,0.0,0.0,0.0,0.000144,0.0,0.0,0.0,0.002304,1
2025/04/11 12:08:18.544794513,1744366098,421767701,hemisphere,2,1,63.44119056233333,10.41991395,43.838,0.000144,0.0,0.0,0.0,0.000144,0.0,0.0,0.0,0.002304,1
2025/04/11 12:08:18.596236841,1744366098,522245825,hemisphere,2,1,63.441190545666664,10.419913961666667,43.838,0.000144,0.0,0.0,0.0,0.000144,0.0,0.0,0.0,0.002304,1
2025/04/11 12:08:18.621289964,1744366098,573053832,hemisphere,2,1,63.44119053716667,10.419913963,43.842,0.000144,0.0,0.0,0.0,0.000144,0.0,0.0,0.0,0.002304,1
2025/04/11 12:08:18.775394756,1744366098,621300802,hemisphere,2,1,63.441190522666666,10.419914023166667,43.844,0.000144,0.0,0.0,0.0,0.000144,0.0,0.0,0.0,0.002304,1
2025/04/11 12:08:18.885485989,1744366098,695169575,hemisphere,2,1,63.441190504333335,10.419914022333334,43.843,0.000144,0.0,0.0,0.0,0.000144,0.0,0.0,0.0,0.002304,1
2025/04/11 12:08:18.909457070,1744366098,768508016,hemisphere,2,1,63.44119051733333,10.419914007833333,43.845,0.000144,0.0,0.0,0.0,0.000144,0.0,0.0,0.0,0.002304,1
2025/04/11 12:08:18.916169128,1744366098,793501340,hemisphere,2,1,63.44119048983333,10.4199140345,43.842,0.000144,0.0,0.0,0.0,0.000144,0.0,0.0,0.0,0.002304,1
2025/04/11 12:08:18.948370232,1744366098,874393779,hemisphere,2,1,63.441190481166664,10.419914031333333,43.844,0.000144,0.0,0.0,0.0,0.000144,0.0,0.0,0.0,0.002304,1
2025/04/11 12:08:19.6441272,1744366098,933779934,hemisphere,2,1,63.441190484833335,10.4199140415,43.842,0.000144,0.0,0.0,0.0,0.000144,0.0,0.0,0.0,0.002304,1
2025/04/11 12:08:19.137424718,1744366099,76892546,hemisphere,2,1,63.441190458,10.419914038,43.845,0.000144,0.0,0.0,0.0,0.000144,0.0,0.0,0.0,0.002304,1
2025/04/11 12:08:19.163062372,1744366099,123026117,hemisphere,2,1,63.441190432333336,10.419914034166666,43.841,0.000144,0.0,0.0,0.0,0.000144,0.0,0.0,0.0,0.002304,1
2025/04/11 12:08:19.196721415,1744366099,173889004,hemisphere,2,1,63.441190427833334,10.419914032166666,43.846000000000004,0.000144,0.0,0.0,0.0,0.000144,0.0,0.0,0.0,0.002304,1
2025/04/11 12:08:19.234524376,1744366099,222085606,hemisphere,2,1,63.441190434666666,10.419914035,43.845,0.000144,0.0,0.0,0.0,0.000144,0.0,0.0,0.0,0.002304,1
2025/04/11 12:08:19.291390807,1744366099,270970237,hemisphere,2,1,63.4411904195,10.419914036666666,43.842,0.000144,0.0,0.0,0.0,0.000144,0.0,0.0,0.0,0.002304,1
2025/04/11 12:08:19.326082772,1744366099,322120606,hemisphere,2,1,63.4411904085,10.419914034666666,43.847,0.000144,0.0,0.0,0.0,0.000144,0.0,0.0,0.0,0.002304,1
2025/04/11 12:08:19.374936183,1744366099,374529791,hemisphere,2,1,63.44119040933333,10.419914010333333,43.845,0.000144,0.0,0.0,0.0,0.000144,0.0,0.0,0.0,0.002304,1
2025/04/11 12:08:19.466190457,1744366099,421488474,hemisphere,2,1,63.4411903825,10.419914047833334,43.845,0.000144,0.0,0.0,0.0,0.000144,0.0,0.0,0.0,0.002304,1
2025/04/11 12:08:19.479790334,1744366099,472338819,hemisphere,2,1,63.44119039616667,10.419914040833334,43.844,0.000144,0.0,0.0,0.0,0.000144,0.0,0.0,0.0,0.002304,1
2025/04/11 12:08:19.524709777,1744366099,521604144,hemisphere,2,1,63.44119036633333,10.419914045833334,43.844,0.000144,0.0,0.0,0.0,0.000144,0.0,0.0,0.0,0.002304,1
2025/04/11 12:08:19.629265301,1744366099,570991478,hemisphere,2,1,63.44119037816667,10.419914028166666,43.844,0.000144,0.0,0.0,0.0,0.000144,0.0,0.0,0.0,0.002304,1
2025/04/11 12:08:19.663642543,1744366099,622221345,hemisphere,2,1,63.441190373,10.419914004,43.843,0.000144,0.0,0.0,0.0,0.000144,0.0,0.0,0.0,0.002304,1
2025/04/11 12:08:19.688250746,1744366099,672951823,hemisphere,2,1,63.441190371666664,10.419914023833334,43.846000000000004,0.000144,0.0,0.0,0.0,0.000144,0.0,0.0,0.0,0.002304,1
2025/04/11 12:08:19.726692533,1744366099,720887376,hemisphere,2,1,63.44119035916667,10.419913993,43.843,0.000144,0.0,0.0,0.0,0.000144,0.0,0.0,0.0,0.002304,1
2025/04/11 12:08:19.772479637,1744366099,771606105,hemisphere,2,1,63.44119035883333,10.41991401,43.842,0.000144,0.0,0.0,0.0,0.000144,0.0,0.0,0.0,0.002304,1
2025/04/11 12:08:19.830939291,1744366099,820582200,hemisphere,2,1,63.44119035733333,10.419913984666668,43.846000000000004,0.000144,0.0,0.0,0.0,0.000144,0.0,0.0,0.0,0.002304,1
2025/04/11 12:08:19.871445253,1744366099,870942141,hemisphere,2,1,63.441190351833335,10.419913984833332,43.844,0.000144,0.0,0.0,0.0,0.000144,0.0,0.0,0.0,0.002304,1
2025/04/11 12:08:19.922108864,1744366099,921738354,hemisphere,2,1,63.441190347833334,10.419913969,43.845,0.000144,0.0,0.0,0.0,0.000144,0.0,0.0,0.0,0.002304,1
2025/04/11 12:08:19.974895102,1744366099,973607941,hemisphere,2,1,63.4411903415,10.419913952166667,43.842,0.000144,0.0,0.0,0.0,0.000144,0.0,0.0,0.0,0.002304,1
2025/04/11 12:08:20.25789271,1744366100,23324819,hemisphere,2,1,63.4411903165,10.419913938166667,43.846000000000004,0.000144,0.0,0.0,0.0,0.000144,0.0,0.0,0.0,0.002304,1
2025/04/11 12:08:20.74930215,1744366100,73039865,hemisphere,2,1,63.441190338666665,10.419913935,43.844,0.000144,0.0,0.0,0.0,0.000144,0.0,0.0,0.0,0.002304,1
2025/04/11 12:08:20.124939820,1744366100,124449821,hemisphere,2,1,63.44119032616667,10.419913913,43.845,0.000144,0.0,0.0,0.0,0.000144,0.0,0.0,0.0,0.002304,1
2025/04/11 12:08:20.193036790,1744366100,171546296,hemisphere,2,1,63.44119031333334,10.419913905833333,43.845,0.000144,0.0,0.0,0.0,0.000144,0.0,0.0,0.0,0.002304,1
2025/04/11 12:08:20.282722377,1744366100,271491971,hemisphere,2,1,63.4411903215,10.419913880333333,43.843,0.000144,0.0,0.0,0.0,0.000144,0.0,0.0,0.0,0.002304,1
2025/04/11 12:08:20.323704197,1744366100,320407785,hemisphere,2,1,63.441190312833335,10.419913864333333,43.848,0.000144,0.0,0.0,0.0,0.000144,0.0,0.0,0.0,0.002304,1
2025/04/11 12:08:20.375690643,1744366100,374405407,hemisphere,2,1,63.4411903015,10.419913823833333,43.845,0.000144,0.0,0.0,0.0,0.000144,0.0,0.0,0.0,0.002304,1
2025/04/11 12:08:20.423032721,1744366100,422160077,hemisphere,2,1,63.441190328333334,10.419913809666667,43.849000000000004,0.000144,0.0,0.0,0.0,0.000144,0.0,0.0,0.0,0.002304,1
2025/04/11 12:08:20.474496949,1744366100,471868914,hemisphere,2,1,63.441190313999996,10.419913790333334,43.846000000000004,0.000144,0.0,0.0,0.0,0.000144,0.0,0.0,0.0,0.002304,1
2025/04/11 12:08:20.528419778,1744366100,528085003,hemisphere,2,1,63.4411903085,10.419913787833334,43.85,0.000144,0.0,0.0,0.0,0.000144,0.0,0.0,0.0,0.002304,1
2025/04/11 12:08:20.572145230,1744366100,571456657,hemisphere,2,1,63.44119030466667,10.419913729833333,43.848,0.000144,0.0,0.0,0.0,0.000144,0.0,0.0,0.0,0.002304,1
2025/04/11 12:08:20.626907026,1744366100,625157376,hemisphere,2,1,63.441190299166664,10.419913706333332,43.847,0.000144,0.0,0.0,0.0,0.000144,0.0,0.0,0.0,0.002304,1
2025/04/11 12:08:20.672463438,1744366100,672112367,hemisphere,2,1,63.441190293333335,10.4199136915,43.843,0.000144,0.0,0.0,0.0,0.000144,0.0,0.0,0.0,0.002304,1
2025/04/11 12:08:20.724251696,1744366100,720860663,hemisphere,2,1,63.44119028066667,10.419913647,43.847,0.000144,0.0,0.0,0.0,0.000144,0.0,0.0,0.0,0.002304,1
2025/04/11 12:08:20.772266920,1744366100,770541804,hemisphere,2,1,63.441190293,10.4199136355,43.846000000000004,0.000144,0.0,0.0,0.0,0.000144,0.0,0.0,0.0,0.002304,1
2025/04/11 12:08:20.826017584,1744366100,825603428,hemisphere,2,1,63.4411902825,10.419913619,43.845,0.000144,0.0,0.0,0.0,0.000144,0.0,0.0,0.0,0.002304,1
2025/04/11 12:08:20.872466608,1744366100,870843554,hemisphere,2,1,63.441190266666666,10.419913598333334,43.844,0.000144,0.0,0.0,0.0,0.000144,0.0,0.0,0.0,0.002304,1
2025/04/11 12:08:20.924746635,1744366100,920886210,hemisphere,2,1,63.4411902755,10.419913603166666,43.848,0.000144,0.0,0.0,0.0,0.000144,0.0,0.0,0.0,0.002304,1
2025/04/11 12:08:20.975989722,1744366100,971684836,hemisphere,2,1,63.44119027116667,10.419913537666666,43.848,0.000144,0.0,0.0,0.0,0.000144,0.0,0.0,0.0,0.002304,1
2025/04/11 12:08:21.21992690,1744366101,20175309,hemisphere,2,1,63.44119026133333,10.4199135305,43.848,0.000144,0.0,0.0,0.0,0.000144,0.0,0.0,0.0,0.002304,1
2025/04/11 12:08:21.72265964,1744366101,71683600,hemisphere,2,1,63.441190256,10.419913520666666,43.845,0.000144,0.0,0.0,0.0,0.000144,0.0,0.0,0.0,0.002304,1
2025/04/11 12:08:21.124173905,1744366101,122269287,hemisphere,2,1,63.44119025683333,10.419913500666667,43.85,0.000144,0.0,0.0,0.0,0.000144,0.0,0.0,0.0,0.002304,1
2025/04/11 12:08:21.172362564,1744366101,171132317,hemisphere,2,1,63.44119025166667,10.419913485666667,43.847,0.000144,0.0,0.0,0.0,0.000144,0.0,0.0,0.0,0.002304,1
2025/04/11 12:08:21.222327542,1744366101,220950745,hemisphere,2,1,63.441190245,10.419913460166667,43.847,0.000144,0.0,0.0,0.0,0.000144,0.0,0.0,0.0,0.002304,1
2025/04/11 12:08:21.270702237,1744366101,270377533,hemisphere,2,1,63.441190233166665,10.419913416833333,43.849000000000004,0.000144,0.0,0.0,0.0,0.000144,0.0,0.0,0.0,0.002304,1
2025/04/11 12:08:21.322679103,1744366101,321040301,hemisphere,2,1,63.44119023966667,10.4199133945,43.848,0.000144,0.0,0.0,0.0,0.000144,0.0,0.0,0.0,0.002304,1
2025/04/11 12:08:21.374420992,1744366101,374053287,hemisphere,2,1,63.44119023583333,10.419913378,43.849000000000004,0.000144,0.0,0.0,0.0,0.000144,0.0,0.0,0.0,0.002304,1
2025/04/11 12:08:21.423626737,1744366101,421963031,hemisphere,2,1,63.44119022066667,10.41991334,43.846000000000004,0.000144,0.0,0.0,0.0,0.000144,0.0,0.0,0.0,0.002304,1
2025/04/11 12:08:21.474226949,1744366101,471898697,hemisphere,2,1,63.4411902365,10.419913293666667,43.85,0.000144,0.0,0.0,0.0,0.000144,0.0,0.0,0.0,0.002304,1
2025/04/11 12:08:21.523538102,1744366101,522778987,hemisphere,2,1,63.441190215166664,10.419913274333334,43.849000000000004,0.000144,0.0,0.0,0.0,0.000144,0.0,0.0,0.0,0.002304,1
2025/04/11 12:08:21.572802563,1744366101,572383895,hemisphere,2,1,63.441190212,10.419913249,43.846000000000004,0.000144,0.0,0.0,0.0,0.000144,0.0,0.0,0.0,0.002304,1
2025/04/11 12:08:21.622820242,1744366101,621259197,hemisphere,2,1,63.441190227,10.419913269833334,43.85,0.000144,0.0,0.0,0.0,0.000144,0.0,0.0,0.0,0.002304,1
2025/04/11 12:08:21.672158637,1744366101,670920442,hemisphere,2,1,63.44119020283333,10.419913201666667,43.848,0.000144,0.0,0.0,0.0,0.000144,0.0,0.0,0.0,0.002304,1
2025/04/11 12:08:21.720485145,1744366101,719989777,hemisphere,2,1,63.44119021,10.419913228,43.852000000000004,0.000144,0.0,0.0,0.0,0.000144,0.0,0.0,0.0,0.002304,1
2025/04/11 12:08:21.775840445,1744366101,771477293,hemisphere,2,1,63.4411902095,10.419913192666666,43.848,0.000144,0.0,0.0,0.0,0.000144,0.0,0.0,0.0,0.002304,1
2025/04/11 12:08:21.824979851,1744366101,822392278,hemisphere,2,1,63.44119020816667,10.419913174333333,43.848,0.000144,0.0,0.0,0.0,0.000144,0.0,0.0,0.0,0.002304,1
2025/04/11 12:08:21.873649307,1744366101,872962945,hemisphere,2,1,63.441190191333334,10.4199131635,43.849000000000004,0.000144,0.0,0.0,0.0,0.000144,0.0,0.0,0.0,0.002304,1
2025/04/11 12:08:21.925298520,1744366101,922186647,hemisphere,2,1,63.441190189,10.419913137,43.849000000000004,0.000144,0.0,0.0,0.0,0.000144,0.0,0.0,0.0,0.002304,1
2025/04/11 12:08:21.976343197,1744366101,973368738,hemisphere,2,1,63.44119020683333,10.419913110666666,43.85,0.000144,0.0,0.0,0.0,0.000144,0.0,0.0,0.0,0.002304,1
2025/04/11 12:08:22.22676268,1744366102,21988327,hemisphere,2,1,63.44119018033334,10.419913120333334,43.848,0.000144,0.0,0.0,0.0,0.000144,0.0,0.0,0.0,0.002304,1
2025/04/11 12:08:22.71863593,1744366102,71476028,hemisphere,2,1,63.44119019633333,10.419913078833334,43.849000000000004,0.000144,0.0,0.0,0.0,0.000144,0.0,0.0,0.0,0.002304,1
2025/04/11 12:08:22.130295956,1744366102,124230423,hemisphere,2,1,63.441190183,10.419913082833334,43.849000000000004,0.000144,0.0,0.0,0.0,0.000144,0.0,0.0,0.0,0.002304,1
2025/04/11 12:08:22.172873244,1744366102,172477422,hemisphere,2,1,63.44119017116667,10.419913054666667,43.845,0.000144,0.0,0.0,0.0,0.000144,0.0,0.0,0.0,0.002304,1
2025/04/11 12:08:22.224059683,1744366102,223495081,hemisphere,2,1,63.441190166,10.4199130315,43.848,0.000144,0.0,0.0,0.0,0.000144,0.0,0.0,0.0,0.002304,1
2025/04/11 12:08:22.272835899,1744366102,271564863,hemisphere,2,1,63.4411901545,10.419913011166667,43.849000000000004,0.000144,0.0,0.0,0.0,0.000144,0.0,0.0,0.0,0.002304,1
2025/04/11 12:08:22.322098788,1744366102,320886326,hemisphere,2,1,63.44119016416667,10.419913001833333,43.848,0.000144,0.0,0.0,0.0,0.000144,0.0,0.0,0.0,0.002304,1
2025/04/11 12:08:22.375082565,1744366102,374489255,hemisphere,2,1,63.441190166,10.419912965,43.847,0.000144,0.0,0.0,0.0,0.000144,0.0,0.0,0.0,0.002304,1
2025/04/11 12:08:22.426308460,1744366102,421444178,hemisphere,2,1,63.441190155166666,10.419912932333334,43.842,0.000144,0.0,0.0,0.0,0.000144,0.0,0.0,0.0,0.002304,1
2025/04/11 12:08:22.472487471,1744366102,470326250,hemisphere,2,1,63.441190147,10.419912925333334,43.841,0.000144,0.0,0.0,0.0,0.000144,0.0,0.0,0.0,0.002304,1
2025/04/11 12:08:22.523227090,1744366102,522677263,hemisphere,2,1,63.44119014533333,10.419912895333333,43.842,0.000144,0.0,0.0,0.0,0.000144,0.0,0.0,0.0,0.002304,1
2025/04/11 12:08:22.570699419,1744366102,570243828,hemisphere,2,1,63.44119013066667,10.419912874666666,43.839,0.000144,0.0,0.0,0.0,0.000144,0.0,0.0,0.0,0.002304,1
2025/04/11 12:08:22.622741243,1744366102,622140347,hemisphere,2,1,63.441190105,10.419912833166666,43.835,0.000144,0.0,0.0,0.0,0.000144,0.0,0.0,0.0,0.002304,1
2025/04/11 12:08:22.671135314,1744366102,670681843,hemisphere,2,1,63.44119011716667,10.4199128385,43.837,0.000144,0.0,0.0,0.0,0.000144,0.0,0.0,0.0,0.002304,1
2025/04/11 12:08:22.723554493,1744366102,721488996,hemisphere,2,1,63.44119009733333,10.419912795166667,43.834,0.000144,0.0,0.0,0.0,0.000144,0.0,0.0,0.0,0.002304,1
2025/04/11 12:08:22.773577021,1744366102,773054962,hemisphere,2,1,63.4411901055,10.419912776333334,43.837,0.000144,0.0,0.0,0.0,0.000144,0.0,0.0,0.0,0.002304,1
2025/04/11 12:08:22.823792665,1744366102,821421895,hemisphere,2,1,63.441190084,10.419912721166666,43.836,0.000144,0.0,0.0,0.0,0.000144,0.0,0.0,0.0,0.002304,1
2025/04/11 12:08:22.872027092,1744366102,870830102,hemisphere,2,1,63.44119008916667,10.419912719666666,43.833000000000006,0.000144,0.0,0.0,0.0,0.000144,0.0,0.0,0.0,0.002304,1
2025/04/11 12:08:22.924060034,1744366102,920440714,hemisphere,2,1,63.441190090333336,10.419912667166667,43.835,0.000144,0.0,0.0,0.0,0.000144,0.0,0.0,0.0,0.002304,1
2025/04/11 12:08:22.972832617,1744366102,972383478,hemisphere,2,1,63.4411900765,10.419912646,43.838,0.000144,0.0,0.0,0.0,0.000144,0.0,0.0,0.0,0.002304,1
2025/04/11 12:08:23.25461657,1744366103,23344378,hemisphere,2,1,63.44119007783333,10.41991262,43.837,0.000144,0.0,0.0,0.0,0.000144,0.0,0.0,0.0,0.002304,1
2025/04/11 12:08:23.71771406,1744366103,71412507,hemisphere,2,1,63.44119007916667,10.419912603,43.837,0.000144,0.0,0.0,0.0,0.000144,0.0,0.0,0.0,0.002304,1
2025/04/11 12:08:23.125688986,1744366103,124265995,hemisphere,2,1,63.44119006533333,10.419912539333334,43.834,0.000144,0.0,0.0,0.0,0.000144,0.0,0.0,0.0,0.002304,1
2025/04/11 12:08:23.174912786,1744366103,171483189,hemisphere,2,1,63.44119007133333,10.419912523,43.837,0.000144,0.0,0.0,0.0,0.000144,0.0,0.0,0.0,0.002304,1
2025/04/11 12:08:23.222559254,1744366103,222157086,hemisphere,2,1,63.441190068666664,10.419912466333333,43.837,0.000144,0.0,0.0,0.0,0.000144,0.0,0.0,0.0,0.002304,1
2025/04/11 12:08:23.271410335,1744366103,270515861,hemisphere,2,1,63.44119004983333,10.4199124285,43.839,0.000144,0.0,0.0,0.0,0.000144,0.0,0.0,0.0,0.002304,1
2025/04/11 12:08:23.324778328,1744366103,322487682,hemisphere,2,1,63.44119006383333,10.419912428166667,43.838,0.000144,0.0,0.0,0.0,0.000144,0.0,0.0,0.0,0.002304,1
2025/04/11 12:08:23.374848694,1744366103,374295459,hemisphere,2,1,63.44119003866667,10.419912372333334,43.839,0.000144,0.0,0.0,0.0,0.000144,0.0,0.0,0.0,0.002304,1
2025/04/11 12:08:23.423062559,1744366103,421293505,hemisphere,2,1,63.441190059,10.419912303666667,43.842,0.000144,0.0,0.0,0.0,0.000144,0.0,0.0,0.0,0.002304,1
2025/04/11 12:08:23.474208955,1744366103,470970853,hemisphere,2,1,63.44119006383333,10.419912289333332,43.842,0.000144,0.0,0.0,0.0,0.000144,0.0,0.0,0.0,0.002304,1
2025/04/11 12:08:23.523712482,1744366103,522218940,hemisphere,2,1,63.441190051166664,10.419912223833334,43.841,0.000144,0.0,0.0,0.0,0.000144,0.0,0.0,0.0,0.002304,1
2025/04/11 12:08:23.574235597,1744366103,573100895,hemisphere,2,1,63.44119005016667,10.419912188,43.842,0.000144,0.0,0.0,0.0,0.000144,0.0,0.0,0.0,0.002304,1
2025/04/11 12:08:23.622895609,1744366103,622336354,hemisphere,2,1,63.441190053166665,10.419912115,43.842,0.000144,0.0,0.0,0.0,0.000144,0.0,0.0,0.0,0.002304,1
2025/04/11 12:08:23.671440822,1744366103,670865947,hemisphere,2,1,63.441190049333336,10.419912115833334,43.84,0.000144,0.0,0.0,0.0,0.000144,0.0,0.0,0.0,0.002304,1
2025/04/11 12:08:23.723782287,1744366103,723259718,hemisphere,2,1,63.44119003633333,10.419912069333334,43.844,0.000144,0.0,0.0,0.0,0.000144,0.0,0.0,0.0,0.002304,1
2025/04/11 12:08:23.772245428,1744366103,771496444,hemisphere,2,1,63.4411900505,10.419912013666666,43.843,0.000144,0.0,0.0,0.0,0.000144,0.0,0.0,0.0,0.002304,1
2025/04/11 12:08:23.828742362,1744366103,822756971,hemisphere,2,1,63.441190037333335,10.419911991166666,43.844,0.000144,0.0,0.0,0.0,0.000144,0.0,0.0,0.0,0.002304,1
2025/04/11 12:08:23.872115602,1744366103,870414250,hemisphere,2,1,63.44119004616667,10.419911959833334,43.843,0.000144,0.0,0.0,0.0,0.000144,0.0,0.0,0.0,0.002304,1
2025/04/11 12:08:23.921427418,1744366103,920472768,hemisphere,2,1,63.4411900385,10.419911931666666,43.842,0.000144,0.0,0.0,0.0,0.000144,0.0,0.0,0.0,0.002304,1
2025/04/11 12:08:23.972632381,1744366103,971639687,hemisphere,2,1,63.44119004666667,10.419911917833334,43.841,0.000144,0.0,0.0,0.0,0.000144,0.0,0.0,0.0,0.002304,1
2025/04/11 12:08:24.23354766,1744366104,22073353,hemisphere,2,1,63.44119004583333,10.4199118885,43.844,0.000144,0.0,0.0,0.0,0.000144,0.0,0.0,0.0,0.002304,1
2025/04/11 12:08:24.72080144,1744366104,71017749,hemisphere,2,1,63.441190033,10.4199119045,43.844,0.000144,0.0,0.0,0.0,0.000144,0.0,0.0,0.0,0.002304,1
2025/04/11 12:08:24.124809252,1744366104,122695439,hemisphere,2,1,63.441190046,10.419911877333334,43.845,0.000144,0.0,0.0,0.0,0.000144,0.0,0.0,0.0,0.002304,1
2025/04/11 12:08:24.171837187,1744366104,171125238,hemisphere,2,1,63.441190043,10.419911873333334,43.841,0.000144,0.0,0.0,0.0,0.000144,0.0,0.0,0.0,0.002304,1
2025/04/11 12:08:24.227318373,1744366104,226628479,hemisphere,2,1,63.441190031666665,10.419911866166666,43.839,0.000144,0.0,0.0,0.0,0.000144,0.0,0.0,0.0,0.002304,1
2025/04/11 12:08:24.271209378,1744366104,270752123,hemisphere,2,1,63.44119003983333,10.419911890333333,43.84,0.000144,0.0,0.0,0.0,0.000144,0.0,0.0,0.0,0.002304,1
2025/04/11 12:08:24.323852595,1744366104,323014862,hemisphere,2,1,63.4411900455,10.419911845,43.84,0.000144,0.0,0.0,0.0,0.000144,0.0,0.0,0.0,0.002304,1
2025/04/11 12:08:24.374387438,1744366104,373970779,hemisphere,2,1,63.44119002916667,10.419911865166666,43.84,0.000144,0.0,0.0,0.0,0.000144,0.0,0.0,0.0,0.002304,1
2025/04/11 12:08:24.424012764,1744366104,422905600,hemisphere,2,1,63.4411900285,10.419911822333333,43.835,0.000144,0.0,0.0,0.0,0.000144,0.0,0.0,0.0,0.002304,1
2025/04/11 12:08:24.471270211,1744366104,470582660,hemisphere,2,1,63.4411900115,10.419911820666666,43.837,0.000144,0.0,0.0,0.0,0.000144,0.0,0.0,0.0,0.002304,1
2025/04/11 12:08:24.523705181,1744366104,521694095,hemisphere,2,1,63.441190021666664,10.4199118425,43.836,0.000144,0.0,0.0,0.0,0.000144,0.0,0.0,0.0,0.002304,1
2025/04/11 12:08:24.570461948,1744366104,570090055,hemisphere,2,1,63.441190018166665,10.4199118135,43.832,0.000144,0.0,0.0,0.0,0.000144,0.0,0.0,0.0,0.002304,1
2025/04/11 12:08:24.625127615,1744366104,623332971,hemisphere,2,1,63.441190021666664,10.419911806,43.841,0.000144,0.0,0.0,0.0,0.000144,0.0,0.0,0.0,0.002304,1
2025/04/11 12:08:24.671792145,1744366104,670850854,hemisphere,2,1,63.441190027,10.4199117655,43.839,0.000144,0.0,0.0,0.0,0.000144,0.0,0.0,0.0,0.002304,1
2025/04/11 12:08:24.721583653,1744366104,721099552,hemisphere,2,1,63.441190014,10.4199117675,43.835,0.000144,0.0,0.0,0.0,0.000144,0.0,0.0,0.0,0.002304,1
2025/04/11 12:08:24.772848365,1744366104,771415935,hemisphere,2,1,63.441190018,10.419911740333333,43.839,0.000144,0.0,0.0,0.0,0.000144,0.0,0.0,0.0,0.002304,1
2025/04/11 12:08:24.821478328,1744366104,820924470,hemisphere,2,1,63.441190031,10.419911717666666,43.841,0.000144,0.0,0.0,0.0,0.000144,0.0,0.0,0.0,0.002304,1
2025/04/11 12:08:24.872775101,1744366104,871963383,hemisphere,2,1,63.44119003083333,10.419911658333334,43.838,0.000144,0.0,0.0,0.0,0.000144,0.0,0.0,0.0,0.002304,1
2025/04/11 12:08:24.925950289,1744366104,924025929,hemisphere,2,1,63.441190014166665,10.419911621166667,43.841,0.000144,0.0,0.0,0.0,0.000144,0.0,0.0,0.0,0.002304,1
2025/04/11 12:08:24.980174022,1744366104,977806973,hemisphere,2,1,63.44119001916667,10.419911587333333,43.842,0.000144,0.0,0.0,0.0,0.000144,0.0,0.0,0.0,0.002304,1
2025/04/11 12:08:25.22431339,1744366105,21643206,hemisphere,2,1,63.44119003433333,10.4199115495,43.843,0.000144,0.0,0.0,0.0,0.000144,0.0,0.0,0.0,0.002304,1
2025/04/11 12:08:25.72171521,1744366105,70977814,hemisphere,2,1,63.4411900135,10.419911494,43.842,0.000144,0.0,0.0,0.0,0.000144,0.0,0.0,0.0,0.002304,1
2025/04/11 12:08:25.125460058,1744366105,124193890,hemisphere,2,1,63.441190024,10.419911449833334,43.843,0.000144,0.0,0.0,0.0,0.000144,0.0,0.0,0.0,0.002304,1
2025/04/11 12:08:25.171772255,1744366105,171347589,hemisphere,2,1,63.441190018,10.4199114185,43.843,0.000144,0.0,0.0,0.0,0.000144,0.0,0.0,0.0,0.002304,1
2025/04/11 12:08:25.231317642,1744366105,223448033,hemisphere,2,1,63.4411900265,10.419911343666667,43.849000000000004,0.000144,0.0,0.0,0.0,0.000144,0.0,0.0,0.0,0.002304,1
2025/04/11 12:08:25.272209711,1744366105,271443945,hemisphere,2,1,63.44119001866667,10.419911309166666,43.845,0.000144,0.0,0.0,0.0,0.000144,0.0,0.0,0.0,0.002304,1
2025/04/11 12:08:25.325876426,1744366105,322336938,hemisphere,2,1,63.44118999966667,10.419911269666667,43.847,0.000144,0.0,0.0,0.0,0.000144,0.0,0.0,0.0,0.002304,1
2025/04/11 12:08:25.375379861,1744366105,375055890,hemisphere,2,1,63.44119001683333,10.419911207,43.847,0.000144,0.0,0.0,0.0,0.000144,0.0,0.0,0.0,0.002304,1
2025/04/11 12:08:25.424255074,1744366105,423857619,hemisphere,2,1,63.44119001633333,10.419911181166666,43.85,0.000144,0.0,0.0,0.0,0.000144,0.0,0.0,0.0,0.002304,1
2025/04/11 12:08:25.470778187,1744366105,470368331,hemisphere,2,1,63.4411900245,10.419911141833333,43.847,0.000144,0.0,0.0,0.0,0.000144,0.0,0.0,0.0,0.002304,1
2025/04/11 12:08:25.522825496,1744366105,522219264,hemisphere,2,1,63.44119001,10.419911111,43.85,0.000144,0.0,0.0,0.0,0.000144,0.0,0.0,0.0,0.002304,1
2025/04/11 12:08:25.573781951,1744366105,572808578,hemisphere,2,1,63.44119001316667,10.419911072,43.848,0.000144,0.0,0.0,0.0,0.000144,0.0,0.0,0.0,0.002304,1
2025/04/11 12:08:25.623293231,1744366105,622369054,hemisphere,2,1,63.441190019,10.4199110235,43.85,0.000144,0.0,0.0,0.0,0.000144,0.0,0.0,0.0,0.002304,1
2025/04/11 12:08:25.670550190,1744366105,669958218,hemisphere,2,1,63.4411900205,10.419910978666667,43.85,0.000144,0.0,0.0,0.0,0.000144,0.0,0.0,0.0,0.002304,1
2025/04/11 12:08:25.725905881,1744366105,722677460,hemisphere,2,1,63.441190007,10.419910964333333,43.848,0.000144,0.0,0.0,0.0,0.000144,0.0,0.0,0.0,0.002304,1
2025/04/11 12:08:25.770662964,1744366105,770128464,hemisphere,2,1,63.44119002466667,10.419910915833333,43.85,0.000144,0.0,0.0,0.0,0.000144,0.0,0.0,0.0,0.002304,1
2025/04/11 12:08:25.822364223,1744366105,820377839,hemisphere,2,1,63.44119000133333,10.419910890666667,43.853,0.000144,0.0,0.0,0.0,0.000144,0.0,0.0,0.0,0.002304,1
2025/04/11 12:08:25.871926557,1744366105,870739760,hemisphere,2,1,63.441190006333336,10.4199108685,43.85,0.000144,0.0,0.0,0.0,0.000144,0.0,0.0,0.0,0.002304,1
2025/04/11 12:08:25.922001222,1744366105,919921145,hemisphere,2,1,63.44119001516667,10.419910823333334,43.851,0.000144,0.0,0.0,0.0,0.000144,0.0,0.0,0.0,0.002304,1
2025/04/11 12:08:25.970832113,1744366105,970393030,hemisphere,2,1,63.441190002,10.419910835333333,43.851,0.000144,0.0,0.0,0.0,0.000144,0.0,0.0,0.0,0.002304,1
2025/04/11 12:08:26.23197459,1744366106,22265805,hemisphere,2,1,63.44119001333333,10.419910785166667,43.853,0.000144,0.0,0.0,0.0,0.000144,0.0,0.0,0.0,0.002304,1
2025/04/11 12:08:26.72718558,1744366106,72197484,hemisphere,2,1,63.44119000566667,10.419910794333333,43.85,0.000144,0.0,0.0,0.0,0.000144,0.0,0.0,0.0,0.002304,1
2025/04/11 12:08:26.122734333,1744366106,122138064,hemisphere,2,1,63.4411900125,10.419910773166666,43.852000000000004,0.000144,0.0,0.0,0.0,0.000144,0.0,0.0,0.0,0.002304,1
2025/04/11 12:08:26.171584686,1744366106,171111773,hemisphere,2,1,63.441190002,10.4199107825,43.85,0.000144,0.0,0.0,0.0,0.000144,0.0,0.0,0.0,0.002304,1
2025/04/11 12:08:26.224384846,1744366106,222661119,hemisphere,2,1,63.44119001,10.419910744,43.848,0.000144,0.0,0.0,0.0,0.000144,0.0,0.0,0.0,0.002304,1
2025/04/11 12:08:26.271779131,1744366106,271257327,hemisphere,2,1,63.44119002033333,10.419910745333333,43.851,0.000144,0.0,0.0,0.0,0.000144,0.0,0.0,0.0,0.002304,1
2025/04/11 12:08:26.323258446,1744366106,321122676,hemisphere,2,1,63.441190019666664,10.4199107185,43.847,0.000144,0.0,0.0,0.0,0.000144,0.0,0.0,0.0,0.002304,1
2025/04/11 12:08:26.375977675,1744366106,375148132,hemisphere,2,1,63.441190022,10.4199107195,43.847,0.000144,0.0,0.0,0.0,0.000144,0.0,0.0,0.0,0.002304,1
2025/04/11 12:08:26.421729394,1744366106,420307433,hemisphere,2,1,63.44119001716667,10.419910712166667,43.847,0.000144,0.0,0.0,0.0,0.000144,0.0,0.0,0.0,0.002304,1
2025/04/11 12:08:26.471645856,1744366106,470223317,hemisphere,2,1,63.44119002033333,10.419910683,43.85,0.000144,0.0,0.0,0.0,0.000144,0.0,0.0,0.0,0.002304,1
2025/04/11 12:08:26.523264942,1744366106,521034624,hemisphere,2,1,63.44119001333333,10.419910687166666,43.843,0.000144,0.0,0.0,0.0,0.000144,0.0,0.0,0.0,0.002304,1
2025/04/11 12:08:26.571268728,1744366106,570887119,hemisphere,2,1,63.441190025333334,10.419910642666666,43.848,0.000144,0.0,0.0,0.0,0.000144,0.0,0.0,0.0,0.002304,1
2025/04/11 12:08:26.623718201,1744366106,621941672,hemisphere,2,1,63.44119002633333,10.419910673333334,43.847,0.000144,0.0,0.0,0.0,0.000144,0.0,0.0,0.0,0.002304,1
2025/04/11 12:08:26.672525897,1744366106,671000592,hemisphere,2,1,63.44119003616667,10.419910631333334,43.843,0.000144,0.0,0.0,0.0,0.000144,0.0,0.0,0.0,0.002304,1
2025/04/11 12:08:26.721043832,1744366106,720643927,hemisphere,2,1,63.4411900255,10.419910616666666,43.844,0.000144,0.0,0.0,0.0,0.000144,0.0,0.0,0.0,0.002304,1
2025/04/11 12:08:26.770719145,1744366106,770362524,hemisphere,2,1,63.44119003683333,10.419910599666666,43.844,0.000144,0.0,0.0,0.0,0.000144,0.0,0.0,0.0,0.002304,1
2025/04/11 12:08:26.824202591,1744366106,821687382,hemisphere,2,1,63.441190044,10.419910596166666,43.845,0.000144,0.0,0.0,0.0,0.000144,0.0,0.0,0.0,0.002304,1
2025/04/11 12:08:26.870810901,1744366106,870446119,hemisphere,2,1,63.44119003683333,10.419910541666667,43.842,0.000144,0.0,0.0,0.0,0.000144,0.0,0.0,0.0,0.002304,1
2025/04/11 12:08:26.921018781,1744366106,920628158,hemisphere,2,1,63.44119004016667,10.419910541666667,43.845,0.000144,0.0,0.0,0.0,0.000144,0.0,0.0,0.0,0.002304,1
2025/04/11 12:08:26.975753103,1744366106,970744767,hemisphere,2,1,63.4411900415,10.419910483666667,43.838,0.000144,0.0,0.0,0.0,0.000144,0.0,0.0,0.0,0.002304,1
2025/04/11 12:08:27.24116064,1744366107,21462665,hemisphere,2,1,63.44119004,10.4199104705,43.847,0.000144,0.0,0.0,0.0,0.000144,0.0,0.0,0.0,0.002304,1
2025/04/11 12:08:27.71281945,1744366107,70810332,hemisphere,2,1,63.441190027833336,10.419910451833333,43.837,0.000144,0.0,0.0,0.0,0.000144,0.0,0.0,0.0,0.002304,1
2025/04/11 12:08:27.123973461,1744366107,121964047,hemisphere,2,1,63.4411900535,10.4199103935,43.845,0.000144,0.0,0.0,0.0,0.000144,0.0,0.0,0.0,0.002304,1
2025/04/11 12:08:27.172849716,1744366107,171557132,hemisphere,2,1,63.441190039333335,10.419910363833333,43.842,0.000144,0.0,0.0,0.0,0.000144,0.0,0.0,0.0,0.002304,1
2025/04/11 12:08:27.224739412,1744366107,221701628,hemisphere,2,1,63.44119004016667,10.419910329166667,43.842,0.000144,0.0,0.0,0.0,0.000144,0.0,0.0,0.0,0.002304,1
2025/04/11 12:08:27.272478898,1744366107,271755667,hemisphere,2,1,63.441190039666665,10.419910291,43.844,0.000144,0.0,0.0,0.0,0.000144,0.0,0.0,0.0,0.002304,1
2025/04/11 12:08:27.323733149,1744366107,321849052,hemisphere,2,1,63.441190046,10.419910216666667,43.843,0.000144,0.0,0.0,0.0,0.000144,0.0,0.0,0.0,0.002304,1
2025/04/11 12:08:27.374546976,1744366107,373896147,hemisphere,2,1,63.44119004416667,10.419910211166666,43.842,0.000144,0.0,0.0,0.0,0.000144,0.0,0.0,0.0,0.002304,1
2025/04/11 12:08:27.425920808,1744366107,424390452,hemisphere,2,1,63.4411900365,10.419910146,43.837,0.000144,0.0,0.0,0.0,0.000144,0.0,0.0,0.0,0.002304,1
2025/04/11 12:08:27.478150035,1744366107,470458469,hemisphere,2,1,63.441190019,10.419910131333333,43.838,0.000144,0.0,0.0,0.0,0.000144,0.0,0.0,0.0,0.002304,1
2025/04/11 12:08:27.521538347,1744366107,521139390,hemisphere,2,1,63.44119002633333,10.419910082,43.839,0.000144,0.0,0.0,0.0,0.000144,0.0,0.0,0.0,0.002304,1
2025/04/11 12:08:27.571601618,1744366107,571290579,hemisphere,2,1,63.4411900335,10.419910043833333,43.836,0.000144,0.0,0.0,0.0,0.000144,0.0,0.0,0.0,0.002304,1
2025/04/11 12:08:27.623587425,1744366107,622165201,hemisphere,2,1,63.441190037333335,10.4199099885,43.841,0.000144,0.0,0.0,0.0,0.000144,0.0,0.0,0.0,0.002304,1
2025/04/11 12:08:27.671405588,1744366107,670700512,hemisphere,2,1,63.44119003816667,10.419909936166666,43.837,0.000144,0.0,0.0,0.0,0.000144,0.0,0.0,0.0,0.002304,1
2025/04/11 12:08:27.723015662,1744366107,720443304,hemisphere,2,1,63.441190033,10.419909914166666,43.835,0.000144,0.0,0.0,0.0,0.000144,0.0,0.0,0.0,0.002304,1
2025/04/11 12:08:27.771269079,1744366107,770854391,hemisphere,2,1,63.441190035333335,10.419909864833333,43.838,0.000144,0.0,0.0,0.0,0.000144,0.0,0.0,0.0,0.002304,1
2025/04/11 12:08:27.831373417,1744366107,826513738,hemisphere,2,1,63.44119004633333,10.419909833833334,43.834,0.000144,0.0,0.0,0.0,0.000144,0.0,0.0,0.0,0.002304,1
2025/04/11 12:08:27.871647631,1744366107,871017736,hemisphere,2,1,63.44119004383333,10.419909791166667,43.842,0.000144,0.0,0.0,0.0,0.000144,0.0,0.0,0.0,0.002304,1
2025/04/11 12:08:27.925112232,1744366107,922616777,hemisphere,2,1,63.4411900365,10.419909767333333,43.837,0.000144,0.0,0.0,0.0,0.000144,0.0,0.0,0.0,0.002304,1
2025/04/11 12:08:27.970679574,1744366107,970309221,hemisphere,2,1,63.441190047666666,10.419909714333333,43.838,0.000144,0.0,0.0,0.0,0.000144,0.0,0.0,0.0,0.002304,1
2025/04/11 12:08:28.22878454,1744366108,22448075,hemisphere,2,1,63.441190062333334,10.419909673,43.838,0.000144,0.0,0.0,0.0,0.000144,0.0,0.0,0.0,0.002304,1
2025/04/11 12:08:28.71659101,1744366108,71273624,hemisphere,2,1,63.441190041666665,10.4199096415,43.839,0.000144,0.0,0.0,0.0,0.000144,0.0,0.0,0.0,0.002304,1
2025/04/11 12:08:28.125106867,1744366108,124731558,hemisphere,2,1,63.44119006616667,10.419909594,43.836,0.000144,0.0,0.0,0.0,0.000144,0.0,0.0,0.0,0.002304,1
2025/04/11 12:08:28.173174567,1744366108,171968838,hemisphere,2,1,63.44119005466667,10.419909571666667,43.841,0.000144,0.0,0.0,0.0,0.000144,0.0,0.0,0.0,0.002304,1
2025/04/11 12:08:28.224570245,1744366108,221041358,hemisphere,2,1,63.4411900495,10.419909537666667,43.838,0.000144,0.0,0.0,0.0,0.000144,0.0,0.0,0.0,0.002304,1
2025/04/11 12:08:28.275291582,1744366108,271744341,hemisphere,2,1,63.441190074,10.419909496666667,43.837,0.000144,0.0,0.0,0.0,0.000144,0.0,0.0,0.0,0.002304,1
2025/04/11 12:08:28.323198021,1744366108,320511285,hemisphere,2,1,63.441190070833336,10.419909481,43.841,0.000144,0.0,0.0,0.0,0.000144,0.0,0.0,0.0,0.002304,1
2025/04/11 12:08:28.375995553,1744366108,374445641,hemisphere,2,1,63.44119005933333,10.4199094545,43.841,0.000144,0.0,0.0,0.0,0.000144,0.0,0.0,0.0,0.002304,1
2025/04/11 12:08:28.430815144,1744366108,424689063,hemisphere,2,1,63.441190082333335,10.4199094105,43.838,0.000144,0.0,0.0,0.0,0.000144,0.0,0.0,0.0,0.002304,1
2025/04/11 12:08:28.472519066,1744366108,471627973,hemisphere,2,1,63.441190084666665,10.419909390333334,43.845,0.000144,0.0,0.0,0.0,0.000144,0.0,0.0,0.0,0.002304,1
2025/04/11 12:08:28.528014850,1744366108,522216084,hemisphere,2,1,63.441190093833335,10.419909351166666,43.84,0.000144,0.0,0.0,0.0,0.000144,0.0,0.0,0.0,0.002304,1
2025/04/11 12:08:28.571397601,1744366108,571040128,hemisphere,2,1,63.441190085833334,10.419909325833334,43.843,0.000144,0.0,0.0,0.0,0.000144,0.0,0.0,0.0,0.002304,1
2025/04/11 12:08:28.625405267,1744366108,621793145,hemisphere,2,1,63.44119008916667,10.4199092965,43.841,0.000144,0.0,0.0,0.0,0.000144,0.0,0.0,0.0,0.002304,1
2025/04/11 12:08:28.671536381,1744366108,670495291,hemisphere,2,1,63.441190093833335,10.419909286,43.838,0.000144,0.0,0.0,0.0,0.000144,0.0,0.0,0.0,0.002304,1
2025/04/11 12:08:28.728857561,1744366108,720849310,hemisphere,2,1,63.441190105833336,10.419909223666666,43.837,0.000144,0.0,0.0,0.0,0.000144,0.0,0.0,0.0,0.002304,1
2025/04/11 12:08:28.771183849,1744366108,770583613,hemisphere,2,1,63.44119010033333,10.419909216333334,43.839,0.000144,0.0,0.0,0.0,0.000144,0.0,0.0,0.0,0.002304,1
2025/04/11 12:08:28.822121364,1744366108,820971619,hemisphere,2,1,63.4411901005,10.419909201666666,43.841,0.000144,0.0,0.0,0.0,0.000144,0.0,0.0,0.0,0.002304,1
2025/04/11 12:08:28.871050460,1744366108,870725044,hemisphere,2,1,63.4411901205,10.4199091415,43.839,0.000144,0.0,0.0,0.0,0.000144,0.0,0.0,0.0,0.002304,1
2025/04/11 12:08:28.925166898,1744366108,920484581,hemisphere,2,1,63.4411901105,10.4199091185,43.84,0.000144,0.0,0.0,0.0,0.000144,0.0,0.0,0.0,0.002304,1
2025/04/11 12:08:28.970714641,1744366108,970305316,hemisphere,2,1,63.44119011,10.419909110333334,43.836,0.000144,0.0,0.0,0.0,0.000144,0.0,0.0,0.0,0.002304,1
2025/04/11 12:08:29.22175856,1744366109,21298103,hemisphere,2,1,63.44119012033333,10.419909075,43.84,0.000144,0.0,0.0,0.0,0.000144,0.0,0.0,0.0,0.002304,1
2025/04/11 12:08:29.71777507,1744366109,70697060,hemisphere,2,1,63.441190116166666,10.4199090415,43.843,0.000144,0.0,0.0,0.0,0.000144,0.0,0.0,0.0,0.002304,1
2025/04/11 12:08:29.122397674,1744366109,122036564,hemisphere,2,1,63.441190115666664,10.419909012,43.836,0.000144,0.0,0.0,0.0,0.000144,0.0,0.0,0.0,0.002304,1
2025/04/11 12:08:29.183931628,1744366109,182935273,hemisphere,2,1,63.44119012466667,10.419908977,43.84,0.000144,0.0,0.0,0.0,0.000144,0.0,0.0,0.0,0.002304,1
2025/04/11 12:08:29.222278994,1744366109,220718261,hemisphere,2,1,63.441190113333334,10.419908943666666,43.841,0.000144,0.0,0.0,0.0,0.000144,0.0,0.0,0.0,0.002304,1
2025/04/11 12:08:29.271564251,1744366109,271136167,hemisphere,2,1,63.44119012216667,10.419908912833334,43.84,0.000144,0.0,0.0,0.0,0.000144,0.0,0.0,0.0,0.002304,1
2025/04/11 12:08:29.322334490,1744366109,321110101,hemisphere,2,1,63.44119012,10.419908886833333,43.841,0.000144,0.0,0.0,0.0,0.000144,0.0,0.0,0.0,0.002304,1
2025/04/11 12:08:29.376774434,1744366109,374245184,hemisphere,2,1,63.44119013666667,10.4199088385,43.84,0.000144,0.0,0.0,0.0,0.000144,0.0,0.0,0.0,0.002304,1
2025/04/11 12:08:29.422723388,1744366109,421533286,hemisphere,2,1,63.4411901235,10.419908767833334,43.84,0.000144,0.0,0.0,0.0,0.000144,0.0,0.0,0.0,0.002304,1
2025/04/11 12:08:29.470597689,1744366109,470183923,hemisphere,2,1,63.441190137666666,10.419908721,43.843,0.000144,0.0,0.0,0.0,0.000144,0.0,0.0,0.0,0.002304,1
2025/04/11 12:08:29.521980467,1744366109,521054600,hemisphere,2,1,63.4411901295,10.419908685333333,43.84,0.000144,0.0,0.0,0.0,0.000144,0.0,0.0,0.0,0.002304,1
2025/04/11 12:08:29.572451463,1744366109,571128719,hemisphere,2,1,63.441190133666666,10.419908658,43.847,0.000144,0.0,0.0,0.0,0.000144,0.0,0.0,0.0,0.002304,1
2025/04/11 12:08:29.636695995,1744366109,622110403,hemisphere,2,1,63.4411901295,10.419908628833333,43.841,0.000144,0.0,0.0,0.0,0.000144,0.0,0.0,0.0,0.002304,1
2025/04/11 12:08:29.671647765,1744366109,671333731,hemisphere,2,1,63.44119014666666,10.419908590833334,43.842,0.000144,0.0,0.0,0.0,0.000144,0.0,0.0,0.0,0.002304,1
2025/04/11 12:08:29.722339277,1744366109,721861002,hemisphere,2,1,63.4411901305,10.419908570833334,43.845,0.000144,0.0,0.0,0.0,0.000144,0.0,0.0,0.0,0.002304,1
2025/04/11 12:08:29.771135884,1744366109,770314308,hemisphere,2,1,63.44119015016667,10.419908492333333,43.843,0.000144,0.0,0.0,0.0,0.000144,0.0,0.0,0.0,0.002304,1
2025/04/11 12:08:29.826025541,1744366109,821933934,hemisphere,2,1,63.4411901405,10.419908461,43.842,0.000144,0.0,0.0,0.0,0.000144,0.0,0.0,0.0,0.002304,1
2025/04/11 12:08:29.870957022,1744366109,870414101,hemisphere,2,1,63.4411901455,10.419908438,43.844,0.000144,0.0,0.0,0.0,0.000144,0.0,0.0,0.0,0.002304,1
2025/04/11 12:08:29.924378452,1744366109,923965677,hemisphere,2,1,63.44119014133334,10.4199084125,43.843,0.000144,0.0,0.0,0.0,0.000144,0.0,0.0,0.0,0.002304,1
2025/04/11 12:08:29.970938149,1744366109,970513117,hemisphere,2,1,63.441190150666664,10.419908346166666,43.846000000000004,0.000144,0.0,0.0,0.0,0.000144,0.0,0.0,0.0,0.002304,1
2025/04/11 12:08:30.23324870,1744366110,22042358,hemisphere,2,1,63.44119014566667,10.419908313666667,43.843,0.000144,0.0,0.0,0.0,0.000144,0.0,0.0,0.0,0.002304,1
2025/04/11 12:08:30.71667877,1744366110,71332368,hemisphere,2,1,63.4411901615,10.419908262666667,43.843,0.000144,0.0,0.0,0.0,0.000144,0.0,0.0,0.0,0.002304,1
2025/04/11 12:08:30.124321146,1744366110,122744836,hemisphere,2,1,63.441190156666664,10.419908238,43.845,0.000144,0.0,0.0,0.0,0.000144,0.0,0.0,0.0,0.002304,1
2025/04/11 12:08:30.171850810,1744366110,171457618,hemisphere,2,1,63.441190151,10.419908180666667,43.842,0.000144,0.0,0.0,0.0,0.000144,0.0,0.0,0.0,0.002304,1
2025/04/11 12:08:30.222061691,1744366110,221401399,hemisphere,2,1,63.44119014983333,10.419908149166666,43.842,0.000144,0.0,0.0,0.0,0.000144,0.0,0.0,0.0,0.002304,1
2025/04/11 12:08:30.271845620,1744366110,270882741,hemisphere,2,1,63.44119016583333,10.419908123833334,43.846000000000004,0.000144,0.0,0.0,0.0,0.000144,0.0,0.0,0.0,0.002304,1
2025/04/11 12:08:30.322156172,1744366110,321533625,hemisphere,2,1,63.44119016483333,10.41990809,43.845,0.000144,0.0,0.0,0.0,0.000144,0.0,0.0,0.0,0.002304,1
2025/04/11 12:08:30.373613579,1744366110,373315425,hemisphere,2,1,63.441190164666665,10.419908034333334,43.843,0.000144,0.0,0.0,0.0,0.000144,0.0,0.0,0.0,0.002304,1
2025/04/11 12:08:30.426091424,1744366110,421501641,hemisphere,2,1,63.44119015,10.419908075666667,43.84,0.000144,0.0,0.0,0.0,0.000144,0.0,0.0,0.0,0.002304,1
2025/04/11 12:08:30.471827872,1744366110,470429707,hemisphere,2,1,63.44119016166667,10.419908021833333,43.841,0.000144,0.0,0.0,0.0,0.000144,0.0,0.0,0.0,0.002304,1
2025/04/11 12:08:30.523684033,1744366110,522515427,hemisphere,2,1,63.44119016483333,10.419908003833333,43.84,0.000144,0.0,0.0,0.0,0.000144,0.0,0.0,0.0,0.002304,1
2025/04/11 12:08:30.570776772,1744366110,570287419,hemisphere,2,1,63.4411901755,10.4199079355,43.838,0.000144,0.0,0.0,0.0,0.000144,0.0,0.0,0.0,0.002304,1
2025/04/11 12:08:30.628951741,1744366110,621179672,hemisphere,2,1,63.44119013633333,10.419907989333334,43.841,0.000144,0.0,0.0,0.0,0.000144,0.0,0.0,0.0,0.002304,1
2025/04/11 12:08:30.673575453,1744366110,672246854,hemisphere,2,1,63.441190157,10.419907921,43.844,0.000144,0.0,0.0,0.0,0.000144,0.0,0.0,0.0,0.002304,1
2025/04/11 12:08:30.722535916,1744366110,721618096,hemisphere,2,1,63.441190153166666,10.419907918166667,43.843,0.000144,0.0,0.0,0.0,0.000144,0.0,0.0,0.0,0.002304,1
2025/04/11 12:08:30.771546251,1744366110,770802128,hemisphere,2,1,63.441190154833336,10.419907873666666,43.842,0.000144,0.0,0.0,0.0,0.000144,0.0,0.0,0.0,0.002304,1
2025/04/11 12:08:30.824093125,1744366110,820552801,hemisphere,2,1,63.441190169,10.4199078425,43.844,0.000144,0.0,0.0,0.0,0.000144,0.0,0.0,0.0,0.002304,1
2025/04/11 12:08:30.871550701,1744366110,870886077,hemisphere,2,1,63.44119015933333,10.419907828666666,43.845,0.000144,0.0,0.0,0.0,0.000144,0.0,0.0,0.0,0.002304,1
2025/04/11 12:08:30.932974985,1744366110,920603798,hemisphere,2,1,63.441190157,10.419907789666667,43.843,0.000144,0.0,0.0,0.0,0.000144,0.0,0.0,0.0,0.002304,1
2025/04/11 12:08:30.971975306,1744366110,971029704,hemisphere,2,1,63.441190176,10.419907738833333,43.845,0.000144,0.0,0.0,0.0,0.000144,0.0,0.0,0.0,0.002304,1
2025/04/11 12:08:31.22400768,1744366111,21661632,hemisphere,2,1,63.441190151166666,10.419907760166666,43.84,0.000144,0.0,0.0,0.0,0.000144,0.0,0.0,0.0,0.002304,1
2025/04/11 12:08:31.72448045,1744366111,71553711,hemisphere,2,1,63.441190162333335,10.419907702666666,43.843,0.000144,0.0,0.0,0.0,0.000144,0.0,0.0,0.0,0.002304,1
2025/04/11 12:08:31.122697219,1744366111,122242054,hemisphere,2,1,63.441190172666666,10.4199076705,43.845,0.000144,0.0,0.0,0.0,0.000144,0.0,0.0,0.0,0.002304,1
2025/04/11 12:08:31.171589489,1744366111,171233620,hemisphere,2,1,63.441190156,10.419907673,43.84,0.000144,0.0,0.0,0.0,0.000144,0.0,0.0,0.0,0.002304,1
2025/04/11 12:08:31.222327142,1744366111,221207419,hemisphere,2,1,63.44119017333333,10.419907604166667,43.845,0.000144,0.0,0.0,0.0,0.000144,0.0,0.0,0.0,0.002304,1
2025/04/11 12:08:31.271642526,1744366111,271339580,hemisphere,2,1,63.441190160666665,10.419907598333333,43.843,0.000144,0.0,0.0,0.0,0.000144,0.0,0.0,0.0,0.002304,1
2025/04/11 12:08:31.324123307,1744366111,321356812,hemisphere,2,1,63.44119016383333,10.4199075505,43.843,0.000144,0.0,0.0,0.0,0.000144,0.0,0.0,0.0,0.002304,1
2025/04/11 12:08:31.374594570,1744366111,374245469,hemisphere,2,1,63.44119016333333,10.419907535833334,43.842,0.000144,0.0,0.0,0.0,0.000144,0.0,0.0,0.0,0.002304,1
2025/04/11 12:08:31.430075506,1744366111,429525952,hemisphere,2,1,63.441190170666665,10.419907458,43.843,0.000144,0.0,0.0,0.0,0.000144,0.0,0.0,0.0,0.002304,1
2025/04/11 12:08:31.471842122,1744366111,471527539,hemisphere,2,1,63.441190160666665,10.419907410833334,43.84,0.000144,0.0,0.0,0.0,0.000144,0.0,0.0,0.0,0.002304,1
2025/04/11 12:08:31.522465808,1744366111,521483511,hemisphere,2,1,63.44119017116667,10.419907380333333,43.84,0.000144,0.0,0.0,0.0,0.000144,0.0,0.0,0.0,0.002304,1
2025/04/11 12:08:31.571438053,1744366111,570961558,hemisphere,2,1,63.4411901545,10.419907348833334,43.84,0.000144,0.0,0.0,0.0,0.000144,0.0,0.0,0.0,0.002304,1
2025/04/11 12:08:31.630416331,1744366111,621003637,hemisphere,2,1,63.441190161166666,10.419907327,43.843,0.000144,0.0,0.0,0.0,0.000144,0.0,0.0,0.0,0.002304,1
2025/04/11 12:08:31.675160127,1744366111,670189031,hemisphere,2,1,63.44119015216667,10.4199073265,43.838,0.000144,0.0,0.0,0.0,0.000144,0.0,0.0,0.0,0.002304,1
2025/04/11 12:08:31.742085746,1744366111,721579669,hemisphere,2,1,63.441190161,10.419907261166667,43.841,0.000144,0.0,0.0,0.0,0.000144,0.0,0.0,0.0,0.002304,1
2025/04/11 12:08:31.788775660,1744366111,770554550,hemisphere,2,1,63.441190152666664,10.419907241666667,43.839,0.000144,0.0,0.0,0.0,0.000144,0.0,0.0,0.0,0.002304,1
2025/04/11 12:08:31.825526630,1744366111,821325989,hemisphere,2,1,63.44119016216667,10.419907202166666,43.841,0.000144,0.0,0.0,0.0,0.000144,0.0,0.0,0.0,0.002304,1
2025/04/11 12:08:31.872121416,1744366111,870630413,hemisphere,2,1,63.44119017533333,10.4199071715,43.842,0.000144,0.0,0.0,0.0,0.000144,0.0,0.0,0.0,0.002304,1
2025/04/11 12:08:31.934932977,1744366111,921317435,hemisphere,2,1,63.44119016083334,10.419907145666667,43.836,0.000144,0.0,0.0,0.0,0.000144,0.0,0.0,0.0,0.002304,1
2025/04/11 12:08:31.984058389,1744366111,975021429,hemisphere,2,1,63.44119017333333,10.419907109333334,43.84,0.000144,0.0,0.0,0.0,0.000144,0.0,0.0,0.0,0.002304,1
2025/04/11 12:08:32.27202854,1744366112,21192266,hemisphere,2,1,63.441190177,10.419907090166667,43.841,0.000144,0.0,0.0,0.0,0.000144,0.0,0.0,0.0,0.002304,1
2025/04/11 12:08:32.72398746,1744366112,71688051,hemisphere,2,1,63.44119017283333,10.419907048166667,43.838,0.000144,0.0,0.0,0.0,0.000144,0.0,0.0,0.0,0.002304,1
2025/04/11 12:08:32.124204256,1744366112,123589117,hemisphere,2,1,63.44119017316667,10.419907023833334,43.841,0.000144,0.0,0.0,0.0,0.000144,0.0,0.0,0.0,0.002304,1
2025/04/11 12:08:32.177240473,1744366112,175756432,hemisphere,2,1,63.44119018333333,10.4199069965,43.841,0.000144,0.0,0.0,0.0,0.000144,0.0,0.0,0.0,0.002304,1
2025/04/11 12:08:32.221763593,1744366112,220720098,hemisphere,2,1,63.44119018333333,10.419906958666667,43.841,0.000144,0.0,0.0,0.0,0.000144,0.0,0.0,0.0,0.002304,1
2025/04/11 12:08:32.270706103,1744366112,270368397,hemisphere,2,1,63.4411901825,10.4199069365,43.84,0.000144,0.0,0.0,0.0,0.000144,0.0,0.0,0.0,0.002304,1
2025/04/11 12:08:32.321565034,1744366112,321248357,hemisphere,2,1,63.441190191833336,10.419906918333334,43.843,0.000144,0.0,0.0,0.0,0.000144,0.0,0.0,0.0,0.002304,1
2025/04/11 12:08:32.374495563,1744366112,374025815,hemisphere,2,1,63.44119020233333,10.419906858833333,43.84,0.000144,0.0,0.0,0.0,0.000144,0.0,0.0,0.0,0.002304,1
2025/04/11 12:08:32.422194499,1744366112,420940926,hemisphere,2,1,63.441190201666664,10.419906904833333,43.843,0.000144,0.0,0.0,0.0,0.000144,0.0,0.0,0.0,0.002304,1
2025/04/11 12:08:32.470928623,1744366112,470605168,hemisphere,2,1,63.441190196,10.419906871166667,43.839,0.000144,0.0,0.0,0.0,0.000144,0.0,0.0,0.0,0.002304,1
2025/04/11 12:08:32.521516739,1744366112,520999683,hemisphere,2,1,63.441190199833336,10.419906847833333,43.843,0.000144,0.0,0.0,0.0,0.000144,0.0,0.0,0.0,0.002304,1
2025/04/11 12:08:32.572826388,1744366112,571293944,hemisphere,2,1,63.441190211666665,10.419906816666666,43.84,0.000144,0.0,0.0,0.0,0.000144,0.0,0.0,0.0,0.002304,1
2025/04/11 12:08:32.621929288,1744366112,621638304,hemisphere,2,1,63.441190224833335,10.419906770333334,43.847,0.000144,0.0,0.0,0.0,0.000144,0.0,0.0,0.0,0.002304,1
2025/04/11 12:08:32.672410067,1744366112,670667108,hemisphere,2,1,63.44119021383333,10.419906742333334,43.843,0.000144,0.0,0.0,0.0,0.000144,0.0,0.0,0.0,0.002304,1
2025/04/11 12:08:32.722650848,1744366112,721508866,hemisphere,2,1,63.44119022666667,10.419906723833334,43.845,0.000144,0.0,0.0,0.0,0.000144,0.0,0.0,0.0,0.002304,1
2025/04/11 12:08:32.771361039,1744366112,771003404,hemisphere,2,1,63.441190228,10.419906722166667,43.847,0.000144,0.0,0.0,0.0,0.000144,0.0,0.0,0.0,0.002304,1
2025/04/11 12:08:32.822978938,1744366112,820625099,hemisphere,2,1,63.441190232,10.419906664666666,43.847,0.000144,0.0,0.0,0.0,0.000144,0.0,0.0,0.0,0.002304,1
2025/04/11 12:08:32.870990045,1744366112,870340493,hemisphere,2,1,63.44119022733334,10.419906665333333,43.845,0.000144,0.0,0.0,0.0,0.000144,0.0,0.0,0.0,0.002304,1
2025/04/11 12:08:32.922760547,1744366112,922386094,hemisphere,2,1,63.441190228,10.419906609833333,43.846000000000004,0.000144,0.0,0.0,0.0,0.000144,0.0,0.0,0.0,0.002304,1
2025/04/11 12:08:32.970880853,1744366112,970500490,hemisphere,2,1,63.441190234833336,10.419906577999999,43.847,0.000144,0.0,0.0,0.0,0.000144,0.0,0.0,0.0,0.002304,1
2025/04/11 12:08:33.24260731,1744366113,22141359,hemisphere,2,1,63.441190243166666,10.4199065575,43.848,0.000144,0.0,0.0,0.0,0.000144,0.0,0.0,0.0,0.002304,1
2025/04/11 12:08:33.71927061,1744366113,70583750,hemisphere,2,1,63.441190240333334,10.419906538,43.844,0.000144,0.0,0.0,0.0,0.000144,0.0,0.0,0.0,0.002304,1
2025/04/11 12:08:33.122243248,1744366113,121838886,hemisphere,2,1,63.44119024133333,10.419906501,43.844,0.000144,0.0,0.0,0.0,0.000144,0.0,0.0,0.0,0.002304,1
2025/04/11 12:08:33.171978834,1744366113,171343739,hemisphere,2,1,63.4411902385,10.419906489666667,43.848,0.000144,0.0,0.0,0.0,0.000144,0.0,0.0,0.0,0.002304,1
2025/04/11 12:08:33.222597727,1744366113,222251287,hemisphere,2,1,63.44119023783333,10.4199064545,43.845,0.000144,0.0,0.0,0.0,0.000144,0.0,0.0,0.0,0.002304,1
2025/04/11 12:08:33.272844223,1744366113,272240993,hemisphere,2,1,63.441190240833336,10.419906459166667,43.847,0.000144,0.0,0.0,0.0,0.000144,0.0,0.0,0.0,0.002304,1
2025/04/11 12:08:33.324647101,1744366113,324201936,hemisphere,2,1,63.44119023983333,10.419906408166666,43.847,0.000144,0.0,0.0,0.0,0.000144,0.0,0.0,0.0,0.002304,1
2025/04/11 12:08:33.375965188,1744366113,374472824,hemisphere,2,1,63.441190250666665,10.419906372833333,43.846000000000004,0.000144,0.0,0.0,0.0,0.000144,0.0,0.0,0.0,0.002304,1
2025/04/11 12:08:33.421917568,1744366113,421442564,hemisphere,2,1,63.441190239,10.419906361,43.842,0.000144,0.0,0.0,0.0,0.000144,0.0,0.0,0.0,0.002304,1
2025/04/11 12:08:33.473701023,1744366113,471033860,hemisphere,2,1,63.441190240833336,10.419906326833333,43.843,0.000144,0.0,0.0,0.0,0.000144,0.0,0.0,0.0,0.002304,1
2025/04/11 12:08:33.523535587,1744366113,521563361,hemisphere,2,1,63.4411902555,10.4199063085,43.845,0.000144,0.0,0.0,0.0,0.000144,0.0,0.0,0.0,0.002304,1
2025/04/11 12:08:33.571501316,1744366113,571143396,hemisphere,2,1,63.44119025083333,10.419906289,43.844,0.000144,0.0,0.0,0.0,0.000144,0.0,0.0,0.0,0.002304,1
2025/04/11 12:08:33.624213865,1744366113,622637553,hemisphere,2,1,63.44119024616667,10.419906235,43.844,0.000144,0.0,0.0,0.0,0.000144,0.0,0.0,0.0,0.002304,1
2025/04/11 12:08:33.673360624,1744366113,671634890,hemisphere,2,1,63.44119026166667,10.419906224833333,43.846000000000004,0.000144,0.0,0.0,0.0,0.000144,0.0,0.0,0.0,0.002304,1
2025/04/11 12:08:33.728310613,1744366113,721196940,hemisphere,2,1,63.44119025333333,10.419906191666666,43.845,0.000144,0.0,0.0,0.0,0.000144,0.0,0.0,0.0,0.002304,1
2025/04/11 12:08:33.771357685,1744366113,770698263,hemisphere,2,1,63.4411902725,10.419906168833334,43.845,0.000144,0.0,0.0,0.0,0.000144,0.0,0.0,0.0,0.002304,1
2025/04/11 12:08:33.823293263,1744366113,822860003,hemisphere,2,1,63.441190256333336,10.419906151,43.844,0.000144,0.0,0.0,0.0,0.000144,0.0,0.0,0.0,0.002304,1
2025/04/11 12:08:33.870991490,1744366113,870401161,hemisphere,2,1,63.441190257,10.4199061235,43.846000000000004,0.000144,0.0,0.0,0.0,0.000144,0.0,0.0,0.0,0.002304,1
2025/04/11 12:08:33.922656174,1744366113,922271104,hemisphere,2,1,63.44119026483333,10.4199060995,43.845,0.000144,0.0,0.0,0.0,0.000144,0.0,0.0,0.0,0.002304,1
2025/04/11 12:08:33.981939896,1744366113,971653059,hemisphere,2,1,63.441190257833334,10.419906062999999,43.844,0.000144,0.0,0.0,0.0,0.000144,0.0,0.0,0.0,0.002304,1
2025/04/11 12:08:34.22659222,1744366114,22080108,hemisphere,2,1,63.441190269833335,10.419906039333334,43.843,0.000144,0.0,0.0,0.0,0.000144,0.0,0.0,0.0,0.002304,1
2025/04/11 12:08:34.71361743,1744366114,71040860,hemisphere,2,1,63.4411902665,10.419906031166667,43.845,0.000144,0.0,0.0,0.0,0.000144,0.0,0.0,0.0,0.002304,1
2025/04/11 12:08:34.128340512,1744366114,121660847,hemisphere,2,1,63.44119027316667,10.419905990833334,43.846000000000004,0.000144,0.0,0.0,0.0,0.000144,0.0,0.0,0.0,0.002304,1
2025/04/11 12:08:34.172049757,1744366114,171145304,hemisphere,2,1,63.441190265,10.4199059685,43.842,0.000144,0.0,0.0,0.0,0.000144,0.0,0.0,0.0,0.002304,1
2025/04/11 12:08:34.221449255,1744366114,220929837,hemisphere,2,1,63.44119027483333,10.419905964333333,43.846000000000004,0.000144,0.0,0.0,0.0,0.000144,0.0,0.0,0.0,0.002304,1
2025/04/11 12:08:34.272732454,1744366114,271088428,hemisphere,2,1,63.4411902685,10.4199059165,43.846000000000004,0.000144,0.0,0.0,0.0,0.000144,0.0,0.0,0.0,0.002304,1
2025/04/11 12:08:34.324134955,1744366114,323732382,hemisphere,2,1,63.4411902675,10.419905897666666,43.845,0.000144,0.0,0.0,0.0,0.000144,0.0,0.0,0.0,0.002304,1
2025/04/11 12:08:34.375274554,1744366114,374287327,hemisphere,2,1,63.441190270166665,10.4199058845,43.843,0.000144,0.0,0.0,0.0,0.000144,0.0,0.0,0.0,0.002304,1
2025/04/11 12:08:34.421812365,1744366114,421456889,hemisphere,2,1,63.4411902755,10.419905801666667,43.848,0.000144,0.0,0.0,0.0,0.000144,0.0,0.0,0.0,0.002304,1
2025/04/11 12:08:34.474278298,1744366114,472292111,hemisphere,2,1,63.441190275333334,10.419905761666667,43.851,0.000144,0.0,0.0,0.0,0.000144,0.0,0.0,0.0,0.002304,1
2025/04/11 12:08:34.521784718,1744366114,521244322,hemisphere,2,1,63.44119027316667,10.419905771833333,43.851,0.000144,0.0,0.0,0.0,0.000144,0.0,0.0,0.0,0.002304,1
2025/04/11 12:08:34.571989774,1744366114,571616751,hemisphere,2,1,63.441190288166666,10.4199057195,43.849000000000004,0.000144,0.0,0.0,0.0,0.000144,0.0,0.0,0.0,0.002304,1
2025/04/11 12:08:34.626346028,1744366114,621247130,hemisphere,2,1,63.441190263833334,10.419905671833334,43.851,0.000144,0.0,0.0,0.0,0.000144,0.0,0.0,0.0,0.002304,1
2025/04/11 12:08:34.671798991,1744366114,671219167,hemisphere,2,1,63.4411902575,10.419905653166667,43.848,0.000144,0.0,0.0,0.0,0.000144,0.0,0.0,0.0,0.002304,1
2025/04/11 12:08:34.722327313,1744366114,720841976,hemisphere,2,1,63.441190274,10.419905628666667,43.852000000000004,0.000144,0.0,0.0,0.0,0.000144,0.0,0.0,0.0,0.002304,1
2025/04/11 12:08:34.772506834,1744366114,771057412,hemisphere,2,1,63.441190256,10.4199056025,43.847,0.000144,0.0,0.0,0.0,0.000144,0.0,0.0,0.0,0.002304,1
2025/04/11 12:08:34.821288708,1744366114,820865486,hemisphere,2,1,63.441190262166664,10.419905579666667,43.848,0.000144,0.0,0.0,0.0,0.000144,0.0,0.0,0.0,0.002304,1
