time,header_stamp_secs,header_stamp_nsecs,header_frame_id,sentence
2025/04/11 12:08:16.79441101,1744366096,78496381,hemisphere,"$GPRMC,100816.05,A,6326.47145720,N,01025.19481833,E,0.04,158.46,110425,4.7,E,D,S*42"
2025/04/11 12:08:16.102977830,1744366096,102674822,hemisphere,"$GPHDT,345.033,T*37"
2025/04/11 12:08:16.122493169,1744366096,122303129,hemisphere,"$GPGGA,100816.10,6326.47145646,N,01025.19481813,E,4,19,0.6,2.903,M,40.935,M,1.1,0415*4A"
2025/04/11 12:08:16.130409649,1744366096,129565386,hemisphere,"$GPRMC,100816.10,A,6326.47145646,N,01025.19481813,E,0.04,275.29,110425,4.7,E,D,S*40"
2025/04/11 12:08:16.153474090,1744366096,153190728,hemisphere,"$GPHDT,345.013,T*35"
2025/04/11 12:08:16.174188653,1744366096,171344692,hemisphere,"$GPGGA,100816.15,6326.47145632,N,01025.19482036,E,4,19,0.6,2.909,M,40.935,M,1.1,0415*4A"
2025/04/11 12:08:16.258433647,1744366096,178578801,hemisphere,"$GPRMC,100816.15,A,6326.47145632,N,01025.19482036,E,0.04,106.86,110425,4.7,E,D,S*48"
2025/04/11 12:08:16.264839931,1744366096,203005962,hemisphere,"$GPHDT,344.999,T*3F"
2025/04/11 12:08:16.267700658,1744366096,221028402,hemisphere,"$GPGGA,100816.20,6326.47145502,N,01025.19481997,E,4,19,0.6,2.907,M,40.935,M,1.2,0415*40"
2025/04/11 12:08:16.272479616,1744366096,228225791,hemisphere,"$GPRMC,100816.20,A,6326.47145502,N,01025.19481997,E,0.04,168.99,110425,4.7,E,D,S*49"
2025/04/11 12:08:16.280077096,1744366096,253224212,hemisphere,"$GPHDT,344.980,T*37"
2025/04/11 12:08:16.282227266,1744366096,271457293,hemisphere,"$GPGGA,100816.25,6326.47145521,N,01025.19482085,E,4,19,0.6,2.908,M,40.935,M,1.2,0415*42"
2025/04/11 12:08:16.283988914,1744366096,278814227,hemisphere,"$GPRMC,100816.25,A,6326.47145521,N,01025.19482085,E,0.04,54.41,110425,4.7,E,D,S*7F"
2025/04/11 12:08:16.304149577,1744366096,302927326,hemisphere,"$GPHDT,344.962,T*3B"
2025/04/11 12:08:16.321408138,1744366096,320407764,hemisphere,"$GPGGA,100816.30,6326.47145494,N,01025.19482061,E,4,19,0.6,2.906,M,40.935,M,1.3,0415*4C"
2025/04/11 12:08:16.328850906,1744366096,327899384,hemisphere,"$GPRMC,100816.30,A,6326.47145494,N,01025.19482061,E,0.04,143.66,110425,4.7,E,D,S*4C"
2025/04/11 12:08:16.355189765,1744366096,352649697,hemisphere,"$GPHDT,344.946,T*3D"
2025/04/11 12:08:16.374865648,1744366096,373661561,hemisphere,"$GPGGA,100816.35,6326.47145444,N,01025.19482106,E,4,19,0.6,2.907,M,40.935,M,1.3,0415*45"
2025/04/11 12:08:16.382727121,1744366096,380924352,hemisphere,"$GPRMC,100816.35,A,6326.47145444,N,01025.19482106,E,0.04,205.10,110425,4.7,E,D,S*44"
2025/04/11 12:08:16.403397086,1744366096,403031157,hemisphere,"$GPHDT,344.930,T*3C"
2025/04/11 12:08:16.422398540,1744366096,421221306,hemisphere,"$GPGGA,100816.40,6326.47145350,N,01025.19482360,E,4,19,0.6,2.902,M,40.935,M,0.4,0415*44"
2025/04/11 12:08:16.428608588,1744366096,428438818,hemisphere,"$GPRMC,100816.40,A,6326.47145350,N,01025.19482360,E,0.04,136.93,110425,4.7,E,D,S*4E"
2025/04/11 12:08:16.452929863,1744366096,452721939,hemisphere,"$GPHDT,344.913,T*3D"
2025/04/11 12:08:16.476706984,1744366096,469805929,hemisphere,"$GPGGA,100816.45,6326.47145264,N,01025.19482343,E,4,19,0.6,2.899,M,40.935,M,0.4,0415*45"
2025/04/11 12:08:16.477619813,1744366096,477436666,hemisphere,"$GPRMC,100816.45,A,6326.47145264,N,01025.19482343,E,0.04,237.88,110425,4.7,E,D,S*44"
2025/04/11 12:08:16.518022191,1744366096,515761668,hemisphere,"$GPHDT,344.897,T*30"
2025/04/11 12:08:16.525868191,1744366096,522288024,hemisphere,"$GPGGA,100816.50,6326.47145338,N,01025.19482359,E,4,19,0.6,2.901,M,40.935,M,0.5,0415*43"
2025/04/11 12:08:16.530909521,1744366096,528473993,hemisphere,"$GPRMC,100816.50,A,6326.47145338,N,01025.19482359,E,0.03,94.03,110425,4.7,E,D,S*7C"
2025/04/11 12:08:16.556055643,1744366096,552869583,hemisphere,"$GPHDT,344.883,T*35"
2025/04/11 12:08:16.579077740,1744366096,571041522,hemisphere,"$GPGGA,100816.55,6326.47145201,N,01025.19482508,E,4,19,0.6,2.901,M,40.935,M,0.5,0415*4F"
2025/04/11 12:08:16.582402948,1744366096,577590501,hemisphere,"$GPRMC,100816.55,A,6326.47145201,N,01025.19482508,E,0.04,145.54,110425,4.7,E,D,S*48"
2025/04/11 12:08:16.605403181,1744366096,603310251,hemisphere,"$GPHDT,344.870,T*39"
2025/04/11 12:08:16.629012818,1744366096,620795175,hemisphere,"$GPGGA,100816.60,6326.47145154,N,01025.19482676,E,4,19,0.6,2.903,M,40.935,M,0.6,0415*41"
2025/04/11 12:08:16.632532624,1744366096,628001707,hemisphere,"$GPRMC,100816.60,A,6326.47145154,N,01025.19482676,E,0.04,186.21,110425,4.7,E,D,S*4A"
2025/04/11 12:08:16.658807454,1744366096,653552547,hemisphere,"$GPHDT,344.860,T*38"
2025/04/11 12:08:16.678492317,1744366096,671624313,hemisphere,"$GPGGA,100816.65,6326.47145145,N,01025.19482810,E,4,19,0.6,2.902,M,40.935,M,0.6,0415*4B"
2025/04/11 12:08:16.683858436,1744366096,677708416,hemisphere,"$GPRMC,100816.65,A,6326.47145145,N,01025.19482810,E,0.04,134.20,110425,4.7,E,D,S*49"
2025/04/11 12:08:16.709593922,1744366096,707828868,hemisphere,"$GPHDT,344.849,T*33"
2025/04/11 12:08:16.721679355,1744366096,721305596,hemisphere,"$GPGGA,100816.70,6326.47145040,N,01025.19482928,E,4,19,0.6,2.903,M,40.935,M,0.7,0415*41"
2025/04/11 12:08:16.727636882,1744366096,727421630,hemisphere,"$GPRMC,100816.70,A,6326.47145040,N,01025.19482928,E,0.04,155.71,110425,4.7,E,D,S*40"
2025/04/11 12:08:16.753350955,1744366096,753103695,hemisphere,"$GPHDT,344.838,T*35"
2025/04/11 12:08:16.778833927,1744366096,775983274,hemisphere,"$GPGGA,100816.75,6326.47144964,N,01025.19482886,E,4,19,0.6,2.903,M,40.935,M,0.7,0415*4F"
2025/04/11 12:08:16.788094672,1744366096,787243554,hemisphere,"$GPRMC,100816.75,A,6326.47144964,N,01025.19482886,E,0.04,204.74,110425,4.7,E,D,S*4C"
2025/04/11 12:08:16.803101939,1744366096,802820858,hemisphere,"$GPHDT,344.823,T*3F"
2025/04/11 12:08:16.890218376,1744366096,821464550,hemisphere,"$GPGGA,100816.80,6326.47144981,N,01025.19482886,E,4,19,0.6,2.903,M,40.935,M,0.8,0415*41"
2025/04/11 12:08:16.890630579,1744366096,827578949,hemisphere,"$GPRMC,100816.80,A,6326.47144981,N,01025.19482886,E,0.04,101.51,110425,4.7,E,D,S*4C"
2025/04/11 12:08:16.892165524,1744366096,854395263,hemisphere,"$GPHDT,344.815,T*3A"
2025/04/11 12:08:16.903208352,1744366096,902923604,hemisphere,"$GPHDT,344.803,T*3D"
2025/04/11 12:08:16.921651499,1744366096,921390206,hemisphere,"$GPGGA,100816.90,6326.47144896,N,01025.19483086,E,4,19,0.6,2.904,M,40.935,M,0.9,0415*48"
2025/04/11 12:08:16.927792724,1744366096,927581603,hemisphere,"$GPRMC,100816.90,A,6326.47144896,N,01025.19483086,E,0.04,163.20,110425,4.7,E,D,S*41"
2025/04/11 12:08:16.952866678,1744366096,952585917,hemisphere,"$GPHDT,344.791,T*39"
2025/04/11 12:08:16.970689113,1744366096,970455824,hemisphere,"$GPGGA,100816.95,6326.47144796,N,01025.19483153,E,4,19,0.6,2.904,M,40.935,M,0.9,0415*4B"
2025/04/11 12:08:16.978945836,1744366096,978252595,hemisphere,"$GPRMC,100816.95,A,6326.47144796,N,01025.19483153,E,0.04,120.35,110425,4.7,E,D,S*41"
2025/04/11 12:08:17.11556813,1744366097,3077257,hemisphere,"$GPHDT,344.782,T*3B"
2025/04/11 12:08:17.27307580,1744366097,26552719,hemisphere,"$GPGGA,100817.00,6326.47144739,N,01025.19483230,E,4,19,0.6,2.902,M,40.935,M,1.0,0415*4B"
2025/04/11 12:08:17.38494484,1744366097,36217043,hemisphere,"$GPRMC,100817.00,A,6326.47144739,N,01025.19483230,E,0.04,164.91,110425,4.7,E,D,S*41"
2025/04/11 12:08:17.53169804,1744366097,52787326,hemisphere,"$GPHDT,344.770,T*36"
2025/04/11 12:08:17.96873840,1744366097,70914525,hemisphere,"$GPGGA,100817.05,6326.47144702,N,01025.19483331,E,4,19,0.6,2.900,M,40.935,M,1.0,0415*44"
2025/04/11 12:08:17.98101945,1744366097,78865061,hemisphere,"$GPRMC,100817.05,A,6326.47144702,N,01025.19483331,E,0.04,198.91,110425,4.7,E,D,S*4F"
2025/04/11 12:08:17.125379420,1744366097,103451806,hemisphere,"$GPHDT,344.763,T*34"
2025/04/11 12:08:17.129193533,1744366097,122050734,hemisphere,"$GPGGA,100817.10,6326.47144618,N,01025.19483339,E,4,19,0.6,2.903,M,40.935,M,1.1,0415*40"
2025/04/11 12:08:17.133539898,1744366097,129420275,hemisphere,"$GPRMC,100817.10,A,6326.47144618,N,01025.19483339,E,0.04,147.50,110425,4.7,E,D,S*46"
2025/04/11 12:08:17.153211557,1744366097,152875138,hemisphere,"$GPHDT,344.753,T*37"
2025/04/11 12:08:17.172404582,1744366097,171101755,hemisphere,"$GPGGA,100817.15,6326.47144627,N,01025.19483420,E,4,19,0.6,2.904,M,40.935,M,1.1,0415*41"
2025/04/11 12:08:17.179249990,1744366097,178857080,hemisphere,"$GPRMC,100817.15,A,6326.47144627,N,01025.19483420,E,0.04,345.63,110425,4.7,E,D,S*40"
2025/04/11 12:08:17.203463889,1744366097,203247657,hemisphere,"$GPHDT,344.746,T*33"
2025/04/11 12:08:17.224002701,1744366097,221923866,hemisphere,"$GPGGA,100817.20,6326.47144527,N,01025.19483616,E,4,19,0.6,2.903,M,40.935,M,1.2,0415*47"
2025/04/11 12:08:17.228288468,1744366097,227993078,hemisphere,"$GPRMC,100817.20,A,6326.47144527,N,01025.19483616,E,0.04,158.90,110425,4.7,E,D,S*40"
2025/04/11 12:08:17.299904125,1744366097,252962396,hemisphere,"$GPHDT,344.740,T*35"
2025/04/11 12:08:17.300056435,1744366097,270471848,hemisphere,"$GPGGA,100817.25,6326.47144498,N,01025.19483432,E,4,19,0.6,2.902,M,40.935,M,1.2,0415*42"
2025/04/11 12:08:17.300124700,1744366097,277737580,hemisphere,"$GPRMC,100817.25,A,6326.47144498,N,01025.19483432,E,0.04,152.33,110425,4.7,E,D,S*47"
2025/04/11 12:08:17.304207208,1744366097,303369093,hemisphere,"$GPHDT,344.733,T*31"
2025/04/11 12:08:17.325977568,1744366097,321589487,hemisphere,"$GPGGA,100817.30,6326.47144398,N,01025.19483531,E,4,19,0.6,2.901,M,40.935,M,1.3,0415*41"
2025/04/11 12:08:17.331413434,1744366097,329323705,hemisphere,"$GPRMC,100817.30,A,6326.47144398,N,01025.19483531,E,0.04,189.89,110425,4.7,E,D,S*41"
2025/04/11 12:08:17.354018910,1744366097,353584704,hemisphere,"$GPHDT,344.728,T*3B"
2025/04/11 12:08:17.383504544,1744366097,374394803,hemisphere,"$GPGGA,100817.35,6326.47144332,N,01025.19483670,E,4,19,0.6,2.906,M,40.935,M,1.3,0415*45"
2025/04/11 12:08:17.383618091,1744366097,381484939,hemisphere,"$GPRMC,100817.35,A,6326.47144332,N,01025.19483670,E,0.04,166.15,110425,4.7,E,D,S*46"
2025/04/11 12:08:17.403294281,1744366097,402766215,hemisphere,"$GPHDT,344.729,T*3A"
2025/04/11 12:08:17.422168335,1744366097,421102856,hemisphere,"$GPGGA,100817.40,6326.47144352,N,01025.19483456,E,4,19,0.6,2.904,M,40.935,M,0.4,0415*43"
2025/04/11 12:08:17.429601080,1744366097,429343744,hemisphere,"$GPRMC,100817.40,A,6326.47144352,N,01025.19483456,E,0.04,181.52,110425,4.7,E,D,S*4E"
2025/04/11 12:08:17.458177343,1744366097,457621646,hemisphere,"$GPHDT,344.723,T*30"
2025/04/11 12:08:17.471679276,1744366097,471396436,hemisphere,"$GPGGA,100817.45,6326.47144323,N,01025.19483619,E,4,19,0.6,2.900,M,40.935,M,0.4,0415*4D"
2025/04/11 12:08:17.479132114,1744366097,478868607,hemisphere,"$GPRMC,100817.45,A,6326.47144323,N,01025.19483619,E,0.04,102.18,110425,4.7,E,D,S*41"
2025/04/11 12:08:17.507044359,1744366097,502903288,hemisphere,"$GPHDT,344.719,T*39"
2025/04/11 12:08:17.527752862,1744366097,521110295,hemisphere,"$GPGGA,100817.50,6326.47144276,N,01025.19483587,E,4,19,0.6,2.905,M,40.935,M,0.5,0415*48"
2025/04/11 12:08:17.529002261,1744366097,528337781,hemisphere,"$GPRMC,100817.50,A,6326.47144276,N,01025.19483587,E,0.04,215.52,110425,4.7,E,D,S*4B"
2025/04/11 12:08:17.552918636,1744366097,552587595,hemisphere,"$GPHDT,344.718,T*38"
2025/04/11 12:08:17.613442650,1744366097,575000807,hemisphere,"$GPGGA,100817.55,6326.47144210,N,01025.19483637,E,4,19,0.6,2.906,M,40.935,M,0.5,0415*46"
2025/04/11 12:08:17.616936295,1744366097,578190413,hemisphere,"$GPRMC,100817.55,A,6326.47144210,N,01025.19483637,E,0.04,157.12,110425,4.7,E,D,S*47"
2025/04/11 12:08:17.634545524,1744366097,602975617,hemisphere,"$GPHDT,344.719,T*39"
2025/04/11 12:08:17.653802028,1744366097,621454377,hemisphere,"$GPGGA,100817.60,6326.47144087,N,01025.19483731,E,4,19,0.6,2.903,M,40.935,M,0.6,0415*4D"
2025/04/11 12:08:17.653905622,1744366097,628442760,hemisphere,"$GPRMC,100817.60,A,6326.47144087,N,01025.19483731,E,0.05,168.78,110425,4.7,E,D,S*4B"
2025/04/11 12:08:17.666923176,1744366097,653403107,hemisphere,"$GPHDT,344.717,T*37"
2025/04/11 12:08:17.683035922,1744366097,670928500,hemisphere,"$GPGGA,100817.65,6326.47144101,N,01025.19483871,E,4,19,0.6,2.905,M,40.935,M,0.6,0415*4A"
2025/04/11 12:08:17.684745664,1744366097,678313035,hemisphere,"$GPRMC,100817.65,A,6326.47144101,N,01025.19483871,E,0.04,90.08,110425,4.7,E,D,S*7A"
2025/04/11 12:08:17.728297776,1744366097,703113926,hemisphere,"$GPHDT,344.715,T*35"
2025/04/11 12:08:17.741281162,1744366097,721365769,hemisphere,"$GPGGA,100817.70,6326.47144066,N,01025.19483845,E,4,19,0.6,2.905,M,40.935,M,0.7,0415*48"
2025/04/11 12:08:17.743567278,1744366097,728727525,hemisphere,"$GPRMC,100817.70,A,6326.47144066,N,01025.19483845,E,0.04,229.20,110425,4.7,E,D,S*43"
2025/04/11 12:08:17.814810206,1744366097,752930815,hemisphere,"$GPHDT,344.718,T*38"
2025/04/11 12:08:17.844875269,1744366097,773336375,hemisphere,"$GPGGA,100817.75,6326.47143950,N,01025.19483863,E,4,19,0.6,2.900,M,40.935,M,0.7,0415*47"
2025/04/11 12:08:17.846372863,1744366097,779745459,hemisphere,"$GPRMC,100817.75,A,6326.47143950,N,01025.19483863,E,0.04,176.62,110425,4.7,E,D,S*46"
2025/04/11 12:08:17.855466089,1744366097,806931389,hemisphere,"$GPHDT,344.719,T*39"
2025/04/11 12:08:17.875407295,1744366097,826641651,hemisphere,"$GPGGA,100817.80,6326.47143910,N,01025.19483882,E,4,19,0.6,2.906,M,40.935,M,0.8,0415*4F"
2025/04/11 12:08:17.905512399,1744366097,838540881,hemisphere,"$GPRMC,100817.80,A,6326.47143910,N,01025.19483882,E,0.04,201.57,110425,4.7,E,D,S*42"
2025/04/11 12:08:17.905646808,1744366097,856791892,hemisphere,"$GPHDT,344.720,T*33"
2025/04/11 12:08:17.905705384,1744366097,872155025,hemisphere,"$GPGGA,100817.85,6326.47143924,N,01025.19483862,E,4,19,0.6,2.902,M,40.935,M,0.8,0415*47"
2025/04/11 12:08:17.905748355,1744366097,883122422,hemisphere,"$GPRMC,100817.85,A,6326.47143924,N,01025.19483862,E,0.04,142.34,110425,4.7,E,D,S*4F"
2025/04/11 12:08:17.925769970,1744366097,902902869,hemisphere,"$GPHDT,344.724,T*37"
2025/04/11 12:08:17.935884713,1744366097,920503886,hemisphere,"$GPGGA,100817.90,6326.47143816,N,01025.19483945,E,4,19,0.6,2.903,M,40.935,M,0.9,0415*47"
2025/04/11 12:08:17.940141145,1744366097,928836454,hemisphere,"$GPRMC,100817.90,A,6326.47143816,N,01025.19483945,E,0.04,159.83,110425,4.7,E,D,S*49"
2025/04/11 12:08:17.966260374,1744366097,953038235,hemisphere,"$GPHDT,344.728,T*3B"
2025/04/11 12:08:17.980742026,1744366097,970584041,hemisphere,"$GPGGA,100817.95,6326.47143743,N,01025.19483916,E,4,19,0.6,2.907,M,40.935,M,0.9,0415*4F"
2025/04/11 12:08:17.986810841,1744366097,980082306,hemisphere,"$GPRMC,100817.95,A,6326.47143743,N,01025.19483916,E,0.04,174.57,110425,4.7,E,D,S*43"
2025/04/11 12:08:18.11288253,1744366098,5610324,hemisphere,"$GPHDT,344.729,T*3A"
2025/04/11 12:08:18.43597192,1744366098,20995478,hemisphere,"$GPGGA,100818.00,6326.47143683,N,01025.19483843,E,4,19,0.6,2.904,M,40.935,M,1.0,0415*4B"
2025/04/11 12:08:18.44837446,1744366098,28295115,hemisphere,"$GPRMC,100818.00,A,6326.47143683,N,01025.19483843,E,0.04,231.74,110425,4.7,E,D,S*4F"
2025/04/11 12:08:18.75705958,1744366098,53607238,hemisphere,"$GPHDT,344.730,T*32"
2025/04/11 12:08:18.102717224,1744366098,70949773,hemisphere,"$GPGGA,100818.05,6326.47143684,N,01025.19483960,E,4,19,0.6,2.907,M,40.935,M,1.0,0415*4A"
2025/04/11 12:08:18.111052868,1744366098,79034840,hemisphere,"$GPRMC,100818.05,A,6326.47143684,N,01025.19483960,E,0.04,162.94,110425,4.7,E,D,S*46"
2025/04/11 12:08:18.137540823,1744366098,102919127,hemisphere,"$GPHDT,344.736,T*34"
2025/04/11 12:08:18.173292834,1744366098,121675423,hemisphere,"$GPGGA,100818.10,6326.47143579,N,01025.19483904,E,4,19,0.6,2.906,M,40.935,M,1.1,0415*4D"
2025/04/11 12:08:18.179206707,1744366098,128994769,hemisphere,"$GPRMC,100818.10,A,6326.47143579,N,01025.19483904,E,0.04,181.13,110425,4.7,E,D,S*43"
2025/04/11 12:08:18.179456361,1744366098,152584507,hemisphere,"$GPHDT,344.736,T*34"
2025/04/11 12:08:18.179539644,1744366098,170804500,hemisphere,"$GPGGA,100818.15,6326.47143539,N,01025.19483936,E,4,19,0.6,2.905,M,40.935,M,1.1,0415*4E"
2025/04/11 12:08:18.179611175,1744366098,178050273,hemisphere,"$GPRMC,100818.15,A,6326.47143539,N,01025.19483936,E,0.04,116.87,110425,4.7,E,D,S*40"
2025/04/11 12:08:18.213013675,1744366098,203105582,hemisphere,"$GPHDT,344.743,T*36"
2025/04/11 12:08:18.226661389,1744366098,220520844,hemisphere,"$GPGGA,100818.20,6326.47143458,N,01025.19484104,E,4,19,0.6,2.905,M,40.935,M,1.2,0415*43"
2025/04/11 12:08:18.232156029,1744366098,227756717,hemisphere,"$GPRMC,100818.20,A,6326.47143458,N,01025.19484104,E,0.04,161.23,110425,4.7,E,D,S*40"
2025/04/11 12:08:18.254152653,1744366098,252714371,hemisphere,"$GPHDT,344.745,T*30"
2025/04/11 12:08:18.272830150,1744366098,271041295,hemisphere,"$GPGGA,100818.25,6326.47143494,N,01025.19483889,E,4,19,0.6,2.906,M,40.935,M,1.2,0415*4E"
2025/04/11 12:08:18.292274937,1744366098,278168926,hemisphere,"$GPRMC,100818.25,A,6326.47143494,N,01025.19483889,E,0.04,281.98,110425,4.7,E,D,S*43"
2025/04/11 12:08:18.320936988,1744366098,305211206,hemisphere,"$GPHDT,344.750,T*34"
2025/04/11 12:08:18.326734197,1744366098,320606270,hemisphere,"$GPGGA,100818.30,6326.47143383,N,01025.19483964,E,4,19,0.6,2.907,M,40.935,M,1.3,0415*49"
2025/04/11 12:08:18.330142945,1744366098,327924119,hemisphere,"$GPRMC,100818.30,A,6326.47143383,N,01025.19483964,E,0.04,150.06,110425,4.7,E,D,S*4C"
2025/04/11 12:08:18.411695810,1744366098,354145440,hemisphere,"$GPHDT,344.756,T*32"
2025/04/11 12:08:18.434193332,1744366098,374614042,hemisphere,"$GPGGA,100818.35,6326.47143283,N,01025.19483984,E,4,19,0.6,2.903,M,40.935,M,1.3,0415*47"
2025/04/11 12:08:18.454431605,1744366098,381238061,hemisphere,"$GPRMC,100818.35,A,6326.47143283,N,01025.19483984,E,0.04,215.83,110425,4.7,E,D,S*49"
2025/04/11 12:08:18.498878720,1744366098,403257354,hemisphere,"$GPHDT,344.761,T*36"
2025/04/11 12:08:18.544274688,1744366098,421517120,hemisphere,"$GPGGA,100818.40,6326.47143374,N,01025.19483700,E,4,19,0.6,2.903,M,40.935,M,0.4,0415*48"
2025/04/11 12:08:18.550127478,1744366098,429770143,hemisphere,"$GPRMC,100818.40,A,6326.47143374,N,01025.19483700,E,0.04,192.25,110425,4.7,E,D,S*40"
2025/04/11 12:08:18.563388488,1744366098,453107110,hemisphere,"$GPHDT,344.767,T*30"
2025/04/11 12:08:18.591846289,1744366098,521914791,hemisphere,"$GPGGA,100818.50,6326.47143274,N,01025.19483770,E,4,19,0.6,2.903,M,40.935,M,0.5,0415*4E"
2025/04/11 12:08:18.596880954,1744366098,527457581,hemisphere,"$GPRMC,100818.50,A,6326.47143274,N,01025.19483770,E,0.04,244.02,110425,4.7,E,D,S*4A"
2025/04/11 12:08:18.614210663,1744366098,553062801,hemisphere,"$GPHDT,344.779,T*3F"
2025/04/11 12:08:18.621282155,1744366098,572811913,hemisphere,"$GPGGA,100818.55,6326.47143223,N,01025.19483778,E,4,19,0.6,2.907,M,40.935,M,0.5,0415*45"
2025/04/11 12:08:18.628513143,1744366098,577935420,hemisphere,"$GPRMC,100818.55,A,6326.47143223,N,01025.19483778,E,0.04,143.60,110425,4.7,E,D,S*45"
2025/04/11 12:08:18.687357577,1744366098,602983890,hemisphere,"$GPHDT,344.788,T*31"
2025/04/11 12:08:18.775010050,1744366098,621012377,hemisphere,"$GPGGA,100818.60,6326.47143136,N,01025.19484139,E,4,19,0.6,2.909,M,40.935,M,0.6,0415*4D"
2025/04/11 12:08:18.798133914,1744366098,646128639,hemisphere,"$GPRMC,100818.60,A,6326.47143136,N,01025.19484139,E,0.04,140.19,110425,4.7,E,D,S*4D"
2025/04/11 12:08:18.885066513,1744366098,694915981,hemisphere,"$GPGGA,100818.65,6326.47143026,N,01025.19484134,E,4,19,0.6,2.908,M,40.935,M,0.6,0415*44"
2025/04/11 12:08:18.908252678,1744366098,706933325,hemisphere,"$GPRMC,100818.65,A,6326.47143026,N,01025.19484134,E,0.04,174.76,110425,4.7,E,D,S*4B"
2025/04/11 12:08:18.910641085,1744366098,774460592,hemisphere,"$GPRMC,100818.70,A,6326.47143104,N,01025.19484047,E,0.03,317.69,110425,4.7,E,D,S*45"
2025/04/11 12:08:18.912042991,1744366098,792051800,hemisphere,"$GPGGA,100818.75,6326.47142939,N,01025.19484207,E,4,19,0.6,2.907,M,40.935,M,0.7,0415*4E"
2025/04/11 12:08:18.928249100,1744366098,816455548,hemisphere,"$GPRMC,100818.75,A,6326.47142939,N,01025.19484207,E,0.04,162.35,110425,4.7,E,D,S*4F"
2025/04/11 12:08:18.945953616,1744366098,864378969,hemisphere,"$GPHDT,344.830,T*3D"
2025/04/11 12:08:18.947516970,1744366098,872277525,hemisphere,"$GPGGA,100818.85,6326.47142887,N,01025.19484188,E,4,19,0.6,2.909,M,40.935,M,0.8,0415*40"
2025/04/11 12:08:18.954699805,1744366098,886486801,hemisphere,"$GPRMC,100818.85,A,6326.47142887,N,01025.19484188,E,0.03,255.39,110425,4.7,E,D,S*4C"
2025/04/11 12:08:19.6145934,1744366098,933450307,hemisphere,"$GPGGA,100818.90,6326.47142909,N,01025.19484249,E,4,19,0.6,2.907,M,40.935,M,0.9,0415*42"
2025/04/11 12:08:19.49339810,1744366098,935608709,hemisphere,"$GPRMC,100818.90,A,6326.47142909,N,01025.19484249,E,0.03,125.86,110425,4.7,E,D,S*41"
2025/04/11 12:08:19.49418886,1744366098,955657322,hemisphere,"$GPHDT,344.845,T*3F"
2025/04/11 12:08:19.49463592,1744366098,973988496,hemisphere,"$GPGGA,100818.95,6326.47142765,N,01025.19484239,E,4,19,0.6,2.907,M,40.935,M,0.9,0415*44"
2025/04/11 12:08:19.51939167,1744366098,988036319,hemisphere,"$GPRMC,100818.95,A,6326.47142765,N,01025.19484239,E,0.04,159.72,110425,4.7,E,D,S*40"
2025/04/11 12:08:19.57177518,1744366099,3514357,hemisphere,"$GPHDT,344.859,T*32"
2025/04/11 12:08:19.83111073,1744366099,53002162,hemisphere,"$GPHDT,344.867,T*3F"
2025/04/11 12:08:19.137417095,1744366099,75151440,hemisphere,"$GPGGA,100819.05,6326.47142748,N,01025.19484228,E,4,19,0.6,2.910,M,40.935,M,1.0,0415*4D"
2025/04/11 12:08:19.137510796,1744366099,78954010,hemisphere,"$GPRMC,100819.05,A,6326.47142748,N,01025.19484228,E,0.03,122.54,110425,4.7,E,D,S*48"
2025/04/11 12:08:19.150345335,1744366099,106594109,hemisphere,"$GPHDT,344.879,T*30"
2025/04/11 12:08:19.162556067,1744366099,122315459,hemisphere,"$GPGGA,100819.10,6326.47142594,N,01025.19484205,E,4,19,0.6,2.906,M,40.935,M,1.1,0415*43"
2025/04/11 12:08:19.164860534,1744366099,129064467,hemisphere,"$GPRMC,100819.10,A,6326.47142594,N,01025.19484205,E,0.03,172.81,110425,4.7,E,D,S*4D"
2025/04/11 12:08:19.174952420,1744366099,154140164,hemisphere,"$GPHDT,344.891,T*36"
2025/04/11 12:08:19.194824266,1744366099,173340188,hemisphere,"$GPGGA,100819.15,6326.47142567,N,01025.19484193,E,4,19,0.6,2.911,M,40.935,M,1.1,0415*40"
2025/04/11 12:08:19.211958635,1744366099,179002778,hemisphere,"$GPRMC,100819.15,A,6326.47142567,N,01025.19484193,E,0.04,194.71,110425,4.7,E,D,S*48"
2025/04/11 12:08:19.224978345,1744366099,203463232,hemisphere,"$GPHDT,344.903,T*3C"
2025/04/11 12:08:19.232343624,1744366099,221364824,hemisphere,"$GPGGA,100819.20,6326.47142608,N,01025.19484210,E,4,19,0.6,2.910,M,40.935,M,1.2,0415*46"
2025/04/11 12:08:19.240531701,1744366099,227474065,hemisphere,"$GPRMC,100819.20,A,6326.47142608,N,01025.19484210,E,0.03,101.04,110425,4.7,E,D,S*45"
2025/04/11 12:08:19.260965432,1744366099,253480708,hemisphere,"$GPHDT,344.919,T*37"
2025/04/11 12:08:19.291152369,1744366099,270705925,hemisphere,"$GPGGA,100819.25,6326.47142517,N,01025.19484220,E,4,19,0.6,2.907,M,40.935,M,1.2,0415*4B"
2025/04/11 12:08:19.292975681,1744366099,277902409,hemisphere,"$GPRMC,100819.25,A,6326.47142517,N,01025.19484220,E,0.04,200.83,110425,4.7,E,D,S*44"
2025/04/11 12:08:19.306385960,1744366099,303718211,hemisphere,"$GPHDT,344.932,T*3E"
2025/04/11 12:08:19.322148118,1744366099,321849954,hemisphere,"$GPGGA,100819.30,6326.47142451,N,01025.19484208,E,4,19,0.6,2.912,M,40.935,M,1.3,0415*43"
2025/04/11 12:08:19.328576838,1744366099,328309989,hemisphere,"$GPRMC,100819.30,A,6326.47142451,N,01025.19484208,E,0.03,144.81,110425,4.7,E,D,S*4F"
2025/04/11 12:08:19.371532419,1744366099,353350903,hemisphere,"$GPHDT,344.943,T*38"
2025/04/11 12:08:19.374454564,1744366099,374171187,hemisphere,"$GPGGA,100819.35,6326.47142456,N,01025.19484062,E,4,19,0.6,2.910,M,40.935,M,1.3,0415*4D"
2025/04/11 12:08:19.398091215,1744366099,381578558,hemisphere,"$GPRMC,100819.35,A,6326.47142456,N,01025.19484062,E,0.03,270.11,110425,4.7,E,D,S*4E"
2025/04/11 12:08:19.412285481,1744366099,402956990,hemisphere,"$GPHDT,344.961,T*38"
2025/04/11 12:08:19.466161855,1744366099,421183099,hemisphere,"$GPGGA,100819.40,6326.47142295,N,01025.19484287,E,4,19,0.6,2.910,M,40.935,M,0.4,0415*49"
2025/04/11 12:08:19.474372985,1744366099,428418624,hemisphere,"$GPRMC,100819.40,A,6326.47142295,N,01025.19484287,E,0.03,168.63,110425,4.7,E,D,S*43"
2025/04/11 12:08:19.477404823,1744366099,452680230,hemisphere,"$GPHDT,344.975,T*3D"
2025/04/11 12:08:19.479782081,1744366099,472080468,hemisphere,"$GPGGA,100819.45,6326.47142377,N,01025.19484245,E,4,19,0.6,2.909,M,40.935,M,0.4,0415*47"
2025/04/11 12:08:19.479908366,1744366099,478149556,hemisphere,"$GPRMC,100819.45,A,6326.47142377,N,01025.19484245,E,0.03,314.15,110425,4.7,E,D,S*4D"
2025/04/11 12:08:19.504164151,1744366099,503109600,hemisphere,"$GPHDT,344.990,T*36"
2025/04/11 12:08:19.524697493,1744366099,521313959,hemisphere,"$GPGGA,100819.50,6326.47142198,N,01025.19484275,E,4,19,0.6,2.909,M,40.935,M,0.5,0415*42"
2025/04/11 12:08:19.593384786,1744366099,529107882,hemisphere,"$GPRMC,100819.50,A,6326.47142198,N,01025.19484275,E,0.03,191.27,110425,4.7,E,D,S*47"
2025/04/11 12:08:19.593498051,1744366099,552866981,hemisphere,"$GPHDT,345.003,T*34"
2025/04/11 12:08:19.629257927,1744366099,570683567,hemisphere,"$GPGGA,100819.55,6326.47142269,N,01025.19484169,E,4,19,0.6,2.909,M,40.935,M,0.5,0415*44"
2025/04/11 12:08:19.634779944,1744366099,578371296,hemisphere,"$GPRMC,100819.55,A,6326.47142269,N,01025.19484169,E,0.03,240.09,110425,4.7,E,D,S*42"
2025/04/11 12:08:19.648601223,1744366099,603196457,hemisphere,"$GPHDT,345.017,T*31"
2025/04/11 12:08:19.663333565,1744366099,621884219,hemisphere,"$GPGGA,100819.60,6326.47142238,N,01025.19484024,E,4,19,0.6,2.908,M,40.935,M,0.6,0415*4C"
2025/04/11 12:08:19.667797907,1744366099,628658940,hemisphere,"$GPRMC,100819.60,A,6326.47142238,N,01025.19484024,E,0.03,251.44,110425,4.7,E,D,S*41"
2025/04/11 12:08:19.678295844,1744366099,653253268,hemisphere,"$GPHDT,345.031,T*35"
2025/04/11 12:08:19.687918728,1744366099,672677146,hemisphere,"$GPGGA,100819.65,6326.47142230,N,01025.19484143,E,4,19,0.6,2.911,M,40.935,M,0.6,0415*49"
2025/04/11 12:08:19.690157539,1744366099,678078929,hemisphere,"$GPRMC,100819.65,A,6326.47142230,N,01025.19484143,E,0.03,181.19,110425,4.7,E,D,S*4A"
2025/04/11 12:08:19.703309617,1744366099,702827994,hemisphere,"$GPHDT,345.047,T*34"
2025/04/11 12:08:19.726270919,1744366099,720155291,hemisphere,"$GPGGA,100819.70,6326.47142155,N,01025.19483958,E,4,19,0.6,2.908,M,40.935,M,0.7,0415*41"
2025/04/11 12:08:19.729173934,1744366099,727357996,hemisphere,"$GPRMC,100819.70,A,6326.47142155,N,01025.19483958,E,0.03,250.25,110425,4.7,E,D,S*4B"
2025/04/11 12:08:19.759628030,1744366099,753057115,hemisphere,"$GPHDT,345.059,T*3B"
2025/04/11 12:08:19.772471022,1744366099,770835282,hemisphere,"$GPGGA,100819.75,6326.47142153,N,01025.19484060,E,4,19,0.6,2.907,M,40.935,M,0.7,0415*48"
2025/04/11 12:08:19.783069685,1744366099,780898400,hemisphere,"$GPRMC,100819.75,A,6326.47142153,N,01025.19484060,E,0.02,88.63,110425,4.7,E,D,S*79"
2025/04/11 12:08:19.805278744,1744366099,802730752,hemisphere,"$GPHDT,345.075,T*35"
2025/04/11 12:08:19.829998987,1744366099,820231442,hemisphere,"$GPGGA,100819.80,6326.47142144,N,01025.19483908,E,4,19,0.6,2.911,M,40.935,M,0.8,0415*4C"
2025/04/11 12:08:19.832285676,1744366099,827423134,hemisphere,"$GPRMC,100819.80,A,6326.47142144,N,01025.19483908,E,0.03,203.39,110425,4.7,E,D,S*4A"
2025/04/11 12:08:19.853473807,1744366099,853184188,hemisphere,"$GPHDT,345.089,T*36"
2025/04/11 12:08:19.871325068,1744366099,870652965,hemisphere,"$GPGGA,100819.85,6326.47142111,N,01025.19483909,E,4,19,0.6,2.909,M,40.935,M,0.8,0415*41"
2025/04/11 12:08:19.878144788,1744366099,877908292,hemisphere,"$GPRMC,100819.85,A,6326.47142111,N,01025.19483909,E,0.03,240.18,110425,4.7,E,D,S*4A"
2025/04/11 12:08:19.903130142,1744366099,902812953,hemisphere,"$GPHDT,345.106,T*30"
2025/04/11 12:08:19.921768791,1744366099,921477954,hemisphere,"$GPGGA,100819.90,6326.47142087,N,01025.19483814,E,4,19,0.6,2.910,M,40.935,M,0.9,0415*4F"
2025/04/11 12:08:19.927918498,1744366099,927611618,hemisphere,"$GPRMC,100819.90,A,6326.47142087,N,01025.19483814,E,0.03,232.52,110425,4.7,E,D,S*46"
2025/04/11 12:08:19.961316480,1744366099,953422037,hemisphere,"$GPHDT,345.119,T*3E"
2025/04/11 12:08:19.974885982,1744366099,973357420,hemisphere,"$GPGGA,100819.95,6326.47142049,N,01025.19483713,E,4,19,0.6,2.907,M,40.935,M,0.9,0415*46"
2025/04/11 12:08:19.978219012,1744366099,977960999,hemisphere,"$GPRMC,100819.95,A,6326.47142049,N,01025.19483713,E,0.03,258.65,110425,4.7,E,D,S*41"
2025/04/11 12:08:20.4515420,1744366100,3225672,hemisphere,"$GPHDT,345.140,T*32"
2025/04/11 12:08:20.25772476,1744366100,23041158,hemisphere,"$GPGGA,100820.00,6326.47141899,N,01025.19483629,E,4,19,0.6,2.911,M,40.935,M,1.0,0415*41"
2025/04/11 12:08:20.28645545,1744366100,28411157,hemisphere,"$GPRMC,100820.00,A,6326.47141899,N,01025.19483629,E,0.03,174.99,110425,4.7,E,D,S*47"
2025/04/11 12:08:20.53091673,1744366100,52645393,hemisphere,"$GPHDT,345.155,T*36"
2025/04/11 12:08:20.73770756,1744366100,72362341,hemisphere,"$GPGGA,100820.05,6326.47142032,N,01025.19483610,E,4,19,0.6,2.909,M,40.935,M,1.0,0415*4D"
2025/04/11 12:08:20.78247241,1744366100,78050119,hemisphere,"$GPRMC,100820.05,A,6326.47142032,N,01025.19483610,E,0.03,332.94,110425,4.7,E,D,S*4F"
2025/04/11 12:08:20.106988822,1744366100,103102326,hemisphere,"$GPHDT,345.170,T*31"
2025/04/11 12:08:20.124538308,1744366100,122283578,hemisphere,"$GPGGA,100820.10,6326.47141957,N,01025.19483478,E,4,19,0.6,2.910,M,40.935,M,1.1,0415*45"
2025/04/11 12:08:20.130524799,1744366100,129223493,hemisphere,"$GPRMC,100820.10,A,6326.47141957,N,01025.19483478,E,0.03,202.53,110425,4.7,E,D,S*47"
2025/04/11 12:08:20.160348926,1744366100,152747219,hemisphere,"$GPHDT,345.192,T*3D"
2025/04/11 12:08:20.190808185,1744366100,170990615,hemisphere,"$GPGGA,100820.15,6326.47141880,N,01025.19483435,E,4,19,0.6,2.910,M,40.935,M,1.1,0415*42"
2025/04/11 12:08:20.198685080,1744366100,178377530,hemisphere,"$GPRMC,100820.15,A,6326.47141880,N,01025.19483435,E,0.03,235.63,110425,4.7,E,D,S*47"
2025/04/11 12:08:20.233794469,1744366100,203251514,hemisphere,"$GPHDT,345.212,T*36"
2025/04/11 12:08:20.252679194,1744366100,220704611,hemisphere,"$GPGGA,100820.20,6326.47141943,N,01025.19483362,E,4,19,0.6,2.912,M,40.935,M,1.2,0415*4E"
2025/04/11 12:08:20.259320027,1744366100,227930689,hemisphere,"$GPRMC,100820.20,A,6326.47141943,N,01025.19483362,E,0.03,179.27,110425,4.7,E,D,S*41"
2025/04/11 12:08:20.275961328,1744366100,253221407,hemisphere,"$GPHDT,345.229,T*3E"
2025/04/11 12:08:20.281868988,1744366100,271253249,hemisphere,"$GPGGA,100820.25,6326.47141929,N,01025.19483282,E,4,19,0.6,2.908,M,40.935,M,1.2,0415*43"
2025/04/11 12:08:20.284590791,1744366100,278482809,hemisphere,"$GPRMC,100820.25,A,6326.47141929,N,01025.19483282,E,0.03,296.80,110425,4.7,E,D,S*48"
2025/04/11 12:08:20.309827430,1744366100,304590871,hemisphere,"$GPHDT,345.252,T*32"
2025/04/11 12:08:20.323484794,1744366100,320130105,hemisphere,"$GPGGA,100820.30,6326.47141877,N,01025.19483186,E,4,19,0.6,2.913,M,40.935,M,1.3,0415*41"
2025/04/11 12:08:20.327515544,1744366100,327293767,hemisphere,"$GPRMC,100820.30,A,6326.47141877,N,01025.19483186,E,0.03,212.30,110425,4.7,E,D,S*46"
2025/04/11 12:08:20.353318254,1744366100,352981724,hemisphere,"$GPHDT,345.273,T*31"
2025/04/11 12:08:20.375674361,1744366100,374140765,hemisphere,"$GPGGA,100820.35,6326.47141809,N,01025.19482943,E,4,19,0.6,2.910,M,40.935,M,1.3,0415*4E"
2025/04/11 12:08:20.381613270,1744366100,381259484,hemisphere,"$GPRMC,100820.35,A,6326.47141809,N,01025.19482943,E,0.03,244.20,110425,4.7,E,D,S*48"
2025/04/11 12:08:20.404934732,1744366100,402889163,hemisphere,"$GPHDT,345.290,T*3C"
2025/04/11 12:08:20.421712577,1744366100,421436229,hemisphere,"$GPGGA,100820.40,6326.47141970,N,01025.19482858,E,4,19,0.6,2.914,M,40.935,M,0.4,0415*4A"
2025/04/11 12:08:20.429471611,1744366100,428202932,hemisphere,"$GPRMC,100820.40,A,6326.47141970,N,01025.19482858,E,0.03,322.87,110425,4.7,E,D,S*42"
2025/04/11 12:08:20.454187126,1744366100,453154774,hemisphere,"$GPHDT,345.311,T*34"
2025/04/11 12:08:20.471879528,1744366100,471384347,hemisphere,"$GPGGA,100820.45,6326.47141884,N,01025.19482742,E,4,19,0.6,2.911,M,40.935,M,0.4,0415*44"
2025/04/11 12:08:20.478123207,1744366100,477838925,hemisphere,"$GPRMC,100820.45,A,6326.47141884,N,01025.19482742,E,0.04,212.77,110425,4.7,E,D,S*43"
2025/04/11 12:08:20.503260704,1744366100,502836867,hemisphere,"$GPHDT,345.335,T*32"
2025/04/11 12:08:20.528080619,1744366100,527859637,hemisphere,"$GPGGA,100820.50,6326.47141851,N,01025.19482727,E,4,19,0.6,2.915,M,40.935,M,0.5,0415*4E"
2025/04/11 12:08:20.533825154,1744366100,529480873,hemisphere,"$GPRMC,100820.50,A,6326.47141851,N,01025.19482727,E,0.03,223.68,110425,4.7,E,D,S*47"
2025/04/11 12:08:20.553706457,1744366100,553383146,hemisphere,"$GPHDT,345.355,T*34"
2025/04/11 12:08:20.571999783,1744366100,571040464,hemisphere,"$GPGGA,100820.55,6326.47141828,N,01025.19482379,E,4,19,0.6,2.913,M,40.935,M,0.5,0415*4C"
2025/04/11 12:08:20.578792060,1744366100,577955541,hemisphere,"$GPRMC,100820.55,A,6326.47141828,N,01025.19482379,E,0.04,248.69,110425,4.7,E,D,S*48"
2025/04/11 12:08:20.603755705,1744366100,602931059,hemisphere,"$GPHDT,345.382,T*3E"
2025/04/11 12:08:20.625360517,1744366100,624809352,hemisphere,"$GPGGA,100820.60,6326.47141795,N,01025.19482238,E,4,19,0.6,2.912,M,40.935,M,0.6,0415*45"
2025/04/11 12:08:20.628345419,1744366100,627668900,hemisphere,"$GPRMC,100820.60,A,6326.47141795,N,01025.19482238,E,0.04,193.93,110425,4.7,E,D,S*43"
2025/04/11 12:08:20.652996324,1744366100,652650938,hemisphere,"$GPHDT,345.407,T*34"
2025/04/11 12:08:20.672097267,1744366100,670092064,hemisphere,"$GPGGA,100820.65,6326.47141760,N,01025.19482149,E,4,19,0.6,2.908,M,40.935,M,0.6,0415*44"
2025/04/11 12:08:20.677542616,1744366100,677308212,hemisphere,"$GPRMC,100820.65,A,6326.47141760,N,01025.19482149,E,0.03,248.65,110425,4.7,E,D,S*42"
2025/04/11 12:08:20.703977347,1744366100,703057773,hemisphere,"$GPHDT,345.430,T*30"
2025/04/11 12:08:20.721016126,1744366100,720583045,hemisphere,"$GPGGA,100820.70,6326.47141684,N,01025.19481882,E,4,19,0.6,2.912,M,40.935,M,0.7,0415*4C"
2025/04/11 12:08:20.730783912,1744366100,728415165,hemisphere,"$GPRMC,100820.70,A,6326.47141684,N,01025.19481882,E,0.04,231.67,110425,4.7,E,D,S*4B"
2025/04/11 12:08:20.753497900,1744366100,752784229,hemisphere,"$GPHDT,345.454,T*32"
2025/04/11 12:08:20.771829183,1744366100,770251630,hemisphere,"$GPGGA,100820.75,6326.47141758,N,01025.19481813,E,4,19,0.6,2.911,M,40.935,M,0.7,0415*42"
2025/04/11 12:08:20.778421183,1744366100,777504186,hemisphere,"$GPRMC,100820.75,A,6326.47141758,N,01025.19481813,E,0.04,327.10,110425,4.7,E,D,S*40"
2025/04/11 12:08:20.804969656,1744366100,803980985,hemisphere,"$GPHDT,345.481,T*3A"
2025/04/11 12:08:20.825666042,1744366100,823290411,hemisphere,"$GPGGA,100820.80,6326.47141695,N,01025.19481714,E,4,19,0.6,2.910,M,40.935,M,0.8,0415*4E"
2025/04/11 12:08:20.828122322,1744366100,827933886,hemisphere,"$GPRMC,100820.80,A,6326.47141695,N,01025.19481714,E,0.04,235.09,110425,4.7,E,D,S*48"
2025/04/11 12:08:20.853111393,1744366100,852837329,hemisphere,"$GPHDT,345.512,T*31"
2025/04/11 12:08:20.871530903,1744366100,870447390,hemisphere,"$GPGGA,100820.85,6326.47141600,N,01025.19481590,E,4,19,0.6,2.909,M,40.935,M,0.8,0415*41"
2025/04/11 12:08:20.881310872,1744366100,880189752,hemisphere,"$GPRMC,100820.85,A,6326.47141600,N,01025.19481590,E,0.04,208.89,110425,4.7,E,D,S*49"
2025/04/11 12:08:20.905198309,1744366100,902618158,hemisphere,"$GPHDT,345.542,T*34"
2025/04/11 12:08:20.924071042,1744366100,920607464,hemisphere,"$GPGGA,100820.90,6326.47141653,N,01025.19481619,E,4,19,0.6,2.913,M,40.935,M,0.9,0415*4B"
2025/04/11 12:08:20.927802405,1744366100,927311292,hemisphere,"$GPRMC,100820.90,A,6326.47141653,N,01025.19481619,E,0.04,319.49,110425,4.7,E,D,S*44"
2025/04/11 12:08:20.953260855,1744366100,953013333,hemisphere,"$GPHDT,345.571,T*34"
2025/04/11 12:08:20.975870267,1744366100,970773511,hemisphere,"$GPGGA,100820.95,6326.47141627,N,01025.19481226,E,4,19,0.6,2.913,M,40.935,M,0.9,0415*45"
2025/04/11 12:08:20.978266428,1744366100,977797110,hemisphere,"$GPRMC,100820.95,A,6326.47141627,N,01025.19481226,E,0.04,258.10,110425,4.7,E,D,S*42"
2025/04/11 12:08:21.2964898,1744366101,2732306,hemisphere,"$GPHDT,345.600,T*31"
2025/04/11 12:08:21.21873153,1744366101,19893331,hemisphere,"$GPGGA,100821.00,6326.47141568,N,01025.19481183,E,4,19,0.6,2.913,M,40.935,M,1.0,0415*44"
2025/04/11 12:08:21.27585318,1744366101,27384854,hemisphere,"$GPRMC,100821.00,A,6326.47141568,N,01025.19481183,E,0.04,232.41,110425,4.7,E,D,S*43"
2025/04/11 12:08:21.53353848,1744366101,53121546,hemisphere,"$GPHDT,345.630,T*32"
2025/04/11 12:08:21.71672414,1744366101,71351482,hemisphere,"$GPGGA,100821.05,6326.47141536,N,01025.19481124,E,4,19,0.6,2.910,M,40.935,M,1.0,0415*44"
2025/04/11 12:08:21.78747857,1744366101,78525108,hemisphere,"$GPRMC,100821.05,A,6326.47141536,N,01025.19481124,E,0.04,231.74,110425,4.7,E,D,S*45"
2025/04/11 12:08:21.103039560,1744366101,102788191,hemisphere,"$GPHDT,345.663,T*34"
2025/04/11 12:08:21.122294561,1744366101,121794673,hemisphere,"$GPGGA,100821.10,6326.47141541,N,01025.19481004,E,4,19,0.6,2.915,M,40.935,M,1.1,0415*47"
2025/04/11 12:08:21.129696349,1744366101,128943623,hemisphere,"$GPRMC,100821.10,A,6326.47141541,N,01025.19481004,E,0.04,272.63,110425,4.7,E,D,S*43"
2025/04/11 12:08:21.153503486,1744366101,153243071,hemisphere,"$GPHDT,345.694,T*3C"
2025/04/11 12:08:21.172030120,1744366101,170886341,hemisphere,"$GPGGA,100821.15,6326.47141510,N,01025.19480914,E,4,19,0.6,2.912,M,40.935,M,1.1,0415*48"
2025/04/11 12:08:21.178899573,1744366101,178677376,hemisphere,"$GPRMC,100821.15,A,6326.47141510,N,01025.19480914,E,0.04,242.86,110425,4.7,E,D,S*43"
2025/04/11 12:08:21.203143054,1744366101,202909847,hemisphere,"$GPHDT,345.727,T*35"
2025/04/11 12:08:21.222260869,1744366101,220538672,hemisphere,"$GPGGA,100821.20,6326.47141470,N,01025.19480761,E,4,19,0.6,2.912,M,40.935,M,1.2,0415*46"
2025/04/11 12:08:21.227858552,1744366101,227628422,hemisphere,"$GPRMC,100821.20,A,6326.47141470,N,01025.19480761,E,0.04,181.87,110425,4.7,E,D,S*43"
2025/04/11 12:08:21.252877669,1744366101,252614128,hemisphere,"$GPHDT,345.761,T*37"
2025/04/11 12:08:21.270333274,1744366101,270132143,hemisphere,"$GPGGA,100821.25,6326.47141399,N,01025.19480501,E,4,19,0.6,2.914,M,40.935,M,1.2,0415*41"
2025/04/11 12:08:21.277667234,1744366101,277475244,hemisphere,"$GPRMC,100821.25,A,6326.47141399,N,01025.19480501,E,0.05,263.94,110425,4.7,E,D,S*4E"
2025/04/11 12:08:21.304137914,1744366101,303818320,hemisphere,"$GPHDT,345.795,T*3C"
2025/04/11 12:08:21.322473314,1744366101,320746984,hemisphere,"$GPGGA,100821.30,6326.47141438,N,01025.19480367,E,4,19,0.6,2.913,M,40.935,M,1.3,0415*49"
2025/04/11 12:08:21.327984402,1744366101,327704640,hemisphere,"$GPRMC,100821.30,A,6326.47141438,N,01025.19480367,E,0.05,207.23,110425,4.7,E,D,S*4E"
2025/04/11 12:08:21.352991739,1744366101,352717583,hemisphere,"$GPHDT,345.829,T*34"
2025/04/11 12:08:21.374061023,1744366101,373796872,hemisphere,"$GPGGA,100821.35,6326.47141415,N,01025.19480268,E,4,19,0.6,2.914,M,40.935,M,1.3,0415*4A"
2025/04/11 12:08:21.381260978,1744366101,381013469,hemisphere,"$GPRMC,100821.35,A,6326.47141415,N,01025.19480268,E,0.04,305.92,110425,4.7,E,D,S*42"
2025/04/11 12:08:21.403388858,1744366101,403111676,hemisphere,"$GPHDT,345.866,T*3F"
2025/04/11 12:08:21.422868875,1744366101,421380753,hemisphere,"$GPGGA,100821.40,6326.47141324,N,01025.19480040,E,4,19,0.6,2.911,M,40.935,M,0.4,0415*46"
2025/04/11 12:08:21.429465026,1744366101,428804144,hemisphere,"$GPRMC,100821.40,A,6326.47141324,N,01025.19480040,E,0.04,212.92,110425,4.7,E,D,S*4A"
2025/04/11 12:08:21.453847581,1744366101,452960542,hemisphere,"$GPHDT,345.896,T*30"
2025/04/11 12:08:21.472383572,1744366101,470661932,hemisphere,"$GPGGA,100821.45,6326.47141419,N,01025.19479762,E,4,19,0.6,2.915,M,40.935,M,0.4,0415*4F"
2025/04/11 12:08:21.478122254,1744366101,477564501,hemisphere,"$GPRMC,100821.45,A,6326.47141419,N,01025.19479762,E,0.04,270.84,110425,4.7,E,D,S*44"
2025/04/11 12:08:21.502770824,1744366101,502505379,hemisphere,"$GPHDT,345.934,T*39"
2025/04/11 12:08:21.523515173,1744366101,522465537,hemisphere,"$GPGGA,100821.50,6326.47141291,N,01025.19479646,E,4,19,0.6,2.914,M,40.935,M,0.5,0415*4A"
2025/04/11 12:08:21.527615120,1744366101,527349824,hemisphere,"$GPRMC,100821.50,A,6326.47141291,N,01025.19479646,E,0.04,186.41,110425,4.7,E,D,S*42"
2025/04/11 12:08:21.554664596,1744366101,553400934,hemisphere,"$GPHDT,345.968,T*30"
2025/04/11 12:08:21.572781942,1744366101,571670266,hemisphere,"$GPGGA,100821.55,6326.47141272,N,01025.19479494,E,4,19,0.6,2.911,M,40.935,M,0.5,0415*4A"
2025/04/11 12:08:21.578624593,1744366101,578407222,hemisphere,"$GPRMC,100821.55,A,6326.47141272,N,01025.19479494,E,0.05,267.98,110425,4.7,E,D,S*4E"
2025/04/11 12:08:21.603246128,1744366101,602923103,hemisphere,"$GPHDT,346.002,T*36"
2025/04/11 12:08:21.621436880,1744366101,620958593,hemisphere,"$GPGGA,100821.60,6326.47141362,N,01025.19479619,E,4,19,0.6,2.915,M,40.935,M,0.6,0415*4C"
2025/04/11 12:08:21.628171493,1744366101,627982156,hemisphere,"$GPRMC,100821.60,A,6326.47141362,N,01025.19479619,E,0.04,44.52,110425,4.7,E,D,S*7B"
2025/04/11 12:08:21.658679367,1744366101,656347001,hemisphere,"$GPHDT,346.045,T*35"
2025/04/11 12:08:21.672146165,1744366101,670605559,hemisphere,"$GPGGA,100821.65,6326.47141217,N,01025.19479210,E,4,19,0.6,2.913,M,40.935,M,0.6,0415*41"
2025/04/11 12:08:21.678054023,1744366101,677840263,hemisphere,"$GPRMC,100821.65,A,6326.47141217,N,01025.19479210,E,0.05,226.40,110425,4.7,E,D,S*44"
2025/04/11 12:08:21.703457233,1744366101,702766999,hemisphere,"$GPHDT,346.080,T*3C"
2025/04/11 12:08:21.719951222,1744366101,719752305,hemisphere,"$GPGGA,100821.70,6326.47141260,N,01025.19479368,E,4,19,0.6,2.917,M,40.935,M,0.7,0415*4E"
2025/04/11 12:08:21.727699099,1744366101,727494758,hemisphere,"$GPRMC,100821.70,A,6326.47141260,N,01025.19479368,E,0.04,328.30,110425,4.7,E,D,S*47"
2025/04/11 12:08:21.753429239,1744366101,753189097,hemisphere,"$GPHDT,346.117,T*33"
2025/04/11 12:08:21.775539342,1744366101,770874778,hemisphere,"$GPGGA,100821.75,6326.47141257,N,01025.19479156,E,4,19,0.6,2.913,M,40.935,M,0.7,0415*44"
2025/04/11 12:08:21.778088839,1744366101,777899545,hemisphere,"$GPRMC,100821.75,A,6326.47141257,N,01025.19479156,E,0.04,301.96,110425,4.7,E,D,S*4E"
2025/04/11 12:08:21.806018585,1744366101,803119085,hemisphere,"$GPHDT,346.154,T*34"
2025/04/11 12:08:21.823744960,1744366101,821515040,hemisphere,"$GPGGA,100821.80,6326.47141249,N,01025.19479046,E,4,19,0.6,2.913,M,40.935,M,0.8,0415*4E"
2025/04/11 12:08:21.827859735,1744366101,827661875,hemisphere,"$GPRMC,100821.80,A,6326.47141249,N,01025.19479046,E,0.04,200.20,110425,4.7,E,D,S*46"
2025/04/11 12:08:21.852826170,1744366101,852610726,hemisphere,"$GPHDT,346.196,T*3A"
2025/04/11 12:08:21.873303414,1744366101,872476962,hemisphere,"$GPGGA,100821.85,6326.47141148,N,01025.19478981,E,4,19,0.6,2.914,M,40.935,M,0.8,0415*4D"
2025/04/11 12:08:21.878906913,1744366101,877552056,hemisphere,"$GPRMC,100821.85,A,6326.47141148,N,01025.19478981,E,0.04,201.93,110425,4.7,E,D,S*4B"
2025/04/11 12:08:21.903346699,1744366101,903060172,hemisphere,"$GPHDT,346.236,T*33"
2025/04/11 12:08:21.925069063,1744366101,921827729,hemisphere,"$GPGGA,100821.90,6326.47141134,N,01025.19478822,E,4,19,0.6,2.914,M,40.935,M,0.9,0415*4B"
2025/04/11 12:08:21.928773707,1744366101,928515984,hemisphere,"$GPRMC,100821.90,A,6326.47141134,N,01025.19478822,E,0.04,281.38,110425,4.7,E,D,S*45"
2025/04/11 12:08:21.953918829,1744366101,952840125,hemisphere,"$GPHDT,346.276,T*37"
2025/04/11 12:08:21.976329205,1744366101,970448771,hemisphere,"$GPGGA,100821.95,6326.47141241,N,01025.19478664,E,4,19,0.6,2.915,M,40.935,M,0.9,0415*42"
2025/04/11 12:08:21.978936884,1744366101,977556874,hemisphere,"$GPRMC,100821.95,A,6326.47141241,N,01025.19478664,E,0.04,337.11,110425,4.7,E,D,S*4A"
2025/04/11 12:08:22.11134892,1744366102,3722897,hemisphere,"$GPHDT,346.316,T*30"
2025/04/11 12:08:22.22346200,1744366102,21316137,hemisphere,"$GPGGA,100822.00,6326.47141082,N,01025.19478722,E,4,19,0.6,2.913,M,40.935,M,1.0,0415*4D"
2025/04/11 12:08:22.28808897,1744366102,28582182,hemisphere,"$GPRMC,100822.00,A,6326.47141082,N,01025.19478722,E,0.04,174.69,110425,4.7,E,D,S*41"
2025/04/11 12:08:22.53410076,1744366102,52845355,hemisphere,"$GPHDT,346.358,T*3A"
2025/04/11 12:08:22.71753756,1744366102,71060082,hemisphere,"$GPGGA,100822.05,6326.47141178,N,01025.19478473,E,4,19,0.6,2.914,M,40.935,M,1.0,0415*4C"
2025/04/11 12:08:22.78552787,1744366102,78260972,hemisphere,"$GPRMC,100822.05,A,6326.47141178,N,01025.19478473,E,0.04,283.57,110425,4.7,E,D,S*41"
2025/04/11 12:08:22.103238532,1744366102,102557750,hemisphere,"$GPHDT,346.400,T*30"
2025/04/11 12:08:22.129718079,1744366102,123980585,hemisphere,"$GPGGA,100822.10,6326.47141098,N,01025.19478497,E,4,19,0.6,2.914,M,40.935,M,1.1,0415*4C"
2025/04/11 12:08:22.132917114,1744366102,129514657,hemisphere,"$GPRMC,100822.10,A,6326.47141098,N,01025.19478497,E,0.04,270.60,110425,4.7,E,D,S*48"
2025/04/11 12:08:22.153402983,1744366102,152937472,hemisphere,"$GPHDT,346.446,T*32"
2025/04/11 12:08:22.172468350,1744366102,171345636,hemisphere,"$GPGGA,100822.15,6326.47141027,N,01025.19478328,E,4,19,0.6,2.910,M,40.935,M,1.1,0415*4A"
2025/04/11 12:08:22.178678349,1744366102,178440666,hemisphere,"$GPRMC,100822.15,A,6326.47141027,N,01025.19478328,E,0.04,218.09,110425,4.7,E,D,S*4B"
2025/04/11 12:08:22.202918528,1744366102,202662806,hemisphere,"$GPHDT,346.493,T*3A"
2025/04/11 12:08:22.223224498,1744366102,222372935,hemisphere,"$GPGGA,100822.20,6326.47140996,N,01025.19478189,E,4,19,0.6,2.913,M,40.935,M,1.2,0415*47"
2025/04/11 12:08:22.227537905,1744366102,227332128,hemisphere,"$GPRMC,100822.20,A,6326.47140996,N,01025.19478189,E,0.04,256.73,110425,4.7,E,D,S*41"
2025/04/11 12:08:22.253312676,1744366102,253050085,hemisphere,"$GPHDT,346.538,T*3A"
2025/04/11 12:08:22.272322977,1744366102,271278761,hemisphere,"$GPGGA,100822.25,6326.47140927,N,01025.19478067,E,4,19,0.6,2.914,M,40.935,M,1.2,0415*4E"
2025/04/11 12:08:22.280236822,1744366102,278902370,hemisphere,"$GPRMC,100822.25,A,6326.47140927,N,01025.19478067,E,0.04,231.17,110425,4.7,E,D,S*4C"
2025/04/11 12:08:22.303839937,1744366102,302765638,hemisphere,"$GPHDT,346.584,T*3D"
2025/04/11 12:08:22.320838637,1744366102,320601343,hemisphere,"$GPGGA,100822.30,6326.47140985,N,01025.19478011,E,4,19,0.6,2.913,M,40.935,M,1.3,0415*45"
2025/04/11 12:08:22.333851797,1744366102,332289421,hemisphere,"$GPRMC,100822.30,A,6326.47140985,N,01025.19478011,E,0.04,291.53,110425,4.7,E,D,S*4B"
2025/04/11 12:08:22.353489893,1744366102,353192447,hemisphere,"$GPHDT,346.627,T*37"
2025/04/11 12:08:22.374478312,1744366102,374253552,hemisphere,"$GPGGA,100822.35,6326.47140996,N,01025.19477790,E,4,19,0.6,2.912,M,40.935,M,1.3,0415*42"
2025/04/11 12:08:22.381700199,1744366102,381474620,hemisphere,"$GPRMC,100822.35,A,6326.47140996,N,01025.19477790,E,0.04,276.73,110425,4.7,E,D,S*46"
2025/04/11 12:08:22.403182063,1744366102,402901167,hemisphere,"$GPHDT,346.672,T*37"
2025/04/11 12:08:22.425290061,1744366102,421189310,hemisphere,"$GPGGA,100822.40,6326.47140931,N,01025.19477594,E,4,19,0.6,2.907,M,40.935,M,0.4,0415*49"
2025/04/11 12:08:22.428506856,1744366102,428305934,hemisphere,"$GPRMC,100822.40,A,6326.47140931,N,01025.19477594,E,0.04,264.82,110425,4.7,E,D,S*42"
2025/04/11 12:08:22.452895553,1744366102,452626093,hemisphere,"$GPHDT,346.719,T*3B"
2025/04/11 12:08:22.472262520,1744366102,470115749,hemisphere,"$GPGGA,100822.45,6326.47140882,N,01025.19477552,E,4,19,0.6,2.906,M,40.935,M,0.4,0415*4E"
2025/04/11 12:08:22.477595857,1744366102,477357505,hemisphere,"$GPRMC,100822.45,A,6326.47140882,N,01025.19477552,E,0.04,216.03,110425,4.7,E,D,S*48"
2025/04/11 12:08:22.503213821,1744366102,503000012,hemisphere,"$GPHDT,346.763,T*36"
2025/04/11 12:08:22.522706337,1744366102,522421935,hemisphere,"$GPGGA,100822.50,6326.47140872,N,01025.19477372,E,4,19,0.6,2.907,M,40.935,M,0.5,0415*41"
2025/04/11 12:08:22.531939517,1744366102,531325572,hemisphere,"$GPRMC,100822.50,A,6326.47140872,N,01025.19477372,E,0.04,280.42,110425,4.7,E,D,S*4D"
2025/04/11 12:08:22.553003399,1744366102,552782557,hemisphere,"$GPHDT,346.813,T*3E"
2025/04/11 12:08:22.569917009,1744366102,569694791,hemisphere,"$GPGGA,100822.55,6326.47140784,N,01025.19477248,E,4,19,0.6,2.904,M,40.935,M,0.5,0415*49"
2025/04/11 12:08:22.577778080,1744366102,577470518,hemisphere,"$GPRMC,100822.55,A,6326.47140784,N,01025.19477248,E,0.04,232.38,110425,4.7,E,D,S*42"
2025/04/11 12:08:22.603808641,1744366102,603120418,hemisphere,"$GPHDT,346.863,T*39"
2025/04/11 12:08:22.622041250,1744366102,621750121,hemisphere,"$GPGGA,100822.60,6326.47140630,N,01025.19476999,E,4,19,0.6,2.900,M,40.935,M,0.6,0415*40"
2025/04/11 12:08:22.628833809,1744366102,628553393,hemisphere,"$GPRMC,100822.60,A,6326.47140630,N,01025.19476999,E,0.05,228.25,110425,4.7,E,D,S*4A"
2025/04/11 12:08:22.653217954,1744366102,652905390,hemisphere,"$GPHDT,346.908,T*35"
2025/04/11 12:08:22.670923354,1744366102,670409379,hemisphere,"$GPGGA,100822.65,6326.47140703,N,01025.19477031,E,4,19,0.6,2.902,M,40.935,M,0.6,0415*4C"
2025/04/11 12:08:22.677678624,1744366102,677371303,hemisphere,"$GPRMC,100822.65,A,6326.47140703,N,01025.19477031,E,0.04,4.75,110425,4.7,E,D,S*4C"
2025/04/11 12:08:22.703739120,1744366102,703227037,hemisphere,"$GPHDT,346.957,T*3F"
2025/04/11 12:08:22.723332708,1744366102,721253310,hemisphere,"$GPGGA,100822.70,6326.47140584,N,01025.19476771,E,4,19,0.6,2.899,M,40.935,M,0.7,0415*45"
2025/04/11 12:08:22.733567191,1744366102,729322050,hemisphere,"$GPRMC,100822.70,A,6326.47140584,N,01025.19476771,E,0.05,233.97,110425,4.7,E,D,S*4C"
2025/04/11 12:08:22.753263103,1744366102,752998219,hemisphere,"$GPHDT,347.008,T*3D"
2025/04/11 12:08:22.773496628,1744366102,772798432,hemisphere,"$GPGGA,100822.75,6326.47140633,N,01025.19476658,E,4,19,0.6,2.902,M,40.935,M,0.7,0415*46"
2025/04/11 12:08:22.781550278,1744366102,781287978,hemisphere,"$GPRMC,100822.75,A,6326.47140633,N,01025.19476658,E,0.05,302.71,110425,4.7,E,D,S*47"
2025/04/11 12:08:22.802930076,1744366102,802639810,hemisphere,"$GPHDT,347.056,T*36"
2025/04/11 12:08:22.821934559,1744366102,820861610,hemisphere,"$GPGGA,100822.80,6326.47140504,N,01025.19476327,E,4,19,0.6,2.901,M,40.935,M,0.8,0415*4A"
2025/04/11 12:08:22.827779269,1744366102,827390728,hemisphere,"$GPRMC,100822.80,A,6326.47140504,N,01025.19476327,E,0.05,219.97,110425,4.7,E,D,S*44"
2025/04/11 12:08:22.853349288,1744366102,853062804,hemisphere,"$GPHDT,347.105,T*31"
2025/04/11 12:08:22.870817314,1744366102,870584126,hemisphere,"$GPGGA,100822.85,6326.47140535,N,01025.19476318,E,4,19,0.6,2.898,M,40.935,M,0.8,0415*40"
2025/04/11 12:08:22.878008233,1744366102,877777574,hemisphere,"$GPRMC,100822.85,A,6326.47140535,N,01025.19476318,E,0.05,308.81,110425,4.7,E,D,S*49"
2025/04/11 12:08:22.903005005,1744366102,902773394,hemisphere,"$GPHDT,347.155,T*34"
2025/04/11 12:08:22.923755534,1744366102,920168774,hemisphere,"$GPGGA,100822.90,6326.47140542,N,01025.19476003,E,4,19,0.6,2.900,M,40.935,M,0.9,0415*4C"
2025/04/11 12:08:22.927671013,1744366102,927449205,hemisphere,"$GPRMC,100822.90,A,6326.47140542,N,01025.19476003,E,0.05,257.13,110425,4.7,E,D,S*44"
2025/04/11 12:08:22.953663514,1744366102,953458762,hemisphere,"$GPHDT,347.204,T*33"
2025/04/11 12:08:22.972391998,1744366102,972094438,hemisphere,"$GPGGA,100822.95,6326.47140459,N,01025.19475876,E,4,19,0.6,2.903,M,40.935,M,0.9,0415*48"
2025/04/11 12:08:22.980769917,1744366102,980515979,hemisphere,"$GPRMC,100822.95,A,6326.47140459,N,01025.19475876,E,0.05,200.44,110425,4.7,E,D,S*43"
2025/04/11 12:08:23.3379591,1744366103,3073263,hemisphere,"$GPHDT,347.253,T*31"
2025/04/11 12:08:23.25453325,1744366103,22287428,hemisphere,"$GPGGA,100823.00,6326.47140467,N,01025.19475720,E,4,19,0.6,2.902,M,40.935,M,1.0,0415*4D"
2025/04/11 12:08:23.28511835,1744366103,28303536,hemisphere,"$GPRMC,100823.00,A,6326.47140467,N,01025.19475720,E,0.05,277.75,110425,4.7,E,D,S*4D"
2025/04/11 12:08:23.52854788,1744366103,52611567,hemisphere,"$GPHDT,347.304,T*32"
2025/04/11 12:08:23.71339042,1744366103,71175813,hemisphere,"$GPGGA,100823.05,6326.47140475,N,01025.19475618,E,4,19,0.6,2.902,M,40.935,M,1.0,0415*41"
2025/04/11 12:08:23.78339884,1744366103,78013184,hemisphere,"$GPRMC,100823.05,A,6326.47140475,N,01025.19475618,E,0.05,259.75,110425,4.7,E,D,S*4D"
2025/04/11 12:08:23.103900223,1744366103,103393489,hemisphere,"$GPHDT,347.351,T*32"
2025/04/11 12:08:23.125444468,1744366103,123796985,hemisphere,"$GPGGA,100823.10,6326.47140392,N,01025.19475236,E,4,19,0.6,2.899,M,40.935,M,1.1,0415*41"
2025/04/11 12:08:23.131233151,1744366103,129433293,hemisphere,"$GPRMC,100823.10,A,6326.47140392,N,01025.19475236,E,0.06,244.91,110425,4.7,E,D,S*4A"
2025/04/11 12:08:23.153218581,1744366103,152748547,hemisphere,"$GPHDT,347.404,T*35"
2025/04/11 12:08:23.174287068,1744366103,170928729,hemisphere,"$GPGGA,100823.15,6326.47140428,N,01025.19475138,E,4,19,0.6,2.902,M,40.935,M,1.1,0415*4C"
2025/04/11 12:08:23.178438659,1744366103,178158705,hemisphere,"$GPRMC,100823.15,A,6326.47140428,N,01025.19475138,E,0.06,296.22,110425,4.7,E,D,S*43"
2025/04/11 12:08:23.203337374,1744366103,203090899,hemisphere,"$GPHDT,347.454,T*30"
2025/04/11 12:08:23.222275970,1744366103,221827103,hemisphere,"$GPGGA,100823.20,6326.47140412,N,01025.19474798,E,4,19,0.6,2.902,M,40.935,M,1.2,0415*4D"
2025/04/11 12:08:23.228635922,1744366103,227837362,hemisphere,"$GPRMC,100823.20,A,6326.47140412,N,01025.19474798,E,0.06,258.27,110425,4.7,E,D,S*46"
2025/04/11 12:08:23.253024791,1744366103,252803891,hemisphere,"$GPHDT,347.503,T*33"
2025/04/11 12:08:23.270474062,1744366103,270293195,hemisphere,"$GPGGA,100823.25,6326.47140299,N,01025.19474571,E,4,19,0.6,2.904,M,40.935,M,1.2,0415*4E"
2025/04/11 12:08:23.277911220,1744366103,277549665,hemisphere,"$GPRMC,100823.25,A,6326.47140299,N,01025.19474571,E,0.06,237.43,110425,4.7,E,D,S*48"
2025/04/11 12:08:23.303487087,1744366103,303213552,hemisphere,"$GPHDT,347.552,T*37"
2025/04/11 12:08:23.324441424,1744366103,322135564,hemisphere,"$GPGGA,100823.30,6326.47140383,N,01025.19474569,E,4,19,0.6,2.903,M,40.935,M,1.3,0415*4F"
2025/04/11 12:08:23.329271826,1744366103,328245595,hemisphere,"$GPRMC,100823.30,A,6326.47140383,N,01025.19474569,E,0.06,328.04,110425,4.7,E,D,S*43"
2025/04/11 12:08:23.358036770,1744366103,353016674,hemisphere,"$GPHDT,347.605,T*36"
2025/04/11 12:08:23.374334571,1744366103,373971432,hemisphere,"$GPGGA,100823.35,6326.47140232,N,01025.19474234,E,4,19,0.6,2.904,M,40.935,M,1.3,0415*49"
2025/04/11 12:08:23.381676834,1744366103,381451581,hemisphere,"$GPRMC,100823.35,A,6326.47140232,N,01025.19474234,E,0.07,234.37,110425,4.7,E,D,S*4F"
2025/04/11 12:08:23.403943238,1744366103,403671354,hemisphere,"$GPHDT,347.658,T*3E"
2025/04/11 12:08:23.422962420,1744366103,421032257,hemisphere,"$GPGGA,100823.40,6326.47140354,N,01025.19473822,E,4,19,0.6,2.907,M,40.935,M,0.4,0415*45"
2025/04/11 12:08:23.428325786,1744366103,428071578,hemisphere,"$GPRMC,100823.40,A,6326.47140354,N,01025.19473822,E,0.07,258.92,110425,4.7,E,D,S*43"
2025/04/11 12:08:23.453316885,1744366103,453033740,hemisphere,"$GPHDT,347.707,T*35"
2025/04/11 12:08:23.470973578,1744366103,470705088,hemisphere,"$GPGGA,100823.45,6326.47140383,N,01025.19473736,E,4,19,0.6,2.907,M,40.935,M,0.4,0415*40"
2025/04/11 12:08:23.478669550,1744366103,478457223,hemisphere,"$GPRMC,100823.45,A,6326.47140383,N,01025.19473736,E,0.07,305.65,110425,4.7,E,D,S*47"
2025/04/11 12:08:23.502980286,1744366103,502698947,hemisphere,"$GPHDT,347.761,T*35"
2025/04/11 12:08:23.523404366,1744366103,521932984,hemisphere,"$GPGGA,100823.50,6326.47140307,N,01025.19473343,E,4,19,0.6,2.906,M,40.935,M,0.5,0415*4E"
2025/04/11 12:08:23.528433838,1744366103,528175213,hemisphere,"$GPRMC,100823.50,A,6326.47140307,N,01025.19473343,E,0.07,252.31,110425,4.7,E,D,S*4B"
2025/04/11 12:08:23.555491367,1744366103,553736587,hemisphere,"$GPHDT,347.813,T*3F"
2025/04/11 12:08:23.573113305,1744366103,571395980,hemisphere,"$GPGGA,100823.55,6326.47140301,N,01025.19473128,E,4,19,0.6,2.907,M,40.935,M,0.5,0415*43"
2025/04/11 12:08:23.578728119,1744366103,578571622,hemisphere,"$GPRMC,100823.55,A,6326.47140301,N,01025.19473128,E,0.07,266.75,110425,4.7,E,D,S*40"
2025/04/11 12:08:23.603779036,1744366103,602903995,hemisphere,"$GPHDT,347.867,T*3C"
2025/04/11 12:08:23.622283305,1744366103,622086526,hemisphere,"$GPGGA,100823.60,6326.47140319,N,01025.19472690,E,4,19,0.6,2.907,M,40.935,M,0.6,0415*4A"
2025/04/11 12:08:23.628539566,1744366103,628326767,hemisphere,"$GPRMC,100823.60,A,6326.47140319,N,01025.19472690,E,0.07,270.28,110425,4.7,E,D,S*45"
2025/04/11 12:08:23.653766122,1744366103,652840744,hemisphere,"$GPHDT,347.920,T*3E"
2025/04/11 12:08:23.671272945,1744366103,670593801,hemisphere,"$GPGGA,100823.65,6326.47140296,N,01025.19472695,E,4,19,0.6,2.905,M,40.935,M,0.6,0415*4E"
2025/04/11 12:08:23.677614111,1744366103,677310293,hemisphere,"$GPRMC,100823.65,A,6326.47140296,N,01025.19472695,E,0.07,254.11,110425,4.7,E,D,S*4F"
2025/04/11 12:08:23.703190830,1744366103,702992267,hemisphere,"$GPHDT,347.977,T*3C"
2025/04/11 12:08:23.723238495,1744366103,723012175,hemisphere,"$GPGGA,100823.70,6326.47140218,N,01025.19472416,E,4,19,0.6,2.909,M,40.935,M,0.7,0415*48"
2025/04/11 12:08:23.727912367,1744366103,727697089,hemisphere,"$GPRMC,100823.70,A,6326.47140218,N,01025.19472416,E,0.07,254.24,110425,4.7,E,D,S*42"
2025/04/11 12:08:23.755234891,1744366103,753036055,hemisphere,"$GPHDT,348.033,T*3A"
2025/04/11 12:08:23.771744344,1744366103,771094339,hemisphere,"$GPGGA,100823.75,6326.47140303,N,01025.19472082,E,4,19,0.6,2.908,M,40.935,M,0.7,0415*4E"
2025/04/11 12:08:23.777762033,1744366103,777436538,hemisphere,"$GPRMC,100823.75,A,6326.47140303,N,01025.19472082,E,0.07,290.39,110425,4.7,E,D,S*41"
2025/04/11 12:08:23.804395869,1744366103,803672851,hemisphere,"$GPHDT,348.087,T*35"
2025/04/11 12:08:23.828628702,1744366103,822502006,hemisphere,"$GPGGA,100823.80,6326.47140224,N,01025.19471947,E,4,19,0.6,2.909,M,40.935,M,0.8,0415*4D"
2025/04/11 12:08:23.830352577,1744366103,828115235,hemisphere,"$GPRMC,100823.80,A,6326.47140224,N,01025.19471947,E,0.07,250.61,110425,4.7,E,D,S*4D"
2025/04/11 12:08:23.853019309,1744366103,852765639,hemisphere,"$GPHDT,348.144,T*3B"
2025/04/11 12:08:23.871501641,1744366103,870109565,hemisphere,"$GPGGA,100823.85,6326.47140277,N,01025.19471759,E,4,19,0.6,2.908,M,40.935,M,0.8,0415*4E"
2025/04/11 12:08:23.878300591,1744366103,877516689,hemisphere,"$GPRMC,100823.85,A,6326.47140277,N,01025.19471759,E,0.07,285.32,110425,4.7,E,D,S*41"
2025/04/11 12:08:23.903681399,1744366103,903216717,hemisphere,"$GPHDT,348.202,T*3A"
2025/04/11 12:08:23.921328790,1744366103,920248608,hemisphere,"$GPGGA,100823.90,6326.47140231,N,01025.19471590,E,4,19,0.6,2.907,M,40.935,M,0.9,0415*41"
2025/04/11 12:08:23.928133164,1744366103,927914665,hemisphere,"$GPRMC,100823.90,A,6326.47140231,N,01025.19471590,E,0.07,273.63,110425,4.7,E,D,S*4D"
2025/04/11 12:08:23.953172700,1744366103,952910588,hemisphere,"$GPHDT,348.257,T*3A"
2025/04/11 12:08:23.972545348,1744366103,971294774,hemisphere,"$GPGGA,100823.95,6326.47140280,N,01025.19471507,E,4,19,0.6,2.906,M,40.935,M,0.9,0415*41"
2025/04/11 12:08:23.979171992,1744366103,977894297,hemisphere,"$GPRMC,100823.95,A,6326.47140280,N,01025.19471507,E,0.06,329.57,110425,4.7,E,D,S*44"
2025/04/11 12:08:24.6402914,1744366104,2689516,hemisphere,"$GPHDT,348.312,T*3A"
2025/04/11 12:08:24.22960472,1744366104,21754056,hemisphere,"$GPGGA,100824.00,6326.47140275,N,01025.19471331,E,4,19,0.6,2.909,M,40.935,M,1.0,0415*44"
2025/04/11 12:08:24.29950847,1744366104,29710871,hemisphere,"$GPRMC,100824.00,A,6326.47140275,N,01025.19471331,E,0.06,291.37,110425,4.7,E,D,S*42"
2025/04/11 12:08:24.53301987,1744366104,53017760,hemisphere,"$GPHDT,348.371,T*3F"
