time,header_stamp_secs,header_stamp_nsecs,header_frame_id,quaternion_x,quaternion_y,quaternion_z,quaternion_w
2025/04/11 12:08:16.103531587,1744366096,102848751,hemisphere,-0.0,0.0,0.13024067118807414,-0.9914824091069291
2025/04/11 12:08:16.153854612,1744366096,153392797,hemisphere,-0.0,0.0,0.13041371552866238,-0.9914596627205815
2025/04/11 12:08:16.265613935,1744366096,203170133,hemisphere,-0.0,0.0,0.13053484420367273,-0.9914437222801519
2025/04/11 12:08:16.280454445,1744366096,253406944,hemisphere,-0.0,0.0,0.13069923000297495,-0.991422065155214
2025/04/11 12:08:16.304648386,1744366096,303479141,hemisphere,-0.0,0.0,0.1308549606037226,-0.9914015227370786
2025/04/11 12:08:16.355159326,1744366096,352888225,hemisphere,-0.0,0.0,0.13099338509397843,-0.9913832422739557
2025/04/11 12:08:16.403682405,1744366096,403250230,hemisphere,-0.0,0.0,0.13113180703045121,-0.991364942483306
2025/04/11 12:08:16.453268012,1744366096,452876499,hemisphere,-0.0,0.0,0.1312788775367464,-0.9913454777789084
2025/04/11 12:08:16.517237511,1744366096,515921073,hemisphere,-0.0,0.0,0.13141729419751805,-0.9913271381263619
2025/04/11 12:08:16.555848630,1744366096,553096949,hemisphere,-0.0,0.0,0.1315384066741059,-0.9913110750766571
2025/04/11 12:08:16.605376049,1744366096,603493522,hemisphere,-0.0,0.0,0.1316508665015242,-0.9912961461386793
2025/04/11 12:08:16.658786212,1744366096,654166121,hemisphere,-0.0,0.0,0.13173737290818732,-0.9912846536587002
2025/04/11 12:08:16.709568191,1744366096,708045691,hemisphere,-0.0,0.0,0.13183252879675245,-0.9912720032115573
2025/04/11 12:08:16.753799669,1744366096,753287341,hemisphere,-0.0,0.0,0.1319276834705229,-0.991259343630163
2025/04/11 12:08:16.805033502,1744366096,803020205,hemisphere,-0.0,0.0,0.13205743788453622,-0.9912420658443486
2025/04/11 12:08:16.892152522,1744366096,854556137,hemisphere,-0.0,0.0,0.13212663931359692,-0.991232844080388
2025/04/11 12:08:16.903890497,1744366096,903127596,hemisphere,-0.0,0.0,0.13223044024964062,-0.9912190023760573
2025/04/11 12:08:16.953254512,1744366096,952818624,hemisphere,-0.0,0.0,0.1323342397356149,-0.991205149801794
2025/04/11 12:08:17.11551521,1744366097,3266539,hemisphere,-0.0,0.0,0.13241208839780338,-0.9911947532377945
2025/04/11 12:08:17.53974871,1744366097,53085423,hemisphere,-0.0,0.0,0.13251588534341827,-0.9911808816415145
2025/04/11 12:08:17.125172284,1744366097,103613073,hemisphere,-0.0,0.0,0.13257643289067098,-0.9911727848574059
2025/04/11 12:08:17.153903671,1744366097,153401691,hemisphere,-0.0,0.0,0.1326629285285072,-0.991161211606992
2025/04/11 12:08:17.203924797,1744366097,203421868,hemisphere,-0.0,0.0,0.13272347487391148,-0.9911531058405629
2025/04/11 12:08:17.299875184,1744366097,253209198,hemisphere,-0.0,0.0,0.1327753713472178,-0.9911461550970212
2025/04/11 12:08:17.305994879,1744366097,304081323,hemisphere,-0.0,0.0,0.13283591677266296,-0.9911380424618794
2025/04/11 12:08:17.363413160,1744366097,353873234,hemisphere,-0.0,0.0,0.13287916320165538,-0.9911322454581063
2025/04/11 12:08:17.403937126,1744366097,402950093,hemisphere,-0.0,0.0,0.132870513936093,-0.9911334050098193
2025/04/11 12:08:17.458609793,1744366097,457789294,hemisphere,-0.0,0.0,0.13292240937766467,-0.9911264465673573
2025/04/11 12:08:17.507508750,1744366097,503102108,hemisphere,-0.0,0.0,0.13295700613626943,-0.9911218060961428
2025/04/11 12:08:17.553648231,1744366097,552763607,hemisphere,-0.0,0.0,0.13296565530060891,-0.9911206457896433
2025/04/11 12:08:17.634930364,1744366097,603143039,hemisphere,-0.0,0.0,0.13295700613626943,-0.9911218060961428
2025/04/11 12:08:17.666901307,1744366097,653580729,hemisphere,-0.0,0.0,0.13297430445482292,-0.9911194854076657
2025/04/11 12:08:17.731500609,1744366097,703316942,hemisphere,-0.0,0.0,0.13299160273287008,-0.9911171644172764
2025/04/11 12:08:17.822219416,1744366097,753449096,hemisphere,-0.0,0.0,0.13296565530060891,-0.9911206457896433
2025/04/11 12:08:17.857031428,1744366097,807641694,hemisphere,-0.0,0.0,0.13295700613626943,-0.9911218060961428
2025/04/11 12:08:17.905488964,1744366097,857910640,hemisphere,-0.0,0.0,0.13294835696180426,-0.991122966327164
2025/04/11 12:08:17.926468188,1744366097,903464761,hemisphere,-0.0,0.0,0.13291376016270595,-0.9911276064964646
2025/04/11 12:08:17.966868262,1744366097,953261036,hemisphere,-0.0,0.0,0.13287916320165538,-0.9911322454581063
2025/04/11 12:08:18.11701552,1744366098,5840138,hemisphere,-0.0,0.0,0.132870513936093,-0.9911334050098193
2025/04/11 12:08:18.80582057,1744366098,54404340,hemisphere,-0.0,0.0,0.1328618646604115,-0.9911345644860533
2025/04/11 12:08:18.138107071,1744366098,103116475,hemisphere,-0.0,0.0,0.13280996879386964,-0.9911415197583903
2025/04/11 12:08:18.179442582,1744366098,152780256,hemisphere,-0.0,0.0,0.13280996879386964,-0.9911415197583903
2025/04/11 12:08:18.212989947,1744366098,203334305,hemisphere,-0.0,0.0,0.13274942315605742,-0.9911496308084538
2025/04/11 12:08:18.254697902,1744366098,252920421,hemisphere,-0.0,0.0,0.13273212431140166,-0.9911519475720071
2025/04/11 12:08:18.320927419,1744366098,305421504,hemisphere,-0.0,0.0,0.13268887702288185,-0.9911577381599795
2025/04/11 12:08:18.412257190,1744366098,354554984,hemisphere,-0.0,0.0,0.13263697994320633,-0.9911646843746732
2025/04/11 12:08:18.499929230,1744366098,403455588,hemisphere,-0.0,0.0,0.13259373209902922,-0.9911704708111773
2025/04/11 12:08:18.564145814,1744366098,453356584,hemisphere,-0.0,0.0,0.13254183435280364,-0.991177412044077
2025/04/11 12:08:18.614923456,1744366098,553316786,hemisphere,-0.0,0.0,0.1324380377703823,-0.9911912863577498
2025/04/11 12:08:18.687765610,1744366098,603168810,hemisphere,-0.0,0.0,0.1323601893804019,-0.991201684959819
2025/04/11 12:08:18.983198648,1744366098,903911602,hemisphere,-0.0,0.0,0.13196228486871586,-0.9912547378813521
2025/04/11 12:08:19.49327446,1744366098,956448012,hemisphere,-0.0,0.0,0.13186713063690564,-0.9912674007842633
2025/04/11 12:08:19.64033877,1744366099,4849492,hemisphere,-0.0,0.0,0.13174602349368675,-0.9912835039955022
2025/04/11 12:08:19.87258311,1744366099,53285562,hemisphere,-0.0,0.0,0.1316768185288239,-0.9912926991873425
2025/04/11 12:08:19.151239512,1744366099,106903221,hemisphere,-0.0,0.0,0.13157300987830373,-0.9913064829161382
2025/04/11 12:08:19.176499873,1744366099,154321940,hemisphere,-0.0,0.0,0.13146919978492447,-0.9913202557740418
2025/04/11 12:08:19.225744799,1744366099,203848131,hemisphere,-0.0,0.0,0.13136538824982366,-0.9913340177609024
2025/04/11 12:08:19.277567170,1744366099,254124608,hemisphere,-0.0,0.0,0.13122697062898026,-0.9913523501659443
2025/04/11 12:08:19.306969915,1744366099,303905333,hemisphere,-0.0,0.0,0.13111450442814424,-0.9913672310140992
2025/04/11 12:08:19.371497713,1744366099,353617130,hemisphere,-0.0,0.0,0.13101933940167537,-0.991379812535412
2025/04/11 12:08:19.447580434,1744366099,403133819,hemisphere,-0.0,0.0,0.1308636122091303,-0.9914003807743763
2025/04/11 12:08:19.477385054,1744366099,452863064,hemisphere,-0.0,0.0,0.13074248882682926,-0.9914163613817186
2025/04/11 12:08:19.505399445,1744366099,503443217,hemisphere,-0.0,0.0,0.1306127116088496,-0.991433467039611
2025/04/11 12:08:19.593353430,1744366099,553068972,hemisphere,-0.0,0.0,0.1305002362095499,-0.9914482782017687
2025/04/11 12:08:19.656387409,1744366099,603406103,hemisphere,-0.0,0.0,0.13037910697818614,-0.9914642144140003
2025/04/11 12:08:19.679165479,1744366099,653603066,hemisphere,-0.0,0.0,0.13025797580075119,-0.9914801358273856
2025/04/11 12:08:19.706434310,1744366099,703172947,hemisphere,-0.0,0.0,0.1301195377887713,-0.9914983136070563
2025/04/11 12:08:19.761528986,1744366099,753322462,hemisphere,-0.0,0.0,0.1300157076148982,-0.9915119342566671
2025/04/11 12:08:19.805672105,1744366099,802965665,hemisphere,-0.0,0.0,0.12987726516538206,-0.9915300782090078
2025/04/11 12:08:19.853891270,1744366099,853386882,hemisphere,-0.0,0.0,0.12975612594491145,-0.9915459383103581
2025/04/11 12:08:19.903516873,1744366099,903039729,hemisphere,-0.0,0.0,0.1296090257164547,-0.9915651771078043
2025/04/11 12:08:19.961306603,1744366099,953612719,hemisphere,-0.0,0.0,0.12949653538158007,-0.9915798744045622
2025/04/11 12:08:20.4480617,1744366100,3926152,hemisphere,-0.0,0.0,0.1293148167052358,-0.9916035892333647
2025/04/11 12:08:20.53219840,1744366100,52797072,hemisphere,-0.0,0.0,0.1291850149914191,-0.9916205080078099
2025/04/11 12:08:20.107146029,1744366100,103288991,hemisphere,-0.0,0.0,0.12905521106405166,-0.9916374097911056
2025/04/11 12:08:20.160509518,1744366100,152933745,hemisphere,-0.0,0.0,0.12886482797116208,-0.9916621683375659
2025/04/11 12:08:20.234173036,1744366100,203472191,hemisphere,-0.0,0.0,0.12869174831026808,-0.9916846443889542
2025/04/11 12:08:20.276159867,1744366100,253459295,hemisphere,-0.0,0.0,0.1285446275160627,-0.991703725281274
2025/04/11 12:08:20.309794268,1744366100,304929220,hemisphere,-0.0,0.0,0.12834557723322676,-0.9917295058657224
2025/04/11 12:08:20.353735071,1744366100,353194125,hemisphere,-0.0,0.0,0.1281638311548117,-0.9917530097679165
2025/04/11 12:08:20.404927950,1744366100,403254958,hemisphere,-0.0,0.0,0.12801670022420802,-0.9917720123413976
2025/04/11 12:08:20.454161994,1744366100,453318684,hemisphere,-0.0,0.0,0.1278349463615979,-0.9917954559730183
2025/04/11 12:08:20.503660286,1744366100,503055102,hemisphere,-0.0,0.0,0.12762722240482596,-0.9918222079088718
2025/04/11 12:08:20.554447228,1744366100,553593584,hemisphere,-0.0,0.0,0.1274541148306065,-0.991844467954904
2025/04/11 12:08:20.604197236,1744366100,603138174,hemisphere,-0.0,0.0,0.12722041344781185,-0.9918744710910589
2025/04/11 12:08:20.653706736,1744366100,652901804,hemisphere,-0.0,0.0,0.12700401698081956,-0.9919022026746063
2025/04/11 12:08:20.703955898,1744366100,703247286,hemisphere,-0.0,0.0,0.1268049268920501,-0.9919276740347059
2025/04/11 12:08:20.753596442,1744366100,752984253,hemisphere,-0.0,0.0,0.12659717526618267,-0.9919542102408878
2025/04/11 12:08:20.805701661,1744366100,804815909,hemisphere,-0.0,0.0,0.1263634480497585,-0.9919840114623704
2025/04/11 12:08:20.853677921,1744366100,853018402,hemisphere,-0.0,0.0,0.1260950859286485,-0.9920181597655594
2025/04/11 12:08:20.905171857,1744366100,902844298,hemisphere,-0.0,0.0,0.1258353718634925,-0.9920511373855567
2025/04/11 12:08:20.953696806,1744366100,953213495,hemisphere,-0.0,0.0,0.12558430673547274,-0.9920829511193964
2025/04/11 12:08:21.3358429,1744366101,2892770,hemisphere,-0.0,0.0,0.1253332335643041,-0.9921147013144779
2025/04/11 12:08:21.53741256,1744366101,53290885,hemisphere,-0.0,0.0,0.12507349425073871,-0.9921474794786864
2025/04/11 12:08:21.103751398,1744366101,102978746,hemisphere,-0.0,0.0,0.12478777110537678,-0.9921834569184028
2025/04/11 12:08:21.153793531,1744366101,153413483,hemisphere,-0.0,0.0,0.12451935508673664,-0.9922171789526641
2025/04/11 12:08:21.203547920,1744366101,203080225,hemisphere,-0.0,0.0,0.12423361189234626,-0.9922529968088692
2025/04/11 12:08:21.253249867,1744366101,252806499,hemisphere,-0.0,0.0,0.1239391990375267,-0.9922898139867891
2025/04/11 12:08:21.304475082,1744366101,304030131,hemisphere,-0.0,0.0,0.12364477527179081,-0.9923265438090368
2025/04/11 12:08:21.353740396,1744366101,352921165,hemisphere,-0.0,0.0,0.12335034062105717,-0.9923631862723794
2025/04/11 12:08:21.403758188,1744366101,403257046,hemisphere,-0.0,0.0,0.12302991410460455,-0.9924029626293009
2025/04/11 12:08:21.454227342,1744366101,453532920,hemisphere,-0.0,0.0,0.1227700994033369,-0.9924351377760134
2025/04/11 12:08:21.503117614,1744366101,502684902,hemisphere,-0.0,0.0,0.12244098870447873,-0.99247579531446
2025/04/11 12:08:21.554770727,1744366101,554131734,hemisphere,-0.0,0.0,0.12214650982291995,-0.9925120806005735
2025/04/11 12:08:21.603667742,1744366101,603181748,hemisphere,-0.0,0.0,0.12185202018826236,-0.9925482785114482
2025/04/11 12:08:21.658833502,1744366101,656696676,hemisphere,-0.0,0.0,0.12147956205598004,-0.9925939330877896
2025/04/11 12:08:21.703435873,1744366101,702960261,hemisphere,-0.0,0.0,0.12117638582965069,-0.992630990608929
2025/04/11 12:08:21.753846801,1744366101,753354701,hemisphere,-0.0,0.0,0.12085587295627453,-0.9926700650125282
2025/04/11 12:08:21.805976413,1744366101,803354747,hemisphere,-0.0,0.0,0.1205353474830326,-0.9927090359250008
2025/04/11 12:08:21.853297905,1744366101,852769574,hemisphere,-0.0,0.0,0.12017149253002819,-0.9927531477578428
2025/04/11 12:08:21.903892396,1744366101,903288216,hemisphere,-0.0,0.0,0.11982494899404189,-0.9927950350392448
2025/04/11 12:08:21.953893976,1744366101,953006300,hemisphere,-0.0,0.0,0.11947839085774858,-0.9928368013515833
2025/04/11 12:08:22.11122930,1744366102,3976429,hemisphere,-0.0,0.0,0.11913181816337576,-0.992878446689769
2025/04/11 12:08:22.53540282,1744366102,53058813,hemisphere,-0.0,0.0,0.11876790121235732,-0.9929220440908801
2025/04/11 12:08:22.103216277,1744366102,102715828,hemisphere,-0.0,0.0,0.11840396830650123,-0.9929655081065369
2025/04/11 12:08:22.153677079,1744366102,153173083,hemisphere,-0.0,0.0,0.11800535687531406,-0.9930129584999029
2025/04/11 12:08:22.203760486,1744366102,202806901,hemisphere,-0.0,0.0,0.11759806033845155,-0.9930612751510522
2025/04/11 12:08:22.253616197,1744366102,253216895,hemisphere,-0.0,0.0,0.11720807703010276,-0.9931073792289057
2025/04/11 12:08:22.303816496,1744366102,302993146,hemisphere,-0.0,0.0,0.11680940874455352,-0.9931543495493276
2025/04/11 12:08:22.353833401,1744366102,353371781,hemisphere,-0.0,0.0,0.11643672354169517,-0.9931981118643324
2025/04/11 12:08:22.403546415,1744366102,403058989,hemisphere,-0.0,0.0,0.11604668658724249,-0.993243759875753
2025/04/11 12:08:22.453573723,1744366102,453112410,hemisphere,-0.0,0.0,0.11563929555139853,-0.9932912731542427
2025/04/11 12:08:22.503583751,1744366102,503144989,hemisphere,-0.0,0.0,0.11525789056688794,-0.9933356022322322
2025/04/11 12:08:22.553838930,1744366102,552945386,hemisphere,-0.0,0.0,0.11482445518799696,-0.9933857984140803
2025/04/11 12:08:22.603788245,1744366102,603326568,hemisphere,-0.0,0.0,0.114390997948151,-0.9934358054692947
2025/04/11 12:08:22.653572347,1744366102,653155409,hemisphere,-0.0,0.0,0.1140008678093786,-0.9934806501078461
2025/04/11 12:08:22.705370422,1744366102,703401611,hemisphere,-0.0,0.0,0.11357603944420801,-0.9935293066961677
2025/04/11 12:08:22.753641200,1744366102,753187968,hemisphere,-0.0,0.0,0.11313384909114722,-0.9935797563305231
2025/04/11 12:08:22.803608828,1744366102,802825162,hemisphere,-0.0,0.0,0.11271764946300689,-0.9936270585584588
2025/04/11 12:08:22.853700540,1744366102,853296849,hemisphere,-0.0,0.0,0.11229275861007068,-0.9936751664219754
2025/04/11 12:08:22.903636643,1744366102,902935174,hemisphere,-0.0,0.0,0.1118591753506166,-0.9937240687886553
2025/04/11 12:08:22.953981518,1744366102,953603250,hemisphere,-0.0,0.0,0.1114342430940416,-0.993771809554919
2025/04/11 12:08:23.4185280,1744366103,3311920,hemisphere,-0.0,0.0,0.11100929046209462,-0.9938193686133826
2025/04/11 12:08:23.53257218,1744366103,52786227,hemisphere,-0.0,0.0,0.11056697126859069,-0.9938686758644176
2025/04/11 12:08:23.105540047,1744366103,103602466,hemisphere,-0.0,0.0,0.11015932438288951,-0.9939139415721592
2025/04/11 12:08:23.153767308,1744366103,153316767,hemisphere,-0.0,0.0,0.10969961524158045,-0.9939647852996851
2025/04/11 12:08:23.203821420,1744366103,203270631,hemisphere,-0.0,0.0,0.1092659058589041,-0.9940125561665875
2025/04/11 12:08:23.253411573,1744366103,252954948,hemisphere,-0.0,0.0,0.10884085048058141,-0.9940591880097803
2025/04/11 12:08:23.303886102,1744366103,303433090,hemisphere,-0.0,0.0,0.10841577520107802,-0.9941056380926272
2025/04/11 12:08:23.358016656,1744366103,353219758,hemisphere,-0.0,0.0,0.1079559775842707,-0.9941556753868201
2025/04/11 12:08:23.404430317,1744366103,403883822,hemisphere,-0.0,0.0,0.10749615687378201,-0.9942055000136377
2025/04/11 12:08:23.453656534,1744366103,453247882,hemisphere,-0.0,0.0,0.10707101915337576,-0.9942513750845193
2025/04/11 12:08:23.503354421,1744366103,502901807,hemisphere,-0.0,0.0,0.10660247735992659,-0.9943017207169694
2025/04/11 12:08:23.557280298,1744366103,553932731,hemisphere,-0.0,0.0,0.1061512665911443,-0.9943499930110604
2025/04/11 12:08:23.604493349,1744366103,603092285,hemisphere,-0.0,0.0,0.10568267842721676,-0.9943999052093929
2025/04/11 12:08:23.654301851,1744366103,653587746,hemisphere,-0.0,0.0,0.10522274500059621,-0.9944486783814133
2025/04/11 12:08:23.703731797,1744366103,703140802,hemisphere,-0.0,0.0,0.10472807449872432,-0.9945008951287021
2025/04/11 12:08:23.755189826,1744366103,753285426,hemisphere,-0.0,0.0,0.10424205719153358,-0.9945519561654269
2025/04/11 12:08:23.804513252,1744366103,803896992,hemisphere,-0.0,0.0,0.10377337406670145,-0.9946009686476344
2025/04/11 12:08:23.853689630,1744366103,853226205,hemisphere,-0.0,0.0,0.10327862799209037,-0.9946524644317086
2025/04/11 12:08:23.903975558,1744366103,903385612,hemisphere,-0.0,0.0,0.10277517593235413,-0.9947046110338856
2025/04/11 12:08:23.953483723,1744366103,953057494,hemisphere,-0.0,0.0,0.10229774017263302,-0.99475382500173
2025/04/11 12:08:24.6997520,1744366104,3322921,hemisphere,-0.0,0.0,0.10182028084689664,-0.9948028098112003
2025/04/11 12:08:24.53586802,1744366104,53183634,hemisphere,-0.0,0.0,0.10130807113263039,-0.9948551023759118
2025/04/11 12:08:24.104471169,1744366104,104043190,hemisphere,-0.0,0.0,0.10083056331123935,-0.9949036121666953
2025/04/11 12:08:24.153854500,1744366104,153360642,hemisphere,-0.0,0.0,0.10032698444779348,-0.9949545196598748
2025/04/11 12:08:24.205196123,1744366104,204036129,hemisphere,-0.0,0.0,0.09983206293661916,-0.9950043011011656
2025/04/11 12:08:24.253216943,1744366104,252739713,hemisphere,-0.0,0.0,0.09932843323782517,-0.9950547031950148
2025/04/11 12:08:24.306481269,1744366104,305467728,hemisphere,-0.0,0.0,0.0988421459337403,-0.9951031254031982
2025/04/11 12:08:24.353506973,1744366104,352919100,hemisphere,-0.0,0.0,0.09832109763042518,-0.995154742620839
2025/04/11 12:08:24.405391690,1744366104,404987115,hemisphere,-0.0,0.0,0.09780002237182352,-0.9952060870111632
2025/04/11 12:08:24.453984288,1744366104,453105293,hemisphere,-0.0,0.0,0.09731366127015956,-0.9952537622788455
2025/04/11 12:08:24.505209960,1744366104,504685471,hemisphere,-0.0,0.0,0.09676647725696853,-0.9953071128447122
2025/04/11 12:08:24.554243157,1744366104,553119061,hemisphere,-0.0,0.0,0.09623663629289284,-0.9953584830778455
2025/04/11 12:08:24.605925435,1744366104,605093185,hemisphere,-0.0,0.0,0.09572414121805414,-0.9954079007060703
2025/04/11 12:08:24.653666942,1744366104,653224038,hemisphere,-0.0,0.0,0.09522030776534268,-0.9954562235422879
2025/04/11 12:08:24.703612265,1744366104,702932885,hemisphere,-0.0,0.0,0.094699075076756,-0.9955059443215831
2025/04/11 12:08:24.754254615,1744366104,753674989,hemisphere,-0.0,0.0,0.09417781642588124,-0.9955553921772776
2025/04/11 12:08:24.811680515,1744366104,803087707,hemisphere,-0.0,0.0,0.09369128505404588,-0.9956012972595614
2025/04/11 12:08:24.853840516,1744366104,853463671,hemisphere,-0.0,0.0,0.09316997661463751,-0.9956502174245874
2025/04/11 12:08:24.905339418,1744366104,903284769,hemisphere,-0.0,0.0,0.09266602084158537,-0.9956972474509442
2025/04/11 12:08:24.953499730,1744366104,952823679,hemisphere,-0.0,0.0,0.0921533518196934,-0.9957448266239679
2025/04/11 12:08:25.7069392,1744366105,3522538,hemisphere,-0.0,0.0,0.09168410791016707,-0.9957881423057401
2025/04/11 12:08:25.53965482,1744366105,52956390,hemisphere,-0.0,0.0,0.09115401160198862,-0.9958368069964398
2025/04/11 12:08:25.108592159,1744366105,104520717,hemisphere,-0.0,0.0,0.0906760337658033,-0.9958804430756248
2025/04/11 12:08:25.153590458,1744366105,153114730,hemisphere,-0.0,0.0,0.09017196178453599,-0.9959262107746378
2025/04/11 12:08:25.203743192,1744366105,202771520,hemisphere,-0.0,0.0,0.08969394115073512,-0.9959693754934679
2025/04/11 12:08:25.254012601,1744366105,253246568,hemisphere,-0.0,0.0,0.08919851614661632,-0.9960138677333975
2025/04/11 12:08:25.304295111,1744366105,303086537,hemisphere,-0.0,0.0,0.0886943768223221,-0.9960588875764826
2025/04/11 12:08:25.354859521,1744366105,353412829,hemisphere,-0.0,0.0,0.08820760005100374,-0.9961021128846391
2025/04/11 12:08:25.405203297,1744366105,403151385,hemisphere,-0.0,0.0,0.08771210920468872,-0.9961458657741169
2025/04/11 12:08:25.453129803,1744366105,452717466,hemisphere,-0.0,0.0,0.08727745023920926,-0.996184042574334
2025/04/11 12:08:25.503612021,1744366105,503051170,hemisphere,-0.0,0.0,0.08680799989543633,-0.996225060492936
2025/04/11 12:08:25.554554011,1744366105,552944327,hemisphere,-0.0,0.0,0.08632983621154564,-0.9962666105916066
2025/04/11 12:08:25.605055379,1744366105,603616890,hemisphere,-0.0,0.0,0.08581687488029449,-0.9963109273644347
2025/04/11 12:08:25.653797602,1744366105,652963283,hemisphere,-0.0,0.0,0.08536475450258782,-0.9963497672447729
2025/04/11 12:08:25.704754303,1744366105,703716664,hemisphere,-0.0,0.0,0.08486044565535268,-0.9963928466037755
2025/04/11 12:08:25.753359670,1744366105,752989071,hemisphere,-0.0,0.0,0.0843908971833705,-0.9964327255126589
2025/04/11 12:08:25.803135005,1744366105,802738261,hemisphere,-0.0,0.0,0.08389524235628733,-0.9964745798614132
2025/04/11 12:08:25.858617741,1744366105,857744770,hemisphere,-0.0,0.0,0.08337347801001907,-0.9965183707110035
2025/04/11 12:08:25.903262823,1744366105,902844027,hemisphere,-0.0,0.0,0.08286908407997101,-0.9965604421728502
2025/04/11 12:08:25.953760729,1744366105,953294343,hemisphere,-0.0,0.0,0.08234727491696726,-0.9966036957154782
2025/04/11 12:08:26.3291892,1744366106,2906025,hemisphere,-0.0,0.0,0.081842837931503,-0.9966452477583575
2025/04/11 12:08:26.55973853,1744366106,53501044,hemisphere,-0.0,0.0,0.08134707770708377,-0.996685834628203
2025/04/11 12:08:26.103424337,1744366106,103088091,hemisphere,-0.0,0.0,0.08086869349650083,-0.9967247636194102
2025/04/11 12:08:26.153289705,1744366106,152837812,hemisphere,-0.0,0.0,0.08032940169146811,-0.9967683719018631
2025/04/11 12:08:26.203630220,1744366106,203228019,hemisphere,-0.0,0.0,0.07980748400485198,-0.9968102956414602
2025/04/11 12:08:26.253340572,1744366106,252915724,hemisphere,-0.0,0.0,0.07931164193430978,-0.9968498700675463
2025/04/11 12:08:26.303693882,1744366106,303316371,hemisphere,-0.0,0.0,0.07876358313568972,-0.9968933232656478
2025/04/11 12:08:26.353553403,1744366106,353056478,hemisphere,-0.0,0.0,0.07825030013044494,-0.9969337443027472
2025/04/11 12:08:26.403031882,1744366106,402683766,hemisphere,-0.0,0.0,0.07771089563923761,-0.9969759358675352
2025/04/11 12:08:26.455244337,1744366106,454690824,hemisphere,-0.0,0.0,0.07718886963132728,-0.9970164885321797
2025/04/11 12:08:26.503063257,1744366106,502750809,hemisphere,-0.0,0.0,0.07665812149701733,-0.9970574368653736
2025/04/11 12:08:26.553977652,1744366106,553276751,hemisphere,-0.0,0.0,0.07613605295959829,-0.9970974382876195
2025/04/11 12:08:26.603333082,1744366106,602981250,hemisphere,-0.0,0.0,0.07559656021088573,-0.9971384859106993
2025/04/11 12:08:26.653666037,1744366106,653318978,hemisphere,-0.0,0.0,0.07509185340850133,-0.9971766210414663
2025/04/11 12:08:26.703437743,1744366106,703076522,hemisphere,-0.0,0.0,0.07454361560688992,-0.9972177542403927
2025/04/11 12:08:26.753351541,1744366106,752801134,hemisphere,-0.0,0.0,0.07403886881807359,-0.9972553564178736
2025/04/11 12:08:26.803610323,1744366106,803150159,hemisphere,-0.0,0.0,0.0735079939746296,-0.997294627891791
2025/04/11 12:08:26.853948918,1744366106,852892651,hemisphere,-0.0,0.0,0.07295969153473257,-0.9973348903007238
2025/04/11 12:08:26.903762446,1744366106,903360983,hemisphere,-0.0,0.0,0.07245488566091879,-0.9973716907672201
2025/04/11 12:08:26.953633250,1744366106,952982862,hemisphere,-0.0,0.0,0.07189783695367336,-0.9974120016529694
2025/04/11 12:08:27.3493918,1744366107,2798113,hemisphere,-0.0,0.0,0.07137558341910365,-0.9974495105475678
2025/04/11 12:08:27.53594853,1744366107,53167268,hemisphere,-0.0,0.0,0.07082719615029114,-0.9974886005792187
2025/04/11 12:08:27.104473014,1744366107,102927666,hemisphere,-0.0,0.0,0.07032231274987229,-0.9975243216731656
2025/04/11 12:08:27.153713022,1744366107,153219213,hemisphere,-0.0,0.0,0.06979129525597341,-0.9975616146917912
2025/04/11 12:08:27.203314468,1744366107,202930122,hemisphere,-0.0,0.0,0.06926896367296352,-0.9975980205832777
2025/04/11 12:08:27.255715771,1744366107,253407716,hemisphere,-0.0,0.0,0.0687379070965066,-0.997634752866996
2025/04/11 12:08:27.303471979,1744366107,303090900,hemisphere,-0.0,0.0,0.06823294998939101,-0.9976694164580496
2025/04/11 12:08:27.353165339,1744366107,352756672,hemisphere,-0.0,0.0,0.06771056217512547,-0.9977050063871227
2025/04/11 12:08:27.404076877,1744366107,403265276,hemisphere,-0.0,0.0,0.06718815579762483,-0.9977403227897097
2025/04/11 12:08:27.453397786,1744366107,452980726,hemisphere,-0.0,0.0,0.0666309020288512,-0.9977776921212569
2025/04/11 12:08:27.503715913,1744366107,503265346,hemisphere,-0.0,0.0,0.06609975018244577,-0.9978130200723071
2025/04/11 12:08:27.553481721,1744366107,553031231,hemisphere,-0.0,0.0,0.06559470318411867,-0.9978463483493776
2025/04/11 12:08:27.603849828,1744366107,603408197,hemisphere,-0.0,0.0,0.06508963938152812,-0.997879420994933
2025/04/11 12:08:27.654271712,1744366107,653419684,hemisphere,-0.0,0.0,0.06459326732870264,-0.9979116743559034
2025/04/11 12:08:27.703318193,1744366107,702796723,hemisphere,-0.0,0.0,0.06406204444885406,-0.9979459176032702
2025/04/11 12:08:27.753857657,1744366107,753480760,hemisphere,-0.0,0.0,0.06353080341572165,-0.997979878062355
2025/04/11 12:08:27.803408824,1744366107,802890929,hemisphere,-0.0,0.0,0.06304309087617502,-0.9980108058998051
2025/04/11 12:08:27.854681547,1744366107,853613571,hemisphere,-0.0,0.0,0.06251181544572502,-0.9980442239348313
2025/04/11 12:08:27.906461100,1744366107,905561191,hemisphere,-0.0,0.0,0.06198052230128012,-0.9980773591537183
2025/04/11 12:08:27.954523679,1744366107,953178336,hemisphere,-0.0,0.0,0.0614492115933926,-0.9981102115470768
2025/04/11 12:08:28.3611089,1744366108,3178125,hemisphere,-0.0,0.0,0.06094401476864483,-0.9981411859370793
2025/04/11 12:08:28.53136709,1744366108,52807419,hemisphere,-0.0,0.0,0.06040395952177388,-0.9981740137241061
2025/04/11 12:08:28.106000588,1744366108,105050430,hemisphere,-0.0,0.0,0.05988130857419081,-0.9982055043343744
2025/04/11 12:08:28.153641855,1744366108,153002762,hemisphere,-0.0,0.0,0.05933250741321741,-0.9982382749444446
2025/04/11 12:08:28.203830865,1744366108,203373852,hemisphere,-0.0,0.0,0.05877497676070884,-0.9982712567768233
2025/04/11 12:08:28.253476457,1744366108,253109002,hemisphere,-0.0,0.0,0.058243563290370906,-0.9983024027494076
2025/04/11 12:08:28.305705621,1744366108,303398982,hemisphere,-0.0,0.0,0.05771213331553416,-0.9983332658326928
2025/04/11 12:08:28.354936217,1744366108,353424281,hemisphere,-0.0,0.0,0.057145837479469046,-0.9983658413922074
2025/04/11 12:08:28.403585070,1744366108,402904001,hemisphere,-0.0,0.0,0.05659694858200526,-0.9983971080743402
2025/04/11 12:08:28.453814993,1744366108,453344187,hemisphere,-0.0,0.0,0.05603061671198532,-0.9984290510551437
2025/04/11 12:08:28.503521689,1744366108,503076441,hemisphere,-0.0,0.0,0.055481693231738384,-0.9984597046031148
2025/04/11 12:08:28.553769568,1744366108,552803223,hemisphere,-0.0,0.0,0.05492403951017415,-0.998490535700707
2025/04/11 12:08:28.603616415,1744366108,603157039,hemisphere,-0.0,0.0,0.054357654914148526,-0.9985215297389608
2025/04/11 12:08:28.653473371,1744366108,652885504,hemisphere,-0.0,0.0,0.053756396748292475,-0.9985540795613627
2025/04/11 12:08:28.703655134,1744366108,703296820,hemisphere,-0.0,0.0,0.05324226198057404,-0.9985816248755992
2025/04/11 12:08:28.753744317,1744366108,753021886,hemisphere,-0.0,0.0,0.052658396916889144,-0.9986125841557092
2025/04/11 12:08:28.803787930,1744366108,803380737,hemisphere,-0.0,0.0,0.0521006582516126,-0.9986418384034131
2025/04/11 12:08:28.853694996,1744366108,853044727,hemisphere,-0.0,0.0,0.051551618379344785,-0.998670331311825
2025/04/11 12:08:28.903646519,1744366108,902957767,hemisphere,-0.0,0.0,0.05097641704160731,-0.9986998572672373
2025/04/11 12:08:28.953853572,1744366108,953248056,hemisphere,-0.0,0.0,0.050409914346773776,-0.998728612054121
2025/04/11 12:08:29.3291058,1744366109,2926316,hemisphere,-0.0,0.0,0.04984339543244193,-0.9987570454979355
2025/04/11 12:08:29.53747035,1744366109,53298050,hemisphere,-0.0,0.0,0.04930300859828101,-0.9987838671820635
2025/04/11 12:08:29.103537064,1744366109,102990933,hemisphere,-0.0,0.0,0.048762607331288836,-0.9988103964848657
2025/04/11 12:08:29.153163566,1744366109,152755794,hemisphere,-0.0,0.0,0.04822219178966147,-0.998836633398576
2025/04/11 12:08:29.203552219,1744366109,203149956,hemisphere,-0.0,0.0,0.04761202825241875,-0.9988659042963128
2025/04/11 12:08:29.253517694,1744366109,253087941,hemisphere,-0.0,0.0,0.047054148893545505,-0.9988923400807036
2025/04/11 12:08:29.303645453,1744366109,303261180,hemisphere,-0.0,0.0,0.046496254857154445,-0.9989184642823751
2025/04/11 12:08:29.353600131,1744366109,353193910,hemisphere,-0.0,0.0,0.04595578117694713,-0.9989434749656342
2025/04/11 12:08:29.403842721,1744366109,402767410,hemisphere,-0.0,0.0,0.04541529404376744,-0.9989681932208443
2025/04/11 12:08:29.453832893,1744366109,453201488,hemisphere,-0.0,0.0,0.04487479361583523,-0.9989926190407696
2025/04/11 12:08:29.503165858,1744366109,502768995,hemisphere,-0.0,0.0,0.04432556198388204,-0.9990171392697991
2025/04/11 12:08:29.553917019,1744366109,553235794,hemisphere,-0.0,0.0,0.04375888038651407,-0.99904212142798
2025/04/11 12:08:29.604051596,1744366109,603651339,hemisphere,-0.0,0.0,0.04320090321038562,-0.9990664051812607
2025/04/11 12:08:29.667086579,1744366109,655359126,hemisphere,-0.0,0.0,0.0426690686689736,-0.9990892605663032
2025/04/11 12:08:29.703984773,1744366109,703140403,hemisphere,-0.0,0.0,0.04209362751861712,-0.9991136704711452
2025/04/11 12:08:29.753239730,1744366109,752702897,hemisphere,-0.0,0.0,0.041579206179009585,-0.9991352108766478
2025/04/11 12:08:29.803562197,1744366109,803137586,hemisphere,-0.0,0.0,0.04100373874394486,-0.9991589930581711
2025/04/11 12:08:29.853774908,1744366109,852979347,hemisphere,-0.0,0.0,0.04044569672409194,-0.9991817380319272
2025/04/11 12:08:29.903954193,1744366109,903274795,hemisphere,-0.0,0.0,0.039896361787909215,-0.9992038232093031
2025/04/11 12:08:29.953379636,1744366109,952944416,hemisphere,-0.0,0.0,0.039303415313342145,-0.9992273222569061
2025/04/11 12:08:30.4259801,1744366110,3370478,hemisphere,-0.0,0.0,0.03876277557770345,-0.9992484411944372
2025/04/11 12:08:30.53471406,1744366110,53109984,hemisphere,-0.0,0.0,0.03819596367340683,-0.9992702679250793
2025/04/11 12:08:30.103889102,1744366110,103461996,hemisphere,-0.0,0.0,0.03766402131980411,-0.999290459024813
2025/04/11 12:08:30.154641173,1744366110,153229542,hemisphere,-0.0,0.0,0.03711462703152751,-0.9993110148799075
2025/04/11 12:08:30.203275821,1744366110,202915929,hemisphere,-0.0,0.0,0.03653905908114519,-0.9993322256194206
2025/04/11 12:08:30.254560478,1744366110,253645546,hemisphere,-0.0,0.0,0.03596347900972159,-0.9993531048520925
2025/04/11 12:08:30.303672632,1744366110,303084299,hemisphere,-0.0,0.0,0.03541405053710399,-0.9993727257758016
2025/04/11 12:08:30.353152013,1744366110,352735690,hemisphere,-0.0,0.0,0.03487333269987565,-0.9993917403432969
2025/04/11 12:08:30.403628264,1744366110,403165889,hemisphere,-0.0,0.0,0.03428899711338546,-0.9994119594426306
2025/04/11 12:08:30.457213508,1744366110,452955341,hemisphere,-0.0,0.0,0.033713371491782766,-0.9994315427194886
2025/04/11 12:08:30.503770548,1744366110,503272832,hemisphere,-0.0,0.0,0.033155178388526566,-0.9994502159417572
2025/04/11 12:08:30.553474590,1744366110,552942757,hemisphere,-0.0,0.0,0.03259697494323336,-0.9994685774072891
2025/04/11 12:08:30.604162032,1744366110,603359482,hemisphere,-0.0,0.0,0.032038761330023924,-0.9994866271103571
2025/04/11 12:08:30.658773494,1744366110,655248322,hemisphere,-0.0,0.0,0.03150670467531592,-0.9995035405442557
2025/04/11 12:08:30.703258946,1744366110,702788523,hemisphere,-0.0,0.0,0.030965916632403022,-0.9995204410151476
2025/04/11 12:08:30.753639293,1744366110,753220740,hemisphere,-0.0,0.0,0.030460009931065065,-0.9995359862431165
2025/04/11 12:08:30.803272649,1744366110,802896353,hemisphere,-0.0,0.0,0.029927927224923247,-0.9995520592605569
2025/04/11 12:08:30.853752920,1744366110,853290838,hemisphere,-0.0,0.0,0.029395836038094265,-0.9995678490345823
2025/04/11 12:08:30.903429681,1744366110,903005577,hemisphere,-0.0,0.0,0.028872459530609035,-0.9995831036390388
2025/04/11 12:08:30.953883216,1744366110,953367272,hemisphere,-0.0,0.0,0.028366521381022268,-0.9995975892651703
2025/04/11 12:08:31.3595534,1744366111,3097064,hemisphere,-0.0,0.0,0.027825682912481792,-0.9996127907197137
2025/04/11 12:08:31.53748972,1744366111,52842405,hemisphere,-0.0,0.0,0.02733717664485279,-0.9996262695493192
2025/04/11 12:08:31.103571327,1744366111,103197881,hemisphere,-0.0,0.0,0.026831216843693762,-0.9996399780934567
2025/04/11 12:08:31.155799975,1744366111,153924788,hemisphere,-0.0,0.0,0.026325250168826548,-0.9996534305465813
2025/04/11 12:08:31.203836072,1744366111,203390857,hemisphere,-0.0,0.0,0.02582800048591842,-0.9996664015514873
2025/04/11 12:08:31.253650193,1744366111,253147212,hemisphere,-0.0,0.0,0.02529584901268289,-0.9996800088141843
2025/04/11 12:08:31.303448003,1744366111,302752598,hemisphere,-0.0,0.0,0.02481603415788666,-0.999692034803056
2025/04/11 12:08:31.353523041,1744366111,353151480,hemisphere,-0.0,0.0,0.024318765459204673,-0.9997042550907445
2025/04/11 12:08:31.403408896,1744366111,402941504,hemisphere,-0.0,0.0,0.023812766572650978,-0.9997164358697702
2025/04/11 12:08:31.453834007,1744366111,453296951,hemisphere,-0.0,0.0,0.02333293440495042,-0.999727750026003
2025/04/11 12:08:31.503420937,1744366111,502971968,hemisphere,-0.0,0.0,0.022835648124323298,-0.9997392325875494
2025/04/11 12:08:31.556221810,1744366111,554365564,hemisphere,-0.0,0.0,0.022320907252810895,-0.9997508575137165
2025/04/11 12:08:31.608526571,1744366111,604684284,hemisphere,-0.0,0.0,0.021849783299481566,-0.9997612649876798
2025/04/11 12:08:31.664431900,1744366111,653984983,hemisphere,-0.0,0.0,0.021361205187222974,-0.9997718234241998
2025/04/11 12:08:31.718629260,1744366111,703826240,hemisphere,-0.0,0.0,0.020863897227585887,-0.9997823252050803
2025/04/11 12:08:31.777493797,1744366111,752929723,hemisphere,-0.0,0.0,0.020375308941088605,-0.9997924018442804
2025/04/11 12:08:31.808958226,1744366111,805659136,hemisphere,-0.0,0.0,0.019869265944578964,-0.9998025866493963
2025/04/11 12:08:31.857640094,1744366111,854346559,hemisphere,-0.0,0.0,0.01941556789221572,-0.9998115000956045
2025/04/11 12:08:31.904691035,1744366111,903140468,hemisphere,-0.0,0.0,0.01894441568433222,-0.9998205384539663
2025/04/11 12:08:31.954855867,1744366111,954391466,hemisphere,-0.0,0.0,0.01845580895252472,-0.9998296770530009
2025/04/11 12:08:32.3922864,1744366112,3037261,hemisphere,-0.0,0.0,0.017967197813100407,-0.9998385768726595
2025/04/11 12:08:32.54359265,1744366112,53717182,hemisphere,-0.0,0.0,0.01752220893189192,-0.9998464743120051
2025/04/11 12:08:32.106005840,1744366112,103854979,hemisphere,-0.0,0.0,0.017033589695259838,-0.999854917886637
2025/04/11 12:08:32.154168038,1744366112,153387755,hemisphere,-0.0,0.0,0.016571142740331658,-0.9998626891870102
2025/04/11 12:08:32.203775781,1744366112,203081757,hemisphere,-0.0,0.0,0.016126143265986416,-0.9998699652971705
2025/04/11 12:08:32.253311228,1744366112,252800978,hemisphere,-0.0,0.0,0.015663689448506123,-0.9998773168908578
2025/04/11 12:08:32.303773515,1744366112,303170502,hemisphere,-0.0,0.0,0.01520995791764432,-0.9998843218993603
2025/04/11 12:08:32.353445734,1744366112,352924361,hemisphere,-0.0,0.0,0.014773674644701543,-0.9998908633133381
2025/04/11 12:08:32.408265056,1744366112,406766131,hemisphere,-0.0,0.0,0.014337388559060098,-0.9998972143622097
2025/04/11 12:08:32.455779428,1744366112,453460332,hemisphere,-0.0,0.0,0.013892373940205014,-0.9999034963166724
2025/04/11 12:08:32.503180976,1744366112,502710311,hemisphere,-0.0,0.0,0.013438630711873326,-0.9999096975250265
2025/04/11 12:08:32.553526743,1744366112,553137073,hemisphere,-0.0,0.0,0.013002336535343752,-0.9999154660493165
2025/04/11 12:08:32.603212326,1744366112,602785489,hemisphere,-0.0,0.0,0.012592217750765137,-0.9999207148829938
2025/04/11 12:08:32.653796855,1744366112,653285046,hemisphere,-0.0,0.0,0.012112288828602207,-0.9999266435390811
2025/04/11 12:08:32.703619116,1744366112,703009694,hemisphere,-0.0,0.0,0.011675987384238187,-0.9999318333359545
2025/04/11 12:08:32.753709851,1744366112,753338984,hemisphere,-0.0,0.0,0.01127458809016256,-0.9999364398117498
2025/04/11 12:08:32.803507755,1744366112,803063696,hemisphere,-0.0,0.0,0.010855734716845044,-0.9999410747757878
2025/04/11 12:08:32.855783598,1744366112,853264639,hemisphere,-0.0,0.0,0.010428153267429277,-0.9999456253314132
2025/04/11 12:08:32.903632669,1744366112,903127325,hemisphere,-0.0,0.0,0.00998311749000506,-0.9999501674409484
2025/04/11 12:08:32.953606474,1744366112,952898548,hemisphere,-0.0,0.0,0.009599163462400553,-0.999953926969049
2025/04/11 12:08:33.3913236,1744366113,3472085,hemisphere,-0.0,0.0,0.009215208019544575,-0.9999575390691129
2025/04/11 12:08:33.53811152,1744366113,53029998,hemisphere,-0.0,0.0,0.008805072297162713,-0.9999612345995428
2025/04/11 12:08:33.104961260,1744366113,103886919,hemisphere,-0.0,0.0,0.0083862087544788,-0.9999648351330792
2025/04/11 12:08:33.154721074,1744366113,153968044,hemisphere,-0.0,0.0,0.007976070109327807,-0.9999681906468881
2025/04/11 12:08:33.203112316,1744366113,202746657,hemisphere,-0.0,0.0,0.007565930122403121,-0.9999713779410804
2025/04/11 12:08:33.253762501,1744366113,253250717,hemisphere,-0.0,0.0,0.007155788862700085,-0.9999743970151198
2025/04/11 12:08:33.303597702,1744366113,302947296,hemisphere,-0.0,0.0,0.006754372846667767,-0.9999771889635524
2025/04/11 12:08:33.355110601,1744366113,353776508,hemisphere,-0.0,0.0,0.0063616822121302825,-0.999979764294974
2025/04/11 12:08:33.403602613,1744366113,403035668,hemisphere,-0.0,0.0,0.005942811122104085,-0.9999823413420694
2025/04/11 12:08:33.453394643,1744366113,452864948,hemisphere,-0.0,0.0,0.005515212476026962,-0.9999847911000168
2025/04/11 12:08:33.510547824,1744366113,503200278,hemisphere,-0.0,0.0,0.005122518951684597,-0.9999868798137251
2025/04/11 12:08:33.554267395,1744366113,553651235,hemisphere,-0.0,0.0,0.004729824637385881,-0.9999888143168901
2025/04/11 12:08:33.604781840,1744366113,604009455,hemisphere,-0.0,0.0,0.004328403029340967,-0.9999906324197321
2025/04/11 12:08:33.653569447,1744366113,653005800,hemisphere,-0.0,0.0,0.0039618870372952145,-0.9999921516947539
2025/04/11 12:08:33.703541905,1744366113,702741575,hemisphere,-0.0,0.0,0.0035604641514147346,-0.9999936615274252
2025/04/11 12:08:33.754042871,1744366113,753139822,hemisphere,-0.0,0.0,0.003167767294387139,-0.9999949826125972
2025/04/11 12:08:33.803253557,1744366113,802852541,hemisphere,-0.0,0.0,0.0027925231737424374,-0.9999961008995606
2025/04/11 12:08:33.854956365,1744366113,853910273,hemisphere,-0.0,0.0,0.0023910987967667593,-0.999997141319186
2025/04/11 12:08:33.905267710,1744366113,903060034,hemisphere,-0.0,0.0,0.0020071272921522573,-0.9999979857179879
2025/04/11 12:08:33.966888565,1744366113,953616803,hemisphere,-0.0,0.0,0.0016406087608973221,-0.9999986542005412
2025/04/11 12:08:34.3523299,1744366114,3013347,hemisphere,-0.0,0.0,0.0012740900092495524,-0.9999991883469947
2025/04/11 12:08:34.54429626,1744366114,52771789,hemisphere,-0.0,0.0,0.0008813911581388559,-0.9999996115747377
2025/04/11 12:08:34.103598083,1744366114,103148313,hemisphere,-0.0,0.0,0.0005235987516737929,-0.9999998629221643
2025/04/11 12:08:34.154548597,1744366114,152921980,hemisphere,-0.0,0.0,0.00013089969352564516,-0.9999999914326351
2025/04/11 12:08:34.205937705,1744366114,205450060,hemisphere,0.0,0.0,0.00020943950870814544,0.9999999780675459
2025/04/11 12:08:34.256392182,1744366114,253145959,hemisphere,0.0,0.0,0.0005846852661049838,0.9999998290715553
2025/04/11 12:08:34.304804082,1744366114,303362873,hemisphere,0.0,0.0,0.0009599309411726403,0.999999539266188
2025/04/11 12:08:34.353716797,1744366114,352984220,hemisphere,0.0,0.0,0.0013264498425407786,0.9999991202650207
2025/04/11 12:08:34.404202419,1744366114,402909084,hemisphere,0.0,0.0,0.001675515297953498,0.999998596323258
2025/04/11 12:08:34.454239484,1744366114,453728582,hemisphere,0.0,0.0,0.0020420338056505393,0.9999979150467948
2025/04/11 12:08:34.503557858,1744366114,503041962,hemisphere,0.0,0.0,0.0024085520390283543,0.999997099434331
2025/04/11 12:08:34.553507033,1744366114,553104757,hemisphere,0.0,0.0,0.0027314368829329315,0.9999962696193194
2025/04/11 12:08:34.605030952,1744366114,603661778,hemisphere,0.0,0.0,0.003115407675218747,0.9999951471057333
2025/04/11 12:08:34.652940514,1744366114,652488098,hemisphere,0.0,0.0,0.003473198228504449,0.9999939684288428
2025/04/11 12:08:34.703941164,1744366114,703214080,hemisphere,0.0,0.0,0.003813535172141346,0.9999927284483077
2025/04/11 12:08:34.760210659,1744366114,758946707,hemisphere,0.0,0.0,0.004153871674053517,0.9999913726378421
2025/04/11 12:08:34.803578838,1744366114,803052406,hemisphere,0.0,0.0,0.004502934252777835,0.9999898617401655
2025/04/11 12:08:34.853269413,1744366114,852894188,hemisphere,0.0,0.0,0.004799637014974645,0.9999884816759264
2025/04/11 12:08:34.903727409,1744366114,903214853,hemisphere,0.0,0.0,0.005131245483254424,0.9999868350732377
2025/04/11 12:08:34.955585153,1744366114,952879745,hemisphere,0.0,0.0,0.00547157990310435,0.9999850307946434
2025/04/11 12:08:35.2978912,1744366115,2535497,hemisphere,0.0,0.0,0.005785734190569493,0.9999832624998661
2025/04/11 12:08:35.53463856,1744366115,53009954,hemisphere,0.0,0.0,0.0061260673566276985,0.9999812354733173
2025/04/11 12:08:35.104422957,1744366115,102709155,hemisphere,0.0,0.0,0.006440220419459841,0.999979261565433
2025/04/11 12:08:35.153562713,1744366115,153149904,hemisphere,0.0,0.0,0.0067718257400303265,0.9999770709252022
2025/04/11 12:08:35.203264268,1744366115,202803943,hemisphere,0.0,0.0,0.007085977462664214,0.9999748941465474
2025/04/11 12:08:35.254597061,1744366115,252658496,hemisphere,0.0,0.0,0.007408854892971106,0.9999725540579476
2025/04/11 12:08:35.305377094,1744366115,302944123,hemisphere,0.0,0.0,0.007731731550865527,0.9999701097168983
2025/04/11 12:08:35.354162255,1744366115,352668826,hemisphere,0.0,0.0,0.008037154675105225,0.9999677015507693
2025/04/11 12:08:35.406087929,1744366115,404058626,hemisphere,0.0,0.0,0.00833385070667503,0.9999652728632125
2025/04/11 12:08:35.453465628,1744366115,452822873,hemisphere,0.0,0.0,0.008613093360773351,0.99996290662342
2025/04/11 12:08:35.503554686,1744366115,503139308,hemisphere,0.0,0.0,0.00893596684087301,0.9999600734512448
2025/04/11 12:08:35.553531942,1744366115,552886161,hemisphere,0.0,0.0,0.009223934294911942,0.9999574586131769
2025/04/11 12:08:35.604442219,1744366115,603931555,hemisphere,0.0,0.0,0.009511900983990709,0.9999547608465449
2025/04/11 12:08:35.653388675,1744366115,652965231,hemisphere,0.0,0.0,0.009782414428320427,0.9999521510392149
2025/04/11 12:08:35.703765863,1744366115,702902038,hemisphere,0.0,0.0,0.010087831971741084,0.9999491165284912
2025/04/11 12:08:35.754893834,1744366115,753112327,hemisphere,0.0,0.0,0.010375796222649534,0.9999461699775374
2025/04/11 12:08:35.803327514,1744366115,802800372,hemisphere,0.0,0.0,0.010655033462598341,0.9999432335197388
2025/04/11 12:08:35.852861785,1744366115,852495462,hemisphere,0.0,0.0,0.010951722119125564,0.999940028092998
2025/04/11 12:08:35.903377426,1744366115,902950966,hemisphere,0.0,0.0,0.011204779330002641,0.9999372244897007
2025/04/11 12:08:35.954683335,1744366115,953779264,hemisphere,0.0,0.0,0.011457835823260524,0.9999343568446117
2025/04/11 12:08:36.3937575,1744366116,3114877,hemisphere,0.0,0.0,0.011737069722170503,0.999931118224819
2025/04/11 12:08:36.54062238,1744366116,53559534,hemisphere,0.0,0.0,0.011981398633644672,0.9999282204672402
2025/04/11 12:08:36.104312559,1744366116,103864496,hemisphere,0.0,0.0,0.012217000835247169,0.999925369660452
2025/04/11 12:08:36.153249953,1744366116,152836651,hemisphere,0.0,0.0,0.012470054295956672,0.999922245850074
2025/04/11 12:08:36.202936097,1744366116,202562242,hemisphere,0.0,0.0,0.01272310695801142,0.9999190579988637
2025/04/11 12:08:36.258914935,1744366116,254670627,hemisphere,0.0,0.0,0.013002336535343549,0.9999154660493165
2025/04/11 12:08:36.303600363,1744366116,302929284,hemisphere,0.0,0.0,0.013264113343632797,0.9999120277790479
2025/04/11 12:08:36.353821907,1744366116,353246217,hemisphere,0.0,0.0,0.013525889242814048,0.9999085209758897
2025/04/11 12:08:36.405961675,1744366116,405336669,hemisphere,0.0,0.0,0.013770212579337986,0.9999051861279248
2025/04/11 12:08:36.453749957,1744366116,452611662,hemisphere,0.0,0.0,0.013988357721221966,0.9999021581376166
2025/04/11 12:08:36.504597715,1744366116,503055106,hemisphere,0.0,0.0,0.014206502197309468,0.9998990825554936
2025/04/11 12:08:36.553779191,1744366116,552959111,hemisphere,0.0,0.0,0.01447700040742648,0.9998952027383687
2025/04/11 12:08:36.605444897,1744366116,604056119,hemisphere,0.0,0.0,0.014695143354452442,0.9998920205511154
2025/04/11 12:08:36.655368861,1744366116,653807609,hemisphere,0.0,0.0,0.014939462624256888,0.9998884000009693
2025/04/11 12:08:36.703938731,1744366116,703176119,hemisphere,0.0,0.0,0.015157604076150008,0.9998851169202744
2025/04/11 12:08:36.753885478,1744366116,752974062,hemisphere,0.0,0.0,0.01534956795737732,0.9998821884419794
2025/04/11 12:08:36.805238554,1744366116,804712680,hemisphere,0.0,0.0,0.015550256864530277,0.9998790874458007
2025/04/11 12:08:36.854641456,1744366116,853932874,hemisphere,0.0,0.0,0.01575967070831718,0.9998758086778405
2025/04/11 12:08:36.904483720,1744366116,902762777,hemisphere,0.0,0.0,0.015977809393690246,0.9998723466558014
2025/04/11 12:08:36.954074874,1744366116,953108241,hemisphere,0.0,0.0,0.01614359428651534,0.9998696836905859
2025/04/11 12:08:37.5622458,1744366117,3707359,hemisphere,0.0,0.0,0.016353006147771028,0.9998662806545339
2025/04/11 12:08:37.53885390,1744366117,53237896,hemisphere,0.0,0.0,0.01652751548458543,0.9998634112877153
2025/04/11 12:08:37.103370848,1744366117,102904416,hemisphere,0.0,0.0,0.016693298888314227,0.9998606571779017
2025/04/11 12:08:37.155794796,1744366117,153751706,hemisphere,0.0,0.0,0.01684163101856771,0.9998581696743967
2025/04/11 12:08:37.208854633,1744366117,207757554,hemisphere,0.0,0.0,0.01701613893230685,0.9998552150265739
2025/04/11 12:08:37.254965262,1744366117,253359412,hemisphere,0.0,0.0,0.017120843432086755,0.9998534276183555
2025/04/11 12:08:37.304044216,1744366117,303455717,hemisphere,0.0,0.0,0.017286625172304688,0.9998505751311805
2025/04/11 12:08:37.354418795,1744366117,352955227,hemisphere,0.0,0.0,0.017417505158060075,0.9998483037511585
2025/04/11 12:08:37.403475322,1744366117,402552732,hemisphere,0.0,0.0,0.017557110147192353,0.9998458620623878
2025/04/11 12:08:37.454058456,1744366117,452988115,hemisphere,0.0,0.0,0.017679264231995537,0.9998437095947623
2025/04/11 12:08:37.503765576,1744366117,502766706,hemisphere,0.0,0.0,0.017749066447806668,0.9998424729127241
2025/04/11 12:08:37.555746410,1744366117,553068953,hemisphere,0.0,0.0,0.01785376960921681,0.9998406087525856
2025/04/11 12:08:37.603948006,1744366117,603511005,hemisphere,0.0,0.0,0.017906121116572967,0.9998396725608355
2025/04/11 12:08:37.654027998,1744366117,653445988,hemisphere,0.0,0.0,0.018028274442581167,0.9998374774535225
2025/04/11 12:08:37.707257175,1744366117,703119781,hemisphere,0.0,0.0,0.018063175343523426,0.9998368475388918
2025/04/11 12:08:37.754593467,1744366117,752706723,hemisphere,0.0,0.0,0.01815042749949478,0.9998352674223817
2025/04/11 12:08:37.804054162,1744366117,803275305,hemisphere,0.0,0.0,0.018211503926471334,0.9998341568103863
2025/04/11 12:08:37.853368146,1744366117,852890102,hemisphere,0.0,0.0,0.018237679517242724,0.9998336796916907
2025/04/11 12:08:37.905582060,1744366117,903334764,hemisphere,0.0,0.0,0.01826385509551421,0.99983320188772
2025/04/11 12:08:37.953872148,1744366117,953005304,hemisphere,0.0,0.0,0.018307481031473706,0.9998324040249358
2025/04/11 12:08:38.4429622,1744366118,2604126,hemisphere,0.0,0.0,0.018307481031473706,0.9998324040249358
2025/04/11 12:08:38.53472766,1744366118,52887631,hemisphere,0.0,0.0,0.018316206214485684,0.999832244223954
2025/04/11 12:08:38.104148935,1744366118,102649220,hemisphere,0.0,0.0,0.018333656576324388,0.9998319243935659
2025/04/11 12:08:38.153489876,1744366118,153011719,hemisphere,0.0,0.0,0.018281305474075273,0.9998328829710311
2025/04/11 12:08:38.203073534,1744366118,202719448,hemisphere,0.0,0.0,0.018281305474075273,0.9998328829710311
2025/04/11 12:08:38.255309226,1744366118,253433388,hemisphere,0.0,0.0,0.01824640471138965,0.9998335204998421
2025/04/11 12:08:38.310449968,1744366118,302916075,hemisphere,0.0,0.0,0.018211503926471334,0.9998341568103863
2025/04/11 12:08:38.355857009,1744366118,352726968,hemisphere,0.0,0.0,0.018141702290106736,0.9998354257766712
2025/04/11 12:08:38.403664345,1744366118,403034964,hemisphere,0.0,0.0,0.018080625785743678,0.9998365321247249
2025/04/11 12:08:38.457124098,1744366118,453676607,hemisphere,0.0,0.0,0.01800209875245637,0.9998379490900047
2025/04/11 12:08:38.507393706,1744366118,503865990,hemisphere,0.0,0.0,0.017906121116572967,0.9998396725608355
2025/04/11 12:08:38.554315928,1744366118,553502474,hemisphere,0.0,0.0,0.017818868577111006,0.999841231357575
2025/04/11 12:08:38.603760662,1744366118,603234001,hemisphere,0.0,0.0,0.017705440073040632,0.999843246410066
2025/04/11 12:08:38.656314223,1744366118,654035979,hemisphere,0.0,0.0,0.01753965954221371,0.9998461683394818
2025/04/11 12:08:38.704893714,1744366118,704300665,hemisphere,0.0,0.0,0.017382603857613938,0.999848911127641
2025/04/11 12:08:38.753661549,1744366118,753030492,hemisphere,0.0,0.0,0.017208097038531125,0.9998519297357547
2025/04/11 12:08:38.806591729,1744366118,803508607,hemisphere,0.0,0.0,0.01703358969525971,0.999854917886637
2025/04/11 12:08:38.853691190,1744366118,853215448,hemisphere,0.0,0.0,0.016859081833115474,0.9998578755801968
2025/04/11 12:08:38.904756823,1744366118,902870776,hemisphere,0.0,0.0,0.016640946283868602,0.9998615298663998
2025/04/11 12:08:38.953111352,1744366118,952550827,hemisphere,0.0,0.0,0.016379182580179584,0.9998658521911853
2025/04/11 12:08:39.3546887,1744366119,3087120,hemisphere,0.0,0.0,0.016152319794936164,0.999869542773077
2025/04/11 12:08:39.53225450,1744366119,52737012,hemisphere,0.0,0.0,0.015864377371548558,0.9998741528465536
2025/04/11 12:08:39.103496703,1744366119,103052667,hemisphere,0.0,0.0,0.015593884805208099,0.999878407986032
2025/04/11 12:08:39.154917215,1744366119,153909206,hemisphere,0.0,0.0,0.015323391097639557,0.9998825899500745
2025/04/11 12:08:39.203683682,1744366119,203220027,hemisphere,0.0,0.0,0.01500926796672368,0.9998873545930577
2025/04/11 12:08:39.261170220,1744366119,255447867,hemisphere,0.0,0.0,0.014668966237534935,0.9998924049264112
2025/04/11 12:08:39.306957154,1744366119,304773138,hemisphere,0.0,0.0,0.014372291547462734,0.9998967132837645
2025/04/11 12:08:39.358520438,1744366119,353055834,hemisphere,0.0,0.0,0.014023260882407278,0.999901669242643
2025/04/11 12:08:39.403350862,1744366119,402789452,hemisphere,0.0,0.0,0.013682954338487157,0.9999063839983076
2025/04/11 12:08:39.455072890,1744366119,453964475,hemisphere,0.0,0.0,0.0133339203397124,0.9999110993325228
2025/04/11 12:08:39.507292025,1744366119,502889003,hemisphere,0.0,0.0,0.012967432893180813,0.999915919307299
2025/04/11 12:08:39.553031943,1744366119,552498194,hemisphere,0.0,0.0,0.012574765840114686,0.999920934506357
2025/04/11 12:08:39.605499352,1744366119,604902304,hemisphere,0.0,0.0,0.012190822846101264,0.9999256891581169
2025/04/11 12:08:39.655417426,1744366119,654467478,hemisphere,0.0,0.0,0.011798152016305307,0.9999303993823772
2025/04/11 12:08:39.703911354,1744366119,703146482,hemisphere,0.0,0.0,0.011361848963048683,0.9999354521108554
2025/04/11 12:08:39.753435596,1744366119,752770709,hemisphere,0.0,0.0,0.010908091494182374,0.9999405050001497
2025/04/11 12:08:39.803620471,1744366119,803170403,hemisphere,0.0,0.0,0.01050668878094861,0.999944803222088
2025/04/11 12:08:39.854280038,1744366119,853086163,hemisphere,0.0,0.0,0.010035474744629333,0.9999496433554291
2025/04/11 12:08:39.903696136,1744366119,902851515,hemisphere,0.0,0.0,0.009572984726522765,0.999954177931882
2025/04/11 12:08:39.953999690,1744366119,953225187,hemisphere,0.0,0.0,0.009084313805191528,0.9999587367700173
2025/04/11 12:08:40.3535937,1744366120,2877291,hemisphere,0.0,0.0,0.008586914390147096,0.999963131770995
2025/04/11 12:08:40.53643043,1744366120,53174753,hemisphere,0.0,0.0,0.0081069655706851,0.9999671380146629
2025/04/11 12:08:40.103295001,1744366120,102827341,hemisphere,0.0,0.0,0.007583382914220603,0.9999712457383845
2025/04/11 12:08:40.171940271,1744366120,153446098,hemisphere,0.0,0.0,0.007042345320082361,0.9999752023787354
2025/04/11 12:08:40.211933664,1744366120,203100393,hemisphere,0.0,0.0,0.006492579202305737,0.9999789229855307
2025/04/11 12:08:40.260578936,1744366120,254814718,hemisphere,0.0,0.0,0.005907905149854101,0.9999825481760871
2025/04/11 12:08:40.303540404,1744366120,303094970,hemisphere,0.0,0.0,0.005323229077744386,0.99998583151572
2025/04/11 12:08:40.364293893,1744366120,353003686,hemisphere,0.0,0.0,0.004738551185852137,0.9999887730033068
2025/04/11 12:08:40.405007509,1744366120,403704796,hemisphere,0.0,0.0,0.004075332522574373,0.9999916957979353
2025/04/11 12:08:40.453736514,1744366120,453173968,hemisphere,0.0,0.0,0.0034208386620198862,0.9999941489143067
2025/04/11 12:08:40.507692315,1744366120,503353733,hemisphere,0.0,0.0,0.0027750699488502464,0.9999961494859763
2025/04/11 12:08:40.556963362,1744366120,556067214,hemisphere,0.0,0.0,0.0020769403166606623,0.9999978431571346
2025/04/11 12:08:40.603135644,1744366120,602695260,hemisphere,0.0,0.0,0.0013613563960569134,0.9999990733539522
2025/04/11 12:08:40.654579250,1744366120,653287340,hemisphere,0.0,0.0,0.0006283184893762573,0.9999998026079185
2025/04/11 12:08:40.703588762,1744366120,703054227,hemisphere,-0.0,0.0,8.72664624890715e-05,-0.9999999961922823
2025/04/11 12:08:40.753250031,1744366120,752783804,hemisphere,-0.0,0.0,0.0008377579429622948,-0.999999649080753
2025/04/11 12:08:40.804946533,1744366120,803292827,hemisphere,-0.0,0.0,0.0015707956808309034,-0.9999987662997035
2025/04/11 12:08:40.853818179,1744366120,852847484,hemisphere,-0.0,0.0,0.002321285820490485,-0.9999973058124405
2025/04/11 12:08:40.905252732,1744366120,903261609,hemisphere,-0.0,0.0,0.0030805012576858764,-0.9999952552447444
2025/04/11 12:08:40.953639835,1744366120,953211636,hemisphere,-0.0,0.0,0.0038658946637121104,-0.9999925274013047
2025/04/11 12:08:41.3877480,1744366121,3311517,hemisphere,-0.0,0.0,0.004607652921340015,-0.999989384710936
2025/04/11 12:08:41.53633730,1744366121,53069441,hemisphere,-0.0,0.0,0.0054017677647954215,-0.9999854103460787
2025/04/11 12:08:41.104831902,1744366121,102873229,hemisphere,-0.0,0.0,0.006204605680229936,-0.9999807512489193
2025/04/11 12:08:41.157702077,1744366121,153784276,hemisphere,-0.0,0.0,0.006981260297961685,-0.9999756307053949
2025/04/11 12:08:41.203324020,1744366121,202874103,hemisphere,-0.0,0.0,0.0077928162343278064,-0.999969635546569
2025/04/11 12:08:41.257310618,1744366121,253428526,hemisphere,-0.0,0.0,0.008630546004578729,-0.9999627561442791
2025/04/11 12:08:41.303604198,1744366121,303061670,hemisphere,-0.0,0.0,0.009433364691469706,-0.9999555048253886
2025/04/11 12:08:41.353225315,1744366121,352742577,hemisphere,-0.0,0.0,0.010271082047896687,-0.9999472510455566
2025/04/11 12:08:41.403818539,1744366121,403292064,hemisphere,-0.0,0.0,0.011091339978419027,-0.9999384891969522
2025/04/11 12:08:41.454166579,1744366121,453662415,hemisphere,-0.0,0.0,0.011929042498052694,-0.9999288464411253
2025/04/11 12:08:41.507255387,1744366121,505356779,hemisphere,-0.0,0.0,0.012784188513589206,-0.9999182789228573
2025/04/11 12:08:41.557923023,1744366121,554211781,hemisphere,-0.0,0.0,0.013613147670749573,-0.999907336812014
2025/04/11 12:08:41.607080096,1744366121,603371978,hemisphere,-0.0,0.0,0.014442097471688202,-0.9998957074718434
2025/04/11 12:08:41.654179147,1744366121,653461747,hemisphere,-0.0,0.0,0.015253586087041983,-0.9998836572879293
2025/04/11 12:08:41.709707436,1744366121,702811020,hemisphere,-0.0,0.0,0.016073790174945726,-0.9998708082894568
2025/04/11 12:08:41.754234784,1744366121,753218081,hemisphere,-0.0,0.0,0.01690270884700551,-0.9998571390121858
2025/04/11 12:08:41.808143017,1744366121,802955993,hemisphere,-0.0,0.0,0.01774906644780649,-0.9998424729127241
2025/04/11 12:08:41.854124436,1744366121,853681193,hemisphere,-0.0,0.0,0.018595411330757816,-0.9998270903898533
2025/04/11 12:08:41.904084667,1744366121,903175949,hemisphere,-0.0,0.0,0.0194504678855314,-0.9998108217553129
2025/04/11 12:08:41.957189669,1744366121,953396996,hemisphere,-0.0,0.0,0.020322959905437036,-0.9997934673224675
2025/04/11 12:08:42.4788673,1744366122,4215658,hemisphere,-0.0,0.0,0.021212885816958807,-0.9997749814209779
2025/04/11 12:08:42.59715400,1744366122,56081870,hemisphere,-0.0,0.0,0.022137692965308955,-0.9997549312457397
2025/04/11 12:08:42.113465330,1744366122,103598568,hemisphere,-0.0,0.0,0.023045032517190787,-0.9997344279738903
2025/04/11 12:08:42.153451858,1744366122,152933223,hemisphere,-0.0,0.0,0.023961077228897933,-0.9997128921735634
2025/04/11 12:08:42.203835563,1744366122,203354680,hemisphere,-0.0,0.0,0.024885825767407714,-0.9996902998808552
2025/04/11 12:08:42.254806792,1744366122,253064960,hemisphere,-0.0,0.0,0.025784381786024456,-0.9996675275589942
2025/04/11 12:08:42.303172292,1744366122,302767546,hemisphere,-0.0,0.0,0.026682916972884416,-0.9996439475842478
2025/04/11 12:08:42.353840271,1744366122,353293291,hemisphere,-0.0,0.0,0.027598877250429452,-0.9996190784366391
2025/04/11 12:08:42.411918677,1744366122,407413963,hemisphere,-0.0,0.0,0.02850609125708028,-0.9995936188077849
2025/04/11 12:08:42.453791914,1744366122,453339401,hemisphere,-0.0,0.0,0.029378390283555003,-0.9995683619364647
2025/04/11 12:08:42.506490766,1744366122,505047319,hemisphere,-0.0,0.0,0.03031172544782488,-0.9995404940773414
2025/04/11 12:08:42.561340916,1744366122,559825026,hemisphere,-0.0,0.0,0.031227589407779584,-0.9995122999041979
2025/04/11 12:08:42.605749398,1744366122,604841841,hemisphere,-0.0,0.0,0.032143427148997,-0.9994832665388237
2025/04/11 12:08:42.653435311,1744366122,652827644,hemisphere,-0.0,0.0,0.03307668164994745,-0.9994528168608201
2025/04/11 12:08:42.703594245,1744366122,703205298,hemisphere,-0.0,0.0,0.03400118571247907,-0.9994217925231296
2025/04/11 12:08:42.753510387,1744366122,752921526,hemisphere,-0.0,0.0,0.034934382002123406,-0.9993896081879828
2025/04/11 12:08:42.805417287,1744366122,803485874,hemisphere,-0.0,0.0,0.0358413847271371,-0.999357491161617
2025/04/11 12:08:42.853766042,1744366122,853060588,hemisphere,-0.0,0.0,0.036774520173093295,-0.9993235885668059
2025/04/11 12:08:42.904936024,1744366122,903250175,hemisphere,-0.0,0.0,0.037681462222760594,-0.9992898015114308
2025/04/11 12:08:42.953594307,1744366122,953132689,hemisphere,-0.0,0.0,0.03861453366126365,-0.9992541807719011
2025/04/11 12:08:43.3310024,1744366123,2845813,hemisphere,-0.0,0.0,0.0394952524620688,-0.9992197581277892
2025/04/11 12:08:43.54441447,1744366123,53423642,hemisphere,-0.0,0.0,0.040402099157717516,-0.9991835018572164
2025/04/11 12:08:43.103745081,1744366123,102955572,hemisphere,-0.0,0.0,0.04129147417367161,-0.9991471433980909
2025/04/11 12:08:43.157039059,1744366123,155347419,hemisphere,-0.0,0.0,0.042233129693056704,-0.9991077833528921
2025/04/11 12:08:43.203597198,1744366123,203120882,hemisphere,-0.0,0.0,0.04313987363606251,-0.9990690423102223
