time,header_stamp_secs,header_stamp_nsecs,header_frame_id,twist_linear_x,twist_linear_y,twist_linear_z,twist_angular_x,twist_angular_y,twist_angular_z
2025/04/11 12:08:16.130435935,1744366096,129997511,hemisphere,-0.020490133003931956,0.00189720524773984,0.0,0.0,0.0,0.0
2025/04/11 12:08:16.258830490,1744366096,178837130,hemisphere,0.019693268736449,-0.005968258099720017,0.0,0.0,0.0,0.0
2025/04/11 12:08:16.272988520,1744366096,228485053,hemisphere,0.003929950558819003,-0.020199020443479713,0.0,0.0,0.0,0.0
2025/04/11 12:08:16.284280722,1744366096,279095167,hemisphere,0.016733897211404253,0.011975876685613883,0.0,0.0,0.0,0.0
2025/04/11 12:08:16.329755981,1744366096,328300203,hemisphere,0.012193890630034567,-0.016575704195406854,0.0,0.0,0.0,0.0
2025/04/11 12:08:16.382747338,1744366096,381546455,hemisphere,-0.008729081454708703,-0.01863459350852424,0.0,0.0,0.0,0.0
2025/04/11 12:08:16.428913712,1744366096,428629691,hemisphere,0.01405238681628391,-0.015032476942819614,0.0,0.0,0.0,0.0
2025/04/11 12:08:16.477950647,1744366096,477649393,hemisphere,-0.01742806855120634,-0.010941086090755604,0.0,0.0,0.0,0.0
2025/04/11 12:08:16.530960334,1744366096,528718798,hemisphere,0.015395172705302418,-0.0010846359533399166,0.0,0.0,0.0,0.0
2025/04/11 12:08:16.582520686,1744366096,577840453,hemisphere,0.011643539439992015,-0.01696681842833899,0.0,0.0,0.0,0.0
2025/04/11 12:08:16.633256298,1744366096,628234215,hemisphere,-0.0022259572009310133,-0.02045702942292689,0.0,0.0,0.0,0.0
2025/04/11 12:08:16.684763161,1744366096,677975310,hemisphere,0.014752427170750523,-0.01434610856095042,0.0,0.0,0.0,0.0
2025/04/11 12:08:16.728042489,1744366096,727685884,hemisphere,0.008464777590134318,-0.018756131760585205,0.0,0.0,0.0,0.0
2025/04/11 12:08:16.788103957,1744366096,787577785,hemisphere,-0.008611825316360356,-0.01868907175306917,0.0,0.0,0.0,0.0
2025/04/11 12:08:16.890806526,1744366096,827775938,hemisphere,0.020163956473616095,-0.004106068387276179,0.0,0.0,0.0,0.0
2025/04/11 12:08:16.928106024,1744366096,927812140,hemisphere,0.005947632088229989,-0.01969950788253174,0.0,0.0,0.0,0.0
2025/04/11 12:08:16.979062788,1744366096,978546674,hemisphere,0.01775769495658871,-0.010397557794964023,0.0,0.0,0.0,0.0
2025/04/11 12:08:17.39592379,1744366097,36526689,hemisphere,0.005357136312611815,-0.019868216548018826,0.0,0.0,0.0,0.0
2025/04/11 12:08:17.98377232,1744366097,79133804,hemisphere,-0.006668898413818018,-0.01946717062690541,0.0,0.0,0.0,0.0
2025/04/11 12:08:17.133761567,1744366097,129707380,hemisphere,0.01105643194063842,-0.017355121751601275,0.0,0.0,0.0,0.0
2025/04/11 12:08:17.179722856,1744366097,179229482,hemisphere,-0.005107048534095505,0.019933965825727356,0.0,0.0,0.0,0.0
2025/04/11 12:08:17.240352144,1744366097,228273535,hemisphere,0.007407934318197317,-0.01919811051661459,0.0,0.0,0.0,0.0
2025/04/11 12:08:17.299923762,1744366097,278428481,hemisphere,0.009555875334954163,-0.018224439219182792,0.0,0.0,0.0,0.0
2025/04/11 12:08:17.337433254,1744366097,331106391,hemisphere,-0.0035343807453140077,-0.020271977974978827,0.0,0.0,0.0,0.0
2025/04/11 12:08:17.383521046,1744366097,382192803,hemisphere,0.0049259257540014674,-0.0199794943313623,0.0,0.0,0.0,0.0
2025/04/11 12:08:17.431247847,1744366097,429582159,hemisphere,-0.0005458439302810348,-0.020570537005013954,0.0,0.0,0.0,0.0
2025/04/11 12:08:17.479682111,1744366097,479116398,hemisphere,0.020114563789589254,-0.004341573657721114,0.0,0.0,0.0,0.0
2025/04/11 12:08:17.529272328,1744366097,528612734,hemisphere,-0.011955423440740284,-0.016748516012574693,0.0,0.0,0.0,0.0
2025/04/11 12:08:17.617289408,1744366097,578687526,hemisphere,0.008000688811983766,-0.018958742490066977,0.0,0.0,0.0,0.0
2025/04/11 12:08:17.653818787,1744366097,628672916,hemisphere,0.005004946591191046,-0.025230600977138147,0.0,0.0,0.0,0.0
2025/04/11 12:08:17.688504881,1744366097,678530691,hemisphere,0.020577757719044628,-2.8731988661497007e-05,0.0,0.0,0.0,0.0
2025/04/11 12:08:17.747954286,1744366097,729249513,hemisphere,-0.015577276034064903,-0.01344594398431811,0.0,0.0,0.0,0.0
2025/04/11 12:08:17.847003511,1744366097,779979135,hemisphere,0.0012132229458617844,-0.020541982094104447,0.0,0.0,0.0,0.0
2025/04/11 12:08:17.905527766,1744366097,838930335,hemisphere,-0.007565166325701437,-0.01913669764445648,0.0,0.0,0.0,0.0
2025/04/11 12:08:17.905653135,1744366097,883465059,hemisphere,0.012572497755864291,-0.016290403262340086,0.0,0.0,0.0,0.0
2025/04/11 12:08:17.940434527,1744366097,929393769,hemisphere,0.007095356840143348,-0.01931581863607919,0.0,0.0,0.0,0.0
2025/04/11 12:08:17.986819939,1744366097,980490521,hemisphere,0.0019472663742012804,-0.020485436093448883,0.0,0.0,0.0,0.0
2025/04/11 12:08:18.45053440,1744366098,28631672,hemisphere,-0.016157853566891762,-0.012742397983965044,0.0,0.0,0.0,0.0
2025/04/11 12:08:18.113327111,1744366098,79365580,hemisphere,0.006036964075434548,-0.019672315649734422,0.0,0.0,0.0,0.0
2025/04/11 12:08:18.179216110,1744366098,129302876,hemisphere,-0.0004058131625979743,-0.020573775879695378,0.0,0.0,0.0,0.0
2025/04/11 12:08:18.179469335,1744366098,178282313,hemisphere,0.01835608362864004,-0.009300490959580906,0.0,0.0,0.0,0.0
2025/04/11 12:08:18.232379727,1744366098,228005825,hemisphere,0.006621311281539393,-0.019483407689206537,0.0,0.0,0.0,0.0
2025/04/11 12:08:18.293054055,1744366098,278421028,hemisphere,-0.020129596165015872,0.004271334276809928,0.0,0.0,0.0,0.0
2025/04/11 12:08:18.330162521,1744366098,328170109,hemisphere,0.010270221270651431,-0.01783164303486171,0.0,0.0,0.0,0.0
2025/04/11 12:08:18.455953749,1744366098,381650165,hemisphere,-0.012045866201367746,-0.016683586117187735,0.0,0.0,0.0,0.0
2025/04/11 12:08:18.551249210,1744366098,429997031,hemisphere,-0.004366144987037764,-0.02010924454630353,0.0,0.0,0.0,0.0
2025/04/11 12:08:18.598048145,1744366098,527702865,hemisphere,-0.018498331845590903,-0.009014247456181276,0.0,0.0,0.0,0.0
2025/04/11 12:08:18.629307696,1744366098,578163186,hemisphere,0.012211241977656728,-0.016562925696687388,0.0,0.0,0.0,0.0
2025/04/11 12:08:18.798809047,1744366098,646450255,hemisphere,0.013174794238837221,-0.015807268424214687,0.0,0.0,0.0,0.0
2025/04/11 12:08:18.911305521,1744366098,774685322,hemisphere,-0.010388818588950677,0.01141316021543722,0.0,0.0,0.0,0.0
2025/04/11 12:08:18.940290288,1744366098,828723453,hemisphere,0.006239214967399366,-0.0196091084667675,0.0,0.0,0.0,0.0
2025/04/11 12:08:18.942702722,1744366098,854732690,hemisphere,-0.0009227059539388226,-0.020557080337281337,0.0,0.0,0.0,0.0
2025/04/11 12:08:18.958782689,1744366098,889734470,hemisphere,-0.0149342989900118,-0.003892877015049234,0.0,0.0,0.0,0.0
2025/04/11 12:08:19.49345813,1744366098,935941418,hemisphere,0.012507957472298993,-0.009040950041258159,0.0,0.0,0.0,0.0
2025/04/11 12:08:19.54010816,1744366098,992445137,hemisphere,0.007132427450703125,-0.019302160939421515,0.0,0.0,0.0,0.0
2025/04/11 12:08:19.137432435,1744366099,79375082,hemisphere,0.013010549007941293,-0.008301409054451177,0.0,0.0,0.0,0.0
2025/04/11 12:08:19.165457523,1744366099,129686232,hemisphere,0.0019316371571170524,-0.01531197425776999,0.0,0.0,0.0,0.0
2025/04/11 12:08:19.212333758,1744366099,180240296,hemisphere,-0.005225248455349396,-0.019903309193466848,0.0,0.0,0.0,0.0
2025/04/11 12:08:19.240955008,1744366099,227758676,hemisphere,0.015147719968076226,-0.0029553946514993493,0.0,0.0,0.0,0.0
2025/04/11 12:08:19.293213634,1744366099,278141823,hemisphere,-0.007317383436187506,-0.019232806293380117,0.0,0.0,0.0,0.0
2025/04/11 12:08:19.329020900,1744366099,328555734,hemisphere,0.008894070862285974,-0.012612822097928827,0.0,0.0,0.0,0.0
2025/04/11 12:08:19.398793203,1744366099,381845477,hemisphere,-0.015433304890692553,2.9629854732696706e-05,0.0,0.0,0.0,0.0
2025/04/11 12:08:19.474381175,1744366099,428659737,hemisphere,0.0030425897537769073,-0.015130446965228025,0.0,0.0,0.0,0.0
2025/04/11 12:08:19.479798964,1744366099,478375728,hemisphere,-0.011073705669986892,0.010749921883989032,0.0,0.0,0.0,0.0
2025/04/11 12:08:19.593394152,1744366099,529344558,hemisphere,-0.003016177521371748,-0.01513573423844836,0.0,0.0,0.0,0.0
2025/04/11 12:08:19.639461599,1744366099,578705937,hemisphere,-0.01337776354918155,-0.007695662427598782,0.0,0.0,0.0,0.0
2025/04/11 12:08:19.668516219,1744366099,628877395,hemisphere,-0.014630658856461873,-0.004912392411361279,0.0,0.0,0.0,0.0
2025/04/11 12:08:19.690662864,1744366099,678459176,hemisphere,-0.00032051830790126893,-0.015430004724291768,0.0,0.0,0.0,0.0
2025/04/11 12:08:19.729313035,1744366099,727716117,hemisphere,-0.014525483168777435,-0.00521518134784684,0.0,0.0,0.0,0.0
2025/04/11 12:08:19.785504999,1744366099,781426839,hemisphere,0.010285947762685353,0.000245994290638013,0.0,0.0,0.0,0.0
2025/04/11 12:08:19.832306415,1744366099,827663170,hemisphere,-0.006126843598817922,-0.014165082608053861,0.0,0.0,0.0,0.0
2025/04/11 12:08:19.880137092,1744366099,878222637,hemisphere,-0.013389835358333099,-0.007674639200255533,0.0,0.0,0.0,0.0
2025/04/11 12:08:19.928129394,1744366099,927863239,hemisphere,-0.012247365355578303,-0.009390943489572624,0.0,0.0,0.0,0.0
2025/04/11 12:08:19.978521134,1744366099,978210125,hemisphere,-0.015131508107586738,-0.0030373080461821664,0.0,0.0,0.0,0.0
2025/04/11 12:08:20.28985236,1744366100,28650069,hemisphere,0.0013477869839935764,-0.015374369841497362,0.0,0.0,0.0,0.0
2025/04/11 12:08:20.78626850,1744366100,78260646,hemisphere,-0.007020983091906852,0.013743855870916439,0.0,0.0,0.0,0.0
2025/04/11 12:08:20.131333537,1744366100,129466202,hemisphere,-0.005913545917392404,-0.01425544641392397,0.0,0.0,0.0,0.0
2025/04/11 12:08:20.198919307,1744366100,178623141,hemisphere,-0.01273881533837399,-0.008712655252686961,0.0,0.0,0.0,0.0
2025/04/11 12:08:20.259936247,1744366100,228160015,hemisphere,0.00019662929136703467,-0.015432080698957696,0.0,0.0,0.0,0.0
2025/04/11 12:08:20.284965633,1744366100,278830679,hemisphere,-0.0137755744647659,0.006958543377967535,0.0,0.0,0.0,0.0
2025/04/11 12:08:20.327846264,1744366100,327504288,hemisphere,-0.008246837925575864,-0.013045207626046038,0.0,0.0,0.0,0.0
2025/04/11 12:08:20.381725924,1744366100,381452496,hemisphere,-0.013894919705295177,-0.006717066633640458,0.0,0.0,0.0,0.0
2025/04/11 12:08:20.429794686,1744366100,428672824,hemisphere,-0.009315953843353762,0.012304502499730268,0.0,0.0,0.0,0.0
2025/04/11 12:08:20.478466552,1744366100,478094099,hemisphere,-0.011138092959734702,-0.017302827037544512,0.0,0.0,0.0,0.0
2025/04/11 12:08:20.533834672,1744366100,529645183,hemisphere,-0.010658723090266881,-0.0111615142280238,0.0,0.0,0.0,0.0
2025/04/11 12:08:20.578818116,1744366100,578203587,hemisphere,-0.019170830130038844,-0.00747824915311519,0.0,0.0,0.0,0.0
2025/04/11 12:08:20.628362128,1744366100,627953127,hemisphere,-0.004953817579982256,-0.019972596968224537,0.0,0.0,0.0,0.0
2025/04/11 12:08:20.677813529,1744366100,677521278,hemisphere,-0.014374203491885867,-0.0056187233204013755,0.0,0.0,0.0,0.0
2025/04/11 12:08:20.730801632,1744366100,728665867,hemisphere,-0.016142273735995707,-0.012762129011378015,0.0,0.0,0.0,0.0
2025/04/11 12:08:20.778441147,1744366100,777783721,hemisphere,-0.01117732312564192,0.017277510990182106,0.0,0.0,0.0,0.0
2025/04/11 12:08:20.828992562,1744366100,828418982,hemisphere,-0.016874847926942743,-0.01177643603614563,0.0,0.0,0.0,0.0
2025/04/11 12:08:20.881424387,1744366100,880451461,hemisphere,-0.009941733104444935,-0.018016849923081918,0.0,0.0,0.0,0.0
2025/04/11 12:08:20.928411399,1744366100,927588179,hemisphere,-0.013366928411011305,0.01564513225018478,0.0,0.0,0.0,0.0
2025/04/11 12:08:20.978647662,1744366100,978067806,hemisphere,-0.020135540448965865,-0.004243223903935862,0.0,0.0,0.0,0.0
2025/04/11 12:08:21.27971524,1744366101,27599676,hemisphere,-0.016305751304458695,-0.012552585895663763,0.0,0.0,0.0,0.0
2025/04/11 12:08:21.79084186,1744366101,78753396,hemisphere,-0.016157853566891762,-0.012742397983965044,0.0,0.0,0.0,0.0
2025/04/11 12:08:21.130100208,1744366101,129230277,hemisphere,-0.020556102810362947,0.000944232768263108,0.0,0.0,0.0,0.0
2025/04/11 12:08:21.179187338,1744366101,178895677,hemisphere,-0.01831205244692284,-0.009386888379650645,0.0,0.0,0.0,0.0
2025/04/11 12:08:21.228302099,1744366101,227917412,hemisphere,-0.0006714912244293744,-0.02056681885480561,0.0,0.0,0.0,0.0
2025/04/11 12:08:21.278250155,1744366101,277678780,hemisphere,-0.025578483566875202,-0.002715491570109291,0.0,0.0,0.0,0.0
2025/04/11 12:08:21.328377582,1744366101,327989767,hemisphere,-0.011769551614918047,-0.022871606214518895,0.0,0.0,0.0,0.0
2025/04/11 12:08:21.381531794,1744366101,381273109,hemisphere,-0.016664643940041624,0.012072057845392689,0.0,0.0,0.0,0.0
2025/04/11 12:08:21.429486842,1744366101,429039642,hemisphere,-0.011183353433624543,-0.01727360831585316,0.0,0.0,0.0,0.0
2025/04/11 12:08:21.478263895,1744366101,477814156,hemisphere,-0.020575566343641674,0.0003016751717878634,0.0,0.0,0.0,0.0
2025/04/11 12:08:21.528096617,1744366101,527683235,hemisphere,-0.00229735199834441,-0.020449134751049397,0.0,0.0,0.0,0.0
2025/04/11 12:08:21.578921860,1744366101,578637543,hemisphere,-0.025706238019452855,-0.0009066658345144912,0.0,0.0,0.0,0.0
2025/04/11 12:08:21.628490756,1744366101,628220078,hemisphere,0.014428277481941849,0.014672073717609348,0.0,0.0,0.0,0.0
2025/04/11 12:08:21.678338047,1744366101,678047210,hemisphere,-0.018627309546958765,-0.017738547152741067,0.0,0.0,0.0,0.0
2025/04/11 12:08:21.728002502,1744366101,727733158,hemisphere,-0.010813038864277761,0.017507801940577574,0.0,0.0,0.0,0.0
2025/04/11 12:08:21.778436850,1744366101,778118390,hemisphere,-0.017458553833870943,0.010892375145059198,0.0,0.0,0.0,0.0
2025/04/11 12:08:21.828172817,1744366101,827876235,hemisphere,-0.00710546960605259,-0.0193121008683244,0.0,0.0,0.0,0.0
2025/04/11 12:08:21.879635130,1744366101,878606887,hemisphere,-0.007685255622120482,-0.019088786873280833,0.0,0.0,0.0,0.0
2025/04/11 12:08:21.931792902,1744366101,929320424,hemisphere,-0.020173220936921237,0.00406030729145416,0.0,0.0,0.0,0.0
2025/04/11 12:08:21.978951300,1744366101,977842492,hemisphere,-0.008003997614894403,0.018957345817693937,0.0,0.0,0.0,0.0
2025/04/11 12:08:22.29100454,1744366102,28800237,hemisphere,0.001904357537712038,-0.020489469506051943,0.0,0.0,0.0,0.0
2025/04/11 12:08:22.78847375,1744366102,78525903,hemisphere,-0.02000332827529381,0.00482822909374694,0.0,0.0,0.0,0.0
2025/04/11 12:08:22.132933511,1744366102,129760570,hemisphere,-0.020576649485148094,0.00021548604648078388,0.0,0.0,0.0,0.0
2025/04/11 12:08:22.179099531,1744366102,178656257,hemisphere,-0.012694400649242137,-0.016195589844997742,0.0,0.0,0.0,0.0
2025/04/11 12:08:22.227818265,1744366102,227517863,hemisphere,-0.020028334507523837,-0.004723426206219701,0.0,0.0,0.0,0.0
2025/04/11 12:08:22.280695599,1744366102,279819177,hemisphere,-0.01603028991582191,-0.012902509193392251,0.0,0.0,0.0,0.0
2025/04/11 12:08:22.334694924,1744366102,332517600,hemisphere,-0.019141974462964263,0.007551804547927415,0.0,0.0,0.0,0.0
2025/04/11 12:08:22.381987308,1744366102,381680011,hemisphere,-0.020435985051391402,0.0024115250880263183,0.0,0.0,0.0,0.0
2025/04/11 12:08:22.428727025,1744366102,428477116,hemisphere,-0.020493737612312258,-0.00185786354412023,0.0,0.0,0.0,0.0
2025/04/11 12:08:22.478282329,1744366102,477921478,hemisphere,-0.012104029397319601,-0.01664143655516843,0.0,0.0,0.0,0.0
2025/04/11 12:08:22.531958019,1744366102,531579551,hemisphere,-0.02023841725296484,0.0037217476225247003,0.0,0.0,0.0,0.0
2025/04/11 12:08:22.577991098,1744366102,577701801,hemisphere,-0.016299176550996348,-0.01256112184601057,0.0,0.0,0.0,0.0
2025/04/11 12:08:22.629106602,1744366102,628784844,hemisphere,-0.019190253591848245,-0.01712795618656222,0.0,0.0,0.0,0.0
2025/04/11 12:08:22.678403389,1744366102,677654215,hemisphere,0.001704008892360777,0.02050710345138066,0.0,0.0,0.0,0.0
2025/04/11 12:08:22.733586120,1744366102,730107695,hemisphere,-0.020801795693960533,-0.015130036746649507,0.0,0.0,0.0,0.0
2025/04/11 12:08:22.781944859,1744366102,781550311,hemisphere,-0.021643101664686845,0.013899959222252015,0.0,0.0,0.0,0.0
2025/04/11 12:08:22.828239027,1744366102,827600461,hemisphere,-0.016523606290474252,-0.019713019839832736,0.0,0.0,0.0,0.0
2025/04/11 12:08:22.878415180,1744366102,878002812,hemisphere,-0.020043490955566526,0.016121140975823088,0.0,0.0,0.0,0.0
2025/04/11 12:08:22.927955741,1744366102,927642259,hemisphere,-0.025076027373729503,-0.005729360103904094,0.0,0.0,0.0,0.0
2025/04/11 12:08:22.982132174,1744366102,980738644,hemisphere,-0.00898287671547345,-0.024102710261770237,0.0,0.0,0.0,0.0
2025/04/11 12:08:23.28874845,1744366103,28507436,hemisphere,-0.025487272804985004,0.003468665595371107,0.0,0.0,0.0,0.0
2025/04/11 12:08:23.78522949,1744366103,78210549,hemisphere,-0.02531171350054661,-0.004577103419684301,0.0,0.0,0.0,0.0
2025/04/11 12:08:23.131624841,1744366103,130734159,hemisphere,-0.027954175105224004,-0.013088743457488157,0.0,0.0,0.0,0.0
2025/04/11 12:08:23.178842952,1744366103,178413967,hemisphere,-0.027690616318908897,0.013637480668673405,0.0,0.0,0.0,0.0
2025/04/11 12:08:23.228655146,1744366103,228068099,hemisphere,-0.030222062547415104,-0.006275192944411666,0.0,0.0,0.0,0.0
2025/04/11 12:08:23.278547096,1744366103,277780401,hemisphere,-0.026012401234130695,-0.01661644044746228,0.0,0.0,0.0,0.0
2025/04/11 12:08:23.329279353,1744366103,328474169,hemisphere,-0.01633856271758881,0.026187830750806405,0.0,0.0,0.0,0.0
2025/04/11 12:08:23.381968872,1744366103,381662759,hemisphere,-0.029269681691206657,-0.02097822340309091,0.0,0.0,0.0,0.0
2025/04/11 12:08:23.428616626,1744366103,428294042,hemisphere,-0.03533985705166444,-0.006920594412510587,0.0,0.0,0.0,0.0
2025/04/11 12:08:23.478963831,1744366103,478662065,hemisphere,-0.02926235712675235,0.020988439171147413,0.0,0.0,0.0,0.0
2025/04/11 12:08:23.528730351,1744366103,528443128,hemisphere,-0.034308308815801776,-0.010942580575628738,0.0,0.0,0.0,0.0
2025/04/11 12:08:23.579035047,1744366103,578775054,hemisphere,-0.03595319338081746,-0.002041570272141649,0.0,0.0,0.0,0.0
2025/04/11 12:08:23.628784794,1744366103,628522297,hemisphere,-0.036010681103155175,0.00017598278726086965,0.0,0.0,0.0,0.0
2025/04/11 12:08:23.678835434,1744366103,677565365,hemisphere,-0.034635094498601415,-0.009859531050080379,0.0,0.0,0.0,0.0
2025/04/11 12:08:23.728218945,1744366103,727921905,hemisphere,-0.034657375894455174,-0.00978092120226856,0.0,0.0,0.0,0.0
2025/04/11 12:08:23.778254564,1744366103,777727799,hemisphere,-0.03375475617065074,0.012546575601113845,0.0,0.0,0.0,0.0
2025/04/11 12:08:23.830369835,1744366103,828324039,hemisphere,-0.03396858309457786,-0.01195556297299748,0.0,0.0,0.0,0.0
2025/04/11 12:08:23.878519031,1744366103,877826433,hemisphere,-0.03473146530302843,0.009514485869403627,0.0,0.0,0.0,0.0
2025/04/11 12:08:23.928425193,1744366103,928126326,hemisphere,-0.03593886254401814,0.002279974231591076,0.0,0.0,0.0,0.0
2025/04/11 12:08:23.979556726,1744366103,978179151,hemisphere,-0.015633513106780194,0.026614739883184968,0.0,0.0,0.0,0.0
2025/04/11 12:08:24.30399063,1744366104,29960482,hemisphere,-0.02874448262353032,0.011247481043105958,0.0,0.0,0.0,0.0
2025/04/11 12:08:24.79132033,1744366104,78702713,hemisphere,0.011876834691087922,-0.02849020724442058,0.0,0.0,0.0,0.0
2025/04/11 12:08:24.130181385,1744366104,129852146,hemisphere,-0.02495581565712768,0.01816475642547748,0.0,0.0,0.0,0.0
2025/04/11 12:08:24.179188427,1744366104,178702292,hemisphere,0.020883352198913276,0.015017267294164522,0.0,0.0,0.0,0.0
2025/04/11 12:08:24.229752214,1744366104,228506891,hemisphere,-0.024636032617547987,-0.0073958510609226724,0.0,0.0,0.0,0.0
2025/04/11 12:08:24.278916433,1744366104,278201522,hemisphere,0.020541130098818344,-0.0012275636579388964,0.0,0.0,0.0,0.0
2025/04/11 12:08:24.329676179,1744366104,328172860,hemisphere,-0.018391659546395545,0.009229940270681648,0.0,0.0,0.0,0.0
2025/04/11 12:08:24.382093030,1744366104,381630475,hemisphere,0.007498714165689163,-0.01348914614194163,0.0,0.0,0.0,0.0
2025/04/11 12:08:24.428956316,1744366104,428682337,hemisphere,-0.007418536402275735,0.013533406645241837,0.0,0.0,0.0,0.0
2025/04/11 12:08:24.478324255,1744366104,477942105,hemisphere,0.014387889698682297,-0.005583583777102118,0.0,0.0,0.0,0.0
2025/04/11 12:08:24.528473053,1744366104,528092113,hemisphere,0.00977863435973768,-0.00319992884706456,0.0,0.0,0.0,0.0
2025/04/11 12:08:24.578241650,1744366104,577843406,hemisphere,-0.010285817550406397,0.0002513799663259613,0.0,0.0,0.0,0.0
2025/04/11 12:08:24.628169651,1744366104,627690131,hemisphere,0.0039556296697639765,0.009498117102005071,0.0,0.0,0.0,0.0
2025/04/11 12:08:24.678292162,1744366104,678008678,hemisphere,-0.013966790438229685,0.006566318803708967,0.0,0.0,0.0,0.0
2025/04/11 12:08:24.727841360,1744366104,727614835,hemisphere,0.0042667326966593965,-0.009362490409232788,0.0,0.0,0.0,0.0
2025/04/11 12:08:24.778417150,1744366104,778129618,hemisphere,-0.012311003263370654,0.009307361410552575,0.0,0.0,0.0,0.0
2025/04/11 12:08:24.828345739,1744366104,827829721,hemisphere,-0.01247156409213961,0.009091087221725466,0.0,0.0,0.0,0.0
2025/04/11 12:08:24.879317859,1744366104,878794140,hemisphere,-0.020388848367624286,-0.0027820496963385996,0.0,0.0,0.0,0.0
2025/04/11 12:08:24.928978561,1744366104,928637636,hemisphere,-0.020235161709662434,-0.0037394075539695345,0.0,0.0,0.0,0.0
2025/04/11 12:08:24.980947937,1744366104,979243844,hemisphere,-0.018393270194741226,-0.009226730179978018,0.0,0.0,0.0,0.0
2025/04/11 12:08:25.29822798,1744366105,28693751,hemisphere,-0.02186112871403211,0.013554474073041715,0.0,0.0,0.0,0.0
2025/04/11 12:08:25.78788635,1744366105,78413517,hemisphere,-0.017114554689292794,-0.019202206483512396,0.0,0.0,0.0,0.0
2025/04/11 12:08:25.130576454,1744366105,130248037,hemisphere,-0.02417326411662626,0.0191938639428671,0.0,0.0,0.0,0.0
2025/04/11 12:08:25.178908914,1744366105,178499716,hemisphere,-0.023693647844738482,-0.019782875496726558,0.0,0.0,0.0,0.0
2025/04/11 12:08:25.233752870,1744366105,230553767,hemisphere,-0.03064051365830667,0.003729615779753584,0.0,0.0,0.0,0.0
2025/04/11 12:08:25.278296683,1744366105,277952862,hemisphere,-0.034950531104572545,-0.008675280915501028,0.0,0.0,0.0,0.0
2025/04/11 12:08:25.329801702,1744366105,329237982,hemisphere,-0.024733649962761152,-0.026173396473789082,0.0,0.0,0.0,0.0
2025/04/11 12:08:25.382235509,1744366105,381662254,hemisphere,-0.032559702650941325,0.015383948996822428,0.0,0.0,0.0,0.0
2025/04/11 12:08:25.428804627,1744366105,428480473,hemisphere,-0.035020518143948194,-0.008388291386447222,0.0,0.0,0.0,0.0
2025/04/11 12:08:25.477991892,1744366105,477516346,hemisphere,-0.031224179360796488,0.017940199182265505,0.0,0.0,0.0,0.0
2025/04/11 12:08:25.528829129,1744366105,528565870,hemisphere,-0.03753586506575466,-0.0168771616941046,0.0,0.0,0.0,0.0
2025/04/11 12:08:25.578918429,1744366105,578351631,hemisphere,-0.03497462075193662,-0.008577646921665247,0.0,0.0,0.0,0.0
2025/04/11 12:08:25.629247111,1744366105,628776258,hemisphere,-0.0357555537893276,-0.004282580609054571,0.0,0.0,0.0,0.0
2025/04/11 12:08:25.678558537,1744366105,677705540,hemisphere,-0.03583764394676796,0.020234698649304824,0.0,0.0,0.0,0.0
2025/04/11 12:08:25.729730026,1744366105,729015127,hemisphere,-0.037667258926499435,-0.016581838198690194,0.0,0.0,0.0,0.0
2025/04/11 12:08:25.778547068,1744366105,778092859,hemisphere,-0.04089585811457555,-0.004616117649713666,0.0,0.0,0.0,0.0
2025/04/11 12:08:25.827869284,1744366105,827535489,hemisphere,-0.028295692692745053,-0.02227451230649694,0.0,0.0,0.0,0.0
2025/04/11 12:08:25.879635796,1744366105,878526873,hemisphere,-0.02850052387059555,0.022011820973198985,0.0,0.0,0.0,0.0
2025/04/11 12:08:25.929269180,1744366105,928405504,hemisphere,-0.0353240637691462,-0.0070007601221468655,0.0,0.0,0.0,0.0
2025/04/11 12:08:25.978497079,1744366105,978147041,hemisphere,-0.03398108430319995,-0.011919984607094388,0.0,0.0,0.0,0.0
2025/04/11 12:08:26.31090348,1744366106,29325697,hemisphere,-0.03488911499055441,0.00891906826021761,0.0,0.0,0.0,0.0
2025/04/11 12:08:26.79502401,1744366106,78797651,hemisphere,0.027815579864226666,0.013380755880229356,0.0,0.0,0.0,0.0
2025/04/11 12:08:26.129534272,1744366106,129226131,hemisphere,-0.025501936157190194,0.017389720047892084,0.0,0.0,0.0,0.0
2025/04/11 12:08:26.178908315,1744366106,178318333,hemisphere,-0.009443931672108772,-0.023925820166104655,0.0,0.0,0.0,0.0
2025/04/11 12:08:26.229970461,1744366106,228781413,hemisphere,-0.011396775630634333,0.023059623181509684,0.0,0.0,0.0,0.0
2025/04/11 12:08:26.279096583,1744366106,278450450,hemisphere,-0.02473812368449445,-0.007046839903027031,0.0,0.0,0.0,0.0
2025/04/11 12:08:26.331507212,1744366106,328632916,hemisphere,-0.024938489756568323,0.006301146301251561,0.0,0.0,0.0,0.0
2025/04/11 12:08:26.381668122,1744366106,381355501,hemisphere,-0.021773142521875784,0.01369536347711604,0.0,0.0,0.0,0.0
2025/04/11 12:08:26.428079046,1744366106,427576202,hemisphere,0.0032084313703192847,-0.020326113903371305,0.0,0.0,0.0,0.0
2025/04/11 12:08:26.478485506,1744366106,478147732,hemisphere,-0.020348552351650832,0.0030628998454077087,0.0,0.0,0.0,0.0
2025/04/11 12:08:26.528662142,1744366106,528336325,hemisphere,-0.02056511669677115,-0.0007217433886484411,0.0,0.0,0.0,0.0
2025/04/11 12:08:26.578472433,1744366106,578074998,hemisphere,-0.015853160735081123,0.013119536309586375,0.0,0.0,0.0,0.0
2025/04/11 12:08:26.630110250,1744366106,628596210,hemisphere,-0.002974083661401606,-0.020361723027432065,0.0,0.0,0.0,0.0
2025/04/11 12:08:26.678700607,1744366106,678344600,hemisphere,-0.01605278461558684,0.012874511422048282,0.0,0.0,0.0,0.0
2025/04/11 12:08:26.728473969,1744366106,728168937,hemisphere,-0.019945502030993652,-0.005061806693513812,0.0,0.0,0.0,0.0
2025/04/11 12:08:26.779595834,1744366106,778563490,hemisphere,-0.010132982592342594,0.017909986098658903,0.0,0.0,0.0,0.0
2025/04/11 12:08:26.828934101,1744366106,828146485,hemisphere,-0.017597773604603167,0.010665988113250698,0.0,0.0,0.0,0.0
2025/04/11 12:08:26.880418077,1744366106,877856763,hemisphere,-0.018391659546395534,-0.009229940270681672,0.0,0.0,0.0,0.0
2025/04/11 12:08:26.930027720,1744366106,928538850,hemisphere,-0.012651957239611244,0.016228768168838996,0.0,0.0,0.0,0.0
2025/04/11 12:08:26.981178934,1744366106,978602540,hemisphere,-0.024500472209505346,-0.007833235446448397,0.0,0.0,0.0,0.0
2025/04/11 12:08:27.29669835,1744366107,28499748,hemisphere,-0.020023377166309236,0.00474439723532917,0.0,0.0,0.0,0.0
2025/04/11 12:08:27.80403351,1744366107,78199411,hemisphere,-0.018981010676939167,-0.00794771488874598,0.0,0.0,0.0,0.0
2025/04/11 12:08:27.129799708,1744366107,129126464,hemisphere,-0.023260764770300597,0.010980416128224922,0.0,0.0,0.0,0.0
2025/04/11 12:08:27.179083088,1744366107,178727856,hemisphere,-0.02479629035851452,-0.0068393494211422805,0.0,0.0,0.0,0.0
2025/04/11 12:08:27.230983522,1744366107,229383119,hemisphere,-0.030816102418959067,-0.001766052890966109,0.0,0.0,0.0,0.0
2025/04/11 12:08:27.279626058,1744366107,278925235,hemisphere,-0.030856782790443564,0.0007810678157820078,0.0,0.0,0.0,0.0
2025/04/11 12:08:27.329011322,1744366107,328662198,hemisphere,-0.030480724767984975,0.004865853340146184,0.0,0.0,0.0,0.0
2025/04/11 12:08:27.381374049,1744366107,381087665,hemisphere,-0.030199973913135572,0.006380649399190913,0.0,0.0,0.0,0.0
2025/04/11 12:08:27.431755464,1744366107,430072547,hemisphere,-0.03578598581433645,-0.004020365997102729,0.0,0.0,0.0,0.0
2025/04/11 12:08:27.478878103,1744366107,478394668,hemisphere,-0.03023622270427362,-0.006206605166033441,0.0,0.0,0.0,0.0
2025/04/11 12:08:27.529931155,1744366107,529167165,hemisphere,-0.034289158164997724,0.011002443173691898,0.0,0.0,0.0,0.0
2025/04/11 12:08:27.579369214,1744366107,578553230,hemisphere,-0.03557947508006027,0.005558873670260848,0.0,0.0,0.0,0.0
2025/04/11 12:08:27.628533419,1744366107,628229690,hemisphere,-0.035974890590242344,0.0016147354193929372,0.0,0.0,0.0,0.0
2025/04/11 12:08:27.682618141,1744366107,678163373,hemisphere,-0.033532938984964074,0.013127914018808383,0.0,0.0,0.0,0.0
2025/04/11 12:08:27.728941863,1744366107,727817473,hemisphere,-0.030928881564038738,-0.01844463088956279,0.0,0.0,0.0,0.0
2025/04/11 12:08:27.778675006,1744366107,778065931,hemisphere,-0.035765178612793914,0.004201442877095677,0.0,0.0,0.0,0.0
2025/04/11 12:08:27.831385353,1744366107,828063845,hemisphere,-0.0338153362015016,0.0234585334294987,0.0,0.0,0.0,0.0
2025/04/11 12:08:27.878861540,1744366107,878178991,hemisphere,-0.03270587556787105,-0.015070694303630621,0.0,0.0,0.0,0.0
2025/04/11 12:08:27.928669328,1744366107,928210615,hemisphere,-0.03572636446483526,0.00451962449549805,0.0,0.0,0.0,0.0
2025/04/11 12:08:27.979178791,1744366107,978253964,hemisphere,-0.04114712115244272,-0.0008331710206756441,0.0,0.0,0.0,0.0
2025/04/11 12:08:28.28950561,1744366108,28647390,hemisphere,-0.02770291770832971,0.02300757427240128,0.0,0.0,0.0,0.0
2025/04/11 12:08:28.82523985,1744366108,82195342,hemisphere,-0.031314582526174084,-0.017781930285151334,0.0,0.0,0.0,0.0
2025/04/11 12:08:28.130504562,1744366108,130218486,hemisphere,-0.03731779402524051,0.017354019769875106,0.0,0.0,0.0,0.0
2025/04/11 12:08:28.179082464,1744366108,178630056,hemisphere,0.0028316649204856168,-0.03589960720164833,0.0,0.0,0.0,0.0
2025/04/11 12:08:28.228940943,1744366108,228211259,hemisphere,-0.032882430601971276,-0.014681480891282463,0.0,0.0,0.0,0.0
2025/04/11 12:08:28.279563716,1744366108,279012231,hemisphere,-0.02892533164495405,0.0214505317576038,0.0,0.0,0.0,0.0
2025/04/11 12:08:28.327956344,1744366108,327628974,hemisphere,-0.03218822284079716,0.016146777814961523,0.0,0.0,0.0,0.0
2025/04/11 12:08:28.381942866,1744366108,381627822,hemisphere,-0.019943946876540854,-0.029983980830441202,0.0,0.0,0.0,0.0
2025/04/11 12:08:28.431218218,1744366108,428831125,hemisphere,-0.021349432823781496,0.02900003175097211,0.0,0.0,0.0,0.0
2025/04/11 12:08:28.480230088,1744366108,479571107,hemisphere,-0.023341255639627245,-0.02019744776636478,0.0,0.0,0.0,0.0
2025/04/11 12:08:28.528999418,1744366108,528677763,hemisphere,-0.030865951607423482,0.00021010111293447368,0.0,0.0,0.0,0.0
2025/04/11 12:08:28.578602814,1744366108,578312106,hemisphere,-0.027465620770402852,0.01408512643911584,0.0,0.0,0.0,0.0
2025/04/11 12:08:28.629064027,1744366108,628703144,hemisphere,-0.02894014894823465,0.010734006240144332,0.0,0.0,0.0,0.0
2025/04/11 12:08:28.678587809,1744366108,677719674,hemisphere,-0.028400271102974436,0.01209031481753142,0.0,0.0,0.0,0.0
2025/04/11 12:08:28.732830020,1744366108,728742149,hemisphere,-0.029513210849924656,0.009039994271975734,0.0,0.0,0.0,0.0
2025/04/11 12:08:28.778060359,1744366108,777809307,hemisphere,-0.029852226037694024,0.007848293553626005,0.0,0.0,0.0,0.0
2025/04/11 12:08:28.828967634,1744366108,828219841,hemisphere,-0.013816753415110268,-0.021696313998333407,0.0,0.0,0.0,0.0
2025/04/11 12:08:28.878385845,1744366108,877948738,hemisphere,-0.028176148270568906,0.012603800210427864,0.0,0.0,0.0,0.0
2025/04/11 12:08:28.928618028,1744366108,927836246,hemisphere,-0.026471760465513215,0.01587441365739082,0.0,0.0,0.0,0.0
2025/04/11 12:08:28.980647848,1744366108,978944942,hemisphere,-0.010862542671064027,-0.023316043462979573,0.0,0.0,0.0,0.0
2025/04/11 12:08:29.29482670,1744366109,28458071,hemisphere,-0.025259856522744182,-0.0048551379484642445,0.0,0.0,0.0,0.0
2025/04/11 12:08:29.78471105,1744366109,78136402,hemisphere,-0.029349278309546305,0.009558816549043047,0.0,0.0,0.0,0.0
2025/04/11 12:08:29.130298379,1744366109,129419348,hemisphere,-0.029890223417914204,0.007702314920635088,0.0,0.0,0.0,0.0
2025/04/11 12:08:29.187109973,1744366109,185469937,hemisphere,-0.0265215006920106,0.015791171968956123,0.0,0.0,0.0,0.0
2025/04/11 12:08:29.228647222,1744366109,227961943,hemisphere,-0.0207138131350326,-0.022884253462073335,0.0,0.0,0.0,0.0
2025/04/11 12:08:29.278881339,1744366109,278388983,hemisphere,-0.015721684806361533,0.026562750948628897,0.0,0.0,0.0,0.0
2025/04/11 12:08:29.328866840,1744366109,328158275,hemisphere,-0.029761270898478045,-0.008186444015374954,0.0,0.0,0.0,0.0
2025/04/11 12:08:29.382500218,1744366109,381353198,hemisphere,-0.02872086292785933,0.011307658634243434,0.0,0.0,0.0,0.0
2025/04/11 12:08:29.431458345,1744366109,428187472,hemisphere,-0.030746850324227602,-0.002717039979280661,0.0,0.0,0.0,0.0
2025/04/11 12:08:29.478614974,1744366109,477927972,hemisphere,-0.02601819988116221,0.016607359394357524,0.0,0.0,0.0,0.0
2025/04/11 12:08:29.531665359,1744366109,530994868,hemisphere,-0.028771879567484178,-0.011177211515563749,0.0,0.0,0.0,0.0
2025/04/11 12:08:29.594213735,1744366109,593294248,hemisphere,-0.029244125669759615,0.009875840466551256,0.0,0.0,0.0,0.0
2025/04/11 12:08:29.648185186,1744366109,634398589,hemisphere,-0.02920947438803732,-0.009977861348207658,0.0,0.0,0.0,0.0
2025/04/11 12:08:29.679836574,1744366109,679238612,hemisphere,-0.02497469865581602,0.025943487631884244,0.0,0.0,0.0,0.0
2025/04/11 12:08:29.728646927,1744366109,727909858,hemisphere,-0.016058833059482757,-0.026360291953563948,0.0,0.0,0.0,0.0
2025/04/11 12:08:29.778021480,1744366109,777553567,hemisphere,-0.026870539768582613,0.02397444923245515,0.0,0.0,0.0,0.0
2025/04/11 12:08:29.833855810,1744366109,828692564,hemisphere,-0.03347997012317079,-0.013262417728534277,0.0,0.0,0.0,0.0
2025/04/11 12:08:29.883589615,1744366109,879528100,hemisphere,-0.019844406754400995,0.03004995247950375,0.0,0.0,0.0,0.0
2025/04/11 12:08:29.930629818,1744366109,928140518,hemisphere,-0.03589410463797238,-0.0029005819576145247,0.0,0.0,0.0,0.0
2025/04/11 12:08:29.978210948,1744366109,977772398,hemisphere,-0.035066820764442876,0.008192570105222632,0.0,0.0,0.0,0.0
2025/04/11 12:08:30.35632169,1744366110,29000735,hemisphere,-0.04002344930736937,0.00958661872736824,0.0,0.0,0.0,0.0
2025/04/11 12:08:30.78833111,1744366110,78550488,hemisphere,-0.04016282897900878,0.008984816163193608,0.0,0.0,0.0,0.0
2025/04/11 12:08:30.130263396,1744366110,129829357,hemisphere,-0.04114769278819369,0.0008044447102972881,0.0,0.0,0.0,0.0
2025/04/11 12:08:30.179872882,1744366110,179052182,hemisphere,-0.041134335255034925,0.001321444743409051,0.0,0.0,0.0,0.0
2025/04/11 12:08:30.228287738,1744366110,227778527,hemisphere,-0.037446982325196373,-0.01707346677801328,0.0,0.0,0.0,0.0
2025/04/11 12:08:30.278597521,1744366110,278292070,hemisphere,-0.03358536748893507,0.012993198762727072,0.0,0.0,0.0,0.0
2025/04/11 12:08:30.329486682,1744366110,328801917,hemisphere,-0.02933908705228749,0.020881046295452867,0.0,0.0,0.0,0.0
2025/04/11 12:08:30.381468753,1744366110,381053733,hemisphere,-0.040743960932378136,-0.005805979729928167,0.0,0.0,0.0,0.0
2025/04/11 12:08:30.428190480,1744366110,427904417,hemisphere,-0.030084541716833328,0.019791929495192342,0.0,0.0,0.0,0.0
2025/04/11 12:08:30.479029221,1744366110,478172867,hemisphere,-0.0351534181207704,-0.007812638343148933,0.0,0.0,0.0,0.0
2025/04/11 12:08:30.528941196,1744366110,528597965,hemisphere,-0.033869369277315806,0.01223380350550742,0.0,0.0,0.0,0.0
2025/04/11 12:08:30.582592251,1744366110,580912326,hemisphere,-0.031009066772591916,0.018309503033875206,0.0,0.0,0.0,0.0
2025/04/11 12:08:30.630284350,1744366110,628466639,hemisphere,-0.01893351176702767,-0.030632046219969927,0.0,0.0,0.0,0.0
2025/04/11 12:08:30.679650904,1744366110,679168423,hemisphere,-0.03513209913359331,0.021436309466670453,0.0,0.0,0.0,0.0
2025/04/11 12:08:30.731111654,1744366110,727574694,hemisphere,0.020763103726890768,-0.02942267233072013,0.0,0.0,0.0,0.0
2025/04/11 12:08:30.778603074,1744366110,778039994,hemisphere,-0.03380268261313858,0.012416874470250864,0.0,0.0,0.0,0.0
2025/04/11 12:08:30.828031523,1744366110,827643265,hemisphere,-0.03377660265352165,0.012487643358162647,0.0,0.0,0.0,0.0
2025/04/11 12:08:30.879449722,1744366110,878239580,hemisphere,-0.009814570097618595,-0.029264745427021836,0.0,0.0,0.0,0.0
2025/04/11 12:08:30.933173528,1744366110,930080441,hemisphere,-0.03507964635623188,-0.008137477187449223,0.0,0.0,0.0,0.0
2025/04/11 12:08:30.978764616,1744366110,978312663,hemisphere,-0.024124147942880925,0.02673622279763062,0.0,0.0,0.0,0.0
2025/04/11 12:08:31.29297164,1744366111,28617824,hemisphere,-0.014552821452942974,-0.027220699823263677,0.0,0.0,0.0,0.0
2025/04/11 12:08:31.78253527,1744366111,77822254,hemisphere,-0.03060558019964496,0.0189762637022584,0.0,0.0,0.0,0.0
2025/04/11 12:08:31.133437415,1744366111,131867936,hemisphere,-0.029869956395517698,-0.00778054085776406,0.0,0.0,0.0,0.0
2025/04/11 12:08:31.179473389,1744366111,178899743,hemisphere,-0.023383505851300786,-0.020148517692665294,0.0,0.0,0.0,0.0
2025/04/11 12:08:31.229459296,1744366111,228489806,hemisphere,-0.03498656331010723,0.00852880479331119,0.0,0.0,0.0,0.0
2025/04/11 12:08:31.279487262,1744366111,278597037,hemisphere,-0.013729231077947747,-0.027645240550911804,0.0,0.0,0.0,0.0
2025/04/11 12:08:31.331468811,1744366111,328755119,hemisphere,-0.02548067157910105,0.01742086355458467,0.0,0.0,0.0,0.0
2025/04/11 12:08:31.383710682,1744366111,381857548,hemisphere,-0.026803748258793884,-0.015307194073005943,0.0,0.0,0.0,0.0
2025/04/11 12:08:31.431601364,1744366111,431092102,hemisphere,-0.028917604241745852,0.010794594759750222,0.0,0.0,0.0,0.0
2025/04/11 12:08:31.479455099,1744366111,478977515,hemisphere,-0.030201087086562325,-0.006375378412246831,0.0,0.0,0.0,0.0
2025/04/11 12:08:31.529064555,1744366111,528637432,hemisphere,-0.03437825706455337,0.010720800560500846,0.0,0.0,0.0,0.0
2025/04/11 12:08:31.579472368,1744366111,578273996,hemisphere,-0.013132637607417936,-0.02793358087645937,0.0,0.0,0.0,0.0
2025/04/11 12:08:31.642085682,1744366111,628768247,hemisphere,-0.030859669572388414,-0.000657194790354565,0.0,0.0,0.0,0.0
2025/04/11 12:08:31.682874195,1744366111,678576871,hemisphere,-0.03060470339088427,-0.004012884432108842,0.0,0.0,0.0,0.0
2025/04/11 12:08:31.754632634,1744366111,728781815,hemisphere,-0.030859554400240165,-0.0006625808087187279,0.0,0.0,0.0,0.0
2025/04/11 12:08:31.791633973,1744366111,777891761,hemisphere,-0.02942670140545557,0.009317744120956732,0.0,0.0,0.0,0.0
2025/04/11 12:08:31.838391365,1744366111,829734684,hemisphere,-0.030679669858279714,0.0033924870665085387,0.0,0.0,0.0,0.0
2025/04/11 12:08:31.887033688,1744366111,879705324,hemisphere,-0.024048812376490727,0.019349566775248767,0.0,0.0,0.0,0.0
2025/04/11 12:08:31.941250899,1744366111,932042547,hemisphere,-0.029045501030424307,-0.010445572315631394,0.0,0.0,0.0,0.0
2025/04/11 12:08:31.985756400,1744366111,978859887,hemisphere,-0.030602598054378503,-0.004028908466522112,0.0,0.0,0.0,0.0
2025/04/11 12:08:32.29886636,1744366112,28639166,hemisphere,-0.01178727160275697,0.028527378766236195,0.0,0.0,0.0,0.0
2025/04/11 12:08:32.80583517,1744366112,79538483,hemisphere,-0.03079880532125466,-0.0020456543923449188,0.0,0.0,0.0,0.0
2025/04/11 12:08:32.133457222,1744366112,129927186,hemisphere,-0.011081739068545548,-0.0288087863389997,0.0,0.0,0.0,0.0
2025/04/11 12:08:32.182611547,1744366112,179418163,hemisphere,-0.02283357180365899,0.020769668023264444,0.0,0.0,0.0,0.0
2025/04/11 12:08:32.233156634,1744366112,231894374,hemisphere,-0.02875820255811576,-0.011212354647256246,0.0,0.0,0.0,0.0
2025/04/11 12:08:32.278072912,1744366112,277663425,hemisphere,-0.02987808777932698,0.0077492568521308125,0.0,0.0,0.0,0.0
2025/04/11 12:08:32.328695159,1744366112,328037802,hemisphere,-0.019024955387488912,0.01731137743081977,0.0,0.0,0.0,0.0
2025/04/11 12:08:32.381614316,1744366112,381228130,hemisphere,-0.029049145453380425,0.010435432886939183,0.0,0.0,0.0,0.0
2025/04/11 12:08:32.429689264,1744366112,428217107,hemisphere,-0.007391551149461204,-0.0246373230618332,0.0,0.0,0.0,0.0
2025/04/11 12:08:32.478293861,1744366112,477844669,hemisphere,-0.030352742564493652,0.00560911133095429,0.0,0.0,0.0,0.0
2025/04/11 12:08:32.528530080,1744366112,528190009,hemisphere,-0.02572085847644705,0.00026486842548939033,0.0,0.0,0.0,0.0
2025/04/11 12:08:32.578656557,1744366112,578314880,hemisphere,-0.027339160134712936,0.014329041637108452,0.0,0.0,0.0,0.0
2025/04/11 12:08:32.629580800,1744366112,628938197,hemisphere,-0.01966390661381031,-0.016582023179684276,0.0,0.0,0.0,0.0
2025/04/11 12:08:32.680508693,1744366112,678905271,hemisphere,-0.027064223320527707,-0.014841796628645359,0.0,0.0,0.0,0.0
2025/04/11 12:08:32.728158085,1744366112,727789011,hemisphere,-0.0031703945584314265,0.025526090856065442,0.0,0.0,0.0,0.0
2025/04/11 12:08:32.778541876,1744366112,778217921,hemisphere,-0.02567286496802439,0.0015927085049767848,0.0,0.0,0.0,0.0
2025/04/11 12:08:32.828275253,1744366112,827901788,hemisphere,-0.03085092394810392,0.0009856990705954128,0.0,0.0,0.0,0.0
2025/04/11 12:08:32.878246039,1744366112,877605405,hemisphere,0.014657894489181821,-0.021137143733065085,0.0,0.0,0.0,0.0
2025/04/11 12:08:32.928814106,1744366112,927985727,hemisphere,-0.030372137097604498,0.005503126314539878,0.0,0.0,0.0,0.0
2025/04/11 12:08:32.978722253,1744366112,978296102,hemisphere,-0.02552219843893192,-0.0032015781877100026,0.0,0.0,0.0,0.0
2025/04/11 12:08:33.29190027,1744366113,28810297,hemisphere,-0.023166009526600067,0.011178940855989635,0.0,0.0,0.0,0.0
2025/04/11 12:08:33.78357411,1744366113,78033727,hemisphere,-0.02567774191072594,0.001512047093971575,0.0,0.0,0.0,0.0
2025/04/11 12:08:33.134101636,1744366113,132213426,hemisphere,-0.023703661302397587,-0.009988451176706948,0.0,0.0,0.0,0.0
2025/04/11 12:08:33.178959400,1744366113,178613411,hemisphere,-0.020255560326283534,0.01585386362741045,0.0,0.0,0.0,0.0
2025/04/11 12:08:33.228777411,1744366113,228372164,hemisphere,-0.02437727735829664,-0.008208596996132609,0.0,0.0,0.0,0.0
2025/04/11 12:08:33.279314521,1744366113,278840239,hemisphere,-0.012376035766973595,-0.02254920075618712,0.0,0.0,0.0,0.0
2025/04/11 12:08:33.330214604,1744366113,327771198,hemisphere,-0.023986307114938637,0.009289229625543962,0.0,0.0,0.0,0.0
2025/04/11 12:08:33.382867932,1744366113,382137323,hemisphere,-0.025530492678307502,-0.003134750333140799,0.0,0.0,0.0,0.0
2025/04/11 12:08:33.430580966,1744366113,430248906,hemisphere,-0.025569826387887355,0.002795835213588016,0.0,0.0,0.0,0.0
2025/04/11 12:08:33.480216414,1744366113,479701701,hemisphere,-0.02255351943377309,-0.012368163857204467,0.0,0.0,0.0,0.0
2025/04/11 12:08:33.529677423,1744366113,528742536,hemisphere,-0.008843906844251142,0.024154047854934114,0.0,0.0,0.0,0.0
2025/04/11 12:08:33.579304952,1744366113,579020038,hemisphere,-0.020012503666919552,-0.016159591982156322,0.0,0.0,0.0,0.0
2025/04/11 12:08:33.633805157,1744366113,630427529,hemisphere,-0.02318742884570051,-0.011134444735765468,0.0,0.0,0.0,0.0
2025/04/11 12:08:33.680326796,1744366113,679024424,hemisphere,-0.016766611934113683,0.019506753709909706,0.0,0.0,0.0,0.0
2025/04/11 12:08:33.739865271,1744366113,735810157,hemisphere,-0.009197060566541246,-0.024021798287880352,0.0,0.0,0.0,0.0
2025/04/11 12:08:33.779793850,1744366113,778863190,hemisphere,-0.02004067698040894,0.016124638979373974,0.0,0.0,0.0,0.0
2025/04/11 12:08:33.829138822,1744366113,828758199,hemisphere,-0.00990979208332102,-0.02373665386935546,0.0,0.0,0.0,0.0
2025/04/11 12:08:33.879017608,1744366113,878506848,hemisphere,-0.024555897903252407,-0.007657714686072041,0.0,0.0,0.0,0.0
2025/04/11 12:08:33.934167463,1744366113,933202595,hemisphere,-0.023796746095118258,0.009764609123396256,0.0,0.0,0.0,0.0
2025/04/11 12:08:33.983663269,1744366113,979994396,hemisphere,-0.023703661302397587,-0.009988451176706948,0.0,0.0,0.0,0.0
2025/04/11 12:08:34.31812169,1744366114,29536239,hemisphere,-0.02272821312010439,0.012044129043453247,0.0,0.0,0.0,0.0
2025/04/11 12:08:34.81563417,1744366114,78541689,hemisphere,-0.02485387375893102,0.0066270412118349924,0.0,0.0,0.0,0.0
2025/04/11 12:08:34.141187375,1744366114,140678058,hemisphere,-0.025722014975170588,0.00010325534048818367,0.0,0.0,0.0,0.0
2025/04/11 12:08:34.183214474,1744366114,178573663,hemisphere,-0.022226550672567683,-0.012946550167825421,0.0,0.0,0.0,0.0
2025/04/11 12:08:34.229257707,1744366114,228150607,hemisphere,-0.0046219936256011425,0.020051985268191665,0.0,0.0,0.0,0.0
2025/04/11 12:08:34.283053031,1744366114,278972314,hemisphere,-0.023545652990633294,-0.010355430521852808,0.0,0.0,0.0,0.0
2025/04/11 12:08:34.329353501,1744366114,328973170,hemisphere,-0.016246758897548334,0.01994180386457487,0.0,0.0,0.0,0.0
2025/04/11 12:08:34.382090967,1744366114,381529528,hemisphere,-0.022422766068165602,-0.012603661289504757,0.0,0.0,0.0,0.0
2025/04/11 12:08:34.428967004,1744366114,428456866,hemisphere,-0.024119911716700235,0.00893658630724429,0.0,0.0,0.0,0.0
2025/04/11 12:08:34.480696485,1744366114,479304327,hemisphere,-0.024729495885191344,-0.007077057955997239,0.0,0.0,0.0,0.0
2025/04/11 12:08:34.528919673,1744366114,528428407,hemisphere,-0.019284675527028165,0.007179570188257382,0.0,0.0,0.0,0.0
2025/04/11 12:08:34.580033576,1744366114,579423812,hemisphere,-0.025722174817820923,4.938309122116118e-05,0.0,0.0,0.0,0.0
2025/04/11 12:08:34.634849231,1744366114,627937808,hemisphere,-0.012552585895663756,-0.016305751304458695,0.0,0.0,0.0,0.0
2025/04/11 12:08:34.683534463,1744366114,682499164,hemisphere,-0.017378240207550952,-0.011020059235754253,0.0,0.0,0.0,0.0
2025/04/11 12:08:34.737320445,1744366114,728024215,hemisphere,-0.020074333059846284,0.00452394633845669,0.0,0.0,0.0,0.0
2025/04/11 12:08:34.778467811,1744366114,777611438,hemisphere,-0.018158972752784247,-0.009679702827799647,0.0,0.0,0.0,0.0
2025/04/11 12:08:34.828808960,1744366114,828073616,hemisphere,-0.02050500630759331,-0.0017290617676739147,0.0,0.0,0.0,0.0
2025/04/11 12:08:34.879346686,1744366114,877925051,hemisphere,-0.02057601482961623,-0.0002693547888678826,0.0,0.0,0.0,0.0
2025/04/11 12:08:34.930745977,1744366114,928299259,hemisphere,-0.02528245526926128,-0.004736050211520354,0.0,0.0,0.0,0.0
2025/04/11 12:08:34.980327086,1744366114,977844874,hemisphere,0.01987939292401304,0.005315512698091647,0.0,0.0,0.0,0.0
2025/04/11 12:08:35.29220637,1744366115,28460927,hemisphere,-0.020065610716027478,-0.004562477930216912,0.0,0.0,0.0,0.0
2025/04/11 12:08:35.79410071,1744366115,78140768,hemisphere,-0.0069839886401327515,-0.019356364352464794,0.0,0.0,0.0,0.0
2025/04/11 12:08:35.130674152,1744366115,129898637,hemisphere,-0.018919417518330137,0.00809324280112588,0.0,0.0,0.0,0.0
2025/04/11 12:08:35.179193818,1744366115,178863091,hemisphere,-0.010260883236798378,-0.0178370180655754,0.0,0.0,0.0,0.0
2025/04/11 12:08:35.232071856,1744366115,231271417,hemisphere,-0.013907440176812292,0.015166675509130553,0.0,0.0,0.0,0.0
2025/04/11 12:08:35.279034479,1744366115,278417805,hemisphere,-0.019734454788700985,-0.005830628822313246,0.0,0.0,0.0,0.0
2025/04/11 12:08:35.328233055,1744366115,327869722,hemisphere,-0.02050040937013311,-0.0017827377619357623,0.0,0.0,0.0,0.0
2025/04/11 12:08:35.381527809,1744366115,381208782,hemisphere,-0.020341007537423336,-0.0031126115455289687,0.0,0.0,0.0,0.0
2025/04/11 12:08:35.432754963,1744366115,429820772,hemisphere,-0.017173380299519377,-0.011336663854898095,0.0,0.0,0.0,0.0
2025/04/11 12:08:35.479047439,1744366115,478632231,hemisphere,-0.012615102797911521,0.016257432751483183,0.0,0.0,0.0,0.0
2025/04/11 12:08:35.529507088,1744366115,528915657,hemisphere,-0.018078959626251712,-0.00982833440127236,0.0,0.0,0.0,0.0
2025/04/11 12:08:35.581671424,1744366115,580737201,hemisphere,-0.016700389051087824,0.01202255978621771,0.0,0.0,0.0,0.0
2025/04/11 12:08:35.633183745,1744366115,628458707,hemisphere,-0.008969020639827241,-0.018520302563220344,0.0,0.0,0.0,0.0
2025/04/11 12:08:35.680520104,1744366115,678544093,hemisphere,-0.01833819414972061,0.009335714948413216,0.0,0.0,0.0,0.0
2025/04/11 12:08:35.729110542,1744366115,728456534,hemisphere,-8.978720883715288e-05,-0.020577581892146667,0.0,0.0,0.0,0.0
2025/04/11 12:08:35.778815247,1744366115,778203166,hemisphere,-0.017267750358126936,-0.011192396340385744,0.0,0.0,0.0,0.0
2025/04/11 12:08:35.828156365,1744366115,827826069,hemisphere,-0.020243594063356646,-0.003693485842521232,0.0,0.0,0.0,0.0
2025/04/11 12:08:35.878700759,1744366115,878234574,hemisphere,-0.01691994168722131,-0.011711554618064321,0.0,0.0,0.0,0.0
2025/04/11 12:08:35.931510200,1744366115,928194009,hemisphere,-0.01601676965267062,-0.01291928899607725,0.0,0.0,0.0,0.0
2025/04/11 12:08:35.977896814,1744366115,977600521,hemisphere,-0.018724980818465575,0.008533465393318788,0.0,0.0,0.0,0.0
2025/04/11 12:08:36.29500805,1744366116,28877506,hemisphere,-0.014641823046560648,-0.014458974934070487,0.0,0.0,0.0,0.0
2025/04/11 12:08:36.79202270,1744366116,78404414,hemisphere,-0.018303853869813185,0.009402865083760271,0.0,0.0,0.0,0.0
2025/04/11 12:08:36.131158388,1744366116,130550115,hemisphere,-0.01881331472324882,0.008336913541285072,0.0,0.0,0.0,0.0
2025/04/11 12:08:36.180397027,1744366116,178610866,hemisphere,-0.004597492060729148,-0.020057617132212033,0.0,0.0,0.0,0.0
2025/04/11 12:08:36.228117424,1744366116,227661668,hemisphere,-0.015253758580764054,0.013811871250147106,0.0,0.0,0.0,0.0
2025/04/11 12:08:36.278583301,1744366116,278034411,hemisphere,-0.004985184337508709,-0.019964790892767474,0.0,0.0,0.0,0.0
2025/04/11 12:08:36.328318427,1744366116,327650608,hemisphere,-0.01942725406406584,0.006784300833623943,0.0,0.0,0.0,0.0
2025/04/11 12:08:36.382694731,1744366116,382148933,hemisphere,-0.02057535072051747,-0.00031603955223098273,0.0,0.0,0.0,0.0
2025/04/11 12:08:36.428650486,1744366116,427771220,hemisphere,-0.017904678026560688,-0.010142358849699018,0.0,0.0,0.0,0.0
2025/04/11 12:08:36.478291054,1744366116,477885820,hemisphere,-0.02021396143149679,-0.0038523631081238286,0.0,0.0,0.0,0.0
2025/04/11 12:08:36.528450319,1744366116,527951864,hemisphere,-0.007685255622120482,-0.019088786873280833,0.0,0.0,0.0,0.0
2025/04/11 12:08:36.595916849,1744366116,577677304,hemisphere,-0.021844552488849683,-0.013581172357721204,0.0,0.0,0.0,0.0
2025/04/11 12:08:36.629211340,1744366116,628591144,hemisphere,0.01679222233345156,0.011893956758572978,0.0,0.0,0.0,0.0
2025/04/11 12:08:36.678489156,1744366116,677850599,hemisphere,-0.017364763699080896,-0.011041282531751259,0.0,0.0,0.0,0.0
2025/04/11 12:08:36.728523125,1744366116,728136502,hemisphere,-0.02519594915566661,0.005176568573225161,0.0,0.0,0.0,0.0
2025/04/11 12:08:36.778138504,1744366116,777683081,hemisphere,-0.008910793228753542,-0.018548388132268345,0.0,0.0,0.0,0.0
2025/04/11 12:08:36.827795575,1744366116,827504850,hemisphere,-0.009290878462216158,-0.018360950837884218,0.0,0.0,0.0,0.0
2025/04/11 12:08:36.878760800,1744366116,877915344,hemisphere,-0.020574580688850964,-0.000362722688612296,0.0,0.0,0.0,0.0
2025/04/11 12:08:36.927872048,1744366116,927554968,hemisphere,0.00754178079880902,-0.019145925954458007,0.0,0.0,0.0,0.0
2025/04/11 12:08:36.978540366,1744366116,978168109,hemisphere,-0.016090913344063353,0.012826825251195911,0.0,0.0,0.0,0.0
2025/04/11 12:08:37.29122877,1744366117,28717403,hemisphere,-0.020460500709040565,-0.002193820641306781,0.0,0.0,0.0,0.0
2025/04/11 12:08:37.79161591,1744366117,78859117,hemisphere,0.007914574687339151,-0.018994853139453424,0.0,0.0,0.0,0.0
2025/04/11 12:08:37.133253324,1744366117,129509831,hemisphere,-0.009741789100120895,-0.011970184748203841,0.0,0.0,0.0,0.0
2025/04/11 12:08:37.178740031,1744366117,178206521,hemisphere,-0.019563959910084205,-0.006379373864846863,0.0,0.0,0.0,0.0
2025/04/11 12:08:37.233597091,1744366117,230002771,hemisphere,-0.015248936398966325,0.01381719497478244,0.0,0.0,0.0,0.0
2025/04/11 12:08:37.278997880,1744366117,277816020,hemisphere,-0.017867384160803235,0.010207914650953484,0.0,0.0,0.0,0.0
2025/04/11 12:08:37.329125443,1744366117,328814892,hemisphere,-0.015342633077670097,-0.013713079468699093,0.0,0.0,0.0,0.0
2025/04/11 12:08:37.381819616,1744366117,381344536,hemisphere,0.009262176812186244,0.012345033757635723,0.0,0.0,0.0,0.0
2025/04/11 12:08:37.428839326,1744366117,428423824,hemisphere,-0.019972596968224534,-0.004953817579982262,0.0,0.0,0.0,0.0
2025/04/11 12:08:37.481397042,1744366117,478894663,hemisphere,-0.020558035320840617,0.0009011781277543223,0.0,0.0,0.0,0.0
2025/04/11 12:08:37.530795348,1744366117,529257590,hemisphere,0.015175391383060944,0.002809853047453869,0.0,0.0,0.0,0.0
2025/04/11 12:08:37.579209130,1744366117,578814464,hemisphere,-0.008173851499706068,-0.013091062960589527,0.0,0.0,0.0,0.0
2025/04/11 12:08:37.628778953,1744366117,628427530,hemisphere,-0.01896989507489364,0.007974209623429715,0.0,0.0,0.0,0.0
2025/04/11 12:08:37.677925405,1744366117,677578647,hemisphere,0.009156263261858883,-0.012423792531143599,0.0,0.0,0.0,0.0
2025/04/11 12:08:37.728170493,1744366117,727843908,hemisphere,-0.01527707952965337,0.0021905749980340996,0.0,0.0,0.0,0.0
2025/04/11 12:08:37.777861658,1744366117,777588335,hemisphere,-0.00025588263236324,-0.015431211937363215,0.0,0.0,0.0,0.0
2025/04/11 12:08:37.828570456,1744366117,827985862,hemisphere,-0.019831291691017286,-0.005492249824676765,0.0,0.0,0.0,0.0
2025/04/11 12:08:37.878071550,1744366117,877699547,hemisphere,0.009262176812186244,0.012345033757635723,0.0,0.0,0.0,0.0
2025/04/11 12:08:37.934524231,1744366117,933327061,hemisphere,-0.011521323890107432,-0.010268732813575678,0.0,0.0,0.0,0.0
2025/04/11 12:08:37.978114314,1744366117,977809466,hemisphere,-0.00014545358648472608,-0.015432647894368124,0.0,0.0,0.0,0.0
2025/04/11 12:08:38.30070923,1744366118,29673604,hemisphere,-0.004986381590626772,0.01460560770423554,0.0,0.0,0.0,0.0
2025/04/11 12:08:38.78926559,1744366118,78630050,hemisphere,-0.011391376908719712,-0.010412699453112698,0.0,0.0,0.0,0.0
2025/04/11 12:08:38.131153997,1744366118,129317342,hemisphere,-0.00026665558736629815,-0.01543102953710777,0.0,0.0,0.0,0.0
2025/04/11 12:08:38.179071634,1744366118,178782498,hemisphere,-0.011976982882383342,0.009733429961347774,0.0,0.0,0.0,0.0
2025/04/11 12:08:38.228039788,1744366118,227733256,hemisphere,-0.013375118350417657,-0.015638131198554193,0.0,0.0,0.0,0.0
2025/04/11 12:08:38.278739421,1744366118,278268084,hemisphere,0.011787918708584462,-0.009961563647197693,0.0,0.0,0.0,0.0
2025/04/11 12:08:38.328420133,1744366118,328025213,hemisphere,-0.014330631368874849,-0.0057289425155770506,0.0,0.0,0.0,0.0
2025/04/11 12:08:38.381993673,1744366118,381179777,hemisphere,0.007672302116242935,-0.013391174631616912,0.0,0.0,0.0,0.0
2025/04/11 12:08:38.428313165,1744366118,428034108,hemisphere,-0.015431791109948195,0.00021817634218678064,0.0,0.0,0.0,0.0
2025/04/11 12:08:38.479046605,1744366118,478471394,hemisphere,0.0007431529616847215,-0.015415430628201904,0.0,0.0,0.0,0.0
2025/04/11 12:08:38.532967140,1744366118,530181034,hemisphere,-0.01394147468651156,-0.006619898892182833,0.0,0.0,0.0,0.0
2025/04/11 12:08:38.578080107,1744366118,577759095,hemisphere,0.0018594599978963954,-0.015320906836528616,0.0,0.0,0.0,0.0
2025/04/11 12:08:38.628658624,1744366118,628262911,hemisphere,-0.015413568745862622,0.0007808177085165904,0.0,0.0,0.0,0.0
2025/04/11 12:08:38.678824738,1744366118,677905674,hemisphere,-0.014022434903372698,0.00644663456060922,0.0,0.0,0.0,0.0
2025/04/11 12:08:38.727896383,1744366118,727602868,hemisphere,-0.009945094902782841,-0.011801816180232978,0.0,0.0,0.0,0.0
2025/04/11 12:08:38.778432522,1744366118,778005996,hemisphere,0.004059448409797903,-0.014889884364411814,0.0,0.0,0.0,0.0
2025/04/11 12:08:38.828803822,1744366118,827987250,hemisphere,0.0073759834123380726,-0.013556645841736803,0.0,0.0,0.0,0.0
2025/04/11 12:08:38.878944193,1744366118,878121908,hemisphere,-0.013338641110140647,-0.007763274509653257,0.0,0.0,0.0,0.0
2025/04/11 12:08:38.929266188,1744366118,928853693,hemisphere,-0.01355793298721192,-0.007373617218952783,0.0,0.0,0.0,0.0
2025/04/11 12:08:38.978014402,1744366118,977527515,hemisphere,-0.008896272079546118,-0.01261126959762792,0.0,0.0,0.0,0.0
2025/04/11 12:08:39.29027522,1744366119,28720012,hemisphere,0.0030452304685906176,-0.015129915702690929,0.0,0.0,0.0,0.0
2025/04/11 12:08:39.78628329,1744366119,78306895,hemisphere,-0.01522653673440983,0.002518006523628194,0.0,0.0,0.0,0.0
2025/04/11 12:08:39.130355431,1744366119,129946865,hemisphere,0.002809853047453874,-0.015175391383060944,0.0,0.0,0.0,0.0
2025/04/11 12:08:39.178811695,1744366119,178502814,hemisphere,0.011633535757112883,-0.010141431041295017,0.0,0.0,0.0,0.0
2025/04/11 12:08:39.231206664,1744366119,228972420,hemisphere,-0.015596034923101578,-0.013424180904184404,0.0,0.0,0.0,0.0
2025/04/11 12:08:39.297611922,1744366119,289588011,hemisphere,0.012377289578062993,-0.009219028174278424,0.0,0.0,0.0,0.0
2025/04/11 12:08:39.341547240,1744366119,330489002,hemisphere,0.00042735774386836356,-0.020573339632389023,0.0,0.0,0.0,0.0
2025/04/11 12:08:39.381139482,1744366119,380839561,hemisphere,-0.012317945325026992,-0.016483724131412743,0.0,0.0,0.0,0.0
2025/04/11 12:08:39.429225521,1744366119,428586908,hemisphere,0.007608566605228218,-0.019119483583106504,0.0,0.0,0.0,0.0
2025/04/11 12:08:39.480439094,1744366119,480128725,hemisphere,-0.000552150673932254,-0.025716295333533472,0.0,0.0,0.0,0.0
2025/04/11 12:08:39.530096204,1744366119,528537843,hemisphere,0.016358188249693296,-0.012484174600608137,0.0,0.0,0.0,0.0
2025/04/11 12:08:39.578665201,1744366119,578329418,hemisphere,0.003912951544770586,-0.02542285440812099,0.0,0.0,0.0,0.0
2025/04/11 12:08:39.628323332,1744366119,627948646,hemisphere,-0.0013910272451071865,-0.025684582131146477,0.0,0.0,0.0,0.0
2025/04/11 12:08:39.677977086,1744366119,677648112,hemisphere,0.0008662854683092276,-0.025707630492436205,0.0,0.0,0.0,0.0
2025/04/11 12:08:39.728569075,1744366119,728038447,hemisphere,0.005733736609028635,-0.02507502702982639,0.0,0.0,0.0,0.0
2025/04/11 12:08:39.778390827,1744366119,777765619,hemisphere,-0.008776421622595464,-0.024178650490684506,0.0,0.0,0.0,0.0
2025/04/11 12:08:39.829217953,1744366119,828244730,hemisphere,0.005365514493433615,-0.025156390247191532,0.0,0.0,0.0,0.0
2025/04/11 12:08:39.878239874,1744366119,877885740,hemisphere,0.0031621453509900824,-0.030704265955868025,0.0,0.0,0.0,0.0
2025/04/11 12:08:39.927876689,1744366119,927606138,hemisphere,0.020661837137823606,-0.02293119266849236,0.0,0.0,0.0,0.0
2025/04/11 12:08:39.978291375,1744366119,977995667,hemisphere,-0.004934999326750361,-0.030469606048559902,0.0,0.0,0.0,0.0
2025/04/11 12:08:40.28662618,1744366120,28343662,hemisphere,0.009635619934680546,-0.029324152836592763,0.0,0.0,0.0,0.0
2025/04/11 12:08:40.79110601,1744366120,78818767,hemisphere,-0.00413570692324104,-0.03058834809783818,0.0,0.0,0.0,0.0
2025/04/11 12:08:40.130573350,1744366120,129536561,hemisphere,0.0009749300067583616,-0.030851266142435496,0.0,0.0,0.0,0.0
2025/04/11 12:08:40.179475100,1744366120,178928501,hemisphere,-0.006222435963708685,-0.03023296878884059,0.0,0.0,0.0,0.0
2025/04/11 12:08:40.231323565,1744366120,230565548,hemisphere,0.012149769645732458,-0.028374886936604747,0.0,0.0,0.0,0.0
2025/04/11 12:08:40.278013830,1744366120,277693869,hemisphere,0.015064985821985732,-0.03270850540208033,0.0,0.0,0.0,0.0
2025/04/11 12:08:40.350540712,1744366120,329416497,hemisphere,-0.016961661189230988,-0.03176636858623101,0.0,0.0,0.0,0.0
2025/04/11 12:08:40.383668106,1744366120,382479412,hemisphere,0.008418849355912179,-0.03501318464488779,0.0,0.0,0.0,0.0
2025/04/11 12:08:40.428475842,1744366120,428179455,hemisphere,0.0327999213238587,-0.014864901096315056,0.0,0.0,0.0,0.0
2025/04/11 12:08:40.479339897,1744366120,478668712,hemisphere,-0.002670198890107798,-0.04106884209435128,0.0,0.0,0.0,0.0
2025/04/11 12:08:40.529225716,1744366120,528808627,hemisphere,-0.004195200611892166,-0.03576591135817077,0.0,0.0,0.0,0.0
2025/04/11 12:08:40.580170390,1744366120,578674940,hemisphere,0.03098497150033193,-0.02708710568161742,0.0,0.0,0.0,0.0
2025/04/11 12:08:40.628358629,1744366120,627614849,hemisphere,0.011737010973812034,-0.03944644884503685,0.0,0.0,0.0,0.0
2025/04/11 12:08:40.680649086,1744366120,678142619,hemisphere,-0.0036012541258493903,-0.04099769166434307,0.0,0.0,0.0,0.0
2025/04/11 12:08:40.728135181,1744366120,727799143,hemisphere,0.012552137103556833,-0.04456606168520848,0.0,0.0,0.0,0.0
2025/04/11 12:08:40.777059452,1744366120,776770914,hemisphere,0.024555817480340227,-0.03925177483717791,0.0,0.0,0.0,0.0
