time,header_stamp_secs,header_stamp_nsecs,header_frame_id,child_frame_id,pose_position_x,pose_position_y,pose_position_z,pose_orientation_x,pose_orientation_y,pose_orientation_z,pose_orientation_w,twist_linear_x,twist_linear_y,twist_linear_z,twist_angular_x,twist_angular_y,twist_angular_z,gps_status
2025/04/09 09:59:47.304203711,1744185587,274563886,piren,vessel_center,-480.0133552487666,-300.0387996051801,2.3167579844615,0.0016391486793543492,0.0003876113081709676,0.0026931061012312883,0.9999949550515784,-0.0016911214283938211,0.05672854318031577,0.02302654568770621,0.0007122684375707664,0.000973447209928855,0.0,0
2025/04/09 09:59:47.427478067,1744185587,425414675,piren,vessel_center,-480.0137405949042,-300.02681471368567,2.3225286553764044,-0.029812062641966355,0.00033978170059144054,0.0026240192278882426,0.999552019653064,-0.00199237112819916,0.06473443687664265,0.028296310723120974,0.0008136438355433607,0.0004452193013767183,-0.0009713239239524112,0
2025/04/09 09:59:47.525497327,1744185587,522819768,piren,vessel_center,-480.01422087241633,-299.96692140673224,2.3464425255255072,0.028201882998099555,0.0004974291384105287,0.002578806027361741,0.9995987975778517,-0.0026196301119854656,0.18354451771670036,0.07519301945267487,-0.0009463798770256677,0.00010422801748614696,-0.0008127101475225539,0
2025/04/09 09:59:47.619291093,1744185587,616821820,piren,vessel_center,-480.01409483561537,-300.0181653159486,2.3242499114552784,-0.02980130196055703,0.0003108855343022314,0.00258292929516972,0.9995524569665648,-0.0017528600686547765,0.028543741245948773,0.00902763235392734,0.000781608917761235,-0.0002344374595626383,-0.0008075892605734992,0
2025/04/09 09:59:47.713302017,1744185587,711094602,piren,vessel_center,-480.01450136285234,-299.96361335084254,2.346320425762762,0.027984411418568864,0.00011369059099370764,0.0025440353300882922,0.999605115871385,-0.002263711024898079,0.14338924279004467,0.05605616746425021,-0.0009738930042342453,-0.0003374247076421459,-0.0008109633459394163,0
2025/04/09 09:59:47.809296049,1744185587,806305989,piren,vessel_center,-480.0149300318325,-300.0182125744593,2.3231302451982763,-0.029805601727347687,0.0001533462722159205,0.002532538793153512,0.9995524942882453,-0.002706790424690702,-0.01023812217731565,-0.00810366176798119,0.0007772864514026444,-0.0002733300245096038,-0.0007394762710478096,0
2025/04/09 09:59:47.904179835,1744185587,901820165,piren,vessel_center,-480.0153467942156,-299.96580194708355,2.3447650089887544,0.0016257646736950952,0.0002621220523362311,0.0025254838464724857,0.9999954550459701,-0.0033312408971143343,0.10738089233700529,0.0408809694348227,0.000653773943274359,-0.0002511589414452592,-0.0007312802021158596,0
2025/04/09 09:59:47.954987131,1744185587,951941197,piren,vessel_center,-480.0153049897857,-299.98167216473456,2.3396644989410973,0.02848460392357103,0.0006217044244925426,0.002508684410771433,0.9995908899772211,-0.002853164129374058,0.059692982738806764,0.024818103649584203,-0.000897322087149587,-0.0003579571772569106,0.0,0
2025/04/09 09:59:48.4057972,1744185588,1361770,piren,vessel_center,-480.01466493383407,-300.03640969138195,2.3162794157611892,-0.03006585065685338,3.419877600812827e-05,0.0025077056978851588,0.9995447738179898,-0.0008549038548154972,-0.07400775431401588,-0.03216378015550468,0.0008832836916112699,-0.00031099747761862583,-0.0008056526728276138,0
2025/04/09 09:59:48.100288441,1744185588,97397515,piren,vessel_center,-480.015369780935,-299.97903363895904,2.3397716928027052,0.001649102480890141,0.00028161719110460985,0.0024744577154332914,0.9999955390959401,-0.002326826195485559,0.06169869199557079,0.02360640041345497,0.000752866827705585,-0.00021890606033192,-0.0007660545384328202,0
2025/04/09 09:59:48.151633757,1744185588,147251209,piren,vessel_center,-480.0153288172688,-299.9917466105068,2.33586117026971,0.028483355750235625,0.0006848991105024687,0.0024560832399039122,0.999591014872349,-0.001972228933209557,0.026455526787049266,0.012241383485571185,-0.0008107034787504812,-0.00022234133459121303,0.0,0
2025/04/09 09:59:48.202060191,1744185588,199138313,piren,vessel_center,-480.01452301361985,-300.0453701544474,2.3128388111265195,-0.0032112916922409293,0.00043617203875430475,0.002476100307588246,0.999991683108858,4.4259158084820026e-05,-0.09591681425977175,-0.040396707807177426,-0.0006328771926769462,-0.0002817737144831905,-0.0007559906102885871,0
2025/04/09 09:59:48.251458041,1744185588,248204430,piren,vessel_center,-480.0144834626057,-300.03118410302596,2.3199285957586877,-0.03028245886656103,-0.000988746976371695,0.0024454514026918195,0.9995379006480188,0.00012712382817866072,-0.053472837719573264,-0.020042472494249855,0.0009418269852441387,0.0002663360247495466,0.0,0
2025/04/09 09:59:48.301972358,1744185588,299203744,piren,vessel_center,-480.0170338631984,-299.9746476700844,2.34261750118029,0.001663393060352666,0.0003637129815674699,0.002427271063257147,0.9999956045861298,-0.005555414876380531,0.07814845513053123,0.03262097403214937,0.0007839562353569139,0.0004455465340330424,-0.00116069939934523,0
2025/04/09 09:59:48.351784342,1744185588,348683390,piren,vessel_center,-480.01643349026943,-299.98835580055476,2.337975193614244,0.028689687130799987,0.001809234308283212,0.002376753554728632,0.99958390321478,-0.0035864749391750265,0.03875489901561204,0.018577033482509216,-0.0007736241999077342,-0.00012234270245008435,0.0,0
2025/04/09 09:59:48.401319751,1744185588,398007691,piren,vessel_center,-480.01351785574093,-300.04315977492536,2.31419198216835,-0.003219804447971314,0.0004653295031021998,0.002407576558988234,0.9999918099179028,0.0032985024563912117,-0.08743304662234538,-0.03638255898651274,-0.0005976875333665838,-0.00033463745294119967,-0.0009102006709338499,0
2025/04/09 09:59:48.449618298,1744185588,447772831,piren,vessel_center,-480.0137886885213,-300.029418899478,2.3209382702666077,-0.030275292074635227,-0.0010048106104685603,0.0023764134445438748,0.999538268254184,0.0023231779292471728,-0.04699613433494949,-0.01727023536263112,0.0009631136729000459,0.00020653202904408235,0.0,0
2025/04/09 09:59:48.500203223,1744185588,497181153,piren,vessel_center,-480.0166388753866,-299.97326196514325,2.343352993031751,0.001670869552998069,0.00035104194792205277,0.002363028285604193,0.9999957505218755,-0.004268690125945945,0.08301828805656453,0.03445935708291457,0.0007901294863240442,0.00038580602273724426,-0.001172227894835269,0
2025/04/09 09:59:48.551326453,1744185588,547750748,piren,vessel_center,-480.0162531525816,-299.9873029693403,2.3384911430001347,0.028682082527552274,0.001802626371755714,0.0023125780881242276,0.9995842839213874,-0.0029281118781001756,0.04241272667509304,0.019752356903762293,-0.0007848011132061591,-0.0001857426765245513,0.0,0
2025/04/09 09:59:48.600585688,1744185588,598137284,piren,vessel_center,-480.0134809291567,-300.0423432767095,2.314554892774974,-0.0032211575988786386,0.00046277600165202875,0.0023444913716603086,0.999991956638804,0.0035582401892496228,-0.08462775980824505,-0.03564054464684802,-0.0006260635994625306,-0.0003993483694897447,-0.0008976510824142695,0
2025/04/09 09:59:48.650660443,1744185588,648178982,piren,vessel_center,-480.0138447783621,-300.0287612839729,2.3211947945836195,-0.030280093245765083,-0.0010009903415723468,0.0023135183885213957,0.9995382742066609,0.002346480889900554,-0.0448547205230169,-0.016845861790237192,0.0009190071453856492,0.00014165127472609971,0.0,0
2025/04/09 09:59:48.701148863,1744185588,698736527,piren,vessel_center,-480.0167403898003,-299.97289210252103,2.343466222774389,0.001669725070656301,0.0003479471062557092,0.00230069352247584,0.9999958988717481,-0.004372034367315941,0.08472805111287027,0.034693986666499144,0.0007328109078010604,0.00032617757630275663,-0.0011341785670890689,0
2025/04/09 09:59:48.751904058,1744185588,748792951,piren,vessel_center,-480.01640680620557,-299.98697844879194,2.3385723702981998,0.02868168270832559,0.0017970835448094353,0.002250297935867177,0.9995844475215447,-0.0031355208018796154,0.04382609902872911,0.01988844443250051,-0.0008523732421576716,-0.0002365340468540594,0.0,0
2025/04/09 09:59:48.802285425,1744185588,799401497,piren,vessel_center,-480.01367709286365,-300.042072679737,2.314608344639654,-0.0032215568510268093,0.0004594521057308799,0.002282281132512164,0.9999921008028265,0.0032784103590073163,-0.08347193752515511,-0.03557311553358297,-0.0007009279774180246,-0.0004384400468299967,-0.0008822608024194894,0
2025/04/09 09:59:48.851966954,1744185588,849894435,piren,vessel_center,-480.0139897393821,-300.030636576653,2.3203254965432083,0.0016698597480311282,0.00034440182092521836,0.002280265359518527,0.9999959466646342,0.0019221960994398933,-0.04121610234010393,-0.015690401316776965,0.000654297560020954,0.0003152510824021359,0.0,0
2025/04/09 09:59:48.950034448,1744185588,947864983,piren,vessel_center,-480.0144586281218,-300.0295485887754,2.321623956762132,-0.003220777576410989,0.0004819254533627218,0.0019798828923661663,0.9999927371753223,0.0005962157171778338,-0.030724521303363755,-0.009927024466521824,-0.0007757989306924742,-0.00016735942352975227,-0.00575134193580774,0
2025/04/09 09:59:49.48019842,1744185589,44803486,piren,vessel_center,-480.01493097733146,-300.01035037226643,2.330303380519509,-0.029800685295394203,0.0003793748528711772,0.0020707825263776188,0.9995536439283158,-0.00042935866572421644,0.012455146642014484,0.009164412518012656,0.0008057304006043944,-0.0002170566776305979,-0.0056833572555276875,0
2025/04/09 09:59:49.98634980,1744185589,95750660,piren,vessel_center,-480.01537635778834,-299.95989873111023,2.3499052301192362,0.0016348610724163306,0.00046770187109939325,0.0020011182825742557,0.9999965519989821,-0.001370309043977763,0.1232049287026258,0.05169631154726153,0.0006575582167953982,-0.00024315627372671636,-0.0008863103789489553,0
2025/04/09 09:59:49.149269314,1744185589,146449077,piren,vessel_center,-480.0154725438136,-299.97731409923904,2.3432697708027175,0.02819483389261822,0.00048630843862037604,0.001988625441375599,0.9996003502473997,-0.001429119368185788,0.07056611775115026,0.031102714725049396,-0.0009434716307922422,-0.00023294208028152826,0.0,0
2025/04/09 09:59:49.201046655,1744185589,197334123,piren,vessel_center,-480.01541726468093,-300.0342002467855,2.318367121684604,-0.0032167308426196087,0.00039697105778827105,0.0021572049664845203,0.9999924207329763,-0.0011480877677969735,-0.06367380513966042,-0.027685959640795735,-0.000801861805893554,-0.00020891889512604948,-0.0009107740646788942,0
2025/04/09 09:59:49.250072211,1744185589,247600428,piren,vessel_center,-480.015518859531,-300.0228197906544,2.3238829334804962,-0.030076022841885108,2.2986511654166928e-05,0.002157615049838072,0.9995452851266577,-0.001242950512187385,-0.031089985574681005,-0.01225600662926724,0.0007687103510763397,-1.96119293284054e-05,0.0,0
2025/04/09 09:59:49.302155133,1744185589,299362384,piren,vessel_center,-480.01634129384985,-299.96874383027694,2.345281328940454,0.0016392897040912228,0.0002621136432335245,0.0021316290892630894,0.9999963500849041,-0.0029341686687077203,0.09250825307153729,0.03664792334840981,0.0006188158485450544,0.00014294019391458977,-0.0008461199552345719,0
2025/04/09 09:59:49.354534012,1744185589,350097790,piren,vessel_center,-480.01639882844154,-299.9839146033439,2.3398227180991276,0.028479559593153687,0.0006726354499316389,0.0021139088682526697,0.9995919135508391,-0.0027292859565024303,0.04821677124150494,0.02032971597782043,-0.0009445684710687651,0.00010539386268705174,0.0,0
2025/04/09 09:59:49.402406498,1744185589,400405731,piren,vessel_center,-480.0156555641168,-300.039528918042,2.3155945332220584,-0.0032091634565864172,0.0004378094265420369,0.002104857773342585,0.9999925395554554,-0.0007735866336590013,-0.0807559154615318,-0.03578158626279852,-0.0007700805543079654,8.029275705788984e-05,-0.0008880419002671471,0
2025/04/09 09:59:49.453367027,1744185589,450708191,piren,vessel_center,-480.01564054993435,-300.0267558975146,2.321828172572873,-0.030067551490582923,8.085915443816527e-05,0.0021064949945363144,0.9995456460252311,-0.0006511294080156992,-0.043067832514088765,-0.017806630158950097,0.0008182036509497165,0.00021264686361037718,0.0,0
2025/04/09 09:59:49.503725328,1744185589,500837128,piren,vessel_center,-480.01634334390275,-299.9716218663852,2.343772887828307,0.0016500258568299358,0.00031659583823323096,0.0020769120527550093,0.9999964318026701,-0.002139982559310888,0.08430294365957716,0.03296471957830979,0.0006826772083022228,0.0003063172657785715,-0.0008472356158943626,0
2025/04/09 09:59:49.553894344,1744185589,551103602,piren,vessel_center,-480.01633707165047,-299.9859741285029,2.338726406747506,0.02846615273165108,0.000697660737557893,0.002058706113914196,0.9995923935021166,-0.0018836784522592686,0.042856716274172965,0.018015286802811854,-0.0008726180743756615,0.00020754261393613895,0.0,0
2025/04/09 09:59:49.625598892,1744185589,623013007,piren,vessel_center,-480.0157005896701,-300.03949996754153,2.31541529410027,-0.03005859474665241,0.00010688534639471906,0.0020307950426240217,0.9995460696380504,-4.638697437273098e-05,-0.08572060914307246,-0.03783588878414024,0.0008968697455330375,0.000192606930048679,-0.0008862337171585962,0
2025/04/09 09:59:49.726632541,1744185589,723378379,piren,vessel_center,-480.01638494185175,-299.9832776986978,2.338039704172545,0.02829515479743685,-0.000657068490242144,0.0019962282115332354,0.9995974027321778,-0.0015580633993523996,0.056535487254177605,0.02008356731362062,-0.0008084161170427929,0.00037237490672814685,-0.0010236296980225084,0
2025/04/09 09:59:49.822194191,1744185589,819865633,piren,vessel_center,-480.0180353912445,-300.03647266592924,2.3152672206578413,-0.029426112905072715,0.0017441652994801913,0.0019830283109164297,0.9995634694032312,-0.004871589474351062,-0.07456463953540139,-0.03510198140673723,0.0010053494212681232,-0.00011504432452884234,-0.0010280212346605012,0
2025/04/09 09:59:49.924918568,1744185589,918977707,piren,vessel_center,-480.0154734853023,-299.9822017296902,2.3374923605230644,0.027811247714730064,-0.0008940535049167881,0.001947880271503892,0.9996108947642218,0.0019134600198866206,0.06275429815545987,0.02215598537750181,-0.0007765934541696177,1.996565442960903e-06,-0.000744635647478936,0
2025/04/09 09:59:50.20795036,1744185590,17542959,piren,vessel_center,-480.017694761167,-300.0345455105364,2.315450232126888,-0.02940990740890505,0.0017152627119523666,0.0019380048269482674,0.9995640846675712,-0.0034630347750864198,-0.06800102012216473,-0.031924126820562795,0.0009815976299247064,-0.00043889443571596684,-0.0009780288155858835,0
2025/04/09 09:59:50.119866157,1744185590,117631696,piren,vessel_center,-480.01527660098793,-299.9806213320982,2.337791614983408,0.027805519702536766,-0.0009325810351566584,0.0018953938934668253,0.9996111198104358,0.0026920720694305015,0.06717591838673807,0.024926930287743537,-0.0008367058454890547,-0.00018046427623121658,-0.0007494700262072449,0
2025/04/09 09:59:50.218605250,1744185590,216217986,piren,vessel_center,-480.01764900378396,-300.03338244297527,2.315786910358942,-0.029415065160678065,0.0016995718490803793,0.0018820836748505057,0.9995640665600999,-0.003183292296125877,-0.06512544627798879,-0.0295591459704729,0.0008940960310468431,-0.0004582325626023899,-0.0010267163351136007,0
2025/04/09 09:59:50.319585607,1744185590,316898077,piren,vessel_center,-480.01529208109224,-299.9793467233903,2.338333566876665,0.027810880808992335,-0.0009509802485553568,0.001841450845981415,0.9996110541625561,0.0027091640160959614,0.06835268483141597,0.026625457796810387,-0.0009316149359479866,-4.885667666291002e-05,-0.0008809635879781516,0
2025/04/09 09:59:50.417226576,1744185590,414410660,piren,vessel_center,-480.017729042289,-300.03240559639676,2.316278889125645,-0.029422148494508707,0.0016882482174832387,0.001821697724266063,0.9995639891539334,-0.0033275930592937255,-0.06522918635700982,-0.028490470678712902,0.0008086309567906699,-0.00020473178369155578,-0.0009950734111112834,0
2025/04/09 09:59:50.518084067,1744185590,515299576,piren,vessel_center,-480.01542274362384,-299.97904619600547,2.338562971362105,0.028194980864434834,0.0004242951573062954,0.0017466945978829751,0.9996008263730355,0.0025440667778182935,0.06798399550380062,0.02742236419379849,-0.0009443078024970112,-0.0002463308333763382,-0.0007543394757104826,0
2025/04/09 09:59:50.618197400,1744185590,616019115,piren,vessel_center,-480.0155989025,-300.03293747717305,2.3161329966789674,-0.029886414151610356,0.0001123830256309586,0.001755782742978091,0.9995517529603825,0.001582537491776598,-0.06702301070054083,-0.028572988035426558,0.0007745299222839557,6.534133197158826e-05,-0.000631068317045746,0
2025/04/09 09:59:50.720821821,1744185590,718623667,piren,vessel_center,-480.01644388291413,-299.9786437589878,2.338750988798543,0.028270870849794842,0.0006130532723911282,0.001713691783534651,0.9995986420996932,-0.0006500601833978768,0.06866383315827997,0.028098365556381406,-0.0009596789582383284,0.00022800278082281514,-0.0007137630170645098,0
2025/04/09 09:59:50.822597977,1744185590,817759860,piren,vessel_center,-480.0161561627504,-300.03266005627387,2.3162369326343195,-0.029799314579349916,0.0003940833425829459,0.0017209174585492999,0.9995543426907919,0.00013512591522142918,-0.06678105144378597,-0.028238478754296435,0.0008007617580843705,0.000300714738786291,-0.0006679152106018165,0
2025/04/09 09:59:50.924893186,1744185590,921522769,piren,vessel_center,-480.0164299466577,-299.97822544526963,2.3388923602408176,0.027802511047887436,-0.0009291807245061849,0.0017194514783738075,0.9996115247881183,-0.0005018778390423582,0.06829234669380647,0.028072226683267074,-0.0009549527755453478,0.0008186937497462677,-0.000731157533692888,0
2025/04/09 09:59:51.23228599,1744185591,21188057,piren,vessel_center,-480.0186966720545,-300.0314971762455,2.3167000531643986,-0.02941069439077223,0.0017413766582378139,0.001688791040556909,0.9995644684799516,-0.005427728462245945,-0.0654184660970258,-0.02754536982281921,0.0008666215336606561,0.00039429855927596155,-0.0010432059447668686,0
2025/04/09 09:59:51.123421381,1744185591,120198992,piren,vessel_center,-480.0161485711617,-299.97815463514314,2.3388880691436618,0.027799779136987748,-0.000914986655677634,0.0016432338017234394,0.9996117420588994,0.0014510562847134083,0.06778659993719892,0.027936622856579718,-0.0008664926721324873,0.00046314730175328286,-0.000782557076544508,0
2025/04/09 09:59:51.223536012,1744185591,220574147,piren,vessel_center,-480.018443881847,-300.0313399186457,2.3167045037308607,-0.029402767935378205,0.001756883863005668,0.0016321073128050428,0.9995647686981318,-0.003978250912041553,-0.06573877605310365,-0.027680571508985147,0.0009551733552128271,-0.0001406408451033867,-0.0010412897231112952,0
2025/04/09 09:59:51.321760951,1744185591,318815795,piren,vessel_center,-480.01593881221567,-299.97808882988085,2.338869899596554,0.027815440121680315,-0.0009243413208792667,0.0015874638740778566,0.9996113879115265,0.0024840304639381743,0.06739690497743146,0.027807595122796715,-0.000791665892673225,-0.0001258959436141602,-0.0007651147661847324,0
2025/04/09 09:59:51.419391322,1744185591,417281016,piren,vessel_center,-480.01833047021546,-300.03139940991633,2.316665606968385,-0.029416248606969505,0.0017291795191790443,0.0015776440122448904,0.999564507821008,-0.00339091191690401,-0.06626651563119589,-0.027804888003375945,0.0010006993181036208,-0.0006420885454502783,-0.001038037924177419,0
2025/04/09 09:59:51.518517175,1744185591,516352856,piren,vessel_center,-480.0159443542823,-299.97819041884617,2.3388536924100336,0.02886575253590215,0.0011460978538589835,0.001472875548571517,0.9995815551658923,0.0026713698249748946,0.06682548622356994,0.027732792403410603,-0.00039204912732025135,-0.001248877362981351,-0.0007209368603701507,0
2025/04/09 09:59:51.618443603,1744185591,615325443,piren,vessel_center,-480.0149939933936,-300.03381274619454,2.3156286643957307,-0.02478412029634536,-0.002325125235778766,0.001497917519381965,0.999689000348048,0.004242862383898532,-0.07031901611153439,-0.029497283295387935,0.0025024148766105217,-0.0003803051185447836,-3.7534547248331215e-05,0
2025/04/09 09:59:51.716689861,1744185591,714552056,piren,vessel_center,-480.02012664562034,-299.98799062460284,2.33524291858224,0.03404380421831325,0.0004192589692121778,0.0014811705746298278,0.9994191561852268,-0.008120071381608945,0.04735873306822218,0.020739122830924675,0.0022934333347621014,0.0014985880144094865,-0.0010587126319275303,0
2025/04/09 09:59:51.789926499,1744185591,786507052,piren,vessel_center,-480.0190695501175,-300.05078298392743,2.3081900643612845,0.004098540905270337,0.00034973782603600726,0.001493468919343883,0.9999904245523994,-0.004871011539307951,-0.09744287958965282,-0.04168298456967229,0.003674379795878163,0.0014903969125327524,0.0,0
2025/04/09 09:59:51.843021208,1744185591,841096508,piren,vessel_center,-480.01835739893147,-300.0462189150493,2.311776629345233,-0.0038032963024328915,0.0002914802511253708,0.0011549408165115686,0.9999920580125672,-0.0027366081307265313,-0.07626418080103571,-0.028991318607333984,0.0055880798356788206,0.0011622753875656392,-0.012410933626074825,0
2025/04/09 09:59:51.894375977,1744185591,892325005,piren,vessel_center,-480.0179513591967,-300.02925946655097,2.320056785372173,0.03317599948496453,0.0002651403363260159,0.0009667193719040845,0.9994490223180128,-0.0015310093900099356,-0.030122950023087423,-0.007376921202058431,0.004554111011766965,0.001086642782750351,-0.002112991401121663,0
2025/04/09 09:59:51.949721652,1744185591,947394785,piren,vessel_center,-480.0175089750379,-300.07815377471684,2.2982781233394878,-0.022444648933878455,-0.0005047086679518107,0.0009628045454435224,0.9997474961262982,-0.0003744360873953749,-0.13539511360318096,-0.054951156880707466,0.00702276089372596,0.0009569572709455534,0.0,0
2025/04/09 09:59:52.1480081,1744185591,999066028,piren,vessel_center,-480.018200352249,-300.0199438994314,2.3228462404059087,0.02178067861281034,0.000402540034139024,0.0012748691092427883,0.999761879003916,-0.0018694983089518839,0.00900463706043414,0.005750877766205281,0.005853064404351068,0.0010183544431771854,-0.002195585730719301,0
2025/04/09 09:59:52.54998978,1744185592,52891186,piren,vessel_center,-480.01588890678903,-300.0519468663158,2.3097109187206373,0.0005134531904233333,0.0003488740633621215,0.0012831769872454,0.9999989840542483,0.0036862920838301163,-0.06413700012826662,-0.024729717504292162,0.005654073544052943,0.0004177050288302442,0.0,0
2025/04/09 09:59:52.163019538,1744185592,159400089,piren,vessel_center,-480.01265930713413,-300.04191065402733,2.31503591200913,-0.017446234621962747,-0.00029427140054010426,0.0006629942568237893,0.9998475397481726,0.010027242184469137,-0.02726637094492612,-0.007278826946937891,0.00486384246670906,0.0003730180300471123,-0.011749954593278935,0
2025/04/09 09:59:52.304013338,1744185592,295948255,piren,vessel_center,-480.0093240734509,-300.0027825477068,2.331679671486233,0.03365123748934857,-0.00037586534672096424,0.0003776054501712834,0.9994334947132804,0.015303900798744358,0.06568732837913561,0.03133496725766478,-0.00027644918327587333,0.00034986422740415375,-0.00185680036759309,0
2025/04/09 09:59:52.370196087,1744185592,364640154,piren,vessel_center,-480.0046789291593,-300.0571228334556,2.3075111677346922,0.034176121262313536,-0.00026530911294705983,0.00037501796694229485,0.9994157201625672,0.02233353936048828,-0.06922810282085261,-0.02912663092545542,-0.0020195454356186993,0.00029875520021895133,0.0,0
2025/04/09 09:59:52.478907256,1744185592,475575167,piren,vessel_center,-479.9971773772191,-300.1015064594696,2.2877815346311774,0.0062824083282199935,0.00042101089086936724,-0.00016762857722136447,0.9999801628012865,0.033968603194671085,-0.15225836165495815,-0.06640716306393712,-0.0044958739078698375,-0.0005528609968316921,-0.022142444460783308,0
2025/04/09 09:59:52.534954165,1744185592,531850557,piren,vessel_center,-479.99056122054185,-300.0845286587202,2.2963400810854853,-0.02469318153811801,-0.0004311263220978912,5.17806160195619e-05,0.9996949825993866,0.044830216583568325,-0.0973005338944858,-0.03987329189038476,-0.005098942656231648,-0.0006063419066323873,-0.024729656422227648,0
2025/04/09 09:59:52.586010916,1744185592,583943926,piren,vessel_center,-479.98528352475785,-300.01959518548847,2.3234866703960315,0.0028578450249232825,0.0003285110463455962,6.136192360986845e-05,0.9999958605099425,0.05159262210463552,0.057809238731124465,0.024883893414025804,-0.007222349150778888,-0.0007734322489702296,0.0,0
2025/04/09 09:59:52.640153635,1744185592,637880517,piren,vessel_center,-479.97824056818666,-300.01979623162106,2.3246220625228804,0.02067115043974051,-0.001754960071887869,4.2716634753690326e-05,0.9997847877568117,0.061405306280903314,0.05081856672200051,0.024590489736379194,-0.008323938054113958,-0.00010165977512454361,-0.02596765977295323,0
2025/04/09 09:59:52.693339826,1744185592,690265858,piren,vessel_center,-479.9747202658231,-300.0498651786768,2.312120644507708,0.03288082151370807,-8.595536766213242e-06,6.765536432949315e-06,0.9994592795391556,0.06236712102804617,-0.02168830905861792,-0.005941758940829232,-0.008414502285575809,2.954030196353328e-05,0.0,0
2025/04/09 09:59:52.748644076,1744185592,744124552,piren,vessel_center,-479.9672588845641,-300.09158370204636,2.2934819608492387,-0.027732236244909725,0.0011372276547994286,-0.00034190639275968047,0.9996146822081678,0.07188660389588207,-0.11195006932289284,-0.04669268466355319,-0.007143395077764851,-0.0004257917058330898,-0.03312951712254976,0
2025/04/09 09:59:52.798353695,1744185592,796338259,piren,vessel_center,-479.95821942788433,-300.019910066284,2.323305069227107,-0.02222188625597549,0.001608406138390944,-0.0009098895173432212,0.9997513555389594,0.08401626863328587,0.05974012880369631,0.024759168746851613,-0.0051286661296476655,-0.00145500306110298,-0.007225989761070418,0
2025/04/09 09:59:52.853806939,1744185592,851363641,piren,vessel_center,-479.9490952117896,-299.97807786430474,2.3413162176165043,0.006604059618156183,0.0002817569403323903,-0.0009478949101198387,0.9999777040038572,0.09440901194807325,0.14568092746826553,0.06187481469019026,-0.00540561724387714,-0.0017257378750790502,0.0,0
2025/04/09 09:59:52.906845884,1744185592,903774752,piren,vessel_center,-479.94292699170467,-299.99746632910933,2.334537231392889,0.00279840401185354,0.0002644681675759894,-0.00013329876046089232,0.9999960406036693,0.09749991497305914,0.08620480852960102,0.03984927872706038,-0.005470278727385619,-0.001844992402343254,-0.006727781963355299,0
2025/04/09 09:59:52.961417612,1744185592,959428137,piren,vessel_center,-479.93096584120195,-300.0036037980436,2.333266940889775,-0.012978860224368218,0.000277435512035452,-0.0001269390203872854,0.9999157245004692,0.10419319265183717,0.05497948856113911,0.028897135580275658,-0.0026375496657934207,-0.0017033111905988137,0.0,0
2025/04/09 09:59:53.65817258,1744185593,63459447,piren,vessel_center,-479.9175330812386,-299.98285853873733,2.342780977527384,-0.0002697846010500394,0.0006333127114600881,-0.002011415261575278,0.9999977401674087,0.11071024901466431,0.0887713942455321,0.043569644339796765,0.00020275004778053544,-0.00135246741543148,-0.03647273412247834,0
2025/04/09 09:59:53.168541382,1744185593,166057002,piren,vessel_center,-479.9034096878881,-299.9890877945228,2.3412246995933415,-0.004004541202985662,0.00010624754107293835,-0.0024465129624967673,0.9999889834070863,0.11690231759921503,0.054721687324990886,0.030194067494216124,0.0033530878284393053,-0.0004489819251214991,-0.03598295135882458,0
2025/04/09 09:59:53.270284397,1744185593,268104273,piren,vessel_center,-479.8903934209097,-299.9893083843913,2.34191596221299,0.003068669833089805,3.508052548885742e-05,-0.00262627985682725,0.999991842311189,0.11963990039416772,0.04197174729129077,0.02496577415998885,0.0050851663796172,0.0006233087568734245,-0.036267727944814136,0
2025/04/09 09:59:53.372890098,1744185593,369864969,piren,vessel_center,-479.87737960646257,-300.00231532761524,2.3370679809798975,0.029054299030721445,0.00045589534555590745,-0.0028195561594715826,0.9995737541423999,0.12174892540920142,0.0036570398923231884,0.008595749397976107,0.005301571889302164,0.00098021791636742,-0.035822774643412644,0
2025/04/09 09:59:53.474250556,1744185593,472386719,piren,vessel_center,-479.86344836682105,-300.0562225061837,2.3132779660852436,-0.02509948655689148,0.0006317274656211235,-0.0029387557565054958,0.9996804391452268,0.12542726115275388,-0.11697050705793113,-0.046203541793450986,0.007392464131504586,0.001102972674629489,-0.03482272966512207,0
2025/04/09 09:59:53.576371129,1744185593,573849383,piren,vessel_center,-479.84891665297755,-300.00792361298875,2.3328725715367646,0.019469199912009825,0.0007504294372455612,-0.0031246551274769566,0.9998052928649559,0.12964482376596595,0.01658096335795564,0.007697525025015965,0.003937717027312315,0.002055078517781817,-0.03439050279754948,0
2025/04/09 09:59:53.676513566,1744185593,674664297,piren,vessel_center,-479.8336579768029,-300.04341580461926,2.3180366682410845,-0.0012588552421134258,0.0008437422741393073,-0.0035622444824884407,0.9999925068702772,0.13451327401103289,-0.06601361149032525,-0.026999133097572563,0.0017665510098265225,0.0011268891147047646,-0.03879509769159299,0
2025/04/09 09:59:53.778485476,1744185593,775852581,piren,vessel_center,-479.8176223636369,-300.03715895597423,2.321482712179157,0.006112098117423678,0.0008133763264144112,-0.003695239506979735,0.999974162606485,0.14000405106521602,-0.037313040682192856,-0.013289409527110645,0.0011333815557892177,-1.5121621826992881e-05,-0.035342104394234804,0
2025/04/09 09:59:53.880346830,1744185593,878026850,piren,vessel_center,-479.80054783125513,-300.04393323783887,2.3193393792417103,0.018024364439229848,0.0007169454638115249,-0.004253915388648181,0.999828241489322,0.14657523329492494,-0.044006455259068364,-0.015074608850250254,-0.004599386912961151,-0.0010734514877879396,-0.04270441056617842,0
2025/04/09 09:59:53.983990292,1744185593,981409448,piren,vessel_center,-479.7825731453796,-300.0688752057499,2.3090101423760983,0.0035072584264114297,0.0007110924851795795,-0.004512646228706302,0.9999834146173737,0.15364860543691056,-0.08956910343340493,-0.034649964296024786,-0.004835164459853289,-0.0018536157584518455,-0.0422804871970417,0
2025/04/09 09:59:54.38121849,1744185594,34649329,piren,vessel_center,-479.7743254290365,-300.0604132687946,2.313179390006008,0.002281765846017482,0.000679613313009815,-0.003491645088258877,0.9999910700026008,0.1580305799780489,-0.06263140708820171,-0.022238320602427347,-0.006065670683197651,-0.0020574020098448153,-0.042479625599108124,0
2025/04/09 09:59:54.89289343,1744185594,87107290,piren,vessel_center,-479.7635110740367,-300.0528511638787,2.316906949784772,0.027823774557917087,0.0005606124795816845,-0.003510014993784767,0.9996065241272395,0.16434566575758244,-0.038801492698212287,-0.01146010832718694,-0.008560376785442062,-0.0021182434457332863,0.0,0
2025/04/09 09:59:54.145319094,1744185594,142204332,piren,vessel_center,-479.7528885854076,-300.089729066126,2.3004256859684777,0.0013942934210890638,-0.0016456164669195394,-0.0036970465169142382,0.9999908398277214,0.1693194893247436,-0.1163617150169102,-0.04678968031215454,-0.007273977345331123,-0.001101250720029319,-0.042001288771493686,0
2025/04/09 09:59:54.220514728,1744185594,218346089,piren,vessel_center,-479.7363778568967,-300.0761441413416,2.3070595729581,0.005469360633097275,0.003136788186254238,-0.004703150518478693,0.9999690630361223,0.1680439564052903,-0.06007477557795934,-0.02155315630743551,-0.005870663856851488,-0.002061439571096745,-0.009406888365942894,0
2025/04/09 09:59:54.323064759,1744185594,320374646,piren,vessel_center,-479.71063902740997,-300.0710531322243,2.3100221587187044,-0.026114709823950547,-0.001579874840046097,-0.003959353531372829,0.9996498634251466,0.1873432344822958,-0.035208258934107985,-0.010106753698672007,-0.004718808621261766,-0.0006209472411764357,-0.008794555253092643,0
2025/04/09 09:59:54.426810794,1744185594,421817080,piren,vessel_center,-479.69229719452215,-300.01290752350934,2.3337332609769414,0.005658453770157146,0.0006539878541858993,-0.004236772807201809,0.9999748016610207,0.18615787624412397,0.10190292611182489,0.04485376463186469,-0.0036730827260866425,0.0003268225917810485,-0.00964899422400984,0
2025/04/09 09:59:54.526398445,1744185594,524051888,piren,vessel_center,-479.6694614613962,-300.0207250173247,2.3312572091090544,-0.030679465245863336,0.00202912813311516,-0.004534628147049276,0.9995169284203321,0.19522050998143634,0.06170796368510313,0.02930597278659789,-0.0006015728034926022,0.00057837279841157,-0.010133493686805852,0
2025/04/09 09:59:54.628047477,1744185594,625251754,piren,vessel_center,-479.6442330433025,-299.96680915341204,2.352649508151433,0.004015622436348616,0.00035436074394320545,-0.004896577859201735,0.9999798861628071,0.20733820022910543,0.16763985054535627,0.07025117319029327,0.0029312442778512454,0.0011624940727721913,-0.00969552320234351,0
2025/04/09 09:59:54.729074868,1744185594,727069336,piren,vessel_center,-479.6231778953894,-299.9842880504957,2.3461790405697283,0.030929622416140088,0.00036323212513060435,-0.0051612225017749125,0.9995081732041542,0.20772466532280298,0.09127038018709757,0.04014631834566721,0.003773218321529767,0.001680795179669799,-0.009431661912462879,0
2025/04/09 09:59:54.832164277,1744185594,829925117,piren,vessel_center,-479.6025453264892,-300.044780256814,2.319655627296399,0.0017400652409738293,0.001355587588775767,-0.005424587739087782,0.999982854054562,0.20681419704319517,-0.06372813567732005,-0.027843129768829432,0.006103339904981927,0.001472470860702362,-0.009323369058368627,0
2025/04/09 09:59:54.936274533,1744185594,932554202,piren,vessel_center,-479.5812191281065,-300.0449347650057,2.320492756983161,0.0029101028248622453,0.0004396429641011756,-0.005630825883757823,0.9999798157040369,0.21132526883211533,-0.050853956402215725,-0.020207438802780107,0.006790572389704044,0.0012609444027419877,-0.008773600831676338,0
2025/04/09 09:59:54.988195813,1744185594,985835733,piren,vessel_center,-479.5710209398425,-300.04479894308037,2.3212152936448454,-0.0021523198156720227,0.0004704470978251543,-0.005628643905788561,0.9999817321165028,0.210579569347692,-0.04491825830468765,-0.016362903309554387,0.005083588567012993,0.0011250168992231017,0.0,0
2025/04/09 09:59:55.41856583,1744185595,39965923,piren,vessel_center,-479.56053610950323,-300.0360709854356,2.325333763351237,-0.0015808288196390127,-0.0017386579611316918,-0.006330285005208805,0.9999772025103822,0.20986015847965966,-0.02028171081037722,-0.00529144116593705,0.004827544866243306,0.001990830080305212,-0.04421583481871914,0
2025/04/09 09:59:55.95038618,1744185595,92812416,piren,vessel_center,-479.5541852081117,-300.03056066921476,2.327936376944501,0.002538882664539797,0.0007036728722697927,-0.007086633845731425,0.9999714188615799,0.20059595128341237,-0.005775888448579241,0.0010822145069264702,0.005213759269892918,0.0018021923827138357,-0.009392792391294312,0
2025/04/09 09:59:55.149761677,1744185595,147072188,piren,vessel_center,-479.54278486164117,-300.03349230013976,2.3269242634761924,0.0336782926188407,0.0004866916350410647,-0.007103177212014086,0.9994073646972124,0.20323180700256666,-0.011637723787453029,-0.001289657836551817,0.0038728207438843555,0.001206861998798802,0.0,0
2025/04/09 09:59:55.204234382,1744185595,201228470,piren,vessel_center,-479.5219747249371,-300.087407762575,2.302425425146657,-0.010128833292597506,0.000802860743660697,-0.006250846972782587,0.9999288419997094,0.2061500868070197,-0.12897828227473832,-0.05546094299746236,0.0014727324406395863,-0.00011453989769530104,-0.009894676569838645,0
2025/04/09 09:59:55.308373072,1744185595,305163452,piren,vessel_center,-479.49745898965233,-300.05702791504274,2.315713453659477,0.00013973111168724006,-0.0017847896027966652,-0.006898724688944174,0.999974600976923,0.2144529741805854,-0.032564785741897084,-0.01350369590926604,-0.001983207247834238,-0.0003441137537888835,-0.00999369971261933,0
2025/04/09 09:59:55.411171728,1744185595,408646309,piren,vessel_center,-479.47700213046915,-300.0489146431186,2.3198697203148586,0.003147506323840708,0.003358814687424573,-0.007323613852236738,0.9999625874241398,0.21169601744577443,-0.007210679097806805,-0.0012300334555790469,-0.0035866535460304457,-0.0024920044860427416,-0.011177218133538648,0
2025/04/09 09:59:55.515159340,1744185595,511941471,piren,vessel_center,-479.4463635835831,-300.0476376450371,2.3212094505416854,0.016198918421484503,0.0004257631055141683,-0.00765762439910746,0.999839374377862,0.23239592436179912,-0.0027583549332120495,0.0020228152111306484,-0.007255768718145636,-0.003281220529673683,-0.010643442881611455,0
2025/04/09 09:59:55.616686483,1744185595,614390364,piren,vessel_center,-479.4210656878317,-300.0686564354353,2.312697386774586,0.030208197060810616,0.00021180753195080545,-0.007951620808878766,0.9995119767638687,0.23658814895020436,-0.048854548415511026,-0.017347940628268218,-0.007773303476814689,-0.002941078332760061,-0.010365573621013644,0
2025/04/09 09:59:55.721374544,1744185595,716272132,piren,vessel_center,-479.3955334375673,-300.10846910258454,2.295084731672996,0.0032160306533607383,-0.002116257811033286,-0.008244846871784667,0.9999585996928947,0.24037590891512076,-0.1264019987359915,-0.052608625320966385,-0.006031010797550631,-0.0010544081434331804,-0.01044095855482175,0
2025/04/09 09:59:55.824872404,1744185595,821316580,piren,vessel_center,-479.3727909156087,-300.09450011778523,2.3019584455571165,0.001993786671216439,0.0005414310392876295,-0.008661250476628909,0.9999603564178534,0.23696236026526088,-0.06698219678696653,-0.025522646565541297,-0.004620378896918401,0.00022989186376607724,-0.011091768661259346,0
2025/04/09 09:59:55.928474937,1744185595,926436496,piren,vessel_center,-479.3445654964289,-300.079753133304,2.309001669836356,0.012017986289794443,0.0005297439577922642,-0.009092953887287179,0.9998862963189772,0.2465977759862198,-0.019191577730953147,-0.004147218098325359,-0.003261147148271486,0.001271422819180263,-0.012161105624157228,0
2025/04/09 09:59:56.33487285,1744185596,30412755,piren,vessel_center,-479.3168183015033,-300.08389992067146,2.30761866206993,0.01338545975405756,0.0005497540222970251,-0.009527043523506282,0.9998648722099346,0.25300964057109915,-0.024107593534972625,-0.006291724296208449,0.0003797152023324297,0.0018418634207730577,-0.012539584791019449,0
2025/04/09 09:59:56.138653922,1744185596,135319919,piren,vessel_center,-479.2893033086932,-300.08906344554464,2.3055708619545983,0.0038817980957302667,0.000660870143854266,-0.009960112493844096,0.9999426438817913,0.2565104783497644,-0.030090759137055945,-0.00940954780735496,0.00387138929277083,0.002001273662539127,-0.01287615176193433,0
2025/04/09 09:59:56.191584159,1744185596,188906382,piren,vessel_center,-479.27544238370996,-300.0758659629009,2.311318587215789,-0.027994896190287485,0.0010140646632512613,-0.009935622354460534,0.9995581728286671,0.25893939941729505,0.0025706504095069915,0.00440620865420825,0.005104632035990966,0.0018996181748415786,0.0,0
2025/04/09 09:59:56.248010212,1744185596,243065569,piren,vessel_center,-479.26225367496824,-300.01235875363835,2.336490417597864,0.015297878884016132,0.0005619056522173472,-0.010792392981011107,0.9998245763219823,0.2647591386441944,0.14348056731423645,0.05995020687430553,0.0054306528675439735,0.0017096435805272197,-0.0717041997390131,0
2025/04/09 09:59:56.309628685,1744185596,304313872,piren,vessel_center,-479.2496143137716,-300.04011026659157,2.3249476143515158,0.027362108618289673,0.00041334030982373643,-0.012362140413729105,0.9995490591492449,0.2634154684155418,0.06585183375850653,0.02763155222567789,0.004423758533748768,0.0014040204710447039,-0.013011167476855821,0
2025/04/09 09:59:56.364809557,1744185596,361369418,piren,vessel_center,-479.2242376612307,-300.0776863040215,2.308235020377917,0.0010700327592321464,0.0007278334795426806,-0.012346919179050363,0.9999229364681592,0.2562964647602256,-0.033541319142250295,-0.016175664243721286,0.006358549408175937,0.0005862622349325086,0.0,0
2025/04/09 09:59:56.555628596,1744185596,552244240,piren,vessel_center,-479.17308759598785,-300.0671309399335,2.3133053934775987,-0.009053467052396966,0.0007974382964854031,-0.01132244486289642,0.9998945949793014,0.25902375805840155,0.0044398092687061436,0.002096548886964058,0.004570959964974583,-0.0009559734590182708,-0.007639534995526473,0
2025/04/09 09:59:56.664758496,1744185596,662570375,piren,vessel_center,-479.1461877369461,-300.03905181311166,2.3256712467616567,-0.003844258082816687,0.0007021770110619058,-0.014941536546092872,0.9998807324440648,0.26076713745424046,0.06585353997256793,0.02911107030019643,0.001507923021959698,-0.0015022359986362449,-0.07693550186885255,0
2025/04/09 09:59:56.770649313,1744185596,768689866,piren,vessel_center,-479.1197289576344,-300.0261009383418,2.3317868101392047,-0.02435234772040113,0.0009708496438617215,-0.015776249769417917,0.9995784764362861,0.2611479173770475,0.07988273521677916,0.03618074098270284,0.0010179831966347908,-0.0016658663688721327,-0.07707956977754273,0
2025/04/09 09:59:56.882830893,1744185596,875791018,piren,vessel_center,-479.09188620294486,-299.98232913358,2.3495770457746925,-0.015447215688374675,0.0008194184431055494,-0.01625442797475401,0.999748221129753,0.26454564212508547,0.15927494093193678,0.06761653286904681,-0.0026623541901082495,-0.0014139563556009424,-0.07707266154455977,0
2025/04/09 09:59:56.986856252,1744185596,984601659,piren,vessel_center,-479.0635512967962,-299.96436952026806,2.357404113787987,-0.008851047550422264,0.0006586479411882505,-0.016982583697409404,0.9998163916395401,0.26737062317351945,0.16297607069122938,0.06963831797995275,-0.005830574543208357,-0.0008240760519244747,-0.08109844781496914,0
2025/04/09 09:59:57.44495599,1744185597,41390645,piren,vessel_center,-479.05175823540867,-299.96913955139314,2.355895934011776,-0.020826221416949234,0.0007803530829597997,-0.015441968887730194,0.9996635459730583,0.26331291413894164,0.13392467074468192,0.05840286525953806,-0.006102540212252896,-0.0003733094578711699,-0.08302781381525748,0
2025/04/09 09:59:57.96885154,1744185597,94852995,piren,vessel_center,-479.0374741271534,-299.9529802490583,2.362328361490985,0.0164366412011239,0.00015934021281434202,-0.015459529499553204,0.9997453747751847,0.26591380352883776,0.15501465648885648,0.06623436336441826,-0.0075929354511622615,6.394702644050959e-05,0.0,0
2025/04/09 09:59:57.154721271,1744185597,152770533,piren,vessel_center,-479.01214274816294,-300.0003868141431,2.342589408566972,0.0001245456625173956,0.0003708809222528396,-0.017115895163109667,0.9998534357937092,0.2680544253522838,0.01808284781518532,0.008875057256545416,-0.006356271318357073,0.0009556695402688335,-0.08205651081427746,0
2025/04/09 09:59:57.266493612,1744185597,263299395,piren,vessel_center,-478.9812186265316,-300.0114460837652,2.3385598984938545,0.029330804309813545,-0.0003349382981971259,-0.018732784345000468,0.9993941537379332,0.27537737188963535,-0.010638784169623158,-0.0021136218401293424,-0.00579115437287669,0.0005214019511614882,-0.08620548468765162,0
2025/04/09 09:59:57.375305123,1744185597,372599647,piren,vessel_center,-478.9525143294211,-300.0685927190877,2.313319344617875,-0.0092331424963889,0.0007696121011114058,-0.018679855511815748,0.9997825862530878,0.27744172716370474,-0.13526158105873937,-0.057736624118488816,-0.0016711480448918378,0.0023705411078611626,-0.07724283482964676,0
2025/04/09 09:59:57.484100172,1744185597,481582399,piren,vessel_center,-478.9210311472786,-300.0489129272492,2.321935819920007,0.003330881983969726,0.0006433173002270492,-0.019309398281072577,0.999807800782772,0.2850978859724363,-0.06114347643442661,-0.025618860405126898,0.0006608981758845792,0.0025131325703340642,-0.08108446136376733,0
2025/04/09 09:59:57.591523314,1744185597,589406823,piren,vessel_center,-478.89060003495814,-300.0524478426953,2.320824993460746,0.010712944072989072,0.0006169674785527581,-0.02031193636253314,0.9997361038902336,0.2883532299684701,-0.055193000201688755,-0.022302663904313534,0.0027544948070916415,0.0018435403640272364,-0.090138814550868,0
2025/04/09 09:59:57.650907561,1744185597,643773505,piren,vessel_center,-478.8786527973218,-300.0646651679995,2.3156996864846446,-8.569172551968189e-05,0.0008624675300888497,-0.018711997479803583,0.9998245395853234,0.28229811230398794,-0.07610426501710199,-0.031171458195191237,0.003637382102884877,0.0011315485688500543,-0.09327060675617,0
2025/04/09 09:59:57.704131352,1744185597,701956250,piren,vessel_center,-478.8515349098817,-300.0571866705499,2.319076137819147,0.012588619933072517,0.0006118143097851936,-0.020157824084854902,0.9997173672891729,0.28464562545800604,-0.04386887389991889,-0.017271812482831238,0.0034385331165601874,-0.00036876994789245736,-0.018051360535646953,0
2025/04/09 09:59:57.811694009,1744185597,809510112,piren,vessel_center,-478.82410318130815,-300.07196691201534,2.312793694734237,0.03197028903260522,0.0001338484562901903,-0.018504510760534807,0.9993174999895058,0.28132811069972363,-0.06681009303915734,-0.027333649201250552,0.005938936841796767,-0.0017115412752081519,-0.01874250866499497,0
2025/04/09 09:59:57.920740515,1744185597,918214116,piren,vessel_center,-478.79677349192247,-300.11502402061166,2.293084097001155,-0.029474911684908404,0.0013646585603200023,-0.019109146597664328,0.9993819128864049,0.2789217907803048,-0.14751215828964623,-0.06500470299562458,0.006198575211965801,-0.0026905706380742664,-0.01980813558035764,0
2025/04/09 09:59:58.26729773,1744185598,24328892,piren,vessel_center,-478.76557991411335,-300.0451616470615,2.3214209878503462,-0.01476143457725393,0.0007525820372481181,-0.019803924792470652,0.9996946224884442,0.2858832327104209,0.040744940475087865,0.01251083344440132,0.003853274522658074,-0.00280473896489731,-0.02031113410507892,0
2025/04/09 09:59:58.134725684,1744185598,131483518,piren,vessel_center,-478.73623575916776,-300.01360512873276,2.3353301451994404,-0.029442457585061973,0.0004030966742794838,-0.020473297154426227,0.9993567047396288,0.28609357000905206,0.10161427305069999,0.04057908128048544,0.0025106594072824683,-0.0020132933647055338,-0.01999962787467379,0
2025/04/09 09:59:58.189445934,1744185598,186932019,piren,vessel_center,-478.7219761507531,-299.96777310397187,2.353932676192467,-0.017794782155224835,0.0009850330474145312,-0.020460559810152455,0.9996318026804664,0.2854598907862963,0.19200489860963904,0.07734238407609288,0.001072910764955989,-0.0015764621587410742,0.0,0
2025/04/09 09:59:58.245525109,1744185598,243105868,piren,vessel_center,-478.70676353929616,-299.95546317780946,2.3598070896294026,-0.00737974242488893,0.0012180651977378514,-0.02225509428609189,0.9997243452558477,0.28692699857247117,0.19760936696125106,0.08163531117613713,0.0002967186062190175,-0.0013868386629186105,-0.10920607043922394,0
2025/04/09 09:59:58.299969488,1744185598,297840832,piren,vessel_center,-478.69281444156826,-299.96521356114937,2.356780706741335,-0.028621001502539115,0.0010207134887989452,-0.022242265930259367,0.9993423227419387,0.28618858609620457,0.15408009979832976,0.06587884577280063,-0.0010359392813631791,-0.0008008529196958363,0.0,0
2025/04/09 09:59:58.354407294,1744185598,352219190,piren,vessel_center,-478.6775487713305,-299.93659228251335,2.3680074570757284,-0.029154674963240583,0.00395930222159371,-0.022492716337779165,0.9993139679627491,0.28766478960828845,0.20021861059967713,0.08335984370606672,-0.002261082067262471,-0.0011496623681967102,-0.09639922623971413,0
2025/04/09 09:59:58.409687857,1744185598,406966691,piren,vessel_center,-478.65730799420896,-299.9161488074306,2.3760442220757434,-0.004743289873874379,0.000226014326149168,-0.024234690689988077,0.9996950184360516,0.30077045967122995,0.2234669261102682,0.09198390672142358,-0.005775403170333405,-0.0006257156812726104,-0.020339924475364903,0
2025/04/09 09:59:58.463468003,1744185598,461517705,piren,vessel_center,-478.63105526259113,-299.93625290323774,2.3686936114971227,0.031271322488575594,-0.0006761838660495149,-0.024222115345009083,0.9992171617288246,0.29177850055798427,0.1287571234774078,0.05505429487378406,-0.0059119801667415275,0.0012949146687913015,0.0,0
2025/04/09 09:59:58.573684646,1744185598,570657389,piren,vessel_center,-478.6055136667984,-300.01555113979384,2.3343816468295038,-0.029386679383840552,0.0010401958570295422,-0.026259323536303288,0.9992225923160395,0.2896799559470308,-0.07348327576828514,-0.03232132880662718,-0.0051144635245510325,0.002772767293943181,-0.10783573651214168,0
2025/04/09 09:59:58.681090142,1744185598,677797818,piren,vessel_center,-478.5716092504346,-299.9765995143863,2.3498832899853492,0.028026098186239627,-0.0004070067071140806,-0.027924723166937,0.9992169844443426,0.29963104462126444,0.029676866310319475,0.009428196543362188,-0.006292650049483541,0.0038654980387379098,-0.10438706901101442,0
2025/04/09 09:59:58.734997688,1744185598,732486632,piren,vessel_center,-478.5615098017414,-300.04176323244343,2.322051136820757,0.027256042862882354,-0.0008824121926251965,-0.0259863284327455,0.9992902682458008,0.28816249048886655,-0.11850879783182781,-0.053496023458429465,-0.005714152143317498,0.004123378665102535,-0.10900724664059884,0
2025/04/09 09:59:58.790728282,1744185598,788263965,piren,vessel_center,-478.54908279706797,-300.08679924952776,2.3028261036026243,0.0013660017255534476,0.0005558095820761183,-0.026001237521179218,0.9996608228606149,0.2838586252373259,-0.2054750561102991,-0.09029826373296834,-0.00307397195505179,0.0038706346212451863,0.0,0
2025/04/09 09:59:58.846453044,1744185598,844184950,piren,vessel_center,-478.5316289976924,-300.07562936168176,2.3086718070369088,0.003174497983463144,0.0006054447199373722,-0.026046257668938765,0.9996555148953501,0.2900612149720471,-0.15706124572661784,-0.06693989527009676,-0.0014661463608691362,0.0032552119683758435,-0.106514406536205,0
2025/04/09 09:59:58.903756329,1744185598,901002707,piren,vessel_center,-478.5148128865421,-300.0695685415847,2.3119810137907817,-0.0007166367927667143,0.0007380574001166289,-0.0278185807684323,0.9996124590395078,0.295304627099358,-0.12619351277112392,-0.05217031320028709,-0.0013919529189141905,0.002479452251441531,-0.022214812890907064,0
2025/04/09 09:59:58.960035596,1744185598,957993744,piren,vessel_center,-478.48364776976945,-300.06208254478616,2.3156053340658143,-0.0025196687314224583,0.0009553852301885874,-0.027816878817216235,0.9996094035979325,0.2981689707262829,-0.08118282918708239,-0.0323854587919024,0.0004984765420687334,0.00041595259383874004,0.0,0
2025/04/09 09:59:59.46143327,1744185599,39948451,piren,vessel_center,-478.46702423326053,-300.04875267803254,2.3215000961206353,-0.00038117207974395606,0.0007470035833113501,-0.02786656163410393,0.9996113001743152,0.3011723232865277,-0.04231564398651237,-0.01559770788125987,0.002290687735204332,-0.0006521970705174611,-0.12416449530362134,0
2025/04/09 09:59:59.99590023,1744185599,97159821,piren,vessel_center,-478.45138185239625,-300.0425389316801,2.3243381037347626,0.002156417468364729,0.0006978414754821705,-0.029845395603286803,0.9995519572499774,0.3022362556434016,-0.023768379970988393,-0.007543945753420678,0.003890319729805008,-0.0016629508012919942,-0.02323680182259608,0
2025/04/09 09:59:59.158786582,1744185599,153992815,piren,vessel_center,-478.4372801458009,-300.04222897991974,2.3246235021927673,-0.02671522928336481,0.0016162254250217797,-0.029807722840718847,0.9991972698115041,0.2993738718446819,-0.020389613716633833,-0.00605587871580382,0.005617282763315753,-0.00260458689319426,0.0,0
2025/04/09 09:59:59.214057182,1744185599,211734185,piren,vessel_center,-478.40465169385016,-299.9939874968522,2.343734938152513,-0.0314957644043323,0.0014458239798285388,-0.027207549780152853,0.9991324615147716,0.3046074631848567,0.09141552002447503,0.037782654370432885,0.005462154206097376,-0.0037630996917568257,-0.02217608170449362,0
2025/04/09 09:59:59.323881654,1744185599,320776066,piren,vessel_center,-478.3707918997635,-299.94806620337437,2.361689870224762,0.026957817355791575,-0.0005494513879564999,-0.028743503606166815,0.9992230907995603,0.3112373302269587,0.17288053830779979,0.06917542875366024,0.003915651835040921,-0.003875189447720477,-0.023506819445070704,0
2025/04/09 09:59:59.430320179,1744185599,427678030,piren,vessel_center,-478.34698144998185,-300.0128455409883,2.33415929043295,-0.010616352149171525,0.0006415620889291882,-0.029480018398440982,0.9995087843437688,0.3014160693473967,-0.005940038045628093,-0.005955339036182172,0.005996156663223624,-0.0029630318377911764,-0.02836762986987138,0
2025/04/09 09:59:59.484095691,1744185599,482057153,piren,vessel_center,-478.33124668296523,-300.0021194831324,2.339743027403158,0.00038710092705865784,0.0002327535970166462,-0.02948530754203483,0.9995651117449964,0.3028464017849727,0.01855961981709705,0.007117206621861749,0.003923910007549177,-0.0022839959145022305,0.0,0
2025/04/09 09:59:59.541121271,1744185599,537966929,piren,vessel_center,-478.31655712410475,-300.01301457407567,2.336200789802376,-0.029396582874870618,0.001112954192387055,-0.031570842202624044,0.9990685082469889,0.3011976582382884,-0.007756157701351105,-0.0015612918720284245,0.003673785973036124,-0.001433546177161278,-0.1286632735662844,0
2025/04/09 09:59:59.595788502,1744185599,593617207,piren,vessel_center,-478.3000310249434,-299.97030600878384,2.3531051793918496,-0.01084794795004574,0.0005801286889287527,-0.033563013761120905,0.9993775610765174,0.3044770506413896,0.08803277571205406,0.03618516868518164,0.0016374406140018363,-0.0005408628627034829,-0.02365997129407432,0
2025/04/09 09:59:59.651301659,1744185599,648762367,piren,vessel_center,-478.2866827566291,-299.97129418391415,2.3533923022904486,-0.0037973670070320297,0.00048999439464545,-0.03356577859078968,0.999429176288596,0.29966682814447254,0.0758669995545916,0.032725588714531496,-0.00017126892889655066,0.0003549827450952823,0.0,0
2025/04/09 09:59:59.706391019,1744185599,704133083,piren,vessel_center,-478.25749104000374,-299.9816036699266,2.3497383297708128,0.0009237543187553314,0.00043140810748491543,-0.03095852301369472,0.9995201500809346,0.297261947320976,0.03592078478009178,0.01725716673732748,-0.0012234849304062058,0.0018695370281920454,-0.023603492701866284,0
2025/04/09 09:59:59.815262152,1744185599,812939185,piren,vessel_center,-478.22539081109744,-299.9985199426617,2.343112849483606,0.029024010805187572,-0.0006496965108811573,-0.03235934768963466,0.9990545817463257,0.30163366430333544,-0.009773013941912649,-0.001357793076480148,-0.004020151948309415,0.002856674675883909,-0.022984919159014097,0
2025/04/09 09:59:59.925653767,1744185599,923666222,piren,vessel_center,-478.1966575542398,-300.0583378548661,2.316523528376617,0.014010196355603778,0.00012397361169864807,-0.03300979837626269,0.99935681927917,0.2978577145014696,-0.14052643277268537,-0.06014788494550892,-0.005266375630108647,0.0033068385054042964,-0.02247389711521896,0
2025/04/09 10:00:00.36306043,1744185600,34141358,piren,vessel_center,-478.1643184631772,-300.0801137515138,2.307296095628131,0.007571849338404867,0.0005399950068768958,-0.03365280943986357,0.9994047548014734,0.30222992611256805,-0.15707673781244003,-0.0670249172189878,-0.0042118571962642916,0.002811652425932678,-0.02165090762200994,0
2025/04/09 10:00:00.93976603,1744185600,91168869,piren,vessel_center,-478.1464742162018,-300.07908020411884,2.3079210108506563,0.015141934960273516,0.00016496166115206838,-0.033652380852614024,0.99931887396179,0.308167654874569,-0.13725284868505688,-0.05815729476051153,-0.005121021559902393,0.0022957418920867994,0.0,0
2025/04/09 10:00:00.151036095,1744185600,148675351,piren,vessel_center,-478.129523130473,-300.0902805807285,2.302970669617628,-0.010678969453225187,0.0011743073899200362,-0.035295491536468264,0.999319172682467,0.31091678435236636,-0.1465914920080194,-0.06256878460391398,-0.004155091564613649,0.00159284990198737,-0.11000250063941251,0
2025/04/09 10:00:00.208834020,1744185600,206776478,piren,vessel_center,-478.0956857061827,-300.05839509727883,2.3162832433273923,0.00033320923461238464,0.0008326766134428688,-0.037477523011056516,0.9992970683886845,0.3215797336227296,-0.04525504550633734,-0.019976104784405417,-0.0031929692783051198,-2.304868625108856e-05,-0.02049290766315282,0
2025/04/09 10:00:00.316888028,1744185600,314451765,piren,vessel_center,-478.06230214257465,-300.05057507400903,2.319719221952665,0.0007343416605996953,0.0008318405108173203,-0.03535946966907541,0.999374042432768,0.32373551683062934,-0.01773773745721876,-0.007864916341384781,-0.001228444372884499,-0.0016849994729084654,-0.01968442671998593,0
2025/04/09 10:00:00.425297966,1744185600,423333813,piren,vessel_center,-478.0271970177365,-300.04473103192,2.3224161572567015,-0.02820936019316668,0.002455948443821026,-0.035791661504049124,0.9989580357960554,0.3292392469620608,-0.0007765030443805943,-0.00010942071836317954,0.0017753347749342005,-0.0032082232855931824,-0.01861469495740752,0
2025/04/09 10:00:00.533697322,1744185600,530928081,piren,vessel_center,-477.98817992082996,-299.991175214668,2.343635734336328,-0.00083948389068536,0.0005537222790195908,-0.03628386587510217,0.9993410177389862,0.3422244231031072,0.11842431383829541,0.04707524560908659,0.0023868945872918376,-0.00362205949357733,-0.01737257041573287,0
2025/04/09 10:00:00.589299832,1744185600,585981328,piren,vessel_center,-477.97282707914076,-299.99946715404457,2.3408289041438093,-0.007287707740500333,0.0007458667619965336,-0.03627857511681603,0.9993148642876057,0.3384530235826332,0.08688295630304316,0.03562465888685672,0.004313727149324352,-0.003491893670155446,0.0,0
2025/04/09 10:00:00.643835307,1744185600,641642630,piren,vessel_center,-477.9561687916358,-299.99495993297444,2.343141706481582,0.0026411608399266803,0.0003090148950772744,-0.037497606081502696,0.9992931793609765,0.33686159488047446,0.0869876727115298,0.03670037783616443,0.0049340644718079635,-0.0031068015047566147,-0.0840272258108865,0
2025/04/09 10:00:00.700052673,1744185600,697219794,piren,vessel_center,-477.94218681497034,-300.0088092706102,2.337722932150173,0.027858446723941523,-0.0006627069896641461,-0.038762583755043,0.9988598149220983,0.33068753954562446,0.04658962431212791,0.020599309018513375,0.003962414975255374,-0.002548566304040517,-0.015044084377005494,0
2025/04/09 10:00:00.756774289,1744185600,754150471,piren,vessel_center,-477.9149942458916,-300.0590332818378,2.315419122509032,-0.02883939666941525,0.0013423500437863749,-0.038740863673297016,0.9988321344339854,0.3170423347219184,-0.075470455054301,-0.03358565689557423,0.006015439063188031,-0.0008712940153680718,0.0,0
2025/04/09 10:00:00.866130316,1744185600,862863702,piren,vessel_center,-477.8779749933031,-300.00412030184845,2.3373510377882045,0.02978448128296282,-0.0008779666269505169,-0.039887709530986144,0.998759773157529,0.3281360399646473,0.06353993793686646,0.0227074603074238,0.0040386449675597165,0.0009037135567846719,-0.0728558667755801,0
2025/04/09 10:00:00.976023275,1744185600,972119884,piren,vessel_center,-477.8490878760968,-300.0576356812223,2.3137853403815063,0.020225864069903853,-9.72934491127776e-05,-0.040102187381232175,0.9989908505706402,0.3183252577500752,-0.06972906108544513,-0.03478879299463294,0.001443411309077152,0.00298956058341631,-0.05941838063325838,0
2025/04/09 10:00:01.83132917,1744185601,80888385,piren,vessel_center,-477.8197007188101,-300.0839990505907,2.302731933983727,0.00430864524703607,0.00028016515799553855,-0.039853410164327835,0.9991962083504388,0.3194656854549521,-0.11426613172102398,-0.052342342930555,0.0027606198197370592,0.002453247131044537,-0.05367303663411735,0
