time,header_stamp_secs,header_stamp_nsecs,header_frame_id,pose_position_x,pose_position_y,pose_position_z,pose_orientation_x,pose_orientation_y,pose_orientation_z,pose_orientation_w
2025/04/09 09:59:47.425951912,1744185587,425414675,piren,-480.0137405949042,-300.02681471368567,2.3225286553764044,-0.029812062641966355,0.00033978170059144054,0.0026240192278882426,0.999552019653064
2025/04/09 09:59:47.523512911,1744185587,522819768,piren,-480.01422087241633,-299.96692140673224,2.3464425255255072,0.028201882998099555,0.0004974291384105287,0.002578806027361741,0.9995987975778517
2025/04/09 09:59:47.617168732,1744185587,616821820,piren,-480.01409483561537,-300.0181653159486,2.3242499114552784,-0.02980130196055703,0.0003108855343022314,0.00258292929516972,0.9995524569665648
2025/04/09 09:59:47.711906106,1744185587,711094602,piren,-480.01450136285234,-299.96361335084254,2.346320425762762,0.027984411418568864,0.00011369059099370764,0.0025440353300882922,0.999605115871385
2025/04/09 09:59:47.809303604,1744185587,806305989,piren,-480.0149300318325,-300.0182125744593,2.3231302451982763,-0.029805601727347687,0.0001533462722159205,0.002532538793153512,0.9995524942882453
2025/04/09 09:59:47.902277939,1744185587,901820165,piren,-480.0153467942156,-299.96580194708355,2.3447650089887544,0.0016257646736950952,0.0002621220523362311,0.0025254838464724857,0.9999954550459701
2025/04/09 09:59:47.953410312,1744185587,951941197,piren,-480.0153049897857,-299.98167216473456,2.3396644989410973,0.02848460392357103,0.0006217044244925426,0.002508684410771433,0.9995908899772211
2025/04/09 09:59:48.2129442,1744185588,1361770,piren,-480.01466493383407,-300.03640969138195,2.3162794157611892,-0.03006585065685338,3.419877600812827e-05,0.0025077056978851588,0.9995447738179898
2025/04/09 09:59:48.98185471,1744185588,97397515,piren,-480.015369780935,-299.97903363895904,2.3397716928027052,0.001649102480890141,0.00028161719110460985,0.0024744577154332914,0.9999955390959401
2025/04/09 09:59:48.148232183,1744185588,147251209,piren,-480.0153288172688,-299.9917466105068,2.33586117026971,0.028483355750235625,0.0006848991105024687,0.0024560832399039122,0.999591014872349
2025/04/09 09:59:48.199444206,1744185588,199138313,piren,-480.01452301361985,-300.0453701544474,2.3128388111265195,-0.0032112916922409293,0.00043617203875430475,0.002476100307588246,0.999991683108858
2025/04/09 09:59:48.248962404,1744185588,248204430,piren,-480.0144834626057,-300.03118410302596,2.3199285957586877,-0.03028245886656103,-0.000988746976371695,0.0024454514026918195,0.9995379006480188
2025/04/09 09:59:48.301989778,1744185588,299203744,piren,-480.0170338631984,-299.9746476700844,2.34261750118029,0.001663393060352666,0.0003637129815674699,0.002427271063257147,0.9999956045861298
2025/04/09 09:59:48.349178344,1744185588,348683390,piren,-480.01643349026943,-299.98835580055476,2.337975193614244,0.028689687130799987,0.001809234308283212,0.002376753554728632,0.99958390321478
2025/04/09 09:59:48.399009164,1744185588,398007691,piren,-480.01351785574093,-300.04315977492536,2.31419198216835,-0.003219804447971314,0.0004653295031021998,0.002407576558988234,0.9999918099179028
2025/04/09 09:59:48.448189756,1744185588,447772831,piren,-480.0137886885213,-300.029418899478,2.3209382702666077,-0.030275292074635227,-0.0010048106104685603,0.0023764134445438748,0.999538268254184
2025/04/09 09:59:48.498656505,1744185588,497181153,piren,-480.0166388753866,-299.97326196514325,2.343352993031751,0.001670869552998069,0.00035104194792205277,0.002363028285604193,0.9999957505218755
2025/04/09 09:59:48.549697262,1744185588,547750748,piren,-480.0162531525816,-299.9873029693403,2.3384911430001347,0.028682082527552274,0.001802626371755714,0.0023125780881242276,0.9995842839213874
2025/04/09 09:59:48.598475627,1744185588,598137284,piren,-480.0134809291567,-300.0423432767095,2.314554892774974,-0.0032211575988786386,0.00046277600165202875,0.0023444913716603086,0.999991956638804
2025/04/09 09:59:48.649040588,1744185588,648178982,piren,-480.0138447783621,-300.0287612839729,2.3211947945836195,-0.030280093245765083,-0.0010009903415723468,0.0023135183885213957,0.9995382742066609
2025/04/09 09:59:48.699501925,1744185588,698736527,piren,-480.0167403898003,-299.97289210252103,2.343466222774389,0.001669725070656301,0.0003479471062557092,0.00230069352247584,0.9999958988717481
2025/04/09 09:59:48.749553097,1744185588,748792951,piren,-480.01640680620557,-299.98697844879194,2.3385723702981998,0.02868168270832559,0.0017970835448094353,0.002250297935867177,0.9995844475215447
2025/04/09 09:59:48.799811504,1744185588,799401497,piren,-480.01367709286365,-300.042072679737,2.314608344639654,-0.0032215568510268093,0.0004594521057308799,0.002282281132512164,0.9999921008028265
2025/04/09 09:59:48.850293742,1744185588,849894435,piren,-480.0139897393821,-300.030636576653,2.3203254965432083,0.0016698597480311282,0.00034440182092521836,0.002280265359518527,0.9999959466646342
2025/04/09 09:59:48.948235480,1744185588,947864983,piren,-480.0144586281218,-300.0295485887754,2.321623956762132,-0.003220777576410989,0.0004819254533627218,0.0019798828923661663,0.9999927371753223
2025/04/09 09:59:49.45163816,1744185589,44803486,piren,-480.01493097733146,-300.01035037226643,2.330303380519509,-0.029800685295394203,0.0003793748528711772,0.0020707825263776188,0.9995536439283158
2025/04/09 09:59:49.96825300,1744185589,95750660,piren,-480.01537635778834,-299.95989873111023,2.3499052301192362,0.0016348610724163306,0.00046770187109939325,0.0020011182825742557,0.9999965519989821
2025/04/09 09:59:49.148212895,1744185589,146449077,piren,-480.0154725438136,-299.97731409923904,2.3432697708027175,0.02819483389261822,0.00048630843862037604,0.001988625441375599,0.9996003502473997
2025/04/09 09:59:49.198357333,1744185589,197334123,piren,-480.01541726468093,-300.0342002467855,2.318367121684604,-0.0032167308426196087,0.00039697105778827105,0.0021572049664845203,0.9999924207329763
2025/04/09 09:59:49.248198866,1744185589,247600428,piren,-480.015518859531,-300.0228197906544,2.3238829334804962,-0.030076022841885108,2.2986511654166928e-05,0.002157615049838072,0.9995452851266577
2025/04/09 09:59:49.299789592,1744185589,299362384,piren,-480.01634129384985,-299.96874383027694,2.345281328940454,0.0016392897040912228,0.0002621136432335245,0.0021316290892630894,0.9999963500849041
2025/04/09 09:59:49.351041062,1744185589,350097790,piren,-480.01639882844154,-299.9839146033439,2.3398227180991276,0.028479559593153687,0.0006726354499316389,0.0021139088682526697,0.9995919135508391
2025/04/09 09:59:49.400722399,1744185589,400405731,piren,-480.0156555641168,-300.039528918042,2.3155945332220584,-0.0032091634565864172,0.0004378094265420369,0.002104857773342585,0.9999925395554554
2025/04/09 09:59:49.451453457,1744185589,450708191,piren,-480.01564054993435,-300.0267558975146,2.321828172572873,-0.030067551490582923,8.085915443816527e-05,0.0021064949945363144,0.9995456460252311
2025/04/09 09:59:49.501607195,1744185589,500837128,piren,-480.01634334390275,-299.9716218663852,2.343772887828307,0.0016500258568299358,0.00031659583823323096,0.0020769120527550093,0.9999964318026701
2025/04/09 09:59:49.551518725,1744185589,551103602,piren,-480.01633707165047,-299.9859741285029,2.338726406747506,0.02846615273165108,0.000697660737557893,0.002058706113914196,0.9995923935021166
2025/04/09 09:59:49.623778286,1744185589,623013007,piren,-480.0157005896701,-300.03949996754153,2.31541529410027,-0.03005859474665241,0.00010688534639471906,0.0020307950426240217,0.9995460696380504
2025/04/09 09:59:49.723973365,1744185589,723378379,piren,-480.01638494185175,-299.9832776986978,2.338039704172545,0.02829515479743685,-0.000657068490242144,0.0019962282115332354,0.9995974027321778
2025/04/09 09:59:49.820210755,1744185589,819865633,piren,-480.0180353912445,-300.03647266592924,2.3152672206578413,-0.029426112905072715,0.0017441652994801913,0.0019830283109164297,0.9995634694032312
2025/04/09 09:59:49.924931348,1744185589,918977707,piren,-480.0154734853023,-299.9822017296902,2.3374923605230644,0.027811247714730064,-0.0008940535049167881,0.001947880271503892,0.9996108947642218
2025/04/09 09:59:50.20092346,1744185590,17542959,piren,-480.017694761167,-300.0345455105364,2.315450232126888,-0.02940990740890505,0.0017152627119523666,0.0019380048269482674,0.9995640846675712
2025/04/09 09:59:50.118855751,1744185590,117631696,piren,-480.01527660098793,-299.9806213320982,2.337791614983408,0.027805519702536766,-0.0009325810351566584,0.0018953938934668253,0.9996111198104358
2025/04/09 09:59:50.217821036,1744185590,216217986,piren,-480.01764900378396,-300.03338244297527,2.315786910358942,-0.029415065160678065,0.0016995718490803793,0.0018820836748505057,0.9995640665600999
2025/04/09 09:59:50.319592522,1744185590,316898077,piren,-480.01529208109224,-299.9793467233903,2.338333566876665,0.027810880808992335,-0.0009509802485553568,0.001841450845981415,0.9996110541625561
2025/04/09 09:59:50.414793314,1744185590,414410660,piren,-480.017729042289,-300.03240559639676,2.316278889125645,-0.029422148494508707,0.0016882482174832387,0.001821697724266063,0.9995639891539334
2025/04/09 09:59:50.516537280,1744185590,515299576,piren,-480.01542274362384,-299.97904619600547,2.338562971362105,0.028194980864434834,0.0004242951573062954,0.0017466945978829751,0.9996008263730355
2025/04/09 09:59:50.617243838,1744185590,616019115,piren,-480.0155989025,-300.03293747717305,2.3161329966789674,-0.029886414151610356,0.0001123830256309586,0.001755782742978091,0.9995517529603825
2025/04/09 09:59:50.719019089,1744185590,718623667,piren,-480.01644388291413,-299.9786437589878,2.338750988798543,0.028270870849794842,0.0006130532723911282,0.001713691783534651,0.9995986420996932
2025/04/09 09:59:50.819316505,1744185590,817759860,piren,-480.0161561627504,-300.03266005627387,2.3162369326343195,-0.029799314579349916,0.0003940833425829459,0.0017209174585492999,0.9995543426907919
2025/04/09 09:59:50.922192611,1744185590,921522769,piren,-480.0164299466577,-299.97822544526963,2.3388923602408176,0.027802511047887436,-0.0009291807245061849,0.0017194514783738075,0.9996115247881183
2025/04/09 09:59:51.21751491,1744185591,21188057,piren,-480.0186966720545,-300.0314971762455,2.3167000531643986,-0.02941069439077223,0.0017413766582378139,0.001688791040556909,0.9995644684799516
2025/04/09 09:59:51.121816055,1744185591,120198992,piren,-480.0161485711617,-299.97815463514314,2.3388880691436618,0.027799779136987748,-0.000914986655677634,0.0016432338017234394,0.9996117420588994
2025/04/09 09:59:51.221678340,1744185591,220574147,piren,-480.018443881847,-300.0313399186457,2.3167045037308607,-0.029402767935378205,0.001756883863005668,0.0016321073128050428,0.9995647686981318
2025/04/09 09:59:51.320597777,1744185591,318815795,piren,-480.01593881221567,-299.97808882988085,2.338869899596554,0.027815440121680315,-0.0009243413208792667,0.0015874638740778566,0.9996113879115265
2025/04/09 09:59:51.417579189,1744185591,417281016,piren,-480.01833047021546,-300.03139940991633,2.316665606968385,-0.029416248606969505,0.0017291795191790443,0.0015776440122448904,0.999564507821008
2025/04/09 09:59:51.516653189,1744185591,516352856,piren,-480.0159443542823,-299.97819041884617,2.3388536924100336,0.02886575253590215,0.0011460978538589835,0.001472875548571517,0.9995815551658923
2025/04/09 09:59:51.616642783,1744185591,615325443,piren,-480.0149939933936,-300.03381274619454,2.3156286643957307,-0.02478412029634536,-0.002325125235778766,0.001497917519381965,0.999689000348048
2025/04/09 09:59:51.715088380,1744185591,714552056,piren,-480.02012664562034,-299.98799062460284,2.33524291858224,0.03404380421831325,0.0004192589692121778,0.0014811705746298278,0.9994191561852268
2025/04/09 09:59:51.787703196,1744185591,786507052,piren,-480.0190695501175,-300.05078298392743,2.3081900643612845,0.004098540905270337,0.00034973782603600726,0.001493468919343883,0.9999904245523994
2025/04/09 09:59:51.841456503,1744185591,841096508,piren,-480.01835739893147,-300.0462189150493,2.311776629345233,-0.0038032963024328915,0.0002914802511253708,0.0011549408165115686,0.9999920580125672
2025/04/09 09:59:51.892659657,1744185591,892325005,piren,-480.0179513591967,-300.02925946655097,2.320056785372173,0.03317599948496453,0.0002651403363260159,0.0009667193719040845,0.9994490223180128
2025/04/09 09:59:51.948788536,1744185591,947394785,piren,-480.0175089750379,-300.07815377471684,2.2982781233394878,-0.022444648933878455,-0.0005047086679518107,0.0009628045454435224,0.9997474961262982
2025/04/09 09:59:51.999430387,1744185591,999066028,piren,-480.018200352249,-300.0199438994314,2.3228462404059087,0.02178067861281034,0.000402540034139024,0.0012748691092427883,0.999761879003916
2025/04/09 09:59:52.54121608,1744185592,52891186,piren,-480.01588890678903,-300.0519468663158,2.3097109187206373,0.0005134531904233333,0.0003488740633621215,0.0012831769872454,0.9999989840542483
2025/04/09 09:59:52.162866611,1744185592,159400089,piren,-480.01265930713413,-300.04191065402733,2.31503591200913,-0.017446234621962747,-0.00029427140054010426,0.0006629942568237893,0.9998475397481726
2025/04/09 09:59:52.297369416,1744185592,295948255,piren,-480.0093240734509,-300.0027825477068,2.331679671486233,0.03365123748934857,-0.00037586534672096424,0.0003776054501712834,0.9994334947132804
2025/04/09 09:59:52.366704680,1744185592,364640154,piren,-480.0046789291593,-300.0571228334556,2.3075111677346922,0.034176121262313536,-0.00026530911294705983,0.00037501796694229485,0.9994157201625672
2025/04/09 09:59:52.476689671,1744185592,475575167,piren,-479.9971773772191,-300.1015064594696,2.2877815346311774,0.0062824083282199935,0.00042101089086936724,-0.00016762857722136447,0.9999801628012865
2025/04/09 09:59:52.532253727,1744185592,531850557,piren,-479.99056122054185,-300.0845286587202,2.2963400810854853,-0.02469318153811801,-0.0004311263220978912,5.17806160195619e-05,0.9996949825993866
2025/04/09 09:59:52.584323161,1744185592,583943926,piren,-479.98528352475785,-300.01959518548847,2.3234866703960315,0.0028578450249232825,0.0003285110463455962,6.136192360986845e-05,0.9999958605099425
2025/04/09 09:59:52.638220134,1744185592,637880517,piren,-479.97824056818666,-300.01979623162106,2.3246220625228804,0.02067115043974051,-0.001754960071887869,4.2716634753690326e-05,0.9997847877568117
2025/04/09 09:59:52.690613935,1744185592,690265858,piren,-479.9747202658231,-300.0498651786768,2.312120644507708,0.03288082151370807,-8.595536766213242e-06,6.765536432949315e-06,0.9994592795391556
2025/04/09 09:59:52.744534872,1744185592,744124552,piren,-479.9672588845641,-300.09158370204636,2.2934819608492387,-0.027732236244909725,0.0011372276547994286,-0.00034190639275968047,0.9996146822081678
2025/04/09 09:59:52.796760738,1744185592,796338259,piren,-479.95821942788433,-300.019910066284,2.323305069227107,-0.02222188625597549,0.001608406138390944,-0.0009098895173432212,0.9997513555389594
2025/04/09 09:59:52.853144025,1744185592,851363641,piren,-479.9490952117896,-299.97807786430474,2.3413162176165043,0.006604059618156183,0.0002817569403323903,-0.0009478949101198387,0.9999777040038572
2025/04/09 09:59:52.905059990,1744185592,903774752,piren,-479.94292699170467,-299.99746632910933,2.334537231392889,0.00279840401185354,0.0002644681675759894,-0.00013329876046089232,0.9999960406036693
2025/04/09 09:59:52.960517396,1744185592,959428137,piren,-479.93096584120195,-300.0036037980436,2.333266940889775,-0.012978860224368218,0.000277435512035452,-0.0001269390203872854,0.9999157245004692
2025/04/09 09:59:53.63882932,1744185593,63459447,piren,-479.9175330812386,-299.98285853873733,2.342780977527384,-0.0002697846010500394,0.0006333127114600881,-0.002011415261575278,0.9999977401674087
2025/04/09 09:59:53.166474524,1744185593,166057002,piren,-479.9034096878881,-299.9890877945228,2.3412246995933415,-0.004004541202985662,0.00010624754107293835,-0.0024465129624967673,0.9999889834070863
2025/04/09 09:59:53.268525189,1744185593,268104273,piren,-479.8903934209097,-299.9893083843913,2.34191596221299,0.003068669833089805,3.508052548885742e-05,-0.00262627985682725,0.999991842311189
2025/04/09 09:59:53.370192152,1744185593,369864969,piren,-479.87737960646257,-300.00231532761524,2.3370679809798975,0.029054299030721445,0.00045589534555590745,-0.0028195561594715826,0.9995737541423999
2025/04/09 09:59:53.472668327,1744185593,472386719,piren,-479.86344836682105,-300.0562225061837,2.3132779660852436,-0.02509948655689148,0.0006317274656211235,-0.0029387557565054958,0.9996804391452268
2025/04/09 09:59:53.574198040,1744185593,573849383,piren,-479.84891665297755,-300.00792361298875,2.3328725715367646,0.019469199912009825,0.0007504294372455612,-0.0031246551274769566,0.9998052928649559
2025/04/09 09:59:53.675099356,1744185593,674664297,piren,-479.8336579768029,-300.04341580461926,2.3180366682410845,-0.0012588552421134258,0.0008437422741393073,-0.0035622444824884407,0.9999925068702772
2025/04/09 09:59:53.776237053,1744185593,775852581,piren,-479.8176223636369,-300.03715895597423,2.321482712179157,0.006112098117423678,0.0008133763264144112,-0.003695239506979735,0.999974162606485
2025/04/09 09:59:53.879336256,1744185593,878026850,piren,-479.80054783125513,-300.04393323783887,2.3193393792417103,0.018024364439229848,0.0007169454638115249,-0.004253915388648181,0.999828241489322
2025/04/09 09:59:53.983375071,1744185593,981409448,piren,-479.7825731453796,-300.0688752057499,2.3090101423760983,0.0035072584264114297,0.0007110924851795795,-0.004512646228706302,0.9999834146173737
2025/04/09 09:59:54.34973217,1744185594,34649329,piren,-479.7743254290365,-300.0604132687946,2.313179390006008,0.002281765846017482,0.000679613313009815,-0.003491645088258877,0.9999910700026008
2025/04/09 09:59:54.87561189,1744185594,87107290,piren,-479.7635110740367,-300.0528511638787,2.316906949784772,0.027823774557917087,0.0005606124795816845,-0.003510014993784767,0.9996065241272395
2025/04/09 09:59:54.144467148,1744185594,142204332,piren,-479.7528885854076,-300.089729066126,2.3004256859684777,0.0013942934210890638,-0.0016456164669195394,-0.0036970465169142382,0.9999908398277214
2025/04/09 09:59:54.219392673,1744185594,218346089,piren,-479.7363778568967,-300.0761441413416,2.3070595729581,0.005469360633097275,0.003136788186254238,-0.004703150518478693,0.9999690630361223
2025/04/09 09:59:54.323077124,1744185594,320374646,piren,-479.71063902740997,-300.0710531322243,2.3100221587187044,-0.026114709823950547,-0.001579874840046097,-0.003959353531372829,0.9996498634251466
2025/04/09 09:59:54.422632874,1744185594,421817080,piren,-479.69229719452215,-300.01290752350934,2.3337332609769414,0.005658453770157146,0.0006539878541858993,-0.004236772807201809,0.9999748016610207
2025/04/09 09:59:54.524359584,1744185594,524051888,piren,-479.6694614613962,-300.0207250173247,2.3312572091090544,-0.030679465245863336,0.00202912813311516,-0.004534628147049276,0.9995169284203321
2025/04/09 09:59:54.626320350,1744185594,625251754,piren,-479.6442330433025,-299.96680915341204,2.352649508151433,0.004015622436348616,0.00035436074394320545,-0.004896577859201735,0.9999798861628071
2025/04/09 09:59:54.728198814,1744185594,727069336,piren,-479.6231778953894,-299.9842880504957,2.3461790405697283,0.030929622416140088,0.00036323212513060435,-0.0051612225017749125,0.9995081732041542
2025/04/09 09:59:54.831309956,1744185594,829925117,piren,-479.6025453264892,-300.044780256814,2.319655627296399,0.0017400652409738293,0.001355587588775767,-0.005424587739087782,0.999982854054562
2025/04/09 09:59:54.933736606,1744185594,932554202,piren,-479.5812191281065,-300.0449347650057,2.320492756983161,0.0029101028248622453,0.0004396429641011756,-0.005630825883757823,0.9999798157040369
2025/04/09 09:59:54.987105830,1744185594,985835733,piren,-479.5710209398425,-300.04479894308037,2.3212152936448454,-0.0021523198156720227,0.0004704470978251543,-0.005628643905788561,0.9999817321165028
2025/04/09 09:59:55.40473152,1744185595,39965923,piren,-479.56053610950323,-300.0360709854356,2.325333763351237,-0.0015808288196390127,-0.0017386579611316918,-0.006330285005208805,0.9999772025103822
2025/04/09 09:59:55.93150649,1744185595,92812416,piren,-479.5541852081117,-300.03056066921476,2.327936376944501,0.002538882664539797,0.0007036728722697927,-0.007086633845731425,0.9999714188615799
2025/04/09 09:59:55.148315048,1744185595,147072188,piren,-479.54278486164117,-300.03349230013976,2.3269242634761924,0.0336782926188407,0.0004866916350410647,-0.007103177212014086,0.9994073646972124
2025/04/09 09:59:55.203575014,1744185595,201228470,piren,-479.5219747249371,-300.087407762575,2.302425425146657,-0.010128833292597506,0.000802860743660697,-0.006250846972782587,0.9999288419997094
2025/04/09 09:59:55.306780942,1744185595,305163452,piren,-479.49745898965233,-300.05702791504274,2.315713453659477,0.00013973111168724006,-0.0017847896027966652,-0.006898724688944174,0.999974600976923
2025/04/09 09:59:55.408967125,1744185595,408646309,piren,-479.47700213046915,-300.0489146431186,2.3198697203148586,0.003147506323840708,0.003358814687424573,-0.007323613852236738,0.9999625874241398
2025/04/09 09:59:55.512255850,1744185595,511941471,piren,-479.4463635835831,-300.0476376450371,2.3212094505416854,0.016198918421484503,0.0004257631055141683,-0.00765762439910746,0.999839374377862
2025/04/09 09:59:55.614718274,1744185595,614390364,piren,-479.4210656878317,-300.0686564354353,2.312697386774586,0.030208197060810616,0.00021180753195080545,-0.007951620808878766,0.9995119767638687
2025/04/09 09:59:55.717480735,1744185595,716272132,piren,-479.3955334375673,-300.10846910258454,2.295084731672996,0.0032160306533607383,-0.002116257811033286,-0.008244846871784667,0.9999585996928947
2025/04/09 09:59:55.822658304,1744185595,821316580,piren,-479.3727909156087,-300.09450011778523,2.3019584455571165,0.001993786671216439,0.0005414310392876295,-0.008661250476628909,0.9999603564178534
2025/04/09 09:59:55.927681358,1744185595,926436496,piren,-479.3445654964289,-300.079753133304,2.309001669836356,0.012017986289794443,0.0005297439577922642,-0.009092953887287179,0.9998862963189772
2025/04/09 09:59:56.30832654,1744185596,30412755,piren,-479.3168183015033,-300.08389992067146,2.30761866206993,0.01338545975405756,0.0005497540222970251,-0.009527043523506282,0.9998648722099346
2025/04/09 09:59:56.137221551,1744185596,135319919,piren,-479.2893033086932,-300.08906344554464,2.3055708619545983,0.0038817980957302667,0.000660870143854266,-0.009960112493844096,0.9999426438817913
2025/04/09 09:59:56.189311531,1744185596,188906382,piren,-479.27544238370996,-300.0758659629009,2.311318587215789,-0.027994896190287485,0.0010140646632512613,-0.009935622354460534,0.9995581728286671
2025/04/09 09:59:56.244725400,1744185596,243065569,piren,-479.26225367496824,-300.01235875363835,2.336490417597864,0.015297878884016132,0.0005619056522173472,-0.010792392981011107,0.9998245763219823
2025/04/09 09:59:56.304804859,1744185596,304313872,piren,-479.2496143137716,-300.04011026659157,2.3249476143515158,0.027362108618289673,0.00041334030982373643,-0.012362140413729105,0.9995490591492449
2025/04/09 09:59:56.361830829,1744185596,361369418,piren,-479.2242376612307,-300.0776863040215,2.308235020377917,0.0010700327592321464,0.0007278334795426806,-0.012346919179050363,0.9999229364681592
2025/04/09 09:59:56.555635252,1744185596,552244240,piren,-479.17308759598785,-300.0671309399335,2.3133053934775987,-0.009053467052396966,0.0007974382964854031,-0.01132244486289642,0.9998945949793014
2025/04/09 09:59:56.664685515,1744185596,662570375,piren,-479.1461877369461,-300.03905181311166,2.3256712467616567,-0.003844258082816687,0.0007021770110619058,-0.014941536546092872,0.9998807324440648
2025/04/09 09:59:56.769978015,1744185596,768689866,piren,-479.1197289576344,-300.0261009383418,2.3317868101392047,-0.02435234772040113,0.0009708496438617215,-0.015776249769417917,0.9995784764362861
2025/04/09 09:59:56.879030831,1744185596,875791018,piren,-479.09188620294486,-299.98232913358,2.3495770457746925,-0.015447215688374675,0.0008194184431055494,-0.01625442797475401,0.999748221129753
2025/04/09 09:59:56.985080060,1744185596,984601659,piren,-479.0635512967962,-299.96436952026806,2.357404113787987,-0.008851047550422264,0.0006586479411882505,-0.016982583697409404,0.9998163916395401
2025/04/09 09:59:57.41934902,1744185597,41390645,piren,-479.05175823540867,-299.96913955139314,2.355895934011776,-0.020826221416949234,0.0007803530829597997,-0.015441968887730194,0.9996635459730583
2025/04/09 09:59:57.95359301,1744185597,94852995,piren,-479.0374741271534,-299.9529802490583,2.362328361490985,0.0164366412011239,0.00015934021281434202,-0.015459529499553204,0.9997453747751847
2025/04/09 09:59:57.154153400,1744185597,152770533,piren,-479.01214274816294,-300.0003868141431,2.342589408566972,0.0001245456625173956,0.0003708809222528396,-0.017115895163109667,0.9998534357937092
2025/04/09 09:59:57.263663183,1744185597,263299395,piren,-478.9812186265316,-300.0114460837652,2.3385598984938545,0.029330804309813545,-0.0003349382981971259,-0.018732784345000468,0.9993941537379332
2025/04/09 09:59:57.372945902,1744185597,372599647,piren,-478.9525143294211,-300.0685927190877,2.313319344617875,-0.0092331424963889,0.0007696121011114058,-0.018679855511815748,0.9997825862530878
2025/04/09 09:59:57.481952985,1744185597,481582399,piren,-478.9210311472786,-300.0489129272492,2.321935819920007,0.003330881983969726,0.0006433173002270492,-0.019309398281072577,0.999807800782772
2025/04/09 09:59:57.589762072,1744185597,589406823,piren,-478.89060003495814,-300.0524478426953,2.320824993460746,0.010712944072989072,0.0006169674785527581,-0.02031193636253314,0.9997361038902336
2025/04/09 09:59:57.644250125,1744185597,643773505,piren,-478.8786527973218,-300.0646651679995,2.3156996864846446,-8.569172551968189e-05,0.0008624675300888497,-0.018711997479803583,0.9998245395853234
2025/04/09 09:59:57.702321269,1744185597,701956250,piren,-478.8515349098817,-300.0571866705499,2.319076137819147,0.012588619933072517,0.0006118143097851936,-0.020157824084854902,0.9997173672891729
2025/04/09 09:59:57.809861058,1744185597,809510112,piren,-478.82410318130815,-300.07196691201534,2.312793694734237,0.03197028903260522,0.0001338484562901903,-0.018504510760534807,0.9993174999895058
2025/04/09 09:59:57.918578967,1744185597,918214116,piren,-478.79677349192247,-300.11502402061166,2.293084097001155,-0.029474911684908404,0.0013646585603200023,-0.019109146597664328,0.9993819128864049
2025/04/09 09:59:58.24657308,1744185598,24328892,piren,-478.76557991411335,-300.0451616470615,2.3214209878503462,-0.01476143457725393,0.0007525820372481181,-0.019803924792470652,0.9996946224884442
2025/04/09 09:59:58.131883146,1744185598,131483518,piren,-478.73623575916776,-300.01360512873276,2.3353301451994404,-0.029442457585061973,0.0004030966742794838,-0.020473297154426227,0.9993567047396288
2025/04/09 09:59:58.187315160,1744185598,186932019,piren,-478.7219761507531,-299.96777310397187,2.353932676192467,-0.017794782155224835,0.0009850330474145312,-0.020460559810152455,0.9996318026804664
2025/04/09 09:59:58.243475093,1744185598,243105868,piren,-478.70676353929616,-299.95546317780946,2.3598070896294026,-0.00737974242488893,0.0012180651977378514,-0.02225509428609189,0.9997243452558477
2025/04/09 09:59:58.298188595,1744185598,297840832,piren,-478.69281444156826,-299.96521356114937,2.356780706741335,-0.028621001502539115,0.0010207134887989452,-0.022242265930259367,0.9993423227419387
2025/04/09 09:59:58.352681190,1744185598,352219190,piren,-478.6775487713305,-299.93659228251335,2.3680074570757284,-0.029154674963240583,0.00395930222159371,-0.022492716337779165,0.9993139679627491
2025/04/09 09:59:58.407761233,1744185598,406966691,piren,-478.65730799420896,-299.9161488074306,2.3760442220757434,-0.004743289873874379,0.000226014326149168,-0.024234690689988077,0.9996950184360516
2025/04/09 09:59:58.461823229,1744185598,461517705,piren,-478.63105526259113,-299.93625290323774,2.3686936114971227,0.031271322488575594,-0.0006761838660495149,-0.024222115345009083,0.9992171617288246
2025/04/09 09:59:58.572985469,1744185598,570657389,piren,-478.6055136667984,-300.01555113979384,2.3343816468295038,-0.029386679383840552,0.0010401958570295422,-0.026259323536303288,0.9992225923160395
2025/04/09 09:59:58.680924488,1744185598,677797818,piren,-478.5716092504346,-299.9765995143863,2.3498832899853492,0.028026098186239627,-0.0004070067071140806,-0.027924723166937,0.9992169844443426
2025/04/09 09:59:58.733682422,1744185598,732486632,piren,-478.5615098017414,-300.04176323244343,2.322051136820757,0.027256042862882354,-0.0008824121926251965,-0.0259863284327455,0.9992902682458008
2025/04/09 09:59:58.788730471,1744185598,788263965,piren,-478.54908279706797,-300.08679924952776,2.3028261036026243,0.0013660017255534476,0.0005558095820761183,-0.026001237521179218,0.9996608228606149
2025/04/09 09:59:58.845468602,1744185598,844184950,piren,-478.5316289976924,-300.07562936168176,2.3086718070369088,0.003174497983463144,0.0006054447199373722,-0.026046257668938765,0.9996555148953501
2025/04/09 09:59:58.903774745,1744185598,901002707,piren,-478.5148128865421,-300.0695685415847,2.3119810137907817,-0.0007166367927667143,0.0007380574001166289,-0.0278185807684323,0.9996124590395078
2025/04/09 09:59:58.958349518,1744185598,957993744,piren,-478.48364776976945,-300.06208254478616,2.3156053340658143,-0.0025196687314224583,0.0009553852301885874,-0.027816878817216235,0.9996094035979325
2025/04/09 09:59:59.40465647,1744185599,39948451,piren,-478.46702423326053,-300.04875267803254,2.3215000961206353,-0.00038117207974395606,0.0007470035833113501,-0.02786656163410393,0.9996113001743152
2025/04/09 09:59:59.97539593,1744185599,97159821,piren,-478.45138185239625,-300.0425389316801,2.3243381037347626,0.002156417468364729,0.0006978414754821705,-0.029845395603286803,0.9995519572499774
2025/04/09 09:59:59.158791888,1744185599,153992815,piren,-478.4372801458009,-300.04222897991974,2.3246235021927673,-0.02671522928336481,0.0016162254250217797,-0.029807722840718847,0.9991972698115041
2025/04/09 09:59:59.212461253,1744185599,211734185,piren,-478.40465169385016,-299.9939874968522,2.343734938152513,-0.0314957644043323,0.0014458239798285388,-0.027207549780152853,0.9991324615147716
2025/04/09 09:59:59.322221516,1744185599,320776066,piren,-478.3707918997635,-299.94806620337437,2.361689870224762,0.026957817355791575,-0.0005494513879564999,-0.028743503606166815,0.9992230907995603
2025/04/09 09:59:59.429173899,1744185599,427678030,piren,-478.34698144998185,-300.0128455409883,2.33415929043295,-0.010616352149171525,0.0006415620889291882,-0.029480018398440982,0.9995087843437688
2025/04/09 09:59:59.482467075,1744185599,482057153,piren,-478.33124668296523,-300.0021194831324,2.339743027403158,0.00038710092705865784,0.0002327535970166462,-0.02948530754203483,0.9995651117449964
2025/04/09 09:59:59.538927505,1744185599,537966929,piren,-478.31655712410475,-300.01301457407567,2.336200789802376,-0.029396582874870618,0.001112954192387055,-0.031570842202624044,0.9990685082469889
2025/04/09 09:59:59.593945150,1744185599,593617207,piren,-478.3000310249434,-299.97030600878384,2.3531051793918496,-0.01084794795004574,0.0005801286889287527,-0.033563013761120905,0.9993775610765174
2025/04/09 09:59:59.649138889,1744185599,648762367,piren,-478.2866827566291,-299.97129418391415,2.3533923022904486,-0.0037973670070320297,0.00048999439464545,-0.03356577859078968,0.999429176288596
2025/04/09 09:59:59.704499783,1744185599,704133083,piren,-478.25749104000374,-299.9816036699266,2.3497383297708128,0.0009237543187553314,0.00043140810748491543,-0.03095852301369472,0.9995201500809346
2025/04/09 09:59:59.813437506,1744185599,812939185,piren,-478.22539081109744,-299.9985199426617,2.343112849483606,0.029024010805187572,-0.0006496965108811573,-0.03235934768963466,0.9990545817463257
2025/04/09 09:59:59.925451013,1744185599,923666222,piren,-478.1966575542398,-300.0583378548661,2.316523528376617,0.014010196355603778,0.00012397361169864807,-0.03300979837626269,0.99935681927917
2025/04/09 10:00:00.34450704,1744185600,34141358,piren,-478.1643184631772,-300.0801137515138,2.307296095628131,0.007571849338404867,0.0005399950068768958,-0.03365280943986357,0.9994047548014734
2025/04/09 10:00:00.91710435,1744185600,91168869,piren,-478.1464742162018,-300.07908020411884,2.3079210108506563,0.015141934960273516,0.00016496166115206838,-0.033652380852614024,0.99931887396179
2025/04/09 10:00:00.150682042,1744185600,148675351,piren,-478.129523130473,-300.0902805807285,2.302970669617628,-0.010678969453225187,0.0011743073899200362,-0.035295491536468264,0.999319172682467
2025/04/09 10:00:00.207117318,1744185600,206776478,piren,-478.0956857061827,-300.05839509727883,2.3162832433273923,0.00033320923461238464,0.0008326766134428688,-0.037477523011056516,0.9992970683886845
2025/04/09 10:00:00.314865707,1744185600,314451765,piren,-478.06230214257465,-300.05057507400903,2.319719221952665,0.0007343416605996953,0.0008318405108173203,-0.03535946966907541,0.999374042432768
2025/04/09 10:00:00.425244516,1744185600,423333813,piren,-478.0271970177365,-300.04473103192,2.3224161572567015,-0.02820936019316668,0.002455948443821026,-0.035791661504049124,0.9989580357960554
2025/04/09 10:00:00.531300528,1744185600,530928081,piren,-477.98817992082996,-299.991175214668,2.343635734336328,-0.00083948389068536,0.0005537222790195908,-0.03628386587510217,0.9993410177389862
2025/04/09 10:00:00.586361548,1744185600,585981328,piren,-477.97282707914076,-299.99946715404457,2.3408289041438093,-0.007287707740500333,0.0007458667619965336,-0.03627857511681603,0.9993148642876057
2025/04/09 10:00:00.642775819,1744185600,641642630,piren,-477.9561687916358,-299.99495993297444,2.343141706481582,0.0026411608399266803,0.0003090148950772744,-0.037497606081502696,0.9992931793609765
2025/04/09 10:00:00.697594750,1744185600,697219794,piren,-477.94218681497034,-300.0088092706102,2.337722932150173,0.027858446723941523,-0.0006627069896641461,-0.038762583755043,0.9988598149220983
2025/04/09 10:00:00.754477450,1744185600,754150471,piren,-477.9149942458916,-300.0590332818378,2.315419122509032,-0.02883939666941525,0.0013423500437863749,-0.038740863673297016,0.9988321344339854
2025/04/09 10:00:00.864180786,1744185600,862863702,piren,-477.8779749933031,-300.00412030184845,2.3373510377882045,0.02978448128296282,-0.0008779666269505169,-0.039887709530986144,0.998759773157529
2025/04/09 10:00:00.972567726,1744185600,972119884,piren,-477.8490878760968,-300.0576356812223,2.3137853403815063,0.020225864069903853,-9.72934491127776e-05,-0.040102187381232175,0.9989908505706402
2025/04/09 10:00:01.82136316,1744185601,80888385,piren,-477.8197007188101,-300.0839990505907,2.302731933983727,0.00430864524703607,0.00028016515799553855,-0.039853410164327835,0.9991962083504388
2025/04/09 10:00:01.141749387,1744185601,138860108,piren,-477.8027904772729,-300.07388364335844,2.30777405891075,-0.026811705622515464,0.0016441091334900698,-0.03906192752350199,0.9988756655184455
2025/04/09 10:00:01.195939295,1744185601,195663990,piren,-477.78106330769947,-300.0134426760511,2.332286437853558,-0.012770120736668639,0.001207829824105213,-0.03957485201056875,0.999134273384628
2025/04/09 10:00:01.254326048,1744185601,251825081,piren,-477.76214213131567,-299.99380748464796,2.340937678472928,-0.02106439133827628,0.0013004803582969265,-0.03957085769899145,0.9989938675434158
2025/04/09 10:00:01.307785593,1744185601,307436956,piren,-477.7252933577926,-299.9623436514449,2.353666883279004,0.006738519671511956,0.0003293176293836869,-0.038306043098994866,0.9992432791691088
2025/04/09 10:00:01.439401049,1744185601,438998902,piren,-477.6912999633796,-299.9859244200264,2.344164625740686,0.003629390829307302,0.0009712730076291149,-0.03875895488656639,0.9992415261422305
2025/04/09 10:00:01.496400966,1744185601,494901160,piren,-477.6732431257034,-300.0033331329488,2.3373099835645625,-5.5839625162784325e-05,0.00032867530341816197,-0.038755218255520654,0.9992486787143869
2025/04/09 10:00:01.551442912,1744185601,551019692,piren,-477.6556000008455,-300.0096745546822,2.334946285031,-0.005677504396708923,0.0008633871227361448,-0.03919621622669986,0.9992150304814332
2025/04/09 10:00:01.607645113,1744185601,607256180,piren,-477.61934313377066,-300.0047677003987,2.337162892972535,-0.0009082561226034412,0.00021087122216344937,-0.03984997173427854,0.9992052393562199
2025/04/09 10:00:01.718537593,1744185601,716937687,piren,-477.58486418505856,-300.0088605228773,2.3355806220837514,-0.0008405047005497944,-0.00023445654647454294,-0.03905906478958941,0.9992365225709772
2025/04/09 10:00:01.829151058,1744185601,827389413,piren,-477.5504577484086,-300.0123662758026,2.334201311854791,-0.0041811020537960005,0.0010991160421298727,-0.039144327887942594,0.9992242150407201
2025/04/09 10:00:01.939327291,1744185601,938135108,piren,-477.51564644670367,-300.0095071957621,2.3354730808031046,-0.003702610514042482,0.00022112873871966854,-0.03918794018883695,0.99922497322736
2025/04/09 10:00:01.996277591,1744185601,995970404,piren,-477.49839706965804,-300.00791968463784,2.3361090784262264,-0.004716821147943116,0.00026044509718657085,-0.03914847567261368,0.9992222378525812
2025/04/09 10:00:02.52620301,1744185602,52191094,piren,-477.4634008322676,-300.0048654685757,2.337329018028573,-0.009275502718665844,0.0004135843250826602,-0.03914692935621969,0.9991903281754189
2025/04/09 10:00:02.165938807,1744185602,165584399,piren,-477.42906235491114,-299.9946539106814,2.3413476989560724,0.02668979081080171,-0.0010558610174538703,-0.039596190059683026,0.9988586896837536
2025/04/09 10:00:02.277157480,1744185602,275938028,piren,-477.40097918674996,-300.0462462679844,2.3181225365911193,0.024131814803752965,-0.0009345177386116122,-0.03950196968574855,0.9989276132842759
2025/04/09 10:00:02.387004312,1744185602,385759967,piren,-477.37265420533214,-300.08261954417515,2.3017601066619897,0.007262221151578029,-0.0003286387985082839,-0.039370308055814894,0.999198244085765
2025/04/09 10:00:02.443187105,1744185602,442864287,piren,-477.35809738480185,-300.07691661355824,2.3044839073153893,-0.01735100370917357,0.0007761646113818847,-0.039150226401710175,0.9990823789915801
2025/04/09 10:00:02.501379348,1744185602,500991659,piren,-477.34003353268173,-300.0307014632984,2.3235931911031953,-0.004209546863380276,0.00033982148484992597,-0.0391234598961182,0.9992254596047483
2025/04/09 10:00:02.558502240,1744185602,558102237,piren,-477.30837282352667,-300.01950375065974,2.328405994676125,-0.02546260267188409,0.00124723906182713,-0.03910791849879827,0.9989097411531174
2025/04/09 10:00:02.668944635,1744185602,668660287,piren,-477.27434664631943,-299.9744390089442,2.346141646525098,0.0016135799892006235,1.7258633089456445e-05,-0.038968716090901315,0.9992391281510071
2025/04/09 10:00:02.780758728,1744185602,780148227,piren,-477.2452702960806,-299.98504208569216,2.3420194954136844,-0.004050591870573665,0.00012867447347679963,-0.038837297618841415,0.9992373293977981
2025/04/09 10:00:02.893984837,1744185602,892004902,piren,-477.2175919369918,-299.9858628138327,2.341950824756427,0.011433443295322957,-0.0006237259317260009,-0.038711210724862825,0.9991848325032713
2025/04/09 10:00:02.949325211,1744185602,948955103,piren,-477.18910282495256,-300.0127262459831,2.330660653584645,-0.005375047037450796,3.978916706157961e-05,-0.038715932440844474,0.999235799929828
2025/04/09 10:00:03.61261522,1744185603,60635320,piren,-477.1584619681269,-300.0063876643214,2.3335106997714203,0.0076603309405549455,-0.00047791760267596513,-0.03844497577590287,0.9992312418865997
2025/04/09 10:00:03.175355883,1744185603,174924448,piren,-477.1299613292458,-300.0228593729881,2.3266785749148085,0.023662530355844195,-0.0010455977696006557,-0.03832276584486905,0.9989846630456658
2025/04/09 10:00:03.288433563,1744185603,286617473,piren,-477.1038055205344,-300.06205531410376,2.309268876120746,-0.031605910879270976,0.0010634857336880655,-0.03831622426852308,0.9987651387355239
2025/04/09 10:00:03.343939131,1744185603,343663712,piren,-477.0845025409979,-299.995727241065,2.335564642838903,0.02448509738855459,-0.0006459020089321375,-0.038527290405697995,0.9989573117558442
2025/04/09 10:00:03.401854458,1744185603,401569822,piren,-477.07387492188093,-300.042135692191,2.315783864186626,-0.004081190337831739,5.318867392933287e-05,-0.03846794994550554,0.9992514988146786
2025/04/09 10:00:03.465540180,1744185603,460738603,piren,-477.0454956191114,-300.0298131545372,2.3216479487030544,-0.0022977341236795237,0.00017146490701361403,-0.038467582604842156,0.999257192171376
2025/04/09 10:00:03.573174057,1744185603,572835185,piren,-477.0185993178367,-300.0220823322807,2.3254797314747093,-0.009448625822559332,0.001166021486509453,-0.038445683973382695,0.9992153387772713
2025/04/09 10:00:03.684485945,1744185603,684005682,piren,-476.99080466999936,-300.00357548399097,2.333555646430637,0.023777793551842834,-0.001017507324972087,-0.03839884859215697,0.9989790336335624
2025/04/09 10:00:03.742232477,1744185603,741892886,piren,-476.9838673741487,-300.0455231862238,2.31518871183138,0.01434977730792161,-0.00024790719365931727,-0.03848276041187008,0.9991561937876976
2025/04/09 10:00:03.799315529,1744185603,798957485,piren,-476.96316617215456,-300.0613809456955,2.3086097188274977,-0.004216411749581577,0.00026372603092800575,-0.03848146018003468,0.9992503838092588
2025/04/09 10:00:03.911730000,1744185603,911384660,piren,-476.9389542734905,-300.04225205632974,2.316986919539001,0.014724795013764726,-0.0007085606992362568,-0.03851719162235245,0.9991491902128857
2025/04/09 10:00:03.993355313,1744185603,992085770,piren,-476.9308913662458,-300.05688504500176,2.3106909786840224,0.02252712773993681,-0.0009249823272197574,-0.03849575324873469,0.999004379322381
2025/04/09 10:00:04.50230520,1744185604,49882040,piren,-476.91105111989276,-300.0815233456592,2.2995773220922193,-0.0072796502936311605,0.000992424234961868,-0.03850056317183026,0.9992315689674702
2025/04/09 10:00:04.164830713,1744185604,164430028,piren,-476.88613438479246,-300.0504062799185,2.312894032114783,-0.006776587402275832,0.0001164376970934493,-0.03837385844962715,0.999240467201529
2025/04/09 10:00:04.277735331,1744185604,276241926,piren,-476.8637712346962,-300.0252708342807,2.323568291952659,-0.027172127037030494,0.0010016702361469827,-0.038244501832726804,0.9988984083722369
2025/04/09 10:00:04.334738722,1744185604,334369506,piren,-476.85016882550156,-299.97255378213475,2.3444306549103793,-0.032822995812968866,0.0015675658728701637,-0.03834027562657375,0.9987242947620603
2025/04/09 10:00:04.392760110,1744185604,392353357,piren,-476.83635941242136,-299.9255639911978,2.3625721040393466,-0.005362383220885387,0.000942951932308133,-0.038366535549947796,0.999248900243448
2025/04/09 10:00:04.452140938,1744185604,450638821,piren,-476.82627118436176,-299.9391880515219,2.3578009962183795,-0.0042247159462211635,0.00035351374391242863,-0.03837518048712996,0.9992544082093343
2025/04/09 10:00:04.510003255,1744185604,508804046,piren,-476.8059344780876,-299.9454285774461,2.3557028532409903,-0.005990806612939433,0.0007608232986577425,-0.03825856835241503,0.9992496251346098
2025/04/09 10:00:04.623404384,1744185604,620485630,piren,-476.7852055425192,-299.9500480640573,2.3541601945836614,-0.008738168929835994,0.00039873490316471704,-0.038235871770342995,0.9992304556628528
2025/04/09 10:00:04.733489350,1744185604,733050880,piren,-476.7657001437086,-299.95077105982114,2.354012383803343,-0.004545644463606709,-0.0002980096494378496,-0.03810610170310884,0.9992633153076579
2025/04/09 10:00:04.790735225,1744185604,790279380,piren,-476.758736736024,-299.96197812484263,2.3494746723955897,-0.004221195401007633,-0.0002982036057166928,-0.03810612098770557,0.9992647377583513
2025/04/09 10:00:04.850299381,1744185604,849036617,piren,-476.75113946061396,-299.97058558900187,2.3459313307372676,-0.005994662201001712,0.00077831735593017,-0.03789010898413553,0.9992636278221878
2025/04/09 10:00:04.906447911,1744185604,906078800,piren,-476.74142242810893,-299.9738441845375,2.3445818199177078,-0.006750677760411565,-0.00012705518674115015,-0.037678858993299036,0.9992670893168242
2025/04/09 10:00:04.964740982,1744185604,964434495,piren,-476.72402689599164,-299.9743805188731,2.344191818689815,-0.03240092104009652,0.0009709329923299477,-0.03766950618805949,0.9987643595505526
2025/04/09 10:00:05.77378570,1744185605,76540159,piren,-476.70564951967975,-299.93102911539796,2.3601511220142437,0.0009809672301887146,-0.00022821492765324935,-0.03745470263310589,0.999297818906809
2025/04/09 10:00:05.135977172,1744185605,134855703,piren,-476.6998819233631,-299.9567499851556,2.3497988668190586,-0.005472012234116767,1.7037732349652594e-05,-0.03747727741360265,0.9992824978300627
2025/04/09 10:00:05.194542483,1744185605,192820390,piren,-476.69309756078417,-299.9645001418404,2.3467711766044568,0.0037916289914600495,-0.00028855995473199347,-0.03747590141342608,0.9992902967086166
2025/04/09 10:00:05.250460147,1744185605,250165715,piren,-476.67887681527424,-299.98742237075817,2.337218456239372,-0.0043515650845013035,0.0007739956629108852,-0.03704219845341193,0.9993039279147097
2025/04/09 10:00:05.365852046,1744185605,364687298,piren,-476.66260021291805,-299.98981566371214,2.3362843567809497,-0.033109307073623785,0.0010287368068825117,-0.036762217498964224,0.9987748769618936
2025/04/09 10:00:05.478858979,1744185605,477593605,piren,-476.644980905293,-299.93655743019326,2.3562541217521797,0.02632412815376991,-0.001029298718065777,-0.03664117822440119,0.9989811834461251
2025/04/09 10:00:05.594898997,1744185605,590032429,piren,-476.642806354306,-300.04954064686115,2.307823439514138,-0.004270669729030174,7.686466454837973e-05,-0.036563912435920054,0.9993221881751988
2025/04/09 10:00:05.648567030,1744185605,648162881,piren,-476.63545554673885,-300.03215979058933,2.316188513138979,0.00036995588794168496,0.0007037414357211895,-0.036916743515814796,0.9993180284217934
2025/04/09 10:00:05.709427896,1744185605,706178748,piren,-476.62069542776015,-300.0314776326033,2.3172816523996693,-0.006847338181540823,-0.0002310397535198592,-0.03662287384713716,0.9993056717999936
2025/04/09 10:00:05.820626226,1744185605,819861831,piren,-476.6073550822564,-300.01557126201754,2.324483602448654,-0.002984048887077294,0.0005478428336496489,-0.03689023833323443,0.9993147180123919
2025/04/09 10:00:05.935217206,1744185605,933952480,piren,-476.5938998491808,-300.0029131213491,2.3306441108163978,-0.03200111966676673,0.000721757230665661,-0.036812780328413355,0.998809404546766
2025/04/09 10:00:05.993625545,1744185605,993258350,piren,-476.58449756119626,-299.94981236617707,2.3511293951763075,0.025896864943615507,-0.0008867067391752646,-0.03678460340842671,0.9989872166796409
2025/04/09 10:00:06.51638552,1744185606,51328839,piren,-476.57504493518417,-300.0054788991113,2.3271207611356775,-0.03282811909292767,0.0011979377833664538,-0.03677704812136873,0.998783424108233
2025/04/09 10:00:06.168324760,1744185606,167048949,piren,-476.5580737949787,-299.95212712878686,2.3481932687600664,-0.03160420616408944,0.0018552062248107398,-0.0358625786801394,0.9988551485641008
2025/04/09 10:00:06.280486329,1744185606,280119758,piren,-476.54119820244335,-299.91180267951745,2.3642920495826214,-0.034482825111313335,0.000356876177634706,-0.035619218268026887,0.998770283249212
2025/04/09 10:00:06.339580545,1744185606,338406498,piren,-476.5346579283462,-299.88163932204617,2.376123706811728,-0.02874751963020532,0.0017975736708840512,-0.03595864695344121,0.9989380984592021
2025/04/09 10:00:06.398556893,1744185606,397268142,piren,-476.52683145397515,-299.87075962268926,2.380893904685795,0.02812744340103731,-0.0010835270535760545,-0.03577048315133552,0.9989635355867429
2025/04/09 10:00:06.478420829,1744185606,478050875,piren,-476.52152037234174,-299.9520669908696,2.3467862495026486,-0.025570265506478475,0.0032542881743177917,-0.03571060690692783,0.999029691092685
2025/04/09 10:00:06.592459893,1744185606,591220645,piren,-476.50589377091256,-299.92925574688087,2.356860147817642,-0.03459683897941659,0.001766084758928192,-0.0348169624578283,0.9987931311350048
2025/04/09 10:00:06.650520468,1744185606,650131913,piren,-476.49404198703377,-299.89579697639897,2.3702530903887458,-0.0027141139100912656,-0.0012019049911056678,-0.03388999227116887,0.9994211611897836
2025/04/09 10:00:06.767040520,1744185606,765763344,piren,-476.4902311062398,-299.9236766924264,2.360227639185031,0.025641832146732744,-0.0033900431379832036,-0.033252782784945,0.999112234180294
2025/04/09 10:00:06.882314250,1744185606,880950559,piren,-476.4914210930857,-299.99368536337556,2.3307336036788513,-0.0022947529594806028,0.0029856295667503993,-0.03386748651806498,0.999419238098754
2025/04/09 10:00:06.940930072,1744185606,939455792,piren,-476.4816976975083,-299.9982984897532,2.3302106501337287,-0.011289787974399407,-0.0006054140382569976,-0.03464605597693297,0.9993356918306173
2025/04/09 10:00:06.998628130,1744185606,998285521,piren,-476.4796776257767,-299.9854681220381,2.336126414417836,-0.004807886934989117,-0.0007572080683830653,-0.03431825509912685,0.9993991035747996
2025/04/09 10:00:07.59038307,1744185607,57017537,piren,-476.4729082257108,-299.98972230298057,2.3350071156071754,-0.010064477546078325,-0.0003362433151002731,-0.03432128412271216,0.9993601166187921
2025/04/09 10:00:07.172756072,1744185607,172439709,piren,-476.46522644826814,-299.9827790376471,2.3381825433044936,-0.0026850039393843893,-0.0007368847147105038,-0.033770636622008444,0.999425731036032
2025/04/09 10:00:07.290374116,1744185607,288296889,piren,-476.4581507720583,-299.9885188614704,2.3360989112677233,0.0010390839310549212,0.00041030522335909063,-0.0337984066933463,0.9994280462640616
2025/04/09 10:00:07.348246387,1744185607,347922558,piren,-476.4521787482366,-299.99722846802894,2.332644378358164,-0.017888087322740782,0.0006267441875436727,-0.03440613732581529,0.9992476375943926
2025/04/09 10:00:07.408646254,1744185607,408185041,piren,-476.441638496301,-299.97322217748246,2.3424215327234332,-0.005442747774798591,0.0006013643004044253,-0.034292742939341106,0.9993968294122882
2025/04/09 10:00:07.526745525,1744185607,526377612,piren,-476.4310594272845,-299.9755691660309,2.3419941777099833,-0.001764612208984381,0.0003082591723363435,-0.03452838140065247,0.9994021122640705
2025/04/09 10:00:07.642421959,1744185607,642089709,piren,-476.4218491044353,-299.9842157621516,2.3390509224215417,0.026947777552980046,-0.0012126768217716102,-0.034465713960871884,0.9990417715296236
2025/04/09 10:00:07.701612007,1744185607,701114918,piren,-476.4215433714344,-300.0380692338869,2.3154854048304547,0.014442998318596936,-0.0003620075726051485,-0.034477686089368666,0.9993010346797453
2025/04/09 10:00:07.762917247,1744185607,762459108,piren,-476.41382918553234,-300.0607657148739,2.3065568069180826,-0.001538336176883545,0.0002007559022925533,-0.03447869819239161,0.9994042288232688
2025/04/09 10:00:07.877756752,1744185607,877380661,piren,-476.4042579008369,-300.05027772184883,2.3119558967246134,-0.0016040734232993323,-0.00046079186883596167,-0.03403675043957127,0.9994191884483812
2025/04/09 10:00:07.939193839,1744185607,937419589,piren,-476.40053288058016,-300.03597062972887,2.318574468356607,0.02402058792122287,-0.0008030309367418024,-0.03370539184724819,0.9991427891235851
2025/04/09 10:00:07.998464109,1744185607,996678671,piren,-476.39811886264107,-300.0686841535269,2.3042337760824694,8.89575988833603e-05,0.00042361581090687736,-0.03330087451133241,0.9994452783384247
2025/04/09 10:00:08.58981630,1744185608,56966884,piren,-476.3876419602355,-300.05657727534157,2.3101670305859368,-0.0018496088365688255,0.00044756534451481606,-0.03330038776569597,0.9994435766000342
2025/04/09 10:00:08.174088212,1744185608,173762453,piren,-476.37903437578893,-300.0416134166995,2.3170240500321944,-0.03283284140409688,0.001660077640897843,-0.03429815115652539,0.9988708052069616
2025/04/09 10:00:08.289639770,1744185608,288246007,piren,-476.3672167915942,-299.976274422682,2.3426954247542144,-0.0010415647757361158,0.000566409453132409,-0.03442754813444232,0.9994064930010211
2025/04/09 10:00:08.347120948,1744185608,346779299,piren,-476.36457289154674,-299.98273505583836,2.3407014110405044,0.019141180688624884,-0.00028372046059080156,-0.03446727296998064,0.9992224686217572
2025/04/09 10:00:08.406076336,1744185608,405717682,piren,-476.3610559066714,-300.01904188198597,2.325313395650364,0.029041218829451487,0.0021413186947638377,-0.03453860175087041,0.9989790324887917
2025/04/09 10:00:08.522423775,1744185608,521974183,piren,-476.35286111626976,-300.06471193274126,2.305290304737308,0.000617568227193786,-0.0005170783529848785,-0.03442455352555721,0.9994069748375922
2025/04/09 10:00:08.640392388,1744185608,639285270,piren,-476.3474532085025,-300.05357999666904,2.3108728517994797,0.0006815191553539013,0.00041205002361030123,-0.03442564596287791,0.9994069444657954
2025/04/09 10:00:08.699702269,1744185608,699238603,piren,-476.34374148154484,-300.0418961301731,2.3165916300240577,0.028975406525308774,-0.000535245022532802,-0.034462467103317414,0.9989857244678784
2025/04/09 10:00:08.759183557,1744185608,758879665,piren,-476.33915097140886,-300.0812754420432,2.2992451236495524,-0.005111335791719832,-5.4100647371913414e-05,-0.0344638264828331,0.999392873690675
2025/04/09 10:00:08.876873047,1744185608,875763182,piren,-476.33071573218905,-300.05569463064455,2.3110337897007347,-0.01115307559248755,0.0009294978943076771,-0.03469721510521154,0.9993352031237744
2025/04/09 10:00:08.992702383,1744185608,992308552,piren,-476.31986652616706,-300.02445752830056,2.3249923048606425,-0.028001264271118327,0.0015796683548397767,-0.03487563197489691,0.9989980601289771
2025/04/09 10:00:09.54539746,1744185609,52307336,piren,-476.3114132605145,-299.97278894087736,2.3459634018305384,0.0006963688542717848,0.0004674297608479909,-0.03488031267406138,0.9993911448314905
2025/04/09 10:00:09.135000683,1744185609,134643690,piren,-476.3032465240275,-299.9800770172886,2.344182802196359,-0.02572415601191001,0.0012471784361800181,-0.03503982468731136,0.999054014069963
2025/04/09 10:00:09.197004071,1744185609,196676106,piren,-476.2966126720456,-299.9471038201447,2.3576174278475137,-0.024995918440669812,0.0012541041663118233,-0.03503870033977093,0.999072530281234
2025/04/09 10:00:09.258994708,1744185609,257650238,piren,-476.29056010030047,-299.92528743477004,2.366639315992005,0.001097867283348144,0.0026558292794907723,-0.03500247608110014,0.9993830936765233
2025/04/09 10:00:09.319076897,1744185609,318724884,piren,-476.2803712546764,-299.95001459144305,2.3577258589953756,-0.03139798564245279,0.004050056125008802,-0.034989630106148126,0.9988861243044753
2025/04/09 10:00:09.438228468,1744185609,437794553,piren,-476.26589046852934,-299.91610061810997,2.3712870796628605,0.031143928262180542,0.0014724646320837121,-0.034846156037845084,0.9989062183156603
2025/04/09 10:00:09.498890289,1744185609,498505703,piren,-476.2660729864501,-300.0008398015709,2.335170895859181,0.026275325928002465,-0.001092617326056643,-0.034627583298464285,0.9990542247093819
2025/04/09 10:00:09.561580270,1744185609,559384275,piren,-476.2646681529791,-300.0553122537807,2.3123849219298434,-0.026599570063403216,-0.001435678460521226,-0.03470428926661825,0.9990425486466025
2025/04/09 10:00:09.678567688,1744185609,678083698,piren,-476.2598409253454,-300.0083720377037,2.33186125360046,0.026342744293101704,-0.0014508383184656767,-0.03449136573762047,0.9990567053880555
2025/04/09 10:00:09.797038716,1744185609,796628249,piren,-476.25757634520176,-300.0576720233769,2.3109812893104653,-0.026844220978073402,0.0018592574311086874,-0.03538010603713423,0.9990116010631139
2025/04/09 10:00:09.858013567,1744185609,857615216,piren,-476.2458263334184,-300.0068913917983,2.332075234816097,0.0011030878530313285,0.0007979766801515224,-0.03596546881143612,0.9993521058583806
2025/04/09 10:00:09.976144721,1744185609,975825650,piren,-476.23787498103513,-300.01273335408973,2.330953352958937,0.002518619864640567,0.0008977360938797473,-0.03618502183607895,0.9993415306183395
2025/04/09 10:00:10.96715763,1744185610,94239307,piren,-476.22958285350666,-300.0204579639133,2.3289893835675675,-0.030555716929086228,0.001765647065864728,-0.0362958626504248,0.9988722846329505
2025/04/09 10:00:10.155479931,1744185610,154167448,piren,-476.22217045086956,-299.9702601861657,2.349160643587607,-0.029638675573762163,0.0007655190901506011,-0.03577425125002845,0.9989199997188243
2025/04/09 10:00:10.215631881,1744185610,214211564,piren,-476.2129470907065,-299.9342673967426,2.364122359884402,0.027645258954773853,-0.0005201821950708633,-0.036027855352037993,0.9989681990466664
2025/04/09 10:00:10.336630734,1744185610,334164512,piren,-476.2086671835333,-300.00382826999834,2.335488320939853,-0.0032008547715379706,0.0027698476510552364,-0.035738079599414274,0.9993522262642274
2025/04/09 10:00:10.397188931,1744185610,395738629,piren,-476.1996849558814,-300.0090901639764,2.3354241210028532,-0.0006361665635631436,0.0001153886727086863,-0.03574687079169225,0.9993606672298844
2025/04/09 10:00:10.459035465,1744185610,457459938,piren,-476.1915932323857,-300.0190972136787,2.3332328594493896,0.02722518766727957,-0.0010012200766861764,-0.036210938022815754,0.9989727497196044
2025/04/09 10:00:10.578817765,1744185610,578410021,piren,-476.186184042554,-300.07294429977003,2.3108622606886446,0.0004777144361783864,-0.0021201765216954716,-0.03627521112039753,0.9993394747024682
2025/04/09 10:00:10.699267491,1744185610,698861185,piren,-476.1798684975706,-300.07018268350157,2.313439453674352,0.013635489367379874,-9.313319193471952e-05,-0.03680154348478258,0.9992295587866976
2025/04/09 10:00:10.760570970,1744185610,760144606,piren,-476.1705242537705,-300.08739444873544,2.306887318022482,0.01910343230114861,-0.0008286894854022383,-0.03727789671186962,0.9991219798226799
2025/04/09 10:00:10.880152678,1744185610,878958901,piren,-476.1618842588546,-300.10794586326625,2.298199989854061,0.03134911342783245,-0.00040510914690316673,-0.03777746415984886,0.9987942391581558
2025/04/09 10:00:10.942047280,1744185610,941634046,piren,-476.15885536579697,-300.1364388768824,2.2845725049459165,-0.026766943094551136,0.0009678602603086178,-0.03897583267613043,0.998881113281802
2025/04/09 10:00:11.4290404,1744185611,3790666,piren,-476.1450999898285,-300.06673137288345,2.313174380288662,0.003967212740369799,0.0008343839326575276,-0.04086002027208273,0.9991566562706224
2025/04/09 10:00:11.123813308,1744185611,123449087,piren,-476.1358049250859,-300.06085549530974,2.3165642268357387,-0.0012514125352863388,0.0033052092820551634,-0.036959587973349896,0.9993105115103657
2025/04/09 10:00:11.242505027,1744185611,242181750,piren,-476.11926074486075,-300.04838738911843,2.322921096367559,-0.0032559169590963876,0.00036304211627493656,-0.03706063031284921,0.9993076487678816
2025/04/09 10:00:11.306449540,1744185611,303076641,piren,-476.1143187665946,-300.0368905238154,2.3284193703902765,0.016358766428119825,6.375481569069411e-05,-0.03705509620218123,0.9991793165101652
2025/04/09 10:00:11.363864830,1744185611,363507456,piren,-476.1058940743906,-300.0602285407229,2.319061921767485,0.004223791986080503,0.0004142276257629874,-0.0370529326215986,0.9993042920856848
2025/04/09 10:00:11.482676601,1744185611,482316183,piren,-476.09562260269706,-300.0599679808856,2.320226224197426,-0.03035687769285723,0.001539685120726975,-0.03809471471636138,0.998811735041769
2025/04/09 10:00:11.544471815,1744185611,543672483,piren,-476.0870495171971,-300.0013890847077,2.343683506819993,-0.027570995281921494,0.0004729898534090136,-0.03784616734842095,0.9989030403982152
2025/04/09 10:00:11.607301215,1744185611,605144565,piren,-476.08123838009243,-299.9647498788843,2.358632588044303,-0.025993187662434223,0.0014565106364079817,-0.038089223456753925,0.998935154966714
