time,header_stamp_secs,header_stamp_nsecs,header_frame_id,twist_linear_x,twist_linear_y,twist_linear_z,twist_angular_x,twist_angular_y,twist_angular_z
2025/04/09 09:59:47.303953053,1744185587,274563886,piren,-0.0016911214283938211,0.05672854318031577,0.02302654568770621,0.0007122684375707664,0.000973447209928855,0.0
2025/04/09 09:59:47.427465867,1744185587,425414675,piren,-0.00199237112819916,0.06473443687664265,0.028296310723120974,0.0008136438355433607,0.0004452193013767183,-0.0009713239239524112
2025/04/09 09:59:47.525484997,1744185587,522819768,piren,-0.0026196301119854656,0.18354451771670036,0.07519301945267487,-0.0009463798770256677,0.00010422801748614696,-0.0008127101475225539
2025/04/09 09:59:47.619170643,1744185587,616821820,piren,-0.0017528600686547765,0.028543741245948773,0.00902763235392734,0.000781608917761235,-0.0002344374595626383,-0.0008075892605734992
2025/04/09 09:59:47.713281011,1744185587,711094602,piren,-0.002263711024898079,0.14338924279004467,0.05605616746425021,-0.0009738930042342453,-0.0003374247076421459,-0.0008109633459394163
2025/04/09 09:59:47.809281826,1744185587,806305989,piren,-0.002706790424690702,-0.01023812217731565,-0.00810366176798119,0.0007772864514026444,-0.0002733300245096038,-0.0007394762710478096
2025/04/09 09:59:47.904162662,1744185587,901820165,piren,-0.0033312408971143343,0.10738089233700529,0.0408809694348227,0.000653773943274359,-0.0002511589414452592,-0.0007312802021158596
2025/04/09 09:59:47.954084294,1744185587,951941197,piren,-0.002853164129374058,0.059692982738806764,0.024818103649584203,-0.000897322087149587,-0.0003579571772569106,0.0
2025/04/09 09:59:48.3577171,1744185588,1361770,piren,-0.0008549038548154972,-0.07400775431401588,-0.03216378015550468,0.0008832836916112699,-0.00031099747761862583,-0.0008056526728276138
2025/04/09 09:59:48.100077982,1744185588,97397515,piren,-0.002326826195485559,0.06169869199557079,0.02360640041345497,0.000752866827705585,-0.00021890606033192,-0.0007660545384328202
2025/04/09 09:59:48.150727530,1744185588,147251209,piren,-0.001972228933209557,0.026455526787049266,0.012241383485571185,-0.0008107034787504812,-0.00022234133459121303,0.0
2025/04/09 09:59:48.202045625,1744185588,199138313,piren,4.4259158084820026e-05,-0.09591681425977175,-0.040396707807177426,-0.0006328771926769462,-0.0002817737144831905,-0.0007559906102885871
2025/04/09 09:59:48.249930924,1744185588,248204430,piren,0.00012712382817866072,-0.053472837719573264,-0.020042472494249855,0.0009418269852441387,0.0002663360247495466,0.0
2025/04/09 09:59:48.301946677,1744185588,299203744,piren,-0.005555414876380531,0.07814845513053123,0.03262097403214937,0.0007839562353569139,0.0004455465340330424,-0.00116069939934523
2025/04/09 09:59:48.351260869,1744185588,348683390,piren,-0.0035864749391750265,0.03875489901561204,0.018577033482509216,-0.0007736241999077342,-0.00012234270245008435,0.0
2025/04/09 09:59:48.401198891,1744185588,398007691,piren,0.0032985024563912117,-0.08743304662234538,-0.03638255898651274,-0.0005976875333665838,-0.00033463745294119967,-0.0009102006709338499
2025/04/09 09:59:48.449483693,1744185588,447772831,piren,0.0023231779292471728,-0.04699613433494949,-0.01727023536263112,0.0009631136729000459,0.00020653202904408235,0.0
2025/04/09 09:59:48.500188760,1744185588,497181153,piren,-0.004268690125945945,0.08301828805656453,0.03445935708291457,0.0007901294863240442,0.00038580602273724426,-0.001172227894835269
2025/04/09 09:59:48.551104688,1744185588,547750748,piren,-0.0029281118781001756,0.04241272667509304,0.019752356903762293,-0.0007848011132061591,-0.0001857426765245513,0.0
2025/04/09 09:59:48.600571703,1744185588,598137284,piren,0.0035582401892496228,-0.08462775980824505,-0.03564054464684802,-0.0006260635994625306,-0.0003993483694897447,-0.0008976510824142695
2025/04/09 09:59:48.650634957,1744185588,648178982,piren,0.002346480889900554,-0.0448547205230169,-0.016845861790237192,0.0009190071453856492,0.00014165127472609971,0.0
2025/04/09 09:59:48.700578673,1744185588,698736527,piren,-0.004372034367315941,0.08472805111287027,0.034693986666499144,0.0007328109078010604,0.00032617757630275663,-0.0011341785670890689
2025/04/09 09:59:48.751886561,1744185588,748792951,piren,-0.0031355208018796154,0.04382609902872911,0.01988844443250051,-0.0008523732421576716,-0.0002365340468540594,0.0
2025/04/09 09:59:48.802272323,1744185588,799401497,piren,0.0032784103590073163,-0.08347193752515511,-0.03557311553358297,-0.0007009279774180246,-0.0004384400468299967,-0.0008822608024194894
2025/04/09 09:59:48.851954468,1744185588,849894435,piren,0.0019221960994398933,-0.04121610234010393,-0.015690401316776965,0.000654297560020954,0.0003152510824021359,0.0
2025/04/09 09:59:48.950022409,1744185588,947864983,piren,0.0005962157171778338,-0.030724521303363755,-0.009927024466521824,-0.0007757989306924742,-0.00016735942352975227,-0.00575134193580774
2025/04/09 09:59:49.47772481,1744185589,44803486,piren,-0.00042935866572421644,0.012455146642014484,0.009164412518012656,0.0008057304006043944,-0.0002170566776305979,-0.0056833572555276875
2025/04/09 09:59:49.98622813,1744185589,95750660,piren,-0.001370309043977763,0.1232049287026258,0.05169631154726153,0.0006575582167953982,-0.00024315627372671636,-0.0008863103789489553
2025/04/09 09:59:49.149258017,1744185589,146449077,piren,-0.001429119368185788,0.07056611775115026,0.031102714725049396,-0.0009434716307922422,-0.00023294208028152826,0.0
2025/04/09 09:59:49.201032991,1744185589,197334123,piren,-0.0011480877677969735,-0.06367380513966042,-0.027685959640795735,-0.000801861805893554,-0.00020891889512604948,-0.0009107740646788942
2025/04/09 09:59:49.250041343,1744185589,247600428,piren,-0.001242950512187385,-0.031089985574681005,-0.01225600662926724,0.0007687103510763397,-1.96119293284054e-05,0.0
2025/04/09 09:59:49.302142891,1744185589,299362384,piren,-0.0029341686687077203,0.09250825307153729,0.03664792334840981,0.0006188158485450544,0.00014294019391458977,-0.0008461199552345719
2025/04/09 09:59:49.354405084,1744185589,350097790,piren,-0.0027292859565024303,0.04821677124150494,0.02032971597782043,-0.0009445684710687651,0.00010539386268705174,0.0
2025/04/09 09:59:49.402389304,1744185589,400405731,piren,-0.0007735866336590013,-0.0807559154615318,-0.03578158626279852,-0.0007700805543079654,8.029275705788984e-05,-0.0008880419002671471
2025/04/09 09:59:49.453231648,1744185589,450708191,piren,-0.0006511294080156992,-0.043067832514088765,-0.017806630158950097,0.0008182036509497165,0.00021264686361037718,0.0
2025/04/09 09:59:49.503423366,1744185589,500837128,piren,-0.002139982559310888,0.08430294365957716,0.03296471957830979,0.0006826772083022228,0.0003063172657785715,-0.0008472356158943626
2025/04/09 09:59:49.553874916,1744185589,551103602,piren,-0.0018836784522592686,0.042856716274172965,0.018015286802811854,-0.0008726180743756615,0.00020754261393613895,0.0
2025/04/09 09:59:49.625586396,1744185589,623013007,piren,-4.638697437273098e-05,-0.08572060914307246,-0.03783588878414024,0.0008968697455330375,0.000192606930048679,-0.0008862337171585962
2025/04/09 09:59:49.726319549,1744185589,723378379,piren,-0.0015580633993523996,0.056535487254177605,0.02008356731362062,-0.0008084161170427929,0.00037237490672814685,-0.0010236296980225084
2025/04/09 09:59:49.822173295,1744185589,819865633,piren,-0.004871589474351062,-0.07456463953540139,-0.03510198140673723,0.0010053494212681232,-0.00011504432452884234,-0.0010280212346605012
2025/04/09 09:59:49.924891200,1744185589,918977707,piren,0.0019134600198866206,0.06275429815545987,0.02215598537750181,-0.0007765934541696177,1.996565442960903e-06,-0.000744635647478936
2025/04/09 09:59:50.20083445,1744185590,17542959,piren,-0.0034630347750864198,-0.06800102012216473,-0.031924126820562795,0.0009815976299247064,-0.00043889443571596684,-0.0009780288155858835
2025/04/09 09:59:50.119853860,1744185590,117631696,piren,0.0026920720694305015,0.06717591838673807,0.024926930287743537,-0.0008367058454890547,-0.00018046427623121658,-0.0007494700262072449
2025/04/09 09:59:50.217806211,1744185590,216217986,piren,-0.003183292296125877,-0.06512544627798879,-0.0295591459704729,0.0008940960310468431,-0.0004582325626023899,-0.0010267163351136007
2025/04/09 09:59:50.319565704,1744185590,316898077,piren,0.0027091640160959614,0.06835268483141597,0.026625457796810387,-0.0009316149359479866,-4.885667666291002e-05,-0.0008809635879781516
2025/04/09 09:59:50.417208547,1744185590,414410660,piren,-0.0033275930592937255,-0.06522918635700982,-0.028490470678712902,0.0008086309567906699,-0.00020473178369155578,-0.0009950734111112834
2025/04/09 09:59:50.518058571,1744185590,515299576,piren,0.0025440667778182935,0.06798399550380062,0.02742236419379849,-0.0009443078024970112,-0.0002463308333763382,-0.0007543394757104826
2025/04/09 09:59:50.618185067,1744185590,616019115,piren,0.001582537491776598,-0.06702301070054083,-0.028572988035426558,0.0007745299222839557,6.534133197158826e-05,-0.000631068317045746
2025/04/09 09:59:50.720667541,1744185590,718623667,piren,-0.0006500601833978768,0.06866383315827997,0.028098365556381406,-0.0009596789582383284,0.00022800278082281514,-0.0007137630170645098
2025/04/09 09:59:50.822461680,1744185590,817759860,piren,0.00013512591522142918,-0.06678105144378597,-0.028238478754296435,0.0008007617580843705,0.000300714738786291,-0.0006679152106018165
2025/04/09 09:59:50.924878875,1744185590,921522769,piren,-0.0005018778390423582,0.06829234669380647,0.028072226683267074,-0.0009549527755453478,0.0008186937497462677,-0.000731157533692888
2025/04/09 09:59:51.22942390,1744185591,21188057,piren,-0.005427728462245945,-0.0654184660970258,-0.02754536982281921,0.0008666215336606561,0.00039429855927596155,-0.0010432059447668686
2025/04/09 09:59:51.123407684,1744185591,120198992,piren,0.0014510562847134083,0.06778659993719892,0.027936622856579718,-0.0008664926721324873,0.00046314730175328286,-0.000782557076544508
2025/04/09 09:59:51.223522859,1744185591,220574147,piren,-0.003978250912041553,-0.06573877605310365,-0.027680571508985147,0.0009551733552128271,-0.0001406408451033867,-0.0010412897231112952
2025/04/09 09:59:51.320677767,1744185591,318815795,piren,0.0024840304639381743,0.06739690497743146,0.027807595122796715,-0.000791665892673225,-0.0001258959436141602,-0.0007651147661847324
2025/04/09 09:59:51.418891492,1744185591,417281016,piren,-0.00339091191690401,-0.06626651563119589,-0.027804888003375945,0.0010006993181036208,-0.0006420885454502783,-0.001038037924177419
2025/04/09 09:59:51.518502242,1744185591,516352856,piren,0.0026713698249748946,0.06682548622356994,0.027732792403410603,-0.00039204912732025135,-0.001248877362981351,-0.0007209368603701507
2025/04/09 09:59:51.618424996,1744185591,615325443,piren,0.004242862383898532,-0.07031901611153439,-0.029497283295387935,0.0025024148766105217,-0.0003803051185447836,-3.7534547248331215e-05
2025/04/09 09:59:51.716665929,1744185591,714552056,piren,-0.008120071381608945,0.04735873306822218,0.020739122830924675,0.0022934333347621014,0.0014985880144094865,-0.0010587126319275303
2025/04/09 09:59:51.789824980,1744185591,786507052,piren,-0.004871011539307951,-0.09744287958965282,-0.04168298456967229,0.003674379795878163,0.0014903969125327524,0.0
2025/04/09 09:59:51.843006962,1744185591,841096508,piren,-0.0027366081307265313,-0.07626418080103571,-0.028991318607333984,0.0055880798356788206,0.0011622753875656392,-0.012410933626074825
2025/04/09 09:59:51.894352013,1744185591,892325005,piren,-0.0015310093900099356,-0.030122950023087423,-0.007376921202058431,0.004554111011766965,0.001086642782750351,-0.002112991401121663
2025/04/09 09:59:51.949700323,1744185591,947394785,piren,-0.0003744360873953749,-0.13539511360318096,-0.054951156880707466,0.00702276089372596,0.0009569572709455534,0.0
2025/04/09 09:59:52.1447149,1744185591,999066028,piren,-0.0018694983089518839,0.00900463706043414,0.005750877766205281,0.005853064404351068,0.0010183544431771854,-0.002195585730719301
2025/04/09 09:59:52.54383132,1744185592,52891186,piren,0.0036862920838301163,-0.06413700012826662,-0.024729717504292162,0.005654073544052943,0.0004177050288302442,0.0
2025/04/09 09:59:52.163008898,1744185592,159400089,piren,0.010027242184469137,-0.02726637094492612,-0.007278826946937891,0.00486384246670906,0.0003730180300471123,-0.011749954593278935
2025/04/09 09:59:52.302535179,1744185592,295948255,piren,0.015303900798744358,0.06568732837913561,0.03133496725766478,-0.00027644918327587333,0.00034986422740415375,-0.00185680036759309
2025/04/09 09:59:52.370175320,1744185592,364640154,piren,0.02233353936048828,-0.06922810282085261,-0.02912663092545542,-0.0020195454356186993,0.00029875520021895133,0.0
2025/04/09 09:59:52.478882924,1744185592,475575167,piren,0.033968603194671085,-0.15225836165495815,-0.06640716306393712,-0.0044958739078698375,-0.0005528609968316921,-0.022142444460783308
2025/04/09 09:59:52.534940858,1744185592,531850557,piren,0.044830216583568325,-0.0973005338944858,-0.03987329189038476,-0.005098942656231648,-0.0006063419066323873,-0.024729656422227648
2025/04/09 09:59:52.585859796,1744185592,583943926,piren,0.05159262210463552,0.057809238731124465,0.024883893414025804,-0.007222349150778888,-0.0007734322489702296,0.0
2025/04/09 09:59:52.639875673,1744185592,637880517,piren,0.061405306280903314,0.05081856672200051,0.024590489736379194,-0.008323938054113958,-0.00010165977512454361,-0.02596765977295323
2025/04/09 09:59:52.692144534,1744185592,690265858,piren,0.06236712102804617,-0.02168830905861792,-0.005941758940829232,-0.008414502285575809,2.954030196353328e-05,0.0
2025/04/09 09:59:52.748577424,1744185592,744124552,piren,0.07188660389588207,-0.11195006932289284,-0.04669268466355319,-0.007143395077764851,-0.0004257917058330898,-0.03312951712254976
2025/04/09 09:59:52.798082238,1744185592,796338259,piren,0.08401626863328587,0.05974012880369631,0.024759168746851613,-0.0051286661296476655,-0.00145500306110298,-0.007225989761070418
2025/04/09 09:59:52.853796341,1744185592,851363641,piren,0.09440901194807325,0.14568092746826553,0.06187481469019026,-0.00540561724387714,-0.0017257378750790502,0.0
2025/04/09 09:59:52.906821743,1744185592,903774752,piren,0.09749991497305914,0.08620480852960102,0.03984927872706038,-0.005470278727385619,-0.001844992402343254,-0.006727781963355299
2025/04/09 09:59:52.961406670,1744185592,959428137,piren,0.10419319265183717,0.05497948856113911,0.028897135580275658,-0.0026375496657934207,-0.0017033111905988137,0.0
2025/04/09 09:59:53.65804970,1744185593,63459447,piren,0.11071024901466431,0.0887713942455321,0.043569644339796765,0.00020275004778053544,-0.00135246741543148,-0.03647273412247834
2025/04/09 09:59:53.168529503,1744185593,166057002,piren,0.11690231759921503,0.054721687324990886,0.030194067494216124,0.0033530878284393053,-0.0004489819251214991,-0.03598295135882458
2025/04/09 09:59:53.269925404,1744185593,268104273,piren,0.11963990039416772,0.04197174729129077,0.02496577415998885,0.0050851663796172,0.0006233087568734245,-0.036267727944814136
2025/04/09 09:59:53.372830579,1744185593,369864969,piren,0.12174892540920142,0.0036570398923231884,0.008595749397976107,0.005301571889302164,0.00098021791636742,-0.035822774643412644
2025/04/09 09:59:53.474234940,1744185593,472386719,piren,0.12542726115275388,-0.11697050705793113,-0.046203541793450986,0.007392464131504586,0.001102972674629489,-0.03482272966512207
2025/04/09 09:59:53.576352870,1744185593,573849383,piren,0.12964482376596595,0.01658096335795564,0.007697525025015965,0.003937717027312315,0.002055078517781817,-0.03439050279754948
2025/04/09 09:59:53.676318890,1744185593,674664297,piren,0.13451327401103289,-0.06601361149032525,-0.026999133097572563,0.0017665510098265225,0.0011268891147047646,-0.03879509769159299
2025/04/09 09:59:53.777574129,1744185593,775852581,piren,0.14000405106521602,-0.037313040682192856,-0.013289409527110645,0.0011333815557892177,-1.5121621826992881e-05,-0.035342104394234804
2025/04/09 09:59:53.880327768,1744185593,878026850,piren,0.14657523329492494,-0.044006455259068364,-0.015074608850250254,-0.004599386912961151,-0.0010734514877879396,-0.04270441056617842
2025/04/09 09:59:53.983923135,1744185593,981409448,piren,0.15364860543691056,-0.08956910343340493,-0.034649964296024786,-0.004835164459853289,-0.0018536157584518455,-0.0422804871970417
2025/04/09 09:59:54.37878565,1744185594,34649329,piren,0.1580305799780489,-0.06263140708820171,-0.022238320602427347,-0.006065670683197651,-0.0020574020098448153,-0.042479625599108124
2025/04/09 09:59:54.88986082,1744185594,87107290,piren,0.16434566575758244,-0.038801492698212287,-0.01146010832718694,-0.008560376785442062,-0.0021182434457332863,0.0
2025/04/09 09:59:54.145269731,1744185594,142204332,piren,0.1693194893247436,-0.1163617150169102,-0.04678968031215454,-0.007273977345331123,-0.001101250720029319,-0.042001288771493686
2025/04/09 09:59:54.220463915,1744185594,218346089,piren,0.1680439564052903,-0.06007477557795934,-0.02155315630743551,-0.005870663856851488,-0.002061439571096745,-0.009406888365942894
2025/04/09 09:59:54.323045021,1744185594,320374646,piren,0.1873432344822958,-0.035208258934107985,-0.010106753698672007,-0.004718808621261766,-0.0006209472411764357,-0.008794555253092643
2025/04/09 09:59:54.423510199,1744185594,421817080,piren,0.18615787624412397,0.10190292611182489,0.04485376463186469,-0.0036730827260866425,0.0003268225917810485,-0.00964899422400984
2025/04/09 09:59:54.526082497,1744185594,524051888,piren,0.19522050998143634,0.06170796368510313,0.02930597278659789,-0.0006015728034926022,0.00057837279841157,-0.010133493686805852
2025/04/09 09:59:54.627237987,1744185594,625251754,piren,0.20733820022910543,0.16763985054535627,0.07025117319029327,0.0029312442778512454,0.0011624940727721913,-0.00969552320234351
2025/04/09 09:59:54.728701900,1744185594,727069336,piren,0.20772466532280298,0.09127038018709757,0.04014631834566721,0.003773218321529767,0.001680795179669799,-0.009431661912462879
2025/04/09 09:59:54.832152389,1744185594,829925117,piren,0.20681419704319517,-0.06372813567732005,-0.027843129768829432,0.006103339904981927,0.001472470860702362,-0.009323369058368627
2025/04/09 09:59:54.936261937,1744185594,932554202,piren,0.21132526883211533,-0.050853956402215725,-0.020207438802780107,0.006790572389704044,0.0012609444027419877,-0.008773600831676338
2025/04/09 09:59:54.988130465,1744185594,985835733,piren,0.210579569347692,-0.04491825830468765,-0.016362903309554387,0.005083588567012993,0.0011250168992231017,0.0
2025/04/09 09:59:55.41836996,1744185595,39965923,piren,0.20986015847965966,-0.02028171081037722,-0.00529144116593705,0.004827544866243306,0.001990830080305212,-0.04421583481871914
2025/04/09 09:59:55.95003363,1744185595,92812416,piren,0.20059595128341237,-0.005775888448579241,0.0010822145069264702,0.005213759269892918,0.0018021923827138357,-0.009392792391294312
2025/04/09 09:59:55.149746315,1744185595,147072188,piren,0.20323180700256666,-0.011637723787453029,-0.001289657836551817,0.0038728207438843555,0.001206861998798802,0.0
2025/04/09 09:59:55.203552672,1744185595,201228470,piren,0.2061500868070197,-0.12897828227473832,-0.05546094299746236,0.0014727324406395863,-0.00011453989769530104,-0.009894676569838645
2025/04/09 09:59:55.308356192,1744185595,305163452,piren,0.2144529741805854,-0.032564785741897084,-0.01350369590926604,-0.001983207247834238,-0.0003441137537888835,-0.00999369971261933
2025/04/09 09:59:55.410343041,1744185595,408646309,piren,0.21169601744577443,-0.007210679097806805,-0.0012300334555790469,-0.0035866535460304457,-0.0024920044860427416,-0.011177218133538648
2025/04/09 09:59:55.515098055,1744185595,511941471,piren,0.23239592436179912,-0.0027583549332120495,0.0020228152111306484,-0.007255768718145636,-0.003281220529673683,-0.010643442881611455
2025/04/09 09:59:55.616673577,1744185595,614390364,piren,0.23658814895020436,-0.048854548415511026,-0.017347940628268218,-0.007773303476814689,-0.002941078332760061,-0.010365573621013644
2025/04/09 09:59:55.718644477,1744185595,716272132,piren,0.24037590891512076,-0.1264019987359915,-0.052608625320966385,-0.006031010797550631,-0.0010544081434331804,-0.01044095855482175
2025/04/09 09:59:55.824859757,1744185595,821316580,piren,0.23696236026526088,-0.06698219678696653,-0.025522646565541297,-0.004620378896918401,0.00022989186376607724,-0.011091768661259346
2025/04/09 09:59:55.927964064,1744185595,926436496,piren,0.2465977759862198,-0.019191577730953147,-0.004147218098325359,-0.003261147148271486,0.001271422819180263,-0.012161105624157228
2025/04/09 09:59:56.33468671,1744185596,30412755,piren,0.25300964057109915,-0.024107593534972625,-0.006291724296208449,0.0003797152023324297,0.0018418634207730577,-0.012539584791019449
2025/04/09 09:59:56.138629027,1744185596,135319919,piren,0.2565104783497644,-0.030090759137055945,-0.00940954780735496,0.00387138929277083,0.002001273662539127,-0.01287615176193433
2025/04/09 09:59:56.191433271,1744185596,188906382,piren,0.25893939941729505,0.0025706504095069915,0.00440620865420825,0.005104632035990966,0.0018996181748415786,0.0
2025/04/09 09:59:56.247978401,1744185596,243065569,piren,0.2647591386441944,0.14348056731423645,0.05995020687430553,0.0054306528675439735,0.0017096435805272197,-0.0717041997390131
2025/04/09 09:59:56.307559701,1744185596,304313872,piren,0.2634154684155418,0.06585183375850653,0.02763155222567789,0.004423758533748768,0.0014040204710447039,-0.013011167476855821
2025/04/09 09:59:56.364782482,1744185596,361369418,piren,0.2562964647602256,-0.033541319142250295,-0.016175664243721286,0.006358549408175937,0.0005862622349325086,0.0
2025/04/09 09:59:56.555615747,1744185596,552244240,piren,0.25902375805840155,0.0044398092687061436,0.002096548886964058,0.004570959964974583,-0.0009559734590182708,-0.007639534995526473
2025/04/09 09:59:56.664644026,1744185596,662570375,piren,0.26076713745424046,0.06585353997256793,0.02911107030019643,0.001507923021959698,-0.0015022359986362449,-0.07693550186885255
2025/04/09 09:59:56.770569331,1744185596,768689866,piren,0.2611479173770475,0.07988273521677916,0.03618074098270284,0.0010179831966347908,-0.0016658663688721327,-0.07707956977754273
2025/04/09 09:59:56.879004477,1744185596,875791018,piren,0.26454564212508547,0.15927494093193678,0.06761653286904681,-0.0026623541901082495,-0.0014139563556009424,-0.07707266154455977
2025/04/09 09:59:56.986799665,1744185596,984601659,piren,0.26737062317351945,0.16297607069122938,0.06963831797995275,-0.005830574543208357,-0.0008240760519244747,-0.08109844781496914
2025/04/09 09:59:57.44418974,1744185597,41390645,piren,0.26331291413894164,0.13392467074468192,0.05840286525953806,-0.006102540212252896,-0.0003733094578711699,-0.08302781381525748
2025/04/09 09:59:57.96547922,1744185597,94852995,piren,0.26591380352883776,0.15501465648885648,0.06623436336441826,-0.0075929354511622615,6.394702644050959e-05,0.0
2025/04/09 09:59:57.154640688,1744185597,152770533,piren,0.2680544253522838,0.01808284781518532,0.008875057256545416,-0.006356271318357073,0.0009556695402688335,-0.08205651081427746
2025/04/09 09:59:57.265733277,1744185597,263299395,piren,0.27537737188963535,-0.010638784169623158,-0.0021136218401293424,-0.00579115437287669,0.0005214019511614882,-0.08620548468765162
2025/04/09 09:59:57.374435754,1744185597,372599647,piren,0.27744172716370474,-0.13526158105873937,-0.057736624118488816,-0.0016711480448918378,0.0023705411078611626,-0.07724283482964676
2025/04/09 09:59:57.484082572,1744185597,481582399,piren,0.2850978859724363,-0.06114347643442661,-0.025618860405126898,0.0006608981758845792,0.0025131325703340642,-0.08108446136376733
2025/04/09 09:59:57.591315746,1744185597,589406823,piren,0.2883532299684701,-0.055193000201688755,-0.022302663904313534,0.0027544948070916415,0.0018435403640272364,-0.090138814550868
2025/04/09 09:59:57.650811134,1744185597,643773505,piren,0.28229811230398794,-0.07610426501710199,-0.031171458195191237,0.003637382102884877,0.0011315485688500543,-0.09327060675617
2025/04/09 09:59:57.703963878,1744185597,701956250,piren,0.28464562545800604,-0.04386887389991889,-0.017271812482831238,0.0034385331165601874,-0.00036876994789245736,-0.018051360535646953
2025/04/09 09:59:57.811681737,1744185597,809510112,piren,0.28132811069972363,-0.06681009303915734,-0.027333649201250552,0.005938936841796767,-0.0017115412752081519,-0.01874250866499497
2025/04/09 09:59:57.920716701,1744185597,918214116,piren,0.2789217907803048,-0.14751215828964623,-0.06500470299562458,0.006198575211965801,-0.0026905706380742664,-0.01980813558035764
2025/04/09 09:59:58.26705686,1744185598,24328892,piren,0.2858832327104209,0.040744940475087865,0.01251083344440132,0.003853274522658074,-0.00280473896489731,-0.02031113410507892
2025/04/09 09:59:58.133445680,1744185598,131483518,piren,0.28609357000905206,0.10161427305069999,0.04057908128048544,0.0025106594072824683,-0.0020132933647055338,-0.01999962787467379
2025/04/09 09:59:58.189433419,1744185598,186932019,piren,0.2854598907862963,0.19200489860963904,0.07734238407609288,0.001072910764955989,-0.0015764621587410742,0.0
2025/04/09 09:59:58.245511669,1744185598,243105868,piren,0.28692699857247117,0.19760936696125106,0.08163531117613713,0.0002967186062190175,-0.0013868386629186105,-0.10920607043922394
2025/04/09 09:59:58.299951041,1744185598,297840832,piren,0.28618858609620457,0.15408009979832976,0.06587884577280063,-0.0010359392813631791,-0.0008008529196958363,0.0
2025/04/09 09:59:58.354075292,1744185598,352219190,piren,0.28766478960828845,0.20021861059967713,0.08335984370606672,-0.002261082067262471,-0.0011496623681967102,-0.09639922623971413
2025/04/09 09:59:58.408632444,1744185598,406966691,piren,0.30077045967122995,0.2234669261102682,0.09198390672142358,-0.005775403170333405,-0.0006257156812726104,-0.020339924475364903
2025/04/09 09:59:58.463443389,1744185598,461517705,piren,0.29177850055798427,0.1287571234774078,0.05505429487378406,-0.0059119801667415275,0.0012949146687913015,0.0
2025/04/09 09:59:58.573639256,1744185598,570657389,piren,0.2896799559470308,-0.07348327576828514,-0.03232132880662718,-0.0051144635245510325,0.002772767293943181,-0.10783573651214168
2025/04/09 09:59:58.681069504,1744185598,677797818,piren,0.29963104462126444,0.029676866310319475,0.009428196543362188,-0.006292650049483541,0.0038654980387379098,-0.10438706901101442
2025/04/09 09:59:58.734891504,1744185598,732486632,piren,0.28816249048886655,-0.11850879783182781,-0.053496023458429465,-0.005714152143317498,0.004123378665102535,-0.10900724664059884
2025/04/09 09:59:58.790694357,1744185598,788263965,piren,0.2838586252373259,-0.2054750561102991,-0.09029826373296834,-0.00307397195505179,0.0038706346212451863,0.0
2025/04/09 09:59:58.846432068,1744185598,844184950,piren,0.2900612149720471,-0.15706124572661784,-0.06693989527009676,-0.0014661463608691362,0.0032552119683758435,-0.106514406536205
2025/04/09 09:59:58.903720344,1744185598,901002707,piren,0.295304627099358,-0.12619351277112392,-0.05217031320028709,-0.0013919529189141905,0.002479452251441531,-0.022214812890907064
2025/04/09 09:59:58.959978160,1744185598,957993744,piren,0.2981689707262829,-0.08118282918708239,-0.0323854587919024,0.0004984765420687334,0.00041595259383874004,0.0
2025/04/09 09:59:59.45903883,1744185599,39948451,piren,0.3011723232865277,-0.04231564398651237,-0.01559770788125987,0.002290687735204332,-0.0006521970705174611,-0.12416449530362134
2025/04/09 09:59:59.99432368,1744185599,97159821,piren,0.3022362556434016,-0.023768379970988393,-0.007543945753420678,0.003890319729805008,-0.0016629508012919942,-0.02323680182259608
2025/04/09 09:59:59.158759204,1744185599,153992815,piren,0.2993738718446819,-0.020389613716633833,-0.00605587871580382,0.005617282763315753,-0.00260458689319426,0.0
2025/04/09 09:59:59.214041854,1744185599,211734185,piren,0.3046074631848567,0.09141552002447503,0.037782654370432885,0.005462154206097376,-0.0037630996917568257,-0.02217608170449362
2025/04/09 09:59:59.323857466,1744185599,320776066,piren,0.3112373302269587,0.17288053830779979,0.06917542875366024,0.003915651835040921,-0.003875189447720477,-0.023506819445070704
2025/04/09 09:59:59.430306717,1744185599,427678030,piren,0.3014160693473967,-0.005940038045628093,-0.005955339036182172,0.005996156663223624,-0.0029630318377911764,-0.02836762986987138
2025/04/09 09:59:59.483812516,1744185599,482057153,piren,0.3028464017849727,0.01855961981709705,0.007117206621861749,0.003923910007549177,-0.0022839959145022305,0.0
2025/04/09 09:59:59.540217425,1744185599,537966929,piren,0.3011976582382884,-0.007756157701351105,-0.0015612918720284245,0.003673785973036124,-0.001433546177161278,-0.1286632735662844
2025/04/09 09:59:59.595765912,1744185599,593617207,piren,0.3044770506413896,0.08803277571205406,0.03618516868518164,0.0016374406140018363,-0.0005408628627034829,-0.02365997129407432
2025/04/09 09:59:59.650901348,1744185599,648762367,piren,0.29966682814447254,0.0758669995545916,0.032725588714531496,-0.00017126892889655066,0.0003549827450952823,0.0
2025/04/09 09:59:59.706265931,1744185599,704133083,piren,0.297261947320976,0.03592078478009178,0.01725716673732748,-0.0012234849304062058,0.0018695370281920454,-0.023603492701866284
2025/04/09 09:59:59.815248518,1744185599,812939185,piren,0.30163366430333544,-0.009773013941912649,-0.001357793076480148,-0.004020151948309415,0.002856674675883909,-0.022984919159014097
2025/04/09 09:59:59.925580722,1744185599,923666222,piren,0.2978577145014696,-0.14052643277268537,-0.06014788494550892,-0.005266375630108647,0.0033068385054042964,-0.02247389711521896
2025/04/09 10:00:00.36225719,1744185600,34141358,piren,0.30222992611256805,-0.15707673781244003,-0.0670249172189878,-0.0042118571962642916,0.002811652425932678,-0.02165090762200994
2025/04/09 10:00:00.93200722,1744185600,91168869,piren,0.308167654874569,-0.13725284868505688,-0.05815729476051153,-0.005121021559902393,0.0022957418920867994,0.0
2025/04/09 10:00:00.151024994,1744185600,148675351,piren,0.31091678435236636,-0.1465914920080194,-0.06256878460391398,-0.004155091564613649,0.00159284990198737,-0.11000250063941251
2025/04/09 10:00:00.208628256,1744185600,206776478,piren,0.3215797336227296,-0.04525504550633734,-0.019976104784405417,-0.0031929692783051198,-2.304868625108856e-05,-0.02049290766315282
2025/04/09 10:00:00.316817382,1744185600,314451765,piren,0.32373551683062934,-0.01773773745721876,-0.007864916341384781,-0.001228444372884499,-0.0016849994729084654,-0.01968442671998593
2025/04/09 10:00:00.425217542,1744185600,423333813,piren,0.3292392469620608,-0.0007765030443805943,-0.00010942071836317954,0.0017753347749342005,-0.0032082232855931824,-0.01861469495740752
2025/04/09 10:00:00.532596285,1744185600,530928081,piren,0.3422244231031072,0.11842431383829541,0.04707524560908659,0.0023868945872918376,-0.00362205949357733,-0.01737257041573287
2025/04/09 10:00:00.589160077,1744185600,585981328,piren,0.3384530235826332,0.08688295630304316,0.03562465888685672,0.004313727149324352,-0.003491893670155446,0.0
2025/04/09 10:00:00.643449387,1744185600,641642630,piren,0.33686159488047446,0.0869876727115298,0.03670037783616443,0.0049340644718079635,-0.0031068015047566147,-0.0840272258108865
2025/04/09 10:00:00.699787765,1744185600,697219794,piren,0.33068753954562446,0.04658962431212791,0.020599309018513375,0.003962414975255374,-0.002548566304040517,-0.015044084377005494
2025/04/09 10:00:00.756338859,1744185600,754150471,piren,0.3170423347219184,-0.075470455054301,-0.03358565689557423,0.006015439063188031,-0.0008712940153680718,0.0
2025/04/09 10:00:00.866097950,1744185600,862863702,piren,0.3281360399646473,0.06353993793686646,0.0227074603074238,0.0040386449675597165,0.0009037135567846719,-0.0728558667755801
2025/04/09 10:00:00.975953662,1744185600,972119884,piren,0.3183252577500752,-0.06972906108544513,-0.03478879299463294,0.001443411309077152,0.00298956058341631,-0.05941838063325838
2025/04/09 10:00:01.83112097,1744185601,80888385,piren,0.3194656854549521,-0.11426613172102398,-0.052342342930555,0.0027606198197370592,0.002453247131044537,-0.05367303663411735
2025/04/09 10:00:01.141727732,1744185601,138860108,piren,0.320406189713276,-0.07867659637813623,-0.03513172154812856,0.0019117935808598064,0.002505707391771598,-0.05639463825383289
2025/04/09 10:00:01.197397782,1744185601,195663990,piren,0.33317154737560484,0.06437621929376297,0.023242048837220468,0.00022317355999469183,0.0023808898800556574,-0.00931261080822176
2025/04/09 10:00:01.254286153,1744185601,251825081,piren,0.3373085994386656,0.10069027666336303,0.039824886144856325,-0.002098011652803887,0.0022299447072738317,0.0
2025/04/09 10:00:01.309393694,1744185601,307436956,piren,0.34252546120242183,0.14772779362970145,0.05906176754771536,-0.005176769014435734,0.0015154424718615534,-0.008337886395286861
2025/04/09 10:00:01.440936576,1744185601,438998902,piren,0.34131379212385576,0.06221389171328161,0.024707321966722373,-0.003985441102823905,0.0002838974504003326,-0.007614533787748136
2025/04/09 10:00:01.496722547,1744185601,494901160,piren,0.3436743161681533,0.016639152784091553,0.00673904879024171,-0.005389151915704799,-0.000149049635930845,0.0
2025/04/09 10:00:01.554136375,1744185601,551019692,piren,0.34396659375979644,0.0006609991768983178,0.0007225488129100196,-0.007051403990980593,-0.0005543084473449946,-0.03471653197843534
2025/04/09 10:00:01.609347611,1744185601,607256180,piren,0.347363975943017,0.011418376644906006,0.005486921510175548,-0.005345708315910826,-0.0009862777019105093,-0.005652524743421884
2025/04/09 10:00:01.719439298,1744185601,716937687,piren,0.34600854149434773,-0.00024102130441855038,0.0007386390002521639,-0.0040578500863965835,-0.0010296304295472237,-0.004832172068511898
2025/04/09 10:00:01.829506890,1744185601,827389413,piren,0.3449514898121378,-0.007978624981569678,-0.0024924038832215695,-0.0029916138834517525,-0.00130725239955569,-0.004444712194350174
2025/04/09 10:00:01.940503303,1744185601,938135108,piren,0.3514880514053402,1.3639756980468945e-05,0.0008457402468382471,-0.0005634188643425368,-0.0010187932387195299,-0.0035403995746644368
2025/04/09 10:00:01.997511075,1744185601,995970404,piren,0.352027002125942,0.003540474578858324,0.002168318804282379,0.0009097512303189541,-0.0007377796454491657,-0.0028847162547572906
2025/04/09 10:00:02.54154567,1744185602,52191094,piren,0.350325957438963,0.009528893304059295,0.004389995343543731,0.0029783794360500626,-0.00019866700082907116,0.0
2025/04/09 10:00:02.167874064,1744185602,165584399,piren,0.34765046044208237,0.03007672907128841,0.012332128123308762,0.0038613969179364595,0.0004706499492408248,-0.01130696336966764
2025/04/09 10:00:02.278258244,1744185602,275938028,piren,0.3320422110594335,-0.0913444014643573,-0.04205663187763498,0.0037765020648082358,0.0011458141096862516,-0.007329505332625834
2025/04/09 10:00:02.388134397,1744185602,385759967,piren,0.32057853716210033,-0.15171301723967184,-0.06899690419957466,0.004250185334526073,0.00118417734711165,-0.00437601570465873
2025/04/09 10:00:02.447887022,1744185602,442864287,piren,0.31660405671723296,-0.12184653643894303,-0.0551247102341916,0.004001781569276234,0.001339964757553083,-0.0007540285259021128
2025/04/09 10:00:02.503072975,1744185602,500991659,piren,0.3216654454819944,-0.0056281536438745755,-0.006544501916935064,0.003398378299349908,0.0013013808153119208,0.00022923217932964776
2025/04/09 10:00:02.559805862,1744185602,558102237,piren,0.3194126739908823,0.02052853706209138,0.005629045802526133,0.003231388532717046,0.0009507252286036523,0.0
2025/04/09 10:00:02.671211877,1744185602,668660287,piren,0.32322059032503586,0.11606731932311051,0.04378009814639178,-0.0014264065233909958,0.00034515395683131677,0.0024204308157193886
2025/04/09 10:00:02.782106861,1744185602,780148227,piren,0.31542993255789026,0.06649904119217356,0.024810420571685865,-0.0026269861263132346,-0.0003006206493709546,0.0042646247273455925
2025/04/09 10:00:02.894452351,1744185602,892004902,piren,0.31331271937310684,0.05125981131286611,0.01965268413457245,-0.005009782493338695,-0.00043641844576300913,0.0009626142818011342
2025/04/09 10:00:02.951240881,1744185602,948955103,piren,0.30646456494105206,-0.019924540583360753,-0.009841252601457528,-0.005288298607041045,-0.0004199906747262696,0.0
2025/04/09 10:00:03.63139244,1744185603,60635320,piren,0.30590299557757117,-0.0013736906837948093,-0.001302438911734571,-0.005361985747137918,-0.00040599037431567834,0.009470280980629521
2025/04/09 10:00:03.177263264,1744185603,174924448,piren,0.30074366161857125,-0.03767441092172699,-0.016195161363702013,-0.005568681512002853,-0.00011616291880425907,0.009515494622378795
2025/04/09 10:00:03.289022248,1744185603,286617473,piren,0.2915333562220438,-0.11635171054954294,-0.051261961453604385,-0.001475183560031034,-6.455950289348069e-05,0.008608108678158867
2025/04/09 10:00:03.345791890,1744185603,343663712,piren,0.30133571758151434,0.044270484521530346,0.012999617863314078,-0.0022418246831374332,-0.00010602439559078211,0.007350374058679926
2025/04/09 10:00:03.403218021,1744185603,401569822,piren,0.29155681094239283,-0.0637780986567122,-0.032403583130673895,-0.0009302674747053637,-2.0677441555688496e-05,0.0014112935772148088
2025/04/09 10:00:03.465503386,1744185603,460738603,piren,0.289335521814928,-0.02210938603084283,-0.012114472004026811,0.0022407315256775962,0.0001234193065544514,0.0
2025/04/09 10:00:03.574572044,1744185603,572835185,piren,0.28423957688182766,2.9075207430690614e-05,-0.0008823669191199493,0.0036735996821168513,-0.0003573810423090893,0.00479774701453649
2025/04/09 10:00:03.686667594,1744185603,684005682,piren,0.2816119964990774,0.041153742118558545,0.017266179959826853,0.003698900544093723,-0.00021232415608158216,0.004547720965735459
2025/04/09 10:00:03.743983467,1744185603,741892886,piren,0.2651081939858612,-0.05674034066582859,-0.02551168578282677,0.004737998752109096,-0.00020195814155441749,0.0051636862563543846
2025/04/09 10:00:03.801453847,1744185603,798957485,piren,0.257180239055924,-0.08043984083715255,-0.03494292413461593,0.0051155681277504205,-0.0003277641225747996,0.0
2025/04/09 10:00:03.913101644,1744185603,911384660,piren,0.25330753835801245,-0.019878907503016283,-0.008485008451038705,0.003973430457206652,0.0001559623951995947,0.001083968139314512
2025/04/09 10:00:03.996772951,1744185603,992085770,piren,0.2432549300974186,-0.050205574223627966,-0.02154077063219169,0.0031318630010269684,0.00030117187445304923,0.0006806973465756918
2025/04/09 10:00:04.51623244,1744185604,49882040,piren,0.23280006825934818,-0.09370784817278943,-0.041411379134512455,0.0007001377617428434,-2.9816050611044487e-05,0.0
2025/04/09 10:00:04.166778017,1744185604,164430028,piren,0.23592224433809844,-0.003515870657110995,-0.0025195148042344295,-0.0013547313963581467,0.00017307102796757222,0.0032608730573657927
2025/04/09 10:00:04.278132431,1744185604,276241926,piren,0.23284904872607495,0.053133613061800145,0.02176740765718911,6.345500450595446e-05,0.00037044829677858906,0.0046930261886805906
2025/04/09 10:00:04.336433449,1744185604,334369506,piren,0.23672364823896697,0.16428329388045315,0.06567024380399986,-0.002340545074094666,0.00033781305494016625,0.0036784042906392784
2025/04/09 10:00:04.394398574,1744185604,392353357,piren,0.24117161775584445,0.2505049484762822,0.09870913652954862,-0.004208736795927148,-2.853537646842209e-05,0.0
2025/04/09 10:00:04.453225475,1744185604,450638821,piren,0.23627883455878854,0.19184788465904606,0.07692359045957055,-0.00430134383376715,-1.5193450113961772e-05,0.0036417428697504126
2025/04/09 10:00:04.510725631,1744185604,508804046,piren,0.2284900102724803,0.13495609670153502,0.055010202272165507,-0.005104482420126679,-0.0002896497730398326,0.0011630618939474746
2025/04/09 10:00:04.624352047,1744185604,620485630,piren,0.22336994769457286,0.09445414281667586,0.03925732932727706,-0.0053997118737034965,-0.00045730727579768293,0.001968052088625069
2025/04/09 10:00:04.735132907,1744185604,733050880,piren,0.21656525783009764,0.0716383388785744,0.030113894742862128,-0.0028771236897605413,0.0004002336541326023,0.0025074174080534414
2025/04/09 10:00:04.792446528,1744185604,790279380,piren,0.208049141333049,0.03879435302542338,0.016692731940984598,-0.0018810585398698295,0.0008058091133474207,0.0
2025/04/09 10:00:04.851126044,1744185604,849036617,piren,0.20137881351038212,0.015271822212389503,0.006927644047118035,-0.0013185488520600333,0.0008134209765342577,0.012810659452535586
2025/04/09 10:00:04.908795662,1744185604,906078800,piren,0.20065040560029937,0.006336740211463672,0.0031604346558337815,0.000222066662299581,0.0009985687872742083,0.0027017355245475797
2025/04/09 10:00:04.967789634,1744185604,964434495,piren,0.19438677149669256,0.0037259823322984232,0.0015860593727107066,0.0033078725974949176,0.0012373879864001729,0.0
2025/04/09 10:00:05.78478920,1744185605,76540159,piren,0.1960126276749632,0.09933486253344204,0.03674007300288751,0.004293798944418406,0.0006869722834242607,0.013207877588716829
2025/04/09 10:00:05.137496063,1744185605,134855703,piren,0.18665008232374003,0.030929405585902764,0.0095746464520341,0.004037352426143755,0.0005920016491869856,0.01588063256114461
2025/04/09 10:00:05.195331929,1744185605,192820390,piren,0.18068284075511637,0.01021764217071,0.0017661668776244128,0.00469773233205626,0.0004312906140886399,0.0
2025/04/09 10:00:05.251903271,1744185605,250165715,piren,0.17271118858388926,-0.03770833262246919,-0.01770433947862186,0.004949295471645714,-0.00045233072354700494,0.016214967479998236
2025/04/09 10:00:05.366551058,1744185605,364687298,piren,0.17042059995387698,-0.03488649041782987,-0.016000174751341006,0.005096852237249527,-0.0002545591520247846,0.017623078137952164
2025/04/09 10:00:05.479549722,1744185605,477593605,piren,0.17128994522895463,0.07870412068677984,0.02718079207863711,0.0024330949590196296,-0.0005749146076470297,0.01791550197290682
2025/04/09 10:00:05.594852945,1744185605,590032429,piren,0.13918273001818288,-0.17254235762593445,-0.07910903270017733,0.0009089474151952673,-0.0007907006934745178,0.01736009573625458
2025/04/09 10:00:05.650321471,1744185605,648162881,piren,0.13972090656598066,-0.11432829418549764,-0.05153807870315048,-0.0010280576259689988,-0.0010873854615045515,0.01705666568326331
2025/04/09 10:00:05.709394917,1744185605,706178748,piren,0.14101999339668492,-0.08992731850994451,-0.03897052427832413,-0.0011803366390341116,-0.0012674328449713097,0.003825885993676964
2025/04/09 10:00:05.821881237,1744185605,819861831,piren,0.1392996946452511,-0.0400874873297652,-0.016755542848448848,-0.003394084335105064,-0.000497627846575222,0.004048068488540998
2025/04/09 10:00:05.937451851,1744185605,933952480,piren,0.14098105981397546,-0.00572562524953347,-0.000564619505802136,-0.003630631360373225,-0.0001187287906224673,0.0035735693016226114
2025/04/09 10:00:05.995876375,1744185605,993258350,piren,0.14631868381816254,0.11292370901041983,0.04502662668487204,-0.00529896653616931,6.843663131134565e-05,0.0035797744115303987
2025/04/09 10:00:06.54327425,1744185606,51328839,piren,0.13453706218242567,-0.03610194093307649,-0.018423274857815163,-0.00344273149673963,0.0003998907630012278,0.0
2025/04/09 10:00:06.169743228,1744185606,167048949,piren,0.14182456204639474,0.0906346381054846,0.03257606554428762,-0.0019024470214842023,0.00016786028441424775,0.019325650242076234
2025/04/09 10:00:06.282374798,1744185606,280119758,piren,0.14721420706819097,0.15973035294705373,0.06097828247519445,-0.0010616770196298661,0.0011096931422620714,0.020704410419755112
2025/04/09 10:00:06.341263569,1744185606,338406498,piren,0.1450819599890563,0.20868365132018885,0.08037014888778188,0.0015537619197099266,0.000850223303738385,0.021075618599889254
2025/04/09 10:00:06.399165213,1744185606,397268142,piren,0.14640627565145203,0.2097489127761492,0.0820696988162711,0.0005457841177164608,0.0007957815661547501,0.003921651492473979
2025/04/09 10:00:06.480028662,1744185606,478050875,piren,0.12542507863417976,-0.017924055032244646,-0.012111698326681394,0.0034971911297515187,-0.0016769935633515537,0.0
2025/04/09 10:00:06.593227626,1744185606,591220645,piren,0.1320433784461782,0.036791387342873426,0.01299220678145532,0.0037912369616593055,-0.0023907394438206307,0.02963429977205599
2025/04/09 10:00:06.651992360,1744185606,650131913,piren,0.131002260596051,0.10351971042405247,0.04006205636868203,0.004200061853212528,-0.00043543274473227474,0.04389446212316302
2025/04/09 10:00:06.767638244,1744185606,765763344,piren,0.10990197809478539,0.018192063021479132,0.008738221032679981,0.004131636242662895,0.0033570840014638227,0.04470933238950066
2025/04/09 10:00:06.882995504,1744185606,880950559,piren,0.08256622897224568,-0.14151669807342832,-0.05878697029769752,0.003972832398833764,0.0018383658745510995,0.030543298773043404
2025/04/09 10:00:06.941925582,1744185606,939455792,piren,0.09482696181571534,-0.135744424073573,-0.0532923556487661,0.0033833988405016554,0.0014365977094863032,0.027533729353794514
2025/04/09 10:00:07.359229,1744185606,998285521,piren,0.08881575488417164,-0.09219757095788728,-0.03424338635962036,0.0022753386933078135,0.0018139053184004082,0.006339644372674765
2025/04/09 10:00:07.59187240,1744185607,57017537,piren,0.08378186128679752,-0.08080911917832045,-0.028989536707807902,5.361931286792658e-05,0.0018823927412949912,0.0
2025/04/09 10:00:07.174404626,1744185607,172439709,piren,0.08174163059243235,-0.04694414541013421,-0.01531933383978816,-0.0012511402160087222,0.0017076785961753045,0.02708159268821359
2025/04/09 10:00:07.290343518,1744185607,288296889,piren,0.0790928579751833,-0.04914849006490832,-0.01650662841439909,-0.0016075801471526706,0.00032490233539997826,0.021315573799929655
2025/04/09 10:00:07.350580194,1744185607,347922558,piren,0.08340848100460768,-0.06293978959620282,-0.02231506504541065,-0.0022952565077530374,-0.000501254909180966,0.015524360426912347
2025/04/09 10:00:07.410457809,1744185607,408185041,piren,0.09001713569805339,0.003103428672511732,0.003913547707198584,-0.0047623378696810366,-0.0022943980424203693,0.0032871469620144437
2025/04/09 10:00:07.528373347,1744185607,526377612,piren,0.09262614400722646,-0.0028334168647688,0.002054977927664804,-0.0036810218347858347,-0.0035614752493957746,0.002652433882463606
2025/04/09 10:00:07.646210225,1744185607,642089709,piren,0.0921020193048205,-0.02140870649227501,-0.004952338975249535,-0.00398737912950687,-0.0037032731099097883,0.0025634876836423456
2025/04/09 10:00:07.705615444,1744185607,701114918,piren,0.08241341361758692,-0.1386860720112053,-0.05676835078228505,-0.002497252656747582,-0.003503964979968751,0.0024840095575339688
2025/04/09 10:00:07.764310821,1744185607,762459108,piren,0.08108330292675396,-0.1580393530634409,-0.06388623572786768,-0.0009936312708607301,-0.002252420347868838,0.0
2025/04/09 10:00:07.879143975,1744185607,877380661,piren,0.08419509417426503,-0.09933442581736918,-0.03757848672169905,0.0006915472333827471,-0.00022159114671604837,0.01023728284347404
2025/04/09 10:00:07.939615191,1744185607,937419589,piren,0.08479637317323045,-0.05847878613049025,-0.019441995158752105,-0.000232725833946271,0.0003426543536279519,0.03856048036706449
2025/04/09 10:00:07.999097169,1744185607,996678671,piren,0.08077716847456008,-0.12471147080746041,-0.049161967864516626,0.0027226572013004315,0.0008437982099652709,0.0006368214112600515
2025/04/09 10:00:08.60723737,1744185608,56966884,piren,0.08529317204861377,-0.06882729981134608,-0.024552580928795593,0.003325790513446151,0.001647041012598819,0.0
2025/04/09 10:00:08.176335758,1744185608,173762453,piren,0.08531157586535278,-0.020147633714077448,-0.0038112236447863414,0.004163389898142784,0.0023827722753079973,0.003010030799291728
2025/04/09 10:00:08.290053091,1744185608,288246007,piren,0.0924082453142089,0.1295934793384277,0.054099103169256896,0.0039284756052297715,0.0021151613698154052,0.0005852955966181567
2025/04/09 10:00:08.348490613,1744185608,346779299,piren,0.08740115311170461,0.09997225470160634,0.043296048168150705,0.003998510176082093,0.0018665827627440481,6.10552664828395e-05
2025/04/09 10:00:08.407386651,1744185608,405717682,piren,0.077611039215162,-0.0008561649150123501,0.0003754353627853438,0.0020780259586499795,0.000808847709856508,8.31792401217443e-05
2025/04/09 10:00:08.528247826,1744185608,521974183,piren,0.07841966737569214,-0.10216462832586323,-0.04420953459769463,0.0013964833403082681,-3.608833742787774e-05,0.0005262858841072485
2025/04/09 10:00:08.642065498,1744185608,639285270,piren,0.07278650387379434,-0.05442601408121839,-0.02185045751445407,-0.0002268282303009478,-0.0004039719520864104,0.00016964722637447847
2025/04/09 10:00:08.703008144,1744185608,699238603,piren,0.07296933239313125,-0.022426745355141914,-0.006718838591642885,-0.00213627845064587,-0.0008157906565759746,-0.00031196323646032415
2025/04/09 10:00:08.762659214,1744185608,758879665,piren,0.06683902067779832,-0.10492431903517166,-0.043766158809328236,-0.002778961763856418,-0.0007927428380411023,0.0
2025/04/09 10:00:08.879126724,1744185608,875763182,piren,0.07061553421017357,-0.024570472633013138,-0.007763316688062849,-0.002610107009354214,-0.001413465927690161,-0.004347236460033241
2025/04/09 10:00:08.994425159,1744185608,992308552,piren,0.07878873424388053,0.05039882208511705,0.02501130170595034,-0.00253987113323606,-0.0013277795498007818,-0.006957918182603153
2025/04/09 10:00:09.56132874,1744185609,52307336,piren,0.08865942561778843,0.1595291186151372,0.06878922064492757,-0.003584742524580989,-0.0013884476008911408,-0.00975189767376952
2025/04/09 10:00:09.136716045,1744185609,134643690,piren,0.08691592019617907,0.10753433427985334,0.04939613914594704,-0.0013242676263507415,-0.001187271639895676,-0.0020576808388743056
2025/04/09 10:00:09.200572701,1744185609,196676106,piren,0.0919822996543187,0.16884474929788673,0.07375495609208281,-9.18235742100843e-05,-0.0009662345602358386,0.0
2025/04/09 10:00:09.259187658,1744185609,257650238,piren,0.094801256456685,0.19781334390377203,0.08528010413747703,-0.0010678022566253166,-0.0016404308889510764,-0.010795441796734242
2025/04/09 10:00:09.321580553,1744185609,318724884,piren,0.09816294459674259,0.10262036458652808,0.04812329293425167,0.0004971865873193493,-0.001826284995817856,-0.0013532555599573028
2025/04/09 10:00:09.440551513,1744185609,437794553,piren,0.10831923082537263,0.15496664515176242,0.06746447144739585,0.0014089423420301347,-0.0017244205413017803,0.0001883737305866798
2025/04/09 10:00:09.501824819,1744185609,498505703,piren,0.09577373035876893,-0.05073544612846481,-0.02036541094181009,0.0006516707438292757,-0.0009973116098287347,0.001856691173482101
2025/04/09 10:00:09.561533874,1744185609,559384275,piren,0.07744056498404438,-0.16043899532028255,-0.06644677107815417,0.005121951700683601,0.0036419543810490653,0.0
2025/04/09 10:00:09.684757972,1744185609,678083698,piren,0.07079464051807895,-0.02011987023420253,-0.008253289096412555,0.002519097937449576,0.00645123377590557,0.002773246189839193
2025/04/09 10:00:09.799768208,1744185609,796628249,piren,0.059907054836457745,-0.12516376019825648,-0.05280268428688023,0.005370276199655469,0.005711002825829033,-0.013262368207235763
2025/04/09 10:00:09.859492362,1744185609,857615216,piren,0.0725906351628962,0.015750197185661896,0.00591374879643803,0.003127361536492335,0.0033430295941883677,-0.020192759543407622
2025/04/09 10:00:09.977694002,1744185609,975825650,piren,0.07398198346677394,-0.0007660251823380475,0.002094032091148053,0.0020914378743187158,0.00037386984895208705,-0.021318705824850803
2025/04/09 10:00:10.96957153,1744185610,94239307,piren,0.07583266427682223,-0.0177621064452068,-0.0027400808208854076,-1.46251499401866e-05,-0.0037984329698621967,-0.021875985885838306
2025/04/09 10:00:10.156874316,1744185610,154167448,piren,0.08370445916343645,0.0958171055108324,0.04240127869088988,-0.0004909793210541928,-0.00459452344888455,-0.017238775275019918
2025/04/09 10:00:10.216502405,1744185610,214211564,piren,0.08684192505970689,0.15593463630702906,0.06685800960476188,-0.0037628528911017155,-0.005870592192040373,-0.003527508292979738
2025/04/09 10:00:10.336589595,1744185610,334164512,piren,0.07682986336894804,-0.03373109836452379,-0.011816083374308423,-0.0023648228453294106,-0.0070347039037952155,-0.003720549575504552
2025/04/09 10:00:10.398009155,1744185610,395738629,piren,0.08835759164826389,-0.041722341570630234,-0.010661386563801872,-0.004066709057622051,-0.006589282414627492,0.0
2025/04/09 10:00:10.460314193,1744185610,457459938,piren,0.08655410398005163,-0.05461994759848487,-0.01314398624903899,-0.0051617290420105065,-0.003997568989933677,-0.01369656816433108
2025/04/09 10:00:10.580882631,1744185610,578410021,piren,0.07910734021470464,-0.16203196546648532,-0.0599158020427166,-0.003019891834523929,0.0017169723922136546,-0.011818575227168572
2025/04/09 10:00:10.701359809,1744185610,698861185,piren,0.07519127982895928,-0.11912321569416226,-0.04059086908202165,-0.0009594652864171661,0.004236020445976087,-0.019949091894797186
2025/04/09 10:00:10.762217727,1744185610,760144606,piren,0.07899845240644911,-0.1305068676272639,-0.04599739367083597,-0.0014715710802999174,0.006402081361857537,-0.025666950254478474
2025/04/09 10:00:10.883559420,1744185610,878958901,piren,0.08045749620482613,-0.14686953657833318,-0.05497349029532412,0.0009751261483556084,0.0048522956763344454,-0.03152336715369581
2025/04/09 10:00:10.944378787,1744185610,941634046,piren,0.07987973000504073,-0.19685331590671912,-0.0802667952797859,0.0032863270780938672,0.0044249392702364635,-0.1337740070678423
2025/04/09 10:00:11.6785248,1744185611,3790666,piren,0.09199425797237357,0.0035619993495857594,0.0018495552122550635,0.003998202341226081,0.002735153804816488,-0.005047120726479258
2025/04/09 10:00:11.125894562,1744185611,123449087,piren,0.09202803391613062,0.015822814511329934,0.008968978581568856,0.0031641162254061475,-0.0006117185075780336,-0.0053500557131009804
2025/04/09 10:00:11.245526088,1744185611,242181750,piren,0.10819603794766383,0.0399911020409946,0.021089333322911463,0.003145481001313191,-0.002663634862876525,-0.004445068112696894
2025/04/09 10:00:11.306406942,1744185611,303076641,piren,0.10714973318640635,0.06109614044016788,0.030964271534098718,0.0026698384071256903,-0.003347043660352485,-0.004166524089497077
2025/04/09 10:00:11.365539384,1744185611,363507456,piren,0.10190417328176384,-0.004436853981860542,0.003241870391434056,0.003496836962879421,-0.0041529424410329105,0.0
2025/04/09 10:00:11.485283133,1744185611,482316183,piren,0.1018936191082955,-0.0028633884988720744,0.005102933668801648,0.0013876140156173322,-0.0038996267828828026,-0.023726769329607524
2025/04/09 10:00:11.547077541,1744185611,543672483,piren,0.10933942203064337,0.12766591673639602,0.056659915066019785,0.001457145805622144,-0.00310984296330138,-0.02478033839969102
2025/04/09 10:00:11.607280851,1744185611,605144565,piren,0.11013745950531277,0.1949512445345136,0.08360623656887387,0.001173082216749361,-0.002435083320789213,-0.005066558788969537
2025/04/09 10:00:11.669240051,1744185611,666637052,piren,0.11507847740476766,0.2166396082633583,0.09267843721881613,-0.002562684265918519,-0.0009330478975631426,0.0
2025/04/09 10:00:11.753517568,1744185611,751437817,piren,0.10281632491964932,0.004420659760035112,0.002814908576842856,-0.0036793946119203394,0.0002134710378088004,-0.02753677410323083
2025/04/09 10:00:11.874111551,1744185611,870886596,piren,0.10851148209676442,0.03350782294601237,0.01754932084435541,-0.003121757426378148,0.0022158521749917975,-0.026292683845294887
2025/04/09 10:00:11.994836536,1744185611,992191811,piren,0.10908037694421158,-0.012641265882621093,0.00044753953785086134,-0.0029464185747468865,0.004544010297896783,-0.024724066851187682
2025/04/09 10:00:12.54885252,1744185612,52997947,piren,0.11546388538686163,0.032855167834395675,0.019260494324993504,-0.0013812317722206452,0.004668143563466605,-0.030386266234984846
2025/04/09 10:00:12.120039125,1744185612,114773867,piren,0.12348866646639156,0.0880553627895552,0.040273244288176246,-0.0014104639836158425,0.004107879545419049,-0.0061631239722345485
2025/04/09 10:00:12.237226675,1744185612,234044492,piren,0.12111955672216912,0.025968862077206778,0.015417652563098974,-0.00013737456591769712,0.002642300624621815,-0.006106618793769242
2025/04/09 10:00:12.302515591,1744185612,296289446,piren,0.12909449589146765,0.08727837346509665,0.0382187239442813,-0.00020902654942113634,0.0016878621877355828,0.0
2025/04/09 10:00:12.360751625,1744185612,358474683,piren,0.12426406318800196,-0.004421840171107694,0.0015464237297328903,0.0008960251773850166,-0.00031697118642163224,-0.03351265596132756
2025/04/09 10:00:12.482925588,1744185612,479851500,piren,0.11848970795695073,-0.09224094454630169,-0.03454882714756887,0.0023635247478122905,-0.0017859781861515212,-0.03347209121720047
2025/04/09 10:00:12.607185254,1744185612,605026232,piren,0.12823486987026605,0.022781029143698173,0.010858670079832572,0.0036846381010009954,-0.0037347978996171366,-0.004155451049674884
2025/04/09 10:00:12.731605088,1744185612,727984589,piren,0.1270713945670648,0.08837821534207257,0.0373074849454073,0.003304827566735073,-0.0049239129082245805,-0.007548511447038188
2025/04/09 10:00:12.791926020,1744185612,789531373,piren,0.13132550947116195,0.008494212383766422,0.007959474875484925,0.0027731501621743124,-0.004953154852729988,0.0
2025/04/09 10:00:12.854368725,1744185612,852081493,piren,0.12655106864281132,-0.007778764751174023,0.0033378032918114225,0.0031601439112852393,-0.004368588969464836,-0.03244774460780891
2025/04/09 10:00:12.916768853,1744185612,914683291,piren,0.12553957322920703,0.015276815769175368,0.013425594275306348,0.0005542786183205793,-0.0024676132435740373,-0.006594400361624722
2025/04/09 10:00:13.38740622,1744185613,36718010,piren,0.11947034226441226,-0.031869888190931235,-0.004875696343169015,0.00015651308390788536,-0.00013755983893502425,-0.006590637828709296
2025/04/09 10:00:13.100493926,1744185613,98548682,piren,0.1075965584595904,-0.19076688716309026,-0.07559939385132007,-0.001820844700244545,0.0010450835859245086,0.0
2025/04/09 10:00:13.161834710,1744185613,160053146,piren,0.10390078650675585,-0.25987350198470255,-0.10615400443365718,-0.001394771570029033,0.0035698624502591004,-0.03584460871522596
2025/04/09 10:00:13.282520690,1744185613,280821647,piren,0.11418603174779472,-0.18834419828121995,-0.07391421659286063,-0.0023229129915977634,0.005637177274203743,-0.03206438611736286
2025/04/09 10:00:13.347064941,1744185613,342463504,piren,0.12176936134651423,-0.1329123484848877,-0.049525741014094495,-0.0022365839188517836,0.00545461327289045,-0.045073194441293776
2025/04/09 10:00:13.406584237,1744185613,404375644,piren,0.13967407095578874,0.028680598953860825,0.014762628886593167,-0.003515265595461111,0.0042494571031893875,-0.008854251257848706
2025/04/09 10:00:13.527351688,1744185613,525529186,piren,0.1426878046759155,0.024249262848434372,0.014148883210086784,-0.0028987740602124945,0.0012794179509663074,-0.008784459356182424
2025/04/09 10:00:13.592431677,1744185613,588301865,piren,0.14625919478944505,-0.06791678589620445,-0.02576269953247714,-0.0009535707505143506,-2.9938495932766604e-05,0.0
2025/04/09 10:00:13.653032520,1744185613,651035910,piren,0.1548132317141606,0.0426165881217004,0.0198069674447576,-0.00222829477947681,-0.001067886977903456,-0.041500941888971715
2025/04/09 10:00:13.716052386,1744185613,714123187,piren,0.1526107158949342,0.028499182524365233,0.015798815718607768,-0.001001642489648072,-0.0025697303186129304,-0.007117684804042191
2025/04/09 10:00:13.837569011,1744185613,835339695,piren,0.14676234882681435,0.016853454751753955,0.012308718673370462,6.419289114365805e-05,-0.00451021094252176,-0.007426832335272216
2025/04/09 10:00:13.900507360,1744185613,898154692,piren,0.1446475874111909,-0.10585855821955177,-0.04169296797713973,0.002466538775094577,-0.004915342636694331,0.0
