time,header_stamp_secs,header_stamp_nsecs,header_frame_id,twist_linear_x,twist_linear_y,twist_linear_z,twist_angular_x,twist_angular_y,twist_angular_z
2025/04/09 09:59:47.303958985,1744185587,274563886,piren,-0.0014031211862849842,0.05681205755989104,0.022839235453551657,0.0007122684375707664,0.000973447209928855,0.0
2025/04/09 09:59:47.427471585,1744185587,425414675,piren,-0.0016777256939993382,0.0629426339935302,0.032103085886564194,0.0008136438355433607,0.0004452193013767183,-0.0009713239239524112
2025/04/09 09:59:47.525490914,1744185587,522819768,piren,-0.001732011900896968,0.18750320654924882,0.06472240947859537,-0.0009463798770256677,0.00010422801748614696,-0.0008127101475225539
2025/04/09 09:59:47.619176618,1744185587,616821820,piren,-0.0016129787119859185,0.02796392835451308,0.010711341620543002,0.000781608917761235,-0.0002344374595626383,-0.0008075892605734992
2025/04/09 09:59:47.713291546,1744185587,711094602,piren,-0.001538242192168267,0.14631049286328277,0.04794545583627502,-0.0009738930042342453,-0.0003374247076421459,-0.0008109633459394163
2025/04/09 09:59:47.809288176,1744185587,806305989,piren,-0.0027547880531599645,-0.009723225015426846,-0.008699725987192045,0.0007772864514026444,-0.0002733300245096038,-0.0007394762710478096
2025/04/09 09:59:47.904174208,1744185587,901820165,piren,-0.002809827280334776,0.10752875719978121,0.04052996561387916,0.000653773943274359,-0.0002511589414452592,-0.0007312802021158596
2025/04/09 09:59:47.954430423,1744185587,951941197,piren,-0.0025789321002159726,0.06102294003521964,0.021374772542569843,-0.000897322087149587,-0.0003579571772569106,0.0
2025/04/09 09:59:48.3637312,1744185588,1361770,piren,-0.0012187022898203143,-0.07193555972141948,-0.03655375938793749,0.0008832836916112699,-0.00031099747761862583,-0.0008056526728276138
2025/04/09 09:59:48.100215625,1744185588,97397515,piren,-0.0020345029967848904,0.06178700521002533,0.02340153070465805,0.000752866827705585,-0.00021890606033192,-0.0007660545384328202
2025/04/09 09:59:48.150732228,1744185588,147251209,piren,-0.0018563188995671868,0.027118995133777055,0.01071215371731433,-0.0008107034787504812,-0.00022234133459121303,0.0
2025/04/09 09:59:48.202054424,1744185588,199138313,piren,-0.0003945860978648736,-0.09565451734303988,-0.04101205715343415,-0.0006328771926769462,-0.0002817737144831905,-0.0007559906102885871
2025/04/09 09:59:48.249947482,1744185588,248204430,piren,-0.00017413676559380558,-0.052161333212717986,-0.023242767300666715,0.0009418269852441387,0.0002663360247495466,0.0
2025/04/09 09:59:48.301953616,1744185588,299203744,piren,-0.005199345910598691,0.07828264410958763,0.03235685482022489,0.0007839562353569139,0.0004455465340330424,-0.00116069939934523
2025/04/09 09:59:48.351540554,1744185588,348683390,piren,-0.0034629016233471113,0.03977298670308686,0.016310395895654455,-0.0007736241999077342,-0.00012234270245008435,0.0
2025/04/09 09:59:48.401205162,1744185588,398007691,piren,0.0029121482751702323,-0.08721190669948033,-0.036941996166851676,-0.0005976875333665838,-0.00033463745294119967,-0.0009102006709338499
2025/04/09 09:59:48.449507879,1744185588,447772831,piren,0.002064820772875831,-0.04587502358817633,-0.02008764679001499,0.0009631136729000459,0.00020653202904408235,0.0
2025/04/09 09:59:48.500195386,1744185588,497181153,piren,-0.0039001176997580183,0.0831522772218387,0.034178838958519434,0.0007901294863240442,0.00038580602273724426,-0.001172227894835269
2025/04/09 09:59:48.551120252,1744185588,547750748,piren,-0.0027961541614250256,0.043488496028931276,0.017277183262546014,-0.0007848011132061591,-0.0001857426765245513,0.0
2025/04/09 09:59:48.600578000,1744185588,598137284,piren,0.0031951621649825594,-0.08441223986421034,-0.03618192816831157,-0.0006260635994625306,-0.0003993483694897447,-0.0008976510824142695
2025/04/09 09:59:48.650652427,1744185588,648178982,piren,0.002104934062684191,-0.04376290169814254,-0.019534909080179026,0.0009190071453856492,0.00014165127472609971,0.0
2025/04/09 09:59:48.700731997,1744185588,698736527,piren,-0.004005900306736925,0.08486270787853785,0.034407900473057154,0.0007328109078010604,0.00032617757630275663,-0.0011341785670890689
2025/04/09 09:59:48.751897387,1744185588,748792951,piren,-0.0030026747026832374,0.04490788655094627,0.017331310939362236,-0.0008523732421576716,-0.0002365340468540594,0.0
2025/04/09 09:59:48.802278401,1744185588,799401497,piren,0.002930823207327851,-0.08325518421296298,-0.03610738780975542,-0.0007009279774180246,-0.0004384400468299967,-0.0008822608024194894
2025/04/09 09:59:48.851960114,1744185588,849894435,piren,0.001744849780520493,-0.04127663382710933,-0.015551386516394306,0.000654297560020954,0.0003152510824021359,0.0
2025/04/09 09:59:48.950028273,1744185588,947864983,piren,0.00048433982762089193,-0.030662079632022658,-0.010124217739265966,-0.0007757989306924742,-0.00016735942352975227,-0.00575134193580774
2025/04/09 09:59:49.47875924,1744185589,44803486,piren,-0.00038615718798273087,0.011888751257648893,0.00988989179405646,0.0008057304006043944,-0.0002170566776305979,-0.0056833572555276875
2025/04/09 09:59:49.98628598,1744185589,95750660,piren,-0.0009250339898744079,0.12337789430988147,0.051292107958865726,0.0006575582167953982,-0.00024315627372671636,-0.0008863103789489553
2025/04/09 09:59:49.149263575,1744185589,146449077,piren,-0.001173376423150021,0.07221224022234132,0.02707422703875404,-0.0009434716307922422,-0.00023294208028152826,0.0
2025/04/09 09:59:49.201038898,1744185589,197334123,piren,-0.0014002618027423239,-0.06348887080332062,-0.028096022471531888,-0.000801861805893554,-0.00020891889512604948,-0.0009107740646788942
2025/04/09 09:59:49.250064718,1744185589,247600428,piren,-0.0013748415525861105,-0.030291199823342177,-0.014103008596533587,0.0007687103510763397,-1.96119293284054e-05,0.0
2025/04/09 09:59:49.302148816,1744185589,299362384,piren,-0.0025586326251810024,0.09263961538844004,0.03634297150270189,0.0006188158485450544,0.00014294019391458977,-0.0008461199552345719
2025/04/09 09:59:49.354510891,1744185589,350097790,piren,-0.0025485332341937204,0.04930710211547355,0.017547593620075092,-0.0009445684710687651,0.00010539386268705174,0.0
2025/04/09 09:59:49.402400969,1744185589,400405731,piren,-0.0010814952595378025,-0.08052068754196828,-0.03629996528323754,-0.0007700805543079654,8.029275705788984e-05,-0.0008880419002671471
2025/04/09 09:59:49.453242340,1744185589,450708191,piren,-0.0008271421200098436,-0.041916522625426424,-0.02036318274461625,0.0008182036509497165,0.00021264686361037718,0.0
2025/04/09 09:59:49.503429502,1744185589,500837128,piren,-0.0018103442142520893,0.08441947240956038,0.03268507157431347,0.0006826772083022228,0.0003063172657785715,-0.0008472356158943626
2025/04/09 09:59:49.553887358,1744185589,551103602,piren,-0.0017285869199279147,0.04381986092964404,0.01554441083704833,-0.0008726180743756615,0.00020754261393613895,0.0
2025/04/09 09:59:49.625593449,1744185589,623013007,piren,-0.00038113596198318035,-0.08329127469571458,-0.04291850135592014,0.0008968697455330375,0.000192606930048679,-0.0008862337171585962
2025/04/09 09:59:49.726325342,1744185589,723378379,piren,-0.0013058765220471552,0.05758681123849265,0.01685504122082747,-0.0008084161170427929,0.00037237490672814685,-0.0010236296980225084
2025/04/09 09:59:49.822183156,1744185589,819865633,piren,-0.005032975634113761,-0.07235042488879986,-0.0394442914298942,0.0010053494212681232,-0.00011504432452884234,-0.0010280212346605012
2025/04/09 09:59:49.924898246,1744185589,918977707,piren,0.002196704662500503,0.06388101324361425,0.018629052307486328,-0.0007765934541696177,1.996565442960903e-06,-0.000744635647478936
2025/04/09 09:59:50.20781017,1744185590,17542959,piren,-0.003606477460505428,-0.06599236862100369,-0.035878709911036706,0.0009815976299247064,-0.00043889443571596684,-0.0009780288155858835
2025/04/09 09:59:50.119859349,1744185590,117631696,piren,0.002992216906365939,0.06844680660446982,0.021149099752336857,-0.0008367058454890547,-0.00018046427623121658,-0.0007494700262072449
2025/04/09 09:59:50.218592224,1744185590,216217986,piren,-0.0033180710633541753,-0.0632619690893517,-0.03334837154359933,0.0008940960310468431,-0.0004582325626023899,-0.0010267163351136007
2025/04/09 09:59:50.319571882,1744185590,316898077,piren,0.003010511498979855,0.06971665577184578,0.0227786923400619,-0.0009316149359479866,-4.885667666291002e-05,-0.0008809635879781516
2025/04/09 09:59:50.417214570,1744185590,414410660,piren,-0.003459413882641082,-0.06342777592863122,-0.032288949258164404,0.0008086309567906699,-0.00020473178369155578,-0.0009950734111112834
2025/04/09 09:59:50.518073050,1744185590,515299576,piren,0.0027625166068483303,0.06941243842903765,0.02354917985281119,-0.0009443078024970112,-0.0002463308333763382,-0.0007543394757104826
2025/04/09 09:59:50.618191118,1744185590,616019115,piren,0.0013571457645174855,-0.06520132170989935,-0.03252614081329626,0.0007745299222839557,6.534133197158826e-05,-0.000631068317045746
2025/04/09 09:59:50.720723295,1744185590,718623667,piren,-0.00044414810445408823,0.07014402830056629,0.0241718997060813,-0.0009596789582383284,0.00022800278082281514,-0.0007137630170645098
2025/04/09 09:59:50.822467698,1744185590,817759860,piren,-6.791040295217623e-05,-0.06498033461424699,-0.032166601855108536,0.0008007617580843705,0.000300714738786291,-0.0006679152106018165
2025/04/09 09:59:50.924885320,1744185590,921522769,piren,-0.00021581088684492807,0.06974837755520041,0.024233523543790506,-0.0009549527755453478,0.0008186937497462677,-0.000731157533692888
2025/04/09 09:59:51.23216446,1744185591,21188057,piren,-0.005543195542340288,-0.06366665064847067,-0.03136261978547769,0.0008666215336606561,0.00039429855927596155,-0.0010432059447668686
2025/04/09 09:59:51.123413908,1744185591,120198992,piren,0.0017239452910156662,0.06922919513179357,0.024123228350609913,-0.0008664926721324873,0.00046314730175328286,-0.000782557076544508
2025/04/09 09:59:51.223528726,1744185591,220574147,piren,-0.004086028006662923,-0.06398446562595336,-0.03151062884223787,0.0009551733552128271,-0.0001406408451033867,-0.0010412897231112952
2025/04/09 09:59:51.320683901,1744185591,318815795,piren,0.0027482883551084784,0.06883054242760263,0.024012057276194727,-0.000791665892673225,-0.0001258959436141602,-0.0007651147661847324
2025/04/09 09:59:51.419114853,1744185591,417281016,piren,-0.003494434055399049,-0.0645054963437048,-0.031665297195711956,0.0010006993181036208,-0.0006420885454502783,-0.001038037924177419
2025/04/09 09:59:51.518509778,1744185591,516352856,piren,0.0028113574351670174,0.06830662444019579,0.023836755802893357,-0.00039204912732025135,-0.001248877362981351,-0.0007209368603701507
2025/04/09 09:59:51.618430954,1744185591,615325443,piren,0.0038891574314655346,-0.06878265205438394,-0.03296478212805503,0.0025024148766105217,-0.0003803051185447836,-3.7534547248331215e-05
2025/04/09 09:59:51.716683049,1744185591,714552056,piren,-0.007993758242406382,0.04868384105192676,0.017460808184572046,0.0022934333347621014,0.0014985880144094865,-0.0010587126319275303
2025/04/09 09:59:51.789867385,1744185591,786507052,piren,-0.005133675340995432,-0.09776635501034701,-0.040886402926391584,0.003674379795878163,0.0014903969125327524,0.0
2025/04/09 09:59:51.843014879,1744185591,841096508,piren,-0.0028954357527818495,-0.07603493987583265,-0.029572203532814395,0.0055880798356788206,0.0011622753875656392,-0.012410933626074825
2025/04/09 09:59:51.894369750,1744185591,892325005,piren,-0.0015863085432129733,-0.030542860268058972,-0.005363989757508333,0.004554111011766965,0.001086642782750351,-0.002112991401121663
2025/04/09 09:59:51.949715475,1744185591,947394785,piren,-0.0006912346220394079,-0.1327915869331983,-0.06097149552856703,0.00702276089372596,0.0009569572709455534,0.0
2025/04/09 09:59:52.1467766,1744185591,999066028,piren,-0.0018506891674054703,0.009251259331563613,0.0053516593674259065,0.005853064404351068,0.0010183544431771854,-0.002195585730719301
2025/04/09 09:59:52.54987275,1744185592,52891186,piren,0.003538880501576484,-0.06417163132251706,-0.02466131628330461,0.005654073544052943,0.0004177050288302442,0.0
2025/04/09 09:59:52.163013965,1744185592,159400089,piren,0.009986687419715416,-0.027008999441941316,-0.008231762604806417,0.00486384246670906,0.0003730180300471123,-0.011749954593278935
2025/04/09 09:59:52.303803912,1744185592,295948255,piren,0.015376148575565204,0.06763431920312729,0.026834447696883153,-0.00027644918327587333,0.00034986422740415375,-0.00185680036759309
2025/04/09 09:59:52.370181026,1744185592,364640154,piren,0.022266699419467326,-0.07107321319081866,-0.0243407126704263,-0.0020195454356186993,0.00029875520021895133,0.0
2025/04/09 09:59:52.478900524,1744185592,475575167,piren,0.034074883537794004,-0.15306913445360895,-0.06446028538998373,-0.0044958739078698375,-0.0005528609968316921,-0.022142444460783308
2025/04/09 09:59:52.534947516,1744185592,531850557,piren,0.04478378609025008,-0.09521696347690208,-0.044667258600886495,-0.005098942656231648,-0.0006063419066323873,-0.024729656422227648
2025/04/09 09:59:52.585973877,1744185592,583943926,piren,0.05158347319711945,0.057944288298892845,0.024586981030645324,-0.007222349150778888,-0.0007734322489702296,0.0
2025/04/09 09:59:52.639881109,1744185592,637880517,piren,0.0614919168885421,0.051781842164032414,0.022253438567484345,-0.008323938054113958,-0.00010165977512454361,-0.02596765977295323
2025/04/09 09:59:52.692165454,1744185592,690265858,piren,0.06236673523162677,-0.02203281973422775,-0.00450446729005753,-0.008414502285575809,2.954030196353328e-05,0.0
2025/04/09 09:59:52.748583361,1744185592,744124552,piren,0.07207525991248315,-0.10914441943640474,-0.05266271220334304,-0.007143395077764851,-0.0004257917058330898,-0.03312951712254976
2025/04/09 09:59:52.798313194,1744185592,796338259,piren,0.0838241130192167,0.05872768658815453,0.027662424444051086,-0.0051286661296476655,-0.00145500306110298,-0.007225989761070418
2025/04/09 09:59:52.853801938,1744185592,851363641,piren,0.09409755398487026,0.14666448399049312,0.059997219334213245,-0.00540561724387714,-0.0017257378750790502,0.0
2025/04/09 09:59:52.906838746,1744185592,903774752,piren,0.0974559361929614,0.086452617835325,0.039417671400256094,-0.005470278727385619,-0.001844992402343254,-0.006727781963355299
2025/04/09 09:59:52.961412700,1744185592,959428137,piren,0.10416288279147788,0.05423662130040627,0.030372565921523247,-0.0026375496657934207,-0.0017033111905988137,0.0
2025/04/09 09:59:53.65810530,1744185593,63459447,piren,0.11029698357470064,0.089192372965351,0.04375762333825965,0.00020275004778053544,-0.00135246741543148,-0.03647273412247834
2025/04/09 09:59:53.168535319,1744185593,166057002,piren,0.11662729290164543,0.0550493376715109,0.030658467149693978,0.0033530878284393053,-0.0004489819251214991,-0.03598295135882458
2025/04/09 09:59:53.270267672,1744185593,268104273,piren,0.11941564741192824,0.04275203176934941,0.02471416899676154,0.0050851663796172,0.0006233087568734245,-0.036267727944814136
2025/04/09 09:59:53.372836529,1744185593,369864969,piren,0.12171717971436324,0.004839548020927682,0.008459824118542859,0.005301571889302164,0.00098021791636742,-0.035822774643412644
2025/04/09 09:59:53.474244976,1744185593,472386719,piren,0.1261675211477982,-0.113769319769578,-0.05183785414653291,0.007392464131504586,0.001102972674629489,-0.03482272966512207
2025/04/09 09:59:53.576365402,1744185593,573849383,piren,0.12952654407734862,0.017681525677541207,0.007224859568884856,0.003937717027312315,0.002055078517781817,-0.03439050279754948
2025/04/09 09:59:53.676501166,1744185593,674664297,piren,0.135025436741818,-0.06498554369565879,-0.026936620397595916,0.0017665510098265225,0.0011268891147047646,-0.03879509769159299
2025/04/09 09:59:53.778432030,1744185593,775852581,piren,0.14029764380827775,-0.03643553977334294,-0.01261064266691529,0.0011333815557892177,-1.5121621826992881e-05,-0.035342104394234804
2025/04/09 09:59:53.880340839,1744185593,878026850,piren,0.14696689894088624,-0.043268893038065234,-0.013290766075659724,-0.004599386912961151,-0.0010734514877879396,-0.04270441056617842
2025/04/09 09:59:53.983928623,1744185593,981409448,piren,0.1545004940887325,-0.08841861126812013,-0.0338065788869829,-0.004835164459853289,-0.0018536157584518455,-0.0422804871970417
2025/04/09 09:59:54.37884938,1744185594,34649329,piren,0.15849433684580425,-0.061626552929852314,-0.021739674032876962,-0.006065670683197651,-0.0020574020098448153,-0.042479625599108124
2025/04/09 09:59:54.89280909,1744185594,87107290,piren,0.16462766562981987,-0.03821950561864375,-0.009131750726228552,-0.008560376785442062,-0.0021182434457332863,0.0
2025/04/09 09:59:54.145275419,1744185594,142204332,piren,0.17002134719911852,-0.11523795132102913,-0.047025189446839304,-0.007273977345331123,-0.001101250720029319,-0.042001288771493686
2025/04/09 09:59:54.220469235,1744185594,218346089,piren,0.16873253800138732,-0.058717255369481955,-0.019846990537194124,-0.005870663856851488,-0.002061439571096745,-0.009406888365942894
2025/04/09 09:59:54.323050966,1744185594,320374646,piren,0.18757821287085924,-0.03313311835261172,-0.012484630478781946,-0.004718808621261766,-0.0006209472411764357,-0.008794555253092643
2025/04/09 09:59:54.426630953,1744185594,421817080,piren,0.18522751394033604,0.10397884211036351,0.04393165046291855,-0.0036730827260866425,0.0003268225917810485,-0.00964899422400984
2025/04/09 09:59:54.526391568,1744185594,524051888,piren,0.19453309626275117,0.06153675297753318,0.0338801244382627,-0.0006015728034926022,0.00057837279841157,-0.010133493686805852
2025/04/09 09:59:54.628007501,1744185594,625251754,piren,0.2056344424504262,0.1702213990087246,0.06904076692318463,0.0029312442778512454,0.0011624940727721913,-0.00969552320234351
2025/04/09 09:59:54.729060193,1744185594,727069336,piren,0.20673195633560826,0.0957207798144948,0.03451052449669057,0.003773218321529767,0.001680795179669799,-0.009431661912462879
2025/04/09 09:59:54.832157988,1744185594,829925117,piren,0.2075683626254338,-0.061575785073444994,-0.02706334754677793,0.006103339904981927,0.001472470860702362,-0.009323369058368627
2025/04/09 09:59:54.936267416,1744185594,932554202,piren,0.21190277436744592,-0.04858701503058171,-0.0197319765226321,0.006790572389704044,0.0012609444027419877,-0.008773600831676338
2025/04/09 09:59:54.988144957,1744185594,985835733,piren,0.211086871634323,-0.04247438913010804,-0.01635262829525932,0.005083588567012993,0.0011250168992231017,0.0
2025/04/09 09:59:55.41850557,1744185595,39965923,piren,0.2100802256273045,-0.01760532882987315,-0.006081484793130825,0.004827544866243306,0.001990830080305212,-0.04421583481871914
2025/04/09 09:59:55.95019351,1744185595,92812416,piren,0.20065588290803327,-0.0029260139682750013,0.0013866663483703783,0.005213759269892918,0.0018021923827138357,-0.009392792391294312
2025/04/09 09:59:55.149753351,1744185595,147072188,piren,0.20337792431180646,-0.008804821966348884,-0.00040276864197787143,0.0038728207438843555,0.001206861998798802,0.0
2025/04/09 09:59:55.204219894,1744185595,201228470,piren,0.20783016679560046,-0.1252440634368328,-0.05770370985296426,0.0014727324406395863,-0.00011453989769530104,-0.009894676569838645
2025/04/09 09:59:55.308361676,1744185595,305163452,piren,0.21483233580723365,-0.02960706907358437,-0.01426121176493932,-0.001983207247834238,-0.0003441137537888835,-0.00999369971261933
2025/04/09 09:59:55.410863569,1744185595,408646309,piren,0.2117823114769739,-0.004112325187843614,0.000228045553498192,-0.0035866535460304457,-0.0024920044860427416,-0.011177218133538648
2025/04/09 09:59:55.515104070,1744185595,511941471,piren,0.23240856109311808,0.000870762620915557,0.0022513254707973852,-0.007255768718145636,-0.003281220529673683,-0.010643442881611455
2025/04/09 09:59:55.616679320,1744185595,614390364,piren,0.2373498303040801,-0.04604302770122811,-0.014379423609374817,-0.007773303476814689,-0.002941078332760061,-0.010365573621013644
2025/04/09 09:59:55.719008484,1744185595,716272132,piren,0.2422071723628921,-0.12276211373668541,-0.05282858521917128,-0.006031010797550631,-0.0010544081434331804,-0.01044095855482175
2025/04/09 09:59:55.824865347,1744185595,821316580,piren,0.23811529525205793,-0.06296801504285467,-0.02500631130712494,-0.004620378896918401,0.00022989186376607724,-0.011091768661259346
2025/04/09 09:59:55.928459113,1744185595,926436496,piren,0.24691089132937574,-0.01479525711586321,-0.003477255371246047,-0.003261147148271486,0.001271422819180263,-0.012161105624157228
2025/04/09 09:59:56.33474805,1744185596,30412755,piren,0.2534310118906154,-0.019438985210989166,-0.005430299130753008,0.0003797152023324297,0.0018418634207730577,-0.012539584791019449
2025/04/09 09:59:56.138645482,1744185596,135319919,piren,0.25707175043379216,-0.0250460364776258,-0.00885607499266385,0.00387138929277083,0.002001273662539127,-0.01287615176193433
2025/04/09 09:59:56.191439529,1744185596,188906382,piren,0.25883005696244277,0.007447903970815859,0.005212084811470653,0.005104632035990966,0.0018996181748415786,0.0
2025/04/09 09:59:56.247984853,1744185596,243065569,piren,0.261516151531764,0.1509314788766469,0.055741305768941915,0.0054306528675439735,0.0017096435805272197,-0.0717041997390131
2025/04/09 09:59:56.309614147,1744185596,304313872,piren,0.2616674261444152,0.07376003225649767,0.02402688962007174,0.004423758533748768,0.0014040204710447039,-0.013011167476855821
2025/04/09 09:59:56.364801808,1744185596,361369418,piren,0.2570701700833149,-0.027236484463285353,-0.01573695076990014,0.006358549408175937,0.0005862622349325086,0.0
2025/04/09 09:59:56.555621669,1744185596,552244240,piren,0.25885351003605866,0.010261153262272126,0.0026426762979056074,0.004570959964974583,-0.0009559734590182708,-0.007639534995526473
2025/04/09 09:59:56.664677968,1744185596,662570375,piren,0.2586448879282919,0.07338797116789163,0.03001117714189756,0.001507923021959698,-0.0015022359986362449,-0.07693550186885255
2025/04/09 09:59:56.770583226,1744185596,768689866,piren,0.2584517940407123,0.08620973476258673,0.040731854161607274,0.0010179831966347908,-0.0016658663688721327,-0.07707956977754273
2025/04/09 09:59:56.879024226,1744185596,875791018,piren,0.2591480935063869,0.16561573094580073,0.07306568543967651,-0.0026623541901082495,-0.0014139563556009424,-0.07707266154455977
2025/04/09 09:59:56.986805448,1744185596,984601659,piren,0.2616089918468633,0.17069895551463324,0.07294070918428758,-0.005830574543208357,-0.0008240760519244747,-0.08109844781496914
2025/04/09 09:59:57.44424944,1744185597,41390645,piren,0.2589943800124038,0.13943226006523043,0.06450549458789884,-0.006102540212252896,-0.0003733094578711699,-0.08302781381525748
2025/04/09 09:59:57.96877299,1744185597,94852995,piren,0.26094104696643505,0.16525436607306412,0.06105284617175345,-0.0075929354511622615,6.394702644050959e-05,0.0
2025/04/09 09:59:57.154671872,1744185597,152770533,piren,0.26727176053602064,0.02724901285032124,0.00906798191530352,-0.006356271318357073,0.0009556695402688335,-0.08205651081427746
2025/04/09 09:59:57.266428331,1744185597,263299395,piren,0.2755835040742801,-0.00043144375489157297,-0.0019733760820105925,-0.00579115437287669,0.0005214019511614882,-0.08620548468765162
2025/04/09 09:59:57.374646422,1744185597,372599647,piren,0.2823708705548699,-0.12371756768381226,-0.05969740325320202,-0.0016711480448918378,0.0023705411078611626,-0.07724283482964676
2025/04/09 09:59:57.484088245,1744185597,481582399,piren,0.2872818737192723,-0.05025727922604255,-0.024879433716156533,0.0006608981758845792,0.0025131325703340642,-0.08108446136376733
2025/04/09 09:59:57.591321974,1744185597,589406823,piren,0.29039312695867203,-0.04389721293645996,-0.020883673846272932,0.0027544948070916415,0.0018435403640272364,-0.090138814550868
2025/04/09 09:59:57.650817037,1744185597,643773505,piren,0.2850013017448552,-0.0654817946105011,-0.030694229889818358,0.003637382102884877,0.0011315485688500543,-0.09327060675617
2025/04/09 09:59:57.704120148,1744185597,701956250,piren,0.2862114083141653,-0.03277681216363966,-0.015957319050522025,0.0034385331165601874,-0.00036876994789245736,-0.018051360535646953
2025/04/09 09:59:57.811688386,1744185597,809510112,piren,0.28364540747961325,-0.057967187385900225,-0.023266086536544547,0.005938936841796767,-0.0017115412752081519,-0.01874250866499497
2025/04/09 09:59:57.920729121,1744185597,918214116,piren,0.28446717744361705,-0.13268419363408523,-0.07249926443658217,0.006198575211965801,-0.0026905706380742664,-0.01980813558035764
2025/04/09 09:59:58.26723135,1744185598,24328892,piren,0.2840329223244516,0.05163901840449952,0.014304009466038096,0.003853274522658074,-0.00280473896489731,-0.02031113410507892
2025/04/09 09:59:58.133452828,1744185598,131483518,piren,0.28170937497232645,0.11066452049018718,0.04706214065565799,0.0025106594072824683,-0.0020132933647055338,-0.01999962787467379
2025/04/09 09:59:58.189438894,1744185598,186932019,piren,0.27726344239095535,0.2006348846503991,0.08488640225168158,0.001072910764955989,-0.0015764621587410742,0.0
2025/04/09 09:59:58.245517729,1744185598,243105868,piren,0.27767316081417526,0.20894560256466793,0.08532431883004411,0.0002967186062190175,-0.0013868386629186105,-0.10920607043922394
2025/04/09 09:59:58.299957105,1744185598,297840832,piren,0.2789956264390563,0.16260953705690312,0.07552605624539534,-0.0010359392813631791,-0.0008008529196958363,0.0
2025/04/09 09:59:58.354098835,1744185598,352219190,piren,0.2777674221384539,0.2076689155244467,0.09750008962562082,-0.002261082067262471,-0.0011496623681967102,-0.09639922623971413
2025/04/09 09:59:58.409674888,1744185598,406966691,piren,0.28956823315222974,0.2368940903078289,0.09430166434412895,-0.005775403170333405,-0.0006257156812726104,-0.020339924475364903
2025/04/09 09:59:58.463459644,1744185598,461517705,piren,0.28518874529649346,0.14590814433598853,0.04606797793187551,-0.0059119801667415275,0.0012949146687913015,0.0
2025/04/09 09:59:58.573644262,1744185598,570657389,piren,0.2931578703996946,-0.0561710334028554,-0.03552766555951591,-0.0051144635245510325,0.002772767293943181,-0.10783573651214168
2025/04/09 09:59:58.681077372,1744185598,677797818,piren,0.2974997421367314,0.04682652349447718,0.007039198170989974,-0.006292650049483541,0.0038654980387379098,-0.10438706901101442
2025/04/09 09:59:58.734989354,1744185598,732486632,piren,0.29391483860475986,-0.10613714779423833,-0.04788271212241422,-0.005714152143317498,0.004123378665102535,-0.10900724664059884
2025/04/09 09:59:58.790715304,1744185598,788263965,piren,0.29426266936396717,-0.19068368673973934,-0.08943549221912644,-0.00307397195505179,0.0038706346212451863,0.0
2025/04/09 09:59:58.846445991,1744185598,844184950,piren,0.2979378346037569,-0.14216179250345212,-0.06563356140617801,-0.0014661463608691362,0.0032552119683758435,-0.106514406536205
2025/04/09 09:59:58.903737987,1744185598,901002707,piren,0.3019406093792908,-0.10949794830091797,-0.05189831169484012,-0.0013919529189141905,0.002479452251441531,-0.022214812890907064
2025/04/09 09:59:58.960029471,1744185598,957993744,piren,0.3022794426125532,-0.06431095902475556,-0.03217831448526099,0.0004984765420687334,0.00041595259383874004,0.0
2025/04/09 09:59:59.45923175,1744185599,39948451,piren,0.3030846923612129,-0.025458797812705766,-0.015171993975343058,0.002290687735204332,-0.0006521970705174611,-0.12416449530362134
2025/04/09 09:59:59.99548797,1744185599,97159821,piren,0.3031270703051769,-0.005724474787167887,-0.007057681342401545,0.003890319729805008,-0.0016629508012919942,-0.02323680182259608
2025/04/09 09:59:59.158779508,1744185599,153992815,piren,0.30006655593100356,-0.002193257354593723,-0.00569006078109165,0.005617282763315753,-0.00260458689319426,0.0
2025/04/09 09:59:59.214047835,1744185599,211734185,piren,0.2991324173372596,0.10525104267409832,0.04485585596683335,0.005462154206097376,-0.0037630996917568257,-0.02217608170449362
2025/04/09 09:59:59.323874966,1744185599,320776066,piren,0.3007558308137777,0.1939415080285994,0.05894249647545774,0.003915651835040921,-0.003875189447720477,-0.023506819445070704
2025/04/09 09:59:59.430312601,1744185599,427678030,piren,0.3012459607382179,0.011956903646333105,-0.005504595348834647,0.005996156663223624,-0.0029630318377911764,-0.02836762986987138
2025/04/09 09:59:59.483907442,1744185599,482057153,piren,0.3012223227093394,0.03638407995127382,0.0072365889511895685,0.003923910007549177,-0.0022839959145022305,0.0
2025/04/09 09:59:59.540223529,1744185599,537966929,piren,0.3010868560264658,0.01134522997054676,-0.0007847469913101234,0.003673785973036124,-0.001433546177161278,-0.1286632735662844
2025/04/09 09:59:59.595781736,1744185599,593617207,piren,0.29786854454098727,0.10744951395967493,0.03865672674304835,0.0016374406140018363,-0.0005408628627034829,-0.02365997129407432
2025/04/09 09:59:59.651293300,1744185599,648762367,piren,0.29387728329977714,0.09554888426825822,0.0336678889111196,-0.00017126892889655066,0.0003549827450952823,0.0
2025/04/09 09:59:59.706281792,1744185599,704133083,piren,0.2944531443706421,0.05428026153493214,0.0174291963675188,-0.0012234849304062058,0.0018695370281920454,-0.023603492701866284
2025/04/09 09:59:59.815254787,1744185599,812939185,piren,0.3016347670700669,0.009676624618839974,-0.0017473051185083904,-0.004020151948309415,0.002856674675883909,-0.022984919159014097
2025/04/09 09:59:59.925585740,1744185599,923666222,piren,0.30655016664438467,-0.12219597575555963,-0.056389744623645086,-0.005266375630108647,0.0033068385054042964,-0.02247389711521896
2025/04/09 10:00:00.36246523,1744185600,34141358,piren,0.3122162625315976,-0.13738277363420578,-0.06446199071849752,-0.0042118571962642916,0.002811652425932678,-0.02165090762200994
2025/04/09 10:00:00.93837545,1744185600,91168869,piren,0.3167788854139453,-0.11790985743378465,-0.054187841742947704,-0.005121021559902393,0.0022957418920867994,0.0
2025/04/09 10:00:00.151030711,1744185600,148675351,piren,0.3205856162408543,-0.12292702042230436,-0.0647068422775379,-0.004155091564613649,0.00159284990198737,-0.11000250063941251
2025/04/09 10:00:00.208686168,1744185600,206776478,piren,0.32409935588320016,-0.02105270578665841,-0.019415974818668177,-0.0031929692783051198,-2.304868625108856e-05,-0.02049290766315282
2025/04/09 10:00:00.316835932,1744185600,314451765,piren,0.3241926129649414,0.005175852275929954,-0.007316375395942697,-0.001228444372884499,-0.0016849994729084654,-0.01968442671998593
2025/04/09 10:00:00.425236376,1744185600,423333813,piren,0.32844768623377696,0.022730770872280294,0.0021274710918693946,0.0017753347749342005,-0.0032082232855931824,-0.01861469495740752
2025/04/09 10:00:00.533682297,1744185600,530928081,piren,0.3326856615304545,0.14284922040410808,0.047668684347944024,0.0023868945872918376,-0.00362205949357733,-0.01737257041573287
2025/04/09 10:00:00.589236858,1744185600,585981328,piren,0.3312268734472172,0.11066089413194313,0.037565122191840675,0.004313727149324352,-0.003491893670155446,0.0
2025/04/09 10:00:00.643498382,1744185600,641642630,piren,0.32936538704681645,0.11218041339677105,0.03637999049110198,0.0049340644718079635,-0.0031068015047566147,-0.0840272258108865
2025/04/09 10:00:00.699797586,1744185600,697219794,piren,0.3260668199768796,0.07311994851521886,0.0168248469717061,0.003962414975255374,-0.002548566304040517,-0.015044084377005494
2025/04/09 10:00:00.756357251,1744185600,754150471,piren,0.32195113274373166,-0.04866821247273935,-0.03631117129578517,0.006015439063188031,-0.0008712940153680718,0.0
2025/04/09 10:00:00.866116813,1744185600,862863702,piren,0.3220112930986811,0.09070515137121264,0.017536129047067507,0.0040386449675597165,0.0009037135567846719,-0.0728558667755801
2025/04/09 10:00:00.976009133,1744185600,972119884,piren,0.3229382779379211,-0.045349793615059725,-0.03252132625054677,0.001443411309077152,0.00298956058341631,-0.05941838063325838
2025/04/09 10:00:01.83125764,1744185601,80888385,piren,0.3275982989193953,-0.0889045325811271,-0.05128481780018794,0.0027606198197370592,0.002453247131044537,-0.05367303663411735
2025/04/09 10:00:01.141734039,1744185601,138860108,piren,0.32561503150908067,-0.05146213308571556,-0.037561565419610955,0.0019117935808598064,0.002505707391771598,-0.05639463825383289
2025/04/09 10:00:01.197404261,1744185601,195663990,piren,0.32700143168654083,0.08989558124966923,0.026011892897326274,0.00022317355999469183,0.0023808898800556574,-0.00931261080822176
2025/04/09 10:00:01.254312630,1744185601,251825081,piren,0.3282477193526132,0.1252552472499136,0.04545549914411493,-0.002098011652803887,0.0022299447072738317,0.0
2025/04/09 10:00:01.309399470,1744185601,307436956,piren,0.3301422994958763,0.1742979781896159,0.05711183634833569,-0.005176769014435734,0.0015154424718615534,-0.008337886395286861
2025/04/09 10:00:01.440950551,1744185601,438998902,piren,0.3354141621006082,0.0886429494640436,0.024817174446495536,-0.003985441102823905,0.0002838974504003326,-0.007614533787748136
2025/04/09 10:00:01.496731359,1744185601,494901160,piren,0.34134872994916804,0.0432065657288658,0.0069677125101821535,-0.005389151915704799,-0.000149049635930845,0.0
2025/04/09 10:00:01.554142328,1744185601,551019692,piren,0.3428564711088565,0.027590518091976986,0.0014765329708049538,-0.007051403990980593,-0.0005543084473449946,-0.03471653197843534
2025/04/09 10:00:01.609353413,1744185601,607256180,piren,0.34534946287559554,0.03903479455282627,0.005678971875345235,-0.005345708315910826,-0.0009862777019105093,-0.005652524743421884
2025/04/09 10:00:01.719455986,1744185601,716937687,piren,0.34497196315178946,0.02676752726902318,0.0005988230040466868,-0.0040578500863965835,-0.0010296304295472237,-0.004832172068511898
2025/04/09 10:00:01.829580980,1744185601,827389413,piren,0.3445224162924091,0.019048812515078825,-0.0016876821775642001,-0.0029916138834517525,-0.00130725239955569,-0.004444712194350174
2025/04/09 10:00:01.940560539,1744185601,938135108,piren,0.35040726384978,0.027533584118422626,0.0011031456094150237,-0.0005634188643425368,-0.0010187932387195299,-0.0035403995746644368
2025/04/09 10:00:01.997702020,1744185601,995970404,piren,0.3506705897336102,0.031049320270332678,0.0025147562686809437,0.0009097512303189541,-0.0007377796454491657,-0.0028847162547572906
2025/04/09 10:00:02.54486228,1744185602,52191094,piren,0.34850613796541213,0.03682000810337821,0.00510951327847871,0.0029783794360500626,-0.00019866700082907116,0.0
2025/04/09 10:00:02.167884962,1744185602,165584399,piren,0.34417867426559556,0.05807838228121492,0.009245288186065863,0.0038613969179364595,0.0004706499492408248,-0.01130696336966764
2025/04/09 10:00:02.278320511,1744185602,275938028,piren,0.33821999885394893,-0.06679414404549183,-0.038863409339311074,0.0037765020648082358,0.0011458141096862516,-0.007329505332625834
2025/04/09 10:00:02.388139933,1744185602,385759967,piren,0.33151592461053186,-0.12700903840352154,-0.06718561431972865,0.004250185334526073,0.00118417734711165,-0.00437601570465873
2025/04/09 10:00:02.447910566,1744185602,442864287,piren,0.3251788990781933,-0.09472615438266002,-0.058387328424460316,0.004001781569276234,0.001339964757553083,-0.0007540285259021128
2025/04/09 10:00:02.504591003,1744185602,500991659,piren,0.3211230094231587,0.019593420718097665,-0.006267066258411632,0.003398378299349908,0.0013013808153119208,0.00022923217932964776
2025/04/09 10:00:02.559820933,1744185602,558102237,piren,0.3168266164824761,0.0450878309232326,0.008096041468906618,0.003231388532717046,0.0009507252286036523,0.0
2025/04/09 10:00:02.671222000,1744185602,668660287,piren,0.31319281461934,0.14102715708051664,0.04337593175054912,-0.0014264065233909958,0.00034515395683131677,0.0024204308157193886
2025/04/09 10:00:02.782121986,1744185602,780148227,piren,0.30931838363805664,0.09057704226014944,0.02552760781664944,-0.0026269861263132346,-0.0003006206493709546,0.0042646247273455925
2025/04/09 10:00:02.894458012,1744185602,892004902,piren,0.3084143855794244,0.07577594325515252,0.017810939389971556,-0.005009782493338695,-0.00043641844576300913,0.0009626142818011342
2025/04/09 10:00:02.951246638,1744185602,948955103,piren,0.3070841406168853,0.0039539424221890565,-0.009902729706652295,-0.005288298607041045,-0.0004199906747262696,0.0
2025/04/09 10:00:03.63159446,1744185603,60635320,piren,0.305103671744272,0.022111089287966526,-0.0017536519632484384,-0.005361985747137918,-0.00040599037431567834,0.009470280980629521
2025/04/09 10:00:03.177902094,1744185603,174924448,piren,0.3027416858237835,-0.015276146809168174,-0.01557258799556077,-0.005568681512002853,-0.00011616291880425907,0.009515494622378795
2025/04/09 10:00:03.289034788,1744185603,286617473,piren,0.29957454470499173,-0.09024334871089715,-0.05717024757865664,-0.001475183560031034,-6.455950289348069e-05,0.008608108678158867
2025/04/09 10:00:03.345988268,1744185603,343663712,piren,0.29702405171661916,0.067908109183993,0.009863161948758989,-0.0022418246831374332,-0.00010602439559078211,0.007350374058679926
2025/04/09 10:00:03.403398988,1744185603,401569822,piren,0.2955903779294163,-0.04090852427107189,-0.03279989622511052,-0.0009302674747053637,-2.0677441555688496e-05,0.0014112935772148088
2025/04/09 10:00:03.465509478,1744185603,460738603,piren,0.2901809664361946,0.00025538372700936035,-0.012065283412417539,0.0022407315256775962,0.0001234193065544514,0.0
2025/04/09 10:00:03.574980488,1744185603,572835185,piren,0.2833977321698102,0.02187788196899841,-1.2816676593898841e-05,0.0036735996821168513,-0.0003573810423090893,0.00479774701453649
2025/04/09 10:00:03.686673045,1744185603,684005682,piren,0.27762525004571115,0.0633989065549504,0.014207998369066634,0.003698900544093723,-0.00021232415608158216,0.004547720965735459
2025/04/09 10:00:03.744001052,1744185603,741892886,piren,0.2687022581507931,-0.03689587316525901,-0.024299339432146783,0.004737998752109096,-0.00020195814155441749,0.0051636862563543846
2025/04/09 10:00:03.801460037,1744185603,798957485,piren,0.26261202740588047,-0.060125657645823435,-0.035398865183456536,0.0051155681277504205,-0.0003277641225747996,0.0
2025/04/09 10:00:03.913291615,1744185603,911384660,piren,0.25408376493944657,-0.0005699320468353329,-0.008543470757351007,0.003973430457206652,0.0001559623951995947,0.001083968139314512
2025/04/09 10:00:03.996792420,1744185603,992085770,piren,0.2463947405583322,-0.03227710852465515,-0.020134189572285993,0.0031318630010269684,0.00030117187445304923,0.0006806973465756918
2025/04/09 10:00:04.52309034,1744185604,49882040,piren,0.2393797922010672,-0.0749057604253267,-0.042170808071834556,0.0007001377617428434,-2.9816050611044487e-05,0.0
2025/04/09 10:00:04.166919061,1744185604,164430028,piren,0.23549633348241142,0.014621319704939961,-0.00238926793778484,-0.0013547313963581467,0.00017307102796757222,0.0032608730573657927
2025/04/09 10:00:04.278140063,1744185604,276241926,piren,0.22810656068982288,0.06949452111605181,0.025565384230716463,6.345500450595446e-05,0.00037044829677858906,0.0046930261886805906
2025/04/09 10:00:04.336440476,1744185604,334369506,piren,0.22338802207590497,0.1772375285348978,0.07761647555068839,-0.002340545074094666,0.00033781305494016625,0.0036784042906392784
2025/04/09 10:00:04.398865825,1744185604,392353357,piren,0.22110567417558022,0.26717758052788737,0.10192346818623982,-0.004208736795927148,-2.853537646842209e-05,0.0
2025/04/09 10:00:04.453231166,1744185604,450638821,piren,0.2208394680896133,0.20874468108694083,0.07877896121179692,-0.00430134383376715,-1.5193450113961772e-05,0.0036417428697504126
2025/04/09 10:00:04.510773585,1744185604,508804046,piren,0.21744249357496243,0.1513577147616104,0.057066271608562265,-0.005104482420126679,-0.0002896497730398326,0.0011630618939474746
2025/04/09 10:00:04.624357318,1744185604,620485630,piren,0.21549352853123346,0.11054358255507271,0.041225138583973024,-0.0053997118737034965,-0.00045730727579768293,0.001968052088625069
2025/04/09 10:00:04.735216736,1744185604,733050880,piren,0.21050914960425127,0.087647784702941,0.030711120501280532,-0.0028771236897605413,0.0004002336541326023,0.0025074174080534414
2025/04/09 10:00:04.792460626,1744185604,790279380,piren,0.2045058832483464,0.05438461923973871,0.016963232082834876,-0.0018810585398698295,0.0008058091133474207,0.0
2025/04/09 10:00:04.851132833,1744185604,849036617,piren,0.1996361252470903,0.03039088287282924,0.00751392514720058,-0.0013185488520600333,0.0008134209765342577,0.012810659452535586
2025/04/09 10:00:04.908801258,1744185604,906078800,piren,0.1996059226418717,0.021385380407472898,0.0032968230769692595,0.000222066662299581,0.0009985687872742083,0.0027017355245475797
2025/04/09 10:00:04.967795597,1744185604,964434495,piren,0.19355493471043944,0.01821939731665899,0.0026751209761379274,0.0033078725974949176,0.0012373879864001729,0.0
2025/04/09 10:00:05.78551352,1744185605,76540159,piren,0.1880407755213877,0.11380141701830432,0.03644313807536545,0.004293798944418406,0.0006869722834242607,0.013207877588716829
2025/04/09 10:00:05.137515032,1744185605,134855703,piren,0.18381272366951432,0.04471614855222354,0.00999519343924437,0.004037352426143755,0.0005920016491869856,0.01588063256114461
2025/04/09 10:00:05.195343566,1744185605,192820390,piren,0.17941050018947194,0.02373456830032787,0.0015333589493630624,0.00469773233205626,0.0004312906140886399,0.0
2025/04/09 10:00:05.251979076,1744185605,250165715,piren,0.17505060720958748,-0.02466329792311201,-0.017706589132618526,0.004949295471645714,-0.00045233072354700494,0.016214967479998236
2025/04/09 10:00:05.366565770,1744185605,364687298,piren,0.17251777903443413,-0.021153168306739183,-0.01750465886554472,0.005096852237249527,-0.0002545591520247846,0.017623078137952164
2025/04/09 10:00:05.479555258,1744185605,477593605,piren,0.1650670934427366,0.0923457839491108,0.022326895369276335,0.0024330949590196296,-0.0005749146076470297,0.01791550197290682
2025/04/09 10:00:05.594858513,1744185605,590032429,piren,0.1514072313136344,-0.16122788935930893,-0.08051307076413147,0.0009089474151952673,-0.0007907006934745178,0.01736009573625458
2025/04/09 10:00:05.650400005,1744185605,648162881,piren,0.14784926968854098,-0.10374294968501722,-0.05125483374877332,-0.0010280576259689988,-0.0010873854615045515,0.01705666568326331
2025/04/09 10:00:05.709410943,1744185605,706178748,piren,0.147186092033558,-0.07882261059746648,-0.04019344828459836,-0.0011803366390341116,-0.0012674328449713097,0.003825885993676964
2025/04/09 10:00:05.821907497,1744185605,819861831,piren,0.14189090339655402,-0.029606957294171593,-0.01680950320239612,-0.003394084335105064,-0.000497627846575222,0.004048068488540998
2025/04/09 10:00:05.937571285,1744185605,933952480,piren,0.1410196020074527,0.004698682984889793,-0.0003937433470040102,-0.003630631360373225,-0.0001187287906224673,0.0035735693016226114
2025/04/09 10:00:05.995882049,1744185605,993258350,piren,0.1376119888295757,0.12554624910266032,0.03859272299527103,-0.00529896653616931,6.843663131134565e-05,0.0035797744115303987
2025/04/09 10:00:06.54333245,1744185606,51328839,piren,0.13682739462759316,-0.024843582263048183,-0.020100965053048266,-0.00344273149673963,0.0003998907630012278,0.0
2025/04/09 10:00:06.169877244,1744185606,167048949,piren,0.1349079199044597,0.09830350017731655,0.03906813369550394,-0.0019024470214842023,0.00016786028441424775,0.019325650242076234
2025/04/09 10:00:06.282398184,1744185606,280119758,piren,0.13557806417010562,0.1652141889120622,0.0722981303143265,-0.0010616770196298661,0.0011096931422620714,0.020704410419755112
2025/04/09 10:00:06.341269587,1744185606,338406498,piren,0.1295697641740756,0.21358052443067282,0.09301633227895911,0.0015537619197099266,0.000850223303738385,0.021075618599889254
2025/04/09 10:00:06.399174062,1744185606,397268142,piren,0.13104091732264572,0.22395293145412562,0.06955718442434479,0.0005457841177164608,0.0007957815661547501,0.003921651492473979
2025/04/09 10:00:06.480036691,1744185606,478050875,piren,0.12644105897910715,-0.00830484288461874,-0.011962588534652523,0.0034971911297515187,-0.0016769935633515537,0.0
2025/04/09 10:00:06.593239745,1744185606,591220645,piren,0.12914455490672833,0.04488208906406412,0.016283102601609124,0.0037912369616593055,-0.0023907394438206307,0.02963429977205599
2025/04/09 10:00:06.652008956,1744185606,650131913,piren,0.1237927498651149,0.11194136372537679,0.04034076419924114,0.004200061853212528,-0.00043543274473227474,0.04389446212316302
2025/04/09 10:00:06.767643726,1744185606,765763344,piren,0.10848873401000059,0.025861106489605268,0.006866601559779559,0.004131636242662895,0.0033570840014638227,0.04470933238950066
2025/04/09 10:00:06.883009517,1744185606,880950559,piren,0.09229904167193158,-0.13532078948593762,-0.05890022679439484,0.003972832398833764,0.0018383658745510995,0.030543298773043404
2025/04/09 10:00:06.941940248,1744185606,939455792,piren,0.10389097981407927,-0.12761596336221298,-0.05638800167823491,0.0033833988405016554,0.0014365977094863032,0.027533729353794514
2025/04/09 10:00:07.369504,1744185606,998285521,piren,0.09486696673040432,-0.08555585232447269,-0.03523768823233922,0.0022753386933078135,0.0018139053184004082,0.006339644372674765
2025/04/09 10:00:07.59191887,1744185607,57017537,piren,0.08908779964066488,-0.07427199416489279,-0.030609509952699416,5.361931286792658e-05,0.0018823927412949912,0.0
2025/04/09 10:00:07.174411075,1744185607,172439709,piren,0.08469841480662722,-0.04123685107115996,-0.01567895380667537,-0.0012511402160087222,0.0017076785961753045,0.02708159268821359
2025/04/09 10:00:07.290366895,1744185607,288296889,piren,0.08224716707394371,-0.0437264875330639,-0.01634383175040524,-0.0016075801471526706,0.00032490233539997826,0.021315573799929655
2025/04/09 10:00:07.350587008,1744185607,347922558,piren,0.08754060593538712,-0.05621844788480519,-0.024340960863940806,-0.0022952565077530374,-0.000501254909180966,0.015524360426912347
2025/04/09 10:00:07.410464169,1744185607,408185041,piren,0.0895893663997559,0.009222764790981657,0.00408875068500898,-0.0047623378696810366,-0.0022943980424203693,0.0032871469620144437
2025/04/09 10:00:07.528379056,1744185607,526377612,piren,0.0925998038706326,0.003558601465076592,0.002113390118584898,-0.0036810218347858347,-0.0035614752493957746,0.002652433882463606
2025/04/09 10:00:07.646216339,1744185607,642089709,piren,0.09335585251646257,-0.015257197733938938,-0.004188442819910956,-0.00398737912950687,-0.0037032731099097883,0.0025634876836423456
2025/04/09 10:00:07.705624471,1744185607,701114918,piren,0.09179084066637606,-0.13426056444197468,-0.05288653297412847,-0.002497252656747582,-0.003503964979968751,0.0024840095575339688
2025/04/09 10:00:07.764329141,1744185607,762459108,piren,0.09180096186131563,-0.1518776202522641,-0.06432854820020191,-0.0009936312708607301,-0.002252420347868838,0.0
2025/04/09 10:00:07.879149998,1744185607,877380661,piren,0.090719231142387,-0.09325619777392789,-0.03796824169561849,0.0006915472333827471,-0.00022159114671604837,0.01023728284347404
2025/04/09 10:00:07.939623509,1744185607,937419589,piren,0.08854485810967556,-0.053504682330181574,-0.01688909640762629,-0.000232725833946271,0.0003426543536279519,0.03856048036706449
2025/04/09 10:00:07.999104514,1744185607,996678671,piren,0.08894128898611212,-0.11906530403414589,-0.04906833470563866,0.0027226572013004315,0.0008437982099652709,0.0006368214112600515
2025/04/09 10:00:08.60728770,1744185608,56966884,piren,0.08970442788235945,-0.062905385474506,-0.02471800405175939,0.003325790513446151,0.001647041012598819,0.0
2025/04/09 10:00:08.176342108,1744185608,173762453,piren,0.08649713560607138,-0.013970225013889767,-0.004647137999160278,0.004163389898142784,0.0023827722753079973,0.003010030799291728
2025/04/09 10:00:08.290072008,1744185608,288246007,piren,0.08321373442875048,0.13553015005242294,0.05447494361628578,0.0039284756052297715,0.0021151613698154052,0.0005852955966181567
2025/04/09 10:00:08.348521632,1744185608,346779299,piren,0.08027362590411248,0.10733782333091342,0.03927719095283591,0.003998510176082093,0.0018665827627440481,6.10552664828395e-05
2025/04/09 10:00:08.407503839,1744185608,405717682,piren,0.07748177598148354,0.00453438302428928,0.0006009488122807868,0.0020780259586499795,0.000808847709856508,8.31792401217443e-05
2025/04/09 10:00:08.528264025,1744185608,521974183,piren,0.08521978765389673,-0.09658268416263953,-0.044171386369292284,0.0013964833403082681,-3.608833742787774e-05,0.0005262858841072485
2025/04/09 10:00:08.642071203,1744185608,639285270,piren,0.07637802697382517,-0.049317592057331563,-0.02171821258257886,-0.0002268282303009478,-0.0004039719520864104,0.00016964722637447847
2025/04/09 10:00:08.703013087,1744185608,699238603,piren,0.07434708780541634,-0.01770298998411513,-0.005633813062237284,-0.00213627845064587,-0.0008157906565759746,-0.00031196323646032415
2025/04/09 10:00:08.762665751,1744185608,758879665,piren,0.073887829610465,-0.09961831878978157,-0.04481989808151423,-0.002778961763856418,-0.0007927428380411023,0.0
2025/04/09 10:00:08.879135265,1744185608,875763182,piren,0.07215822830703472,-0.01943604103977773,-0.008121654972167098,-0.002610107009354214,-0.001413465927690161,-0.004347236460033241
2025/04/09 10:00:08.994432321,1744185608,992308552,piren,0.07505027034591917,0.0542782773216922,0.028188590889579937,-0.00253987113323606,-0.0013277795498007818,-0.006957918182603153
2025/04/09 10:00:09.56138233,1744185609,52307336,piren,0.07725407215325202,0.16541551896811485,0.06864040161730238,-0.003584742524580989,-0.0013884476008911408,-0.00975189767376952
2025/04/09 10:00:09.136734009,1744185609,134643690,piren,0.07913243479087656,0.11066439438741398,0.055221720129131645,-0.0013242676263507415,-0.001187271639895676,-0.0020576808388743056
2025/04/09 10:00:09.200654911,1744185609,196676106,piren,0.0798687137615279,0.17096310467670034,0.08247236970459192,-9.18235742100843e-05,-0.0009662345602358386,0.0
2025/04/09 10:00:09.259351730,1744185609,257650238,piren,0.08027015225280615,0.2041324534806193,0.08530379538538244,-0.0010678022566253166,-0.0016404308889510764,-0.010795441796734242
2025/04/09 10:00:09.323877713,1744185609,318724884,piren,0.09043633726695881,0.10597129163184439,0.05544464351248343,0.0004971865873193493,-0.001826284995817856,-0.0013532555599573028
2025/04/09 10:00:09.440564552,1744185609,437794553,piren,0.09693685702073455,0.1660310823946265,0.057758957865248144,0.0014089423420301347,-0.0017244205413017803,0.0001883737305866798
2025/04/09 10:00:09.501831010,1744185609,498505703,piren,0.0990497025595483,-0.044993411803769826,-0.018060791805420088,0.0006516707438292757,-0.0009973116098287347,0.001856691173482101
2025/04/09 10:00:09.561555701,1744185609,559384275,piren,0.08805334927427087,-0.1509247875951554,-0.07497467493816005,0.005121951700683601,0.0036419543810490653,0.0
2025/04/09 10:00:09.684764836,1744185609,678083698,piren,0.07200512453920457,-0.015605729703818825,-0.007518665156736512,0.002519097937449576,0.00645123377590557,0.002773246189839193
2025/04/09 10:00:09.800044349,1744185609,796628249,piren,0.0687128720437277,-0.11760211845473588,-0.05908661865858913,0.005370276199655469,0.005711002825829033,-0.013262368207235763
2025/04/09 10:00:09.860859780,1744185609,857615216,piren,0.07126068268052124,0.020940368753137612,0.005988114056694666,0.003127361536492335,0.0033430295941883677,-0.020192759543407622
2025/04/09 10:00:09.978161162,1744185609,975825650,piren,0.07383938506176516,0.00459728411552235,0.0022171682656678187,0.0020914378743187158,0.00037386984895208705,-0.021318705824850803
2025/04/09 10:00:10.96962294,1744185610,94239307,piren,0.07692582094189591,-0.012024093714653338,-0.0033812249782696037,-1.46251499401866e-05,-0.0037984329698621967,-0.021875985885838306
2025/04/09 10:00:10.156879813,1744185610,154167448,piren,0.07666266564729916,0.09886913028864486,0.04830065629737651,-0.0004909793210541928,-0.00459452344888455,-0.017238775275019918
2025/04/09 10:00:10.216813633,1744185610,214211564,piren,0.07532386656552617,0.16523528698255807,0.05788557037813561,-0.0037628528911017155,-0.005870592192040373,-0.003527508292979738
2025/04/09 10:00:10.336616539,1744185610,334164512,piren,0.07910514615743958,-0.028079726343373114,-0.011581862905785563,-0.0023648228453294106,-0.0070347039037952155,-0.003720549575504552
2025/04/09 10:00:10.398065552,1744185610,395738629,piren,0.09111473509064079,-0.035289071656211146,-0.010689687670163919,-0.004066709057622051,-0.006589282414627492,0.0
2025/04/09 10:00:10.460320464,1744185610,457459938,piren,0.0902811617073842,-0.04885439910454313,-0.01050121397100867,-0.0051617290420105065,-0.003997568989933677,-0.01369656816433108
2025/04/09 10:00:10.580888452,1744185610,578410021,piren,0.09039466693730129,-0.1559365626709527,-0.06012341519625891,-0.003019891834523929,0.0017169723922136546,-0.011818575227168572
2025/04/09 10:00:10.701412479,1744185610,698861185,piren,0.08378217389813841,-0.11433277209655089,-0.03741994513743756,-0.0009594652864171661,0.004236020445976087,-0.019949091894797186
2025/04/09 10:00:10.762390739,1744185610,760144606,piren,0.088493761387964,-0.12592549274801917,-0.04123327147562657,-0.0014715710802999174,0.006402081361857537,-0.025666950254478474
2025/04/09 10:00:10.883621683,1744185610,878958901,piren,0.09140061213028493,-0.1435363337491196,-0.04592823860768685,0.0009751261483556084,0.0048522956763344454,-0.03152336715369581
2025/04/09 10:00:10.944384774,1744185610,941634046,piren,0.09496268267372387,-0.18545925777518182,-0.09034218437985725,0.0032863270780938672,0.0044249392702364635,-0.1337740070678423
2025/04/09 10:00:11.6790925,1744185611,3790666,piren,0.0913924522961034,0.011076573543253431,0.0019445759390187757,0.003998202341226081,0.002735153804816488,-0.005047120726479258
2025/04/09 10:00:11.125949993,1744185611,123449087,piren,0.09054724854044016,0.02255209788083393,0.009620900438842958,0.0031641162254061475,-0.0006117185075780336,-0.0053500557131009804
2025/04/09 10:00:11.245532692,1744185611,242181750,piren,0.10492635134268387,0.047756415261858254,0.021452655902685733,0.003145481001313191,-0.002663634862876525,-0.004445068112696894
2025/04/09 10:00:11.306413295,1744185611,303076641,piren,0.10228999403897167,0.06984235160718275,0.028833883743366647,0.0026698384071256903,-0.003347043660352485,-0.004166524089497077
2025/04/09 10:00:11.365557523,1744185611,363507456,piren,0.10194917981826077,0.0031495543663243525,0.0033318119407399673,0.003496836962879421,-0.0041529424410329105,0.0
2025/04/09 10:00:11.485336761,1744185611,482316183,piren,0.10181167414101779,0.004584617884069387,0.005469262123024083,0.0013876140156173322,-0.0038996267828828026,-0.023726769329607524
2025/04/09 10:00:11.547098594,1744185611,543672483,piren,0.09943479555128139,0.132247387715775,0.06393270960515039,0.001457145805622144,-0.00310984296330138,-0.02478033839969102
2025/04/09 10:00:11.607286449,1744185611,605144565,piren,0.09488965243572761,0.1981439358487169,0.09413386782692515,0.001173082216749361,-0.002435083320789213,-0.005066558788969537
2025/04/09 10:00:11.669249985,1744185611,666637052,piren,0.09815933393342227,0.2299351507661207,0.07911788773426182,-0.002562684265918519,-0.0009330478975631426,0.0
2025/04/09 10:00:11.753526669,1744185611,751437817,piren,0.10216374307872528,0.012288005395545743,0.003199552552488316,-0.0036793946119203394,0.0002134710378088004,-0.02753677410323083
2025/04/09 10:00:11.874117226,1744185611,870886596,piren,0.10555931618465822,0.0419382865056015,0.017432885564854318,-0.003121757426378148,0.0022158521749917975,-0.026292683845294887
2025/04/09 10:00:11.994896246,1744185611,992191811,piren,0.10973417119111255,-0.004095205168942292,0.0004141215621272504,-0.0029464185747468865,0.004544010297896783,-0.024724066851187682
2025/04/09 10:00:12.54903405,1744185612,52997947,piren,0.11254796947061084,0.04065890447177762,0.021497571465099095,-0.0013812317722206452,0.004668143563466605,-0.030386266234984846
2025/04/09 10:00:12.120045235,1744185612,114773867,piren,0.11614538145268806,0.0973551079721136,0.04071075025212251,-0.0014104639836158425,0.004107879545419049,-0.0061631239722345485
2025/04/09 10:00:12.237232913,1744185612,234044492,piren,0.11872461730140876,0.03431650497077136,0.01757485595790822,-0.00013737456591769712,0.002642300624621815,-0.006106618793769242
2025/04/09 10:00:12.302675871,1744185612,296289446,piren,0.12189701244512197,0.09732178391386945,0.037592059492532755,-0.00020902654942113634,0.0016878621877355828,0.0
2025/04/09 10:00:12.360757527,1744185612,358474683,piren,0.1242166104844159,0.005594583676478533,0.0015607082021389497,0.0008960251773850166,-0.00031697118642163224,-0.03351265596132756
2025/04/09 10:00:12.482931049,1744185612,479851500,piren,0.12560715172127182,-0.0800023471535886,-0.03955113255238177,0.0023635247478122905,-0.0017859781861515212,-0.03347209121720047
2025/04/09 10:00:12.608083075,1744185612,605026232,piren,0.12593621370573202,0.0325287023079963,0.012767985707021288,0.0036846381010009954,-0.0037347978996171366,-0.004155451049674884
2025/04/09 10:00:12.731616024,1744185612,727984589,piren,0.11941125042415965,0.09824651572443288,0.03792455823562882,0.003304827566735073,-0.0049239129082245805,-0.007548511447038188
2025/04/09 10:00:12.792154622,1744185612,789531373,piren,0.130228506524514,0.018767418707493252,0.008379403655780273,0.0027731501621743124,-0.004953154852729988,0.0
2025/04/09 10:00:12.854374024,1744185612,852081493,piren,0.1267645791759384,0.0023240321024652223,0.0034876105918577507,0.0031601439112852393,-0.004368588969464836,-0.03244774460780891
2025/04/09 10:00:12.916992555,1744185612,914683291,piren,0.12385808380565852,0.02546350235214226,0.013586657139076476,0.0005542786183205793,-0.0024676132435740373,-0.006594400361624722
2025/04/09 10:00:13.38751331,1744185613,36718010,piren,0.12165997353030496,-0.022373725418608582,-0.003300321258191106,0.00015651308390788536,-0.00013755983893502425,-0.006590637828709296
2025/04/09 10:00:13.100500713,1744185613,98548682,piren,0.12270888390397142,-0.18543862410326978,-0.06511021027963405,-0.001820844700244545,0.0010450835859245086,0.0
2025/04/09 10:00:13.162423639,1744185613,160053146,piren,0.12539450864590915,-0.25068903099201073,-0.10502147432575071,-0.001394771570029033,0.0035698624502591004,-0.03584460871522596
2025/04/09 10:00:13.282904083,1744185613,280821647,piren,0.12972870849422863,-0.17831538655066814,-0.0731394790707826,-0.0023229129915977634,0.005637177274203743,-0.03206438611736286
2025/04/09 10:00:13.347082342,1744185613,342463504,piren,0.13257228918597191,-0.11916505202549052,-0.05630761299553121,-0.0022365839188517836,0.00545461327289045,-0.045073194441293776
2025/04/09 10:00:13.406601084,1744185613,404375644,piren,0.13668435736257448,0.040472480054821805,0.015123586742246928,-0.003515265595461111,0.0042494571031893875,-0.008854251257848706
2025/04/09 10:00:13.527365280,1744185613,525529186,piren,0.1400723545581155,0.036744506683455976,0.01332681376595238,-0.0028987740602124945,0.0012794179509663074,-0.008784459356182424
2025/04/09 10:00:13.592436939,1744185613,588301865,piren,0.15146657609250777,-0.054256724125424,-0.02796860325648375,-0.0009535707505143506,-2.9938495932766604e-05,0.0
2025/04/09 10:00:13.653049233,1744185613,651035910,piren,0.15060771532180153,0.055571615537285714,0.020118098528390266,-0.00222829477947681,-0.001067886977903456,-0.041500941888971715
2025/04/09 10:00:13.716057865,1744185613,714123187,piren,0.1495786404503587,0.041555358421394864,0.015849892621833457,-0.001001642489648072,-0.0025697303186129304,-0.007117684804042191
2025/04/09 10:00:13.837586540,1744185613,835339695,piren,0.1447379437718893,0.02996739463341376,0.011296610871574912,6.419289114365805e-05,-0.00451021094252176,-0.007426832335272216
2025/04/09 10:00:13.900575708,1744185613,898154692,piren,0.15314176143618108,-0.09079235466431812,-0.04660055482154284,0.002466538775094577,-0.004915342636694331,0.0
