time,header_stamp_secs,header_stamp_nsecs,header_frame_id,status_status,status_service,latitude,longitude,altitude,position_covariance_0,position_covariance_1,position_covariance_2,position_covariance_3,position_covariance_4,position_covariance_5,position_covariance_6,position_covariance_7,position_covariance_8,position_covariance_type
2025/05/06 15:28:00.947669489,1746538080,913003319,mA1/gps,0,1,63.43465783043538,10.392567830026389,0.0,1.4400000000000002e-10,0.0,0.0,0.0,1.4400000000000002e-10,0.0,0.0,0.0,1.0,2
2025/05/06 15:28:01.16577951,1746538080,963931219,mA1/gps,0,1,63.43465782990846,10.39256783098269,0.0,1.4400000000000002e-10,0.0,0.0,0.0,1.4400000000000002e-10,0.0,0.0,0.0,1.0,2
2025/05/06 15:28:01.273087010,1746538081,11276927,mA1/gps,0,1,63.434657830389625,10.392567831383994,0.0,1.4400000000000002e-10,0.0,0.0,0.0,1.4400000000000002e-10,0.0,0.0,0.0,1.0,2
2025/05/06 15:28:01.273505877,1746538081,64947920,mA1/gps,0,1,63.434657830750986,10.392567832581577,0.0,1.4400000000000002e-10,0.0,0.0,0.0,1.4400000000000002e-10,0.0,0.0,0.0,1.0,2
2025/05/06 15:28:01.273608513,1746538081,104987837,mA1/gps,0,1,63.434657830131506,10.392567832912649,0.0,1.4400000000000002e-10,0.0,0.0,0.0,1.4400000000000002e-10,0.0,0.0,0.0,1.0,2
2025/05/06 15:28:01.273647772,1746538081,155300357,mA1/gps,0,1,63.434657829822555,10.39256783324339,0.0,1.4400000000000002e-10,0.0,0.0,0.0,1.4400000000000002e-10,0.0,0.0,0.0,1.0,2
2025/05/06 15:28:01.273684280,1746538081,206624401,mA1/gps,0,1,63.43465783051035,10.392567833495665,0.0,1.4400000000000002e-10,0.0,0.0,0.0,1.4400000000000002e-10,0.0,0.0,0.0,1.0,2
2025/05/06 15:28:01.273720886,1746538081,259644830,mA1/gps,0,1,63.43465783077642,10.39256783357637,0.0,1.4400000000000002e-10,0.0,0.0,0.0,1.4400000000000002e-10,0.0,0.0,0.0,1.0,2
2025/05/06 15:28:01.308672192,1746538081,308421814,mA1/gps,0,1,63.43465783017754,10.392567833080031,0.0,1.4400000000000002e-10,0.0,0.0,0.0,1.4400000000000002e-10,0.0,0.0,0.0,1.0,2
2025/05/06 15:28:01.360531775,1746538081,359474902,mA1/gps,0,1,63.43465782984295,10.392567833157027,0.0,1.4400000000000002e-10,0.0,0.0,0.0,1.4400000000000002e-10,0.0,0.0,0.0,1.0,2
2025/05/06 15:28:01.409834292,1746538081,409567354,mA1/gps,0,1,63.43465783049227,10.39256783270011,0.0,1.4400000000000002e-10,0.0,0.0,0.0,1.4400000000000002e-10,0.0,0.0,0.0,1.0,2
2025/05/06 15:28:01.466709880,1746538081,464608315,mA1/gps,0,1,63.43465783087895,10.3925678314832,0.0,1.4400000000000002e-10,0.0,0.0,0.0,1.4400000000000002e-10,0.0,0.0,0.0,1.0,2
2025/05/06 15:28:01.515337194,1746538081,509060436,mA1/gps,0,1,63.43465783064435,10.392567830157844,0.0,1.4400000000000002e-10,0.0,0.0,0.0,1.4400000000000002e-10,0.0,0.0,0.0,1.0,2
2025/05/06 15:28:01.579036264,1746538081,563270797,mA1/gps,0,1,63.43465783011505,10.392567828429616,0.0,1.4400000000000002e-10,0.0,0.0,0.0,1.4400000000000002e-10,0.0,0.0,0.0,1.0,2
2025/05/06 15:28:01.609961751,1746538081,609013916,mA1/gps,0,1,63.43465783092895,10.392567826207973,0.0,1.4400000000000002e-10,0.0,0.0,0.0,1.4400000000000002e-10,0.0,0.0,0.0,1.0,2
2025/05/06 15:28:01.740920553,1746538081,662704032,mA1/gps,0,1,63.43465783131617,10.392567824175659,0.0,1.4400000000000002e-10,0.0,0.0,0.0,1.4400000000000002e-10,0.0,0.0,0.0,1.0,2
2025/05/06 15:28:01.789288730,1746538081,706356526,mA1/gps,0,1,63.434657830848934,10.39256782095688,0.0,1.4400000000000002e-10,0.0,0.0,0.0,1.4400000000000002e-10,0.0,0.0,0.0,1.0,2
2025/05/06 15:28:01.825688950,1746538081,758789029,mA1/gps,0,1,63.43465783063909,10.392567816908356,0.0,1.4400000000000002e-10,0.0,0.0,0.0,1.4400000000000002e-10,0.0,0.0,0.0,1.0,2
2025/05/06 15:28:01.856606996,1746538081,812779230,mA1/gps,0,1,63.43465783152741,10.392567812693885,0.0,1.4400000000000002e-10,0.0,0.0,0.0,1.4400000000000002e-10,0.0,0.0,0.0,1.0,2
2025/05/06 15:28:01.887785387,1746538081,863194396,mA1/gps,0,1,63.43465783215794,10.392567808433979,0.0,1.4400000000000002e-10,0.0,0.0,0.0,1.4400000000000002e-10,0.0,0.0,0.0,1.0,2
2025/05/06 15:28:01.908842101,1746538081,906759163,mA1/gps,0,1,63.43465783169101,10.392567804197881,0.0,1.4400000000000002e-10,0.0,0.0,0.0,1.4400000000000002e-10,0.0,0.0,0.0,1.0,2
2025/05/06 15:28:01.969167629,1746538081,962017225,mA1/gps,0,1,63.43465783148215,10.392567800425217,0.0,1.4400000000000002e-10,0.0,0.0,0.0,1.4400000000000002e-10,0.0,0.0,0.0,1.0,2
2025/05/06 15:28:02.38458977,1746538082,10544916,mA1/gps,0,1,63.43465783227159,10.392567797100279,0.0,1.4400000000000002e-10,0.0,0.0,0.0,1.4400000000000002e-10,0.0,0.0,0.0,1.0,2
2025/05/06 15:28:02.113973709,1746538082,59751648,mA1/gps,0,1,63.434657832672485,10.39256779530119,0.0,1.4400000000000002e-10,0.0,0.0,0.0,1.4400000000000002e-10,0.0,0.0,0.0,1.0,2
2025/05/06 15:28:02.130360187,1746538082,108060392,mA1/gps,0,1,63.43465783206883,10.392567793968917,0.0,1.4400000000000002e-10,0.0,0.0,0.0,1.4400000000000002e-10,0.0,0.0,0.0,1.0,2
2025/05/06 15:28:02.166386458,1746538082,163544500,mA1/gps,0,1,63.434657831724216,10.392567792740326,0.0,1.4400000000000002e-10,0.0,0.0,0.0,1.4400000000000002e-10,0.0,0.0,0.0,1.0,2
2025/05/06 15:28:02.234895644,1746538082,206559379,mA1/gps,0,1,63.434657832095645,10.392567794109794,0.0,1.4400000000000002e-10,0.0,0.0,0.0,1.4400000000000002e-10,0.0,0.0,0.0,1.0,2
2025/05/06 15:28:02.265216846,1746538082,264225471,mA1/gps,0,1,63.4346578324636,10.392567795900876,0.0,1.4400000000000002e-10,0.0,0.0,0.0,1.4400000000000002e-10,0.0,0.0,0.0,1.0,2
2025/05/06 15:28:02.315778883,1746538082,308509204,mA1/gps,0,1,63.43465783183024,10.392567798030246,0.0,1.4400000000000002e-10,0.0,0.0,0.0,1.4400000000000002e-10,0.0,0.0,0.0,1.0,2
2025/05/06 15:28:02.382405425,1746538082,364679352,mA1/gps,0,1,63.43465783129564,10.392567801488944,0.0,1.4400000000000002e-10,0.0,0.0,0.0,1.4400000000000002e-10,0.0,0.0,0.0,1.0,2
2025/05/06 15:28:02.437874555,1746538082,418796806,mA1/gps,0,1,63.4346578314239,10.392567805544113,0.0,1.4400000000000002e-10,0.0,0.0,0.0,1.4400000000000002e-10,0.0,0.0,0.0,1.0,2
2025/05/06 15:28:02.461068522,1746538082,456123108,mA1/gps,0,1,63.4346578318573,10.39256781049834,0.0,1.4400000000000002e-10,0.0,0.0,0.0,1.4400000000000002e-10,0.0,0.0,0.0,1.0,2
2025/05/06 15:28:02.511643528,1746538082,509455846,mA1/gps,0,1,63.43465783084166,10.392567815136479,0.0,1.4400000000000002e-10,0.0,0.0,0.0,1.4400000000000002e-10,0.0,0.0,0.0,1.0,2
2025/05/06 15:28:02.564753493,1746538082,562146942,mA1/gps,0,1,63.4346578302564,10.392567820605816,0.0,1.4400000000000002e-10,0.0,0.0,0.0,1.4400000000000002e-10,0.0,0.0,0.0,1.0,2
2025/05/06 15:28:02.612452358,1746538082,611730777,mA1/gps,0,1,63.43465783032802,10.392567825124646,0.0,1.4400000000000002e-10,0.0,0.0,0.0,1.4400000000000002e-10,0.0,0.0,0.0,1.0,2
2025/05/06 15:28:02.685313306,1746538082,665707337,mA1/gps,0,1,63.43465783061679,10.392567830177642,0.0,1.4400000000000002e-10,0.0,0.0,0.0,1.4400000000000002e-10,0.0,0.0,0.0,1.0,2
2025/05/06 15:28:02.740114333,1746538082,709164513,mA1/gps,0,1,63.43465782994401,10.392567834691487,0.0,1.4400000000000002e-10,0.0,0.0,0.0,1.4400000000000002e-10,0.0,0.0,0.0,1.0,2
2025/05/06 15:28:02.824284566,1746538082,765797758,mA1/gps,0,1,63.43465782917306,10.392567838935449,0.0,1.4400000000000002e-10,0.0,0.0,0.0,1.4400000000000002e-10,0.0,0.0,0.0,1.0,2
2025/05/06 15:28:02.858153442,1746538082,805785143,mA1/gps,0,1,63.43465782949197,10.392567841716117,0.0,1.4400000000000002e-10,0.0,0.0,0.0,1.4400000000000002e-10,0.0,0.0,0.0,1.0,2
2025/05/06 15:28:02.881318155,1746538082,861544118,mA1/gps,0,1,63.43465782978128,10.392567844434387,0.0,1.4400000000000002e-10,0.0,0.0,0.0,1.4400000000000002e-10,0.0,0.0,0.0,1.0,2
2025/05/06 15:28:02.939450070,1746538082,906864067,mA1/gps,0,1,63.4346578291675,10.392567846560377,0.0,1.4400000000000002e-10,0.0,0.0,0.0,1.4400000000000002e-10,0.0,0.0,0.0,1.0,2
2025/05/06 15:28:02.977430465,1746538082,959019324,mA1/gps,0,1,63.43465782845703,10.39256784818091,0.0,1.4400000000000002e-10,0.0,0.0,0.0,1.4400000000000002e-10,0.0,0.0,0.0,1.0,2
2025/05/06 15:28:03.9006730,1746538083,6664760,mA1/gps,0,1,63.434657828898,10.392567849616881,0.0,1.4400000000000002e-10,0.0,0.0,0.0,1.4400000000000002e-10,0.0,0.0,0.0,1.0,2
2025/05/06 15:28:03.66292465,1746538083,61504314,mA1/gps,0,1,63.43465782960756,10.392567849781738,0.0,1.4400000000000002e-10,0.0,0.0,0.0,1.4400000000000002e-10,0.0,0.0,0.0,1.0,2
2025/05/06 15:28:03.154733499,1746538083,111883883,mA1/gps,0,1,63.43465782898473,10.392567849316572,0.0,1.4400000000000002e-10,0.0,0.0,0.0,1.4400000000000002e-10,0.0,0.0,0.0,1.0,2
2025/05/06 15:28:03.205567332,1746538083,167158953,mA1/gps,0,1,63.43465782864102,10.392567849183111,0.0,1.4400000000000002e-10,0.0,0.0,0.0,1.4400000000000002e-10,0.0,0.0,0.0,1.0,2
2025/05/06 15:28:03.349872849,1746538083,208019104,mA1/gps,0,1,63.43465782906213,10.392567848773908,0.0,1.4400000000000002e-10,0.0,0.0,0.0,1.4400000000000002e-10,0.0,0.0,0.0,1.0,2
2025/05/06 15:28:03.368017314,1746538083,262795470,mA1/gps,0,1,63.434657829585056,10.392567848554904,0.0,1.4400000000000002e-10,0.0,0.0,0.0,1.4400000000000002e-10,0.0,0.0,0.0,1.0,2
2025/05/06 15:28:03.428495742,1746538083,304057453,mA1/gps,0,1,63.43465782886673,10.392567848437716,0.0,1.4400000000000002e-10,0.0,0.0,0.0,1.4400000000000002e-10,0.0,0.0,0.0,1.0,2
2025/05/06 15:28:03.499407461,1746538083,357888475,mA1/gps,0,1,63.43465782857931,10.39256784823715,0.0,1.4400000000000002e-10,0.0,0.0,0.0,1.4400000000000002e-10,0.0,0.0,0.0,1.0,2
2025/05/06 15:28:03.553498705,1746538083,417981706,mA1/gps,0,1,63.43465782902235,10.39256784894722,0.0,1.4400000000000002e-10,0.0,0.0,0.0,1.4400000000000002e-10,0.0,0.0,0.0,1.0,2
2025/05/06 15:28:03.653993131,1746538083,465200775,mA1/gps,0,1,63.43465782948234,10.392567849961742,0.0,1.4400000000000002e-10,0.0,0.0,0.0,1.4400000000000002e-10,0.0,0.0,0.0,1.0,2
2025/05/06 15:28:03.702299540,1746538083,511529061,mA1/gps,0,1,63.43465782878993,10.392567850662212,0.0,1.4400000000000002e-10,0.0,0.0,0.0,1.4400000000000002e-10,0.0,0.0,0.0,1.0,2
2025/05/06 15:28:03.832367384,1746538083,567628877,mA1/gps,0,1,63.43465782811722,10.392567853194473,0.0,1.4400000000000002e-10,0.0,0.0,0.0,1.4400000000000002e-10,0.0,0.0,0.0,1.0,2
2025/05/06 15:28:03.870796040,1746538083,607430508,mA1/gps,0,1,63.43465782869996,10.39256785557414,0.0,1.4400000000000002e-10,0.0,0.0,0.0,1.4400000000000002e-10,0.0,0.0,0.0,1.0,2
2025/05/06 15:28:03.897649528,1746538083,663718249,mA1/gps,0,1,63.43465782877647,10.392567858763828,0.0,1.4400000000000002e-10,0.0,0.0,0.0,1.4400000000000002e-10,0.0,0.0,0.0,1.0,2
2025/05/06 15:28:03.912377220,1746538083,707967448,mA1/gps,0,1,63.43465782816593,10.39256786222086,0.0,1.4400000000000002e-10,0.0,0.0,0.0,1.4400000000000002e-10,0.0,0.0,0.0,1.0,2
2025/05/06 15:28:05.128526696,1746538083,914806154,mA1/gps,0,1,63.43465782725572,10.392567877707483,0.0,1.4400000000000002e-10,0.0,0.0,0.0,1.4400000000000002e-10,0.0,0.0,0.0,1.0,2
2025/05/06 15:28:05.128874089,1746538083,956883763,mA1/gps,0,1,63.43465782664185,10.392567880810239,0.0,1.4400000000000002e-10,0.0,0.0,0.0,1.4400000000000002e-10,0.0,0.0,0.0,1.0,2
2025/05/06 15:28:05.129070231,1746538084,7334589,mA1/gps,0,1,63.4346578270641,10.392567883457051,0.0,1.4400000000000002e-10,0.0,0.0,0.0,1.4400000000000002e-10,0.0,0.0,0.0,1.0,2
2025/05/06 15:28:05.130083117,1746538084,62140278,mA1/gps,0,1,63.43465782735671,10.392567885076502,0.0,1.4400000000000002e-10,0.0,0.0,0.0,1.4400000000000002e-10,0.0,0.0,0.0,1.0,2
2025/05/06 15:28:05.130201283,1746538084,129397899,mA1/gps,0,1,63.43465782649669,10.392567885805473,0.0,1.4400000000000002e-10,0.0,0.0,0.0,1.4400000000000002e-10,0.0,0.0,0.0,1.0,2
2025/05/06 15:28:05.130249416,1746538084,165121033,mA1/gps,0,1,63.4346578261421,10.392567887002082,0.0,1.4400000000000002e-10,0.0,0.0,0.0,1.4400000000000002e-10,0.0,0.0,0.0,1.0,2
2025/05/06 15:28:05.130292646,1746538084,212223994,mA1/gps,0,1,63.43465782655411,10.392567888058856,0.0,1.4400000000000002e-10,0.0,0.0,0.0,1.4400000000000002e-10,0.0,0.0,0.0,1.0,2
2025/05/06 15:28:05.130336123,1746538084,264747443,mA1/gps,0,1,63.434657827301535,10.39256788838664,0.0,1.4400000000000002e-10,0.0,0.0,0.0,1.4400000000000002e-10,0.0,0.0,0.0,1.0,2
2025/05/06 15:28:05.131151845,1746538084,310430738,mA1/gps,0,1,63.43465782667775,10.39256788844211,0.0,1.4400000000000002e-10,0.0,0.0,0.0,1.4400000000000002e-10,0.0,0.0,0.0,1.0,2
2025/05/06 15:28:05.131311228,1746538084,363620309,mA1/gps,0,1,63.434657826195156,10.39256788832554,0.0,1.4400000000000002e-10,0.0,0.0,0.0,1.4400000000000002e-10,0.0,0.0,0.0,1.0,2
2025/05/06 15:28:05.164771445,1746538084,407177599,mA1/gps,0,1,63.43465782650398,10.392567889559974,0.0,1.4400000000000002e-10,0.0,0.0,0.0,1.4400000000000002e-10,0.0,0.0,0.0,1.0,2
2025/05/06 15:28:05.164907707,1746538084,459609788,mA1/gps,0,1,63.43465782702597,10.392567890644047,0.0,1.4400000000000002e-10,0.0,0.0,0.0,1.4400000000000002e-10,0.0,0.0,0.0,1.0,2
2025/05/06 15:28:05.165113724,1746538084,508053491,mA1/gps,0,1,63.434657826248504,10.392567891965648,0.0,1.4400000000000002e-10,0.0,0.0,0.0,1.4400000000000002e-10,0.0,0.0,0.0,1.0,2
2025/05/06 15:28:05.165245441,1746538084,564379028,mA1/gps,0,1,63.43465782597868,10.392567893814899,0.0,1.4400000000000002e-10,0.0,0.0,0.0,1.4400000000000002e-10,0.0,0.0,0.0,1.0,2
2025/05/06 15:28:05.165371157,1746538084,607802313,mA1/gps,0,1,63.43465782634639,10.39256789663786,0.0,1.4400000000000002e-10,0.0,0.0,0.0,1.4400000000000002e-10,0.0,0.0,0.0,1.0,2
2025/05/06 15:28:05.165497395,1746538084,662760460,mA1/gps,0,1,63.434657826563964,10.392567900536719,0.0,1.4400000000000002e-10,0.0,0.0,0.0,1.4400000000000002e-10,0.0,0.0,0.0,1.0,2
2025/05/06 15:28:05.175383181,1746538084,703898406,mA1/gps,0,1,63.434657825672375,10.392567905367187,0.0,1.4400000000000002e-10,0.0,0.0,0.0,1.4400000000000002e-10,0.0,0.0,0.0,1.0,2
2025/05/06 15:28:05.175520409,1746538084,759891318,mA1/gps,0,1,63.43465782476285,10.39256791167837,0.0,1.4400000000000002e-10,0.0,0.0,0.0,1.4400000000000002e-10,0.0,0.0,0.0,1.0,2
2025/05/06 15:28:05.175711151,1746538084,806526194,mA1/gps,0,1,63.43465782507816,10.392567919070446,0.0,1.4400000000000002e-10,0.0,0.0,0.0,1.4400000000000002e-10,0.0,0.0,0.0,1.0,2
2025/05/06 15:28:05.175835219,1746538084,860303356,mA1/gps,0,1,63.43465782518902,10.392567927348843,0.0,1.4400000000000002e-10,0.0,0.0,0.0,1.4400000000000002e-10,0.0,0.0,0.0,1.0,2
2025/05/06 15:28:05.175962070,1746538084,915777032,mA1/gps,0,1,63.43465782411239,10.392567935513474,0.0,1.4400000000000002e-10,0.0,0.0,0.0,1.4400000000000002e-10,0.0,0.0,0.0,1.0,2
2025/05/06 15:28:05.176080458,1746538084,958598752,mA1/gps,0,1,63.43465782317434,10.392567944519543,0.0,1.4400000000000002e-10,0.0,0.0,0.0,1.4400000000000002e-10,0.0,0.0,0.0,1.0,2
2025/05/06 15:28:05.186493846,1746538085,8029886,mA1/gps,0,1,63.43465782320104,10.392567952827797,0.0,1.4400000000000002e-10,0.0,0.0,0.0,1.4400000000000002e-10,0.0,0.0,0.0,1.0,2
2025/05/06 15:28:05.186542121,1746538085,58801160,mA1/gps,0,1,63.434657823459524,10.392567961917889,0.0,1.4400000000000002e-10,0.0,0.0,0.0,1.4400000000000002e-10,0.0,0.0,0.0,1.0,2
2025/05/06 15:28:05.186579883,1746538085,108776870,mA1/gps,0,1,63.434657822483075,10.392567970114461,0.0,1.4400000000000002e-10,0.0,0.0,0.0,1.4400000000000002e-10,0.0,0.0,0.0,1.0,2
2025/05/06 15:28:05.186616812,1746538085,159942169,mA1/gps,0,1,63.434657821412515,10.392567978173636,0.0,1.4400000000000002e-10,0.0,0.0,0.0,1.4400000000000002e-10,0.0,0.0,0.0,1.0,2
2025/05/06 15:28:05.210197820,1746538085,209854945,mA1/gps,0,1,63.43465782159713,10.392567986176772,0.0,1.4400000000000002e-10,0.0,0.0,0.0,1.4400000000000002e-10,0.0,0.0,0.0,1.0,2
2025/05/06 15:28:05.261163618,1746538085,260860376,mA1/gps,0,1,63.43465782154949,10.392567993636556,0.0,1.4400000000000002e-10,0.0,0.0,0.0,1.4400000000000002e-10,0.0,0.0,0.0,1.0,2
2025/05/06 15:28:05.312576310,1746538085,311087044,mA1/gps,0,1,63.434657820806166,10.392567999325205,0.0,1.4400000000000002e-10,0.0,0.0,0.0,1.4400000000000002e-10,0.0,0.0,0.0,1.0,2
2025/05/06 15:28:05.364551966,1746538085,362272635,mA1/gps,0,1,63.434657820037025,10.39256800458672,0.0,1.4400000000000002e-10,0.0,0.0,0.0,1.4400000000000002e-10,0.0,0.0,0.0,1.0,2
2025/05/06 15:28:05.413187467,1746538085,412333979,mA1/gps,0,1,63.43465782032622,10.392568009642924,0.0,1.4400000000000002e-10,0.0,0.0,0.0,1.4400000000000002e-10,0.0,0.0,0.0,1.0,2
2025/05/06 15:28:05.468949452,1746538085,465624096,mA1/gps,0,1,63.434657820538405,10.39256801412694,0.0,1.4400000000000002e-10,0.0,0.0,0.0,1.4400000000000002e-10,0.0,0.0,0.0,1.0,2
2025/05/06 15:28:05.559146696,1746538085,506501690,mA1/gps,0,1,63.43465781985438,10.392568017808054,0.0,1.4400000000000002e-10,0.0,0.0,0.0,1.4400000000000002e-10,0.0,0.0,0.0,1.0,2
2025/05/06 15:28:05.628129231,1746538085,558838776,mA1/gps,0,1,63.43465781889079,10.392568021696682,0.0,1.4400000000000002e-10,0.0,0.0,0.0,1.4400000000000002e-10,0.0,0.0,0.0,1.0,2
2025/05/06 15:28:05.648158194,1746538085,610459107,mA1/gps,0,1,63.43465781941163,10.392568025513183,0.0,1.4400000000000002e-10,0.0,0.0,0.0,1.4400000000000002e-10,0.0,0.0,0.0,1.0,2
2025/05/06 15:28:05.673453865,1746538085,663761305,mA1/gps,0,1,63.43465781969689,10.392568029227247,0.0,1.4400000000000002e-10,0.0,0.0,0.0,1.4400000000000002e-10,0.0,0.0,0.0,1.0,2
2025/05/06 15:28:05.706957278,1746538085,704979072,mA1/gps,0,1,63.43465781893954,10.392568033224828,0.0,1.4400000000000002e-10,0.0,0.0,0.0,1.4400000000000002e-10,0.0,0.0,0.0,1.0,2
2025/05/06 15:28:05.761763676,1746538085,759944173,mA1/gps,0,1,63.43465781815897,10.39256803670819,0.0,1.4400000000000002e-10,0.0,0.0,0.0,1.4400000000000002e-10,0.0,0.0,0.0,1.0,2
2025/05/06 15:28:05.815567380,1746538085,811612308,mA1/gps,0,1,63.43465781866681,10.392568041925221,0.0,1.4400000000000002e-10,0.0,0.0,0.0,1.4400000000000002e-10,0.0,0.0,0.0,1.0,2
2025/05/06 15:28:05.865461650,1746538085,863882134,mA1/gps,0,1,63.434657818623954,10.392568047323735,0.0,1.4400000000000002e-10,0.0,0.0,0.0,1.4400000000000002e-10,0.0,0.0,0.0,1.0,2
2025/05/06 15:28:05.915166441,1746538085,912464212,mA1/gps,0,1,63.434657817780376,10.392568053377369,0.0,1.4400000000000002e-10,0.0,0.0,0.0,1.4400000000000002e-10,0.0,0.0,0.0,1.0,2
2025/05/06 15:28:05.972701791,1746538085,966215222,mA1/gps,0,1,63.434657817023016,10.39256806058921,0.0,1.4400000000000002e-10,0.0,0.0,0.0,1.4400000000000002e-10,0.0,0.0,0.0,1.0,2
2025/05/06 15:28:06.5873989,1746538086,4529745,mA1/gps,0,1,63.43465781697934,10.392568068008364,0.0,1.4400000000000002e-10,0.0,0.0,0.0,1.4400000000000002e-10,0.0,0.0,0.0,1.0,2
2025/05/06 15:28:06.59785529,1746538086,57679962,mA1/gps,0,1,63.434657817043686,10.392568076897252,0.0,1.4400000000000002e-10,0.0,0.0,0.0,1.4400000000000002e-10,0.0,0.0,0.0,1.0,2
2025/05/06 15:28:06.110688785,1746538086,108610840,mA1/gps,0,1,63.434657815849114,10.392568086655949,0.0,1.4400000000000002e-10,0.0,0.0,0.0,1.4400000000000002e-10,0.0,0.0,0.0,1.0,2
2025/05/06 15:28:06.192711099,1746538086,161684000,mA1/gps,0,1,63.434657814906565,10.392568095943501,0.0,1.4400000000000002e-10,0.0,0.0,0.0,1.4400000000000002e-10,0.0,0.0,0.0,1.0,2
2025/05/06 15:28:06.213510793,1746538086,212994054,mA1/gps,0,1,63.43465781470495,10.392568107840214,0.0,1.4400000000000002e-10,0.0,0.0,0.0,1.4400000000000002e-10,0.0,0.0,0.0,1.0,2
2025/05/06 15:28:06.257194881,1746538086,254844527,mA1/gps,0,1,63.43465781469963,10.3925681193362,0.0,1.4400000000000002e-10,0.0,0.0,0.0,1.4400000000000002e-10,0.0,0.0,0.0,1.0,2
2025/05/06 15:28:06.308043341,1746538086,305946154,mA1/gps,0,1,63.43465781350018,10.392568130690124,0.0,1.4400000000000002e-10,0.0,0.0,0.0,1.4400000000000002e-10,0.0,0.0,0.0,1.0,2
2025/05/06 15:28:06.359331099,1746538086,356896924,mA1/gps,0,1,63.434657812294674,10.392568141722734,0.0,1.4400000000000002e-10,0.0,0.0,0.0,1.4400000000000002e-10,0.0,0.0,0.0,1.0,2
2025/05/06 15:28:06.412498504,1746538086,410490059,mA1/gps,0,1,63.43465781234241,10.392568152152757,0.0,1.4400000000000002e-10,0.0,0.0,0.0,1.4400000000000002e-10,0.0,0.0,0.0,1.0,2
2025/05/06 15:28:06.454791966,1746538086,454368715,mA1/gps,0,1,63.434657812107524,10.392568162032871,0.0,1.4400000000000002e-10,0.0,0.0,0.0,1.4400000000000002e-10,0.0,0.0,0.0,1.0,2
2025/05/06 15:28:06.508013004,1746538086,507460604,mA1/gps,0,1,63.43465781117607,10.392568170566872,0.0,1.4400000000000002e-10,0.0,0.0,0.0,1.4400000000000002e-10,0.0,0.0,0.0,1.0,2
2025/05/06 15:28:06.561467738,1746538086,559985512,mA1/gps,0,1,63.434657810284335,10.392568178645679,0.0,1.4400000000000002e-10,0.0,0.0,0.0,1.4400000000000002e-10,0.0,0.0,0.0,1.0,2
2025/05/06 15:28:06.611468425,1746538086,610834514,mA1/gps,0,1,63.434657810462,10.392568185084631,0.0,1.4400000000000002e-10,0.0,0.0,0.0,1.4400000000000002e-10,0.0,0.0,0.0,1.0,2
2025/05/06 15:28:06.668093809,1746538086,662100733,mA1/gps,0,1,63.43465781056295,10.392568190801576,0.0,1.4400000000000002e-10,0.0,0.0,0.0,1.4400000000000002e-10,0.0,0.0,0.0,1.0,2
2025/05/06 15:28:06.715588574,1746538086,714633525,mA1/gps,0,1,63.43465780984717,10.392568195224374,0.0,1.4400000000000002e-10,0.0,0.0,0.0,1.4400000000000002e-10,0.0,0.0,0.0,1.0,2
2025/05/06 15:28:06.763110367,1746538086,760465801,mA1/gps,0,1,63.43465780909088,10.39256819813521,0.0,1.4400000000000002e-10,0.0,0.0,0.0,1.4400000000000002e-10,0.0,0.0,0.0,1.0,2
2025/05/06 15:28:06.813022545,1746538086,811939638,mA1/gps,0,1,63.43465780937509,10.39256820056852,0.0,1.4400000000000002e-10,0.0,0.0,0.0,1.4400000000000002e-10,0.0,0.0,0.0,1.0,2
2025/05/06 15:28:06.878159685,1746538086,865911596,mA1/gps,0,1,63.43465780957446,10.392568201683355,0.0,1.4400000000000002e-10,0.0,0.0,0.0,1.4400000000000002e-10,0.0,0.0,0.0,1.0,2
2025/05/06 15:28:06.909336091,1746538086,908487507,mA1/gps,0,1,63.43465780860385,10.392568200335795,0.0,1.4400000000000002e-10,0.0,0.0,0.0,1.4400000000000002e-10,0.0,0.0,0.0,1.0,2
2025/05/06 15:28:06.962278924,1746538086,959446213,mA1/gps,0,1,63.434657807630096,10.39256820038107,0.0,1.4400000000000002e-10,0.0,0.0,0.0,1.4400000000000002e-10,0.0,0.0,0.0,1.0,2
2025/05/06 15:28:07.11241266,1746538087,10303353,mA1/gps,0,1,63.43465780750504,10.392568206858988,0.0,1.4400000000000002e-10,0.0,0.0,0.0,1.4400000000000002e-10,0.0,0.0,0.0,1.0,2
2025/05/06 15:28:07.63101321,1746538087,62249588,mA1/gps,0,1,63.43465780553315,10.392568211473765,0.0,1.4400000000000002e-10,0.0,0.0,0.0,1.4400000000000002e-10,0.0,0.0,0.0,1.0,2
2025/05/06 15:28:07.109216479,1746538087,106246802,mA1/gps,0,1,63.43465780301404,10.392568217077578,0.0,1.4400000000000002e-10,0.0,0.0,0.0,1.4400000000000002e-10,0.0,0.0,0.0,1.0,2
2025/05/06 15:28:07.156859765,1746538087,155622430,mA1/gps,0,1,63.43465780241693,10.392568223135351,0.0,1.4400000000000002e-10,0.0,0.0,0.0,1.4400000000000002e-10,0.0,0.0,0.0,1.0,2
2025/05/06 15:28:07.211757640,1746538087,208260209,mA1/gps,0,1,63.43465779989572,10.392568228878558,0.0,1.4400000000000002e-10,0.0,0.0,0.0,1.4400000000000002e-10,0.0,0.0,0.0,1.0,2
2025/05/06 15:28:07.265813271,1746538087,263069962,mA1/gps,0,1,63.43465779603911,10.392568234026713,0.0,1.4400000000000002e-10,0.0,0.0,0.0,1.4400000000000002e-10,0.0,0.0,0.0,1.0,2
2025/05/06 15:28:07.310554987,1746538087,310239944,mA1/gps,0,1,63.43465779240852,10.3925682399915,0.0,1.4400000000000002e-10,0.0,0.0,0.0,1.4400000000000002e-10,0.0,0.0,0.0,1.0,2
2025/05/06 15:28:07.370641656,1746538087,367335641,mA1/gps,0,1,63.434657788833334,10.392568246303112,0.0,1.4400000000000002e-10,0.0,0.0,0.0,1.4400000000000002e-10,0.0,0.0,0.0,1.0,2
2025/05/06 15:28:07.417385517,1746538087,413963878,mA1/gps,0,1,63.434657784164926,10.392568252188081,0.0,1.4400000000000002e-10,0.0,0.0,0.0,1.4400000000000002e-10,0.0,0.0,0.0,1.0,2
2025/05/06 15:28:07.462109116,1746538087,458086059,mA1/gps,0,1,63.434657778439245,10.392568258750016,0.0,1.4400000000000002e-10,0.0,0.0,0.0,1.4400000000000002e-10,0.0,0.0,0.0,1.0,2
2025/05/06 15:28:07.516254535,1746538087,514248970,mA1/gps,0,1,63.434657772301016,10.392568265447137,0.0,1.4400000000000002e-10,0.0,0.0,0.0,1.4400000000000002e-10,0.0,0.0,0.0,1.0,2
2025/05/06 15:28:07.559765537,1746538087,557012561,mA1/gps,0,1,63.434657766994206,10.392568272052898,0.0,1.4400000000000002e-10,0.0,0.0,0.0,1.4400000000000002e-10,0.0,0.0,0.0,1.0,2
2025/05/06 15:28:07.614431521,1746538087,611596988,mA1/gps,0,1,63.434657760326864,10.39256827849811,0.0,1.4400000000000002e-10,0.0,0.0,0.0,1.4400000000000002e-10,0.0,0.0,0.0,1.0,2
2025/05/06 15:28:07.662999270,1746538087,662174627,mA1/gps,0,1,63.43465775297315,10.392568285140113,0.0,1.4400000000000002e-10,0.0,0.0,0.0,1.4400000000000002e-10,0.0,0.0,0.0,1.0,2
2025/05/06 15:28:07.708519151,1746538087,708212075,mA1/gps,0,1,63.434657745475995,10.392568292006445,0.0,1.4400000000000002e-10,0.0,0.0,0.0,1.4400000000000002e-10,0.0,0.0,0.0,1.0,2
2025/05/06 15:28:07.761861777,1746538087,759222282,mA1/gps,0,1,63.43465773700001,10.392568298089524,0.0,1.4400000000000002e-10,0.0,0.0,0.0,1.4400000000000002e-10,0.0,0.0,0.0,1.0,2
2025/05/06 15:28:07.814974179,1746538087,812362475,mA1/gps,0,1,63.43465772978888,10.392568304435454,0.0,1.4400000000000002e-10,0.0,0.0,0.0,1.4400000000000002e-10,0.0,0.0,0.0,1.0,2
2025/05/06 15:28:07.866038740,1746538087,863417709,mA1/gps,0,1,63.434657722528584,10.39256831109271,0.0,1.4400000000000002e-10,0.0,0.0,0.0,1.4400000000000002e-10,0.0,0.0,0.0,1.0,2
2025/05/06 15:28:07.906464346,1746538087,906016936,mA1/gps,0,1,63.43465771269999,10.392568316498016,0.0,1.4400000000000002e-10,0.0,0.0,0.0,1.4400000000000002e-10,0.0,0.0,0.0,1.0,2
2025/05/06 15:28:07.969264246,1746538087,965910342,mA1/gps,0,1,63.43465770410817,10.3925683230354,0.0,1.4400000000000002e-10,0.0,0.0,0.0,1.4400000000000002e-10,0.0,0.0,0.0,1.0,2
2025/05/06 15:28:08.13458476,1746538088,8426447,mA1/gps,0,1,63.43465769644361,10.39256832981549,0.0,1.4400000000000002e-10,0.0,0.0,0.0,1.4400000000000002e-10,0.0,0.0,0.0,1.0,2
2025/05/06 15:28:08.65306016,1746538088,63862121,mA1/gps,0,1,63.434657687791756,10.392568336432024,0.0,1.4400000000000002e-10,0.0,0.0,0.0,1.4400000000000002e-10,0.0,0.0,0.0,1.0,2
2025/05/06 15:28:08.111277319,1746538088,109527283,mA1/gps,0,1,63.43465767873511,10.39256834348917,0.0,1.4400000000000002e-10,0.0,0.0,0.0,1.4400000000000002e-10,0.0,0.0,0.0,1.0,2
2025/05/06 15:28:08.162837507,1746538088,161880239,mA1/gps,0,1,63.434657669833996,10.39256834958659,0.0,1.4400000000000002e-10,0.0,0.0,0.0,1.4400000000000002e-10,0.0,0.0,0.0,1.0,2
2025/05/06 15:28:08.215549238,1746538088,211533057,mA1/gps,0,1,63.434657661720394,10.392568356893689,0.0,1.4400000000000002e-10,0.0,0.0,0.0,1.4400000000000002e-10,0.0,0.0,0.0,1.0,2
2025/05/06 15:28:08.262341579,1746538088,260351295,mA1/gps,0,1,63.434657653622025,10.392568363154243,0.0,1.4400000000000002e-10,0.0,0.0,0.0,1.4400000000000002e-10,0.0,0.0,0.0,1.0,2
2025/05/06 15:28:08.315477501,1746538088,314270875,mA1/gps,0,1,63.43465764434641,10.392568369244447,0.0,1.4400000000000002e-10,0.0,0.0,0.0,1.4400000000000002e-10,0.0,0.0,0.0,1.0,2
2025/05/06 15:28:08.358059017,1746538088,356726340,mA1/gps,0,1,63.43465763546826,10.392568376569244,0.0,1.4400000000000002e-10,0.0,0.0,0.0,1.4400000000000002e-10,0.0,0.0,0.0,1.0,2
2025/05/06 15:28:08.408226673,1746538088,407529558,mA1/gps,0,1,63.434657626580965,10.392568382568953,0.0,1.4400000000000002e-10,0.0,0.0,0.0,1.4400000000000002e-10,0.0,0.0,0.0,1.0,2
2025/05/06 15:28:08.466902428,1746538088,463268542,mA1/gps,0,1,63.434657617913224,10.392568388679607,0.0,1.4400000000000002e-10,0.0,0.0,0.0,1.4400000000000002e-10,0.0,0.0,0.0,1.0,2
2025/05/06 15:28:08.508809496,1746538088,506517753,mA1/gps,0,1,63.4346576083968,10.392568394085426,0.0,1.4400000000000002e-10,0.0,0.0,0.0,1.4400000000000002e-10,0.0,0.0,0.0,1.0,2
2025/05/06 15:28:08.562829872,1746538088,562474272,mA1/gps,0,1,63.43465759913621,10.392568400338773,0.0,1.4400000000000002e-10,0.0,0.0,0.0,1.4400000000000002e-10,0.0,0.0,0.0,1.0,2
2025/05/06 15:28:08.615967427,1746538088,611703105,mA1/gps,0,1,63.434657590398444,10.392568405877281,0.0,1.4400000000000002e-10,0.0,0.0,0.0,1.4400000000000002e-10,0.0,0.0,0.0,1.0,2
2025/05/06 15:28:08.661408268,1746538088,659090762,mA1/gps,0,1,63.43465757985182,10.392568410822339,0.0,1.4400000000000002e-10,0.0,0.0,0.0,1.4400000000000002e-10,0.0,0.0,0.0,1.0,2
2025/05/06 15:28:08.716039464,1746538088,715016620,mA1/gps,0,1,63.43465756889872,10.392568416434573,0.0,1.4400000000000002e-10,0.0,0.0,0.0,1.4400000000000002e-10,0.0,0.0,0.0,1.0,2
2025/05/06 15:28:08.767572611,1746538088,760430663,mA1/gps,0,1,63.43465755757237,10.392568422085235,0.0,1.4400000000000002e-10,0.0,0.0,0.0,1.4400000000000002e-10,0.0,0.0,0.0,1.0,2
2025/05/06 15:28:08.811764766,1746538088,807926071,mA1/gps,0,1,63.43465754581694,10.392568427855254,0.0,1.4400000000000002e-10,0.0,0.0,0.0,1.4400000000000002e-10,0.0,0.0,0.0,1.0,2
2025/05/06 15:28:08.859712002,1746538088,859401448,mA1/gps,0,1,63.434657533622165,10.392568433381763,0.0,1.4400000000000002e-10,0.0,0.0,0.0,1.4400000000000002e-10,0.0,0.0,0.0,1.0,2
2025/05/06 15:28:08.909998060,1746538088,909130704,mA1/gps,0,1,63.43465752102476,10.392568439506347,0.0,1.4400000000000002e-10,0.0,0.0,0.0,1.4400000000000002e-10,0.0,0.0,0.0,1.0,2
2025/05/06 15:28:08.962730944,1746538088,961308625,mA1/gps,0,1,63.4346575078914,10.392568445989935,0.0,1.4400000000000002e-10,0.0,0.0,0.0,1.4400000000000002e-10,0.0,0.0,0.0,1.0,2
2025/05/06 15:28:09.13094501,1746538089,12721295,mA1/gps,0,1,63.43465749340026,10.392568452376114,0.0,1.4400000000000002e-10,0.0,0.0,0.0,1.4400000000000002e-10,0.0,0.0,0.0,1.0,2
2025/05/06 15:28:09.57620691,1746538089,56096921,mA1/gps,0,1,63.43465747881847,10.392568457278367,0.0,1.4400000000000002e-10,0.0,0.0,0.0,1.4400000000000002e-10,0.0,0.0,0.0,1.0,2
2025/05/06 15:28:09.108226654,1746538089,105090152,mA1/gps,0,1,63.43465746546739,10.392568460652173,0.0,1.4400000000000002e-10,0.0,0.0,0.0,1.4400000000000002e-10,0.0,0.0,0.0,1.0,2
2025/05/06 15:28:09.158297739,1746538089,156897284,mA1/gps,0,1,63.4346574508444,10.392568462565674,0.0,1.4400000000000002e-10,0.0,0.0,0.0,1.4400000000000002e-10,0.0,0.0,0.0,1.0,2
2025/05/06 15:28:09.209435161,1746538089,208949522,mA1/gps,0,1,63.43465743551439,10.392568464456376,0.0,1.4400000000000002e-10,0.0,0.0,0.0,1.4400000000000002e-10,0.0,0.0,0.0,1.0,2
2025/05/06 15:28:09.265448400,1746538089,263206214,mA1/gps,0,1,63.434657419853195,10.392568465517074,0.0,1.4400000000000002e-10,0.0,0.0,0.0,1.4400000000000002e-10,0.0,0.0,0.0,1.0,2
2025/05/06 15:28:09.311277522,1746538089,310993708,mA1/gps,0,1,63.43465740334549,10.392568467656131,0.0,1.4400000000000002e-10,0.0,0.0,0.0,1.4400000000000002e-10,0.0,0.0,0.0,1.0,2
2025/05/06 15:28:09.364013940,1746538089,362556445,mA1/gps,0,1,63.43465738653289,10.392568471640951,0.0,1.4400000000000002e-10,0.0,0.0,0.0,1.4400000000000002e-10,0.0,0.0,0.0,1.0,2
2025/05/06 15:28:09.412739182,1746538089,411907902,mA1/gps,0,1,63.43465737008038,10.392568478951247,0.0,1.4400000000000002e-10,0.0,0.0,0.0,1.4400000000000002e-10,0.0,0.0,0.0,1.0,2
2025/05/06 15:28:09.464796258,1746538089,462970507,mA1/gps,0,1,63.43465735349758,10.392568489042986,0.0,1.4400000000000002e-10,0.0,0.0,0.0,1.4400000000000002e-10,0.0,0.0,0.0,1.0,2
2025/05/06 15:28:09.504333958,1746538089,503788951,mA1/gps,0,1,63.43465733746605,10.392568501922918,0.0,1.4400000000000002e-10,0.0,0.0,0.0,1.4400000000000002e-10,0.0,0.0,0.0,1.0,2
2025/05/06 15:28:09.558262669,1746538089,556757407,mA1/gps,0,1,63.434657319817525,10.392568517663856,0.0,1.4400000000000002e-10,0.0,0.0,0.0,1.4400000000000002e-10,0.0,0.0,0.0,1.0,2
2025/05/06 15:28:09.605920725,1746538089,605353601,mA1/gps,0,1,63.434657303370635,10.392568536203841,0.0,1.4400000000000002e-10,0.0,0.0,0.0,1.4400000000000002e-10,0.0,0.0,0.0,1.0,2
2025/05/06 15:28:09.657203941,1746538089,656422055,mA1/gps,0,1,63.43465728387507,10.39256855519828,0.0,1.4400000000000002e-10,0.0,0.0,0.0,1.4400000000000002e-10,0.0,0.0,0.0,1.0,2
2025/05/06 15:28:09.707286417,1746538089,706991527,mA1/gps,0,1,63.43465726556689,10.39256857535002,0.0,1.4400000000000002e-10,0.0,0.0,0.0,1.4400000000000002e-10,0.0,0.0,0.0,1.0,2
2025/05/06 15:28:09.759593225,1746538089,759079848,mA1/gps,0,1,63.43465724802031,10.39256859755248,0.0,1.4400000000000002e-10,0.0,0.0,0.0,1.4400000000000002e-10,0.0,0.0,0.0,1.0,2
2025/05/06 15:28:09.813158431,1746538089,812006213,mA1/gps,0,1,63.434657230584314,10.392568618438895,0.0,1.4400000000000002e-10,0.0,0.0,0.0,1.4400000000000002e-10,0.0,0.0,0.0,1.0,2
2025/05/06 15:28:09.864491124,1746538089,863429690,mA1/gps,0,1,63.434657212482925,10.392568638444828,0.0,1.4400000000000002e-10,0.0,0.0,0.0,1.4400000000000002e-10,0.0,0.0,0.0,1.0,2
2025/05/06 15:28:09.905056449,1746538089,904585390,mA1/gps,0,1,63.43465719428743,10.39256865674713,0.0,1.4400000000000002e-10,0.0,0.0,0.0,1.4400000000000002e-10,0.0,0.0,0.0,1.0,2
2025/05/06 15:28:09.960618830,1746538089,957691122,mA1/gps,0,1,63.43465717776152,10.392568672933265,0.0,1.4400000000000002e-10,0.0,0.0,0.0,1.4400000000000002e-10,0.0,0.0,0.0,1.0,2
2025/05/06 15:28:10.17042921,1746538090,13048883,mA1/gps,0,1,63.43465715851994,10.392568685430431,0.0,1.4400000000000002e-10,0.0,0.0,0.0,1.4400000000000002e-10,0.0,0.0,0.0,1.0,2
2025/05/06 15:28:10.55464142,1746538090,54455429,mA1/gps,0,1,63.434657140067635,10.392568694620124,0.0,1.4400000000000002e-10,0.0,0.0,0.0,1.4400000000000002e-10,0.0,0.0,0.0,1.0,2
2025/05/06 15:28:10.105851719,1746538090,104668094,mA1/gps,0,1,63.43465712295653,10.392568701739732,0.0,1.4400000000000002e-10,0.0,0.0,0.0,1.4400000000000002e-10,0.0,0.0,0.0,1.0,2
2025/05/06 15:28:10.156893973,1746538090,155598612,mA1/gps,0,1,63.434657103997466,10.392568705323214,0.0,1.4400000000000002e-10,0.0,0.0,0.0,1.4400000000000002e-10,0.0,0.0,0.0,1.0,2
2025/05/06 15:28:10.209251300,1746538090,207160462,mA1/gps,0,1,63.43465708625596,10.3925687065939,0.0,1.4400000000000002e-10,0.0,0.0,0.0,1.4400000000000002e-10,0.0,0.0,0.0,1.0,2
2025/05/06 15:28:10.260680408,1746538090,258033393,mA1/gps,0,1,63.43465706675155,10.392568705355883,0.0,1.4400000000000002e-10,0.0,0.0,0.0,1.4400000000000002e-10,0.0,0.0,0.0,1.0,2
2025/05/06 15:28:10.309304815,1746538090,308243298,mA1/gps,0,1,63.43465704888767,10.392568702477407,0.0,1.4400000000000002e-10,0.0,0.0,0.0,1.4400000000000002e-10,0.0,0.0,0.0,1.0,2
2025/05/06 15:28:10.360579161,1746538090,359000969,mA1/gps,0,1,63.43465702971009,10.39256869775812,0.0,1.4400000000000002e-10,0.0,0.0,0.0,1.4400000000000002e-10,0.0,0.0,0.0,1.0,2
2025/05/06 15:28:10.413634906,1746538090,409460973,mA1/gps,0,1,63.43465700991,10.392568692775761,0.0,1.4400000000000002e-10,0.0,0.0,0.0,1.4400000000000002e-10,0.0,0.0,0.0,1.0,2
2025/05/06 15:28:10.465359940,1746538090,462220966,mA1/gps,0,1,63.43465699013426,10.392568687712295,0.0,1.4400000000000002e-10,0.0,0.0,0.0,1.4400000000000002e-10,0.0,0.0,0.0,1.0,2
2025/05/06 15:28:10.534935174,1746538090,514362216,mA1/gps,0,1,63.43465696986167,10.392568683092085,0.0,1.4400000000000002e-10,0.0,0.0,0.0,1.4400000000000002e-10,0.0,0.0,0.0,1.0,2
2025/05/06 15:28:10.566264691,1746538090,562999989,mA1/gps,0,1,63.43465694910253,10.392568679609251,0.0,1.4400000000000002e-10,0.0,0.0,0.0,1.4400000000000002e-10,0.0,0.0,0.0,1.0,2
2025/05/06 15:28:10.607013293,1746538090,606226445,mA1/gps,0,1,63.434656928045854,10.392568677721474,0.0,1.4400000000000002e-10,0.0,0.0,0.0,1.4400000000000002e-10,0.0,0.0,0.0,1.0,2
2025/05/06 15:28:10.657225210,1746538090,657029171,mA1/gps,0,1,63.434656906444985,10.392568678698114,0.0,1.4400000000000002e-10,0.0,0.0,0.0,1.4400000000000002e-10,0.0,0.0,0.0,1.0,2
2025/05/06 15:28:10.708361770,1746538090,707648150,mA1/gps,0,1,63.4346568846059,10.392568681131214,0.0,1.4400000000000002e-10,0.0,0.0,0.0,1.4400000000000002e-10,0.0,0.0,0.0,1.0,2
2025/05/06 15:28:10.761061723,1746538090,760576544,mA1/gps,0,1,63.43465686231304,10.392568685115393,0.0,1.4400000000000002e-10,0.0,0.0,0.0,1.4400000000000002e-10,0.0,0.0,0.0,1.0,2
2025/05/06 15:28:10.811237888,1746538090,810466417,mA1/gps,0,1,63.43465683921603,10.392568691182507,0.0,1.4400000000000002e-10,0.0,0.0,0.0,1.4400000000000002e-10,0.0,0.0,0.0,1.0,2
2025/05/06 15:28:10.862461009,1746538090,861353690,mA1/gps,0,1,63.434656815892,10.392568699607459,0.0,1.4400000000000002e-10,0.0,0.0,0.0,1.4400000000000002e-10,0.0,0.0,0.0,1.0,2
2025/05/06 15:28:10.914265369,1746538090,911355071,mA1/gps,0,1,63.43465679166446,10.392568708214183,0.0,1.4400000000000002e-10,0.0,0.0,0.0,1.4400000000000002e-10,0.0,0.0,0.0,1.0,2
2025/05/06 15:28:10.965317446,1746538090,964828726,mA1/gps,0,1,63.434656766939874,10.392568720380046,0.0,1.4400000000000002e-10,0.0,0.0,0.0,1.4400000000000002e-10,0.0,0.0,0.0,1.0,2
2025/05/06 15:28:11.16474242,1746538091,13864679,mA1/gps,0,1,63.43465674307792,10.392568733149092,0.0,1.4400000000000002e-10,0.0,0.0,0.0,1.4400000000000002e-10,0.0,0.0,0.0,1.0,2
2025/05/06 15:28:11.55994561,1746538091,54414662,mA1/gps,0,1,63.4346567191495,10.39256874572244,0.0,1.4400000000000002e-10,0.0,0.0,0.0,1.4400000000000002e-10,0.0,0.0,0.0,1.0,2
2025/05/06 15:28:11.104530049,1746538091,104180667,mA1/gps,0,1,63.43465669558085,10.392568757321053,0.0,1.4400000000000002e-10,0.0,0.0,0.0,1.4400000000000002e-10,0.0,0.0,0.0,1.0,2
2025/05/06 15:28:11.158145679,1746538091,156908959,mA1/gps,0,1,63.434656671451556,10.392568766005942,0.0,1.4400000000000002e-10,0.0,0.0,0.0,1.4400000000000002e-10,0.0,0.0,0.0,1.0,2
2025/05/06 15:28:11.206779210,1746538091,205602839,mA1/gps,0,1,63.43465664627561,10.392568772639793,0.0,1.4400000000000002e-10,0.0,0.0,0.0,1.4400000000000002e-10,0.0,0.0,0.0,1.0,2
2025/05/06 15:28:11.258542677,1746538091,257583293,mA1/gps,0,1,63.43465662104261,10.392568776121927,0.0,1.4400000000000002e-10,0.0,0.0,0.0,1.4400000000000002e-10,0.0,0.0,0.0,1.0,2
2025/05/06 15:28:11.306999794,1746538091,306581454,mA1/gps,0,1,63.43465659554024,10.392568777464707,0.0,1.4400000000000002e-10,0.0,0.0,0.0,1.4400000000000002e-10,0.0,0.0,0.0,1.0,2
2025/05/06 15:28:11.359616339,1746538091,357898430,mA1/gps,0,1,63.43465657077351,10.392568775515025,0.0,1.4400000000000002e-10,0.0,0.0,0.0,1.4400000000000002e-10,0.0,0.0,0.0,1.0,2
2025/05/06 15:28:11.414817530,1746538091,412741764,mA1/gps,0,1,63.43465654651693,10.392568771358539,0.0,1.4400000000000002e-10,0.0,0.0,0.0,1.4400000000000002e-10,0.0,0.0,0.0,1.0,2
2025/05/06 15:28:11.455574035,1746538091,455167558,mA1/gps,0,1,63.434656520892354,10.392568764904446,0.0,1.4400000000000002e-10,0.0,0.0,0.0,1.4400000000000002e-10,0.0,0.0,0.0,1.0,2
2025/05/06 15:28:11.507169375,1746538091,506190300,mA1/gps,0,1,63.43465649540312,10.392568755727119,0.0,1.4400000000000002e-10,0.0,0.0,0.0,1.4400000000000002e-10,0.0,0.0,0.0,1.0,2
2025/05/06 15:28:11.557101527,1746538091,556464680,mA1/gps,0,1,63.43465646991182,10.392568745185828,0.0,1.4400000000000002e-10,0.0,0.0,0.0,1.4400000000000002e-10,0.0,0.0,0.0,1.0,2
2025/05/06 15:28:11.605941516,1746538091,605579083,mA1/gps,0,1,63.4346564427276,10.392568733254636,0.0,1.4400000000000002e-10,0.0,0.0,0.0,1.4400000000000002e-10,0.0,0.0,0.0,1.0,2
2025/05/06 15:28:11.659534341,1746538091,657567319,mA1/gps,0,1,63.43465641563486,10.39256872122779,0.0,1.4400000000000002e-10,0.0,0.0,0.0,1.4400000000000002e-10,0.0,0.0,0.0,1.0,2
2025/05/06 15:28:11.710416921,1746538091,708158756,mA1/gps,0,1,63.43465638799463,10.392568709706639,0.0,1.4400000000000002e-10,0.0,0.0,0.0,1.4400000000000002e-10,0.0,0.0,0.0,1.0,2
2025/05/06 15:28:11.759512446,1746538091,759086425,mA1/gps,0,1,63.4346563594789,10.392568698848136,0.0,1.4400000000000002e-10,0.0,0.0,0.0,1.4400000000000002e-10,0.0,0.0,0.0,1.0,2
2025/05/06 15:28:11.809913759,1746538091,809589528,mA1/gps,0,1,63.434656333282526,10.392568690460259,0.0,1.4400000000000002e-10,0.0,0.0,0.0,1.4400000000000002e-10,0.0,0.0,0.0,1.0,2
2025/05/06 15:28:11.861800044,1746538091,860486959,mA1/gps,0,1,63.434656302547516,10.39256868328708,0.0,1.4400000000000002e-10,0.0,0.0,0.0,1.4400000000000002e-10,0.0,0.0,0.0,1.0,2
2025/05/06 15:28:11.911092622,1746538091,910420633,mA1/gps,0,1,63.43465627218063,10.392568678399774,0.0,1.4400000000000002e-10,0.0,0.0,0.0,1.4400000000000002e-10,0.0,0.0,0.0,1.0,2
2025/05/06 15:28:11.962539495,1746538091,962046913,mA1/gps,0,1,63.43465624136632,10.392568675319101,0.0,1.4400000000000002e-10,0.0,0.0,0.0,1.4400000000000002e-10,0.0,0.0,0.0,1.0,2
2025/05/06 15:28:12.14469496,1746538092,13047843,mA1/gps,0,1,63.43465620985718,10.392568675297058,0.0,1.4400000000000002e-10,0.0,0.0,0.0,1.4400000000000002e-10,0.0,0.0,0.0,1.0,2
2025/05/06 15:28:12.65906697,1746538092,65419549,mA1/gps,0,1,63.434656177666476,10.392568672359092,0.0,1.4400000000000002e-10,0.0,0.0,0.0,1.4400000000000002e-10,0.0,0.0,0.0,1.0,2
2025/05/06 15:28:12.115612692,1746538092,112985345,mA1/gps,0,1,63.43465614499545,10.392568665980026,0.0,1.4400000000000002e-10,0.0,0.0,0.0,1.4400000000000002e-10,0.0,0.0,0.0,1.0,2
2025/05/06 15:28:12.155387730,1746538092,154449429,mA1/gps,0,1,63.43465611494442,10.39256866020949,0.0,1.4400000000000002e-10,0.0,0.0,0.0,1.4400000000000002e-10,0.0,0.0,0.0,1.0,2
2025/05/06 15:28:12.205560450,1746538092,205234651,mA1/gps,0,1,63.43465608119345,10.39256865520509,0.0,1.4400000000000002e-10,0.0,0.0,0.0,1.4400000000000002e-10,0.0,0.0,0.0,1.0,2
2025/05/06 15:28:12.259016400,1746538092,256644706,mA1/gps,0,1,63.43465604739902,10.392568652672194,0.0,1.4400000000000002e-10,0.0,0.0,0.0,1.4400000000000002e-10,0.0,0.0,0.0,1.0,2
2025/05/06 15:28:12.306648716,1746538092,306336397,mA1/gps,0,1,63.43465601252717,10.392568655627683,0.0,1.4400000000000002e-10,0.0,0.0,0.0,1.4400000000000002e-10,0.0,0.0,0.0,1.0,2
2025/05/06 15:28:12.361300897,1746538092,359498267,mA1/gps,0,1,63.43465597675463,10.392568664845921,0.0,1.4400000000000002e-10,0.0,0.0,0.0,1.4400000000000002e-10,0.0,0.0,0.0,1.0,2
2025/05/06 15:28:12.412205518,1746538092,410164925,mA1/gps,0,1,63.43465594154494,10.392568679885338,0.0,1.4400000000000002e-10,0.0,0.0,0.0,1.4400000000000002e-10,0.0,0.0,0.0,1.0,2
2025/05/06 15:28:12.461443977,1746538092,460880283,mA1/gps,0,1,63.434655906850914,10.392568700920384,0.0,1.4400000000000002e-10,0.0,0.0,0.0,1.4400000000000002e-10,0.0,0.0,0.0,1.0,2
2025/05/06 15:28:12.511638280,1746538092,511429707,mA1/gps,0,1,63.434655870871985,10.392568725115677,0.0,1.4400000000000002e-10,0.0,0.0,0.0,1.4400000000000002e-10,0.0,0.0,0.0,1.0,2
2025/05/06 15:28:12.563656590,1746538092,562379639,mA1/gps,0,1,63.43465583587312,10.392568752169469,0.0,1.4400000000000002e-10,0.0,0.0,0.0,1.4400000000000002e-10,0.0,0.0,0.0,1.0,2
2025/05/06 15:28:12.608269207,1746538092,606397483,mA1/gps,0,1,63.43465579921762,10.392568779787451,0.0,1.4400000000000002e-10,0.0,0.0,0.0,1.4400000000000002e-10,0.0,0.0,0.0,1.0,2
2025/05/06 15:28:12.658267994,1746538092,657190776,mA1/gps,0,1,63.434655762923875,10.392568806882576,0.0,1.4400000000000002e-10,0.0,0.0,0.0,1.4400000000000002e-10,0.0,0.0,0.0,1.0,2
2025/05/06 15:28:12.709651845,1746538092,707394586,mA1/gps,0,1,63.4346557267352,10.392568831539606,0.0,1.4400000000000002e-10,0.0,0.0,0.0,1.4400000000000002e-10,0.0,0.0,0.0,1.0,2
2025/05/06 15:28:12.766423685,1746538092,762400953,mA1/gps,0,1,63.434655692467935,10.392568853707346,0.0,1.4400000000000002e-10,0.0,0.0,0.0,1.4400000000000002e-10,0.0,0.0,0.0,1.0,2
2025/05/06 15:28:12.813243663,1746538092,812586863,mA1/gps,0,1,63.43465565869107,10.392568871273335,0.0,1.4400000000000002e-10,0.0,0.0,0.0,1.4400000000000002e-10,0.0,0.0,0.0,1.0,2
2025/05/06 15:28:12.855536355,1746538092,855108640,mA1/gps,0,1,63.43465562447898,10.39256888245168,0.0,1.4400000000000002e-10,0.0,0.0,0.0,1.4400000000000002e-10,0.0,0.0,0.0,1.0,2
2025/05/06 15:28:12.906005789,1746538092,905471694,mA1/gps,0,1,63.43465559036424,10.392568887917918,0.0,1.4400000000000002e-10,0.0,0.0,0.0,1.4400000000000002e-10,0.0,0.0,0.0,1.0,2
2025/05/06 15:28:12.957625018,1746538092,956778650,mA1/gps,0,1,63.43465555690034,10.392568887312342,0.0,1.4400000000000002e-10,0.0,0.0,0.0,1.4400000000000002e-10,0.0,0.0,0.0,1.0,2
2025/05/06 15:28:13.6770375,1746538093,6569716,mA1/gps,0,1,63.43465552279072,10.3925688796344,0.0,1.4400000000000002e-10,0.0,0.0,0.0,1.4400000000000002e-10,0.0,0.0,0.0,1.0,2
2025/05/06 15:28:13.60684730,1746538093,57813559,mA1/gps,0,1,63.434655490153574,10.392568866142884,0.0,1.4400000000000002e-10,0.0,0.0,0.0,1.4400000000000002e-10,0.0,0.0,0.0,1.0,2
2025/05/06 15:28:13.108605569,1746538093,107587861,mA1/gps,0,1,63.434655456552846,10.392568846546549,0.0,1.4400000000000002e-10,0.0,0.0,0.0,1.4400000000000002e-10,0.0,0.0,0.0,1.0,2
2025/05/06 15:28:13.160267172,1746538093,158830452,mA1/gps,0,1,63.434655423022626,10.392568822865822,0.0,1.4400000000000002e-10,0.0,0.0,0.0,1.4400000000000002e-10,0.0,0.0,0.0,1.0,2
2025/05/06 15:28:13.208838889,1746538093,208334119,mA1/gps,0,1,63.434655390856236,10.392568795972505,0.0,1.4400000000000002e-10,0.0,0.0,0.0,1.4400000000000002e-10,0.0,0.0,0.0,1.0,2
2025/05/06 15:28:13.262396949,1746538093,259994245,mA1/gps,0,1,63.43465535837981,10.392568767261047,0.0,1.4400000000000002e-10,0.0,0.0,0.0,1.4400000000000002e-10,0.0,0.0,0.0,1.0,2
2025/05/06 15:28:13.311816918,1746538093,311174719,mA1/gps,0,1,63.4346553251392,10.392568737724133,0.0,1.4400000000000002e-10,0.0,0.0,0.0,1.4400000000000002e-10,0.0,0.0,0.0,1.0,2
2025/05/06 15:28:13.365374938,1746538093,363093085,mA1/gps,0,1,63.434655291935556,10.392568709650325,0.0,1.4400000000000002e-10,0.0,0.0,0.0,1.4400000000000002e-10,0.0,0.0,0.0,1.0,2
2025/05/06 15:28:13.414137791,1746538093,413722629,mA1/gps,0,1,63.43465525738158,10.392568684143844,0.0,1.4400000000000002e-10,0.0,0.0,0.0,1.4400000000000002e-10,0.0,0.0,0.0,1.0,2
2025/05/06 15:28:13.464130488,1746538093,463348545,mA1/gps,0,1,63.43465522357724,10.392568663925253,0.0,1.4400000000000002e-10,0.0,0.0,0.0,1.4400000000000002e-10,0.0,0.0,0.0,1.0,2
2025/05/06 15:28:13.506951108,1746538093,504316306,mA1/gps,0,1,63.43465518914397,10.392568648353924,0.0,1.4400000000000002e-10,0.0,0.0,0.0,1.4400000000000002e-10,0.0,0.0,0.0,1.0,2
2025/05/06 15:28:13.557311105,1746538093,555608369,mA1/gps,0,1,63.43465515450115,10.392568638270914,0.0,1.4400000000000002e-10,0.0,0.0,0.0,1.4400000000000002e-10,0.0,0.0,0.0,1.0,2
2025/05/06 15:28:13.608298631,1746538093,606215886,mA1/gps,0,1,63.43465512052206,10.392568632564078,0.0,1.4400000000000002e-10,0.0,0.0,0.0,1.4400000000000002e-10,0.0,0.0,0.0,1.0,2
2025/05/06 15:28:13.658885040,1746538093,657124465,mA1/gps,0,1,63.43465508560155,10.392568628892366,0.0,1.4400000000000002e-10,0.0,0.0,0.0,1.4400000000000002e-10,0.0,0.0,0.0,1.0,2
2025/05/06 15:28:13.707780045,1746538093,706803974,mA1/gps,0,1,63.43465505047713,10.392568628419397,0.0,1.4400000000000002e-10,0.0,0.0,0.0,1.4400000000000002e-10,0.0,0.0,0.0,1.0,2
2025/05/06 15:28:13.758875904,1746538093,758229647,mA1/gps,0,1,63.434655014252556,10.392568630288764,0.0,1.4400000000000002e-10,0.0,0.0,0.0,1.4400000000000002e-10,0.0,0.0,0.0,1.0,2
2025/05/06 15:28:13.813652586,1746538093,812174632,mA1/gps,0,1,63.434654978901236,10.39256863398741,0.0,1.4400000000000002e-10,0.0,0.0,0.0,1.4400000000000002e-10,0.0,0.0,0.0,1.0,2
2025/05/06 15:28:13.865544116,1746538093,863146235,mA1/gps,0,1,63.434654944777655,10.39256863876903,0.0,1.4400000000000002e-10,0.0,0.0,0.0,1.4400000000000002e-10,0.0,0.0,0.0,1.0,2
2025/05/06 15:28:13.913410890,1746538093,912926005,mA1/gps,0,1,63.43465491074165,10.392568644860528,0.0,1.4400000000000002e-10,0.0,0.0,0.0,1.4400000000000002e-10,0.0,0.0,0.0,1.0,2
2025/05/06 15:28:13.955247035,1746538093,954674377,mA1/gps,0,1,63.43465487552683,10.39256865034911,0.0,1.4400000000000002e-10,0.0,0.0,0.0,1.4400000000000002e-10,0.0,0.0,0.0,1.0,2
2025/05/06 15:28:14.7343776,1746538094,5403015,mA1/gps,0,1,63.43465483911161,10.392568655126988,0.0,1.4400000000000002e-10,0.0,0.0,0.0,1.4400000000000002e-10,0.0,0.0,0.0,1.0,2
2025/05/06 15:28:14.57758178,1746538094,56646362,mA1/gps,0,1,63.43465480262065,10.392568658391387,0.0,1.4400000000000002e-10,0.0,0.0,0.0,1.4400000000000002e-10,0.0,0.0,0.0,1.0,2
2025/05/06 15:28:14.107458759,1746538094,106835381,mA1/gps,0,1,63.43465476677533,10.392568659048182,0.0,1.4400000000000002e-10,0.0,0.0,0.0,1.4400000000000002e-10,0.0,0.0,0.0,1.0,2
2025/05/06 15:28:14.158884380,1746538094,157790101,mA1/gps,0,1,63.43465473130421,10.392568657571752,0.0,1.4400000000000002e-10,0.0,0.0,0.0,1.4400000000000002e-10,0.0,0.0,0.0,1.0,2
2025/05/06 15:28:14.208645462,1746538094,208052636,mA1/gps,0,1,63.434654695549604,10.392568653383904,0.0,1.4400000000000002e-10,0.0,0.0,0.0,1.4400000000000002e-10,0.0,0.0,0.0,1.0,2
2025/05/06 15:28:14.264124772,1746538094,260153299,mA1/gps,0,1,63.43465465906451,10.392568646176201,0.0,1.4400000000000002e-10,0.0,0.0,0.0,1.4400000000000002e-10,0.0,0.0,0.0,1.0,2
2025/05/06 15:28:14.310009438,1746538094,309012797,mA1/gps,0,1,63.434654622315655,10.392568637013419,0.0,1.4400000000000002e-10,0.0,0.0,0.0,1.4400000000000002e-10,0.0,0.0,0.0,1.0,2
2025/05/06 15:28:14.363461415,1746538094,362374424,mA1/gps,0,1,63.434654584140155,10.392568625667563,0.0,1.4400000000000002e-10,0.0,0.0,0.0,1.4400000000000002e-10,0.0,0.0,0.0,1.0,2
2025/05/06 15:28:14.413375883,1746538094,411831325,mA1/gps,0,1,63.434654546607156,10.392568613076818,0.0,1.4400000000000002e-10,0.0,0.0,0.0,1.4400000000000002e-10,0.0,0.0,0.0,1.0,2
2025/05/06 15:28:14.463990628,1746538094,462973115,mA1/gps,0,1,63.43465450683162,10.392568603112618,0.0,1.4400000000000002e-10,0.0,0.0,0.0,1.4400000000000002e-10,0.0,0.0,0.0,1.0,2
2025/05/06 15:28:14.513919249,1746538094,512862137,mA1/gps,0,1,63.43465446662923,10.392568594461958,0.0,1.4400000000000002e-10,0.0,0.0,0.0,1.4400000000000002e-10,0.0,0.0,0.0,1.0,2
2025/05/06 15:28:14.567561771,1746538094,566283426,mA1/gps,0,1,63.4346544247364,10.392568590933445,0.0,1.4400000000000002e-10,0.0,0.0,0.0,1.4400000000000002e-10,0.0,0.0,0.0,1.0,2
2025/05/06 15:28:14.604880445,1746538094,604563151,mA1/gps,0,1,63.43465438292693,10.392568591030075,0.0,1.4400000000000002e-10,0.0,0.0,0.0,1.4400000000000002e-10,0.0,0.0,0.0,1.0,2
2025/05/06 15:28:14.658227894,1746538094,656383909,mA1/gps,0,1,63.43465433980343,10.392568596915694,0.0,1.4400000000000002e-10,0.0,0.0,0.0,1.4400000000000002e-10,0.0,0.0,0.0,1.0,2
2025/05/06 15:28:14.707945006,1746538094,707192364,mA1/gps,0,1,63.43465429567622,10.392568606713645,0.0,1.4400000000000002e-10,0.0,0.0,0.0,1.4400000000000002e-10,0.0,0.0,0.0,1.0,2
2025/05/06 15:28:14.759532080,1746538094,758137808,mA1/gps,0,1,63.43465425210585,10.392568619638608,0.0,1.4400000000000002e-10,0.0,0.0,0.0,1.4400000000000002e-10,0.0,0.0,0.0,1.0,2
2025/05/06 15:28:14.810017761,1746538094,808220279,mA1/gps,0,1,63.43465420692116,10.392568635460936,0.0,1.4400000000000002e-10,0.0,0.0,0.0,1.4400000000000002e-10,0.0,0.0,0.0,1.0,2
2025/05/06 15:28:14.859579604,1746538094,859192516,mA1/gps,0,1,63.43465416233103,10.392568653215037,0.0,1.4400000000000002e-10,0.0,0.0,0.0,1.4400000000000002e-10,0.0,0.0,0.0,1.0,2
2025/05/06 15:28:14.913378993,1746538094,911438662,mA1/gps,0,1,63.434654118148615,10.392568671015825,0.0,1.4400000000000002e-10,0.0,0.0,0.0,1.4400000000000002e-10,0.0,0.0,0.0,1.0,2
2025/05/06 15:28:14.967970427,1746538094,962067833,mA1/gps,0,1,63.43465407316741,10.39256868834923,0.0,1.4400000000000002e-10,0.0,0.0,0.0,1.4400000000000002e-10,0.0,0.0,0.0,1.0,2
2025/05/06 15:28:15.12281440,1746538095,12076348,mA1/gps,0,1,63.43465402773342,10.392568704135032,0.0,1.4400000000000002e-10,0.0,0.0,0.0,1.4400000000000002e-10,0.0,0.0,0.0,1.0,2
2025/05/06 15:28:15.65240440,1746538095,64468510,mA1/gps,0,1,63.43465398411849,10.392568716544153,0.0,1.4400000000000002e-10,0.0,0.0,0.0,1.4400000000000002e-10,0.0,0.0,0.0,1.0,2
2025/05/06 15:28:15.105065295,1746538095,104284058,mA1/gps,0,1,63.43465394099131,10.392568726273884,0.0,1.4400000000000002e-10,0.0,0.0,0.0,1.4400000000000002e-10,0.0,0.0,0.0,1.0,2
2025/05/06 15:28:15.157160448,1746538095,155429888,mA1/gps,0,1,63.43465389810024,10.392568731194027,0.0,1.4400000000000002e-10,0.0,0.0,0.0,1.4400000000000002e-10,0.0,0.0,0.0,1.0,2
2025/05/06 15:28:15.206363014,1746538095,206013879,mA1/gps,0,1,63.434653854659096,10.39256873108969,0.0,1.4400000000000002e-10,0.0,0.0,0.0,1.4400000000000002e-10,0.0,0.0,0.0,1.0,2
2025/05/06 15:28:15.258409475,1746538095,257246831,mA1/gps,0,1,63.43465381259083,10.392568726494893,0.0,1.4400000000000002e-10,0.0,0.0,0.0,1.4400000000000002e-10,0.0,0.0,0.0,1.0,2
2025/05/06 15:28:15.307603544,1746538095,307165583,mA1/gps,0,1,63.434653771394366,10.39256871668189,0.0,1.4400000000000002e-10,0.0,0.0,0.0,1.4400000000000002e-10,0.0,0.0,0.0,1.0,2
2025/05/06 15:28:15.359988438,1746538095,359405895,mA1/gps,0,1,63.43465372900787,10.392568701670339,0.0,1.4400000000000002e-10,0.0,0.0,0.0,1.4400000000000002e-10,0.0,0.0,0.0,1.0,2
2025/05/06 15:28:15.410411968,1746538095,408547814,mA1/gps,0,1,63.43465368692744,10.39256868269381,0.0,1.4400000000000002e-10,0.0,0.0,0.0,1.4400000000000002e-10,0.0,0.0,0.0,1.0,2
2025/05/06 15:28:15.463215295,1746538095,459777058,mA1/gps,0,1,63.43465364584843,10.392568660792392,0.0,1.4400000000000002e-10,0.0,0.0,0.0,1.4400000000000002e-10,0.0,0.0,0.0,1.0,2
2025/05/06 15:28:15.510645182,1746538095,510426683,mA1/gps,0,1,63.43465360546318,10.39256863678841,0.0,1.4400000000000002e-10,0.0,0.0,0.0,1.4400000000000002e-10,0.0,0.0,0.0,1.0,2
2025/05/06 15:28:15.564948397,1746538095,561417441,mA1/gps,0,1,63.43465356376868,10.39256861024642,0.0,1.4400000000000002e-10,0.0,0.0,0.0,1.4400000000000002e-10,0.0,0.0,0.0,1.0,2
2025/05/06 15:28:15.614634474,1746538095,613217848,mA1/gps,0,1,63.43465352071596,10.39256858331598,0.0,1.4400000000000002e-10,0.0,0.0,0.0,1.4400000000000002e-10,0.0,0.0,0.0,1.0,2
2025/05/06 15:28:15.654723846,1746538095,654183748,mA1/gps,0,1,63.434653478483106,10.392568556850579,0.0,1.4400000000000002e-10,0.0,0.0,0.0,1.4400000000000002e-10,0.0,0.0,0.0,1.0,2
2025/05/06 15:28:15.705726303,1746538095,704046248,mA1/gps,0,1,63.43465343532256,10.39256853224531,0.0,1.4400000000000002e-10,0.0,0.0,0.0,1.4400000000000002e-10,0.0,0.0,0.0,1.0,2
2025/05/06 15:28:15.758008544,1746538095,755069904,mA1/gps,0,1,63.43465339112542,10.392568509329404,0.0,1.4400000000000002e-10,0.0,0.0,0.0,1.4400000000000002e-10,0.0,0.0,0.0,1.0,2
2025/05/06 15:28:15.807513724,1746538095,805405407,mA1/gps,0,1,63.43465334631071,10.392568489361945,0.0,1.4400000000000002e-10,0.0,0.0,0.0,1.4400000000000002e-10,0.0,0.0,0.0,1.0,2
2025/05/06 15:28:15.857760250,1746538095,856242442,mA1/gps,0,1,63.434653299738116,10.39256847178796,0.0,1.4400000000000002e-10,0.0,0.0,0.0,1.4400000000000002e-10,0.0,0.0,0.0,1.0,2
2025/05/06 15:28:15.906757033,1746538095,906124091,mA1/gps,0,1,63.434653251860006,10.392568458561728,0.0,1.4400000000000002e-10,0.0,0.0,0.0,1.4400000000000002e-10,0.0,0.0,0.0,1.0,2
2025/05/06 15:28:15.959246494,1746538095,958349965,mA1/gps,0,1,63.434653203809155,10.392568448202661,0.0,1.4400000000000002e-10,0.0,0.0,0.0,1.4400000000000002e-10,0.0,0.0,0.0,1.0,2
2025/05/06 15:28:16.8054850,1746538096,6950351,mA1/gps,0,1,63.43465315402366,10.392568440727699,0.0,1.4400000000000002e-10,0.0,0.0,0.0,1.4400000000000002e-10,0.0,0.0,0.0,1.0,2
2025/05/06 15:28:16.58332293,1746538096,58000865,mA1/gps,0,1,63.434653103599665,10.392568435880596,0.0,1.4400000000000002e-10,0.0,0.0,0.0,1.4400000000000002e-10,0.0,0.0,0.0,1.0,2
2025/05/06 15:28:16.108949803,1746538096,107817512,mA1/gps,0,1,63.4346530526808,10.39256843343325,0.0,1.4400000000000002e-10,0.0,0.0,0.0,1.4400000000000002e-10,0.0,0.0,0.0,1.0,2
2025/05/06 15:28:16.159828149,1746538096,158621986,mA1/gps,0,1,63.43465300102719,10.392568430907074,0.0,1.4400000000000002e-10,0.0,0.0,0.0,1.4400000000000002e-10,0.0,0.0,0.0,1.0,2
2025/05/06 15:28:16.211013623,1746538096,210441806,mA1/gps,0,1,63.434652949606615,10.392568429889154,0.0,1.4400000000000002e-10,0.0,0.0,0.0,1.4400000000000002e-10,0.0,0.0,0.0,1.0,2
2025/05/06 15:28:16.265332450,1746538096,261599756,mA1/gps,0,1,63.43465289749654,10.392568427734345,0.0,1.4400000000000002e-10,0.0,0.0,0.0,1.4400000000000002e-10,0.0,0.0,0.0,1.0,2
2025/05/06 15:28:16.313036691,1746538096,311357477,mA1/gps,0,1,63.43465284471693,10.392568425976986,0.0,1.4400000000000002e-10,0.0,0.0,0.0,1.4400000000000002e-10,0.0,0.0,0.0,1.0,2
2025/05/06 15:28:16.364023325,1746538096,362376726,mA1/gps,0,1,63.4346527928338,10.392568422669882,0.0,1.4400000000000002e-10,0.0,0.0,0.0,1.4400000000000002e-10,0.0,0.0,0.0,1.0,2
2025/05/06 15:28:16.412807721,1746538096,412121157,mA1/gps,0,1,63.4346527413194,10.392568415495054,0.0,1.4400000000000002e-10,0.0,0.0,0.0,1.4400000000000002e-10,0.0,0.0,0.0,1.0,2
2025/05/06 15:28:16.465116282,1746538096,463128039,mA1/gps,0,1,63.43465269045856,10.392568402537824,0.0,1.4400000000000002e-10,0.0,0.0,0.0,1.4400000000000002e-10,0.0,0.0,0.0,1.0,2
2025/05/06 15:28:16.511546113,1746538096,506818777,mA1/gps,0,1,63.43465263949662,10.392568383293117,0.0,1.4400000000000002e-10,0.0,0.0,0.0,1.4400000000000002e-10,0.0,0.0,0.0,1.0,2
2025/05/06 15:28:16.555464220,1746538096,555033888,mA1/gps,0,1,63.43465258904773,10.392568358405352,0.0,1.4400000000000002e-10,0.0,0.0,0.0,1.4400000000000002e-10,0.0,0.0,0.0,1.0,2
2025/05/06 15:28:16.606422658,1746538096,605179543,mA1/gps,0,1,63.4346525411401,10.392568328784241,0.0,1.4400000000000002e-10,0.0,0.0,0.0,1.4400000000000002e-10,0.0,0.0,0.0,1.0,2
2025/05/06 15:28:16.657840129,1746538096,656126821,mA1/gps,0,1,63.43465249367772,10.392568293171433,0.0,1.4400000000000002e-10,0.0,0.0,0.0,1.4400000000000002e-10,0.0,0.0,0.0,1.0,2
2025/05/06 15:28:16.706573891,1746538096,705991125,mA1/gps,0,1,63.43465244588617,10.392568253898565,0.0,1.4400000000000002e-10,0.0,0.0,0.0,1.4400000000000002e-10,0.0,0.0,0.0,1.0,2
2025/05/06 15:28:16.760803976,1746538096,759840882,mA1/gps,0,1,63.43465239875498,10.392568212586804,0.0,1.4400000000000002e-10,0.0,0.0,0.0,1.4400000000000002e-10,0.0,0.0,0.0,1.0,2
2025/05/06 15:28:16.810978954,1746538096,810544252,mA1/gps,0,1,63.43465235168802,10.392568170820082,0.0,1.4400000000000002e-10,0.0,0.0,0.0,1.4400000000000002e-10,0.0,0.0,0.0,1.0,2
2025/05/06 15:28:16.862689679,1746538096,861412774,mA1/gps,0,1,63.434652303966004,10.392568129353997,0.0,1.4400000000000002e-10,0.0,0.0,0.0,1.4400000000000002e-10,0.0,0.0,0.0,1.0,2
2025/05/06 15:28:16.913216546,1746538096,912234009,mA1/gps,0,1,63.43465225667148,10.392568089794054,0.0,1.4400000000000002e-10,0.0,0.0,0.0,1.4400000000000002e-10,0.0,0.0,0.0,1.0,2
2025/05/06 15:28:16.965227482,1746538096,963470311,mA1/gps,0,1,63.434652210242206,10.39256805405935,0.0,1.4400000000000002e-10,0.0,0.0,0.0,1.4400000000000002e-10,0.0,0.0,0.0,1.0,2
2025/05/06 15:28:17.13580177,1746538097,13255189,mA1/gps,0,1,63.43465216343325,10.39256802282627,0.0,1.4400000000000002e-10,0.0,0.0,0.0,1.4400000000000002e-10,0.0,0.0,0.0,1.0,2
2025/05/06 15:28:17.55654627,1746538097,54278017,mA1/gps,0,1,63.43465211447864,10.39256799658509,0.0,1.4400000000000002e-10,0.0,0.0,0.0,1.4400000000000002e-10,0.0,0.0,0.0,1.0,2
2025/05/06 15:28:17.107675555,1746538097,105275524,mA1/gps,0,1,63.43465206364424,10.392567976677032,0.0,1.4400000000000002e-10,0.0,0.0,0.0,1.4400000000000002e-10,0.0,0.0,0.0,1.0,2
2025/05/06 15:28:17.158111401,1746538097,156392007,mA1/gps,0,1,63.434652010957194,10.39256796222238,0.0,1.4400000000000002e-10,0.0,0.0,0.0,1.4400000000000002e-10,0.0,0.0,0.0,1.0,2
2025/05/06 15:28:17.211574677,1746538097,208957141,mA1/gps,0,1,63.43465195918489,10.392567952205209,0.0,1.4400000000000002e-10,0.0,0.0,0.0,1.4400000000000002e-10,0.0,0.0,0.0,1.0,2
2025/05/06 15:28:17.260973589,1746538097,259376155,mA1/gps,0,1,63.434651904877015,10.392567947583945,0.0,1.4400000000000002e-10,0.0,0.0,0.0,1.4400000000000002e-10,0.0,0.0,0.0,1.0,2
2025/05/06 15:28:17.309333028,1746538097,309043400,mA1/gps,0,1,63.4346518510879,10.392567945924498,0.0,1.4400000000000002e-10,0.0,0.0,0.0,1.4400000000000002e-10,0.0,0.0,0.0,1.0,2
2025/05/06 15:28:17.360492670,1746538097,360048691,mA1/gps,0,1,63.434651793896094,10.39256794812367,0.0,1.4400000000000002e-10,0.0,0.0,0.0,1.4400000000000002e-10,0.0,0.0,0.0,1.0,2
2025/05/06 15:28:17.412002724,1746538097,411343997,mA1/gps,0,1,63.434651735303454,10.392567951468985,0.0,1.4400000000000002e-10,0.0,0.0,0.0,1.4400000000000002e-10,0.0,0.0,0.0,1.0,2
2025/05/06 15:28:17.463098511,1746538097,462247801,mA1/gps,0,1,63.43465167624127,10.392567956577787,0.0,1.4400000000000002e-10,0.0,0.0,0.0,1.4400000000000002e-10,0.0,0.0,0.0,1.0,2
2025/05/06 15:28:17.513609313,1746538097,513289259,mA1/gps,0,1,63.43465161543543,10.392567960469583,0.0,1.4400000000000002e-10,0.0,0.0,0.0,1.4400000000000002e-10,0.0,0.0,0.0,1.0,2
