time,header_stamp_secs,header_stamp_nsecs,header_frame_id,child_frame_id,pose_pose_position_x,pose_pose_position_y,pose_pose_position_z,pose_pose_orientation_x,pose_pose_orientation_y,pose_pose_orientation_z,pose_pose_orientation_w,pose_covariance_0,pose_covariance_1,pose_covariance_2,pose_covariance_3,pose_covariance_4,pose_covariance_5,pose_covariance_6,pose_covariance_7,pose_covariance_8,pose_covariance_9,pose_covariance_10,pose_covariance_11,pose_covariance_12,pose_covariance_13,pose_covariance_14,pose_covariance_15,pose_covariance_16,pose_covariance_17,pose_covariance_18,pose_covariance_19,pose_covariance_20,pose_covariance_21,pose_covariance_22,pose_covariance_23,pose_covariance_24,pose_covariance_25,pose_covariance_26,pose_covariance_27,pose_covariance_28,pose_covariance_29,pose_covariance_30,pose_covariance_31,pose_covariance_32,pose_covariance_33,pose_covariance_34,pose_covariance_35,twist_twist_linear_x,twist_twist_linear_y,twist_twist_linear_z,twist_twist_angular_x,twist_twist_angular_y,twist_twist_angular_z,twist_covariance_0,twist_covariance_1,twist_covariance_2,twist_covariance_3,twist_covariance_4,twist_covariance_5,twist_covariance_6,twist_covariance_7,twist_covariance_8,twist_covariance_9,twist_covariance_10,twist_covariance_11,twist_covariance_12,twist_covariance_13,twist_covariance_14,twist_covariance_15,twist_covariance_16,twist_covariance_17,twist_covariance_18,twist_covariance_19,twist_covariance_20,twist_covariance_21,twist_covariance_22,twist_covariance_23,twist_covariance_24,twist_covariance_25,twist_covariance_26,twist_covariance_27,twist_covariance_28,twist_covariance_29,twist_covariance_30,twist_covariance_31,twist_covariance_32,twist_covariance_33,twist_covariance_34,twist_covariance_35
2025/05/06 15:28:00.961458275,1746538080,924295692,world_ned,mA1/odom,8.606522266947788,-14.792885088193533,0.43368819694239785,2.7351320514864625e-05,-0.000409196267159569,0.9984565063804541,-0.05553770500172473,0.0,0.0,0.0,0.0,0.0,0.0,0.0,0.0,0.0,0.0,0.0,0.0,0.0,0.0,0.0,0.0,0.0,0.0,0.0,0.0,0.0,0.0,0.0,0.0,0.0,0.0,0.0,0.0,0.0,0.0,0.0,0.0,0.0,0.0,0.0,0.0,0.0025715760612595633,0.0003007527534773947,1.1850222899119674e-07,-0.00020325514972056082,-0.000733916991556079,-4.6697781967293086e-05,0.0,0.0,0.0,0.0,0.0,0.0,0.0,0.0,0.0,0.0,0.0,0.0,0.0,0.0,0.0,0.0,0.0,0.0,0.0,0.0,0.0,0.0,0.0,0.0,0.0,0.0,0.0,0.0,0.0,0.0,0.0,0.0,0.0,0.0,0.0,0.0
2025/05/06 15:28:01.555089822,1746538081,21864833,world_ned,mA1/odom,8.606585169842823,-14.792921992710028,0.43368803638970355,2.0401228043962565e-05,-0.00042358769348722273,0.9984566266736477,-0.05553543741374958,0.0,0.0,0.0,0.0,0.0,0.0,0.0,0.0,0.0,0.0,0.0,0.0,0.0,0.0,0.0,0.0,0.0,0.0,0.0,0.0,0.0,0.0,0.0,0.0,0.0,0.0,0.0,0.0,0.0,0.0,0.0,0.0,0.0,0.0,0.0,0.0,-0.0026020793837635953,0.0005379670426412002,-1.5218709806366445e-06,-0.000328536978517059,0.0007276794717897581,-4.4251058261995516e-05,0.0,0.0,0.0,0.0,0.0,0.0,0.0,0.0,0.0,0.0,0.0,0.0,0.0,0.0,0.0,0.0,0.0,0.0,0.0,0.0,0.0,0.0,0.0,0.0,0.0,0.0,0.0,0.0,0.0,0.0,0.0,0.0,0.0,0.0,0.0,0.0
2025/05/06 15:28:01.556308388,1746538081,114897572,world_ned,mA1/odom,8.606536201038276,-14.79299181395566,0.43368799265627966,2.9298707092796244e-05,-0.0004409301322454509,0.9984567378462262,-0.05553329966494517,0.0,0.0,0.0,0.0,0.0,0.0,0.0,0.0,0.0,0.0,0.0,0.0,0.0,0.0,0.0,0.0,0.0,0.0,0.0,0.0,0.0,0.0,0.0,0.0,0.0,0.0,0.0,0.0,0.0,0.0,0.0,0.0,0.0,0.0,0.0,0.0,0.002591395836226732,0.0007137350955124395,-5.244211458730758e-07,-0.0003657472324902127,-0.0007250613642958699,-4.176692755438089e-05,0.0,0.0,0.0,0.0,0.0,0.0,0.0,0.0,0.0,0.0,0.0,0.0,0.0,0.0,0.0,0.0,0.0,0.0,0.0,0.0,0.0,0.0,0.0,0.0,0.0,0.0,0.0,0.0,0.0,0.0,0.0,0.0,0.0,0.0,0.0,0.0
2025/05/06 15:28:01.556353713,1746538081,217219165,world_ned,mA1/odom,8.60660141668349,-14.793063153770207,0.4336877667900473,2.20247116455032e-05,-0.0004585052485796386,0.9984568427170776,-0.05553127514557911,0.0,0.0,0.0,0.0,0.0,0.0,0.0,0.0,0.0,0.0,0.0,0.0,0.0,0.0,0.0,0.0,0.0,0.0,0.0,0.0,0.0,0.0,0.0,0.0,0.0,0.0,0.0,0.0,0.0,0.0,0.0,0.0,0.0,0.0,0.0,0.0,-0.002588741061103459,0.0008269047626832796,-1.6000503535132106e-06,-0.0003093279101979041,0.0007378850737256278,-3.942055432156246e-05,0.0,0.0,0.0,0.0,0.0,0.0,0.0,0.0,0.0,0.0,0.0,0.0,0.0,0.0,0.0,0.0,0.0,0.0,0.0,0.0,0.0,0.0,0.0,0.0,0.0,0.0,0.0,0.0,0.0,0.0,0.0,0.0,0.0,0.0,0.0,0.0
2025/05/06 15:28:01.556390229,1746538081,319030503,world_ned,mA1/odom,8.606553435935664,-14.793155524635454,0.43368771286483243,3.017243360857863e-05,-0.0004701207952682477,0.9984569427910919,-0.05552937482385711,0.0,0.0,0.0,0.0,0.0,0.0,0.0,0.0,0.0,0.0,0.0,0.0,0.0,0.0,0.0,0.0,0.0,0.0,0.0,0.0,0.0,0.0,0.0,0.0,0.0,0.0,0.0,0.0,0.0,0.0,0.0,0.0,0.0,0.0,0.0,0.0,0.0026068214638019734,0.0008905674476211293,-1.90139194470196e-07,-0.0001770982400041773,-0.000717824012118999,-3.70843233736011e-05,0.0,0.0,0.0,0.0,0.0,0.0,0.0,0.0,0.0,0.0,0.0,0.0,0.0,0.0,0.0,0.0,0.0,0.0,0.0,0.0,0.0,0.0,0.0,0.0,0.0,0.0,0.0,0.0,0.0,0.0,0.0,0.0,0.0,0.0,0.0,0.0
2025/05/06 15:28:01.556425771,1746538081,420168040,world_ned,mA1/odom,8.606619096187961,-14.793239984676227,0.4336875347546536,2.185128683765878e-05,-0.0004747831100599788,0.9984570406525914,-0.05552757940689587,0.0,0.0,0.0,0.0,0.0,0.0,0.0,0.0,0.0,0.0,0.0,0.0,0.0,0.0,0.0,0.0,0.0,0.0,0.0,0.0,0.0,0.0,0.0,0.0,0.0,0.0,0.0,0.0,0.0,0.0,0.0,0.0,0.0,0.0,0.0,0.0,-0.0025425869894913065,0.0009266826098714261,-6.694088514067718e-07,-2.63081384828901e-06,0.0007325468303401211,-3.4909926508429704e-05,0.0,0.0,0.0,0.0,0.0,0.0,0.0,0.0,0.0,0.0,0.0,0.0,0.0,0.0,0.0,0.0,0.0,0.0,0.0,0.0,0.0,0.0,0.0,0.0,0.0,0.0,0.0,0.0,0.0,0.0,0.0,0.0,0.0,0.0,0.0,0.0
2025/05/06 15:28:01.556461418,1746538081,519061999,world_ned,mA1/odom,8.606569403695124,-14.793340581791517,0.43368762202989575,2.918816890084194e-05,-0.00046959730895188625,0.9984571363676018,-0.055525899029431273,0.0,0.0,0.0,0.0,0.0,0.0,0.0,0.0,0.0,0.0,0.0,0.0,0.0,0.0,0.0,0.0,0.0,0.0,0.0,0.0,0.0,0.0,0.0,0.0,0.0,0.0,0.0,0.0,0.0,0.0,0.0,0.0,0.0,0.0,0.0,0.0,0.002623088830894664,0.0009619701654371553,1.4530603046249476e-06,0.00017095912658683546,-0.000719898499218599,-3.278023995143558e-05,0.0,0.0,0.0,0.0,0.0,0.0,0.0,0.0,0.0,0.0,0.0,0.0,0.0,0.0,0.0,0.0,0.0,0.0,0.0,0.0,0.0,0.0,0.0,0.0,0.0,0.0,0.0,0.0,0.0,0.0,0.0,0.0,0.0,0.0,0.0,0.0
2025/05/06 15:28:01.628184550,1746538081,624016173,world_ned,mA1/odom,8.606634087892463,-14.793430670560653,0.4336876236450005,2.0101805348154934e-05,-0.00045680434147136486,0.9984572309423996,-0.055524309131650414,0.0,0.0,0.0,0.0,0.0,0.0,0.0,0.0,0.0,0.0,0.0,0.0,0.0,0.0,0.0,0.0,0.0,0.0,0.0,0.0,0.0,0.0,0.0,0.0,0.0,0.0,0.0,0.0,0.0,0.0,0.0,0.0,0.0,0.0,0.0,0.0,-0.002566803862843462,0.0008583966012144736,1.3037900891014064e-06,0.0004166849912816722,0.0007377027826144204,-3.14594735469248e-05,0.0,0.0,0.0,0.0,0.0,0.0,0.0,0.0,0.0,0.0,0.0,0.0,0.0,0.0,0.0,0.0,0.0,0.0,0.0,0.0,0.0,0.0,0.0,0.0,0.0,0.0,0.0,0.0,0.0,0.0,0.0,0.0,0.0,0.0,0.0,0.0
2025/05/06 15:28:01.793669892,1746538081,716433497,world_ned,mA1/odom,8.606580175218255,-14.793485435907236,0.4336878741601434,2.572254349973723e-05,-0.00041913291142246854,0.9984573365822444,-0.055522704284321524,0.0,0.0,0.0,0.0,0.0,0.0,0.0,0.0,0.0,0.0,0.0,0.0,0.0,0.0,0.0,0.0,0.0,0.0,0.0,0.0,0.0,0.0,0.0,0.0,0.0,0.0,0.0,0.0,0.0,0.0,0.0,0.0,0.0,0.0,0.0,0.0,0.002620724212287603,0.00020300494974624084,2.127785622062569e-06,0.0009819184797937122,-0.0007254279144723121,-3.28674716611617e-05,0.0,0.0,0.0,0.0,0.0,0.0,0.0,0.0,0.0,0.0,0.0,0.0,0.0,0.0,0.0,0.0,0.0,0.0,0.0,0.0,0.0,0.0,0.0,0.0,0.0,0.0,0.0,0.0,0.0,0.0,0.0,0.0,0.0,0.0,0.0,0.0
2025/05/06 15:28:01.863004234,1746538081,822743747,world_ned,mA1/odom,8.606633410718429,-14.793471845820788,0.4336880148529398,1.4490478164697982e-05,-0.000360917277632519,0.9984574529224403,-0.055521025138030346,0.0,0.0,0.0,0.0,0.0,0.0,0.0,0.0,0.0,0.0,0.0,0.0,0.0,0.0,0.0,0.0,0.0,0.0,0.0,0.0,0.0,0.0,0.0,0.0,0.0,0.0,0.0,0.0,0.0,0.0,0.0,0.0,0.0,0.0,0.0,0.0,-0.0025676355290193418,-0.0002740987384151254,1.3336506405019906e-06,0.0012869996367909004,0.0007289808735401591,-3.4156682231626637e-05,0.0,0.0,0.0,0.0,0.0,0.0,0.0,0.0,0.0,0.0,0.0,0.0,0.0,0.0,0.0,0.0,0.0,0.0,0.0,0.0,0.0,0.0,0.0,0.0,0.0,0.0,0.0,0.0,0.0,0.0,0.0,0.0,0.0,0.0,0.0,0.0
2025/05/06 15:28:01.918922644,1746538081,917761679,world_ned,mA1/odom,8.606569344162894,-14.793434736535131,0.4336882779322075,1.9017425932691224e-05,-0.00029529238858876696,0.9984575706593245,-0.05551929424824444,0.0,0.0,0.0,0.0,0.0,0.0,0.0,0.0,0.0,0.0,0.0,0.0,0.0,0.0,0.0,0.0,0.0,0.0,0.0,0.0,0.0,0.0,0.0,0.0,0.0,0.0,0.0,0.0,0.0,0.0,0.0,0.0,0.0,0.0,0.0,0.0,0.0026197329436390394,-0.0005422987935611184,9.434067157098784e-07,0.0012683082742086238,-0.0007346394179435502,-3.521419817562108e-05,0.0,0.0,0.0,0.0,0.0,0.0,0.0,0.0,0.0,0.0,0.0,0.0,0.0,0.0,0.0,0.0,0.0,0.0,0.0,0.0,0.0,0.0,0.0,0.0,0.0,0.0,0.0,0.0,0.0,0.0,0.0,0.0,0.0,0.0,0.0,0.0
2025/05/06 15:28:02.54459797,1746538082,21952201,world_ned,mA1/odom,8.606616856314133,-14.793369213470099,0.43368822999753565,8.394627853457922e-06,-0.0002401713054217027,0.9984576850697485,-0.055517505099140003,0.0,0.0,0.0,0.0,0.0,0.0,0.0,0.0,0.0,0.0,0.0,0.0,0.0,0.0,0.0,0.0,0.0,0.0,0.0,0.0,0.0,0.0,0.0,0.0,0.0,0.0,0.0,0.0,0.0,0.0,0.0,0.0,0.0,0.0,0.0,0.0,-0.002567921795100464,-0.0006194106307489931,-1.5269907929124461e-06,0.000944263232420701,0.0007210240667623289,-3.630274474909704e-05,0.0,0.0,0.0,0.0,0.0,0.0,0.0,0.0,0.0,0.0,0.0,0.0,0.0,0.0,0.0,0.0,0.0,0.0,0.0,0.0,0.0,0.0,0.0,0.0,0.0,0.0,0.0,0.0,0.0,0.0,0.0,0.0,0.0,0.0,0.0,0.0
2025/05/06 15:28:02.137314042,1746538082,121070541,world_ned,mA1/odom,8.606550955430087,-14.793316413267652,0.4336881571999981,1.5033760553820821e-05,-0.00020672870950385485,0.9984577946898244,-0.05551566680099565,0.0,0.0,0.0,0.0,0.0,0.0,0.0,0.0,0.0,0.0,0.0,0.0,0.0,0.0,0.0,0.0,0.0,0.0,0.0,0.0,0.0,0.0,0.0,0.0,0.0,0.0,0.0,0.0,0.0,0.0,0.0,0.0,0.0,0.0,0.0,0.0,0.0026214308027703776,-0.0005651745906448246,-2.4939736881861016e-06,0.000402834108903962,-0.0007396686168672527,-3.7338553303632316e-05,0.0,0.0,0.0,0.0,0.0,0.0,0.0,0.0,0.0,0.0,0.0,0.0,0.0,0.0,0.0,0.0,0.0,0.0,0.0,0.0,0.0,0.0,0.0,0.0,0.0,0.0,0.0,0.0,0.0,0.0,0.0,0.0,0.0,0.0,0.0,0.0
2025/05/06 15:28:02.241729307,1746538082,219444196,world_ned,mA1/odom,8.606599178442456,-14.7932597619101,0.4336878093089879,7.48927248873396e-06,-0.00020416368674122228,0.9984579008375238,-0.05551376870854239,0.0,0.0,0.0,0.0,0.0,0.0,0.0,0.0,0.0,0.0,0.0,0.0,0.0,0.0,0.0,0.0,0.0,0.0,0.0,0.0,0.0,0.0,0.0,0.0,0.0,0.0,0.0,0.0,0.0,0.0,0.0,0.0,0.0,0.0,0.0,0.0,-0.00256428397975574,-0.00046467008329093056,-3.864382416911355e-06,-0.00022133923164733074,0.0007194509064622382,-3.8545447124754035e-05,0.0,0.0,0.0,0.0,0.0,0.0,0.0,0.0,0.0,0.0,0.0,0.0,0.0,0.0,0.0,0.0,0.0,0.0,0.0,0.0,0.0,0.0,0.0,0.0,0.0,0.0,0.0,0.0,0.0,0.0,0.0,0.0,0.0,0.0,0.0,0.0
2025/05/06 15:28:02.342877765,1746538082,319811867,world_ned,mA1/odom,8.606536064224887,-14.793223970287896,0.4336876038510369,1.7240030830441615e-05,-0.00023069741200431156,0.9984580037778209,-0.055511811117046,0.0,0.0,0.0,0.0,0.0,0.0,0.0,0.0,0.0,0.0,0.0,0.0,0.0,0.0,0.0,0.0,0.0,0.0,0.0,0.0,0.0,0.0,0.0,0.0,0.0,0.0,0.0,0.0,0.0,0.0,0.0,0.0,0.0,0.0,0.0,0.0,0.0026220485437751804,-0.00040557127908225695,-2.798913037819666e-06,-0.0007830927884069987,-0.000735966144256905,-3.983383617354783e-05,0.0,0.0,0.0,0.0,0.0,0.0,0.0,0.0,0.0,0.0,0.0,0.0,0.0,0.0,0.0,0.0,0.0,0.0,0.0,0.0,0.0,0.0,0.0,0.0,0.0,0.0,0.0,0.0,0.0,0.0,0.0,0.0,0.0,0.0,0.0,0.0
2025/05/06 15:28:02.437866697,1746538082,423318220,world_ned,mA1/odom,8.606584773810928,-14.793175956562566,0.43368731153360496,1.2443924813485249e-05,-0.00028153369157940766,0.9984581036200553,-0.055509782015173814,0.0,0.0,0.0,0.0,0.0,0.0,0.0,0.0,0.0,0.0,0.0,0.0,0.0,0.0,0.0,0.0,0.0,0.0,0.0,0.0,0.0,0.0,0.0,0.0,0.0,0.0,0.0,0.0,0.0,0.0,0.0,0.0,0.0,0.0,0.0,0.0,-0.0025575028476981588,-0.00046046378709238626,-2.784674437199392e-06,-0.001156999964692427,0.0007245467905489243,-4.119491970784229e-05,0.0,0.0,0.0,0.0,0.0,0.0,0.0,0.0,0.0,0.0,0.0,0.0,0.0,0.0,0.0,0.0,0.0,0.0,0.0,0.0,0.0,0.0,0.0,0.0,0.0,0.0,0.0,0.0,0.0,0.0,0.0,0.0,0.0,0.0,0.0,0.0
2025/05/06 15:28:02.523078365,1746538082,521124012,world_ned,mA1/odom,8.606518003393594,-14.793126700545052,0.4336872754508502,2.4028702114481607e-05,-0.0003429160272459105,0.9984582003689225,-0.055507692685539615,0.0,0.0,0.0,0.0,0.0,0.0,0.0,0.0,0.0,0.0,0.0,0.0,0.0,0.0,0.0,0.0,0.0,0.0,0.0,0.0,0.0,0.0,0.0,0.0,0.0,0.0,0.0,0.0,0.0,0.0,0.0,0.0,0.0,0.0,0.0,0.0,0.002635472835949788,-0.0006727637440790287,-8.339326631245352e-07,-0.0012620499940827578,-0.0007306952323301598,-4.2441139664859114e-05,0.0,0.0,0.0,0.0,0.0,0.0,0.0,0.0,0.0,0.0,0.0,0.0,0.0,0.0,0.0,0.0,0.0,0.0,0.0,0.0,0.0,0.0,0.0,0.0,0.0,0.0,0.0,0.0,0.0,0.0,0.0,0.0,0.0,0.0,0.0,0.0
2025/05/06 15:28:02.623122498,1746538082,622524789,world_ned,mA1/odom,8.606560802518155,-14.793035199790605,0.4336872773503618,1.9384058861820667e-05,-0.0004027088961054122,0.9984582981391916,-0.055505534199685624,0.0,0.0,0.0,0.0,0.0,0.0,0.0,0.0,0.0,0.0,0.0,0.0,0.0,0.0,0.0,0.0,0.0,0.0,0.0,0.0,0.0,0.0,0.0,0.0,0.0,0.0,0.0,0.0,0.0,0.0,0.0,0.0,0.0,0.0,0.0,0.0,-0.002548321770154782,-0.001020457815138937,1.6373327303576577e-07,-0.0010995512601399923,0.0007323108493062923,-4.358240269852297e-05,0.0,0.0,0.0,0.0,0.0,0.0,0.0,0.0,0.0,0.0,0.0,0.0,0.0,0.0,0.0,0.0,0.0,0.0,0.0,0.0,0.0,0.0,0.0,0.0,0.0,0.0,0.0,0.0,0.0,0.0,0.0,0.0,0.0,0.0,0.0,0.0
2025/05/06 15:28:02.760082662,1746538082,719261283,world_ned,mA1/odom,8.606486778749616,-14.792927188679666,0.43368760115361615,2.985766147875635e-05,-0.0004510204039813998,0.9984583974220476,-0.05550337202829831,0.0,0.0,0.0,0.0,0.0,0.0,0.0,0.0,0.0,0.0,0.0,0.0,0.0,0.0,0.0,0.0,0.0,0.0,0.0,0.0,0.0,0.0,0.0,0.0,0.0,0.0,0.0,0.0,0.0,0.0,0.0,0.0,0.0,0.0,0.0,0.0,0.0026404596914252603,-0.001283970341644049,1.8673486968620935e-06,-0.0008427422115003133,-0.0007234370415504149,-4.3144043222351444e-05,0.0,0.0,0.0,0.0,0.0,0.0,0.0,0.0,0.0,0.0,0.0,0.0,0.0,0.0,0.0,0.0,0.0,0.0,0.0,0.0,0.0,0.0,0.0,0.0,0.0,0.0,0.0,0.0,0.0,0.0,0.0,0.0,0.0,0.0,0.0,0.0
2025/05/06 15:28:02.858146713,1746538082,816781669,world_ned,mA1/odom,8.606522519050543,-14.792774846238254,0.43368786865304476,2.3305659190744095e-05,-0.00048218750367670844,0.9984585022805842,-0.05550122679428168,0.0,0.0,0.0,0.0,0.0,0.0,0.0,0.0,0.0,0.0,0.0,0.0,0.0,0.0,0.0,0.0,0.0,0.0,0.0,0.0,0.0,0.0,0.0,0.0,0.0,0.0,0.0,0.0,0.0,0.0,0.0,0.0,0.0,0.0,0.0,0.0,-0.0025469568750159928,-0.0016404240863153547,1.2896364307446283e-06,-0.0004076561089898765,0.0007377611357649085,-4.2638879716584986e-05,0.0,0.0,0.0,0.0,0.0,0.0,0.0,0.0,0.0,0.0,0.0,0.0,0.0,0.0,0.0,0.0,0.0,0.0,0.0,0.0,0.0,0.0,0.0,0.0,0.0,0.0,0.0,0.0,0.0,0.0,0.0,0.0,0.0,0.0,0.0,0.0
2025/05/06 15:28:02.950449122,1746538082,920533314,world_ned,mA1/odom,8.606440699986807,-14.792597719391686,0.4336882673117443,3.1211573455429474e-05,-0.0004882745835338882,0.9984586162303476,-0.05549911971507464,0.0,0.0,0.0,0.0,0.0,0.0,0.0,0.0,0.0,0.0,0.0,0.0,0.0,0.0,0.0,0.0,0.0,0.0,0.0,0.0,0.0,0.0,0.0,0.0,0.0,0.0,0.0,0.0,0.0,0.0,0.0,0.0,0.0,0.0,0.0,0.0,0.002640616497687916,-0.002020753606948142,8.731669251496891e-07,9.705511474559559e-05,-0.0007200832780806521,-4.1971372819174494e-05,0.0,0.0,0.0,0.0,0.0,0.0,0.0,0.0,0.0,0.0,0.0,0.0,0.0,0.0,0.0,0.0,0.0,0.0,0.0,0.0,0.0,0.0,0.0,0.0,0.0,0.0,0.0,0.0,0.0,0.0,0.0,0.0,0.0,0.0,0.0,0.0
2025/05/06 15:28:03.20357150,1746538083,17266167,world_ned,mA1/odom,8.606468413750394,-14.792372610164628,0.4336884086117523,2.188370794932651e-05,-0.00047108480780497935,0.9984587404510152,-0.05549703791356224,0.0,0.0,0.0,0.0,0.0,0.0,0.0,0.0,0.0,0.0,0.0,0.0,0.0,0.0,0.0,0.0,0.0,0.0,0.0,0.0,0.0,0.0,0.0,0.0,0.0,0.0,0.0,0.0,0.0,0.0,0.0,0.0,0.0,0.0,0.0,0.0,-0.0025483014164151183,-0.0023281961973583287,-1.4940139365810533e-06,0.0005358558908773163,0.0007382899953207449,-4.134321682200436e-05,0.0,0.0,0.0,0.0,0.0,0.0,0.0,0.0,0.0,0.0,0.0,0.0,0.0,0.0,0.0,0.0,0.0,0.0,0.0,0.0,0.0,0.0,0.0,0.0,0.0,0.0,0.0,0.0,0.0,0.0,0.0,0.0,0.0,0.0,0.0,0.0
2025/05/06 15:28:03.162032650,1746538083,122236899,world_ned,mA1/odom,8.60638106603842,-14.792141113863918,0.43368854609450175,2.7545913164511724e-05,-0.0004369044566676765,0.9984588692249846,-0.055494998168155445,0.0,0.0,0.0,0.0,0.0,0.0,0.0,0.0,0.0,0.0,0.0,0.0,0.0,0.0,0.0,0.0,0.0,0.0,0.0,0.0,0.0,0.0,0.0,0.0,0.0,0.0,0.0,0.0,0.0,0.0,0.0,0.0,0.0,0.0,0.0,0.0,0.002621902169025445,-0.0024368675255173294,-1.9733508263869553e-06,0.0007638637018972975,-0.0007174246194373924,-4.061823826254015e-05,0.0,0.0,0.0,0.0,0.0,0.0,0.0,0.0,0.0,0.0,0.0,0.0,0.0,0.0,0.0,0.0,0.0,0.0,0.0,0.0,0.0,0.0,0.0,0.0,0.0,0.0,0.0,0.0,0.0,0.0,0.0,0.0,0.0,0.0,0.0,0.0
2025/05/06 15:28:03.356988410,1746538083,219113803,world_ned,mA1/odom,8.606407070352976,-14.79189235091262,0.4336884234328754,1.703611188862813e-05,-0.0003972365879205125,0.9984589979137709,-0.05549298512328084,0.0,0.0,0.0,0.0,0.0,0.0,0.0,0.0,0.0,0.0,0.0,0.0,0.0,0.0,0.0,0.0,0.0,0.0,0.0,0.0,0.0,0.0,0.0,0.0,0.0,0.0,0.0,0.0,0.0,0.0,0.0,0.0,0.0,0.0,0.0,0.0,-0.0025534628640526214,-0.002431608394991363,-3.662317990942485e-06,0.0008078181500008414,0.0007345643572729385,-3.999233449730658e-05,0.0,0.0,0.0,0.0,0.0,0.0,0.0,0.0,0.0,0.0,0.0,0.0,0.0,0.0,0.0,0.0,0.0,0.0,0.0,0.0,0.0,0.0,0.0,0.0,0.0,0.0,0.0,0.0,0.0,0.0,0.0,0.0,0.0,0.0,0.0,0.0
2025/05/06 15:28:03.449641727,1746538083,316003577,world_ned,mA1/odom,8.60631999669248,-14.791662881631707,0.4336883479008589,2.2830372659354625e-05,-0.0003596260549024026,0.9984591217746788,-0.055491010918996525,0.0,0.0,0.0,0.0,0.0,0.0,0.0,0.0,0.0,0.0,0.0,0.0,0.0,0.0,0.0,0.0,0.0,0.0,0.0,0.0,0.0,0.0,0.0,0.0,0.0,0.0,0.0,0.0,0.0,0.0,0.0,0.0,0.0,0.0,0.0,0.0,0.0026348815349815013,-0.002316157426962622,-3.573413214374542e-06,0.000664580788439953,-0.0007285895484831645,-3.9317704032533244e-05,0.0,0.0,0.0,0.0,0.0,0.0,0.0,0.0,0.0,0.0,0.0,0.0,0.0,0.0,0.0,0.0,0.0,0.0,0.0,0.0,0.0,0.0,0.0,0.0,0.0,0.0,0.0,0.0,0.0,0.0,0.0,0.0,0.0,0.0,0.0,0.0
2025/05/06 15:28:03.553491424,1746538083,420413279,world_ned,mA1/odom,8.60634825425314,-14.791437053594068,0.43368803551685964,1.3586343093943223e-05,-0.0003343727436231757,0.9984592390588023,-0.05548906152024303,0.0,0.0,0.0,0.0,0.0,0.0,0.0,0.0,0.0,0.0,0.0,0.0,0.0,0.0,0.0,0.0,0.0,0.0,0.0,0.0,0.0,0.0,0.0,0.0,0.0,0.0,0.0,0.0,0.0,0.0,0.0,0.0,0.0,0.0,0.0,0.0,-0.002554895282191156,-0.002120352791289689,-4.941143923065137e-06,0.00037550514655701586,0.0007261700195014818,-3.8752585863782e-05,0.0,0.0,0.0,0.0,0.0,0.0,0.0,0.0,0.0,0.0,0.0,0.0,0.0,0.0,0.0,0.0,0.0,0.0,0.0,0.0,0.0,0.0,0.0,0.0,0.0,0.0,0.0,0.0,0.0,0.0,0.0,0.0,0.0,0.0,0.0,0.0
2025/05/06 15:28:03.710142447,1746538083,522542597,world_ned,mA1/odom,8.606265698010542,-14.791245533956207,0.4336878034753892,2.1333210788127893e-05,-0.00032498145381115815,0.998459348464768,-0.055487146216577674,0.0,0.0,0.0,0.0,0.0,0.0,0.0,0.0,0.0,0.0,0.0,0.0,0.0,0.0,0.0,0.0,0.0,0.0,0.0,0.0,0.0,0.0,0.0,0.0,0.0,0.0,0.0,0.0,0.0,0.0,0.0,0.0,0.0,0.0,0.0,0.0,0.0026317106672844167,-0.001890200407792156,-4.323248009392244e-06,1.1845634135964836e-05,-0.0007356180381608275,-3.816036658503133e-05,0.0,0.0,0.0,0.0,0.0,0.0,0.0,0.0,0.0,0.0,0.0,0.0,0.0,0.0,0.0,0.0,0.0,0.0,0.0,0.0,0.0,0.0,0.0,0.0,0.0,0.0,0.0,0.0,0.0,0.0,0.0,0.0,0.0,0.0,0.0,0.0
2025/05/06 15:28:03.870789062,1746538083,619145050,world_ned,mA1/odom,8.606299137072586,-14.79106371091966,0.4336874097748382,1.43290702288815e-05,-0.0003347006010325654,0.9984594506826115,-0.0554852513084614,0.0,0.0,0.0,0.0,0.0,0.0,0.0,0.0,0.0,0.0,0.0,0.0,0.0,0.0,0.0,0.0,0.0,0.0,0.0,0.0,0.0,0.0,0.0,0.0,0.0,0.0,0.0,0.0,0.0,0.0,0.0,0.0,0.0,0.0,0.0,0.0,-0.0025571076455356235,-0.0016793740551973625,-4.894474892754748e-06,-0.00033828387353794954,0.0007213667275067223,-3.7704344173745754e-05,0.0,0.0,0.0,0.0,0.0,0.0,0.0,0.0,0.0,0.0,0.0,0.0,0.0,0.0,0.0,0.0,0.0,0.0,0.0,0.0,0.0,0.0,0.0,0.0,0.0,0.0,0.0,0.0,0.0,0.0,0.0,0.0,0.0,0.0,0.0,0.0
2025/05/06 15:28:03.924552969,1746538083,718528856,world_ned,mA1/odom,8.606221589484967,-14.79091208556633,0.4336872574384544,2.4026006933249703e-05,-0.00035866568393039846,0.9984595459279191,-0.055483384243318105,0.0,0.0,0.0,0.0,0.0,0.0,0.0,0.0,0.0,0.0,0.0,0.0,0.0,0.0,0.0,0.0,0.0,0.0,0.0,0.0,0.0,0.0,0.0,0.0,0.0,0.0,0.0,0.0,0.0,0.0,0.0,0.0,0.0,0.0,0.0,0.0,0.0026118512745832395,-0.0015342096485055135,-2.5402383331241342e-06,-0.0005945927592356425,-0.000731821835310859,-3.724833892626898e-05,0.0,0.0,0.0,0.0,0.0,0.0,0.0,0.0,0.0,0.0,0.0,0.0,0.0,0.0,0.0,0.0,0.0,0.0,0.0,0.0,0.0,0.0,0.0,0.0,0.0,0.0,0.0,0.0,0.0,0.0,0.0,0.0,0.0,0.0,0.0,0.0
2025/05/06 15:28:05.145737443,1746538083,923682663,world_ned,mA1/odom,8.606181422223507,-14.790612282929088,0.4336873917853402,2.8342714176396726e-05,-0.00042535688982655483,0.9984597246055381,-0.0554796954645562,0.0,0.0,0.0,0.0,0.0,0.0,0.0,0.0,0.0,0.0,0.0,0.0,0.0,0.0,0.0,0.0,0.0,0.0,0.0,0.0,0.0,0.0,0.0,0.0,0.0,0.0,0.0,0.0,0.0,0.0,0.0,0.0,0.0,0.0,0.0,0.0,0.002635568510693285,-0.0016922285552854112,1.5721950791250274e-06,-0.0005346123908607272,-0.0007332547682570972,-3.708095109732183e-05,0.0,0.0,0.0,0.0,0.0,0.0,0.0,0.0,0.0,0.0,0.0,0.0,0.0,0.0,0.0,0.0,0.0,0.0,0.0,0.0,0.0,0.0,0.0,0.0,0.0,0.0,0.0,0.0,0.0,0.0,0.0,0.0,0.0,0.0,0.0,0.0
2025/05/06 15:28:05.145876088,1746538084,20363886,world_ned,mA1/odom,8.606209150947004,-14.790389955929557,0.4336876955310444,2.0955542002397562e-05,-0.0004332795020723668,0.9984598310401208,-0.055477721916747935,0.0,0.0,0.0,0.0,0.0,0.0,0.0,0.0,0.0,0.0,0.0,0.0,0.0,0.0,0.0,0.0,0.0,0.0,0.0,0.0,0.0,0.0,0.0,0.0,0.0,0.0,0.0,0.0,0.0,0.0,0.0,0.0,0.0,0.0,0.0,0.0,-0.0025330770720783788,-0.002595877361038851,1.0486749435435479e-06,0.00018119982251897307,0.0007260047825365087,-5.095417402875924e-05,0.0,0.0,0.0,0.0,0.0,0.0,0.0,0.0,0.0,0.0,0.0,0.0,0.0,0.0,0.0,0.0,0.0,0.0,0.0,0.0,0.0,0.0,0.0,0.0,0.0,0.0,0.0,0.0,0.0,0.0,0.0,0.0,0.0,0.0,0.0,0.0
2025/05/06 15:28:05.146062585,1746538084,131158744,world_ned,mA1/odom,8.606114461479661,-14.79010153120883,0.4336881778179352,2.756189760822028e-05,-0.00040844299654152575,0.9984599121299021,-0.05547644801362561,0.0,0.0,0.0,0.0,0.0,0.0,0.0,0.0,0.0,0.0,0.0,0.0,0.0,0.0,0.0,0.0,0.0,0.0,0.0,0.0,0.0,0.0,0.0,0.0,0.0,0.0,0.0,0.0,0.0,0.0,0.0,0.0,0.0,0.0,0.0,0.0,0.002629863963838944,-0.0028740155610847353,1.5305496850124951e-06,0.0004703893452378487,-0.0007278872252646735,0.0001473551023047019,0.0,0.0,0.0,0.0,0.0,0.0,0.0,0.0,0.0,0.0,0.0,0.0,0.0,0.0,0.0,0.0,0.0,0.0,0.0,0.0,0.0,0.0,0.0,0.0,0.0,0.0,0.0,0.0,0.0,0.0,0.0,0.0,0.0,0.0,0.0,0.0
2025/05/06 15:28:05.146252001,1746538084,223226483,world_ned,mA1/odom,8.6061348123884,-14.789789413045414,0.43368845419572444,1.78956339065334e-05,-0.00037820606202822155,0.9984593358563916,-0.05548703705492101,0.0,0.0,0.0,0.0,0.0,0.0,0.0,0.0,0.0,0.0,0.0,0.0,0.0,0.0,0.0,0.0,0.0,0.0,0.0,0.0,0.0,0.0,0.0,0.0,0.0,0.0,0.0,0.0,0.0,0.0,0.0,0.0,0.0,0.0,0.0,0.0,-0.002564734110286644,-0.003382657895544802,-8.027665688770993e-08,0.0008065056359224423,0.0007329749393691979,0.0002060510049743143,0.0,0.0,0.0,0.0,0.0,0.0,0.0,0.0,0.0,0.0,0.0,0.0,0.0,0.0,0.0,0.0,0.0,0.0,0.0,0.0,0.0,0.0,0.0,0.0,0.0,0.0,0.0,0.0,0.0,0.0,0.0,0.0,0.0,0.0,0.0,0.0
2025/05/06 15:28:05.146378196,1746538084,322331852,world_ned,mA1/odom,8.606033659122792,-14.789429029454004,0.43368880471985266,2.2897116421213217e-05,-0.00032986440619351114,0.9984588002672361,-0.05549698040530853,0.0,0.0,0.0,0.0,0.0,0.0,0.0,0.0,0.0,0.0,0.0,0.0,0.0,0.0,0.0,0.0,0.0,0.0,0.0,0.0,0.0,0.0,0.0,0.0,0.0,0.0,0.0,0.0,0.0,0.0,0.0,0.0,0.0,0.0,0.0,0.0,0.0026349458443101614,-0.0039199294867794,-3.6083623522845775e-07,0.0010446202409271155,-0.0007206648221704826,0.00019357690991380638,0.0,0.0,0.0,0.0,0.0,0.0,0.0,0.0,0.0,0.0,0.0,0.0,0.0,0.0,0.0,0.0,0.0,0.0,0.0,0.0,0.0,0.0,0.0,0.0,0.0,0.0,0.0,0.0,0.0,0.0,0.0,0.0,0.0,0.0,0.0,0.0
2025/05/06 15:28:05.146587240,1746538084,419015630,world_ned,mA1/odom,8.606040007009419,-14.789012649601021,0.4336887752187749,1.1551035074426843e-05,-0.0002778002126835448,0.9984582971356081,-0.055506320132732705,0.0,0.0,0.0,0.0,0.0,0.0,0.0,0.0,0.0,0.0,0.0,0.0,0.0,0.0,0.0,0.0,0.0,0.0,0.0,0.0,0.0,0.0,0.0,0.0,0.0,0.0,0.0,0.0,0.0,0.0,0.0,0.0,0.0,0.0,0.0,0.0,-0.0025426519210318575,-0.004276520202901216,-4.1840831432258095e-06,0.0010180125738875763,0.0007415359674472465,0.00018211162081475748,0.0,0.0,0.0,0.0,0.0,0.0,0.0,0.0,0.0,0.0,0.0,0.0,0.0,0.0,0.0,0.0,0.0,0.0,0.0,0.0,0.0,0.0,0.0,0.0,0.0,0.0,0.0,0.0,0.0,0.0,0.0,0.0,0.0,0.0,0.0,0.0
2025/05/06 15:28:05.146717726,1746538084,516798426,world_ned,mA1/odom,8.605928813787466,-14.78858295002723,0.43368860673969956,1.6417838861549054e-05,-0.00023322755344206455,0.9984578179977451,-0.055515142209530105,0.0,0.0,0.0,0.0,0.0,0.0,0.0,0.0,0.0,0.0,0.0,0.0,0.0,0.0,0.0,0.0,0.0,0.0,0.0,0.0,0.0,0.0,0.0,0.0,0.0,0.0,0.0,0.0,0.0,0.0,0.0,0.0,0.0,0.0,0.0,0.0,0.0026657596361970262,-0.004467005771198233,-5.464195743400066e-06,0.0007400824494522422,-0.0007174888181962579,0.00017228094580338605,0.0,0.0,0.0,0.0,0.0,0.0,0.0,0.0,0.0,0.0,0.0,0.0,0.0,0.0,0.0,0.0,0.0,0.0,0.0,0.0,0.0,0.0,0.0,0.0,0.0,0.0,0.0,0.0,0.0,0.0,0.0,0.0,0.0,0.0,0.0,0.0
2025/05/06 15:28:05.146849469,1746538084,617751511,world_ned,mA1/odom,8.605930070996221,-14.788120259543026,0.43368807864966186,6.554626699549967e-06,-0.0002061237823958607,0.9984574666164096,-0.05552157083480999,0.0,0.0,0.0,0.0,0.0,0.0,0.0,0.0,0.0,0.0,0.0,0.0,0.0,0.0,0.0,0.0,0.0,0.0,0.0,0.0,0.0,0.0,0.0,0.0,0.0,0.0,0.0,0.0,0.0,0.0,0.0,0.0,0.0,0.0,0.0,0.0,-0.002554095673658659,-0.004652115279300259,-7.692691449382387e-06,0.0003552421204066587,0.0007367103460208777,0.000110683068579928,0.0,0.0,0.0,0.0,0.0,0.0,0.0,0.0,0.0,0.0,0.0,0.0,0.0,0.0,0.0,0.0,0.0,0.0,0.0,0.0,0.0,0.0,0.0,0.0,0.0,0.0,0.0,0.0,0.0,0.0,0.0,0.0,0.0,0.0,0.0,0.0
2025/05/06 15:28:05.180721792,1746538084,714280288,world_ned,mA1/odom,8.605818573663,-14.787674117999163,0.4336876320427445,1.4220497383427221e-05,-0.0002058565464854257,0.9984570529102316,-0.05552900966769528,0.0,0.0,0.0,0.0,0.0,0.0,0.0,0.0,0.0,0.0,0.0,0.0,0.0,0.0,0.0,0.0,0.0,0.0,0.0,0.0,0.0,0.0,0.0,0.0,0.0,0.0,0.0,0.0,0.0,0.0,0.0,0.0,0.0,0.0,0.0,0.0,0.002621483602527845,-0.004123917749470073,-7.106803566624134e-06,-0.00052513724900485,-0.0007264537512522404,0.0003203039056516227,0.0,0.0,0.0,0.0,0.0,0.0,0.0,0.0,0.0,0.0,0.0,0.0,0.0,0.0,0.0,0.0,0.0,0.0,0.0,0.0,0.0,0.0,0.0,0.0,0.0,0.0,0.0,0.0,0.0,0.0,0.0,0.0,0.0,0.0,0.0,0.0
2025/05/06 15:28:05.181020165,1746538084,816305626,world_ned,mA1/odom,8.605830147437953,-14.787271353639477,0.433687039689263,8.880326125510645e-06,-0.0002512433817301571,0.9984559871824322,-0.055547983378856663,0.0,0.0,0.0,0.0,0.0,0.0,0.0,0.0,0.0,0.0,0.0,0.0,0.0,0.0,0.0,0.0,0.0,0.0,0.0,0.0,0.0,0.0,0.0,0.0,0.0,0.0,0.0,0.0,0.0,0.0,0.0,0.0,0.0,0.0,0.0,0.0,-0.0025830467100259537,-0.0040575438502076615,-7.364442141982603e-06,-0.0010714412081436358,0.0007278737489581379,0.000369547594785886,0.0,0.0,0.0,0.0,0.0,0.0,0.0,0.0,0.0,0.0,0.0,0.0,0.0,0.0,0.0,0.0,0.0,0.0,0.0,0.0,0.0,0.0,0.0,0.0,0.0,0.0,0.0,0.0,0.0,0.0,0.0,0.0,0.0,0.0,0.0,0.0
2025/05/06 15:28:05.181213440,1746538084,916660453,world_ned,mA1/odom,8.605725136504066,-14.786861266514343,0.4336867862548868,2.0348051020135242e-05,-0.0003101722082295071,0.9984549779775895,-0.05556581980794975,0.0,0.0,0.0,0.0,0.0,0.0,0.0,0.0,0.0,0.0,0.0,0.0,0.0,0.0,0.0,0.0,0.0,0.0,0.0,0.0,0.0,0.0,0.0,0.0,0.0,0.0,0.0,0.0,0.0,0.0,0.0,0.0,0.0,0.0,0.0,0.0,0.002617264267657517,-0.004324401384741068,-4.8044104339807915e-06,-0.001245391205724247,-0.0007341385458297592,0.00034743916554601874,0.0,0.0,0.0,0.0,0.0,0.0,0.0,0.0,0.0,0.0,0.0,0.0,0.0,0.0,0.0,0.0,0.0,0.0,0.0,0.0,0.0,0.0,0.0,0.0,0.0,0.0,0.0,0.0,0.0,0.0,0.0,0.0,0.0,0.0,0.0,0.0
2025/05/06 15:28:05.181520960,1746538085,18551965,world_ned,mA1/odom,8.605728880941856,-14.786404829446539,0.43368665412699675,1.6128823060175104e-05,-0.000371456362828444,0.9984540236847632,-0.05558259032950888,0.0,0.0,0.0,0.0,0.0,0.0,0.0,0.0,0.0,0.0,0.0,0.0,0.0,0.0,0.0,0.0,0.0,0.0,0.0,0.0,0.0,0.0,0.0,0.0,0.0,0.0,0.0,0.0,0.0,0.0,0.0,0.0,0.0,0.0,0.0,0.0,-0.0025634599824283536,-0.004699737460693567,-3.3307834536535926e-06,-0.0011716516476018614,0.0007231426279886515,0.00032695053458536616,0.0,0.0,0.0,0.0,0.0,0.0,0.0,0.0,0.0,0.0,0.0,0.0,0.0,0.0,0.0,0.0,0.0,0.0,0.0,0.0,0.0,0.0,0.0,0.0,0.0,0.0,0.0,0.0,0.0,0.0,0.0,0.0,0.0,0.0,0.0,0.0
2025/05/06 15:28:05.192146091,1746538085,119438382,world_ned,mA1/odom,8.605615160863685,-14.785925034081007,0.4336870396994388,2.7263981219089344e-05,-0.0004240228674302197,0.9984531223086658,-0.055598399377675266,0.0,0.0,0.0,0.0,0.0,0.0,0.0,0.0,0.0,0.0,0.0,0.0,0.0,0.0,0.0,0.0,0.0,0.0,0.0,0.0,0.0,0.0,0.0,0.0,0.0,0.0,0.0,0.0,0.0,0.0,0.0,0.0,0.0,0.0,0.0,0.0,0.0026248959442551735,-0.005073259477514928,5.187811782709905e-07,-0.000936413922272185,-0.0007329092519537516,0.00030842972175608495,0.0,0.0,0.0,0.0,0.0,0.0,0.0,0.0,0.0,0.0,0.0,0.0,0.0,0.0,0.0,0.0,0.0,0.0,0.0,0.0,0.0,0.0,0.0,0.0,0.0,0.0,0.0,0.0,0.0,0.0,0.0,0.0,0.0,0.0,0.0,0.0
2025/05/06 15:28:05.221119111,1746538085,220472418,world_ned,mA1/odom,8.605608883803633,-14.78538926188847,0.4336875457194956,2.1559843613305804e-05,-0.0004598333473957659,0.9984522790668668,-0.05561325844297456,0.0,0.0,0.0,0.0,0.0,0.0,0.0,0.0,0.0,0.0,0.0,0.0,0.0,0.0,0.0,0.0,0.0,0.0,0.0,0.0,0.0,0.0,0.0,0.0,0.0,0.0,0.0,0.0,0.0,0.0,0.0,0.0,0.0,0.0,0.0,0.0,-0.0025564491426935654,-0.005577344599150272,3.2196216473197117e-07,-0.00048289135425496916,0.0007242206403001456,0.0002795658181237825,0.0,0.0,0.0,0.0,0.0,0.0,0.0,0.0,0.0,0.0,0.0,0.0,0.0,0.0,0.0,0.0,0.0,0.0,0.0,0.0,0.0,0.0,0.0,0.0,0.0,0.0,0.0,0.0,0.0,0.0,0.0,0.0,0.0,0.0,0.0,0.0
2025/05/06 15:28:05.322010295,1746538085,321691026,world_ned,mA1/odom,8.605482773598238,-14.784809702382194,0.4336882658712397,3.033131819476771e-05,-0.000467719533029255,0.998451570146607,-0.055625914736073215,0.0,0.0,0.0,0.0,0.0,0.0,0.0,0.0,0.0,0.0,0.0,0.0,0.0,0.0,0.0,0.0,0.0,0.0,0.0,0.0,0.0,0.0,0.0,0.0,0.0,0.0,0.0,0.0,0.0,0.0,0.0,0.0,0.0,0.0,0.0,0.0,0.002638784434168501,-0.006132827301306704,7.859159619111264e-07,7.498633561452318e-05,-0.0007342727102493367,0.00024507635194020386,0.0,0.0,0.0,0.0,0.0,0.0,0.0,0.0,0.0,0.0,0.0,0.0,0.0,0.0,0.0,0.0,0.0,0.0,0.0,0.0,0.0,0.0,0.0,0.0,0.0,0.0,0.0,0.0,0.0,0.0,0.0,0.0,0.0,0.0,0.0,0.0
2025/05/06 15:28:05.424572373,1746538085,422898261,world_ned,mA1/odom,8.605463450341137,-14.78416795510551,0.43368877145214263,2.156154268580105e-05,-0.00045043734267362075,0.9984509211223471,-0.05563770979503905,0.0,0.0,0.0,0.0,0.0,0.0,0.0,0.0,0.0,0.0,0.0,0.0,0.0,0.0,0.0,0.0,0.0,0.0,0.0,0.0,0.0,0.0,0.0,0.0,0.0,0.0,0.0,0.0,0.0,0.0,0.0,0.0,0.0,0.0,0.0,0.0,-0.002539028445084156,-0.006606010849646879,-1.5283568510827601e-06,0.0005700995961623289,0.0007292151336810964,0.00022935135381978262,0.0,0.0,0.0,0.0,0.0,0.0,0.0,0.0,0.0,0.0,0.0,0.0,0.0,0.0,0.0,0.0,0.0,0.0,0.0,0.0,0.0,0.0,0.0,0.0,0.0,0.0,0.0,0.0,0.0,0.0,0.0,0.0,0.0,0.0,0.0,0.0
2025/05/06 15:28:05.603591290,1746538085,517335919,world_ned,mA1/odom,8.605324928545079,-14.783497261527,0.43368923966394957,2.726775394043994e-05,-0.00041117664158919434,0.9984503221024613,-0.05564875994782264,0.0,0.0,0.0,0.0,0.0,0.0,0.0,0.0,0.0,0.0,0.0,0.0,0.0,0.0,0.0,0.0,0.0,0.0,0.0,0.0,0.0,0.0,0.0,0.0,0.0,0.0,0.0,0.0,0.0,0.0,0.0,0.0,0.0,0.0,0.0,0.0,0.0026606350345856344,-0.006972433412075807,-3.066831427450605e-06,0.0009156163268022989,-0.0007250064798808305,0.00021477945532922543,0.0,0.0,0.0,0.0,0.0,0.0,0.0,0.0,0.0,0.0,0.0,0.0,0.0,0.0,0.0,0.0,0.0,0.0,0.0,0.0,0.0,0.0,0.0,0.0,0.0,0.0,0.0,0.0,0.0,0.0,0.0,0.0,0.0,0.0,0.0,0.0
2025/05/06 15:28:05.651567092,1746538085,621933286,world_ned,mA1/odom,8.6052967318652,-14.782785380401542,0.43368924119301777,1.6091292904183054e-05,-0.0003616088198402452,0.998449765392651,-0.05565909599959365,0.0,0.0,0.0,0.0,0.0,0.0,0.0,0.0,0.0,0.0,0.0,0.0,0.0,0.0,0.0,0.0,0.0,0.0,0.0,0.0,0.0,0.0,0.0,0.0,0.0,0.0,0.0,0.0,0.0,0.0,0.0,0.0,0.0,0.0,0.0,0.0,-0.002539928329813955,-0.007192048056500243,-6.519109610979802e-06,0.0010366139052339675,0.0007439910480904287,0.00020089966526160572,0.0,0.0,0.0,0.0,0.0,0.0,0.0,0.0,0.0,0.0,0.0,0.0,0.0,0.0,0.0,0.0,0.0,0.0,0.0,0.0,0.0,0.0,0.0,0.0,0.0,0.0,0.0,0.0,0.0,0.0,0.0,0.0,0.0,0.0,0.0,0.0
2025/05/06 15:28:05.716924329,1746538085,715604551,world_ned,mA1/odom,8.605152155839273,-14.782072932763224,0.4336891011968746,2.0753660125356415e-05,-0.0003118291562641623,0.9984492429872451,-0.05566876601883562,0.0,0.0,0.0,0.0,0.0,0.0,0.0,0.0,0.0,0.0,0.0,0.0,0.0,0.0,0.0,0.0,0.0,0.0,0.0,0.0,0.0,0.0,0.0,0.0,0.0,0.0,0.0,0.0,0.0,0.0,0.0,0.0,0.0,0.0,0.0,0.0,0.0026789062569654173,-0.0072576845939773685,-8.135113853842543e-06,0.000911650649114254,-0.000718963190601224,0.00018777562044792434,0.0,0.0,0.0,0.0,0.0,0.0,0.0,0.0,0.0,0.0,0.0,0.0,0.0,0.0,0.0,0.0,0.0,0.0,0.0,0.0,0.0,0.0,0.0,0.0,0.0,0.0,0.0,0.0,0.0,0.0,0.0,0.0,0.0,0.0,0.0,0.0
2025/05/06 15:28:05.824621365,1746538085,824070460,world_ned,mA1/odom,8.605119488460325,-14.781348861809226,0.4336884649198244,1.0317295590652894e-05,-0.00027528970309672316,0.9984487507981119,-0.05567778855901858,0.0,0.0,0.0,0.0,0.0,0.0,0.0,0.0,0.0,0.0,0.0,0.0,0.0,0.0,0.0,0.0,0.0,0.0,0.0,0.0,0.0,0.0,0.0,0.0,0.0,0.0,0.0,0.0,0.0,0.0,0.0,0.0,0.0,0.0,0.0,0.0,-0.0024998854703311073,-0.00719550793995829,-1.1742993368197158e-05,0.0005756493368129648,0.0007381508630032946,0.00017520349213186875,0.0,0.0,0.0,0.0,0.0,0.0,0.0,0.0,0.0,0.0,0.0,0.0,0.0,0.0,0.0,0.0,0.0,0.0,0.0,0.0,0.0,0.0,0.0,0.0,0.0,0.0,0.0,0.0,0.0,0.0,0.0,0.0,0.0,0.0,0.0,0.0
2025/05/06 15:28:05.929258018,1746538085,923040005,world_ned,mA1/odom,8.60497398964034,-14.7806482692075,0.4336877550384837,1.7024120099506435e-05,-0.00025851697605927423,0.998448285275997,-0.05568621470861283,0.0,0.0,0.0,0.0,0.0,0.0,0.0,0.0,0.0,0.0,0.0,0.0,0.0,0.0,0.0,0.0,0.0,0.0,0.0,0.0,0.0,0.0,0.0,0.0,0.0,0.0,0.0,0.0,0.0,0.0,0.0,0.0,0.0,0.0,0.0,0.0,0.002693085726311681,-0.007059074240767658,-1.1779351356827315e-05,0.00011166842237910922,-0.0007231292242129059,0.00016350912040419263,0.0,0.0,0.0,0.0,0.0,0.0,0.0,0.0,0.0,0.0,0.0,0.0,0.0,0.0,0.0,0.0,0.0,0.0,0.0,0.0,0.0,0.0,0.0,0.0,0.0,0.0,0.0,0.0,0.0,0.0,0.0,0.0,0.0,0.0,0.0,0.0
2025/05/06 15:28:06.17661403,1746538086,14572928,world_ned,mA1/odom,8.604942548056242,-14.779951073401058,0.43368687123024907,9.502094700389445e-06,-0.00026730877167254353,0.9984478452421838,-0.055694064198717225,0.0,0.0,0.0,0.0,0.0,0.0,0.0,0.0,0.0,0.0,0.0,0.0,0.0,0.0,0.0,0.0,0.0,0.0,0.0,0.0,0.0,0.0,0.0,0.0,0.0,0.0,0.0,0.0,0.0,0.0,0.0,0.0,0.0,0.0,0.0,0.0,-0.0024902186499382055,-0.006819029185930634,-1.1853648965895182e-05,-0.00043770250093489674,0.0007302300331941966,0.00015270213134242573,0.0,0.0,0.0,0.0,0.0,0.0,0.0,0.0,0.0,0.0,0.0,0.0,0.0,0.0,0.0,0.0,0.0,0.0,0.0,0.0,0.0,0.0,0.0,0.0,0.0,0.0,0.0,0.0,0.0,0.0,0.0,0.0,0.0,0.0,0.0,0.0
2025/05/06 15:28:06.120715690,1746538086,119219002,world_ned,mA1/odom,8.604803799974345,-14.779311812650203,0.4336863447440129,1.991212458751735e-05,-0.00030870937368339185,0.9984474197690224,-0.05570147447430614,0.0,0.0,0.0,0.0,0.0,0.0,0.0,0.0,0.0,0.0,0.0,0.0,0.0,0.0,0.0,0.0,0.0,0.0,0.0,0.0,0.0,0.0,0.0,0.0,0.0,0.0,0.0,0.0,0.0,0.0,0.0,0.0,0.0,0.0,0.0,0.0,0.002688785728382247,-0.006276365521496034,-8.457041646551595e-06,-0.0011324623618746517,-0.0007331664457107409,0.00014511014092517235,0.0,0.0,0.0,0.0,0.0,0.0,0.0,0.0,0.0,0.0,0.0,0.0,0.0,0.0,0.0,0.0,0.0,0.0,0.0,0.0,0.0,0.0,0.0,0.0,0.0,0.0,0.0,0.0,0.0,0.0,0.0,0.0,0.0,0.0,0.0,0.0
2025/05/06 15:28:06.225406123,1746538086,222958310,world_ned,mA1/odom,8.60478382129098,-14.778703625958537,0.4336860148756633,1.6187459498869475e-05,-0.0003782425363090564,0.9984470024406141,-0.05570852706635112,0.0,0.0,0.0,0.0,0.0,0.0,0.0,0.0,0.0,0.0,0.0,0.0,0.0,0.0,0.0,0.0,0.0,0.0,0.0,0.0,0.0,0.0,0.0,0.0,0.0,0.0,0.0,0.0,0.0,0.0,0.0,0.0,0.0,0.0,0.0,0.0,-0.00250215969948655,-0.0059298885663394895,-5.7740414939288925e-06,-0.0015354450894120492,0.0007212941654403747,0.0001382894129113855,0.0,0.0,0.0,0.0,0.0,0.0,0.0,0.0,0.0,0.0,0.0,0.0,0.0,0.0,0.0,0.0,0.0,0.0,0.0,0.0,0.0,0.0,0.0,0.0,0.0,0.0,0.0,0.0,0.0,0.0,0.0,0.0,0.0,0.0,0.0,0.0
2025/05/06 15:28:06.319463332,1746538086,316308565,world_ned,mA1/odom,8.604653065113379,-14.778129747607805,0.4336863160076044,2.907066363689403e-05,-0.0004568460630739484,0.9984465940342327,-0.05571525202322134,0.0,0.0,0.0,0.0,0.0,0.0,0.0,0.0,0.0,0.0,0.0,0.0,0.0,0.0,0.0,0.0,0.0,0.0,0.0,0.0,0.0,0.0,0.0,0.0,0.0,0.0,0.0,0.0,0.0,0.0,0.0,0.0,0.0,0.0,0.0,0.0,0.0026845068984620254,-0.005818197553579106,-9.376186380931552e-07,-0.0015651317875411165,-0.0007398746853889827,0.00013175253726069902,0.0,0.0,0.0,0.0,0.0,0.0,0.0,0.0,0.0,0.0,0.0,0.0,0.0,0.0,0.0,0.0,0.0,0.0,0.0,0.0,0.0,0.0,0.0,0.0,0.0,0.0,0.0,0.0,0.0,0.0,0.0,0.0,0.0,0.0,0.0,0.0
2025/05/06 15:28:06.426932177,1746538086,421716007,world_ned,mA1/odom,8.604635617600211,-14.777541867380753,0.43368684231675636,2.5648061023754642e-05,-0.0005275576864954417,0.9984462022988051,-0.05572164875663681,0.0,0.0,0.0,0.0,0.0,0.0,0.0,0.0,0.0,0.0,0.0,0.0,0.0,0.0,0.0,0.0,0.0,0.0,0.0,0.0,0.0,0.0,0.0,0.0,0.0,0.0,0.0,0.0,0.0,0.0,0.0,0.0,0.0,0.0,0.0,0.0,-0.0025036665959390133,-0.0059290971906468684,1.0127076400673351e-10,-0.0012260976498602249,0.0007183585322709458,0.00012543552607384727,0.0,0.0,0.0,0.0,0.0,0.0,0.0,0.0,0.0,0.0,0.0,0.0,0.0,0.0,0.0,0.0,0.0,0.0,0.0,0.0,0.0,0.0,0.0,0.0,0.0,0.0,0.0,0.0,0.0,0.0,0.0,0.0,0.0,0.0,0.0,0.0
2025/05/06 15:28:06.518649899,1746538086,518324342,world_ned,mA1/odom,8.60450240177008,-14.776946103745066,0.4336876806237688,3.6662769733623746e-05,-0.000572188269416141,0.9984458366925621,-0.05572775293976118,0.0,0.0,0.0,0.0,0.0,0.0,0.0,0.0,0.0,0.0,0.0,0.0,0.0,0.0,0.0,0.0,0.0,0.0,0.0,0.0,0.0,0.0,0.0,0.0,0.0,0.0,0.0,0.0,0.0,0.0,0.0,0.0,0.0,0.0,0.0,0.0,0.002685585783335032,-0.006200364053368788,7.849071622910526e-07,-0.0006083990231763899,-0.0007385222665849808,0.00011963431733330129,0.0,0.0,0.0,0.0,0.0,0.0,0.0,0.0,0.0,0.0,0.0,0.0,0.0,0.0,0.0,0.0,0.0,0.0,0.0,0.0,0.0,0.0,0.0,0.0,0.0,0.0,0.0,0.0,0.0,0.0,0.0,0.0,0.0,0.0,0.0,0.0
2025/05/06 15:28:06.625664575,1746538086,622560060,world_ned,mA1/odom,8.60447877565334,-14.776306391590206,0.4336883244440596,2.9722247350761537e-05,-0.0005827270991308306,0.998445506199899,-0.05573356883372394,0.0,0.0,0.0,0.0,0.0,0.0,0.0,0.0,0.0,0.0,0.0,0.0,0.0,0.0,0.0,0.0,0.0,0.0,0.0,0.0,0.0,0.0,0.0,0.0,0.0,0.0,0.0,0.0,0.0,0.0,0.0,0.0,0.0,0.0,0.0,0.0,-0.002488168139200303,-0.0065363097257849535,-1.9267856445829517e-06,0.00013698437762352727,0.0007201739018693686,0.00011417114430804678,0.0,0.0,0.0,0.0,0.0,0.0,0.0,0.0,0.0,0.0,0.0,0.0,0.0,0.0,0.0,0.0,0.0,0.0,0.0,0.0,0.0,0.0,0.0,0.0,0.0,0.0,0.0,0.0,0.0,0.0,0.0,0.0,0.0,0.0,0.0,0.0
2025/05/06 15:28:06.723274629,1746538086,716702955,world_ned,mA1/odom,8.604328074310207,-14.775644522316577,0.4336892185372927,3.536425879428227e-05,-0.0005543755215230616,0.9984451904120426,-0.05573951166103144,0.0,0.0,0.0,0.0,0.0,0.0,0.0,0.0,0.0,0.0,0.0,0.0,0.0,0.0,0.0,0.0,0.0,0.0,0.0,0.0,0.0,0.0,0.0,0.0,0.0,0.0,0.0,0.0,0.0,0.0,0.0,0.0,0.0,0.0,0.0,0.0,0.003031660968062589,-0.007022663038033195,3.5925599019695777e-06,0.0009610795597688808,-0.0006527591504407109,0.00014493832252252746,0.0,0.0,0.0,0.0,0.0,0.0,0.0,0.0,0.0,0.0,0.0,0.0,0.0,0.0,0.0,0.0,0.0,0.0,0.0,0.0,0.0,0.0,0.0,0.0,0.0,0.0,0.0,0.0,0.0,0.0,0.0,0.0,0.0,0.0,0.0,0.0
2025/05/06 15:28:06.848851853,1746538086,822747303,world_ned,mA1/odom,8.604203154913957,-14.774911477635063,0.43368974840072183,1.3889380859383153e-05,-0.0004840774600093074,0.9984447958323202,-0.05574724344265354,0.0,0.0,0.0,0.0,0.0,0.0,0.0,0.0,0.0,0.0,0.0,0.0,0.0,0.0,0.0,0.0,0.0,0.0,0.0,0.0,0.0,0.0,0.0,0.0,0.0,0.0,0.0,0.0,0.0,0.0,0.0,0.0,0.0,0.0,0.0,0.0,-0.0007474658528675448,-0.0077461416865217516,1.059730373001585e-06,0.0017832141264981147,0.0010770912678168215,4.6188581136908776e-05,0.0,0.0,0.0,0.0,0.0,0.0,0.0,0.0,0.0,0.0,0.0,0.0,0.0,0.0,0.0,0.0,0.0,0.0,0.0,0.0,0.0,0.0,0.0,0.0,0.0,0.0,0.0,0.0,0.0,0.0,0.0,0.0,0.0,0.0,0.0,0.0
2025/05/06 15:28:06.920902225,1746538086,920174544,world_ned,mA1/odom,8.603724984314022,-14.774043295781013,0.43369174103796787,-1.9917849358763852e-05,-0.0003488239828376611,0.9984467320824304,-0.05571356315138828,0.0,0.0,0.0,0.0,0.0,0.0,0.0,0.0,0.0,0.0,0.0,0.0,0.0,0.0,0.0,0.0,0.0,0.0,0.0,0.0,0.0,0.0,0.0,0.0,0.0,0.0,0.0,0.0,0.0,0.0,0.0,0.0,0.0,0.0,0.0,0.0,0.006867859912053383,-0.009798907977198902,1.4558079090663225e-05,0.0030984791419345335,9.176105340622687e-05,-0.0010392227760261672,0.0,0.0,0.0,0.0,0.0,0.0,0.0,0.0,0.0,0.0,0.0,0.0,0.0,0.0,0.0,0.0,0.0,0.0,0.0,0.0,0.0,0.0,0.0,0.0,0.0,0.0,0.0,0.0,0.0,0.0,0.0,0.0,0.0,0.0,0.0,0.0
2025/05/06 15:28:07.22610124,1746538087,20853287,world_ned,mA1/odom,8.603203627259568,-14.77348696117368,0.4336927880321382,-7.391804578751658e-05,-0.000322067206602617,0.9984453766318685,-0.05573796454198141,0.0,0.0,0.0,0.0,0.0,0.0,0.0,0.0,0.0,0.0,0.0,0.0,0.0,0.0,0.0,0.0,0.0,0.0,0.0,0.0,0.0,0.0,0.0,0.0,0.0,0.0,0.0,0.0,0.0,0.0,0.0,0.0,0.0,0.0,0.0,0.0,0.007160418682130524,-0.004821834740547747,-1.1805876105389026e-05,-0.0003458388979499624,0.0005306732045677598,0.0010984371688522701,0.0,0.0,0.0,0.0,0.0,0.0,0.0,0.0,0.0,0.0,0.0,0.0,0.0,0.0,0.0,0.0,0.0,0.0,0.0,0.0,0.0,0.0,0.0,0.0,0.0,0.0,0.0,0.0,0.0,0.0,0.0,0.0,0.0,0.0,0.0,0.0
2025/05/06 15:28:07.119484624,1746538087,115547827,world_ned,mA1/odom,8.602460816398633,-14.773026640211679,0.43369022877757146,-0.00011367366193613486,-0.00033025851780049237,0.9984426224986888,-0.05578716326853998,0.0,0.0,0.0,0.0,0.0,0.0,0.0,0.0,0.0,0.0,0.0,0.0,0.0,0.0,0.0,0.0,0.0,0.0,0.0,0.0,0.0,0.0,0.0,0.0,0.0,0.0,0.0,0.0,0.0,0.0,0.0,0.0,0.0,0.0,0.0,0.0,0.0066564116332467,-0.005775997387339083,-2.5131500703495477e-05,-2.1390495678806747e-05,0.0009238772481663248,0.0009165074459555351,0.0,0.0,0.0,0.0,0.0,0.0,0.0,0.0,0.0,0.0,0.0,0.0,0.0,0.0,0.0,0.0,0.0,0.0,0.0,0.0,0.0,0.0,0.0,0.0,0.0,0.0,0.0,0.0,0.0,0.0,0.0,0.0,0.0,0.0,0.0,0.0
2025/05/06 15:28:07.221218324,1746538087,220020619,world_ned,mA1/odom,8.601718693091277,-14.772500355845498,0.4336892541627748,-0.00015832700153542095,-0.00033331294866754843,0.9984400923810214,-0.05583230033964487,0.0,0.0,0.0,0.0,0.0,0.0,0.0,0.0,0.0,0.0,0.0,0.0,0.0,0.0,0.0,0.0,0.0,0.0,0.0,0.0,0.0,0.0,0.0,0.0,0.0,0.0,0.0,0.0,0.0,0.0,0.0,0.0,0.0,0.0,0.0,0.0,0.01101493377085749,-0.0060799514593580005,-1.011364433264216e-05,-0.00012152198288330398,-0.000289042968109823,0.0009825189966766225,0.0,0.0,0.0,0.0,0.0,0.0,0.0,0.0,0.0,0.0,0.0,0.0,0.0,0.0,0.0,0.0,0.0,0.0,0.0,0.0,0.0,0.0,0.0,0.0,0.0,0.0,0.0,0.0,0.0,0.0,0.0,0.0,0.0,0.0,0.0,0.0
2025/05/06 15:28:07.322343686,1746538087,320876633,world_ned,mA1/odom,8.600816104298694,-14.771968793536452,0.43368819218252114,-0.00017897198980180445,-0.0003410984942257828,0.9984372457385544,-0.05588307384936491,0.0,0.0,0.0,0.0,0.0,0.0,0.0,0.0,0.0,0.0,0.0,0.0,0.0,0.0,0.0,0.0,0.0,0.0,0.0,0.0,0.0,0.0,0.0,0.0,0.0,0.0,0.0,0.0,0.0,0.0,0.0,0.0,0.0,0.0,0.0,0.0,0.006006719392171538,-0.006473652093200614,-1.4391553705751071e-05,-0.00013401145945502206,0.0010190846776224236,0.001031889166425807,0.0,0.0,0.0,0.0,0.0,0.0,0.0,0.0,0.0,0.0,0.0,0.0,0.0,0.0,0.0,0.0,0.0,0.0,0.0,0.0,0.0,0.0,0.0,0.0,0.0,0.0,0.0,0.0,0.0,0.0,0.0,0.0,0.0,0.0,0.0,0.0
2025/05/06 15:28:07.427515508,1746538087,423850571,world_ned,mA1/odom,8.599796543782988,-14.771407580306544,0.4336867884761877,-0.00017569923248482103,-0.00034686566996036585,0.9984343052448842,-0.05593556046158795,0.0,0.0,0.0,0.0,0.0,0.0,0.0,0.0,0.0,0.0,0.0,0.0,0.0,0.0,0.0,0.0,0.0,0.0,0.0,0.0,0.0,0.0,0.0,0.0,0.0,0.0,0.0,0.0,0.0,0.0,0.0,0.0,0.0,0.0,0.0,0.0,0.013527321866267653,-0.006689740042615844,-1.1895254461693399e-05,-0.00024456615602147427,-0.0012571479454642522,0.0011667112827980772,0.0,0.0,0.0,0.0,0.0,0.0,0.0,0.0,0.0,0.0,0.0,0.0,0.0,0.0,0.0,0.0,0.0,0.0,0.0,0.0,0.0,0.0,0.0,0.0,0.0,0.0,0.0,0.0,0.0,0.0,0.0,0.0,0.0,0.0,0.0,0.0
2025/05/06 15:28:07.517446799,1746538087,515231043,world_ned,mA1/odom,8.598743236954428,-14.770855014564681,0.43368763371101315,-0.00016096385327829378,-0.00036452537431356624,0.9984306118356948,-0.05600137999451304,0.0,0.0,0.0,0.0,0.0,0.0,0.0,0.0,0.0,0.0,0.0,0.0,0.0,0.0,0.0,0.0,0.0,0.0,0.0,0.0,0.0,0.0,0.0,0.0,0.0,0.0,0.0,0.0,0.0,0.0,0.0,0.0,0.0,0.0,0.0,0.0,0.005011702494552055,-0.006657434855027329,8.425494502536146e-06,-0.0004708787873541551,0.0010296530522670955,0.0014473290857498092,0.0,0.0,0.0,0.0,0.0,0.0,0.0,0.0,0.0,0.0,0.0,0.0,0.0,0.0,0.0,0.0,0.0,0.0,0.0,0.0,0.0,0.0,0.0,0.0,0.0,0.0,0.0,0.0,0.0,0.0,0.0,0.0,0.0,0.0,0.0,0.0
2025/05/06 15:28:07.624888383,1746538087,621519029,world_ned,mA1/odom,8.597539154225377,-14.770281940986541,0.43369007552607086,-0.0001221151696534172,-0.00037800536621512143,0.9984266557647076,-0.05607187582318366,0.0,0.0,0.0,0.0,0.0,0.0,0.0,0.0,0.0,0.0,0.0,0.0,0.0,0.0,0.0,0.0,0.0,0.0,0.0,0.0,0.0,0.0,0.0,0.0,0.0,0.0,0.0,0.0,0.0,0.0,0.0,0.0,0.0,0.0,0.0,0.0,0.01271797987965329,-0.007123204231430382,4.26491147184724e-05,-0.0003200420129532753,-0.0011177180869860425,0.00149501350452438,0.0,0.0,0.0,0.0,0.0,0.0,0.0,0.0,0.0,0.0,0.0,0.0,0.0,0.0,0.0,0.0,0.0,0.0,0.0,0.0,0.0,0.0,0.0,0.0,0.0,0.0,0.0,0.0,0.0,0.0,0.0,0.0,0.0,0.0,0.0,0.0
2025/05/06 15:28:07.718811681,1746538087,717799904,world_ned,mA1/odom,8.596268905179535,-14.769706456975026,0.4336935688364075,-7.871717641523504e-05,-0.0003946217129613681,0.9984220605417725,-0.05615360274132892,0.0,0.0,0.0,0.0,0.0,0.0,0.0,0.0,0.0,0.0,0.0,0.0,0.0,0.0,0.0,0.0,0.0,0.0,0.0,0.0,0.0,0.0,0.0,0.0,0.0,0.0,0.0,0.0,0.0,0.0,0.0,0.0,0.0,0.0,0.0,0.0,0.008397962729951036,-0.007343715772304895,1.661620311257656e-05,-0.00030630158803810143,0.00022056083808525448,0.0016700550349445418,0.0,0.0,0.0,0.0,0.0,0.0,0.0,0.0,0.0,0.0,0.0,0.0,0.0,0.0,0.0,0.0,0.0,0.0,0.0,0.0,0.0,0.0,0.0,0.0,0.0,0.0,0.0,0.0,0.0,0.0,0.0,0.0,0.0,0.0,0.0,0.0
2025/05/06 15:28:07.824831900,1746538087,822962485,world_ned,mA1/odom,8.594788176323762,-14.76907900858012,0.4336936722834575,-1.589328111731195e-05,-0.0003922665513454019,0.9984176098697652,-0.05623275003324552,0.0,0.0,0.0,0.0,0.0,0.0,0.0,0.0,0.0,0.0,0.0,0.0,0.0,0.0,0.0,0.0,0.0,0.0,0.0,0.0,0.0,0.0,0.0,0.0,0.0,0.0,0.0,0.0,0.0,0.0,0.0,0.0,0.0,0.0,0.0,0.0,0.018117155056876163,-0.007944983868829214,-2.0535088340218183e-05,-4.320882375805061e-05,-0.0022108384466817377,0.001648482190585836,0.0,0.0,0.0,0.0,0.0,0.0,0.0,0.0,0.0,0.0,0.0,0.0,0.0,0.0,0.0,0.0,0.0,0.0,0.0,0.0,0.0,0.0,0.0,0.0,0.0,0.0,0.0,0.0,0.0,0.0,0.0,0.0,0.0,0.0,0.0,0.0
2025/05/06 15:28:07.917437529,1746538087,917237816,world_ned,mA1/odom,8.593280989302244,-14.768448159178277,0.43369129903635384,2.7258091474133866e-05,-0.00039437753386160494,0.9984125010565426,-0.056323365110554406,0.0,0.0,0.0,0.0,0.0,0.0,0.0,0.0,0.0,0.0,0.0,0.0,0.0,0.0,0.0,0.0,0.0,0.0,0.0,0.0,0.0,0.0,0.0,0.0,0.0,0.0,0.0,0.0,0.0,0.0,0.0,0.0,0.0,0.0,0.0,0.0,0.013891323062243657,-0.008055438207951512,-5.3327581904925497e-05,-9.179298747196801e-05,-0.0005235176824372536,0.001935462347711397,0.0,0.0,0.0,0.0,0.0,0.0,0.0,0.0,0.0,0.0,0.0,0.0,0.0,0.0,0.0,0.0,0.0,0.0,0.0,0.0,0.0,0.0,0.0,0.0,0.0,0.0,0.0,0.0,0.0,0.0,0.0,0.0,0.0,0.0,0.0,0.0
2025/05/06 15:28:08.25795351,1746538088,20569239,world_ned,mA1/odom,8.591647443039673,-14.767830553960406,0.43368569525966605,5.5635969792142735e-05,-0.0004030371496617888,0.9984068418880685,-0.0564235104968511,0.0,0.0,0.0,0.0,0.0,0.0,0.0,0.0,0.0,0.0,0.0,0.0,0.0,0.0,0.0,0.0,0.0,0.0,0.0,0.0,0.0,0.0,0.0,0.0,0.0,0.0,0.0,0.0,0.0,0.0,0.0,0.0,0.0,0.0,0.0,0.0,0.015324554445389165,-0.007956023742846752,-7.297463050384577e-05,-0.00025593340279825603,-0.0001234957449580704,0.0020412586838202467,0.0,0.0,0.0,0.0,0.0,0.0,0.0,0.0,0.0,0.0,0.0,0.0,0.0,0.0,0.0,0.0,0.0,0.0,0.0,0.0,0.0,0.0,0.0,0.0,0.0,0.0,0.0,0.0,0.0,0.0,0.0,0.0,0.0,0.0,0.0,0.0
2025/05/06 15:28:08.121748560,1746538088,120349956,world_ned,mA1/odom,8.589827622239484,-14.767221508881017,0.43367788647572886,6.971493691643762e-05,-0.0004127654822049931,0.9984010050853814,-0.056526611511609,0.0,0.0,0.0,0.0,0.0,0.0,0.0,0.0,0.0,0.0,0.0,0.0,0.0,0.0,0.0,0.0,0.0,0.0,0.0,0.0,0.0,0.0,0.0,0.0,0.0,0.0,0.0,0.0,0.0,0.0,0.0,0.0,0.0,0.0,0.0,0.0,0.015703887967572997,-0.008214603346333518,-8.00549951348209e-05,-0.00017462987299371178,0.0005914593430207484,0.0020405828909787664,0.0,0.0,0.0,0.0,0.0,0.0,0.0,0.0,0.0,0.0,0.0,0.0,0.0,0.0,0.0,0.0,0.0,0.0,0.0,0.0,0.0,0.0,0.0,0.0,0.0,0.0,0.0,0.0,0.0,0.0,0.0,0.0,0.0,0.0,0.0,0.0
2025/05/06 15:28:08.220465595,1746538088,220123865,world_ned,mA1/odom,8.587866489678628,-14.766603286915732,0.43367373644201695,5.9009377817993766e-05,-0.0004186412114363792,0.9983953618777766,-0.05662616566900056,0.0,0.0,0.0,0.0,0.0,0.0,0.0,0.0,0.0,0.0,0.0,0.0,0.0,0.0,0.0,0.0,0.0,0.0,0.0,0.0,0.0,0.0,0.0,0.0,0.0,0.0,0.0,0.0,0.0,0.0,0.0,0.0,0.0,0.0,0.0,0.0,0.017555766846760683,-0.008283398309806204,-2.9777319721071957e-05,-0.00015818280426147685,0.0009735338950587477,0.002036887708211977,0.0,0.0,0.0,0.0,0.0,0.0,0.0,0.0,0.0,0.0,0.0,0.0,0.0,0.0,0.0,0.0,0.0,0.0,0.0,0.0,0.0,0.0,0.0,0.0,0.0,0.0,0.0,0.0,0.0,0.0,0.0,0.0,0.0,0.0,0.0,0.0
2025/05/06 15:28:08.326215635,1746538088,324598158,world_ned,mA1/odom,8.585692497356133,-14.76600829564239,0.4336719578323761,3.851391932999802e-05,-0.00042575093124479197,0.9983894857222493,-0.056729639978457994,0.0,0.0,0.0,0.0,0.0,0.0,0.0,0.0,0.0,0.0,0.0,0.0,0.0,0.0,0.0,0.0,0.0,0.0,0.0,0.0,0.0,0.0,0.0,0.0,0.0,0.0,0.0,0.0,0.0,0.0,0.0,0.0,0.0,0.0,0.0,0.0,0.02291001918155494,-0.008415275583155583,-1.419556568144259e-05,-0.00010086165187064627,0.00015984104048801035,0.0021022624583988273,0.0,0.0,0.0,0.0,0.0,0.0,0.0,0.0,0.0,0.0,0.0,0.0,0.0,0.0,0.0,0.0,0.0,0.0,0.0,0.0,0.0,0.0,0.0,0.0,0.0,0.0,0.0,0.0,0.0,0.0,0.0,0.0,0.0,0.0,0.0,0.0
2025/05/06 15:28:08.421270207,1746538088,417735016,world_ned,mA1/odom,8.58346179646374,-14.76540898694312,0.4336745492025635,-6.8368359631470445e-06,-0.0004307871668054373,0.9983834207127534,-0.056836252705256114,0.0,0.0,0.0,0.0,0.0,0.0,0.0,0.0,0.0,0.0,0.0,0.0,0.0,0.0,0.0,0.0,0.0,0.0,0.0,0.0,0.0,0.0,0.0,0.0,0.0,0.0,0.0,0.0,0.0,0.0,0.0,0.0,0.0,0.0,0.0,0.0,0.019096946702053835,-0.00859625236997689,2.653518703130986e-05,3.1235311545813116e-05,0.0018485139549638124,0.002118600292841537,0.0,0.0,0.0,0.0,0.0,0.0,0.0,0.0,0.0,0.0,0.0,0.0,0.0,0.0,0.0,0.0,0.0,0.0,0.0,0.0,0.0,0.0,0.0,0.0,0.0,0.0,0.0,0.0,0.0,0.0,0.0,0.0,0.0,0.0,0.0,0.0
2025/05/06 15:28:08.522423412,1746538088,517111930,world_ned,mA1/odom,8.581083144744815,-14.764775041463615,0.43368035021097184,-5.9920523883099515e-05,-0.00041906788004197746,0.9983777989043756,-0.05693497559933822,0.0,0.0,0.0,0.0,0.0,0.0,0.0,0.0,0.0,0.0,0.0,0.0,0.0,0.0,0.0,0.0,0.0,0.0,0.0,0.0,0.0,0.0,0.0,0.0,0.0,0.0,0.0,0.0,0.0,0.0,0.0,0.0,0.0,0.0,0.0,0.0,0.02045761456005217,-0.008951451464911659,5.6123965585171815e-05,0.0002514323118446583,0.001886215990261044,0.002003917562940798,0.0,0.0,0.0,0.0,0.0,0.0,0.0,0.0,0.0,0.0,0.0,0.0,0.0,0.0,0.0,0.0,0.0,0.0,0.0,0.0,0.0,0.0,0.0,0.0,0.0,0.0,0.0,0.0,0.0,0.0,0.0,0.0,0.0,0.0,0.0,0.0
2025/05/06 15:28:08.622116762,1746538088,621763600,world_ned,mA1/odom,8.578560323738222,-14.764163471448583,0.4336858403632534,-0.00010519467727086986,-0.00041024631397785713,0.998371942166865,-0.05703758169841758,0.0,0.0,0.0,0.0,0.0,0.0,0.0,0.0,0.0,0.0,0.0,0.0,0.0,0.0,0.0,0.0,0.0,0.0,0.0,0.0,0.0,0.0,0.0,0.0,0.0,0.0,0.0,0.0,0.0,0.0,0.0,0.0,0.0,0.0,0.0,0.0,0.02989571905040552,-0.009036290281685911,6.365441103864454e-05,0.0002624663819494115,-0.0005937117542608565,0.002036194100242834,0.0,0.0,0.0,0.0,0.0,0.0,0.0,0.0,0.0,0.0,0.0,0.0,0.0,0.0,0.0,0.0,0.0,0.0,0.0,0.0,0.0,0.0,0.0,0.0,0.0,0.0,0.0,0.0,0.0,0.0,0.0,0.0,0.0,0.0,0.0,0.0
2025/05/06 15:28:08.754915852,1746538088,721092467,world_ned,mA1/odom,8.575976601852574,-14.763517712099311,0.4336933662972812,-0.00014683019865619604,-0.0003917807730287905,0.9983665318866372,-0.05713224096223653,0.0,0.0,0.0,0.0,0.0,0.0,0.0,0.0,0.0,0.0,0.0,0.0,0.0,0.0,0.0,0.0,0.0,0.0,0.0,0.0,0.0,0.0,0.0,0.0,0.0,0.0,0.0,0.0,0.0,0.0,0.0,0.0,0.0,0.0,0.0,0.0,0.02506240995679878,-0.009351840416056972,5.631498125279863e-05,0.00036424493895826683,0.0007501370812112078,0.0019106677757816835,0.0,0.0,0.0,0.0,0.0,0.0,0.0,0.0,0.0,0.0,0.0,0.0,0.0,0.0,0.0,0.0,0.0,0.0,0.0,0.0,0.0,0.0,0.0,0.0,0.0,0.0,0.0,0.0,0.0,0.0,0.0,0.0,0.0,0.0,0.0,0.0
2025/05/06 15:28:08.818598171,1746538088,817056583,world_ned,mA1/odom,8.573238662596303,-14.762896711891097,0.4336965099293553,-0.00016110186735231977,-0.0003798602433671402,0.998360957536083,-0.057229609644128536,0.0,0.0,0.0,0.0,0.0,0.0,0.0,0.0,0.0,0.0,0.0,0.0,0.0,0.0,0.0,0.0,0.0,0.0,0.0,0.0,0.0,0.0,0.0,0.0,0.0,0.0,0.0,0.0,0.0,0.0,0.0,0.0,0.0,0.0,0.0,0.0,0.027321702041428485,-0.009135430030396444,2.9911013924609118e-05,8.466245002250419e-05,-2.6088102686302896e-05,0.0019971729951809517,0.0,0.0,0.0,0.0,0.0,0.0,0.0,0.0,0.0,0.0,0.0,0.0,0.0,0.0,0.0,0.0,0.0,0.0,0.0,0.0,0.0,0.0,0.0,0.0,0.0,0.0,0.0,0.0,0.0,0.0,0.0,0.0,0.0,0.0,0.0,0.0
2025/05/06 15:28:08.924636732,1746538088,919834615,world_ned,mA1/odom,8.570440840795035,-14.762319126884883,0.43369573531981137,-0.00015691176979523228,-0.0003860280687016723,0.9983550730101475,-0.05733214243275712,0.0,0.0,0.0,0.0,0.0,0.0,0.0,0.0,0.0,0.0,0.0,0.0,0.0,0.0,0.0,0.0,0.0,0.0,0.0,0.0,0.0,0.0,0.0,0.0,0.0,0.0,0.0,0.0,0.0,0.0,0.0,0.0,0.0,0.0,0.0,0.0,0.02953069341443887,-0.00878052601528392,-2.4776857348232503e-05,-0.0003034801616979529,-0.0008576316701311635,0.00209985864957189,0.0,0.0,0.0,0.0,0.0,0.0,0.0,0.0,0.0,0.0,0.0,0.0,0.0,0.0,0.0,0.0,0.0,0.0,0.0,0.0,0.0,0.0,0.0,0.0,0.0,0.0,0.0,0.0,0.0,0.0,0.0,0.0,0.0,0.0,0.0,0.0
2025/05/06 15:28:09.24862624,1746538089,23750916,world_ned,mA1/odom,8.567589727010192,-14.761741630217868,0.4336912069407675,-0.00013688960995412024,-0.0003964389286831012,0.9983493729054814,-0.05743129562044305,0.0,0.0,0.0,0.0,0.0,0.0,0.0,0.0,0.0,0.0,0.0,0.0,0.0,0.0,0.0,0.0,0.0,0.0,0.0,0.0,0.0,0.0,0.0,0.0,0.0,0.0,0.0,0.0,0.0,0.0,0.0,0.0,0.0,0.0,0.0,0.0,0.027161938330925686,-0.009327272352156801,-4.534750545852432e-05,-0.00010125025577451613,-0.0002797493423351378,0.0017968158134171004,0.0,0.0,0.0,0.0,0.0,0.0,0.0,0.0,0.0,0.0,0.0,0.0,0.0,0.0,0.0,0.0,0.0,0.0,0.0,0.0,0.0,0.0,0.0,0.0,0.0,0.0,0.0,0.0,0.0,0.0,0.0,0.0,0.0,0.0,0.0,0.0
2025/05/06 15:28:09.119589705,1746538089,117396950,world_ned,mA1/odom,8.564537429073589,-14.760945576450005,0.43368468512858704,-0.00010607421711217051,-0.0003368326812325539,0.9983471275826908,-0.05747075899443003,0.0,0.0,0.0,0.0,0.0,0.0,0.0,0.0,0.0,0.0,0.0,0.0,0.0,0.0,0.0,0.0,0.0,0.0,0.0,0.0,0.0,0.0,0.0,0.0,0.0,0.0,0.0,0.0,0.0,0.0,0.0,0.0,0.0,0.0,0.0,0.0,0.03454562686394449,-0.012553106921295576,-7.433322740168804e-05,0.001808777595788675,-0.0019768427790959543,0.00020274880451543262,0.0,0.0,0.0,0.0,0.0,0.0,0.0,0.0,0.0,0.0,0.0,0.0,0.0,0.0,0.0,0.0,0.0,0.0,0.0,0.0,0.0,0.0,0.0,0.0,0.0,0.0,0.0,0.0,0.0,0.0,0.0,0.0,0.0,0.0,0.0,0.0
2025/05/06 15:28:09.220629322,1746538089,219556409,world_ned,mA1/odom,8.56133407339531,-14.759930915523523,0.43367782950005584,-7.964334693744223e-05,-0.00021690947140062995,0.9983486894982446,-0.05744424065436137,0.0,0.0,0.0,0.0,0.0,0.0,0.0,0.0,0.0,0.0,0.0,0.0,0.0,0.0,0.0,0.0,0.0,0.0,0.0,0.0,0.0,0.0,0.0,0.0,0.0,0.0,0.0,0.0,0.0,0.0,0.0,0.0,0.0,0.0,0.0,0.0,0.034324279332592716,-0.014186531948738548,-0.00010124371333696879,0.0024445380475522495,-0.0015059363581725058,-0.0008988993827730664,0.0,0.0,0.0,0.0,0.0,0.0,0.0,0.0,0.0,0.0,0.0,0.0,0.0,0.0,0.0,0.0,0.0,0.0,0.0,0.0,0.0,0.0,0.0,0.0,0.0,0.0,0.0,0.0,0.0,0.0,0.0,0.0,0.0,0.0,0.0,0.0
2025/05/06 15:28:09.321828110,1746538089,321124478,world_ned,mA1/odom,8.557944240046206,-14.758799443003252,0.4336681375475033,-5.410088668873767e-05,-8.379915022253442e-05,0.9983533489949232,-0.057363582536460955,0.0,0.0,0.0,0.0,0.0,0.0,0.0,0.0,0.0,0.0,0.0,0.0,0.0,0.0,0.0,0.0,0.0,0.0,0.0,0.0,0.0,0.0,0.0,0.0,0.0,0.0,0.0,0.0,0.0,0.0,0.0,0.0,0.0,0.0,0.0,0.0,0.031211871434172807,-0.01492025150819094,-7.307441688173685e-05,0.0020826189661668406,-0.0001819038721727355,-0.0018353089772061644,0.0,0.0,0.0,0.0,0.0,0.0,0.0,0.0,0.0,0.0,0.0,0.0,0.0,0.0,0.0,0.0,0.0,0.0,0.0,0.0,0.0,0.0,0.0,0.0,0.0,0.0,0.0,0.0,0.0,0.0,0.0,0.0,0.0,0.0,0.0,0.0
2025/05/06 15:28:09.425204421,1746538089,422568722,world_ned,mA1/odom,8.55445387901795,-14.7577591820274,0.4336610079131406,-2.7367862162820124e-05,-2.7269123804948138e-05,0.9983590933501026,-0.05726359430350459,0.0,0.0,0.0,0.0,0.0,0.0,0.0,0.0,0.0,0.0,0.0,0.0,0.0,0.0,0.0,0.0,0.0,0.0,0.0,0.0,0.0,0.0,0.0,0.0,0.0,0.0,0.0,0.0,0.0,0.0,0.0,0.0,0.0,0.0,0.0,0.0,0.029717321784332496,-0.01358003207806726,-4.348930783597861e-05,8.391740136176737e-05,0.0006309838802014227,-0.002047299070714188,0.0,0.0,0.0,0.0,0.0,0.0,0.0,0.0,0.0,0.0,0.0,0.0,0.0,0.0,0.0,0.0,0.0,0.0,0.0,0.0,0.0,0.0,0.0,0.0,0.0,0.0,0.0,0.0,0.0,0.0,0.0,0.0,0.0,0.0,0.0,0.0
2025/05/06 15:28:09.518092999,1746538089,516084100,world_ned,mA1/odom,8.550843795271774,-14.756852607799877,0.43366335429181585,2.4426646411483937e-06,-6.842183543861624e-05,0.9983655668573259,-0.05715059252655266,0.0,0.0,0.0,0.0,0.0,0.0,0.0,0.0,0.0,0.0,0.0,0.0,0.0,0.0,0.0,0.0,0.0,0.0,0.0,0.0,0.0,0.0,0.0,0.0,0.0,0.0,0.0,0.0,0.0,0.0,0.0,0.0,0.0,0.0,0.0,0.0,0.039498175615750294,-0.0123864504575791,7.870952105190443e-05,-0.0018375237636760132,-0.0016775737797238635,-0.0022240895950003917,0.0,0.0,0.0,0.0,0.0,0.0,0.0,0.0,0.0,0.0,0.0,0.0,0.0,0.0,0.0,0.0,0.0,0.0,0.0,0.0,0.0,0.0,0.0,0.0,0.0,0.0,0.0,0.0,0.0,0.0,0.0,0.0,0.0,0.0,0.0,0.0
2025/05/06 15:28:09.616356171,1746538089,615932467,world_ned,mA1/odom,8.547224846630339,-14.756115709141682,0.4336738659134798,1.822525504647338e-05,-0.0002153820015933264,0.9983717088107267,-0.05704282886378453,0.0,0.0,0.0,0.0,0.0,0.0,0.0,0.0,0.0,0.0,0.0,0.0,0.0,0.0,0.0,0.0,0.0,0.0,0.0,0.0,0.0,0.0,0.0,0.0,0.0,0.0,0.0,0.0,0.0,0.0,0.0,0.0,0.0,0.0,0.0,0.0,0.039280987969136254,-0.010937513370795442,0.00013396038938542963,-0.0036191611718931417,-0.001026210013777263,-0.0021909888291816093,0.0,0.0,0.0,0.0,0.0,0.0,0.0,0.0,0.0,0.0,0.0,0.0,0.0,0.0,0.0,0.0,0.0,0.0,0.0,0.0,0.0,0.0,0.0,0.0,0.0,0.0,0.0,0.0,0.0,0.0,0.0,0.0,0.0,0.0,0.0,0.0
2025/05/06 15:28:09.719798533,1746538089,717693182,world_ned,mA1/odom,8.543339659641822,-14.75547081712005,0.43369423058248,4.638584696883043e-05,-0.00041222414226945635,0.9983784347788006,-0.05692388679844372,0.0,0.0,0.0,0.0,0.0,0.0,0.0,0.0,0.0,0.0,0.0,0.0,0.0,0.0,0.0,0.0,0.0,0.0,0.0,0.0,0.0,0.0,0.0,0.0,0.0,0.0,0.0,0.0,0.0,0.0,0.0,0.0,0.0,0.0,0.0,0.0,0.03748827498226852,-0.010499195742126249,0.00020178169627295777,-0.004286870344933518,2.9927301474651477e-05,-0.002402279113589604,0.0,0.0,0.0,0.0,0.0,0.0,0.0,0.0,0.0,0.0,0.0,0.0,0.0,0.0,0.0,0.0,0.0,0.0,0.0,0.0,0.0,0.0,0.0,0.0,0.0,0.0,0.0,0.0,0.0,0.0,0.0,0.0,0.0,0.0,0.0,0.0
2025/05/06 15:28:09.823640439,1746538089,822481901,world_ned,mA1/odom,8.539499221090288,-14.7548756193398,0.43371585324231793,3.9627933050020796e-05,-0.0006295958093472827,0.9983851688609592,-0.05680366746274356,0.0,0.0,0.0,0.0,0.0,0.0,0.0,0.0,0.0,0.0,0.0,0.0,0.0,0.0,0.0,0.0,0.0,0.0,0.0,0.0,0.0,0.0,0.0,0.0,0.0,0.0,0.0,0.0,0.0,0.0,0.0,0.0,0.0,0.0,0.0,0.0,0.039039573679250816,-0.010123821953561506,0.00018103989864645922,-0.0042468739198640955,0.00019704407276117817,-0.0023604825851210264,0.0,0.0,0.0,0.0,0.0,0.0,0.0,0.0,0.0,0.0,0.0,0.0,0.0,0.0,0.0,0.0,0.0,0.0,0.0,0.0,0.0,0.0,0.0,0.0,0.0,0.0,0.0,0.0,0.0,0.0,0.0,0.0,0.0,0.0,0.0,0.0
2025/05/06 15:28:09.916352326,1746538089,914061192,world_ned,mA1/odom,8.535518494947302,-14.754304888153689,0.43372978371327575,2.6248351641583168e-05,-0.0008190732319776494,0.9983914648724544,-0.05669048685537558,0.0,0.0,0.0,0.0,0.0,0.0,0.0,0.0,0.0,0.0,0.0,0.0,0.0,0.0,0.0,0.0,0.0,0.0,0.0,0.0,0.0,0.0,0.0,0.0,0.0,0.0,0.0,0.0,0.0,0.0,0.0,0.0,0.0,0.0,0.0,0.0,0.034925190680840774,-0.010461824247524723,8.104005890950493e-05,-0.0031369835332375295,0.0018289233512071915,-0.002297816038950529,0.0,0.0,0.0,0.0,0.0,0.0,0.0,0.0,0.0,0.0,0.0,0.0,0.0,0.0,0.0,0.0,0.0,0.0,0.0,0.0,0.0,0.0,0.0,0.0,0.0,0.0,0.0,0.0,0.0,0.0,0.0,0.0,0.0,0.0,0.0,0.0
2025/05/06 15:28:10.25783821,1746538090,25540022,world_ned,mA1/odom,8.531362446122566,-14.75365152803385,0.4337331733923418,8.395681548613417e-06,-0.0009188885138784165,0.9983983456817709,-0.056567648999359676,0.0,0.0,0.0,0.0,0.0,0.0,0.0,0.0,0.0,0.0,0.0,0.0,0.0,0.0,0.0,0.0,0.0,0.0,0.0,0.0,0.0,0.0,0.0,0.0,0.0,0.0,0.0,0.0,0.0,0.0,0.0,0.0,0.0,0.0,0.0,0.0,0.039661792577330615,-0.011633363193755117,-3.5210133026391236e-05,-0.0010767616201359522,0.0008820253953857764,-0.0025230200289312115,0.0,0.0,0.0,0.0,0.0,0.0,0.0,0.0,0.0,0.0,0.0,0.0,0.0,0.0,0.0,0.0,0.0,0.0,0.0,0.0,0.0,0.0,0.0,0.0,0.0,0.0,0.0,0.0,0.0,0.0,0.0,0.0,0.0,0.0,0.0,0.0
