time,header_stamp_secs,header_stamp_nsecs,header_frame_id,name_0,name_1,name_2,name_3,position_0,position_1,position_2,position_3
2025/05/06 15:27:58.922890399,0,0,,mA1/azimuth_1_joint,mA1/azimuth_2_joint,mA1/azimuth_3_joint,mA1/azimuth_4_joint,2.356194490192345,-2.356194490192345,-0.7853981633974483,0.7853981633974483
2025/05/06 15:27:58.965224117,0,0,,mA1/azimuth_1_joint,mA1/azimuth_2_joint,mA1/azimuth_3_joint,mA1/azimuth_4_joint,2.356194490192345,-2.356194490192345,-0.7853981633974483,0.7853981633974483
2025/05/06 15:27:59.64651577,0,0,,mA1/azimuth_1_joint,mA1/azimuth_2_joint,mA1/azimuth_3_joint,mA1/azimuth_4_joint,2.356194490192345,-2.356194490192345,-0.7853981633974483,0.7853981633974483
2025/05/06 15:27:59.167103128,0,0,,mA1/azimuth_1_joint,mA1/azimuth_2_joint,mA1/azimuth_3_joint,mA1/azimuth_4_joint,2.356194490192345,-2.356194490192345,-0.7853981633974483,0.7853981633974483
2025/05/06 15:27:59.264461457,0,0,,mA1/azimuth_1_joint,mA1/azimuth_2_joint,mA1/azimuth_3_joint,mA1/azimuth_4_joint,2.356194490192345,-2.356194490192345,-0.7853981633974483,0.7853981633974483
2025/05/06 15:27:59.367603397,0,0,,mA1/azimuth_1_joint,mA1/azimuth_2_joint,mA1/azimuth_3_joint,mA1/azimuth_4_joint,2.356194490192345,-2.356194490192345,-0.7853981633974483,0.7853981633974483
2025/05/06 15:27:59.464826328,0,0,,mA1/azimuth_1_joint,mA1/azimuth_2_joint,mA1/azimuth_3_joint,mA1/azimuth_4_joint,2.356194490192345,-2.356194490192345,-0.7853981633974483,0.7853981633974483
2025/05/06 15:27:59.564339167,0,0,,mA1/azimuth_1_joint,mA1/azimuth_2_joint,mA1/azimuth_3_joint,mA1/azimuth_4_joint,2.356194490192345,-2.356194490192345,-0.7853981633974483,0.7853981633974483
2025/05/06 15:27:59.669888850,0,0,,mA1/azimuth_1_joint,mA1/azimuth_2_joint,mA1/azimuth_3_joint,mA1/azimuth_4_joint,2.356194490192345,-2.356194490192345,-0.7853981633974483,0.7853981633974483
2025/05/06 15:27:59.780351941,0,0,,mA1/azimuth_1_joint,mA1/azimuth_2_joint,mA1/azimuth_3_joint,mA1/azimuth_4_joint,2.356194490192345,-2.356194490192345,-0.7853981633974483,0.7853981633974483
2025/05/06 15:27:59.867348636,0,0,,mA1/azimuth_1_joint,mA1/azimuth_2_joint,mA1/azimuth_3_joint,mA1/azimuth_4_joint,2.356194490192345,-2.356194490192345,-0.7853981633974483,0.7853981633974483
2025/05/06 15:27:59.972106111,0,0,,mA1/azimuth_1_joint,mA1/azimuth_2_joint,mA1/azimuth_3_joint,mA1/azimuth_4_joint,2.356194490192345,-2.356194490192345,-0.7853981633974483,0.7853981633974483
2025/05/06 15:28:00.82874501,0,0,,mA1/azimuth_1_joint,mA1/azimuth_2_joint,mA1/azimuth_3_joint,mA1/azimuth_4_joint,2.356194490192345,-2.356194490192345,-0.7853981633974483,0.7853981633974483
2025/05/06 15:28:00.164570831,0,0,,mA1/azimuth_1_joint,mA1/azimuth_2_joint,mA1/azimuth_3_joint,mA1/azimuth_4_joint,2.356194490192345,-2.356194490192345,-0.7853981633974483,0.7853981633974483
2025/05/06 15:28:00.318657301,0,0,,mA1/azimuth_1_joint,mA1/azimuth_2_joint,mA1/azimuth_3_joint,mA1/azimuth_4_joint,2.356194490192345,-2.356194490192345,-0.7853981633974483,0.7853981633974483
2025/05/06 15:28:00.374444030,0,0,,mA1/azimuth_1_joint,mA1/azimuth_2_joint,mA1/azimuth_3_joint,mA1/azimuth_4_joint,2.356194490192345,-2.356194490192345,-0.7853981633974483,0.7853981633974483
2025/05/06 15:28:00.471414423,0,0,,mA1/azimuth_1_joint,mA1/azimuth_2_joint,mA1/azimuth_3_joint,mA1/azimuth_4_joint,2.356194490192345,-2.356194490192345,-0.7853981633974483,0.7853981633974483
2025/05/06 15:28:00.570328114,0,0,,mA1/azimuth_1_joint,mA1/azimuth_2_joint,mA1/azimuth_3_joint,mA1/azimuth_4_joint,2.356194490192345,-2.356194490192345,-0.7853981633974483,0.7853981633974483
2025/05/06 15:28:00.663745063,0,0,,mA1/azimuth_1_joint,mA1/azimuth_2_joint,mA1/azimuth_3_joint,mA1/azimuth_4_joint,2.356194490192345,-2.356194490192345,-0.7853981633974483,0.7853981633974483
2025/05/06 15:28:00.763274302,0,0,,mA1/azimuth_1_joint,mA1/azimuth_2_joint,mA1/azimuth_3_joint,mA1/azimuth_4_joint,2.3387411976724017,-2.3387411976724017,-0.7853981633974483,0.7853981633974483
2025/05/06 15:28:00.867640546,0,0,,mA1/azimuth_1_joint,mA1/azimuth_2_joint,mA1/azimuth_3_joint,mA1/azimuth_4_joint,2.3387411976724017,-2.3387411976724017,-0.7853981633974483,0.7853981633974483
2025/05/06 15:28:01.16560597,0,0,,mA1/azimuth_1_joint,mA1/azimuth_2_joint,mA1/azimuth_3_joint,mA1/azimuth_4_joint,2.3387411976724017,-2.3387411976724017,-0.7853981633974483,0.7853981633974483
2025/05/06 15:28:01.175252629,0,0,,mA1/azimuth_1_joint,mA1/azimuth_2_joint,mA1/azimuth_3_joint,mA1/azimuth_4_joint,2.3387411976724017,-2.3387411976724017,-0.7853981633974483,0.7853981633974483
2025/05/06 15:28:01.266045426,0,0,,mA1/azimuth_1_joint,mA1/azimuth_2_joint,mA1/azimuth_3_joint,mA1/azimuth_4_joint,2.3387411976724017,-2.3387411976724017,-0.7853981633974483,0.7853981633974483
2025/05/06 15:28:01.363514985,0,0,,mA1/azimuth_1_joint,mA1/azimuth_2_joint,mA1/azimuth_3_joint,mA1/azimuth_4_joint,2.3387411976724017,-2.3387411976724017,-0.7853981633974483,0.7853981633974483
2025/05/06 15:28:01.466666625,0,0,,mA1/azimuth_1_joint,mA1/azimuth_2_joint,mA1/azimuth_3_joint,mA1/azimuth_4_joint,2.3387411976724017,-2.3387411976724017,-0.7853981633974483,0.7853981633974483
2025/05/06 15:28:01.573022619,0,0,,mA1/azimuth_1_joint,mA1/azimuth_2_joint,mA1/azimuth_3_joint,mA1/azimuth_4_joint,2.3387411976724017,-2.3387411976724017,-0.7853981633974483,0.7853981633974483
2025/05/06 15:28:01.749952006,0,0,,mA1/azimuth_1_joint,mA1/azimuth_2_joint,mA1/azimuth_3_joint,mA1/azimuth_4_joint,2.3387411976724017,-2.3387411976724017,-0.7853981633974483,0.7853981633974483
2025/05/06 15:28:01.839020097,0,0,,mA1/azimuth_1_joint,mA1/azimuth_2_joint,mA1/azimuth_3_joint,mA1/azimuth_4_joint,2.3387411976724017,-2.3387411976724017,-0.7853981633974483,0.7853981633974483
2025/05/06 15:28:01.891673423,0,0,,mA1/azimuth_1_joint,mA1/azimuth_2_joint,mA1/azimuth_3_joint,mA1/azimuth_4_joint,2.3387411976724017,-2.3387411976724017,-0.7853981633974483,0.7853981633974483
2025/05/06 15:28:01.978264900,0,0,,mA1/azimuth_1_joint,mA1/azimuth_2_joint,mA1/azimuth_3_joint,mA1/azimuth_4_joint,2.3387411976724017,-2.3387411976724017,-0.7853981633974483,0.7853981633974483
2025/05/06 15:28:02.117397543,0,0,,mA1/azimuth_1_joint,mA1/azimuth_2_joint,mA1/azimuth_3_joint,mA1/azimuth_4_joint,2.3387411976724017,-2.3387411976724017,-0.7853981633974483,0.7853981633974483
2025/05/06 15:28:02.182744200,0,0,,mA1/azimuth_1_joint,mA1/azimuth_2_joint,mA1/azimuth_3_joint,mA1/azimuth_4_joint,2.3387411976724017,-2.3387411976724017,-0.7853981633974483,0.7853981633974483
2025/05/06 15:28:02.270251229,0,0,,mA1/azimuth_1_joint,mA1/azimuth_2_joint,mA1/azimuth_3_joint,mA1/azimuth_4_joint,2.3387411976724017,-2.3387411976724017,-0.7853981633974483,0.7853981633974483
2025/05/06 15:28:02.382373593,0,0,,mA1/azimuth_1_joint,mA1/azimuth_2_joint,mA1/azimuth_3_joint,mA1/azimuth_4_joint,2.3387411976724017,-2.3387411976724017,-0.7853981633974483,0.7853981633974483
2025/05/06 15:28:02.473168570,0,0,,mA1/azimuth_1_joint,mA1/azimuth_2_joint,mA1/azimuth_3_joint,mA1/azimuth_4_joint,2.3387411976724017,-2.3387411976724017,-0.7853981633974483,0.7853981633974483
2025/05/06 15:28:02.566529432,0,0,,mA1/azimuth_1_joint,mA1/azimuth_2_joint,mA1/azimuth_3_joint,mA1/azimuth_4_joint,2.3387411976724017,-2.3387411976724017,-0.7853981633974483,0.7853981633974483
2025/05/06 15:28:02.677723416,0,0,,mA1/azimuth_1_joint,mA1/azimuth_2_joint,mA1/azimuth_3_joint,mA1/azimuth_4_joint,2.3387411976724017,-2.3387411976724017,-0.7853981633974483,0.7853981633974483
2025/05/06 15:28:02.824359025,0,0,,mA1/azimuth_1_joint,mA1/azimuth_2_joint,mA1/azimuth_3_joint,mA1/azimuth_4_joint,2.3387411976724017,-2.3387411976724017,-0.7853981633974483,0.7853981633974483
2025/05/06 15:28:02.888189417,0,0,,mA1/azimuth_1_joint,mA1/azimuth_2_joint,mA1/azimuth_3_joint,mA1/azimuth_4_joint,2.3387411976724017,-2.3387411976724017,-0.7853981633974483,0.7853981633974483
2025/05/06 15:28:02.977392896,0,0,,mA1/azimuth_1_joint,mA1/azimuth_2_joint,mA1/azimuth_3_joint,mA1/azimuth_4_joint,2.3387411976724017,-2.3387411976724017,-0.7853981633974483,0.7853981633974483
2025/05/06 15:28:03.70519281,0,0,,mA1/azimuth_1_joint,mA1/azimuth_2_joint,mA1/azimuth_3_joint,mA1/azimuth_4_joint,2.3387411976724017,-2.3387411976724017,-0.7853981633974483,0.7853981633974483
2025/05/06 15:28:03.205531329,0,0,,mA1/azimuth_1_joint,mA1/azimuth_2_joint,mA1/azimuth_3_joint,mA1/azimuth_4_joint,2.3387411976724017,-2.3387411976724017,-0.7853981633974483,0.7853981633974483
2025/05/06 15:28:03.380112388,0,0,,mA1/azimuth_1_joint,mA1/azimuth_2_joint,mA1/azimuth_3_joint,mA1/azimuth_4_joint,2.3387411976724017,-2.3387411976724017,-0.7853981633974483,0.7853981633974483
2025/05/06 15:28:03.523676007,0,0,,mA1/azimuth_1_joint,mA1/azimuth_2_joint,mA1/azimuth_3_joint,mA1/azimuth_4_joint,2.3387411976724017,-2.3387411976724017,-0.7853981633974483,0.7853981633974483
2025/05/06 15:28:03.653950613,0,0,,mA1/azimuth_1_joint,mA1/azimuth_2_joint,mA1/azimuth_3_joint,mA1/azimuth_4_joint,2.3387411976724017,-2.3387411976724017,-0.7853981633974483,0.7853981633974483
2025/05/06 15:28:03.832339834,0,0,,mA1/azimuth_1_joint,mA1/azimuth_2_joint,mA1/azimuth_3_joint,mA1/azimuth_4_joint,2.3387411976724017,-2.3387411976724017,-0.7853981633974483,0.7853981633974483
2025/05/06 15:28:03.897613450,0,0,,mA1/azimuth_1_joint,mA1/azimuth_2_joint,mA1/azimuth_3_joint,mA1/azimuth_4_joint,2.3387411976724017,-2.3387411976724017,-0.7853981633974483,0.7853981633974483
2025/05/06 15:28:03.974083832,0,0,,mA1/azimuth_1_joint,mA1/azimuth_2_joint,mA1/azimuth_3_joint,mA1/azimuth_4_joint,2.3387411976724017,-2.3387411976724017,-0.7853981633974483,0.7853981633974483
2025/05/06 15:28:04.37877371,0,0,,mA1/azimuth_1_joint,mA1/azimuth_2_joint,mA1/azimuth_3_joint,mA1/azimuth_4_joint,2.3387411976724017,-2.321287905152458,-0.7853981633974483,0.7853981633974483
2025/05/06 15:28:04.220602317,0,0,,mA1/azimuth_1_joint,mA1/azimuth_2_joint,mA1/azimuth_3_joint,mA1/azimuth_4_joint,2.3387411976724017,-2.321287905152458,-0.8028514559173916,0.7853981633974483
2025/05/06 15:28:04.293908401,0,0,,mA1/azimuth_1_joint,mA1/azimuth_2_joint,mA1/azimuth_3_joint,mA1/azimuth_4_joint,2.3387411976724017,-2.321287905152458,-0.8028514559173916,0.7853981633974483
2025/05/06 15:28:04.364527939,0,0,,mA1/azimuth_1_joint,mA1/azimuth_2_joint,mA1/azimuth_3_joint,mA1/azimuth_4_joint,2.3387411976724017,-2.321287905152458,-0.8028514559173916,0.7853981633974483
2025/05/06 15:28:04.453946219,0,0,,mA1/azimuth_1_joint,mA1/azimuth_2_joint,mA1/azimuth_3_joint,mA1/azimuth_4_joint,2.3387411976724017,-2.321287905152458,-0.8028514559173916,0.7853981633974483
2025/05/06 15:28:04.666559894,0,0,,mA1/azimuth_1_joint,mA1/azimuth_2_joint,mA1/azimuth_3_joint,mA1/azimuth_4_joint,2.3387411976724017,-2.303834612632515,-0.8028514559173916,0.7853981633974483
2025/05/06 15:28:04.873178011,0,0,,mA1/azimuth_1_joint,mA1/azimuth_2_joint,mA1/azimuth_3_joint,mA1/azimuth_4_joint,2.3387411976724017,-2.303834612632515,-0.8028514559173916,0.7853981633974483
2025/05/06 15:28:05.31616468,0,0,,mA1/azimuth_1_joint,mA1/azimuth_2_joint,mA1/azimuth_3_joint,mA1/azimuth_4_joint,2.3387411976724017,-2.303834612632515,-0.8203047484373349,0.7853981633974483
2025/05/06 15:28:05.137247309,0,0,,mA1/azimuth_1_joint,mA1/azimuth_2_joint,mA1/azimuth_3_joint,mA1/azimuth_4_joint,2.3387411976724017,-2.303834612632515,-0.8203047484373349,0.7853981633974483
2025/05/06 15:28:05.183139725,0,0,,mA1/azimuth_1_joint,mA1/azimuth_2_joint,mA1/azimuth_3_joint,mA1/azimuth_4_joint,2.3387411976724017,-2.2863813201125716,-0.8203047484373349,0.7853981633974483
2025/05/06 15:28:05.265848602,0,0,,mA1/azimuth_1_joint,mA1/azimuth_2_joint,mA1/azimuth_3_joint,mA1/azimuth_4_joint,2.3387411976724017,-2.2863813201125716,-0.8203047484373349,0.7853981633974483
2025/05/06 15:28:05.365513287,0,0,,mA1/azimuth_1_joint,mA1/azimuth_2_joint,mA1/azimuth_3_joint,mA1/azimuth_4_joint,2.3387411976724017,-2.2863813201125716,-0.8203047484373349,0.7853981633974483
2025/05/06 15:28:05.470181101,0,0,,mA1/azimuth_1_joint,mA1/azimuth_2_joint,mA1/azimuth_3_joint,mA1/azimuth_4_joint,2.3387411976724017,-2.2863813201125716,-0.8203047484373349,0.7853981633974483
2025/05/06 15:28:05.630946125,0,0,,mA1/azimuth_1_joint,mA1/azimuth_2_joint,mA1/azimuth_3_joint,mA1/azimuth_4_joint,2.3387411976724017,-2.2863813201125716,-0.8203047484373349,0.7853981633974483
2025/05/06 15:28:05.675380340,0,0,,mA1/azimuth_1_joint,mA1/azimuth_2_joint,mA1/azimuth_3_joint,mA1/azimuth_4_joint,2.3387411976724017,-2.2863813201125716,-0.8203047484373349,0.7853981633974483
2025/05/06 15:28:05.768112565,0,0,,mA1/azimuth_1_joint,mA1/azimuth_2_joint,mA1/azimuth_3_joint,mA1/azimuth_4_joint,2.3387411976724017,-2.2863813201125716,-0.8203047484373349,0.7853981633974483
2025/05/06 15:28:05.865778836,0,0,,mA1/azimuth_1_joint,mA1/azimuth_2_joint,mA1/azimuth_3_joint,mA1/azimuth_4_joint,2.3387411976724017,-2.2863813201125716,-0.8203047484373349,0.7853981633974483
2025/05/06 15:28:05.972669150,0,0,,mA1/azimuth_1_joint,mA1/azimuth_2_joint,mA1/azimuth_3_joint,mA1/azimuth_4_joint,2.3387411976724017,-2.2863813201125716,-0.8203047484373349,0.7853981633974483
2025/05/06 15:28:06.67512492,0,0,,mA1/azimuth_1_joint,mA1/azimuth_2_joint,mA1/azimuth_3_joint,mA1/azimuth_4_joint,2.3387411976724017,-2.2863813201125716,-0.8203047484373349,0.7853981633974483
2025/05/06 15:28:06.195737652,0,0,,mA1/azimuth_1_joint,mA1/azimuth_2_joint,mA1/azimuth_3_joint,mA1/azimuth_4_joint,2.3387411976724017,-2.2863813201125716,-0.8203047484373349,0.7853981633974483
2025/05/06 15:28:06.268863218,0,0,,mA1/azimuth_1_joint,mA1/azimuth_2_joint,mA1/azimuth_3_joint,mA1/azimuth_4_joint,2.3387411976724017,-2.2863813201125716,-0.8203047484373349,0.7853981633974483
2025/05/06 15:28:06.363372785,0,0,,mA1/azimuth_1_joint,mA1/azimuth_2_joint,mA1/azimuth_3_joint,mA1/azimuth_4_joint,2.3387411976724017,-2.2863813201125716,-0.8203047484373349,0.7853981633974483
2025/05/06 15:28:06.468901515,0,0,,mA1/azimuth_1_joint,mA1/azimuth_2_joint,mA1/azimuth_3_joint,mA1/azimuth_4_joint,2.3387411976724017,-2.2863813201125716,-0.8203047484373349,0.7853981633974483
2025/05/06 15:28:06.568437174,0,0,,mA1/azimuth_1_joint,mA1/azimuth_2_joint,mA1/azimuth_3_joint,mA1/azimuth_4_joint,2.3387411976724017,-2.2863813201125716,-0.8203047484373349,0.7853981633974483
2025/05/06 15:28:06.668178019,0,0,,mA1/azimuth_1_joint,mA1/azimuth_2_joint,mA1/azimuth_3_joint,mA1/azimuth_4_joint,2.3911010752322315,-2.3387411976724017,-0.767944870877505,0.7504915783575618
2025/05/06 15:28:06.768387964,0,0,,mA1/azimuth_1_joint,mA1/azimuth_2_joint,mA1/azimuth_3_joint,mA1/azimuth_4_joint,2.443460952792061,-2.356194490192345,-0.7155849933176751,0.7853981633974483
2025/05/06 15:28:06.878128244,0,0,,mA1/azimuth_1_joint,mA1/azimuth_2_joint,mA1/azimuth_3_joint,mA1/azimuth_4_joint,2.443460952792061,-2.4085543677521746,-0.7330382858376184,0.7330382858376184
2025/05/06 15:28:06.964791410,0,0,,mA1/azimuth_1_joint,mA1/azimuth_2_joint,mA1/azimuth_3_joint,mA1/azimuth_4_joint,2.443460952792061,-2.3911010752322315,-0.6981317007977318,0.6806784082777885
2025/05/06 15:28:07.65910327,0,0,,mA1/azimuth_1_joint,mA1/azimuth_2_joint,mA1/azimuth_3_joint,mA1/azimuth_4_joint,2.443460952792061,-2.3736477827122884,-0.6806784082777885,0.6283185307179586
2025/05/06 15:28:07.168794036,0,0,,mA1/azimuth_1_joint,mA1/azimuth_2_joint,mA1/azimuth_3_joint,mA1/azimuth_4_joint,2.443460952792061,-2.3736477827122884,-0.6632251157578453,0.5759586531581288
2025/05/06 15:28:07.266838813,0,0,,mA1/azimuth_1_joint,mA1/azimuth_2_joint,mA1/azimuth_3_joint,mA1/azimuth_4_joint,2.443460952792061,-2.356194490192345,-0.6457718232379019,0.5235987755982988
2025/05/06 15:28:07.370403897,0,0,,mA1/azimuth_1_joint,mA1/azimuth_2_joint,mA1/azimuth_3_joint,mA1/azimuth_4_joint,2.426007660272118,-2.356194490192345,-0.6457718232379019,0.4886921905584123
2025/05/06 15:28:07.466305023,0,0,,mA1/azimuth_1_joint,mA1/azimuth_2_joint,mA1/azimuth_3_joint,mA1/azimuth_4_joint,2.426007660272118,-2.3387411976724017,-0.6283185307179586,0.4363323129985824
2025/05/06 15:28:07.564175254,0,0,,mA1/azimuth_1_joint,mA1/azimuth_2_joint,mA1/azimuth_3_joint,mA1/azimuth_4_joint,2.426007660272118,-2.3387411976724017,-0.6283185307179586,0.4014257279586958
2025/05/06 15:28:07.666736480,0,0,,mA1/azimuth_1_joint,mA1/azimuth_2_joint,mA1/azimuth_3_joint,mA1/azimuth_4_joint,2.426007660272118,-2.321287905152458,-0.6108652381980153,0.3665191429188092
2025/05/06 15:28:07.767775074,0,0,,mA1/azimuth_1_joint,mA1/azimuth_2_joint,mA1/azimuth_3_joint,mA1/azimuth_4_joint,2.426007660272118,-2.321287905152458,-0.6108652381980153,0.33161255787892263
2025/05/06 15:28:07.866811725,0,0,,mA1/azimuth_1_joint,mA1/azimuth_2_joint,mA1/azimuth_3_joint,mA1/azimuth_4_joint,2.426007660272118,-2.321287905152458,-0.5934119456780721,0.3141592653589793
2025/05/06 15:28:07.964591851,0,0,,mA1/azimuth_1_joint,mA1/azimuth_2_joint,mA1/azimuth_3_joint,mA1/azimuth_4_joint,2.426007660272118,-2.321287905152458,-0.5759586531581288,0.29670597283903605
2025/05/06 15:28:08.66481930,0,0,,mA1/azimuth_1_joint,mA1/azimuth_2_joint,mA1/azimuth_3_joint,mA1/azimuth_4_joint,2.426007660272118,-2.321287905152458,-0.5585053606381855,0.29670597283903605
2025/05/06 15:28:08.172352734,0,0,,mA1/azimuth_1_joint,mA1/azimuth_2_joint,mA1/azimuth_3_joint,mA1/azimuth_4_joint,2.426007660272118,-2.321287905152458,-0.5410520681182421,0.2792526803190927
2025/05/06 15:28:08.267501401,0,0,,mA1/azimuth_1_joint,mA1/azimuth_2_joint,mA1/azimuth_3_joint,mA1/azimuth_4_joint,2.426007660272118,-2.321287905152458,-0.5235987755982988,0.2617993877991494
2025/05/06 15:28:08.366575663,0,0,,mA1/azimuth_1_joint,mA1/azimuth_2_joint,mA1/azimuth_3_joint,mA1/azimuth_4_joint,2.426007660272118,-2.321287905152458,-0.5061454830783556,0.2617993877991494
2025/05/06 15:28:08.468218283,0,0,,mA1/azimuth_1_joint,mA1/azimuth_2_joint,mA1/azimuth_3_joint,mA1/azimuth_4_joint,2.426007660272118,-2.3387411976724017,-0.4886921905584123,0.24434609527920614
2025/05/06 15:28:08.568645130,0,0,,mA1/azimuth_1_joint,mA1/azimuth_2_joint,mA1/azimuth_3_joint,mA1/azimuth_4_joint,2.426007660272118,-2.3387411976724017,-0.47123889803846897,0.24434609527920614
2025/05/06 15:28:08.670401297,0,0,,mA1/azimuth_1_joint,mA1/azimuth_2_joint,mA1/azimuth_3_joint,mA1/azimuth_4_joint,2.426007660272118,-2.3387411976724017,-0.4537856055185257,0.22689280275926285
2025/05/06 15:28:08.771392647,0,0,,mA1/azimuth_1_joint,mA1/azimuth_2_joint,mA1/azimuth_3_joint,mA1/azimuth_4_joint,2.426007660272118,-2.3387411976724017,-0.4537856055185257,0.22689280275926285
2025/05/06 15:28:08.863427247,0,0,,mA1/azimuth_1_joint,mA1/azimuth_2_joint,mA1/azimuth_3_joint,mA1/azimuth_4_joint,2.426007660272118,-2.3387411976724017,-0.4363323129985824,0.22689280275926285
2025/05/06 15:28:08.967642925,0,0,,mA1/azimuth_1_joint,mA1/azimuth_2_joint,mA1/azimuth_3_joint,mA1/azimuth_4_joint,2.426007660272118,-2.3387411976724017,-0.3839724354387525,0.2617993877991494
2025/05/06 15:28:09.65562396,0,0,,mA1/azimuth_1_joint,mA1/azimuth_2_joint,mA1/azimuth_3_joint,mA1/azimuth_4_joint,2.426007660272118,-2.3387411976724017,-0.3490658503988659,0.2792526803190927
2025/05/06 15:28:09.163256813,0,0,,mA1/azimuth_1_joint,mA1/azimuth_2_joint,mA1/azimuth_3_joint,mA1/azimuth_4_joint,2.426007660272118,-2.3387411976724017,-0.3141592653589793,0.29670597283903605
2025/05/06 15:28:09.265415243,0,0,,mA1/azimuth_1_joint,mA1/azimuth_2_joint,mA1/azimuth_3_joint,mA1/azimuth_4_joint,2.426007660272118,-2.3387411976724017,-0.29670597283903605,0.29670597283903605
2025/05/06 15:28:09.364128354,0,0,,mA1/azimuth_1_joint,mA1/azimuth_2_joint,mA1/azimuth_3_joint,mA1/azimuth_4_joint,2.426007660272118,-2.3387411976724017,-0.2617993877991494,0.29670597283903605
2025/05/06 15:28:09.464602191,0,0,,mA1/azimuth_1_joint,mA1/azimuth_2_joint,mA1/azimuth_3_joint,mA1/azimuth_4_joint,2.426007660272118,-2.3387411976724017,-0.2617993877991494,0.2792526803190927
2025/05/06 15:28:09.563937825,0,0,,mA1/azimuth_1_joint,mA1/azimuth_2_joint,mA1/azimuth_3_joint,mA1/azimuth_4_joint,2.426007660272118,-2.3387411976724017,-0.24434609527920614,0.2792526803190927
2025/05/06 15:28:09.663527461,0,0,,mA1/azimuth_1_joint,mA1/azimuth_2_joint,mA1/azimuth_3_joint,mA1/azimuth_4_joint,2.426007660272118,-2.356194490192345,-0.22689280275926285,0.2792526803190927
2025/05/06 15:28:09.764009923,0,0,,mA1/azimuth_1_joint,mA1/azimuth_2_joint,mA1/azimuth_3_joint,mA1/azimuth_4_joint,2.426007660272118,-2.356194490192345,-0.22689280275926285,0.2617993877991494
2025/05/06 15:28:09.864462971,0,0,,mA1/azimuth_1_joint,mA1/azimuth_2_joint,mA1/azimuth_3_joint,mA1/azimuth_4_joint,2.426007660272118,-2.356194490192345,-0.20943951023931956,0.2617993877991494
2025/05/06 15:28:09.970532967,0,0,,mA1/azimuth_1_joint,mA1/azimuth_2_joint,mA1/azimuth_3_joint,mA1/azimuth_4_joint,2.426007660272118,-2.356194490192345,-0.19198621771937624,0.2617993877991494
2025/05/06 15:28:10.63212332,0,0,,mA1/azimuth_1_joint,mA1/azimuth_2_joint,mA1/azimuth_3_joint,mA1/azimuth_4_joint,2.426007660272118,-2.356194490192345,-0.19198621771937624,0.2617993877991494
2025/05/06 15:28:10.163401232,0,0,,mA1/azimuth_1_joint,mA1/azimuth_2_joint,mA1/azimuth_3_joint,mA1/azimuth_4_joint,2.426007660272118,-2.356194490192345,-0.17453292519943295,0.24434609527920614
2025/05/06 15:28:10.264139988,0,0,,mA1/azimuth_1_joint,mA1/azimuth_2_joint,mA1/azimuth_3_joint,mA1/azimuth_4_joint,2.426007660272118,-2.356194490192345,-0.17453292519943295,0.24434609527920614
2025/05/06 15:28:10.363535025,0,0,,mA1/azimuth_1_joint,mA1/azimuth_2_joint,mA1/azimuth_3_joint,mA1/azimuth_4_joint,2.426007660272118,-2.356194490192345,-0.15707963267948966,0.22689280275926285
2025/05/06 15:28:10.465330056,0,0,,mA1/azimuth_1_joint,mA1/azimuth_2_joint,mA1/azimuth_3_joint,mA1/azimuth_4_joint,2.426007660272118,-2.356194490192345,-0.15707963267948966,0.22689280275926285
2025/05/06 15:28:10.567476813,0,0,,mA1/azimuth_1_joint,mA1/azimuth_2_joint,mA1/azimuth_3_joint,mA1/azimuth_4_joint,2.426007660272118,-2.3736477827122884,-0.15707963267948966,0.20943951023931956
2025/05/06 15:28:10.663813901,0,0,,mA1/azimuth_1_joint,mA1/azimuth_2_joint,mA1/azimuth_3_joint,mA1/azimuth_4_joint,2.426007660272118,-2.3736477827122884,-0.13962634015954636,0.20943951023931956
2025/05/06 15:28:10.764118599,0,0,,mA1/azimuth_1_joint,mA1/azimuth_2_joint,mA1/azimuth_3_joint,mA1/azimuth_4_joint,2.426007660272118,-2.3736477827122884,-0.13962634015954636,0.19198621771937624
2025/05/06 15:28:10.863478245,0,0,,mA1/azimuth_1_joint,mA1/azimuth_2_joint,mA1/azimuth_3_joint,mA1/azimuth_4_joint,2.426007660272118,-2.3736477827122884,-0.15707963267948966,0.17453292519943295
2025/05/06 15:28:10.964209892,0,0,,mA1/azimuth_1_joint,mA1/azimuth_2_joint,mA1/azimuth_3_joint,mA1/azimuth_4_joint,2.426007660272118,-2.3736477827122884,-0.15707963267948966,0.17453292519943295
2025/05/06 15:28:11.63290861,0,0,,mA1/azimuth_1_joint,mA1/azimuth_2_joint,mA1/azimuth_3_joint,mA1/azimuth_4_joint,2.426007660272118,-2.3736477827122884,-0.13962634015954636,0.15707963267948966
2025/05/06 15:28:11.163846652,0,0,,mA1/azimuth_1_joint,mA1/azimuth_2_joint,mA1/azimuth_3_joint,mA1/azimuth_4_joint,2.426007660272118,-2.3736477827122884,-0.13962634015954636,0.15707963267948966
2025/05/06 15:28:11.265989561,0,0,,mA1/azimuth_1_joint,mA1/azimuth_2_joint,mA1/azimuth_3_joint,mA1/azimuth_4_joint,2.426007660272118,-2.3736477827122884,-0.13962634015954636,0.13962634015954636
2025/05/06 15:28:11.363659964,0,0,,mA1/azimuth_1_joint,mA1/azimuth_2_joint,mA1/azimuth_3_joint,mA1/azimuth_4_joint,2.426007660272118,-2.3911010752322315,-0.13962634015954636,0.13962634015954636
2025/05/06 15:28:11.464116145,0,0,,mA1/azimuth_1_joint,mA1/azimuth_2_joint,mA1/azimuth_3_joint,mA1/azimuth_4_joint,2.426007660272118,-2.3911010752322315,-0.12217304763960307,0.13962634015954636
2025/05/06 15:28:11.563532133,0,0,,mA1/azimuth_1_joint,mA1/azimuth_2_joint,mA1/azimuth_3_joint,mA1/azimuth_4_joint,2.443460952792061,-2.3911010752322315,-0.12217304763960307,0.13962634015954636
2025/05/06 15:28:11.663143148,0,0,,mA1/azimuth_1_joint,mA1/azimuth_2_joint,mA1/azimuth_3_joint,mA1/azimuth_4_joint,2.443460952792061,-2.3911010752322315,-0.12217304763960307,0.12217304763960307
2025/05/06 15:28:11.763897228,0,0,,mA1/azimuth_1_joint,mA1/azimuth_2_joint,mA1/azimuth_3_joint,mA1/azimuth_4_joint,2.443460952792061,-2.3911010752322315,-0.12217304763960307,0.12217304763960307
2025/05/06 15:28:11.863502646,0,0,,mA1/azimuth_1_joint,mA1/azimuth_2_joint,mA1/azimuth_3_joint,mA1/azimuth_4_joint,2.443460952792061,-2.3911010752322315,-0.12217304763960307,0.12217304763960307
2025/05/06 15:28:11.963660320,0,0,,mA1/azimuth_1_joint,mA1/azimuth_2_joint,mA1/azimuth_3_joint,mA1/azimuth_4_joint,2.3911010752322315,-2.3387411976724017,-0.06981317007977318,0.17453292519943295
2025/05/06 15:28:12.65670093,0,0,,mA1/azimuth_1_joint,mA1/azimuth_2_joint,mA1/azimuth_3_joint,mA1/azimuth_4_joint,2.356194490192345,-2.3387411976724017,-0.017453292519943295,0.22689280275926285
2025/05/06 15:28:12.163592539,0,0,,mA1/azimuth_1_joint,mA1/azimuth_2_joint,mA1/azimuth_3_joint,mA1/azimuth_4_joint,2.321287905152458,-2.3387411976724017,0.0,0.2792526803190927
2025/05/06 15:28:12.263459501,0,0,,mA1/azimuth_1_joint,mA1/azimuth_2_joint,mA1/azimuth_3_joint,mA1/azimuth_4_joint,2.303834612632515,-2.3387411976724017,0.0,0.29670597283903605
2025/05/06 15:28:12.363447237,0,0,,mA1/azimuth_1_joint,mA1/azimuth_2_joint,mA1/azimuth_3_joint,mA1/azimuth_4_joint,2.2863813201125716,-2.3387411976724017,0.0,0.3141592653589793
2025/05/06 15:28:12.463294314,0,0,,mA1/azimuth_1_joint,mA1/azimuth_2_joint,mA1/azimuth_3_joint,mA1/azimuth_4_joint,2.2689280275926285,-2.3387411976724017,0.0,0.33161255787892263
2025/05/06 15:28:12.564611546,0,0,,mA1/azimuth_1_joint,mA1/azimuth_2_joint,mA1/azimuth_3_joint,mA1/azimuth_4_joint,2.2689280275926285,-2.3387411976724017,0.0,0.33161255787892263
2025/05/06 15:28:12.663741046,0,0,,mA1/azimuth_1_joint,mA1/azimuth_2_joint,mA1/azimuth_3_joint,mA1/azimuth_4_joint,2.251474735072685,-2.356194490192345,0.0,0.3490658503988659
2025/05/06 15:28:12.768021417,0,0,,mA1/azimuth_1_joint,mA1/azimuth_2_joint,mA1/azimuth_3_joint,mA1/azimuth_4_joint,2.234021442552742,-2.356194490192345,0.0,0.3490658503988659
2025/05/06 15:28:12.867505330,0,0,,mA1/azimuth_1_joint,mA1/azimuth_2_joint,mA1/azimuth_3_joint,mA1/azimuth_4_joint,2.2863813201125716,-2.303834612632515,-0.03490658503988659,0.29670597283903605
2025/05/06 15:28:12.963550749,0,0,,mA1/azimuth_1_joint,mA1/azimuth_2_joint,mA1/azimuth_3_joint,mA1/azimuth_4_joint,2.234021442552742,-2.251474735072685,-0.08726646259971647,0.24434609527920614
2025/05/06 15:28:13.63231830,0,0,,mA1/azimuth_1_joint,mA1/azimuth_2_joint,mA1/azimuth_3_joint,mA1/azimuth_4_joint,2.234021442552742,-2.199114857512855,-0.13962634015954636,0.19198621771937624
2025/05/06 15:28:13.163378035,0,0,,mA1/azimuth_1_joint,mA1/azimuth_2_joint,mA1/azimuth_3_joint,mA1/azimuth_4_joint,2.234021442552742,-2.1642082724729685,-0.19198621771937624,0.13962634015954636
2025/05/06 15:28:13.263481713,0,0,,mA1/azimuth_1_joint,mA1/azimuth_2_joint,mA1/azimuth_3_joint,mA1/azimuth_4_joint,2.251474735072685,-2.129301687433082,-0.24434609527920614,0.08726646259971647
2025/05/06 15:28:13.365335756,0,0,,mA1/azimuth_1_joint,mA1/azimuth_2_joint,mA1/azimuth_3_joint,mA1/azimuth_4_joint,2.251474735072685,-2.111848394913139,-0.2792526803190927,0.03490658503988659
2025/05/06 15:28:13.463329153,0,0,,mA1/azimuth_1_joint,mA1/azimuth_2_joint,mA1/azimuth_3_joint,mA1/azimuth_4_joint,2.251474735072685,-2.111848394913139,-0.29670597283903605,0.017453292519943295
2025/05/06 15:28:13.563886215,0,0,,mA1/azimuth_1_joint,mA1/azimuth_2_joint,mA1/azimuth_3_joint,mA1/azimuth_4_joint,2.251474735072685,-2.0943951023931953,-0.29670597283903605,0.0
2025/05/06 15:28:13.663250672,0,0,,mA1/azimuth_1_joint,mA1/azimuth_2_joint,mA1/azimuth_3_joint,mA1/azimuth_4_joint,2.2689280275926285,-2.0943951023931953,-0.29670597283903605,0.0
2025/05/06 15:28:13.763637240,0,0,,mA1/azimuth_1_joint,mA1/azimuth_2_joint,mA1/azimuth_3_joint,mA1/azimuth_4_joint,2.2689280275926285,-2.076941809873252,-0.29670597283903605,0.0
2025/05/06 15:28:13.866211702,0,0,,mA1/azimuth_1_joint,mA1/azimuth_2_joint,mA1/azimuth_3_joint,mA1/azimuth_4_joint,2.2165681500327987,-2.129301687433082,-0.24434609527920614,0.03490658503988659
2025/05/06 15:28:13.963824769,0,0,,mA1/azimuth_1_joint,mA1/azimuth_2_joint,mA1/azimuth_3_joint,mA1/azimuth_4_joint,2.1642082724729685,-2.129301687433082,-0.19198621771937624,0.08726646259971647
2025/05/06 15:28:14.64258096,0,0,,mA1/azimuth_1_joint,mA1/azimuth_2_joint,mA1/azimuth_3_joint,mA1/azimuth_4_joint,2.129301687433082,-2.1467549799530254,-0.13962634015954636,0.13962634015954636
2025/05/06 15:28:14.163196139,0,0,,mA1/azimuth_1_joint,mA1/azimuth_2_joint,mA1/azimuth_3_joint,mA1/azimuth_4_joint,2.111848394913139,-2.1467549799530254,-0.10471975511965978,0.19198621771937624
2025/05/06 15:28:14.264086118,0,0,,mA1/azimuth_1_joint,mA1/azimuth_2_joint,mA1/azimuth_3_joint,mA1/azimuth_4_joint,2.0943951023931953,-2.1467549799530254,-0.05235987755982989,0.22689280275926285
2025/05/06 15:28:14.363837795,0,0,,mA1/azimuth_1_joint,mA1/azimuth_2_joint,mA1/azimuth_3_joint,mA1/azimuth_4_joint,2.076941809873252,-2.1642082724729685,-0.017453292519943295,0.24434609527920614
2025/05/06 15:28:14.467303082,0,0,,mA1/azimuth_1_joint,mA1/azimuth_2_joint,mA1/azimuth_3_joint,mA1/azimuth_4_joint,2.076941809873252,-2.1642082724729685,0.0,0.24434609527920614
2025/05/06 15:28:14.567532953,0,0,,mA1/azimuth_1_joint,mA1/azimuth_2_joint,mA1/azimuth_3_joint,mA1/azimuth_4_joint,2.076941809873252,-2.181661564992912,0.0,0.24434609527920614
2025/05/06 15:28:14.664564464,0,0,,mA1/azimuth_1_joint,mA1/azimuth_2_joint,mA1/azimuth_3_joint,mA1/azimuth_4_joint,2.076941809873252,-2.181661564992912,0.0,0.24434609527920614
2025/05/06 15:28:14.763104428,0,0,,mA1/azimuth_1_joint,mA1/azimuth_2_joint,mA1/azimuth_3_joint,mA1/azimuth_4_joint,2.076941809873252,-2.199114857512855,0.0,0.24434609527920614
2025/05/06 15:28:14.865374534,0,0,,mA1/azimuth_1_joint,mA1/azimuth_2_joint,mA1/azimuth_3_joint,mA1/azimuth_4_joint,2.059488517353309,-2.199114857512855,0.0,0.24434609527920614
2025/05/06 15:28:14.970363911,0,0,,mA1/azimuth_1_joint,mA1/azimuth_2_joint,mA1/azimuth_3_joint,mA1/azimuth_4_joint,2.059488517353309,-2.199114857512855,0.0,0.2617993877991494
2025/05/06 15:28:15.64875716,0,0,,mA1/azimuth_1_joint,mA1/azimuth_2_joint,mA1/azimuth_3_joint,mA1/azimuth_4_joint,2.0420352248333655,-2.2165681500327987,0.0,0.2792526803190927
2025/05/06 15:28:15.163764838,0,0,,mA1/azimuth_1_joint,mA1/azimuth_2_joint,mA1/azimuth_3_joint,mA1/azimuth_4_joint,2.0245819323134224,-2.2165681500327987,0.0,0.2792526803190927
2025/05/06 15:28:15.264562024,0,0,,mA1/azimuth_1_joint,mA1/azimuth_2_joint,mA1/azimuth_3_joint,mA1/azimuth_4_joint,2.007128639793479,-2.2165681500327987,0.0,0.2792526803190927
2025/05/06 15:28:15.363255609,0,0,,mA1/azimuth_1_joint,mA1/azimuth_2_joint,mA1/azimuth_3_joint,mA1/azimuth_4_joint,1.9896753472735358,-2.234021442552742,0.0,0.2792526803190927
2025/05/06 15:28:15.465789397,0,0,,mA1/azimuth_1_joint,mA1/azimuth_2_joint,mA1/azimuth_3_joint,mA1/azimuth_4_joint,1.9896753472735358,-2.234021442552742,0.0,0.2792526803190927
2025/05/06 15:28:15.566705593,0,0,,mA1/azimuth_1_joint,mA1/azimuth_2_joint,mA1/azimuth_3_joint,mA1/azimuth_4_joint,1.9722220547535925,-2.251474735072685,0.0,0.2617993877991494
2025/05/06 15:28:15.663663742,0,0,,mA1/azimuth_1_joint,mA1/azimuth_2_joint,mA1/azimuth_3_joint,mA1/azimuth_4_joint,1.9547687622336491,-2.251474735072685,0.0,0.2617993877991494
2025/05/06 15:28:15.764395911,0,0,,mA1/azimuth_1_joint,mA1/azimuth_2_joint,mA1/azimuth_3_joint,mA1/azimuth_4_joint,1.9547687622336491,-2.251474735072685,0.0,0.2617993877991494
2025/05/06 15:28:15.865053619,0,0,,mA1/azimuth_1_joint,mA1/azimuth_2_joint,mA1/azimuth_3_joint,mA1/azimuth_4_joint,1.9373154697137058,-2.2689280275926285,0.0,0.2617993877991494
2025/05/06 15:28:15.963753600,0,0,,mA1/azimuth_1_joint,mA1/azimuth_2_joint,mA1/azimuth_3_joint,mA1/azimuth_4_joint,1.9896753472735358,-2.2165681500327987,-0.03490658503988659,0.20943951023931956
2025/05/06 15:28:16.63128961,0,0,,mA1/azimuth_1_joint,mA1/azimuth_2_joint,mA1/azimuth_3_joint,mA1/azimuth_4_joint,2.007128639793479,-2.199114857512855,-0.08726646259971647,0.15707963267948966
2025/05/06 15:28:16.163537749,0,0,,mA1/azimuth_1_joint,mA1/azimuth_2_joint,mA1/azimuth_3_joint,mA1/azimuth_4_joint,2.007128639793479,-2.199114857512855,-0.13962634015954636,0.10471975511965978
2025/05/06 15:28:16.266308298,0,0,,mA1/azimuth_1_joint,mA1/azimuth_2_joint,mA1/azimuth_3_joint,mA1/azimuth_4_joint,2.0245819323134224,-2.199114857512855,-0.15707963267948966,0.06981317007977318
2025/05/06 15:28:16.364641384,0,0,,mA1/azimuth_1_joint,mA1/azimuth_2_joint,mA1/azimuth_3_joint,mA1/azimuth_4_joint,2.0420352248333655,-2.199114857512855,-0.15707963267948966,0.05235987755982989
2025/05/06 15:28:16.465332552,0,0,,mA1/azimuth_1_joint,mA1/azimuth_2_joint,mA1/azimuth_3_joint,mA1/azimuth_4_joint,2.0420352248333655,-2.199114857512855,-0.15707963267948966,0.05235987755982989
2025/05/06 15:28:16.563260687,0,0,,mA1/azimuth_1_joint,mA1/azimuth_2_joint,mA1/azimuth_3_joint,mA1/azimuth_4_joint,2.059488517353309,-2.2165681500327987,-0.13962634015954636,0.03490658503988659
2025/05/06 15:28:16.663922293,0,0,,mA1/azimuth_1_joint,mA1/azimuth_2_joint,mA1/azimuth_3_joint,mA1/azimuth_4_joint,2.076941809873252,-2.2165681500327987,-0.13962634015954636,0.03490658503988659
2025/05/06 15:28:16.766378284,0,0,,mA1/azimuth_1_joint,mA1/azimuth_2_joint,mA1/azimuth_3_joint,mA1/azimuth_4_joint,2.076941809873252,-2.2165681500327987,-0.13962634015954636,0.03490658503988659
2025/05/06 15:28:16.864841199,0,0,,mA1/azimuth_1_joint,mA1/azimuth_2_joint,mA1/azimuth_3_joint,mA1/azimuth_4_joint,2.0943951023931953,-2.234021442552742,-0.12217304763960307,0.03490658503988659
2025/05/06 15:28:16.965200666,0,0,,mA1/azimuth_1_joint,mA1/azimuth_2_joint,mA1/azimuth_3_joint,mA1/azimuth_4_joint,2.0420352248333655,-2.181661564992912,-0.17453292519943295,0.0
2025/05/06 15:28:17.67156876,0,0,,mA1/azimuth_1_joint,mA1/azimuth_2_joint,mA1/azimuth_3_joint,mA1/azimuth_4_joint,2.059488517353309,-2.129301687433082,-0.22689280275926285,0.0
2025/05/06 15:28:17.164015451,0,0,,mA1/azimuth_1_joint,mA1/azimuth_2_joint,mA1/azimuth_3_joint,mA1/azimuth_4_joint,2.059488517353309,-2.076941809873252,-0.2792526803190927,0.0
2025/05/06 15:28:17.263593015,0,0,,mA1/azimuth_1_joint,mA1/azimuth_2_joint,mA1/azimuth_3_joint,mA1/azimuth_4_joint,2.076941809873252,-2.0245819323134224,-0.3141592653589793,0.0
2025/05/06 15:28:17.363761286,0,0,,mA1/azimuth_1_joint,mA1/azimuth_2_joint,mA1/azimuth_3_joint,mA1/azimuth_4_joint,2.0943951023931953,-1.9896753472735358,-0.33161255787892263,0.0
2025/05/06 15:28:17.463082626,0,0,,mA1/azimuth_1_joint,mA1/azimuth_2_joint,mA1/azimuth_3_joint,mA1/azimuth_4_joint,2.111848394913139,-1.9547687622336491,-0.33161255787892263,0.0
2025/05/06 15:28:17.564046197,0,0,,mA1/azimuth_1_joint,mA1/azimuth_2_joint,mA1/azimuth_3_joint,mA1/azimuth_4_joint,2.111848394913139,-1.9198621771937625,-0.3141592653589793,0.0
2025/05/06 15:28:17.663747879,0,0,,mA1/azimuth_1_joint,mA1/azimuth_2_joint,mA1/azimuth_3_joint,mA1/azimuth_4_joint,2.129301687433082,-1.8675022996339325,-0.3141592653589793,0.0
2025/05/06 15:28:17.762946846,0,0,,mA1/azimuth_1_joint,mA1/azimuth_2_joint,mA1/azimuth_3_joint,mA1/azimuth_4_joint,2.1467549799530254,-1.8325957145940461,-0.29670597283903605,0.0
2025/05/06 15:28:17.864349648,0,0,,mA1/azimuth_1_joint,mA1/azimuth_2_joint,mA1/azimuth_3_joint,mA1/azimuth_4_joint,2.0943951023931953,-1.8849555921538759,-0.24434609527920614,0.03490658503988659
2025/05/06 15:28:17.964832589,0,0,,mA1/azimuth_1_joint,mA1/azimuth_2_joint,mA1/azimuth_3_joint,mA1/azimuth_4_joint,2.0943951023931953,-1.9024088846738192,-0.20943951023931956,0.06981317007977318
2025/05/06 15:28:18.63246545,0,0,,mA1/azimuth_1_joint,mA1/azimuth_2_joint,mA1/azimuth_3_joint,mA1/azimuth_4_joint,2.111848394913139,-1.9024088846738192,-0.17453292519943295,0.05235987755982989
2025/05/06 15:28:18.163208375,0,0,,mA1/azimuth_1_joint,mA1/azimuth_2_joint,mA1/azimuth_3_joint,mA1/azimuth_4_joint,2.129301687433082,-1.9198621771937625,-0.15707963267948966,0.03490658503988659
2025/05/06 15:28:18.265127022,0,0,,mA1/azimuth_1_joint,mA1/azimuth_2_joint,mA1/azimuth_3_joint,mA1/azimuth_4_joint,2.1467549799530254,-1.9198621771937625,-0.13962634015954636,0.03490658503988659
2025/05/06 15:28:18.364125044,0,0,,mA1/azimuth_1_joint,mA1/azimuth_2_joint,mA1/azimuth_3_joint,mA1/azimuth_4_joint,2.1467549799530254,-1.9373154697137058,-0.13962634015954636,0.017453292519943295
2025/05/06 15:28:18.468095653,0,0,,mA1/azimuth_1_joint,mA1/azimuth_2_joint,mA1/azimuth_3_joint,mA1/azimuth_4_joint,2.1642082724729685,-1.9373154697137058,-0.12217304763960307,0.017453292519943295
2025/05/06 15:28:18.563567190,0,0,,mA1/azimuth_1_joint,mA1/azimuth_2_joint,mA1/azimuth_3_joint,mA1/azimuth_4_joint,2.181661564992912,-1.9547687622336491,-0.12217304763960307,0.017453292519943295
2025/05/06 15:28:18.666124998,0,0,,mA1/azimuth_1_joint,mA1/azimuth_2_joint,mA1/azimuth_3_joint,mA1/azimuth_4_joint,2.181661564992912,-1.9547687622336491,-0.12217304763960307,0.0
2025/05/06 15:28:18.763208968,0,0,,mA1/azimuth_1_joint,mA1/azimuth_2_joint,mA1/azimuth_3_joint,mA1/azimuth_4_joint,2.199114857512855,-1.9722220547535925,-0.10471975511965978,0.0
2025/05/06 15:28:18.863206856,0,0,,mA1/azimuth_1_joint,mA1/azimuth_2_joint,mA1/azimuth_3_joint,mA1/azimuth_4_joint,2.1467549799530254,-1.9198621771937625,-0.05235987755982989,0.05235987755982989
2025/05/06 15:28:18.964043085,0,0,,mA1/azimuth_1_joint,mA1/azimuth_2_joint,mA1/azimuth_3_joint,mA1/azimuth_4_joint,2.1467549799530254,-1.9373154697137058,-0.017453292519943295,0.10471975511965978
2025/05/06 15:28:19.64014068,0,0,,mA1/azimuth_1_joint,mA1/azimuth_2_joint,mA1/azimuth_3_joint,mA1/azimuth_4_joint,2.1467549799530254,-1.9547687622336491,0.0,0.12217304763960307
2025/05/06 15:28:19.165052120,0,0,,mA1/azimuth_1_joint,mA1/azimuth_2_joint,mA1/azimuth_3_joint,mA1/azimuth_4_joint,2.1467549799530254,-1.9722220547535925,0.0,0.12217304763960307
2025/05/06 15:28:19.265484335,0,0,,mA1/azimuth_1_joint,mA1/azimuth_2_joint,mA1/azimuth_3_joint,mA1/azimuth_4_joint,2.1642082724729685,-1.9722220547535925,0.0,0.12217304763960307
2025/05/06 15:28:19.363324337,0,0,,mA1/azimuth_1_joint,mA1/azimuth_2_joint,mA1/azimuth_3_joint,mA1/azimuth_4_joint,2.1642082724729685,-1.9896753472735358,0.0,0.12217304763960307
2025/05/06 15:28:19.463634935,0,0,,mA1/azimuth_1_joint,mA1/azimuth_2_joint,mA1/azimuth_3_joint,mA1/azimuth_4_joint,2.181661564992912,-2.007128639793479,0.0,0.12217304763960307
2025/05/06 15:28:19.564311033,0,0,,mA1/azimuth_1_joint,mA1/azimuth_2_joint,mA1/azimuth_3_joint,mA1/azimuth_4_joint,2.181661564992912,-2.0245819323134224,0.0,0.12217304763960307
2025/05/06 15:28:19.667948091,0,0,,mA1/azimuth_1_joint,mA1/azimuth_2_joint,mA1/azimuth_3_joint,mA1/azimuth_4_joint,2.181661564992912,-2.0420352248333655,0.0,0.12217304763960307
2025/05/06 15:28:19.763192868,0,0,,mA1/azimuth_1_joint,mA1/azimuth_2_joint,mA1/azimuth_3_joint,mA1/azimuth_4_joint,2.199114857512855,-2.059488517353309,0.0,0.12217304763960307
2025/05/06 15:28:19.863463763,0,0,,mA1/azimuth_1_joint,mA1/azimuth_2_joint,mA1/azimuth_3_joint,mA1/azimuth_4_joint,2.199114857512855,-2.076941809873252,0.0,0.12217304763960307
2025/05/06 15:28:19.965267422,0,0,,mA1/azimuth_1_joint,mA1/azimuth_2_joint,mA1/azimuth_3_joint,mA1/azimuth_4_joint,2.2165681500327987,-2.0943951023931953,-0.017453292519943295,0.08726646259971647
2025/05/06 15:28:20.65387024,0,0,,mA1/azimuth_1_joint,mA1/azimuth_2_joint,mA1/azimuth_3_joint,mA1/azimuth_4_joint,2.2165681500327987,-2.0943951023931953,-0.017453292519943295,0.06981317007977318
2025/05/06 15:28:20.163063190,0,0,,mA1/azimuth_1_joint,mA1/azimuth_2_joint,mA1/azimuth_3_joint,mA1/azimuth_4_joint,2.234021442552742,-2.111848394913139,-0.017453292519943295,0.06981317007977318
2025/05/06 15:28:20.265027597,0,0,,mA1/azimuth_1_joint,mA1/azimuth_2_joint,mA1/azimuth_3_joint,mA1/azimuth_4_joint,2.251474735072685,-2.129301687433082,-0.017453292519943295,0.06981317007977318
2025/05/06 15:28:20.363713536,0,0,,mA1/azimuth_1_joint,mA1/azimuth_2_joint,mA1/azimuth_3_joint,mA1/azimuth_4_joint,2.251474735072685,-2.129301687433082,-0.017453292519943295,0.06981317007977318
2025/05/06 15:28:20.464261471,0,0,,mA1/azimuth_1_joint,mA1/azimuth_2_joint,mA1/azimuth_3_joint,mA1/azimuth_4_joint,2.2689280275926285,-2.1467549799530254,-0.017453292519943295,0.06981317007977318
2025/05/06 15:28:20.564701827,0,0,,mA1/azimuth_1_joint,mA1/azimuth_2_joint,mA1/azimuth_3_joint,mA1/azimuth_4_joint,2.2689280275926285,-2.1467549799530254,-0.017453292519943295,0.05235987755982989
2025/05/06 15:28:20.663499280,0,0,,mA1/azimuth_1_joint,mA1/azimuth_2_joint,mA1/azimuth_3_joint,mA1/azimuth_4_joint,2.2863813201125716,-2.1642082724729685,-0.017453292519943295,0.05235987755982989
2025/05/06 15:28:20.764048794,0,0,,mA1/azimuth_1_joint,mA1/azimuth_2_joint,mA1/azimuth_3_joint,mA1/azimuth_4_joint,2.303834612632515,-2.181661564992912,-0.017453292519943295,0.05235987755982989
2025/05/06 15:28:20.863670446,0,0,,mA1/azimuth_1_joint,mA1/azimuth_2_joint,mA1/azimuth_3_joint,mA1/azimuth_4_joint,2.303834612632515,-2.181661564992912,-0.017453292519943295,0.05235987755982989
2025/05/06 15:28:20.978933261,0,0,,mA1/azimuth_1_joint,mA1/azimuth_2_joint,mA1/azimuth_3_joint,mA1/azimuth_4_joint,2.321287905152458,-2.199114857512855,-0.017453292519943295,0.05235987755982989
2025/05/06 15:28:21.63255555,0,0,,mA1/azimuth_1_joint,mA1/azimuth_2_joint,mA1/azimuth_3_joint,mA1/azimuth_4_joint,2.321287905152458,-2.2165681500327987,-0.017453292519943295,0.05235987755982989
2025/05/06 15:28:21.163605858,0,0,,mA1/azimuth_1_joint,mA1/azimuth_2_joint,mA1/azimuth_3_joint,mA1/azimuth_4_joint,2.3387411976724017,-2.2165681500327987,-0.017453292519943295,0.03490658503988659
2025/05/06 15:28:21.263589655,0,0,,mA1/azimuth_1_joint,mA1/azimuth_2_joint,mA1/azimuth_3_joint,mA1/azimuth_4_joint,2.3387411976724017,-2.234021442552742,-0.017453292519943295,0.03490658503988659
2025/05/06 15:28:21.363155949,0,0,,mA1/azimuth_1_joint,mA1/azimuth_2_joint,mA1/azimuth_3_joint,mA1/azimuth_4_joint,2.356194490192345,-2.234021442552742,-0.017453292519943295,0.03490658503988659
2025/05/06 15:28:21.464724131,0,0,,mA1/azimuth_1_joint,mA1/azimuth_2_joint,mA1/azimuth_3_joint,mA1/azimuth_4_joint,2.356194490192345,-2.251474735072685,-0.017453292519943295,0.03490658503988659
2025/05/06 15:28:21.563191404,0,0,,mA1/azimuth_1_joint,mA1/azimuth_2_joint,mA1/azimuth_3_joint,mA1/azimuth_4_joint,2.3736477827122884,-2.251474735072685,-0.017453292519943295,0.03490658503988659
2025/05/06 15:28:21.665318419,0,0,,mA1/azimuth_1_joint,mA1/azimuth_2_joint,mA1/azimuth_3_joint,mA1/azimuth_4_joint,2.3736477827122884,-2.2689280275926285,-0.017453292519943295,0.03490658503988659
2025/05/06 15:28:21.763489659,0,0,,mA1/azimuth_1_joint,mA1/azimuth_2_joint,mA1/azimuth_3_joint,mA1/azimuth_4_joint,2.3911010752322315,-2.2863813201125716,-0.017453292519943295,0.03490658503988659
2025/05/06 15:28:21.863219636,0,0,,mA1/azimuth_1_joint,mA1/azimuth_2_joint,mA1/azimuth_3_joint,mA1/azimuth_4_joint,2.3911010752322315,-2.2863813201125716,-0.05235987755982989,0.0
2025/05/06 15:28:21.964982702,0,0,,mA1/azimuth_1_joint,mA1/azimuth_2_joint,mA1/azimuth_3_joint,mA1/azimuth_4_joint,2.4085543677521746,-2.2863813201125716,-0.05235987755982989,0.0
2025/05/06 15:28:22.63802946,0,0,,mA1/azimuth_1_joint,mA1/azimuth_2_joint,mA1/azimuth_3_joint,mA1/azimuth_4_joint,2.4085543677521746,-2.303834612632515,-0.05235987755982989,0.0
2025/05/06 15:28:22.163941133,0,0,,mA1/azimuth_1_joint,mA1/azimuth_2_joint,mA1/azimuth_3_joint,mA1/azimuth_4_joint,2.426007660272118,-2.303834612632515,-0.05235987755982989,0.0
2025/05/06 15:28:22.267203203,0,0,,mA1/azimuth_1_joint,mA1/azimuth_2_joint,mA1/azimuth_3_joint,mA1/azimuth_4_joint,2.426007660272118,-2.321287905152458,-0.05235987755982989,0.0
2025/05/06 15:28:22.364124454,0,0,,mA1/azimuth_1_joint,mA1/azimuth_2_joint,mA1/azimuth_3_joint,mA1/azimuth_4_joint,2.443460952792061,-2.321287905152458,-0.05235987755982989,0.0
2025/05/06 15:28:22.464739902,0,0,,mA1/azimuth_1_joint,mA1/azimuth_2_joint,mA1/azimuth_3_joint,mA1/azimuth_4_joint,2.443460952792061,-2.321287905152458,-0.05235987755982989,0.0
2025/05/06 15:28:22.564784647,0,0,,mA1/azimuth_1_joint,mA1/azimuth_2_joint,mA1/azimuth_3_joint,mA1/azimuth_4_joint,2.443460952792061,-2.3387411976724017,-0.05235987755982989,0.0
2025/05/06 15:28:22.663329318,0,0,,mA1/azimuth_1_joint,mA1/azimuth_2_joint,mA1/azimuth_3_joint,mA1/azimuth_4_joint,2.4609142453120048,-2.3387411976724017,-0.05235987755982989,0.0
2025/05/06 15:28:22.763900629,0,0,,mA1/azimuth_1_joint,mA1/azimuth_2_joint,mA1/azimuth_3_joint,mA1/azimuth_4_joint,2.4609142453120048,-2.356194490192345,-0.05235987755982989,0.0
2025/05/06 15:28:22.862962953,0,0,,mA1/azimuth_1_joint,mA1/azimuth_2_joint,mA1/azimuth_3_joint,mA1/azimuth_4_joint,2.478367537831948,-2.356194490192345,-0.017453292519943295,0.03490658503988659
2025/05/06 15:28:22.965675656,0,0,,mA1/azimuth_1_joint,mA1/azimuth_2_joint,mA1/azimuth_3_joint,mA1/azimuth_4_joint,2.478367537831948,-2.3736477827122884,-0.017453292519943295,0.03490658503988659
2025/05/06 15:28:23.64320810,0,0,,mA1/azimuth_1_joint,mA1/azimuth_2_joint,mA1/azimuth_3_joint,mA1/azimuth_4_joint,2.478367537831948,-2.3736477827122884,-0.017453292519943295,0.03490658503988659
2025/05/06 15:28:23.163840736,0,0,,mA1/azimuth_1_joint,mA1/azimuth_2_joint,mA1/azimuth_3_joint,mA1/azimuth_4_joint,2.4958208303518914,-2.3911010752322315,-0.017453292519943295,0.03490658503988659
2025/05/06 15:28:23.263219327,0,0,,mA1/azimuth_1_joint,mA1/azimuth_2_joint,mA1/azimuth_3_joint,mA1/azimuth_4_joint,2.4958208303518914,-2.4085543677521746,-0.017453292519943295,0.03490658503988659
2025/05/06 15:28:23.363949508,0,0,,mA1/azimuth_1_joint,mA1/azimuth_2_joint,mA1/azimuth_3_joint,mA1/azimuth_4_joint,2.5132741228718345,-2.4085543677521746,-0.017453292519943295,0.03490658503988659
2025/05/06 15:28:23.465554740,0,0,,mA1/azimuth_1_joint,mA1/azimuth_2_joint,mA1/azimuth_3_joint,mA1/azimuth_4_joint,2.5132741228718345,-2.426007660272118,-0.017453292519943295,0.03490658503988659
2025/05/06 15:28:23.565489963,0,0,,mA1/azimuth_1_joint,mA1/azimuth_2_joint,mA1/azimuth_3_joint,mA1/azimuth_4_joint,2.530727415391778,-2.426007660272118,-0.017453292519943295,0.03490658503988659
2025/05/06 15:28:23.666452473,0,0,,mA1/azimuth_1_joint,mA1/azimuth_2_joint,mA1/azimuth_3_joint,mA1/azimuth_4_joint,2.530727415391778,-2.443460952792061,-0.017453292519943295,0.03490658503988659
2025/05/06 15:28:23.763197904,0,0,,mA1/azimuth_1_joint,mA1/azimuth_2_joint,mA1/azimuth_3_joint,mA1/azimuth_4_joint,2.530727415391778,-2.443460952792061,-0.017453292519943295,0.03490658503988659
2025/05/06 15:28:23.864303000,0,0,,mA1/azimuth_1_joint,mA1/azimuth_2_joint,mA1/azimuth_3_joint,mA1/azimuth_4_joint,2.548180707911721,-2.4609142453120048,-0.03490658503988659,0.017453292519943295
2025/05/06 15:28:23.965738868,0,0,,mA1/azimuth_1_joint,mA1/azimuth_2_joint,mA1/azimuth_3_joint,mA1/azimuth_4_joint,2.548180707911721,-2.4609142453120048,-0.03490658503988659,0.017453292519943295
2025/05/06 15:28:24.63352373,0,0,,mA1/azimuth_1_joint,mA1/azimuth_2_joint,mA1/azimuth_3_joint,mA1/azimuth_4_joint,2.5656340004316642,-2.478367537831948,-0.03490658503988659,0.017453292519943295
2025/05/06 15:28:24.163243277,0,0,,mA1/azimuth_1_joint,mA1/azimuth_2_joint,mA1/azimuth_3_joint,mA1/azimuth_4_joint,2.5656340004316642,-2.4958208303518914,-0.03490658503988659,0.017453292519943295
2025/05/06 15:28:24.264916610,0,0,,mA1/azimuth_1_joint,mA1/azimuth_2_joint,mA1/azimuth_3_joint,mA1/azimuth_4_joint,2.5656340004316642,-2.4958208303518914,-0.03490658503988659,0.017453292519943295
2025/05/06 15:28:24.364410145,0,0,,mA1/azimuth_1_joint,mA1/azimuth_2_joint,mA1/azimuth_3_joint,mA1/azimuth_4_joint,2.5830872929516078,-2.5132741228718345,-0.03490658503988659,0.017453292519943295
2025/05/06 15:28:24.464205731,0,0,,mA1/azimuth_1_joint,mA1/azimuth_2_joint,mA1/azimuth_3_joint,mA1/azimuth_4_joint,2.5830872929516078,-2.5132741228718345,-0.03490658503988659,0.017453292519943295
2025/05/06 15:28:24.568426401,0,0,,mA1/azimuth_1_joint,mA1/azimuth_2_joint,mA1/azimuth_3_joint,mA1/azimuth_4_joint,2.5830872929516078,-2.530727415391778,-0.03490658503988659,0.017453292519943295
2025/05/06 15:28:24.663321178,0,0,,mA1/azimuth_1_joint,mA1/azimuth_2_joint,mA1/azimuth_3_joint,mA1/azimuth_4_joint,2.600540585471551,-2.530727415391778,-0.03490658503988659,0.017453292519943295
2025/05/06 15:28:24.763558787,0,0,,mA1/azimuth_1_joint,mA1/azimuth_2_joint,mA1/azimuth_3_joint,mA1/azimuth_4_joint,2.600540585471551,-2.548180707911721,-0.03490658503988659,0.017453292519943295
2025/05/06 15:28:24.863700513,0,0,,mA1/azimuth_1_joint,mA1/azimuth_2_joint,mA1/azimuth_3_joint,mA1/azimuth_4_joint,2.5656340004316642,-2.5132741228718345,-0.08726646259971647,0.0
2025/05/06 15:28:24.962997645,0,0,,mA1/azimuth_1_joint,mA1/azimuth_2_joint,mA1/azimuth_3_joint,mA1/azimuth_4_joint,2.5656340004316642,-2.5132741228718345,-0.12217304763960307,0.0
2025/05/06 15:28:25.63714214,0,0,,mA1/azimuth_1_joint,mA1/azimuth_2_joint,mA1/azimuth_3_joint,mA1/azimuth_4_joint,2.5656340004316642,-2.530727415391778,-0.13962634015954636,0.0
2025/05/06 15:28:25.164845050,0,0,,mA1/azimuth_1_joint,mA1/azimuth_2_joint,mA1/azimuth_3_joint,mA1/azimuth_4_joint,2.5656340004316642,-2.530727415391778,-0.13962634015954636,0.0
2025/05/06 15:28:25.266468924,0,0,,mA1/azimuth_1_joint,mA1/azimuth_2_joint,mA1/azimuth_3_joint,mA1/azimuth_4_joint,2.5656340004316642,-2.548180707911721,-0.13962634015954636,0.0
2025/05/06 15:28:25.363975203,0,0,,mA1/azimuth_1_joint,mA1/azimuth_2_joint,mA1/azimuth_3_joint,mA1/azimuth_4_joint,2.5656340004316642,-2.548180707911721,-0.12217304763960307,0.0
2025/05/06 15:28:25.464193333,0,0,,mA1/azimuth_1_joint,mA1/azimuth_2_joint,mA1/azimuth_3_joint,mA1/azimuth_4_joint,2.5830872929516078,-2.5656340004316642,-0.12217304763960307,0.0
2025/05/06 15:28:25.563611488,0,0,,mA1/azimuth_1_joint,mA1/azimuth_2_joint,mA1/azimuth_3_joint,mA1/azimuth_4_joint,2.5830872929516078,-2.5656340004316642,-0.12217304763960307,0.0
2025/05/06 15:28:25.664630329,0,0,,mA1/azimuth_1_joint,mA1/azimuth_2_joint,mA1/azimuth_3_joint,mA1/azimuth_4_joint,2.5830872929516078,-2.5656340004316642,-0.12217304763960307,0.0
2025/05/06 15:28:25.764418932,0,0,,mA1/azimuth_1_joint,mA1/azimuth_2_joint,mA1/azimuth_3_joint,mA1/azimuth_4_joint,2.5830872929516078,-2.5830872929516078,-0.12217304763960307,0.0
2025/05/06 15:28:25.864232248,0,0,,mA1/azimuth_1_joint,mA1/azimuth_2_joint,mA1/azimuth_3_joint,mA1/azimuth_4_joint,2.530727415391778,-2.530727415391778,-0.06981317007977318,0.03490658503988659
2025/05/06 15:28:25.966152028,0,0,,mA1/azimuth_1_joint,mA1/azimuth_2_joint,mA1/azimuth_3_joint,mA1/azimuth_4_joint,2.478367537831948,-2.5132741228718345,-0.03490658503988659,0.08726646259971647
2025/05/06 15:28:26.64160075,0,0,,mA1/azimuth_1_joint,mA1/azimuth_2_joint,mA1/azimuth_3_joint,mA1/azimuth_4_joint,2.4609142453120048,-2.4958208303518914,0.0,0.10471975511965978
2025/05/06 15:28:26.163089818,0,0,,mA1/azimuth_1_joint,mA1/azimuth_2_joint,mA1/azimuth_3_joint,mA1/azimuth_4_joint,2.4609142453120048,-2.4958208303518914,0.0,0.13962634015954636
2025/05/06 15:28:26.263095177,0,0,,mA1/azimuth_1_joint,mA1/azimuth_2_joint,mA1/azimuth_3_joint,mA1/azimuth_4_joint,2.4609142453120048,-2.4958208303518914,0.0,0.13962634015954636
2025/05/06 15:28:26.365005411,0,0,,mA1/azimuth_1_joint,mA1/azimuth_2_joint,mA1/azimuth_3_joint,mA1/azimuth_4_joint,2.4609142453120048,-2.4958208303518914,0.0,0.13962634015954636
2025/05/06 15:28:26.464336169,0,0,,mA1/azimuth_1_joint,mA1/azimuth_2_joint,mA1/azimuth_3_joint,mA1/azimuth_4_joint,2.4609142453120048,-2.4958208303518914,0.0,0.13962634015954636
2025/05/06 15:28:26.565260431,0,0,,mA1/azimuth_1_joint,mA1/azimuth_2_joint,mA1/azimuth_3_joint,mA1/azimuth_4_joint,2.4609142453120048,-2.4958208303518914,0.0,0.13962634015954636
2025/05/06 15:28:26.666613636,0,0,,mA1/azimuth_1_joint,mA1/azimuth_2_joint,mA1/azimuth_3_joint,mA1/azimuth_4_joint,2.4609142453120048,-2.4958208303518914,0.0,0.13962634015954636
2025/05/06 15:28:26.763244202,0,0,,mA1/azimuth_1_joint,mA1/azimuth_2_joint,mA1/azimuth_3_joint,mA1/azimuth_4_joint,2.478367537831948,-2.4958208303518914,0.0,0.13962634015954636
2025/05/06 15:28:26.864922278,0,0,,mA1/azimuth_1_joint,mA1/azimuth_2_joint,mA1/azimuth_3_joint,mA1/azimuth_4_joint,2.426007660272118,-2.443460952792061,-0.03490658503988659,0.08726646259971647
2025/05/06 15:28:26.963716013,0,0,,mA1/azimuth_1_joint,mA1/azimuth_2_joint,mA1/azimuth_3_joint,mA1/azimuth_4_joint,2.426007660272118,-2.443460952792061,-0.06981317007977318,0.05235987755982989
2025/05/06 15:28:27.64349807,0,0,,mA1/azimuth_1_joint,mA1/azimuth_2_joint,mA1/azimuth_3_joint,mA1/azimuth_4_joint,2.426007660272118,-2.443460952792061,-0.08726646259971647,0.017453292519943295
2025/05/06 15:28:27.167681401,0,0,,mA1/azimuth_1_joint,mA1/azimuth_2_joint,mA1/azimuth_3_joint,mA1/azimuth_4_joint,2.443460952792061,-2.4609142453120048,-0.06981317007977318,0.0
2025/05/06 15:28:27.263081363,0,0,,mA1/azimuth_1_joint,mA1/azimuth_2_joint,mA1/azimuth_3_joint,mA1/azimuth_4_joint,2.443460952792061,-2.4609142453120048,-0.06981317007977318,0.0
2025/05/06 15:28:27.364439741,0,0,,mA1/azimuth_1_joint,mA1/azimuth_2_joint,mA1/azimuth_3_joint,mA1/azimuth_4_joint,2.4609142453120048,-2.478367537831948,-0.06981317007977318,0.0
2025/05/06 15:28:27.463010438,0,0,,mA1/azimuth_1_joint,mA1/azimuth_2_joint,mA1/azimuth_3_joint,mA1/azimuth_4_joint,2.4609142453120048,-2.478367537831948,-0.05235987755982989,0.0
2025/05/06 15:28:27.565088932,0,0,,mA1/azimuth_1_joint,mA1/azimuth_2_joint,mA1/azimuth_3_joint,mA1/azimuth_4_joint,2.478367537831948,-2.4958208303518914,-0.05235987755982989,0.0
2025/05/06 15:28:27.663005216,0,0,,mA1/azimuth_1_joint,mA1/azimuth_2_joint,mA1/azimuth_3_joint,mA1/azimuth_4_joint,2.478367537831948,-2.4958208303518914,-0.05235987755982989,0.0
2025/05/06 15:28:27.766176491,0,0,,mA1/azimuth_1_joint,mA1/azimuth_2_joint,mA1/azimuth_3_joint,mA1/azimuth_4_joint,2.4958208303518914,-2.5132741228718345,-0.05235987755982989,0.0
2025/05/06 15:28:27.863093241,0,0,,mA1/azimuth_1_joint,mA1/azimuth_2_joint,mA1/azimuth_3_joint,mA1/azimuth_4_joint,2.4958208303518914,-2.5132741228718345,-0.03490658503988659,0.03490658503988659
2025/05/06 15:28:27.964457731,0,0,,mA1/azimuth_1_joint,mA1/azimuth_2_joint,mA1/azimuth_3_joint,mA1/azimuth_4_joint,2.4958208303518914,-2.5132741228718345,-0.017453292519943295,0.03490658503988659
2025/05/06 15:28:28.63277764,0,0,,mA1/azimuth_1_joint,mA1/azimuth_2_joint,mA1/azimuth_3_joint,mA1/azimuth_4_joint,2.4958208303518914,-2.5132741228718345,-0.017453292519943295,0.03490658503988659
2025/05/06 15:28:28.163953938,0,0,,mA1/azimuth_1_joint,mA1/azimuth_2_joint,mA1/azimuth_3_joint,mA1/azimuth_4_joint,2.5132741228718345,-2.5132741228718345,-0.017453292519943295,0.03490658503988659
2025/05/06 15:28:28.265488786,0,0,,mA1/azimuth_1_joint,mA1/azimuth_2_joint,mA1/azimuth_3_joint,mA1/azimuth_4_joint,2.5132741228718345,-2.530727415391778,-0.017453292519943295,0.03490658503988659
2025/05/06 15:28:28.363188346,0,0,,mA1/azimuth_1_joint,mA1/azimuth_2_joint,mA1/azimuth_3_joint,mA1/azimuth_4_joint,2.5132741228718345,-2.530727415391778,-0.017453292519943295,0.03490658503988659
2025/05/06 15:28:28.464429903,0,0,,mA1/azimuth_1_joint,mA1/azimuth_2_joint,mA1/azimuth_3_joint,mA1/azimuth_4_joint,2.530727415391778,-2.530727415391778,-0.017453292519943295,0.03490658503988659
2025/05/06 15:28:28.565259481,0,0,,mA1/azimuth_1_joint,mA1/azimuth_2_joint,mA1/azimuth_3_joint,mA1/azimuth_4_joint,2.530727415391778,-2.530727415391778,-0.017453292519943295,0.03490658503988659
2025/05/06 15:28:28.668962025,0,0,,mA1/azimuth_1_joint,mA1/azimuth_2_joint,mA1/azimuth_3_joint,mA1/azimuth_4_joint,2.548180707911721,-2.548180707911721,-0.017453292519943295,0.03490658503988659
2025/05/06 15:28:28.763475651,0,0,,mA1/azimuth_1_joint,mA1/azimuth_2_joint,mA1/azimuth_3_joint,mA1/azimuth_4_joint,2.548180707911721,-2.548180707911721,-0.017453292519943295,0.03490658503988659
2025/05/06 15:28:28.865318594,0,0,,mA1/azimuth_1_joint,mA1/azimuth_2_joint,mA1/azimuth_3_joint,mA1/azimuth_4_joint,2.548180707911721,-2.548180707911721,0.0,0.05235987755982989
2025/05/06 15:28:28.963507596,0,0,,mA1/azimuth_1_joint,mA1/azimuth_2_joint,mA1/azimuth_3_joint,mA1/azimuth_4_joint,2.548180707911721,-2.548180707911721,0.0,0.05235987755982989
2025/05/06 15:28:29.64189409,0,0,,mA1/azimuth_1_joint,mA1/azimuth_2_joint,mA1/azimuth_3_joint,mA1/azimuth_4_joint,2.548180707911721,-2.548180707911721,0.0,0.05235987755982989
2025/05/06 15:28:29.163815971,0,0,,mA1/azimuth_1_joint,mA1/azimuth_2_joint,mA1/azimuth_3_joint,mA1/azimuth_4_joint,2.5656340004316642,-2.548180707911721,0.0,0.05235987755982989
2025/05/06 15:28:29.263479419,0,0,,mA1/azimuth_1_joint,mA1/azimuth_2_joint,mA1/azimuth_3_joint,mA1/azimuth_4_joint,2.5656340004316642,-2.548180707911721,0.0,0.05235987755982989
2025/05/06 15:28:29.364078347,0,0,,mA1/azimuth_1_joint,mA1/azimuth_2_joint,mA1/azimuth_3_joint,mA1/azimuth_4_joint,2.5656340004316642,-2.5656340004316642,0.0,0.05235987755982989
2025/05/06 15:28:29.462982768,0,0,,mA1/azimuth_1_joint,mA1/azimuth_2_joint,mA1/azimuth_3_joint,mA1/azimuth_4_joint,2.5656340004316642,-2.5656340004316642,0.0,0.05235987755982989
2025/05/06 15:28:29.565268089,0,0,,mA1/azimuth_1_joint,mA1/azimuth_2_joint,mA1/azimuth_3_joint,mA1/azimuth_4_joint,2.5830872929516078,-2.5656340004316642,0.0,0.05235987755982989
2025/05/06 15:28:29.664426602,0,0,,mA1/azimuth_1_joint,mA1/azimuth_2_joint,mA1/azimuth_3_joint,mA1/azimuth_4_joint,2.5830872929516078,-2.5656340004316642,0.0,0.05235987755982989
2025/05/06 15:28:29.769004710,0,0,,mA1/azimuth_1_joint,mA1/azimuth_2_joint,mA1/azimuth_3_joint,mA1/azimuth_4_joint,2.5830872929516078,-2.5656340004316642,0.0,0.05235987755982989
2025/05/06 15:28:29.863575947,0,0,,mA1/azimuth_1_joint,mA1/azimuth_2_joint,mA1/azimuth_3_joint,mA1/azimuth_4_joint,2.5830872929516078,-2.5656340004316642,-0.017453292519943295,0.05235987755982989
2025/05/06 15:28:29.967624801,0,0,,mA1/azimuth_1_joint,mA1/azimuth_2_joint,mA1/azimuth_3_joint,mA1/azimuth_4_joint,2.5830872929516078,-2.5656340004316642,-0.03490658503988659,0.03490658503988659
2025/05/06 15:28:30.63636454,0,0,,mA1/azimuth_1_joint,mA1/azimuth_2_joint,mA1/azimuth_3_joint,mA1/azimuth_4_joint,2.5830872929516078,-2.5656340004316642,-0.03490658503988659,0.03490658503988659
2025/05/06 15:28:30.163040884,0,0,,mA1/azimuth_1_joint,mA1/azimuth_2_joint,mA1/azimuth_3_joint,mA1/azimuth_4_joint,2.5830872929516078,-2.5656340004316642,-0.03490658503988659,0.03490658503988659
2025/05/06 15:28:30.265272533,0,0,,mA1/azimuth_1_joint,mA1/azimuth_2_joint,mA1/azimuth_3_joint,mA1/azimuth_4_joint,2.5830872929516078,-2.5830872929516078,-0.03490658503988659,0.03490658503988659
2025/05/06 15:28:30.367305512,0,0,,mA1/azimuth_1_joint,mA1/azimuth_2_joint,mA1/azimuth_3_joint,mA1/azimuth_4_joint,2.5830872929516078,-2.5830872929516078,-0.03490658503988659,0.03490658503988659
2025/05/06 15:28:30.464883882,0,0,,mA1/azimuth_1_joint,mA1/azimuth_2_joint,mA1/azimuth_3_joint,mA1/azimuth_4_joint,2.600540585471551,-2.5830872929516078,-0.03490658503988659,0.03490658503988659
2025/05/06 15:28:30.563138243,0,0,,mA1/azimuth_1_joint,mA1/azimuth_2_joint,mA1/azimuth_3_joint,mA1/azimuth_4_joint,2.600540585471551,-2.5830872929516078,-0.03490658503988659,0.03490658503988659
2025/05/06 15:28:30.664036349,0,0,,mA1/azimuth_1_joint,mA1/azimuth_2_joint,mA1/azimuth_3_joint,mA1/azimuth_4_joint,2.600540585471551,-2.5830872929516078,-0.03490658503988659,0.03490658503988659
2025/05/06 15:28:30.763923881,0,0,,mA1/azimuth_1_joint,mA1/azimuth_2_joint,mA1/azimuth_3_joint,mA1/azimuth_4_joint,2.600540585471551,-2.5830872929516078,-0.03490658503988659,0.03490658503988659
