time,header_stamp_secs,header_stamp_nsecs,header_frame_id,wrench_force_x,wrench_force_y,wrench_force_z,wrench_torque_x,wrench_torque_y,wrench_torque_z
2025/04/05 15:42:02.927512067,1743860522,927285302,,-0.25843477799599684,0.44241274508361284,0.0,0.0,0.0,-0.5470144895115889
2025/04/05 15:42:03.1348166,1743860523,1077670,,-0.32469327362350975,2.205948550827729,0.0,0.0,0.0,-0.8306839930384099
2025/04/05 15:42:03.109300763,1743860523,109039356,,-0.5375528538135517,-1.302378933089697,0.0,0.0,0.0,-0.7235118269552107
2025/04/05 15:42:03.198655224,1743860523,198410735,,-0.4338634304079325,-1.0610932609846842,0.0,0.0,0.0,-1.6597260000304523
2025/04/05 15:42:03.300769621,1743860523,300532988,,-0.376349792639755,0.8875340890084527,0.0,0.0,0.0,-1.1439075138155739
2025/04/05 15:42:03.424489541,1743860523,424225349,,-0.43395938740082274,-1.321587492301176,0.0,0.0,0.0,-0.9720217185626261
2025/04/05 15:42:03.496929874,1743860523,496640707,,-0.34358964460861474,1.112890803421941,0.0,0.0,0.0,-1.0253188195229783
2025/04/05 15:42:03.597206971,1743860523,596946260,,-0.008741166548426826,0.49847882383652453,0.0,0.0,0.0,-1.0844338771237245
2025/04/05 15:42:03.697580063,1743860523,697340182,,-0.12785445029360964,-0.8315911322057403,0.0,0.0,0.0,-1.0905494792031667
2025/04/05 15:42:03.802150938,1743860523,801859657,,-0.05556313112730654,-0.26065592673031124,0.0,0.0,0.0,-1.0914021255068884
2025/04/05 15:42:03.901492523,1743860523,901024464,,-0.01049964357168176,0.6165201334913708,0.0,0.0,0.0,-1.377389119356565
2025/04/05 15:42:04.37700139,1743860524,35100130,,-0.21201640230372387,0.4545668148862795,0.0,0.0,0.0,-1.3315370107910978
2025/04/05 15:42:04.107794198,1743860524,106275185,,0.4131503806123243,1.797620788961392,0.0,0.0,0.0,-1.1302562877049505
2025/04/05 15:42:04.221793949,1743860524,220943604,,0.023671993236516725,-0.23663736497642707,0.0,0.0,0.0,-1.169817419858091
2025/04/05 15:42:04.428819598,1743860524,428287032,,10.250820433737047,-9.717839441855077,0.0,0.0,0.0,-1.5023139308585807
2025/04/05 15:42:04.475208531,1743860524,474916777,,29.823040244906103,-15.462397124494766,0.0,0.0,0.0,-4.6584465969988305
2025/04/05 15:42:04.523404124,1743860524,523152240,,36.14983784825888,-16.751146177112997,0.0,0.0,0.0,-5.781767304476313
2025/04/05 15:42:04.633465103,1743860524,632855907,,45.707106575967686,-19.115611404374494,0.0,0.0,0.0,-5.935311830647318
2025/04/05 15:42:04.701314364,1743860524,700858379,,57.47976426356965,-17.993903933608784,0.0,0.0,0.0,-6.3279314763815
2025/04/05 15:42:04.918546707,1743860524,918317914,,68.5593057875556,-17.43237706364697,0.0,0.0,0.0,-6.060274327059489
2025/04/05 15:42:05.84588647,1743860525,84328896,,86.00207562781509,-19.065670039549147,0.0,0.0,0.0,-6.366424127158899
2025/04/05 15:42:05.152853683,1743860525,152622326,,103.49756137563645,-18.493145342515046,0.0,0.0,0.0,-6.162119911981664
2025/04/05 15:42:05.222645075,1743860525,220603572,,111.1354457755128,-14.889228688223257,0.0,0.0,0.0,-5.9189145971892385
2025/04/05 15:42:05.269725759,1743860525,269455365,,118.47164116646385,-12.497478319944042,0.0,0.0,0.0,-5.6037488706097385
2025/04/05 15:42:05.316118157,1743860525,315836800,,121.19469370618359,-13.201401491836567,0.0,0.0,0.0,-5.5286566203386185
2025/04/05 15:42:05.399245999,1743860525,399007546,,121.52512888665758,-12.640150094450455,0.0,0.0,0.0,-4.688492267977642
2025/04/05 15:42:05.497918006,1743860525,497617683,,121.8871915982065,-15.06615840444289,0.0,0.0,0.0,-4.271279258607304
2025/04/05 15:42:05.598337430,1743860525,597965796,,122.15057155554157,-13.072987646948373,0.0,0.0,0.0,-3.75564974597277
2025/04/05 15:42:05.699925395,1743860525,699641195,,122.49701704067209,-12.290398027864631,0.0,0.0,0.0,-3.137313337543794
2025/04/05 15:42:05.830231481,1743860525,829950923,,122.86632373541968,-13.074928359091334,0.0,0.0,0.0,-2.679165700859215
2025/04/05 15:42:05.902004632,1743860525,901838222,,123.39432687818933,-13.020825812496662,0.0,0.0,0.0,-2.900769898063142
2025/04/05 15:42:06.1676327,1743860526,1451536,,124.15397958596728,-11.7070800999614,0.0,0.0,0.0,-0.05374036033022535
2025/04/05 15:42:06.99612590,1743860526,99127921,,124.76024383093502,-11.815459633840609,0.0,0.0,0.0,-1.1037329906967357
2025/04/05 15:42:06.198713533,1743860526,198444410,,124.97475146092039,-11.351074097313859,0.0,0.0,0.0,-0.30592689031632475
2025/04/05 15:42:06.297338986,1743860526,296839795,,125.47372375629811,-9.911554905004847,0.0,0.0,0.0,0.3147697106934298
2025/04/05 15:42:06.398257883,1743860526,398031653,,125.91766990443534,-9.151057543773376,0.0,0.0,0.0,-0.11782576041558558
2025/04/05 15:42:06.499485720,1743860526,499143095,,126.23996510814808,-6.933334881306757,0.0,0.0,0.0,2.620666612224075
2025/04/05 15:42:06.598148546,1743860526,597700875,,126.65371390998452,-9.247855725113276,0.0,0.0,0.0,1.3192294797600617
2025/04/05 15:42:06.701032965,1743860526,697654760,,126.74414570773243,-8.006813267921709,0.0,0.0,0.0,1.7401840156897104
2025/04/05 15:42:06.797070073,1743860526,796851142,,126.9769013101157,-8.27423765307866,0.0,0.0,0.0,1.355662793005498
2025/04/05 15:42:06.897946333,1743860526,897705221,,127.49182638674432,-5.76670377973412,0.0,0.0,0.0,4.256319280580781
2025/04/05 15:42:07.32440022,1743860527,31803927,,128.0416459322036,-6.733148567017403,0.0,0.0,0.0,3.889341778922567
2025/04/05 15:42:07.102299643,1743860527,102006408,,128.35406621025652,-3.7448017594375593,0.0,0.0,0.0,3.291937601093402
2025/04/05 15:42:07.199872953,1743860527,198505901,,128.81846404510242,-1.7652904790731263,0.0,0.0,0.0,5.069054727407942
2025/04/05 15:42:07.300641632,1743860527,299156554,,129.34232641430933,-1.8335606455453652,0.0,0.0,0.0,3.842059161493292
2025/04/05 15:42:07.397584877,1743860527,397337676,,129.87697081285495,-2.889068739375972,0.0,0.0,0.0,3.5141606070491975
2025/04/05 15:42:07.496427568,1743860527,496156415,,129.77674040831153,-4.759420701276545,0.0,0.0,0.0,4.022293896916931
2025/04/05 15:42:07.599536852,1743860527,599313926,,130.0673511618416,-3.111211716919519,0.0,0.0,0.0,5.950398206280305
2025/04/05 15:42:07.699937573,1743860527,699667164,,130.52882111751438,-4.130588525465565,0.0,0.0,0.0,5.655598202964947
2025/04/05 15:42:07.797811040,1743860527,797532597,,130.71978086061733,-4.215836803543854,0.0,0.0,0.0,6.285143171481719
2025/04/05 15:42:07.903538171,1743860527,903263120,,131.18112856012579,-3.7338878837957403,0.0,0.0,0.0,6.015215627099813
2025/04/05 15:42:07.998388719,1743860527,997700270,,131.2431549149783,-3.306095847583476,0.0,0.0,0.0,6.608021260617516
2025/04/05 15:42:08.99858968,1743860528,99087465,,131.60283857195637,-4.019935615755684,0.0,0.0,0.0,6.3537700370408325
2025/04/05 15:42:08.227425343,1743860528,227155975,,131.8388655722934,-1.1248903157186465,0.0,0.0,0.0,7.007713060639896
2025/04/05 15:42:08.299453460,1743860528,299187235,,132.22627528098948,-1.9471166369681692,0.0,0.0,0.0,6.173869795435889
2025/04/05 15:42:08.396513882,1743860528,396081399,,132.48302897405551,-1.8249519586671712,0.0,0.0,0.0,6.410629708777235
2025/04/05 15:42:08.497367134,1743860528,497110793,,132.90245092012105,-1.776648546971611,0.0,0.0,0.0,6.129533090555399
2025/04/05 15:42:08.598643406,1743860528,598022400,,132.9607259373239,-1.4257992224893923,0.0,0.0,0.0,7.548435448139733
2025/04/05 15:42:08.700532791,1743860528,700271443,,133.86818530689243,-0.5102003889738438,0.0,0.0,0.0,7.349020103647041
2025/04/05 15:42:08.797937901,1743860528,797672675,,134.24732896552746,1.4101974019947001,0.0,0.0,0.0,8.767958296378161
2025/04/05 15:42:08.903724009,1743860528,903468657,,134.64927392586458,3.197150495382714,0.0,0.0,0.0,7.712389946581297
2025/04/05 15:42:08.998792376,1743860528,998499756,,135.08940683294963,0.1886676604535733,0.0,0.0,0.0,7.549363900341449
2025/04/05 15:42:09.98334186,1743860529,96733237,,135.4541383984799,-1.5514933554381618,0.0,0.0,0.0,8.703445858175524
2025/04/05 15:42:09.199834548,1743860529,199594661,,135.81931212278548,-2.6361068922737325,0.0,0.0,0.0,7.8254723597663896
2025/04/05 15:42:09.299939212,1743860529,297917216,,136.12805694948435,0.4840635288062194,0.0,0.0,0.0,7.371025193850841
2025/04/05 15:42:09.427087124,1743860529,426828415,,136.41441272815294,-1.1748134466635283,0.0,0.0,0.0,7.226234053538901
2025/04/05 15:42:09.497455348,1743860529,497180439,,136.85530860508317,-1.329023560474135,0.0,0.0,0.0,7.901906198989757
2025/04/05 15:42:09.597126987,1743860529,596885868,,137.39696892162743,-3.187942838611574,0.0,0.0,0.0,7.771072247022314
2025/04/05 15:42:09.700252984,1743860529,700025471,,137.73560581482712,-1.8761015009839395,0.0,0.0,0.0,7.868824776227248
2025/04/05 15:42:09.805540864,1743860529,805259111,,138.37427875449822,-1.8560141694516208,0.0,0.0,0.0,7.547028238051518
2025/04/05 15:42:09.901968501,1743860529,901717962,,138.9333406939666,-0.07172784524718745,0.0,0.0,0.0,7.473655852739521
2025/04/05 15:42:09.998222195,1743860529,997142317,,139.52467389179475,-1.447618991041285,0.0,0.0,0.0,8.001480248721915
2025/04/05 15:42:10.98051039,1743860530,97789037,,140.58874772452887,-0.7295323157277898,0.0,0.0,0.0,7.869804560908958
2025/04/05 15:42:10.197604312,1743860530,197351519,,140.5456173671223,-0.31700293939335755,0.0,0.0,0.0,7.533593580094931
2025/04/05 15:42:10.298264342,1743860530,297996695,,141.13775901509734,-0.4227319281183939,0.0,0.0,0.0,7.4941942476746295
2025/04/05 15:42:10.398014340,1743860530,397846698,,141.7063681559435,-0.06722617542697806,0.0,0.0,0.0,7.479522428444601
2025/04/05 15:42:10.497874291,1743860530,497583531,,142.28658340567262,-0.11463316603843521,0.0,0.0,0.0,7.406734036793793
2025/04/05 15:42:10.622637098,1743860530,622345483,,142.3538867960516,-1.704129739100777,0.0,0.0,0.0,7.298582709925461
2025/04/05 15:42:10.696590676,1743860530,696368106,,143.38690942785433,-2.566892344573448,0.0,0.0,0.0,7.340006908740933
2025/04/05 15:42:10.797887198,1743860530,797665657,,143.9195255982632,-3.735074853847705,0.0,0.0,0.0,7.287706217268211
2025/04/05 15:42:10.901105218,1743860530,900805907,,144.50230288661766,-2.7618379629845746,0.0,0.0,0.0,7.308960334243834
2025/04/05 15:42:11.3810424,1743860531,3538142,,145.16977020195282,-2.1912466581306758,0.0,0.0,0.0,6.684754677942464
2025/04/05 15:42:11.96854367,1743860531,96591579,,145.8949934095442,-3.7380545475005733,0.0,0.0,0.0,7.008249330771025
2025/04/05 15:42:11.198463518,1743860531,196856689,,146.65903102800496,-1.5749185439960058,0.0,0.0,0.0,6.524759274164552
2025/04/05 15:42:11.297984813,1743860531,297831282,,147.86786882567526,-0.36732629795341887,0.0,0.0,0.0,6.641374806382519
2025/04/05 15:42:11.398028567,1743860531,397781946,,148.06317518320284,-2.7311383218298215,0.0,0.0,0.0,6.76849126022872
2025/04/05 15:42:11.500545591,1743860531,499906380,,148.7595280564732,-0.6920655091840675,0.0,0.0,0.0,6.553351462049745
2025/04/05 15:42:11.599010678,1743860531,598697705,,149.48037429830475,-0.5541219525428907,0.0,0.0,0.0,6.59953529544719
2025/04/05 15:42:11.697600034,1743860531,697336221,,150.21665471758092,-0.7619172677224804,0.0,0.0,0.0,6.317622581113386
2025/04/05 15:42:11.825169778,1743860531,824921791,,150.48855246007628,-0.6353340406287764,0.0,0.0,0.0,6.566547660265286
2025/04/05 15:42:11.901633551,1743860531,901405614,,151.7748508210194,-2.4483493421710305,0.0,0.0,0.0,6.355614898714474
2025/04/05 15:42:11.997670659,1743860531,997395866,,153.13652046794022,-1.4575514300114414,0.0,0.0,0.0,6.4247064073427165
2025/04/05 15:42:12.98107852,1743860532,97830885,,153.35731161670589,-3.1258706948859376,0.0,0.0,0.0,6.132575782121395
2025/04/05 15:42:12.199141234,1743860532,198927216,,154.1611546350637,-3.8713020588352114,0.0,0.0,0.0,6.217555893234894
2025/04/05 15:42:12.299368905,1743860532,299133386,,155.05197507474713,-0.7824036908857603,0.0,0.0,0.0,5.642427544214717
2025/04/05 15:42:12.396957274,1743860532,396696408,,155.25952814589058,-0.9774878184184014,0.0,0.0,0.0,5.797369630180694
2025/04/05 15:42:12.496899586,1743860532,496668268,,156.7595409615687,-2.750460596780049,0.0,0.0,0.0,5.885657935629487
2025/04/05 15:42:12.600781026,1743860532,600529032,,157.6361935859631,-3.4993628889828616,0.0,0.0,0.0,4.596780278694418
2025/04/05 15:42:12.702714038,1743860532,699506637,,158.4786523213039,-2.018367094201688,0.0,0.0,0.0,5.356352713359829
2025/04/05 15:42:12.807804404,1743860532,807531114,,159.4339244793427,-1.9885168766589285,0.0,0.0,0.0,4.258228230160383
2025/04/05 15:42:12.908294466,1743860532,908125131,,160.4685325615777,-2.9196308874322927,0.0,0.0,0.0,4.797923772114645
2025/04/05 15:42:13.33081324,1743860533,32819676,,161.35654660512273,-4.931818410031621,0.0,0.0,0.0,4.900475953426476
2025/04/05 15:42:13.97485166,1743860533,97251808,,162.41877496042963,-5.994554744561204,0.0,0.0,0.0,4.002653906944616
2025/04/05 15:42:13.199542069,1743860533,199189887,,163.42756322334952,-5.055206020054056,0.0,0.0,0.0,3.7792181947745327
2025/04/05 15:42:13.299991023,1743860533,299657898,,164.41615895901046,-4.035973636861632,0.0,0.0,0.0,4.629061233231366
2025/04/05 15:42:13.397901815,1743860533,397740771,,165.45008089542458,-3.791959788035621,0.0,0.0,0.0,3.687605983783887
2025/04/05 15:42:13.498015715,1743860533,497754301,,167.14320423839484,-4.604211495295113,0.0,0.0,0.0,3.8857984276557005
2025/04/05 15:42:13.607178921,1743860533,606781042,,167.53212417800881,-3.0359696220549437,0.0,0.0,0.0,4.457993650693259
2025/04/05 15:42:13.700720332,1743860533,700431119,,168.68518855540722,-2.710340359270101,0.0,0.0,0.0,4.528731046066002
2025/04/05 15:42:13.798851415,1743860533,798603725,,169.85618763775233,-2.6620570837155317,0.0,0.0,0.0,3.5943479995027747
2025/04/05 15:42:13.899440540,1743860533,899205337,,170.8693227321035,-0.9620539956007191,0.0,0.0,0.0,4.1884117762094855
2025/04/05 15:42:13.997487819,1743860533,997255073,,172.00051672653814,-1.8759395766857858,0.0,0.0,0.0,3.6541087080079095
2025/04/05 15:42:14.97210443,1743860534,97014238,,173.12437504891068,-1.8905232633040634,0.0,0.0,0.0,3.9541330655308595
2025/04/05 15:42:14.225398302,1743860534,225180438,,173.60051637285972,-1.9583360127743212,0.0,0.0,0.0,4.084022266479848
2025/04/05 15:42:14.300258054,1743860534,297684065,,175.46857038271997,-0.9288077709514548,0.0,0.0,0.0,3.993453712733883
2025/04/05 15:42:14.396850377,1743860534,396567899,,175.27376720060752,-1.2661867412755323,0.0,0.0,0.0,3.9146955878321377
2025/04/05 15:42:14.497040341,1743860534,496775997,,176.37493164278573,-1.0031599312902468,0.0,0.0,0.0,3.9587215790625563
2025/04/05 15:42:14.598683057,1743860534,598371004,,176.1276340252931,-2.546321725506689,0.0,0.0,0.0,3.15512038271707
2025/04/05 15:42:14.702422262,1743860534,701370041,,177.2103294177042,-4.853791067296313,0.0,0.0,0.0,3.502074716791597
2025/04/05 15:42:14.799912258,1743860534,799658504,,177.7010203467571,-3.1774134408783086,0.0,0.0,0.0,3.700642009076994
2025/04/05 15:42:14.900513562,1743860534,900212965,,178.07828836304776,-4.889980648510627,0.0,0.0,0.0,3.710948457253052
2025/04/05 15:42:14.998156144,1743860534,997465935,,178.3736271996807,-6.39360477069078,0.0,0.0,0.0,3.04080663574794
2025/04/05 15:42:15.99011782,1743860535,98690754,,178.76362993053542,-4.199582400657661,0.0,0.0,0.0,3.433073350465559
2025/04/05 15:42:15.201380635,1743860535,200442070,,179.1223678404998,-3.010701780842582,0.0,0.0,0.0,3.1184431467171483
2025/04/05 15:42:15.299207079,1743860535,298954168,,179.48534546930642,-2.141136439707224,0.0,0.0,0.0,3.3601357080179604
2025/04/05 15:42:15.427579782,1743860535,427352385,,179.9737184138899,-2.371250518746572,0.0,0.0,0.0,3.135252183732682
2025/04/05 15:42:15.498954170,1743860535,498622479,,180.24059835163732,-2.0855466638191342,0.0,0.0,0.0,3.336456433995213
2025/04/05 15:42:15.598821859,1743860535,598562980,,181.26916739836082,-2.73246431980611,0.0,0.0,0.0,3.3288659803863863
2025/04/05 15:42:15.698678661,1743860535,698166564,,180.9650133605794,-2.0620195993211983,0.0,0.0,0.0,3.355868110857918
2025/04/05 15:42:15.799170949,1743860535,798305100,,181.37404976437335,-2.162011707056494,0.0,0.0,0.0,3.3413168968132716
2025/04/05 15:42:15.902138383,1743860535,900482303,,181.75828769933972,-2.4357541243098986,0.0,0.0,0.0,3.288020238217141
2025/04/05 15:42:15.998604411,1743860535,998410059,,182.1276249736972,-1.4033698848351444,0.0,0.0,0.0,3.302263340924344
2025/04/05 15:42:16.97162195,1743860536,96914871,,182.58221613729563,-3.5169212604981768,0.0,0.0,0.0,3.2922656571873734
2025/04/05 15:42:16.197759565,1743860536,197494710,,182.90276516461756,-5.033481228622423,0.0,0.0,0.0,3.3151225794322148
2025/04/05 15:42:16.297857667,1743860536,297620129,,183.1402410491849,-5.528315712787668,0.0,0.0,0.0,3.279566334390136
2025/04/05 15:42:16.398648317,1743860536,398272820,,183.46426726053005,-4.930989120481543,0.0,0.0,0.0,3.2991978047258446
2025/04/05 15:42:16.498105426,1743860536,497928660,,183.79238079814496,-3.5287854728698216,0.0,0.0,0.0,3.246543177686179
2025/04/05 15:42:16.622987306,1743860536,622721783,,184.84102028409444,-3.4381961831551155,0.0,0.0,0.0,3.2225093768786763
2025/04/05 15:42:16.697240296,1743860536,696952771,,184.44331569491118,-4.815304279492683,0.0,0.0,0.0,3.215601376846021
2025/04/05 15:42:16.800673336,1743860536,800431565,,184.76429169238452,-1.9092150944230457,0.0,0.0,0.0,3.1839439559405385
2025/04/05 15:42:16.901735999,1743860536,899218330,,185.12301443871843,-3.1540293536380823,0.0,0.0,0.0,3.41050280086562
2025/04/05 15:42:16.997930187,1743860536,997707396,,185.39411896803995,-3.2365529252208183,0.0,0.0,0.0,3.454172299488321
2025/04/05 15:42:17.96713496,1743860537,96027378,,185.75821000521637,-4.688898347107896,0.0,0.0,0.0,3.275977152443561
2025/04/05 15:42:17.197647824,1743860537,197166110,,186.06809837996775,-5.540466600902353,0.0,0.0,0.0,3.5130376377428867
2025/04/05 15:42:17.299902465,1743860537,299657106,,186.3969592446722,-3.045331930810603,0.0,0.0,0.0,3.3275042182443073
2025/04/05 15:42:17.400591338,1743860537,400366212,,187.44529396924716,-2.4625725802427887,0.0,0.0,0.0,3.5329013082963527
2025/04/05 15:42:17.500459915,1743860537,497920924,,187.1060925078068,-0.49030119539996664,0.0,0.0,0.0,3.348871846596686
2025/04/05 15:42:17.597606333,1743860537,597359444,,187.44271623761801,-2.2632136630897284,0.0,0.0,0.0,3.2864862291997223
2025/04/05 15:42:17.698982531,1743860537,697195929,,187.72490858761483,-3.4065550323125597,0.0,0.0,0.0,3.882671867278067
2025/04/05 15:42:17.824412050,1743860537,824101282,,187.96729527046085,-3.308283198069932,0.0,0.0,0.0,3.6098402802438074
2025/04/05 15:42:17.902606105,1743860537,902373660,,188.2379424237268,-2.503766213425009,0.0,0.0,0.0,3.5406141218633094
2025/04/05 15:42:17.998746686,1743860537,998463672,,189.22958822094688,-2.3599401168505465,0.0,0.0,0.0,3.7328085007099796
2025/04/05 15:42:18.97847397,1743860538,97594606,,189.48315404113066,-2.326361820981788,0.0,0.0,0.0,3.643540327906967
2025/04/05 15:42:18.197524805,1743860538,196634136,,188.32008507037165,-1.7942724568367991,0.0,0.0,0.0,3.5049998551909174
2025/04/05 15:42:18.297054796,1743860538,296838876,,189.3057677282539,-2.281612286076377,0.0,0.0,0.0,3.481926189325744
2025/04/05 15:42:18.404310682,1743860538,401946073,,189.54705643000455,-2.4319699323957833,0.0,0.0,0.0,3.4276451045488057
2025/04/05 15:42:18.499775644,1743860538,499478859,,189.80879690097936,-2.070901496153196,0.0,0.0,0.0,3.7964833140584116
2025/04/05 15:42:18.599887735,1743860538,599645469,,190.14746419013903,-1.0517107023328611,0.0,0.0,0.0,3.568276992415904
2025/04/05 15:42:18.700247726,1743860538,699784284,,191.16723328257757,-0.18557970204084995,0.0,0.0,0.0,3.52098376030546
2025/04/05 15:42:18.798369242,1743860538,798121930,,190.72246372916,0.30120044045138106,0.0,0.0,0.0,3.4779854156085346
2025/04/05 15:42:18.899532092,1743860538,897774995,,190.98191654470997,-2.2194761852699143,0.0,0.0,0.0,3.4359838057256153
2025/04/05 15:42:19.26680745,1743860539,26438984,,191.32247485686344,-4.05141782545184,0.0,0.0,0.0,3.481161719989314
2025/04/05 15:42:19.97649482,1743860539,97177791,,192.28496067243012,-3.3363644025696577,0.0,0.0,0.0,3.571870343937544
2025/04/05 15:42:19.197857722,1743860539,197630858,,191.8001261736142,-3.139516205811866,0.0,0.0,0.0,3.4522945093571087
2025/04/05 15:42:19.298217221,1743860539,297513455,,192.06351409777662,-0.8659859043703193,0.0,0.0,0.0,3.44383207577559
2025/04/05 15:42:19.401695402,1743860539,401442216,,193.05666944573423,-1.3045465160232004,0.0,0.0,0.0,3.4071864793880224
2025/04/05 15:42:19.507283201,1743860539,506998870,,192.521323062612,-1.1188021193999815,0.0,0.0,0.0,3.4636810121580703
2025/04/05 15:42:19.598114190,1743860539,597913417,,192.6936764802304,-2.553189039177415,0.0,0.0,0.0,3.4429302814706437
2025/04/05 15:42:19.697488343,1743860539,697241357,,192.9501858239202,-0.586017914443768,0.0,0.0,0.0,3.407574821950469
2025/04/05 15:42:19.800119135,1743860539,799649961,,193.89742031790303,-0.9080340782016674,0.0,0.0,0.0,3.5156743773587458
2025/04/05 15:42:19.900199509,1743860539,899609683,,193.37874351450958,-0.0382942007653706,0.0,0.0,0.0,3.431598830718674
2025/04/05 15:42:20.1057233,1743860540,851832,,193.59470009723321,-1.025797068725066,0.0,0.0,0.0,3.4129291180834636
2025/04/05 15:42:20.99268632,1743860540,96895467,,193.82088998239396,-2.83533246573426,0.0,0.0,0.0,3.3847374297527004
2025/04/05 15:42:20.223935735,1743860540,223656721,,194.06986527290655,-2.6456933028711638,0.0,0.0,0.0,3.4828386179186515
2025/04/05 15:42:20.298177474,1743860540,297909834,,194.31984707088327,-2.457677674449989,0.0,0.0,0.0,3.4498445239415085
2025/04/05 15:42:20.398305156,1743860540,398078321,,194.62471780971907,-1.4299931740903218,0.0,0.0,0.0,3.364810171090721
2025/04/05 15:42:20.506374795,1743860540,506154850,,194.92655355041683,-3.026557034581998,0.0,0.0,0.0,3.3472523277284494
2025/04/05 15:42:20.600141146,1743860540,599862915,,195.88606533056856,-2.5438341180070663,0.0,0.0,0.0,3.3888255912796326
2025/04/05 15:42:20.697597180,1743860540,696968227,,195.27787939923405,-2.3825085024423553,0.0,0.0,0.0,3.345977496229716
2025/04/05 15:42:20.798439294,1743860540,798212807,,195.4704253267659,-1.9671636777938484,0.0,0.0,0.0,3.331847997609751
2025/04/05 15:42:20.901577636,1743860540,899562563,,195.6698800116994,-2.482561377651924,0.0,0.0,0.0,3.3086213413257757
2025/04/05 15:42:20.998956278,1743860540,998682025,,195.87877523981786,-2.281147363467684,0.0,0.0,0.0,3.4432392602541593
2025/04/05 15:42:21.97871796,1743860541,97654745,,196.05635976197547,-2.561163491199552,0.0,0.0,0.0,3.491804791724881
2025/04/05 15:42:21.197340968,1743860541,197103068,,196.22981126857502,-2.517304004504823,0.0,0.0,0.0,3.400325869921873
2025/04/05 15:42:21.297308161,1743860541,297156570,,196.46222376251075,-0.09981222987635707,0.0,0.0,0.0,3.369053978007371
2025/04/05 15:42:21.427941382,1743860541,427739247,,197.40752145964615,1.0762886667455245,0.0,0.0,0.0,3.407745599813863
2025/04/05 15:42:21.505638397,1743860541,505363948,,197.5735456773425,0.3878982409426409,0.0,0.0,0.0,3.3691032117208124
2025/04/05 15:42:21.599939680,1743860541,599701072,,197.79627365650316,1.380010225665393,0.0,0.0,0.0,3.310183039883507
2025/04/05 15:42:21.696764129,1743860541,696505385,,196.50956350610284,1.1543438830044583,0.0,0.0,0.0,3.296994212062508
2025/04/05 15:42:21.799194418,1743860541,798946119,,197.4598024977824,-1.3497106914737254,0.0,0.0,0.0,3.2776724110677757
2025/04/05 15:42:21.902331049,1743860541,901919613,,197.6232948281829,-0.07992295523080895,0.0,0.0,0.0,3.2572915427741735
2025/04/05 15:42:21.999531756,1743860541,999161202,,197.8123940929317,-2.668402284669929,0.0,0.0,0.0,3.242665984355144
2025/04/05 15:42:22.97775696,1743860542,97526640,,198.77736566093012,-2.314082012455954,0.0,0.0,0.0,3.21910657566585
2025/04/05 15:42:22.198369564,1743860542,197193940,,198.1709793720192,-2.4977848981143125,0.0,0.0,0.0,3.1918330667392265
2025/04/05 15:42:22.298227109,1743860542,297968727,,198.40679288183478,-0.06935897023872961,0.0,0.0,0.0,3.177682912329909
2025/04/05 15:42:22.400353525,1743860542,400085528,,198.69644302870705,-2.2841287270118187,0.0,0.0,0.0,3.1671582941489778
2025/04/05 15:42:22.504373432,1743860542,504093218,,198.77806717995668,-3.602099484403452,0.0,0.0,0.0,3.159039232456365
2025/04/05 15:42:22.626910091,1743860542,626646594,,199.6921610230109,-2.9571282563258983,0.0,0.0,0.0,3.154658481425796
2025/04/05 15:42:22.697535893,1743860542,697229587,,199.77541706720723,-0.9056432198778614,0.0,0.0,0.0,3.1380857565120213
2025/04/05 15:42:22.796372590,1743860542,796104992,,198.43804250276713,-3.4888793742724244,0.0,0.0,0.0,3.1424102663388407
2025/04/05 15:42:22.900994114,1743860542,900739145,,199.41196663656683,-1.2930631043942373,0.0,0.0,0.0,3.1451232281525465
2025/04/05 15:42:23.2117483,1743860543,1874492,,199.5613516827847,-2.1979243854976906,0.0,0.0,0.0,3.1223835134675615
2025/04/05 15:42:23.96992302,1743860543,96718896,,199.72470689273104,-2.1464595726381357,0.0,0.0,0.0,3.1376636999796728
2025/04/05 15:42:23.197965820,1743860543,197099676,,199.9254884586679,-0.45087047383880874,0.0,0.0,0.0,3.219351155563304
2025/04/05 15:42:23.297823775,1743860543,297615128,,200.14100270277467,-0.38971077627397666,0.0,0.0,0.0,3.193301852635308
2025/04/05 15:42:23.398313856,1743860543,398023268,,200.49062037625612,-2.7795072493259982,0.0,0.0,0.0,3.175390783361119
2025/04/05 15:42:23.501192784,1743860543,500926707,,200.54219979446682,-2.901583281150748,0.0,0.0,0.0,3.1607036841033733
2025/04/05 15:42:23.598625901,1743860543,598347668,,200.66117412136805,-0.26610227071881165,0.0,0.0,0.0,3.138778961574263
2025/04/05 15:42:23.697641470,1743860543,696119158,,200.83930773376466,-1.5025808480485177,0.0,0.0,0.0,3.108639357062756
2025/04/05 15:42:23.825594973,1743860543,823157609,,201.00798551088246,-1.0752564729967338,0.0,0.0,0.0,3.16609976724891
2025/04/05 15:42:23.897336790,1743860543,897082856,,201.14725915412515,-2.1538101568465895,0.0,0.0,0.0,3.1774281931952784
2025/04/05 15:42:23.999406182,1743860543,999164611,,201.33021208528032,-1.6256339077806676,0.0,0.0,0.0,3.17022388801945
2025/04/05 15:42:24.97680885,1743860544,97510095,,201.37680440735676,-1.9516258398716098,0.0,0.0,0.0,3.1031863076835458
2025/04/05 15:42:24.198083171,1743860544,197877024,,201.55249778572835,-0.31208259249145054,0.0,0.0,0.0,3.066432900770467
2025/04/05 15:42:24.299980146,1743860544,299753569,,201.68615907088937,-1.3391547419344536,0.0,0.0,0.0,3.0522856408658963
2025/04/05 15:42:24.400669584,1743860544,400299125,,202.6441150710586,0.41473981220774614,0.0,0.0,0.0,3.063151953051432
2025/04/05 15:42:24.504808961,1743860544,504600745,,202.82834934355606,0.026446606575498133,0.0,0.0,0.0,3.0488241360306376
2025/04/05 15:42:24.599453696,1743860544,599168577,,201.46892153465564,-0.41645050415590545,0.0,0.0,0.0,3.0237249036004545
2025/04/05 15:42:24.699301647,1743860544,699155751,,202.39690902255708,-0.4480463872643007,0.0,0.0,0.0,3.0061206160188267
2025/04/05 15:42:24.797165071,1743860544,796944404,,202.51022516405936,0.12108093799102071,0.0,0.0,0.0,2.9893733762891728
2025/04/05 15:42:24.900188993,1743860544,899921196,,202.6711250120639,-0.9934671042231614,0.0,0.0,0.0,2.9832380621509684
2025/04/05 15:42:25.25689764,1743860545,25408075,,202.82786109529343,-0.5634580478518963,0.0,0.0,0.0,2.947371535738802
2025/04/05 15:42:25.96690637,1743860545,96434091,,202.9697274469358,0.1386798274640475,0.0,0.0,0.0,2.9192203406153805
2025/04/05 15:42:25.199253355,1743860545,196774177,,203.09216388091045,-2.159385409718813,0.0,0.0,0.0,2.8500817114040524
2025/04/05 15:42:25.297044118,1743860545,296807629,,203.2009655489531,-0.8525126345936549,0.0,0.0,0.0,2.8667799968501257
2025/04/05 15:42:25.399442763,1743860545,399095715,,203.32425597247192,-1.392161709775775,0.0,0.0,0.0,2.8747290466496107
2025/04/05 15:42:25.500914553,1743860545,500681776,,203.57762356225044,-2.5607664842300224,0.0,0.0,0.0,2.74075314448733
2025/04/05 15:42:25.599632457,1743860545,599244159,,203.5680916009269,-3.3208225145886936,0.0,0.0,0.0,2.7553925699857884
2025/04/05 15:42:25.699399853,1743860545,699095929,,203.63861336451419,-2.5618569421127924,0.0,0.0,0.0,2.732604246886665
2025/04/05 15:42:25.797430747,1743860545,797196747,,204.60355413858883,-3.2491043946895504,0.0,0.0,0.0,2.580756123997002
2025/04/05 15:42:25.899837753,1743860545,899514881,,204.76433240476373,-1.2614712738508749,0.0,0.0,0.0,2.5985574018626165
2025/04/05 15:42:26.1869425,1743860546,1612122,,204.93358924554798,-0.19090745174231782,0.0,0.0,0.0,2.6574757286393504
2025/04/05 15:42:26.96483014,1743860546,96128515,,203.5457944384636,-0.5861366470277909,0.0,0.0,0.0,2.642729350551355
2025/04/05 15:42:26.226459302,1743860546,226160906,,204.44227305599352,0.3527880669677206,0.0,0.0,0.0,2.634509253970482
2025/04/05 15:42:26.297247269,1743860546,296997427,,204.51636329258065,1.0177463607079833,0.0,0.0,0.0,2.619481322604662
2025/04/05 15:42:26.397111328,1743860546,396841291,,204.65270878195216,0.32608730082995185,0.0,0.0,0.0,2.5890573971944626
2025/04/05 15:42:26.504713045,1743860546,502027146,,204.80474753188705,-0.16889081845184006,0.0,0.0,0.0,2.6004818056192267
2025/04/05 15:42:26.600362472,1743860546,600127120,,205.01800452418303,-0.5693340946887808,0.0,0.0,0.0,2.438419808006253
2025/04/05 15:42:26.700721414,1743860546,700467853,,205.0285582987322,-0.8696013844822629,0.0,0.0,0.0,2.4868566235237353
2025/04/05 15:42:26.808310335,1743860546,805155353,,205.12159040979935,-1.130368935266227,0.0,0.0,0.0,2.4487000536069075
2025/04/05 15:42:26.954657084,1743860546,953913811,,205.1998746875424,-1.0925782201034517,0.0,0.0,0.0,2.470781499548272
2025/04/05 15:42:27.50798439,1743860547,48006170,,206.17979263564294,0.2953817044105961,0.0,0.0,0.0,2.2340403280376817
2025/04/05 15:42:27.124581421,1743860547,123981396,,206.29223929591942,-0.3250387536629855,0.0,0.0,0.0,2.2239095574216634
2025/04/05 15:42:27.250607272,1743860547,250363238,,206.3524653514885,0.819852507162127,0.0,0.0,0.0,2.2720234108104544
2025/04/05 15:42:27.297499128,1743860547,297340195,,205.6327179415918,0.10182676854499029,0.0,0.0,0.0,2.2047372275504564
2025/04/05 15:42:27.423830781,1743860547,423553382,,205.72003102633767,-1.1238141515418618,0.0,0.0,0.0,2.1875789824225547
2025/04/05 15:42:27.501175406,1743860547,500951678,,205.84100328487614,-2.3204936964411416,0.0,0.0,0.0,2.1357969183106524
2025/04/05 15:42:27.601052468,1743860547,599493079,,205.97272769823888,-3.4617647093207213,0.0,0.0,0.0,2.082621330393748
2025/04/05 15:42:27.704433023,1743860547,704155630,,205.38206537432137,-1.761453838436099,0.0,0.0,0.0,2.0070092481704926
2025/04/05 15:42:27.811289626,1743860547,811086415,,207.137260861622,-1.7602138473920508,0.0,0.0,0.0,1.9989202387106189
2025/04/05 15:42:27.904511087,1743860547,904083574,,207.24569661086053,-3.4862761889869858,0.0,0.0,0.0,1.9218077821580086
2025/04/05 15:42:27.998601207,1743860547,998346720,,207.34461560547675,-2.674246577117184,0.0,0.0,0.0,1.9084626924802641
2025/04/05 15:42:28.99461328,1743860548,97869006,,207.4480337191037,-3.869146877225373,0.0,0.0,0.0,1.9241477377276073
2025/04/05 15:42:28.198389100,1743860548,198193470,,207.55480706234604,-2.150414626984674,0.0,0.0,0.0,1.9251942347316648
2025/04/05 15:42:28.297710099,1743860548,297496183,,207.74308282426455,-2.572528226622009,0.0,0.0,0.0,1.9114978882642772
2025/04/05 15:42:28.401548829,1743860548,401305053,,207.76211621602008,-2.03473431316769,0.0,0.0,0.0,1.9044347552000807
2025/04/05 15:42:28.502641083,1743860548,502369048,,206.11198611209576,-3.699239383806149,0.0,0.0,0.0,1.9527645181324718
2025/04/05 15:42:28.623476570,1743860548,623100898,,206.21142360492968,-2.7867896785192796,0.0,0.0,0.0,1.9910364771779185
2025/04/05 15:42:28.698198172,1743860548,697713446,,206.42695305027001,-2.293048988162524,0.0,0.0,0.0,2.0177891112784185
2025/04/05 15:42:28.798995822,1743860548,798741748,,206.50018921870577,-0.7416193390547176,0.0,0.0,0.0,2.047149460109669
2025/04/05 15:42:28.897324104,1743860548,897049207,,206.6123003937958,-1.5261436379289886,0.0,0.0,0.0,2.0838149082953987
2025/04/05 15:42:28.998530404,1743860548,997044805,,206.72552508785682,0.2737407801085942,0.0,0.0,0.0,2.136087798432469
2025/04/05 15:42:29.99626746,1743860549,99405330,,208.4808881626617,0.2761173999107519,0.0,0.0,0.0,2.128909886167107
2025/04/05 15:42:29.196996193,1743860549,196839820,,208.59185560994888,-0.6129954351563403,0.0,0.0,0.0,2.155258940473599
2025/04/05 15:42:29.300028205,1743860549,299788938,,208.736299391373,0.7528641534278204,0.0,0.0,0.0,2.1797073751159712
2025/04/05 15:42:29.400826456,1743860549,400598847,,208.86633069342764,-1.0143816920032174,0.0,0.0,0.0,2.1961554827681486
2025/04/05 15:42:29.500141603,1743860549,499803344,,208.992945822352,0.39617756755175126,0.0,0.0,0.0,2.2047639190557473
2025/04/05 15:42:29.598036250,1743860549,597752379,,209.10658233007493,-1.338604369987028,0.0,0.0,0.0,2.2085188593881893
2025/04/05 15:42:29.697700979,1743860549,697503290,,207.6650117448292,-0.9166347812313576,0.0,0.0,0.0,2.218909732257913
2025/04/05 15:42:29.826264138,1743860549,826002277,,207.6831606283771,-0.040619716489399216,0.0,0.0,0.0,2.222788440229114
2025/04/05 15:42:29.899206175,1743860549,898944521,,209.43864585121713,-0.03724702370276001,0.0,0.0,0.0,2.2161473673379763
2025/04/05 15:42:30.504281,1743860549,997742387,,207.82821458698072,-0.7168488284563173,0.0,0.0,0.0,2.2363130623585294
2025/04/05 15:42:30.96859177,1743860550,96602222,,207.90669705475582,-1.7137138843594186,0.0,0.0,0.0,2.2310066884676947
2025/04/05 15:42:30.197428550,1743860550,197151330,,208.83639272559856,-0.09272401333356795,0.0,0.0,0.0,2.2150694011770655
2025/04/05 15:42:30.332673656,1743860550,332120441,,209.76047608449335,-1.984998840028392,0.0,0.0,0.0,2.196147558049427
2025/04/05 15:42:30.461407377,1743860550,461126954,,209.11187456440496,-0.7491117714784662,0.0,0.0,0.0,2.1837546194975483
2025/04/05 15:42:30.547627748,1743860550,547362318,,210.0006818412659,-2.292227808963156,0.0,0.0,0.0,2.29392401768118
2025/04/05 15:42:30.625272398,1743860550,624703519,,209.335761568568,-0.8527179887062978,0.0,0.0,0.0,2.248819859905429
2025/04/05 15:42:30.728648926,1743860550,721225451,,209.4964324278825,-2.349125373838687,0.0,0.0,0.0,2.2143661192453683
2025/04/05 15:42:30.797740063,1743860550,797486141,,210.3529990628623,-0.053627983385765576,0.0,0.0,0.0,2.1980546640123473
2025/04/05 15:42:30.900965681,1743860550,900664460,,209.6460617023664,-0.65817194323685,0.0,0.0,0.0,2.2105596985582805
2025/04/05 15:42:31.29255137,1743860551,29000493,,209.74563654346605,0.5878761733342628,0.0,0.0,0.0,2.2098233341669435
2025/04/05 15:42:31.96865118,1743860551,96524273,,209.77825874147007,0.6107428503399137,0.0,0.0,0.0,2.2041434173920598
2025/04/05 15:42:31.196131200,1743860551,195873285,,209.86718828364485,0.02077473760944082,0.0,0.0,0.0,2.1960756242380066
2025/04/05 15:42:31.298300581,1743860551,298017802,,209.94425253982314,0.04915683077247068,0.0,0.0,0.0,2.1855219841256024
2025/04/05 15:42:31.401143215,1743860551,400195352,,210.01445359732318,-0.23522450297564362,0.0,0.0,0.0,2.1792892540097193
2025/04/05 15:42:31.498901831,1743860551,498626880,,210.18392462011667,-0.9546711826359394,0.0,0.0,0.0,2.129912518029211
2025/04/05 15:42:31.596731432,1743860551,596491455,,210.20002982316936,-1.0064466786453141,0.0,0.0,0.0,2.088234083190551
2025/04/05 15:42:31.697339594,1743860551,697082341,,210.24976393688956,0.31469968613497434,0.0,0.0,0.0,2.0311471275963155
2025/04/05 15:42:31.811253957,1743860551,809803046,,210.32588247328985,1.0587164665794795,0.0,0.0,0.0,1.9801696604086967
2025/04/05 15:42:31.900875644,1743860551,900034777,,210.39675448183078,-0.23937246197164552,0.0,0.0,0.0,1.9155369685330912
2025/04/05 15:42:31.997657832,1743860551,996954639,,210.51658307855104,-1.0964331897099298,0.0,0.0,0.0,2.024163018923453
2025/04/05 15:42:32.97845729,1743860552,97635764,,210.6478497383693,-2.640793866996514,0.0,0.0,0.0,1.99450123540214
2025/04/05 15:42:32.225055641,1743860552,224858321,,210.85239853530123,0.8249406153526818,0.0,0.0,0.0,1.9047228934784766
2025/04/05 15:42:32.299287385,1743860552,299084423,,210.87814225685574,0.1830912006001364,0.0,0.0,0.0,1.9265308978820734
2025/04/05 15:42:32.402705948,1743860552,402455145,,210.9331686394007,-0.1692884209885817,0.0,0.0,0.0,1.718185329980214
2025/04/05 15:42:32.496940496,1743860552,496705066,,210.13284863293183,-0.6570967359123309,0.0,0.0,0.0,1.805756191369036
2025/04/05 15:42:32.596257166,1743860552,596003629,,210.16022443765786,1.5775259990932762,0.0,0.0,0.0,1.8549016406804786
2025/04/05 15:42:32.696926617,1743860552,696668414,,210.29492251508051,0.08580119892125765,0.0,0.0,0.0,1.8343828663331756
2025/04/05 15:42:32.798617304,1743860552,798368604,,212.0414554233292,-0.8605406440631187,0.0,0.0,0.0,1.8301991454897393
2025/04/05 15:42:32.900701402,1743860552,900459731,,212.06933453125546,0.3572363428550346,0.0,0.0,0.0,1.8018077529304806
2025/04/05 15:42:32.998530747,1743860552,997837082,,212.12057842408808,-1.7678864938394185,0.0,0.0,0.0,1.7760441115375538
2025/04/05 15:42:33.100150501,1743860553,99895166,,212.1876685066028,-0.24062229768511184,0.0,0.0,0.0,1.7516652149669594
2025/04/05 15:42:33.200881579,1743860553,200632859,,212.25794576256556,-2.1464195374433563,0.0,0.0,0.0,1.728795408086691
2025/04/05 15:42:33.305340383,1743860553,305159932,,212.33258506034454,-0.4513488297316542,0.0,0.0,0.0,1.7089926099961494
2025/04/05 15:42:33.428672310,1743860553,428410119,,212.4446200017313,-2.238091898502953,0.0,0.0,0.0,1.700042868623069
2025/04/05 15:42:33.498858914,1743860553,497323285,,212.57890656193473,-0.4524568029602207,0.0,0.0,0.0,1.6839073363233985
2025/04/05 15:42:33.601232201,1743860553,599411747,,211.78056911208665,-2.287604562147826,0.0,0.0,0.0,1.6895221268236142
2025/04/05 15:42:33.700349450,1743860553,700177354,,211.89473934444646,-3.2283992693240062,0.0,0.0,0.0,1.6710204811100615
2025/04/05 15:42:33.798897193,1743860553,798705423,,211.92963259209262,-0.4335880634314605,0.0,0.0,0.0,1.6253105855955146
2025/04/05 15:42:33.897643044,1743860553,896884716,,212.09280620076737,-0.6629233954036825,0.0,0.0,0.0,1.6312560705105714
2025/04/05 15:42:33.996640244,1743860553,996427960,,212.10624244485683,-0.6087006837967981,0.0,0.0,0.0,1.5747859271396072
2025/04/05 15:42:34.96479541,1743860554,95883692,,212.13648550898415,-0.8176985770804215,0.0,0.0,0.0,1.5875007350620283
2025/04/05 15:42:34.201820171,1743860554,201583697,,212.14414154714132,-0.7426776274285376,0.0,0.0,0.0,1.5578674944817419
2025/04/05 15:42:34.302666298,1743860554,301661138,,212.2072508572349,-2.4778216016572485,0.0,0.0,0.0,1.6008266983118815
2025/04/05 15:42:34.399248333,1743860554,398320660,,212.2865568982075,-0.07637881712265204,0.0,0.0,0.0,1.563145504970586
2025/04/05 15:42:34.498560702,1743860554,498310368,,211.57412942137876,-2.118148407370308,0.0,0.0,0.0,1.5863770677727107
2025/04/05 15:42:34.624667610,1743860554,624380197,,211.6214690290605,-1.0024061724221225,0.0,0.0,0.0,1.5786981930690174
2025/04/05 15:42:34.696414096,1743860554,696234542,,213.37002983721283,-0.2898497920539836,0.0,0.0,0.0,1.5794516540299521
2025/04/05 15:42:34.797022454,1743860554,796851494,,213.39313565298016,-1.9839818975951076,0.0,0.0,0.0,1.571536370386511
2025/04/05 15:42:34.897884231,1743860554,897625042,,213.46945256140316,-0.18936918406572018,0.0,0.0,0.0,1.5810253305116415
2025/04/05 15:42:34.996835206,1743860554,996564324,,213.53930280284817,-1.9063053388682931,0.0,0.0,0.0,1.5949974297096723
2025/04/05 15:42:35.97264876,1743860555,97015668,,213.57598197456036,-0.13055895514233523,0.0,0.0,0.0,1.5963355202540175
2025/04/05 15:42:35.200366788,1743860555,200118886,,212.86582669383156,-0.06573595504316748,0.0,0.0,0.0,1.599167498149407
2025/04/05 15:42:35.301264383,1743860555,300250231,,212.91316630420562,-2.1441204242044654,0.0,0.0,0.0,1.609691998867655
2025/04/05 15:42:35.401809284,1743860555,397974844,,212.9406184067717,0.1791864856341457,0.0,0.0,0.0,1.656826211125848
2025/04/05 15:42:35.500655655,1743860555,498800636,,212.14632251045052,-1.980741858649254,0.0,0.0,0.0,1.6091860344207074
2025/04/05 15:42:35.599117640,1743860555,598488633,,213.89544808086458,-1.978277842155699,0.0,0.0,0.0,1.6051526108446443
2025/04/05 15:42:35.704095573,1743860555,701611367,,213.97432709193203,-1.2135312457138097,0.0,0.0,0.0,1.6199045104300587
2025/04/05 15:42:35.829351353,1743860555,829151168,,214.04429923898562,-1.0589792922830743,0.0,0.0,0.0,1.6213237161702059
2025/04/05 15:42:35.897840842,1743860555,897423736,,214.21596625376287,-1.8063961597288283,0.0,0.0,0.0,1.636478242736729
2025/04/05 15:42:35.998322597,1743860555,996646891,,213.39687230396484,-1.3673814083976095,0.0,0.0,0.0,1.644865468093797
2025/04/05 15:42:36.97408373,1743860556,97181223,,213.43342927045595,-1.657968618398118,0.0,0.0,0.0,1.698454886458267
2025/04/05 15:42:36.197207611,1743860556,196516893,,213.4735703240829,1.4842028190657948,0.0,0.0,0.0,1.8279344587722033
2025/04/05 15:42:36.297435897,1743860556,297192329,,213.55119837294782,2.3289883556853237,0.0,0.0,0.0,1.7906549186175909
2025/04/05 15:42:36.397529632,1743860556,397277027,,213.60668198167875,2.9912017392528885,0.0,0.0,0.0,2.142092344355623
2025/04/05 15:42:36.500665012,1743860556,499446399,,213.62876563155157,3.3223440558304653,0.0,0.0,0.0,2.2143444316257797
2025/04/05 15:42:36.597948736,1743860556,597248297,,213.76163381674095,3.1811037461440836,0.0,0.0,0.0,2.0052538065976804
2025/04/05 15:42:36.701718047,1743860556,699446277,,213.04844370880113,3.2210684668091365,0.0,0.0,0.0,1.8823948113782447
2025/04/05 15:42:36.798442677,1743860556,798169237,,214.7975690419725,3.225710063702098,0.0,0.0,0.0,1.8788523395834391
2025/04/05 15:42:36.899728389,1743860556,899472956,,214.79912464227414,2.9527671397286044,0.0,0.0,0.0,1.8938962567423674
2025/04/05 15:42:37.23743430,1743860557,23506817,,214.83154863705096,-0.1474419485767519,0.0,0.0,0.0,1.8777875440414697
2025/04/05 15:42:37.98226157,1743860557,97926949,,214.06147201851743,-2.2144657017392206,0.0,0.0,0.0,1.854162180012898
2025/04/05 15:42:37.198810023,1743860557,198503365,,214.1444385375372,-3.305537510015972,0.0,0.0,0.0,1.8441662327639599
2025/04/05 15:42:37.296088743,1743860557,295810211,,214.20847766371864,-0.49170296179481776,0.0,0.0,0.0,1.8171073373420645
2025/04/05 15:42:37.397657124,1743860557,397391364,,214.28830254145458,-0.7649717902417995,0.0,0.0,0.0,1.8152238794001574
2025/04/05 15:42:37.499716805,1743860557,499443624,,214.33657237126818,-0.6973080376849288,0.0,0.0,0.0,1.818966472661499
2025/04/05 15:42:37.598330807,1743860557,598045026,,214.38028223707673,-0.8831061113467533,0.0,0.0,0.0,1.810984020150725
2025/04/05 15:42:37.698656340,1743860557,698304311,,214.50672956034043,-0.747016463983568,0.0,0.0,0.0,1.7944911036303544
2025/04/05 15:42:37.798946551,1743860557,798700963,,214.4498275268637,-2.364831213416805,0.0,0.0,0.0,1.7787556998857397
2025/04/05 15:42:37.898224635,1743860557,897889509,,214.46899780403868,0.18117387329659207,0.0,0.0,0.0,1.7879961256329162
2025/04/05 15:42:37.997461429,1743860557,996942455,,214.5082548203449,-0.13157956189330094,0.0,0.0,0.0,1.7889871060471432
2025/04/05 15:42:38.98861731,1743860558,98650995,,214.59479001433326,-0.15696564478790676,0.0,0.0,0.0,1.7395932053234093
2025/04/05 15:42:38.222635620,1743860558,222399823,,214.66444200704305,-0.3844833804594707,0.0,0.0,0.0,1.7677916256255437
2025/04/05 15:42:38.298083354,1743860558,297289350,,214.7377388301112,-0.32355316520745164,0.0,0.0,0.0,1.7403032274801862
2025/04/05 15:42:38.402046163,1743860558,401439412,,214.84561035038905,-2.0682542267796937,0.0,0.0,0.0,1.7540992071617414
2025/04/05 15:42:38.498467728,1743860558,498200268,,214.92994918425063,0.35102685536400136,0.0,0.0,0.0,1.7348889807192938
2025/04/05 15:42:38.601354525,1743860558,601086770,,214.98724727466626,-0.12172467401503123,0.0,0.0,0.0,1.7358600699903177
2025/04/05 15:42:38.697452721,1743860558,696921045,,215.1318747442423,-0.09902570030057589,0.0,0.0,0.0,1.7093026281512662
2025/04/05 15:42:38.798849046,1743860558,796536497,,215.07878522759,-1.9982484079766387,0.0,0.0,0.0,1.729622425213891
2025/04/05 15:42:38.903604372,1743860558,903241039,,215.08793603849068,-0.09243729443061482,0.0,0.0,0.0,1.7026194762699398
2025/04/05 15:42:39.85695,1743860558,999570924,,215.9370598537185,-1.686813810883159,0.0,0.0,0.0,1.701515832158539
2025/04/05 15:42:39.100710668,1743860559,100408995,,215.97029208689793,-2.830200209740326,0.0,0.0,0.0,1.704639825651076
2025/04/05 15:42:39.197158227,1743860559,196928199,,215.24589232815367,-0.42556983603316284,0.0,0.0,0.0,1.719713834470576
2025/04/05 15:42:39.298822450,1743860559,297352466,,215.249933844824,-0.2642260797007179,0.0,0.0,0.0,1.7154676594559692
2025/04/05 15:42:39.428408417,1743860559,428182841,,214.47412279833657,-1.5418596047734412,0.0,0.0,0.0,1.7245519733416115
2025/04/05 15:42:39.502840377,1743860559,502613200,,216.22323263754276,-1.5377413136668407,0.0,0.0,0.0,1.7217925875390139
2025/04/05 15:42:39.600914082,1743860559,600650931,,216.27025196068612,0.4539632726394172,0.0,0.0,0.0,1.7153034139679386
2025/04/05 15:42:39.700197075,1743860559,699594080,,216.32137387671776,-1.1013683516964885,0.0,0.0,0.0,1.7067868116452596
2025/04/05 15:42:39.797895177,1743860559,797637219,,215.58128013898528,0.45327622612490415,0.0,0.0,0.0,1.7128900066464423
2025/04/05 15:42:39.900193015,1743860559,899943098,,215.71152556107938,0.4746271394664529,0.0,0.0,0.0,1.7757920871431943
2025/04/05 15:42:40.1057354,1743860560,792795,,215.71152562504204,-1.4820426347101676,0.0,0.0,0.0,1.7965919070741738
2025/04/05 15:42:40.96747286,1743860560,96360405,,215.71213561081925,0.387332637291998,0.0,0.0,0.0,1.847063108867308
2025/04/05 15:42:40.198305236,1743860560,197820752,,215.75073604124822,-1.2637970547622799,0.0,0.0,0.0,1.8307864692103606
2025/04/05 15:42:40.299585547,1743860560,299403355,,215.7874496679795,0.44891364790892346,0.0,0.0,0.0,1.8558395193400008
2025/04/05 15:42:40.396987517,1743860560,396738639,,215.8142384610802,-2.4833873229438086,0.0,0.0,0.0,1.8355690661936757
2025/04/05 15:42:40.498057955,1743860560,497779451,,215.87388946774172,-0.20516082564633664,0.0,0.0,0.0,1.8166533390659745
2025/04/05 15:42:40.624646018,1743860560,624474186,,215.90495638439972,-1.7396241808009882,0.0,0.0,0.0,1.9593337501779877
2025/04/05 15:42:40.697649324,1743860560,697373246,,216.0737559878632,0.40013309960513965,0.0,0.0,0.0,1.9460250450781529
2025/04/05 15:42:40.796906699,1743860560,796655539,,216.06089900894892,-2.2831726673827832,0.0,0.0,0.0,1.886883318517378
2025/04/05 15:42:40.900846877,1743860560,900611187,,216.11731326299434,0.17902012294679087,0.0,0.0,0.0,1.8675405811486332
2025/04/05 15:42:41.585274,1743860561,378829,,216.14325561823648,-1.4789838230380576,0.0,0.0,0.0,2.036524967898241
2025/04/05 15:42:41.97307256,1743860561,96201587,,216.21054362878118,0.8044419201900901,0.0,0.0,0.0,2.060648545453534
2025/04/05 15:42:41.197306147,1743860561,197032407,,216.24279996873398,-1.064082373877069,0.0,0.0,0.0,2.1003844065000727
2025/04/05 15:42:41.300997949,1743860561,299665848,,216.35048847410957,1.9719879295232412,0.0,0.0,0.0,1.926590955243474
2025/04/05 15:42:41.399449229,1743860561,399205668,,217.2237090709957,-0.2885367916395203,0.0,0.0,0.0,2.052421513323732
2025/04/05 15:42:41.502289185,1743860561,502038514,,217.25956450558823,-1.5682352998911255,0.0,0.0,0.0,2.00827386505869
2025/04/05 15:42:41.596922204,1743860561,596706223,,216.49932442490046,-1.2606090859044834,0.0,0.0,0.0,1.9215176726673133
2025/04/05 15:42:41.698046525,1743860561,697743180,,216.49560138934766,0.7466372697962929,0.0,0.0,0.0,1.904880656495722
2025/04/05 15:42:41.831341838,1743860561,829953806,,216.54038064918592,-1.0244928556678488,0.0,0.0,0.0,2.0068686600401033
2025/04/05 15:42:41.903306190,1743860561,902948323,,216.56051207736084,0.9604026412435998,0.0,0.0,0.0,2.0845398828342816
2025/04/05 15:42:41.999383460,1743860561,999128954,,216.64334127703222,-1.9875258862422474,0.0,0.0,0.0,2.026865022673476
2025/04/05 15:42:42.98210091,1743860562,97958821,,217.4994195583809,0.36590332273940485,0.0,0.0,0.0,2.010867970270895
2025/04/05 15:42:42.198633850,1743860562,198384979,,217.51552480699496,1.6561954319551822,0.0,0.0,0.0,1.9589022546591328
2025/04/05 15:42:42.303580814,1743860562,302573423,,217.5585941259078,-0.1349434561816114,0.0,0.0,0.0,1.9716899334294147
2025/04/05 15:42:42.398009022,1743860562,397816138,,216.75703867643196,-0.5495233096876254,0.0,0.0,0.0,1.9741790072585133
2025/04/05 15:42:42.511088343,1743860562,510756745,,216.8146575837887,2.1879527453639787,0.0,0.0,0.0,2.0264290913043723
2025/04/05 15:42:42.600235140,1743860562,599727031,,217.71902090095813,-0.2003367218413905,0.0,0.0,0.0,2.0157936746164378
2025/04/05 15:42:42.701371358,1743860562,700495801,,217.79234865038515,-1.6607060828095648,0.0,0.0,0.0,1.996406146754812
2025/04/05 15:42:42.800731406,1743860562,800225073,,217.81589638709124,0.14977856377355625,0.0,0.0,0.0,2.0100701275701245
2025/04/05 15:42:42.899443888,1743860562,899175774,,216.18144453255627,0.4496590784455185,0.0,0.0,0.0,2.0253673253039848
2025/04/05 15:42:43.28225689,1743860563,27996795,,217.93053946299034,0.45611675468507057,0.0,0.0,0.0,2.0234922142197327
2025/04/05 15:42:43.98394161,1743860563,98151948,,217.94065099042695,-1.0035631358838548,0.0,0.0,0.0,2.0389922750420566
2025/04/05 15:42:43.200344378,1743860563,198215042,,217.95549043761156,0.7064553989455031,0.0,0.0,0.0,2.041645018476826
2025/04/05 15:42:43.302640708,1743860563,300580175,,217.12919757971835,0.1929755630123433,0.0,0.0,0.0,2.0406139864196415
2025/04/05 15:42:43.398085404,1743860563,397826176,,217.17856559975655,-1.498593602221419,0.0,0.0,0.0,2.0313241923576664
2025/04/05 15:42:43.500008923,1743860563,499726863,,217.198267793732,0.8711994063572631,0.0,0.0,0.0,2.1213416651697545
2025/04/05 15:42:43.600133273,1743860563,599871275,,217.32371093987257,-0.9797267588629486,0.0,0.0,0.0,2.1089051252420403
2025/04/05 15:42:43.709906842,1743860563,708887289,,217.31747312664908,2.2235730285966553,0.0,0.0,0.0,2.0815057605260736
2025/04/05 15:42:43.801184959,1743860563,799744850,,217.3158259018786,0.05586470280794931,0.0,0.0,0.0,2.068122291867791
2025/04/05 15:42:43.905948620,1743860563,905680000,,217.3414175360095,1.7027767746043492,0.0,0.0,0.0,2.1330915245060997
2025/04/05 15:42:44.3747794,1743860564,2917754,,219.09049294397732,1.7099152580244705,0.0,0.0,0.0,2.1314283255303117
2025/04/05 15:42:44.97794008,1743860564,97209204,,218.2340537778934,-0.3375272516783956,0.0,0.0,0.0,2.111473200426201
2025/04/05 15:42:44.226650765,1743860564,226412157,,217.47289777895213,-0.7138366641714249,0.0,0.0,0.0,2.049632207961177
2025/04/05 15:42:44.298512847,1743860564,296928201,,217.5040265591495,2.0929551529419324,0.0,0.0,0.0,2.0555131491016243
2025/04/05 15:42:44.397839448,1743860564,397278592,,217.51625689415707,-0.19748293712953824,0.0,0.0,0.0,2.0527101937909977
2025/04/05 15:42:44.502616472,1743860564,501334177,,217.53352116475537,1.3978523993495695,0.0,0.0,0.0,2.0573583445689136
2025/04/05 15:42:44.606888910,1743860564,606600214,,217.543068421199,-0.724092714109185,0.0,0.0,0.0,2.0456590986979326
2025/04/05 15:42:44.702320420,1743860564,702078604,,218.4524493530567,1.0854270924320768,0.0,0.0,0.0,2.0241647132626674
2025/04/05 15:42:44.802636204,1743860564,802477043,,218.55545591133182,2.0583173785201074,0.0,0.0,0.0,2.0224547211261075
2025/04/05 15:42:44.902859504,1743860564,902161654,,218.529239167957,-0.004489918698139417,0.0,0.0,0.0,2.018799191957571
2025/04/05 15:42:44.999841303,1743860564,999552507,,216.92898027858627,-0.6394382121005604,0.0,0.0,0.0,2.016941959360161
2025/04/05 15:42:45.105146864,1743860565,104102889,,218.67807514822306,-0.6327206705258851,0.0,0.0,0.0,2.0154478813582593
2025/04/05 15:42:45.198807708,1743860565,198343719,,218.65256000661765,0.8041052030270253,0.0,0.0,0.0,2.005592641166983
2025/04/05 15:42:45.297223124,1743860565,296981899,,217.77688399669591,0.6941281098320006,0.0,0.0,0.0,2.001455009535822
2025/04/05 15:42:45.424536186,1743860565,424289694,,218.67237129752405,-1.2253149145705908,0.0,0.0,0.0,1.962693240399074
2025/04/05 15:42:45.500811448,1743860565,500565565,,218.70357793610702,-2.348923531747322,0.0,0.0,0.0,1.9783156578257972
2025/04/05 15:42:45.600023035,1743860565,599784281,,217.8723256536279,-1.457990000956635,0.0,0.0,0.0,1.99110107804124
2025/04/05 15:42:45.697374106,1743860565,697100097,,217.99764444457745,0.6929483491284585,0.0,0.0,0.0,1.9387849128420824
2025/04/05 15:42:45.799160657,1743860565,798317870,,217.99270319245375,-0.9866700893840383,0.0,0.0,0.0,1.988478339175507
2025/04/05 15:42:45.900945915,1743860565,900691115,,217.99714133613986,1.0883520985352533,0.0,0.0,0.0,2.054429639449621
2025/04/05 15:42:46.5590334,1743860566,4922156,,218.00058808107877,-1.7203849577534676,0.0,0.0,0.0,2.054053657893562
2025/04/05 15:42:46.99477779,1743860566,99217630,,218.02948892533254,0.597479044402031,0.0,0.0,0.0,2.0460181015556556
2025/04/05 15:42:46.199036603,1743860566,198743928,,218.03879223121953,-1.004745577652397,0.0,0.0,0.0,2.043888160293397
2025/04/05 15:42:46.300230369,1743860566,299079461,,218.07971109828355,1.0981452518659276,0.0,0.0,0.0,2.032290197178717
2025/04/05 15:42:46.401163752,1743860566,400947658,,218.95585996027194,-0.67849989705817,0.0,0.0,0.0,2.0420681153307383
2025/04/05 15:42:46.510951567,1743860566,510657446,,218.97806551330444,-1.6663516351506924,0.0,0.0,0.0,2.0307638120787765
2025/04/05 15:42:46.631450616,1743860566,631219818,,219.01457680368878,0.40540872132838895,0.0,0.0,0.0,2.017151735027848
2025/04/05 15:42:46.698633404,1743860566,698367941,,219.13358174545584,-0.8344128987560779,0.0,0.0,0.0,2.012809849359719
2025/04/05 15:42:46.796972612,1743860566,796719870,,218.24904484571462,-0.4666294232621895,0.0,0.0,0.0,2.011414947888023
2025/04/05 15:42:46.899640231,1743860566,899241489,,219.1332309199131,1.560612339467705,0.0,0.0,0.0,2.0600160630907762
2025/04/05 15:42:46.998502161,1743860566,998232864,,219.15020556065878,2.694799188125094,0.0,0.0,0.0,2.0639198033829067
2025/04/05 15:42:47.97610283,1743860567,97344513,,218.37896920888426,1.8975713080944252,0.0,0.0,0.0,2.0429755793990694
2025/04/05 15:42:47.197612775,1743860567,197374028,,218.36126289614964,-0.24198864722019175,0.0,0.0,0.0,2.0372917898162815
2025/04/05 15:42:47.298757713,1743860567,297414197,,218.35166982879338,1.4766954336623743,0.0,0.0,0.0,2.055228641669743
2025/04/05 15:42:47.405452123,1743860567,405144843,,218.3646028644099,-0.5753123717635662,0.0,0.0,0.0,2.0208371177838487
2025/04/05 15:42:47.500913895,1743860567,500736361,,217.53634253826573,2.2784188341225637,0.0,0.0,0.0,2.0187907928017843
2025/04/05 15:42:47.602105872,1743860567,601847008,,219.285437307343,2.2856771970847083,0.0,0.0,0.0,2.017666107615259
2025/04/05 15:42:47.701844095,1743860567,701593592,,219.3817487054486,0.237930080131452,0.0,0.0,0.0,2.018089529351011
2025/04/05 15:42:47.824270079,1743860567,823972621,,218.45612506188175,0.17522736406223055,0.0,0.0,0.0,2.0027687314868436
2025/04/05 15:42:47.905237805,1743860567,905011972,,218.47543303277686,1.665682251398299,0.0,0.0,0.0,2.0081510983996993
2025/04/05 15:42:47.997881798,1743860567,997380313,,218.47679043999872,-0.5731028595327299,0.0,0.0,0.0,1.9358405741341667
2025/04/05 15:42:48.97312121,1743860568,97055216,,217.65260215217157,1.7968048447548748,0.0,0.0,0.0,1.896245031077674
2025/04/05 15:42:48.199537198,1743860568,199286021,,219.40547953919713,2.1126553679494013,0.0,0.0,0.0,1.930897461634236
2025/04/05 15:42:48.298039547,1743860568,297825514,,218.65449699376455,1.296575022935391,0.0,0.0,0.0,1.9618895476930016
2025/04/05 15:42:48.397402600,1743860568,397161270,,217.72373369260285,-2.1232260920286397,0.0,0.0,0.0,1.9259277358364242
2025/04/05 15:42:48.503176638,1743860568,502505880,,219.4728286130411,-2.1167257606803176,0.0,0.0,0.0,1.9248960061333074
2025/04/05 15:42:48.599816219,1743860568,599618398,,219.50488654993336,-0.12332244194177283,0.0,0.0,0.0,1.9413614623475657
2025/04/05 15:42:48.703224909,1743860568,703022368,,218.69296035150066,0.5333175782775426,0.0,0.0,0.0,1.9517763632779457
2025/04/05 15:42:48.799145499,1743860568,798848226,,218.74374676320585,-1.1240589848225297,0.0,0.0,0.0,1.9988402632515212
2025/04/05 15:42:48.901150726,1743860568,900884596,,218.76168238721564,1.005489785863864,0.0,0.0,0.0,2.0528349411756754
2025/04/05 15:42:49.25943006,1743860569,25697888,,218.82279355406894,-1.7522250977057383,0.0,0.0,0.0,1.9947091068289906
2025/04/05 15:42:49.97822846,1743860569,97569355,,218.82790254980569,0.5868991455185072,0.0,0.0,0.0,1.9914264062024243
2025/04/05 15:42:49.197183801,1743860569,197003066,,218.80318053981296,-0.9536108690803949,0.0,0.0,0.0,2.039788947013216
2025/04/05 15:42:49.297355291,1743860569,296775148,,218.84252801768784,1.179980699269912,0.0,0.0,0.0,2.0278814681147357
2025/04/05 15:42:49.397299107,1743860569,396763832,,218.86156202250254,-0.5224934224089174,0.0,0.0,0.0,2.048881543673245
2025/04/05 15:42:49.497846025,1743860569,497588144,,218.88512497721382,2.5857986466021803,0.0,0.0,0.0,2.0064581109122663
2025/04/05 15:42:49.599111950,1743860569,598855298,,218.8977986076447,0.4006782990530937,0.0,0.0,0.0,2.004143956598992
2025/04/05 15:42:49.703481139,1743860569,703006967,,218.9372840117117,1.986825285896208,0.0,0.0,0.0,1.9715325563756014
2025/04/05 15:42:49.798436147,1743860569,798153277,,219.04628418901416,-0.14664080077996244,0.0,0.0,0.0,1.9646424156640232
2025/04/05 15:42:49.897967000,1743860569,897751780,,219.0396498014716,1.5787786198354905,0.0,0.0,0.0,1.96601723595702
2025/04/05 15:42:49.998672341,1743860569,997551626,,219.04469799469695,-0.47595437788283224,0.0,0.0,0.0,1.9071880026992238
2025/04/05 15:42:50.98767947,1743860570,98585613,,219.07247025531044,2.3495867203194303,0.0,0.0,0.0,1.9243413049425941
2025/04/05 15:42:50.223317552,1743860570,223049803,,219.07488003724268,0.0588805421627977,0.0,0.0,0.0,1.926834953476083
2025/04/05 15:42:50.296407570,1743860570,296187901,,219.0844577108535,1.635458377384345,0.0,0.0,0.0,1.8814394956288418
2025/04/05 15:42:50.397168257,1743860570,396936514,,218.32397377633487,-1.774202620159298,0.0,0.0,0.0,1.887016243367224
2025/04/05 15:42:50.499761444,1743860570,499491706,,220.07306854592485,-1.7676941863858555,0.0,0.0,0.0,1.8862005753075046
2025/04/05 15:42:50.605336228,1743860570,604951309,,220.0445183633484,0.188090409857668,0.0,0.0,0.0,1.8942065643947816
2025/04/05 15:42:50.699286737,1743860570,699085046,,218.31427395794543,0.6980471822607865,0.0,0.0,0.0,1.889519382846177
2025/04/05 15:42:50.801640002,1743860570,801399699,,220.06336894012418,0.7047710389051751,0.0,0.0,0.0,1.8887340341092025
2025/04/05 15:42:50.899957769,1743860570,899684419,,220.08293615554032,-0.6948560550182671,0.0,0.0,0.0,1.8990275982215779
2025/04/05 15:42:50.999252173,1743860570,998982067,,218.4176785709809,-0.45377990098872945,0.0,0.0,0.0,1.8776122284544254
2025/04/05 15:42:51.98943063,1743860571,98770163,,220.1667566714857,-0.4471910707880558,0.0,0.0,0.0,1.8768546731221876
2025/04/05 15:42:51.196946610,1743860571,196592626,,220.15083426159467,1.2148685826250072,0.0,0.0,0.0,1.8649550370807726
2025/04/05 15:42:51.298699506,1743860571,298446966,,218.42815442609236,1.272572908440382,0.0,0.0,0.0,1.8514223411981814
2025/04/05 15:42:51.429609633,1743860571,427615113,,220.17723412376154,1.2792152666845271,0.0,0.0,0.0,1.850686337395136
2025/04/05 15:42:51.502150406,1743860571,501898701,,220.19828070842055,-0.3111941524654853,0.0,0.0,0.0,1.8412324095439567
2025/04/05 15:42:51.602374219,1743860571,599828770,,220.22097438811448,1.2723033919163662,0.0,0.0,0.0,1.8292160045296224
2025/04/05 15:42:51.702540616,1743860571,700516266,,220.24206683879217,-0.3429043894202052,0.0,0.0,0.0,1.8137922814429634
2025/04/05 15:42:51.800476275,1743860571,800156018,,220.27561929674562,1.2293287111372242,0.0,0.0,0.0,1.7992837140664057
2025/04/05 15:42:51.900573552,1743860571,900328944,,219.5228371515695,-0.383589429769676,0.0,0.0,0.0,1.7587417017406506
