time,header_stamp_secs,header_stamp_nsecs,header_frame_id,vessel_state_pose_position_x,vessel_state_pose_position_y,vessel_state_pose_position_z,vessel_state_pose_orientation_x,vessel_state_pose_orientation_y,vessel_state_pose_orientation_z,vessel_state_pose_orientation_w,vessel_state_velocity_linear_x,vessel_state_velocity_linear_y,vessel_state_velocity_linear_z,vessel_state_velocity_angular_x,vessel_state_velocity_angular_y,vessel_state_velocity_angular_z,vessel_state_vessel_frame_id,vessel_state_w_1,vessel_state_w_2,vessel_state_w_3,vessel_state_w_4,vessel_state_a_1,vessel_state_a_2,vessel_state_a_3,vessel_state_a_4
2025/04/09 09:49:46.961830531,1744184986,960623254,world_ned,1.7989192786600883,11.350505572496505,0.43371732835908877,-0.0004020635387182781,-5.066436154028317e-06,-7.556336120156092e-05,0.9999999163047067,0.0001736250768966095,-1.630386632248244e-05,5.3061406328106225e-05,1.6239488734458578e-06,-6.441541109942237e-05,5.0954761390821306e-06,,0.0,0.0,0.0,0.0,2.3387411976724017,-2.356194490192345,-0.767944870877505,0.767944870877505
2025/04/09 09:49:47.64072483,1744184987,62993385,world_ned,1.798937353070576,11.35050404793823,0.43372092104691295,-0.00040203700938834394,-7.678530142845398e-06,-7.531252012028317e-05,0.9999999163176503,0.00018753239469663087,-1.4345226469655567e-05,2.0596474824630986e-05,-4.732530134280999e-07,-4.0991778820783805e-05,4.9207526552108556e-06,,0.0,0.0,0.0,0.0,2.3387411976724017,-2.356194490192345,-0.767944870877505,0.767944870877505
2025/04/09 09:49:47.158809257,1744184987,156382276,world_ned,1.7989571396974142,11.35050267493146,0.4337209436903034,-0.000402091526097745,-8.901240409834608e-06,-7.506995400411461e-05,0.9999999163038338,0.00020662763543939901,-1.3188281284971279e-05,-1.651810241995883e-05,-1.582863353142384e-06,-1.04589990612454e-05,4.7802477135404716e-06,,0.0,0.0,0.0,0.0,2.3387411976724017,-2.356194490192345,-0.767944870877505,0.767944870877505
2025/04/09 09:49:47.261262944,1744184987,257800859,world_ned,1.7989788654026009,11.350501422422116,0.43371740603649517,-0.00040220814754858276,-8.528925837782511e-06,-7.48345000950677e-05,0.999999916277827,0.00022542258739805234,-1.1830716934941246e-05,-4.935520118300676e-05,-2.9882149796305587e-06,2.1641443975362207e-05,4.657893230109916e-06,,0.0,0.0,0.0,0.0,2.3387411976724017,-2.356194490192345,-0.767944870877505,0.767944870877505
2025/04/09 09:49:47.359840286,1744184987,358559008,world_ned,1.7990024675990242,11.3505002956285,0.4337112080214081,-0.00040238721196956276,-6.668783862221339e-06,-7.460552829802275e-05,0.9999999162370335,0.0002481341549765643,-1.0798454713675486e-05,-6.991496836556691e-05,-3.838879400171334e-06,4.73565679955111e-05,4.542765796298465e-06,,0.0,0.0,0.0,0.0,2.3387411976724017,-2.356194490192345,-0.767944870877505,0.767944870877505
2025/04/09 09:49:47.460880728,1744184987,459821272,world_ned,1.7990278974651874,11.350499231734643,0.43370395190898264,-0.0004025778715834568,-3.739899921551588e-06,-7.438272843816792e-05,0.9999999161921366,0.00025465738488691367,-1.050994059284789e-05,-7.141391323359756e-05,-3.5160346801556066e-06,6.687095272877901e-05,4.427223238013176e-06,,0.0,0.0,0.0,0.0,2.3387411976724017,-2.356194490192345,-0.767944870877505,0.767944870877505
2025/04/09 09:49:47.562927828,1744184987,561827089,world_ned,1.7990532437938316,11.350498169700202,0.4336976720620515,-0.0004027305273064355,-1.0418605057398544e-07,-7.416610587097924e-05,0.9999999161537466,0.0002524247157941216,-1.0714126254289719e-05,-5.303145933352174e-05,-2.4205420746381956e-06,7.493600993627258e-05,4.306988292573792e-06,,0.0,0.0,0.0,0.0,2.3387411976724017,-2.356194490192345,-0.767944870877505,0.767944870877505
2025/04/09 09:49:47.666970282,1744184987,662666636,world_ned,1.799078237418169,11.350497051916692,0.43369405361773167,-0.00040279832133796524,3.5336394616165085e-06,-7.395568682066345e-05,0.9999999161357875,0.00024701460217811726,-1.1470767228383759e-05,-2.1117681302047237e-05,-4.51494233715547e-07,6.866782911650937e-05,4.179598927567226e-06,,0.0,0.0,0.0,0.0,2.3387411976724017,-2.356194490192345,-0.767944870877505,0.767944870877505
2025/04/09 09:49:47.764753836,1744184987,763820108,world_ned,1.7991024050759583,11.350495857799615,0.433693961687181,-0.000402768197182257,6.506986516473102e-06,-7.375157404905851e-05,0.9999999161480684,0.0002363275634955478,-1.2254030562941668e-05,1.5683287438412904e-05,1.4502515970630427e-06,5.00203462128433e-05,4.0449002354042746e-06,,0.0,0.0,0.0,0.0,2.3387411976724017,-2.356194490192345,-0.767944870877505,0.767944870877505
2025/04/09 09:49:47.861339450,1744184987,860211825,world_ned,1.7991251770563927,11.35049459431922,0.43369739164272453,-0.0004026451082456959,8.283837525987077e-06,-7.355388780031222e-05,0.9999999161990567,0.00021978184036105757,-1.272080977229878e-05,4.8286927552924406e-05,2.975130866307395e-06,2.2477377214786156e-05,3.904225258110977e-06,,0.0,0.0,0.0,0.0,2.3387411976724017,-2.356194490192345,-0.767944870877505,0.767944870877505
2025/04/09 09:49:47.964206726,1744184987,963287548,world_ned,1.7991460892358713,11.350493331883007,0.4337034525905174,-0.000402478001175526,8.554564863453388e-06,-7.336273207101551e-05,0.9999999162780903,0.0002001713249205232,-1.2578618633214512e-05,6.80253779592508e-05,3.6553683577000707e-06,-8.89425782778853e-06,3.7603384440433837e-06,,0.0,0.0,0.0,0.0,2.3387411976724017,-2.356194490192345,-0.767944870877505,0.767944870877505
2025/04/09 09:49:48.65330607,1744184988,64075573,world_ned,1.799165066763418,11.3504921226456,0.4337104808321985,-0.0004023067425520922,7.283452873940012e-06,-7.317817231897847e-05,0.9999999163705922,0.00018166158600635537,-1.1730578555044658e-05,6.889403327323136e-05,3.2120540634964892e-06,-3.841040192662367e-05,3.616010401151779e-06,,0.0,0.0,0.0,0.0,2.3387411976724017,-2.356194490192345,-0.767944870877505,0.767944870877505
2025/04/09 09:49:48.171665602,1744184988,164895236,world_ned,1.7991824303723267,11.350491008745715,0.4337165156146685,-0.00040216780858732897,4.712026370296481e-06,-7.30002779149186e-05,0.9999999164549015,0.00016799417314335908,-1.0549625910944546e-05,5.078262894621768e-05,2.1726432912755675e-06,-6.077655442385849e-05,3.4728119443055825e-06,,0.0,0.0,0.0,0.0,2.3387411976724017,-2.356194490192345,-0.767944870877505,0.767944870877505
2025/04/09 09:49:48.257817528,1744184988,256558011,world_ned,1.7991988297230994,11.350490023799036,0.4337199948249842,-0.00040209507369246396,1.3150062317410684e-06,-7.282912484499082e-05,0.999999916506867,0.0001620166552159492,-9.255723535212e-06,2.0521991366668474e-05,7.919998160672425e-07,-7.201256297931475e-05,3.3335275894185816e-06,,0.0,0.0,0.0,0.0,2.3387411976724017,-2.356194490192345,-0.767944870877505,0.767944870877505
2025/04/09 09:49:48.359755794,1744184988,358823395,world_ned,1.7992151232659654,11.350489150794742,0.4337201471581712,-0.0004020854784529232,-2.288647339347901e-06,-7.266454911778077e-05,0.9999999165209432,0.00016488113031425507,-8.225722945534324e-06,-1.4119228979723667e-05,-3.569231896349677e-07,-7.021376430961007e-05,3.206461879356082e-06,,0.0,0.0,0.0,0.0,2.3387411976724017,-2.356194490192345,-0.767944870877505,0.767944870877505
2025/04/09 09:49:48.460423445,1744184988,459648820,world_ned,1.799232089951462,11.350488369506932,0.4337169669421599,-0.0004021268199607205,-5.448952295306051e-06,-7.250597820091041e-05,0.9999999165036029,0.00017432026334473965,-7.336600236521449e-06,-4.509235810412291e-05,-1.264103099696237e-06,-5.582055322616379e-05,3.1001731634566072e-06,,0.0,0.0,0.0,0.0,2.3387411976724017,-2.356194490192345,-0.767944870877505,0.767944870877505
2025/04/09 09:49:48.567211760,1744184988,566315641,world_ned,1.7992502649834294,11.350487681881216,0.43371124054530474,-0.0004022181553441179,-7.603344490237233e-06,-7.23524385625177e-05,0.9999999164639312,0.00018834351456181568,-6.432113084930489e-06,-6.500600746214128e-05,-2.1836725505557795e-06,-3.160254546429802e-05,3.018501038690702e-06,,0.0,0.0,0.0,0.0,2.3387411976724017,-2.356194490192345,-0.767944870877505,0.767944870877505
2025/04/09 09:49:48.662198077,1744184988,657124022,world_ned,1.7992700078044939,11.350487069795424,0.4337044485525472,-0.0004023457385769838,-8.375945815816204e-06,-7.220307583294988e-05,0.9999999164172295,0.00020498674361770338,-5.850029338032821e-06,-6.72265035909609e-05,-2.6380793305410605e-06,-1.9791415022986984e-06,2.9518033215240046e-06,,0.0,0.0,0.0,0.0,2.3387411976724017,-2.356194490192345,-0.767944870877505,0.767944870877505
2025/04/09 09:49:48.762690336,1744184988,761838923,world_ned,1.7992914392681423,11.350486481921033,0.4336984779882359,-0.0004024691260672622,-7.642983625549427e-06,-7.205745461319157e-05,0.9999999163839518,0.00022166206669408314,-5.669705542133071e-06,-5.090970312286418e-05,-2.486932471003996e-06,2.7671368413792322e-05,2.8912623821058057e-06,,0.0,0.0,0.0,0.0,2.3387411976724017,-2.356194490192345,-0.767944870877505,0.767944870877505
2025/04/09 09:49:48.864482326,1744184988,863528847,world_ned,1.7993144236426184,11.350485909118309,0.4336949556772328,-0.0004025828888200057,-5.549305261775749e-06,-7.191538307354355e-05,0.9999999163621968,0.0002359195536456316,-5.926437378325643e-06,-2.1135072763808735e-05,-1.6858099527926303e-06,5.2110289549273935e-05,2.8308506212116246e-06,,0.0,0.0,0.0,0.0,2.3387411976724017,-2.356194490192345,-0.767944870877505,0.767944870877505
2025/04/09 09:49:48.966221916,1744184988,965098308,world_ned,1.799338598772214,11.350485289518598,0.4336947381461067,-0.0004026388778482172,-2.4801010506908235e-06,-7.177683919552092e-05,0.9999999163619308,0.00024542855513410563,-6.257230985396347e-06,1.3567688000104755e-05,-8.189613315636371e-07,6.698818656801533e-05,2.7656063841603494e-06,,0.0,0.0,0.0,0.0,2.3387411976724017,-2.356194490192345,-0.767944870877505,0.767944870877505
2025/04/09 09:49:49.59699926,1744184989,56427008,world_ned,1.799363506146198,11.350484637571316,0.43369788311068697,-0.00040264903192094276,9.775730747279964e-07,-7.164191228640836e-05,0.9999999163701154,0.00024891339084564287,-6.66436061787595e-06,4.479753659807693e-05,2.2979042363705538e-07,6.912408286832762e-05,2.6928004186677503e-06,,0.0,0.0,0.0,0.0,2.3387411976724017,-2.356194490192345,-0.767944870877505,0.767944870877505
2025/04/09 09:49:49.159109103,1744184989,158058257,world_ned,1.799387962932939,11.350483963585942,0.43370355377844927,-0.0004026172220486396,4.2397256910289e-06,-7.151077738671347e-05,0.9999999163837995,0.00024016657853378847,-6.915983007567835e-06,6.38605813519698e-05,1.1279486485409833e-06,5.985066665630907e-05,2.6117424711982166e-06,,0.0,0.0,0.0,0.0,2.3387411976724017,-2.356194490192345,-0.767944870877505,0.767944870877505
2025/04/09 09:49:49.263206966,1744184989,262233445,world_ned,1.7994112680755696,11.350483264431123,0.43371016162785125,-0.0004025379781818976,6.719527154465797e-06,-7.138358485268035e-05,0.9999999164112005,0.00022639992340983645,-7.068254933672856e-06,6.479839018564308e-05,1.9239007136327847e-06,3.953649720118205e-05,2.5235386929205633e-06,,0.0,0.0,0.0,0.0,2.3387411976724017,-2.356194490192345,-0.767944870877505,0.767944870877505
2025/04/09 09:49:49.363995707,1744184989,363023899,world_ned,1.7994329907035078,11.350482541434994,0.4337158456943517,-0.00040241115714444614,7.971949527746119e-06,-7.126045001295e-05,0.999999916461825,0.0002093534942561779,-7.149333099958399e-06,4.7897496340742445e-05,2.6400617474111885e-06,1.2268558817445698e-05,2.430691876457472e-06,,0.0,0.0,0.0,0.0,2.3387411976724017,-2.356194490192345,-0.767944870877505,0.767944870877505
2025/04/09 09:49:49.464848105,1744184989,463764396,world_ned,1.799452980540453,11.350481852488649,0.43371913719876204,-0.0004022856899890736,7.78467989208365e-06,-7.114142542450807e-05,0.9999999165222565,0.00019237145742608824,-6.768225852149736e-06,1.9491310694159094e-05,2.541696475339078e-06,-1.696868003651042e-05,2.3366954311773455e-06,,0.0,0.0,0.0,0.0,2.3387411976724017,-2.356194490192345,-0.767944870877505,0.767944870877505
2025/04/09 09:49:49.565718090,1744184989,564528527,world_ned,1.799471431876766,11.3504812161175,0.43371929935998965,-0.0004021821209898202,6.2050601483718966e-06,-7.102648169705261e-05,0.9999999165831354,0.00017862314791359938,-5.927752196497868e-06,-1.3125337229303426e-05,1.5813703485294553e-06,-4.284401777824395e-05,2.245420044596418e-06,,0.0,0.0,0.0,0.0,2.3387411976724017,-2.356194490192345,-0.767944870877505,0.767944870877505
2025/04/09 09:49:49.669736945,1744184989,665339504,world_ned,1.7994887346541286,11.350480665532155,0.43371631012418554,-0.00040213091721058363,3.5336927352967836e-06,-7.091551941801136e-05,0.9999999166246103,0.00016905754431252357,-5.003659380142715e-06,-4.243520523252696e-05,4.6863794165903757e-07,-6.077861873609182e-05,2.159380437405324e-06,,0.0,0.0,0.0,0.0,2.3387411976724017,-2.356194490192345,-0.767944870877505,0.767944870877505
2025/04/09 09:49:49.757365872,1744184989,756377916,world_ned,1.7995053697234016,11.350480205101666,0.43371092500775466,-0.00040213444230249634,2.5717639140123666e-07,-7.080851476838554e-05,0.9999999166369857,0.00016506566064330075,-4.258208818773303e-06,-6.10359461222508e-05,-3.3905223629931113e-07,-6.773709859072017e-05,2.0776367297086125e-06,,0.0,0.0,0.0,0.0,2.3387411976724017,-2.356194490192345,-0.767944870877505,0.767944870877505
2025/04/09 09:49:49.859615143,1744184989,857429281,world_ned,1.7995219819377406,11.350479814504945,0.433704569801151,-0.0004021764188513381,-3.0318383330700674e-06,-7.070527984505623e-05,0.9999999166228463,0.0001679832201264201,-3.4385702948364713e-06,-6.265090904839769e-05,-1.325396924914653e-06,-6.250778403466833e-05,2.0081598577979805e-06,,0.0,0.0,0.0,0.0,2.3387411976724017,-2.356194490192345,-0.767944870877505,0.767944870877505
2025/04/09 09:49:49.963553514,1744184989,961684080,world_ned,1.7995392647916506,11.350479515784514,0.4336990451872342,-0.00040227806609547626,-5.744555467679188e-06,-7.060531364019759e-05,0.9999999165771202,0.00017767524915617412,-2.6134858389319325e-06,-4.684289842835054e-05,-2.422374053645917e-06,-4.614725498982009e-05,1.9554685044932305e-06,,0.0,0.0,0.0,0.0,2.3387411976724017,-2.356194490192345,-0.767944870877505,0.767944870877505
2025/04/09 09:49:50.66790185,1744184990,64418828,world_ned,1.7995578324196737,11.350479238874712,0.4336958365291794,-0.00040238505420182776,-7.399058219930927e-06,-7.05079440631084e-05,0.9999999165300725,0.00019285206290072884,-2.8217002987308315e-06,-1.8741839075707423e-05,-1.8800247985064708e-06,-2.1655085538578738e-05,1.9178806234548224e-06,,0.0,0.0,0.0,0.0,2.3387411976724017,-2.356194490192345,-0.767944870877505,0.767944870877505
2025/04/09 09:49:50.167770439,1744184990,165548804,world_ned,1.7995781092934109,11.350478952233763,0.4336957395577127,-0.00040247333900439956,-7.70657961274392e-06,-7.041279746932085e-05,0.9999999164989255,0.00021089305818483198,-2.7999194206296633e-06,1.363570196726104e-05,-1.7553073720016297e-06,6.500393088888218e-06,1.8867316758875833e-06,,0.0,0.0,0.0,0.0,2.3387411976724017,-2.356194490192345,-0.767944870877505,0.767944870877505
2025/04/09 09:49:50.257200804,1744184990,256330672,world_ned,1.79960012802242,11.350478651773075,0.43369874531841157,-0.0004025398021456142,-6.624600971784113e-06,-7.031970810491646e-05,0.999999916486477,0.00022706612312634196,-3.1658025923235047e-06,4.224833733879109e-05,-9.602920775919965e-07,3.3173104228796786e-05,1.8569674460505251e-06,,0.0,0.0,0.0,0.0,2.3387411976724017,-2.356194490192345,-0.767944870877505,0.767944870877505
2025/04/09 09:49:50.358108190,1744184990,357156330,world_ned,1.7996236201541846,11.35047829319947,0.43370405612338364,-0.00040254489388928547,-4.377208586327502e-06,-7.022864378841402e-05,0.9999999165031895,0.00024961754897878327,-3.9509203958935885e-06,5.954218692399108e-05,6.145370007404682e-07,5.043169536226113e-05,1.8241774353281218e-06,,0.0,0.0,0.0,0.0,2.3387411976724017,-2.356194490192345,-0.767944870877505,0.767944870877505
2025/04/09 09:49:50.462188978,1744184990,460384379,world_ned,1.7996482714662974,11.350477874197026,0.43371019504440883,-0.00040248369784484173,-1.4161876830468778e-06,-7.01396798459694e-05,0.9999999165426429,0.0002452034943771784,-4.362268205859353e-06,6.000873428792507e-05,1.6400064511437648e-06,6.38199777384082e-05,1.7846689179111439e-06,,0.0,0.0,0.0,0.0,2.3387411976724017,-2.356194490192345,-0.767944870877505,0.767944870877505
2025/04/09 09:49:50.563032184,1744184990,561515775,world_ned,1.7996731440653886,11.350477457575273,0.43371542766026006,-0.000402407113114854,1.7575554685064543e-06,-7.005299114328722e-05,0.9999999165789989,0.0002439884302109677,-4.104633979939234e-06,4.388361871541982e-05,1.5750997268551901e-06,6.307610908094206e-05,1.7372226399264615e-06,,0.0,0.0,0.0,0.0,2.3387411976724017,-2.356194490192345,-0.767944870877505,0.767944870877505
2025/04/09 09:49:50.663344223,1744184990,662325411,world_ned,1.7996970689013683,11.350477052557292,0.4337183849316009,-0.0004023238517178977,4.656484637604625e-06,-6.99687820409575e-05,0.999999916609099,0.00023503190112315883,-3.9553946882502504e-06,1.6801010311909276e-05,1.667792052312713e-06,5.184351727599642e-05,1.6819604915385892e-06,,0.0,0.0,0.0,0.0,2.3387411976724017,-2.356194490192345,-0.767944870877505,0.767944870877505
2025/04/09 09:49:50.765651863,1744184990,764035184,world_ned,1.7997199604376442,11.350476670865456,0.4337183725530298,-0.0004022461653783571,6.713347800512164e-06,-6.988718301606582e-05,0.999999916634364,0.00022328935146097932,-3.675474694062654e-06,-1.4029106332604889e-05,1.502007871919321e-06,3.1004208026367125e-05,1.6202865236515925e-06,,0.0,0.0,0.0,0.0,2.3387411976724017,-2.356194490192345,-0.767944870877505,0.767944870877505
2025/04/09 09:49:50.866008823,1744184990,865004283,world_ned,1.7997414830026264,11.35047630750891,0.43371540262437236,-0.00040217069523843874,7.55893128058597e-06,-6.980829476187938e-05,0.9999999166641947,0.00020811951258408793,-3.304379315426756e-06,-4.145279498839736e-05,1.1913983983053455e-06,4.7291346006659275e-06,1.554992058779384e-06,,0.0,0.0,0.0,0.0,2.3387411976724017,-2.356194490192345,-0.767944870877505,0.767944870877505
2025/04/09 09:49:50.967556853,1744184990,966411002,world_ned,1.7997613996611492,11.350476014134815,0.4337102228408885,-0.00040213942199054963,7.051834888439408e-06,-6.973214086575308e-05,0.9999999166857892,0.00019189082134699005,-2.4801928113378847e-06,-5.7994995663814445e-05,1.1495866395163418e-07,-2.2197171068082833e-05,1.4897973668920683e-06,,0.0,0.0,0.0,0.0,2.3387411976724017,-2.356194490192345,-0.767944870877505,0.767944870877505
2025/04/09 09:49:51.58308814,1744184991,57121196,world_ned,1.799779800712928,11.350475810319525,0.43370424857555595,-0.0004021702022757389,5.292659303211901e-06,-6.965865055049629e-05,0.9999999166893908,0.00017811169014170315,-1.5263362622296932e-06,-5.8400542721445574e-05,-1.249119881992209e-06,-4.498037437903639e-05,1.428514129156809e-06,,0.0,0.0,0.0,0.0,2.3387411976724017,-2.356194490192345,-0.767944870877505,0.767944870877505
2025/04/09 09:49:51.158873638,1744184991,158021498,world_ned,1.799797097355228,11.35047568458558,0.43369915812282067,-0.00040225646758293687,2.6059297057676956e-06,-6.958769526790058e-05,0.9999999166702446,0.00016969627783400382,-1.1225399809616778e-06,-4.258059398892275e-05,-1.7782547377525263e-06,-5.9512361400725564e-05,1.3729178359256097e-06,,0.0,0.0,0.0,0.0,2.3387411976724017,-2.356194490192345,-0.767944870877505,0.767944870877505
2025/04/09 09:49:51.262253660,1744184991,260961047,world_ned,1.7998139431552254,11.350475543226356,0.43369633907576033,-0.0004023220432801042,-5.173686634787614e-07,-6.951912237855934e-05,0.9999999166518952,0.0001686209382306491,-1.540905331484266e-06,-1.5232927510976117e-05,-9.696574156019014e-07,-6.325125165497554e-05,1.3262539194204654e-06,,0.0,0.0,0.0,0.0,2.3387411976724017,-2.356194490192345,-0.767944870877505,0.767944870877505
2025/04/09 09:49:51.366857875,1744184991,365289949,world_ned,1.7998311052093252,11.350475372215817,0.43369650782682556,-0.0004023556151676398,-3.512747531887573e-06,-6.945258021957363e-05,0.9999999166369758,0.00017501240110200239,-1.7787182277698858e-06,1.547973856940246e-05,-4.6636235501457635e-07,-5.5600972975075776e-05,1.2924006271529315e-06,,0.0,0.0,0.0,0.0,2.3387411976724017,-2.356194490192345,-0.767944870877505,0.767944870877505
2025/04/09 09:49:51.467105977,1744184991,466057364,world_ned,1.799849200939794,11.350475190119608,0.43369958767675904,-0.0004023721526696366,-5.8441000036219735e-06,-6.938770895803984e-05,0.9999999166239181,0.0001863118682555936,-1.8233997466782978e-06,4.2184411325418605e-05,-2.5924454048346183e-07,-3.809320551199253e-05,1.2687886030705097e-06,,0.0,0.0,0.0,0.0,2.3387411976724017,-2.356194490192345,-0.767944870877505,0.767944870877505
2025/04/09 09:49:51.559710133,1744184991,556803249,world_ned,1.7998685934524248,11.350475015772144,0.4337047642861678,-0.0004023861079489903,-7.1004762915972545e-06,-6.932422846311807e-05,0.9999999166145739,0.00020038776125025189,-1.6783567651336875e-06,5.713440821442804e-05,-3.33637435263787e-07,-1.3963909477061095e-05,1.252704607246096e-06,,0.0,0.0,0.0,0.0,2.3387411976724017,-2.356194490192345,-0.767944870877505,0.767944870877505
2025/04/09 09:49:51.659548476,1744184991,658561489,world_ned,1.799889461200032,11.350474865212313,0.4337105799045608,-0.00040241085757549566,-7.068596643702285e-06,-6.92619547421519e-05,0.9999999166091557,0.0002153378683564576,-1.3737061080698552e-06,5.6290840400654515e-05,-6.650330962064773e-07,1.2389161901012112e-05,1.240169633440936e-06,,0.0,0.0,0.0,0.0,2.3387411976724017,-2.356194490192345,-0.767944870877505,0.767944870877505
2025/04/09 09:49:51.764327566,1744184991,762939405,world_ned,1.7999117670956857,11.350474729354664,0.4337154171690785,-0.0004024397914028483,-5.768203987250941e-06,-6.920082054934897e-05,0.9999999166100908,0.0002289224080535219,-1.4905030868507435e-06,3.982037605672991e-05,-2.9278085626789745e-07,3.624467671822594e-05,1.2269302495298509e-06,,0.0,0.0,0.0,0.0,2.3387411976724017,-2.356194490192345,-0.767944870877505,0.767944870877505
2025/04/09 09:49:51.864568895,1744184991,863755974,world_ned,1.7999352654187106,11.350474567172682,0.43371799929237054,-0.00040243899968891425,-3.443097138258476e-06,-6.914086830417692e-05,0.999999916625265,0.0002392491134715294,-1.6850339492204035e-06,1.3478083752202986e-05,2.2323863569485154e-07,5.3391851573444563e-05,1.2092662761094768e-06,,0.0,0.0,0.0,0.0,2.3387411976724017,-2.356194490192345,-0.767944870877505,0.767944870877505
2025/04/09 09:49:51.966249415,1744184991,965193123,world_ned,1.7999595368906673,11.350474391389612,0.4337177356795552,-0.00040241926607999446,-5.158649469207133e-07,-6.908222574197638e-05,0.9999999166430537,0.000244456335835286,-1.7297444780867632e-06,-1.57963760613185e-05,4.90188542846834e-07,6.08743717884444e-05,1.1845780289153307e-06,,0.0,0.0,0.0,0.0,2.3387411976724017,-2.356194490192345,-0.767944870877505,0.767944870877505
2025/04/09 09:49:52.69302398,1744184992,65966872,world_ned,1.7999839370326163,11.350474216757128,0.43371469792169554,-0.0004023926286284546,2.4832445837741024e-06,-6.90250724835034e-05,0.9999999166547692,0.00024234290567735084,-1.6322037338710498e-06,-4.1074683790450715e-05,5.253268571538807e-07,5.733408421911784e-05,1.1516432495807827e-06,,0.0,0.0,0.0,0.0,2.3387411976724017,-2.356194490192345,-0.767944870877505,0.767944870877505
2025/04/09 09:49:52.159106797,1744184992,156678436,world_ned,1.800007730502896,11.350474057391661,0.43370965529982836,-0.00040237008730448627,5.015606167250663e-06,-6.896959573772542e-05,0.9999999166581722,0.0002333190135131298,-1.4136667428738322e-06,-5.5991647485062534e-05,3.5481104474699657e-07,4.350533669736677e-05,1.1109912888985728e-06,,0.0,0.0,0.0,0.0,2.3387411976724017,-2.356194490192345,-0.767944870877505,0.767944870877505
2025/04/09 09:49:52.261417009,1744184992,259023057,world_ned,1.8000303451177664,11.350473924275118,0.43370395680352175,-0.0004023609453698405,6.629641551369789e-06,-6.891595020392555e-05,0.9999999166561512,0.00021968007439399827,-1.1129829009827962e-06,-5.516082364645833e-05,1.4098072310362495e-08,2.195897680766504e-05,1.0646462438257649e-06,,0.0,0.0,0.0,0.0,2.3387411976724017,-2.356194490192345,-0.767944870877505,0.767944870877505
2025/04/09 09:49:52.362942021,1744184992,359892329,world_ned,1.8000514777071324,11.350473813479393,0.4336991966150092,-0.0004023628099181252,7.044642744521895e-06,-6.886422371328899e-05,0.999999916656127,0.00020437510475889787,-1.1551452483000786e-06,-3.921071349337616e-05,2.0439377905966713e-07,-3.333600375773447e-06,1.0157746327096541e-06,,0.0,0.0,0.0,0.0,2.3387411976724017,-2.356194490192345,-0.767944870877505,0.767944870877505
2025/04/09 09:49:52.463229095,1744184992,462113569,world_ned,1.8000711390189532,11.35047367314273,0.4336966919252934,-0.00040233286726183546,6.197667557067861e-06,-6.881441958437616e-05,0.9999999166772108,0.00019066850411398126,-1.507728014001492e-06,-1.2494884549129128e-05,9.005424625722653e-07,-2.7802625554694784e-05,9.679818898854388e-07,,0.0,0.0,0.0,0.0,2.3387411976724017,-2.356194490192345,-0.767944870877505,0.767944870877505
2025/04/09 09:49:52.563897701,1744184992,562949315,world_ned,1.800195998061984,11.35046382614893,0.433697312509662,-0.0003990855802885188,1.5405509724969023e-05,-6.866840797446203e-05,0.9999999178890064,0.0024371467393060646,-0.000314891055370037,2.468254759782694e-05,0.00020684359998129922,0.0006089017635839833,1.0731948109838588e-05,,-53.00000000000001,-53.00000000000001,53.00000000000001,53.00000000000001,2.368741197672401,-2.386194490192344,-0.7379448708775049,0.7379448708775049
2025/04/09 09:49:52.665779134,1744184992,663855297,world_ned,1.8007363979544804,11.350400319387001,0.43369994095623443,-0.00037906358883109723,7.906577402037708e-05,-6.746218020644032e-05,0.9999999227541236,0.009738597176876649,-0.000903982835665184,2.9297244573170934e-05,0.0005648291978122445,0.0016398437973340046,3.234860024694084e-05,,-107.0,-107.0,104.00000000000001,104.00000000000001,2.4187411976724,-2.436194490192343,-0.6879448708775049,0.6879448708775049
2025/04/09 09:49:52.768399032,1744184992,765511555,world_ned,1.802192541309646,11.350278696945718,0.43370206056780014,-0.00034322430282388385,0.00022258508227886726,-6.564841947533139e-05,0.9999999141716184,0.01960943471499258,-0.0014205318724294915,3.7374815325650046e-06,0.0007841139308038268,0.003772391469491633,3.339666630817139e-05,,-162.0,-162.0,154.0,154.0,2.473741197672399,-2.491194490192342,-0.6329448708775048,0.6329448708775048
2025/04/09 09:49:52.859368366,1744184992,857110308,world_ned,1.8047861026297896,11.350112683905413,0.43369796893374973,-0.0003025158249370484,0.0004688400708416262,-6.430742423733272e-05,0.999999842268847,0.028870655977660344,-0.001808905716037975,-4.590306716053976e-05,0.0007946733964374053,0.006496084545011455,2.1533625827443604e-05,,-163.99999999999997,-164.99999999999997,202.0,202.0,2.523741197672398,-2.541194490192341,-0.5829448708775048,0.5829448708775048
2025/04/09 09:49:52.959429323,1744184992,958019553,world_ned,1.8085847579282424,11.349912992237872,0.4336904476317297,-0.0002653224704093743,0.0007853476900610032,-6.288977646202703e-05,0.9999996544388745,0.04149110230831436,-0.0021288335372453442,-1.815173558836051e-05,0.0006732017455966504,0.007021884604565225,5.049148262225366e-05,,-108.99999999999999,-110.00000000000001,237.99999999999997,237.99999999999997,2.568741197672397,-2.58619449019234,-0.5379448708775048,0.5379448708775048
2025/04/09 09:49:53.60220954,1744184993,58949942,world_ned,1.8134496302556493,11.349696507611927,0.43367800720132454,-0.00024310208839596075,0.0011059815168338247,-6.057272011523726e-05,0.9999993570183956,0.05328948662581908,-0.002182242766519356,-2.0212923477755002e-05,0.0002537132755389411,0.005978130062900267,2.6731951524386805e-05,,-55.00000000000001,-55.00000000000001,273.00000000000006,276.0,2.6237411976723957,-2.6179938779914944,-0.4829448708775047,0.4829448708775047
2025/04/09 09:49:53.162458245,1744184993,161314112,world_ned,1.8192025060782444,11.34945110050714,0.4336615566123482,-0.00023517434635028363,0.0013667555281052495,-6.624120214342649e-05,0.9999990361417637,0.05989514021854502,-0.0029844584796844594,-2.8851163417115762e-05,0.0002810460479421581,0.004588096584317756,-0.00036217613528073184,,-2.0,-3.0,307.0,307.0,2.652900463031381,-2.582993877991495,-0.43294487087750466,0.43294487087750466
2025/04/09 09:49:53.264092636,1744184993,263096705,world_ned,1.8257728605794048,11.349069170807173,0.4336410449080296,-0.0002100569561880027,0.0014949582560209228,-0.00010360875633181398,0.9999988551199014,0.06943612989464898,-0.0044287469478983136,8.105609297658718e-06,0.0006492026895719658,0.0010987444415735072,-0.0010463106709443165,,-1.0,-4.0,307.0,301.0,2.617900463031382,-2.5329938779914962,-0.3829448708775046,0.3829448708775046
2025/04/09 09:49:53.366581374,1744184993,363927087,world_ned,1.8329834223223889,11.348553297085145,0.43362823050872246,-0.0001709740171844161,0.0014807068880643573,-0.00017096157115656794,0.9999988745229358,0.07579068217074819,-0.005700444906049781,0.00014204571130705068,0.0008601160886361634,-0.0018681770457150927,-0.0015893356060471897,,-1.0,-3.0,304.0,296.0,2.567900463031383,-2.4829938779914973,-0.3329448708775046,0.3329448708775046
2025/04/09 09:49:53.466196660,1744184993,464820536,world_ned,1.8408511524446722,11.347954231642161,0.4336266957980072,-0.00013931095821777644,0.0013198147249637113,-0.00025741253477128167,0.9999990862097503,0.0855358978992792,-0.0059378613332637525,0.0002585829902105643,0.0002944324161820299,-0.005464201987619464,-0.0017419972465022786,,-1.0,-3.0,302.0,292.0,2.530727415391778,-2.478367537831948,-0.28294487087750453,0.28294487087750453
2025/04/09 09:49:53.566532335,1744184993,565649240,world_ned,1.8494441039986074,11.347363202897105,0.4336362555153099,-0.00014908562116579735,0.0010361984724112242,-0.00034249489153039285,0.9999993933815423,0.09079024205725612,-0.005764444151034902,0.00031744301235166357,-0.0006005863253804747,-0.006935783474801589,-0.0016515283270643107,,-2.0,-2.0,302.0,287.0,2.5132741228718345,-2.518367537831947,-0.23294487087750448,0.23294487087750448
2025/04/09 09:49:53.657546209,1744184993,656335232,world_ned,1.8587702665418535,11.346785091504389,0.4336550282352079,-0.00020109189807543154,0.0006825204095957492,-0.0004240771799650848,0.9999996569431834,0.09069666623691414,-0.005769488211025374,0.0003603470722904865,-0.0013119802286887658,-0.005695474156596474,-0.0016437637427979674,,-2.0,-2.0,300.0,287.0,2.5132741228718345,-2.530727415391778,-0.18294487087750444,0.18294487087750444
2025/04/09 09:49:53.760038151,1744184993,757502636,world_ned,1.8689330107116677,11.346176890388861,0.4336807232142883,-0.0002740471267330601,0.0003117193570398938,-0.0005111618251053444,0.9999997832213782,0.10428626698653859,-0.006284459192330159,0.00032774077611592877,-0.0014727375873836801,-0.006868992670539427,-0.001874523269335984,,-2.0,-2.0,300.0,285.0,2.530727415391778,-2.5132741228718345,-0.1329448708775044,0.1329448708775044
2025/04/09 09:49:53.859531847,1744184993,858243031,world_ned,1.879914825759444,11.345499564864493,0.433704914810848,-0.00034522961151712547,-6.450530593531108e-06,-0.0006097846632079913,0.9999997544687551,0.1105530699599235,-0.007064438893341168,0.00019537442176770063,-0.0012679056407221302,-0.004707354029222631,-0.0021165794942934768,,-1.0,-3.0,308.0,276.0,2.5132741228718345,-2.4958208303518914,-0.08294487087750435,0.08294487087750435
2025/04/09 09:49:53.961468193,1744184993,960116305,world_ned,1.8917621264731912,11.344754355077846,0.4337202372197017,-0.0004048785806632639,-0.00021885175504365886,-0.0007168378208604405,0.9999996371603256,0.12078219582088198,-0.007463020190036467,3.800876465991291e-05,-0.001107024227452888,-0.002558863505018193,-0.0021441517737537893,,-2.0,-2.0,299.0,286.0,2.530727415391778,-2.5132741228718345,-0.03294487087750435,0.03294487087750435
2025/04/09 09:49:54.63357903,1744184994,62182580,world_ned,1.9046095819777191,11.343947421321236,0.4337241651401198,-0.0004452042317659542,-0.0003033882936743534,-0.0008294436120639099,0.9999995108858952,0.13343022957799516,-0.008055118699844736,-9.954804763075122e-05,-0.0006463703840596054,-0.0005508988767171542,-0.002386245361912961,,-2.0,-2.0,296.0,288.0,2.5132741228718345,-2.5132741228718345,-2.7105054312137033e-22,0.017453292519943295
2025/04/09 09:49:54.164267191,1744184994,163106463,world_ned,1.9182158064177381,11.343162123384019,0.43371674006287764,-0.00048705213471756515,-0.0002157852409261771,-0.0009448783035313868,0.9999994117107966,0.13915759232590838,-0.007193054543568636,-0.00018377385651806907,-0.0010088776025729566,0.0032965559743570114,-0.002176358819578676,,-2.0,-2.0,292.0,292.0,2.5132741228718345,-2.5132741228718345,-0.017453292519943295,0.017453292519943295
2025/04/09 09:49:54.264975380,1744184994,263909890,world_ned,1.9327525583164733,11.342417704441054,0.43370131814990787,-0.0005302525281311888,-7.219586734315535e-06,-0.0010473397297379404,0.9999993109295748,0.15028827562362296,-0.007177836983206035,-0.0001928332404656073,-0.0006943316541484593,0.00478300977107461,-0.001925142894884699,,-2.0,-2.0,290.0,295.0,2.5132741228718345,-2.5132741228718345,-0.017453292519943295,0.0
2025/04/09 09:49:54.367450212,1744184994,364731052,world_ned,1.9480419385569114,11.341703796533535,0.4336810815785508,-0.0005648811838112648,0.00029692368699071723,-0.0011285391370730962,0.999999159572141,0.15751873314493325,-0.006315704856343231,-0.0001294176248853076,-0.0007845016429988082,0.006281387405237145,-0.0012445461456121174,,-2.0,-2.0,285.0,300.0,2.5132741228718345,-2.530727415391778,-0.03490658503988659,0.0
2025/04/09 09:49:54.468988066,1744184994,465607148,world_ned,1.9639911182845282,11.340972918283011,0.43365953968325494,-0.0005692882694978273,0.0006447361736033087,-0.001193072891228189,0.9999989184010195,0.15691713123613393,-0.0073896972512435405,6.059924737934275e-07,0.00042579898526518646,0.00843575121402284,-0.0013401319532092733,,-2.0,-2.0,289.0,297.0,2.5132741228718345,-2.530727415391778,-0.017453292519943295,1.3552527156068806e-22
2025/04/09 09:49:54.570606996,1744184994,566374333,world_ned,1.980588959153459,11.340176404715338,0.4336420093222686,-0.0005292279607873324,0.0009554768268584022,-0.0012579235995638241,0.9999986123040454,0.1686483854465702,-0.007675642744430418,0.00016520876189519054,0.0010682785401959502,0.0055200117941361145,-0.0012583929822041699,,-2.0,-2.0,291.0,295.0,2.5132741228718345,-2.5132741228718345,-0.017453292519943295,1.3552527156068806e-22
2025/04/09 09:49:54.659352827,1744184994,658289767,world_ned,1.9976042091062767,11.339365505153769,0.43363334251632185,-0.0004661715121956828,0.0011908151448409598,-0.001316396159653279,0.9999983158708633,0.1712602233316903,-0.00758996001689213,0.00036125670290032205,0.0013319394981721536,0.003922085261239524,-0.001063644766539249,,-2.0,-2.0,288.0,298.0,2.5132741228718345,-2.530727415391778,-0.017453292519943295,0.0
2025/04/09 09:49:54.762021660,1744184994,760129320,world_ned,2.015143784547723,11.338566489885311,0.4336326311035438,-0.0003981565110654539,0.0012825534154601043,-0.0013662273814318605,0.999998164973752,0.1788291162628908,-0.007433683483592537,0.00047235602923609976,0.0013349620780869166,5.02046442050854e-05,-0.0009448331980502582,,-2.0,-2.0,292.0,295.0,2.5132741228718345,-2.530727415391778,-0.017453292519943295,0.0
2025/04/09 09:49:54.862509475,1744184994,861307439,world_ned,2.0329013131208624,11.337791208106617,0.4336397850087289,-0.00033914114349194684,0.001247454862859695,-0.001410245991930213,0.9999981700212717,0.18408502615200098,-0.007099145250346099,0.0005483381508131638,0.0010266356254780107,-0.0033906796448463427,-0.0008201110597006636,,-2.0,-2.0,290.0,298.0,2.5132741228718345,-2.530727415391778,-0.017453292519943295,0.0
2025/04/09 09:49:54.967011278,1744184994,964449324,world_ned,2.051166084932478,11.33705463116582,0.4336521936745191,-0.00030322226019117597,0.0010510471260561675,-0.0014482097415707638,0.9999983530210158,0.1833242096352962,-0.006630490108233553,0.000537985068780908,0.0004682501418727869,-0.004741310080132269,-0.0007183263277150086,,-2.0,-2.0,294.0,295.0,2.5132741228718345,-2.530727415391778,-0.017453292519943295,-6.776263578034403e-23
2025/04/09 09:49:55.67107944,1744184995,65377259,world_ned,2.0697898041504446,11.336129129982565,0.4336715243988651,-0.000223751508838959,0.000751680378237236,-0.0015385349271738807,0.9999985089099629,0.18909557240100835,-0.010423553454256187,0.0005050294525934688,0.0024930187587129614,-0.006998049958840035,-0.0029002443017583862,,-1.0,-3.0,308.0,279.99999999999994,2.5132741228718345,-2.4958208303518914,-2.7755575615628914e-19,0.03490658503988659
2025/04/09 09:49:55.167955087,1744184995,166066137,world_ned,2.0888855631591396,11.33508160243977,0.4336963512758722,-0.00013668438810619397,0.0003826084243038402,-0.0017031739575792608,0.999998467062146,0.19937817844125363,-0.009188173722622674,0.000406758882325487,0.00099664580976558,-0.009350013516772096,-0.0036304157086516804,,-1.0,-3.0,314.0,275.0,2.5132741228718345,-2.478367537831948,-2.7755575615628914e-19,0.06981317007977318
2025/04/09 09:49:55.257713967,1744184995,256887946,world_ned,2.1082869881479565,11.334239342431461,0.43372172071383086,-0.0001568277292614703,3.5569511172137514e-05,-0.0018801645229146,0.999998219559035,0.19222537000176232,-0.0063690034491353026,0.0002156249403085545,-0.0016079337411507267,-0.005509217584664152,-0.003227883915919581,,-2.0,-3.0,304.0,284.0,2.530727415391778,-2.5132741228718345,0.0,0.03490658503988659
2025/04/09 09:49:55.360309597,1744184995,357744743,world_ned,2.128472814943418,11.333602284190546,0.4337357670889477,-0.0002793030820817071,-0.0002856838645232557,-0.002045863563843787,0.9999978274060379,0.20594705983485198,-0.005135942536551827,-4.416477342423016e-05,-0.002931171128125983,-0.005893837508699767,-0.0035427222971767423,,-1.0,-3.0,311.0,277.0,2.5132741228718345,-2.4958208303518914,5.421010862427522e-22,0.05235987755982989
2025/04/09 09:49:55.462271264,1744184995,458562532,world_ned,2.1491230344085928,11.333061574461603,0.4337371556716093,-0.00045148153274919995,-0.00047015852002524344,-0.002230212591413007,0.9999973006299511,0.20765616839805473,-0.004103294308733096,-0.0002367258139173792,-0.0037144920198113676,-0.0019656194420427857,-0.0038009438754882494,,-1.0,-3.0,308.99999999999994,278.0,2.5132741228718345,-2.4958208303518914,5.421010862427522e-22,0.05235987755982989
2025/04/09 09:49:55.560263206,1744184995,559299800,world_ned,2.1704092870872285,11.332593694253683,0.43372403430009493,-0.0006419543620092467,-0.000512965394123202,-0.0024206060043203133,0.9999967327084991,0.21531126019160352,-0.0033901866162378883,-0.00043562385874930214,-0.003774130038322878,0.0005104121068265382,-0.0036631783840110716,,-2.0,-3.0,304.0,284.0,2.530727415391778,-2.5132741228718345,0.0,0.017453292519943295
2025/04/09 09:49:55.661843716,1744184995,660673132,world_ned,2.1922729979646034,11.332124257533271,0.43369655427161735,-0.0007998512654969045,-0.00040782256705248164,-0.002603562886309376,0.9999962076823111,0.21881359303118267,-0.0038276947997562968,-0.0004999563672813224,-0.0025461241608751906,0.0040583560051013256,-0.0036698477877614164,,-2.0,-2.0,300.0,288.0,2.530727415391778,-2.5132741228718345,0.0,0.017453292519943295
2025/04/09 09:49:55.763660492,1744184995,761735190,world_ned,2.214736171047741,11.331566938885178,0.43366504959571206,-0.0008739274471713363,-0.00017886923394184545,-0.0027936659429565677,0.999995699834361,0.22600919918068157,-0.004863307611926663,-0.0003780170970907186,-0.0005411762624739716,0.005826650606750215,-0.0039763645632995,,-2.0,-3.0,307.0,281.0,2.530727415391778,-2.4958208303518914,0.0,0.03490658503988659
2025/04/09 09:49:55.865657604,1744184995,862887102,world_ned,2.237655456261588,11.330913187178005,0.4336409966207754,-0.0008497249921673632,0.0001414221106294209,-0.0029975312110690276,0.9999951363751041,0.2330634151465476,-0.005461239296137389,-0.00014564549506259814,0.001259280296483936,0.006307480984820261,-0.004155338986120883,,-1.0,-3.0,309.99999999999994,278.0,2.5132741228718345,-2.4958208303518914,0.0,0.03490658503988659
2025/04/09 09:49:55.966674546,1744184995,964254610,world_ned,2.2609771323433563,11.330201344041773,0.4336295209347396,-0.0007444481604825791,0.00048581601467816854,-0.0032126780452447767,0.9999944442243236,0.23898605895874966,-0.00574304345792508,0.00017902048943452378,0.0026570713156683344,0.00558123980916118,-0.004447377240218432,,-1.0,-3.0,313.0,278.99999999999994,2.5132741228718345,-2.4958208303518914,0.0,0.05235987755982989
2025/04/09 09:49:56.65495483,1744184996,64441067,world_ned,2.2845354150058736,11.32948712736625,0.43363131720574805,-0.0005916439092134789,0.0007987734421810644,-0.0034348163554186796,0.9999936069571032,0.2379340553734337,-0.005374057085795317,0.0004388729255563004,0.003269065966121007,0.00516836804464355,-0.004265384533117489,,-2.0,-2.0,302.0,289.0,2.530727415391778,-2.5132741228718345,0.0,0.017453292519943295
2025/04/09 09:49:56.166214638,1744184996,165335503,world_ned,2.3083628776798393,11.328787718729808,0.43364404982838806,-0.00041693018989798474,0.0010065170393704019,-0.0036471726669112894,0.9999927555858612,0.23762444891085224,-0.005127353797331205,0.0006366997043712442,0.00348509768476576,0.0034841511965619056,-0.004259641451864668,,-2.0,-3.0,305.00000000000006,287.0,2.530727415391778,-2.5132741228718345,0.0,0.017453292519943295
2025/04/09 09:49:56.267575366,1744184996,266318481,world_ned,2.3323411680430257,11.32811215153586,0.43366369561064866,-0.0002517806385151003,0.0010814424033816898,-0.0038722456170388747,0.9999918863684443,0.23991220149784806,-0.004690559818266163,0.000735492160744508,0.003008182013519867,0.00032648315848172094,-0.004710897490140431,,-1.0,-3.0,313.0,279.99999999999994,2.530727415391778,-2.4958208303518914,0.0,0.03490658503988659
2025/04/09 09:49:56.359267069,1744184996,357077823,world_ned,2.356515207218802,11.32752906819609,0.43368530796154237,-0.00014130404277036922,0.0010008131655473223,-0.004106944409541908,0.9999910556668955,0.2441481520607027,-0.003187418026833196,0.0006883463710438712,0.0014877001239629864,-0.0033865270173292976,-0.004603958236478279,,-2.0,-3.0,307.0,289.0,2.530727415391778,-2.5132741228718345,0.0,0.017453292519943295
2025/04/09 09:49:56.462163051,1744184996,460294543,world_ned,2.3807589357474406,11.327065164666458,0.43370342171160203,-0.00010787048609346432,0.0008004566497070551,-0.004342807297955247,0.9999902437813496,0.2383845408977034,-0.0021063472838576164,0.0005401738122908478,2.8811500736594234e-05,-0.00361144620042462,-0.004877137800208559,,-1.0,-3.0,315.0,282.0,2.530727415391778,-2.4958208303518914,0.0,0.03490658503988659
2025/04/09 09:49:56.563171717,1744184996,560720667,world_ned,2.4053554603618026,11.32672195732383,0.43371382121408686,-0.00015752919159256324,0.00048458962306429694,-0.004585433569352713,0.9999893570215795,0.25020562455508116,-0.000527843701572859,0.00030326839426667056,-0.001739443925740988,-0.007791151907227109,-0.004760981548331427,,-2.0,-3.0,307.0,290.0,2.530727415391778,-2.5132741228718345,0.0,0.017453292519943295
2025/04/09 09:49:56.667196670,1744184996,664549406,world_ned,2.4300860358201555,11.326489106397268,0.433715333959562,-0.00027794996681925117,0.00014786195098742268,-0.004826378578583713,0.9999883034068326,0.24533289930585406,0.0004237962367368213,4.3813032986083126e-05,-0.002833507810280209,-0.005777124799538788,-0.004911862319027727,,-2.0,-3.0,311.0,287.0,2.530727415391778,-2.5132741228718345,0.0,0.03490658503988659
2025/04/09 09:49:56.760109396,1744184996,757087259,world_ned,2.4552670567386956,11.32631605638128,0.43370912224165187,-0.00043671084393227084,-0.00018475070358502983,-0.0050722056731863936,0.9999870238560225,0.24931457270401078,0.000940689139005201,-0.00017261962567168443,-0.0032616046579370234,-0.005021547028910092,-0.004877868113162302,,-2.0,-3.0,308.99999999999994,290.0,2.530727415391778,-2.5132741228718345,0.0,0.017453292519943295
2025/04/09 09:49:56.859188511,1744184996,857916186,world_ned,2.480881935341226,11.326135463845157,0.4336999462435218,-0.0005893168503598786,-0.0004475411746781688,-0.005322448065461549,0.9999855618753389,0.25908419934104704,0.0007103246342149839,-0.00030288093749582826,-0.0027188546559708507,-0.004578862819273405,-0.005191736686088917,,-1.0,-3.0,318.00000000000006,281.0,2.530727415391778,-2.4958208303518914,-1.2037062152420224e-35,0.03490658503988659
2025/04/09 09:49:56.961297839,1744184996,958616362,world_ned,2.5068580585292204,11.325928562333496,0.43369079539362154,-0.0007088673575279058,-0.0005825853685354852,-0.005579890629032276,0.9999840113331442,0.26378492545908405,0.0008088082097531416,-0.0003745876386654284,-0.0020511557514194777,-0.0021054353781605373,-0.00502396401214467,,-2.0,-3.0,312.0,290.0,2.530727415391778,-2.5132741228718345,-6.93889390390723e-20,0.017453292519943295
2025/04/09 09:49:57.60342665,1744184997,59387306,world_ned,2.5332822497544747,11.325716944325519,0.43368474684478275,-0.0007855644597255937,-0.0005774741209459518,-0.005821430891741816,0.9999825800255182,0.2702376645781637,0.0011574717172073716,-0.00035695992445346523,-0.0011893444273625541,0.00032469892368501395,-0.004548673737030166,,-2.0,-3.0,308.0,295.0,2.530727415391778,-2.530727415391778,-0.017453292519943295,0.017453292519943295
2025/04/09 09:49:57.161498578,1744184997,160327185,world_ned,2.560170282302482,11.325451784829687,0.43368164596184733,-0.0007909435364872397,-0.00043428568135138814,-0.006044205942076379,0.9999813265150499,0.27417260274871974,1.3423326897794005e-06,-0.00026165902046940544,0.0007740595427409683,0.0030337983255849365,-0.004329050099775467,,-2.0,-2.0,305.00000000000006,300.0,2.530727415391778,-2.530727415391778,-0.017453292519943295,0.0
2025/04/09 09:49:57.264646806,1744184997,263560775,world_ned,2.5874223409267327,11.324954209261934,0.43367956143997094,-0.0006668490785296583,-0.0001732221525080904,-0.006279681620281032,0.9999800452534742,0.2748500555275189,-0.0033114683325597217,-0.00012660460534203097,0.003999301103100169,0.005807156533828434,-0.005282288374306084,,-2.0,-3.0,308.99999999999994,294.0,2.530727415391778,-2.5132741228718345,0.0,0.017453292519943295
2025/04/09 09:49:57.365784673,1744184997,364351831,world_ned,2.614962756184734,11.324241939268772,0.4336789226358381,-0.00043799862503720894,0.00015616352078515785,-0.006554050588963768,0.9999784138625376,0.2732903734966337,-0.003660588080273638,8.382667238016062e-05,0.004778131297318086,0.007812974334952122,-0.005678641851156562,,-2.0,-3.0,319.0,287.0,2.530727415391778,-2.4958208303518914,-1.0842021724855045e-21,0.03490658503988659
2025/04/09 09:49:57.457338343,1744184997,456454777,world_ned,2.6427931621285716,11.323554286045335,0.4336797566600513,-0.00021562996954933793,0.0004807209143487267,-0.006846684171529785,0.9999764223855351,0.28038953634363784,-0.002586613499211283,0.0002704051661187117,0.003924722431190788,0.005849836727259409,-0.006006119000231824,,-1.0,-3.0,324.0,282.0,2.530727415391778,-2.4958208303518914,0.0,0.05235987755982989
2025/04/09 09:49:57.561426181,1744184997,560412754,world_ned,2.670754599788949,11.322988986231767,0.4336792033150515,-6.254774597261428e-05,0.0007514400101770708,-0.007153794502789096,0.9999741269902449,0.2797109265321131,-0.0009699853560697997,0.0004117676345936167,0.002185119691622793,0.004740619329418049,-0.0062503183848413475,,-1.0,-3.0,326.0,282.0,2.530727415391778,-2.4958208303518914,-1.0842021724855045e-21,0.05235987755982989
2025/04/09 09:49:57.665348814,1744184997,661814609,world_ned,2.6988374201248444,11.322578625086678,0.43367623470806643,-1.1138429851551459e-05,0.0009124401992343697,-0.007473658982120653,0.9999716554734125,0.2775770388079648,0.00080835713147637,0.0004698841425420655,3.2446680536288266e-05,0.0030697102109501846,-0.006524488531958517,,-1.0,-3.0,327.99999999999994,282.0,2.530727415391778,-2.478367537831948,0.0,0.05235987755982989
2025/04/09 09:49:57.764277295,1744184997,762685766,world_ned,2.72695290097773,11.322340591725629,0.43367060699862375,-7.319651930677888e-05,0.0009402661417280756,-0.007798809069772698,0.999969144083429,0.2822286268554105,0.0029980798748302467,0.0004486142329044716,-0.002362807117425389,-0.0010931997157348585,-0.006268383881223258,,-2.0,-3.0,322.0,291.0,2.548180707911721,-2.5132741228718345,0.0,0.017453292519943295
2025/04/09 09:49:57.864967922,1744184997,863504261,world_ned,2.755088822623161,11.322249032463382,0.43366363347358267,-0.00023003668588946364,0.0008269729827230394,-0.008113449828422782,0.9999667170114667,0.2780942919833126,0.003842517497757086,0.0004245104758563594,-0.003524120135122842,-0.0024503280814597104,-0.006443619902488119,,-1.0,-3.0,324.0,289.0,2.530727415391778,-2.4958208303518914,0.0,0.03490658503988659
2025/04/09 09:49:57.965225784,1744184997,964398096,world_ned,2.7833530765578263,11.32220100518091,0.4336598913423886,-0.0004254962913393796,0.0005882932149549473,-0.008438975201056971,0.9999641276373644,0.286711424034623,0.004406230340647652,0.0003138187613065963,-0.003982757664102791,-0.006672964058075141,-0.006575266402661793,,-1.0,-3.0,326.0,289.0,2.530727415391778,-2.4958208303518914,0.0,0.03490658503988659
2025/04/09 09:49:58.57143716,1744184998,56425228,world_ned,2.811703893362088,11.32213020632296,0.433661201230761,-0.0006096325877941132,0.00027864441501658375,-0.008782287508926652,0.9999612103134343,0.2865867220544308,0.00395437390445232,0.0002047485826945964,-0.003214537129269828,-0.007262985759757272,-0.0071362464336544845,,-1.0,-4.0,335.0,282.0,2.5132741228718345,-2.478367537831948,-1.0842021724855045e-21,0.05235987755982989
2025/04/09 09:49:58.158714832,1744184998,157714649,world_ned,2.840252132821195,11.32201855042289,0.43366923578022354,-0.0007521348814970877,-5.703296898444478e-05,-0.009138596401194691,0.9999579576643093,0.29141202337607525,0.004086330899973595,7.626875700403527e-05,-0.002391198769371978,-0.008028020789071529,-0.0070037471769362255,,-2.0,-3.0,327.99999999999994,292.0,2.548180707911721,-2.5132741228718345,0.0,0.03490658503988659
2025/04/09 09:49:58.260056000,1744184998,259129083,world_ned,2.8691041104095643,11.32184912083876,0.4336806635178116,-0.000827915775138908,-0.0003651398891099265,-0.0094921587568722,0.9999545390418831,0.29408775015201505,0.0032935073362381617,-8.132568595518256e-05,-0.0006015832725955947,-0.006673458482867449,-0.007155643389812707,,-1.0,-3.0,331.0,292.0,2.548180707911721,-2.4958208303518914,0.0,0.03490658503988659
2025/04/09 09:49:58.362222909,1744184998,359925402,world_ned,2.8981978793663705,11.321571949016642,0.4336948758978285,-0.0008083930093169084,-0.00057028666443303,-0.009853229803460987,0.9999509663660029,0.29304856056170664,0.002536654271902951,-0.00017638634273516466,0.0012470895496036578,-0.0031723318798013043,-0.007280543671649437,,-1.0,-3.0,331.0,292.0,2.548180707911721,-2.4958208303518914,0.0,0.03490658503988659
2025/04/09 09:49:58.461622430,1744184998,460664589,world_ned,2.9276955906145323,11.321188700406164,0.4337130943999663,-0.0006997019072509511,-0.0006545175865562822,-0.010227617351648819,0.9999472375417006,0.29667466485887245,0.0017471741040160224,-0.00020609856846678094,0.0028997375360805787,-0.00037505607026541596,-0.007794903369303035,,-1.0,-4.0,343.00000000000006,283.0,2.5132741228718345,-2.478367537831948,0.0,0.06981317007977318
2025/04/09 09:49:58.562605891,1744184998,561536719,world_ned,2.957552867026803,11.320740151996258,0.4337290918947146,-0.0005313813581438947,-0.0005962903169900531,-0.010631943378065521,0.9999431603104827,0.30096574032255935,0.0018091382179528089,-0.000222726149164132,0.003603366334438174,0.002202033981397188,-0.00837094721560999,,-1.0,-4.0,343.00000000000006,282.0,2.4958208303518914,-2.4609142453120048,1.0842021724854813e-21,0.08726646259971647
2025/04/09 09:49:58.664365289,1744184998,662465167,world_ned,2.9877170752807625,11.320316069716265,0.43373659986261953,-0.00035676269056500036,-0.0004078996593345174,-0.011061464953675167,0.9999386732851816,0.3040976036511646,0.0027955545333299566,-0.00021755181173605168,0.003205092134989113,0.00448067009103538,-0.008772133131586873,,-1.0,-4.0,346.0,281.0,2.4958208303518914,-2.4609142453120048,-2.3133728824182618e-35,0.08726646259971647
2025/04/09 09:49:58.765310797,1744184998,763999987,world_ned,3.018238773853002,11.319973068498841,0.43373460676388254,-0.00021883547936216302,-0.00013992591583102273,-0.011508369856255004,0.9999337427825019,0.30525969207358267,0.004025215218386622,-0.0001525488622728578,0.0022179058625085937,0.006169190755797302,-0.009031569830013731,,-1.0,-4.0,347.0,282.0,2.4958208303518914,-2.4609142453120048,-2.3133728824182618e-35,0.06981317007977318
2025/04/09 09:49:58.866232147,1744184998,864737883,world_ned,3.0489370776896862,11.319734874204277,0.43372284878732426,-0.00014330493188430816,0.00017183907606674326,-0.011967625802913107,0.9999283603677165,0.3108896296560686,0.005544428344899553,-4.660516370143235e-05,0.0007394857561884038,0.005387798458779479,-0.009297085390993434,,-1.0,-4.0,346.0,287.0,2.5132741228718345,-2.478367537831948,-2.3133728824182618e-35,0.06981317007977318
2025/04/09 09:49:58.966553897,1744184998,965545548,world_ned,3.0796839296620226,11.319639701767349,0.4337037585289454,-0.00015166811232532093,0.0004756397384531602,-0.012427303086477161,0.9999226534595662,0.31133389080862955,0.00727312333718147,7.856118799218944e-05,-0.0009284546954375696,0.0045006317683158,-0.009002165421332245,,-1.0,-4.0,340.99999999999994,294.0,2.548180707911721,-2.4958208303518914,-2.3133728824182618e-35,0.03490658503988659
2025/04/09 09:49:59.57420510,1744184999,56505403,world_ned,3.110551860482568,11.319633512886861,0.43368208529387453,-0.0002245651567100072,0.0006948495221944199,-0.012878223219633394,0.9999168056000145,0.30216470941365325,0.008145354406054513,0.00020767678553305173,-0.0019438875925459772,0.005306317107148327,-0.009066872672628564,,-1.0,-4.0,341.99999999999994,294.0,2.548180707911721,-2.4958208303518914,-2.3133728824182618e-35,0.03490658503988659
2025/04/09 09:49:59.158330687,1744184999,157326075,world_ned,3.1415131111062404,11.319668970577695,0.4336613682551538,-0.0003370002629214789,0.0007945565401449658,-0.013334284442740364,0.999910721999283,0.309896407005501,0.008719677546424203,0.00029692016537204293,-0.002471469307401683,0.0007188505011942863,-0.009169626759352673,,-1.0,-4.0,346.0,298.0,2.548180707911721,-2.4958208303518914,-2.3133728824182618e-35,0.03490658503988659
2025/04/09 09:49:59.260885255,1744184999,258241401,world_ned,3.1723310779790683,11.319705358294957,0.433644228691329,-0.00045752440830067924,0.0007863089037024809,-0.013801510496986592,0.9999043407735189,0.3092926247709353,0.008631056372975607,0.00034054014532798247,-0.002188764995807651,-0.0016605252678317387,-0.009618436322147752,,-1.0,-4.0,354.0,289.0,2.5181807079117218,-2.478367537831948,-2.3133728824182618e-35,0.06490658503988658
2025/04/09 09:49:59.361514394,1744184999,358946559,world_ned,3.203227752344333,11.3197243036043,0.4336320079955732,-0.0005635455673294743,0.0006441554742195281,-0.014284583350368802,0.9998976038368254,0.3076558064870268,0.009052236415313032,0.00031446140147059894,-0.001900333340808896,-0.003594991717371726,-0.009526989739619922,,-1.0,-4.0,346.0,300.0,2.5482741228718337,-2.4958208303518914,-2.3133728824182618e-35,0.03490658503988659
2025/04/09 09:49:59.461012699,1744184999,459775869,world_ned,3.2341604673034112,11.319693700776927,0.43362955930621283,-0.0006293623277519181,0.00039872411454139355,-0.014768707826806409,0.9998906591179194,0.30592323400995647,0.008170888020225728,0.00028666386979529253,-0.0005298076437895771,-0.004540837793918014,-0.0100530459967858,,-1.0,-4.0,360.0,290.0,2.528274122871834,-2.4609142453120048,2.7755575615628914e-19,0.06981317007977318
2025/04/09 09:49:59.563178645,1744184999,562124733,world_ned,3.265237867356758,11.31956364165242,0.4336422216514042,-0.0006321383152370791,9.29020447288128e-05,-0.015284787851393327,0.9998829766681191,0.3179767210588793,0.008095281755911014,0.00027802132343193015,0.00042383480422215555,-0.008145361466334251,-0.010518952470596922,,-1.0,-4.0,360.99999999999994,291.0,2.4958208303518914,-2.4609142453120048,0.0,0.08726646259971647
2025/04/09 09:49:59.663860847,1744184999,663045405,world_ned,3.2963897808740366,11.319413823453882,0.4336672096256235,-0.0005966006398115479,-0.00020347804647172937,-0.015817798083871615,0.9998746921130363,0.311072824755484,0.008270776390978809,0.00015171965383314418,0.0011160976819537677,-0.005315482126117147,-0.010736989526404646,,-1.0,-4.0,360.99999999999994,294.0,2.5132741228718345,-2.4609142453120048,-1.3877787807814457e-19,0.06981317007977318
2025/04/09 09:49:59.768423633,1744184999,765692136,world_ned,3.3278568874619188,11.319241478453934,0.43369716544333436,-0.0005305638428077738,-0.0004646304688204591,-0.01636092584568883,0.9998659023719171,0.311794802676647,0.008590897508312956,2.9540910758834335e-06,0.0015690983592176178,-0.003348735999722236,-0.010961591988714742,,-1.0,-4.0,360.0,296.0,2.530727415391778,-2.478367537831948,0.0,0.06981317007977318
2025/04/09 09:49:59.858732024,1744184999,856406661,world_ned,3.3595965897965976,11.319029548757717,0.4337242848999662,-0.00043801172091935425,-0.000631893772445024,-0.016930755023411244,0.9998563688802157,0.3243906901954816,0.008176025328241054,-0.00016717416958526954,0.0022692235530810687,-0.00387544718865878,-0.011956391525407608,,0.0,-5.0,374.0,283.0,2.490727415391779,-2.4383675378319487,0.0,0.10471975511965978
2025/04/09 09:49:59.959830473,1744184999,957235433,world_ned,3.391530188634144,11.318786075928859,0.43373991786354804,-0.0003338508151167785,-0.0006644788430087365,-0.017547093749936304,0.9998457613614369,0.31619174854334525,0.009132145592952489,-0.00034400086550231024,0.0017761038569254078,0.0017716409525414495,-0.012548866166048467,,0.0,-5.0,376.0,284.0,2.4483675378319485,-2.426007660272118,0.0,0.10471975511965978
2025/04/09 09:50:00.58859220,1744185000,57961822,world_ned,3.423950973896154,11.318613894033527,0.433740022211615,-0.0002692207461657183,-0.0005966947653926602,-0.018186623920054133,0.9998343953805237,0.32323650956372824,0.010525465136247214,-0.00046237879006473276,0.0007793855237209854,0.003024595628728067,-0.012988310224551472,,0.0,-5.0,376.0,287.0,2.3933675378319497,-2.426007660272118,2.168404344971009e-21,0.10471975511965978
2025/04/09 09:50:00.159796216,1744185000,158749298,world_ned,3.4564954274653346,11.318545296665052,0.4337235255800761,-0.00025889512926769267,-0.000398629399017698,-0.018846138853454222,0.9998222827674079,0.33289004406900624,0.012128046800409192,-0.00047774432711226224,-0.0004282304399728056,0.0029351870512971828,-0.013335670680476896,,5.0,-5.0,376.99999999999994,295.0,2.3433675378319507,-2.443460952792061,0.0,0.10471975511965978
2025/04/09 09:50:00.260394816,1744185000,259529479,world_ned,3.4892438352300665,11.31858662999404,0.43369489486221185,-0.0003073038172056303,-0.00012399857089164803,-0.0195212530401808,0.9998093872676229,0.3236667112555645,0.013698671932473165,-0.00040703222083802375,-0.0015691508576264005,0.007086926915826159,-0.013619467119103307,,7.0,-5.0,375.0,301.0,2.2983675378319517,-2.4609142453120048,0.0,0.10471975511965978
2025/04/09 09:50:00.361869449,1744185000,361009282,world_ned,3.5223401346007917,11.318714364554584,0.43366065949651633,-0.0004008005408585702,0.000148662342412724,-0.020204425836904443,0.9997957783642795,0.32901324100360824,0.015007275937825694,-0.00024729889636448065,-0.0022372537844134875,0.005905276714213038,-0.013627930023597176,,4.0,-4.0,372.0,305.00000000000006,2.243367537831953,-2.478367537831948,2.168404344971009e-21,0.08726646259971647
