time,header_stamp_secs,header_stamp_nsecs,header_frame_id,orientation_x,orientation_y,orientation_z,orientation_w,orientation_covariance_0,orientation_covariance_1,orientation_covariance_2,orientation_covariance_3,orientation_covariance_4,orientation_covariance_5,orientation_covariance_6,orientation_covariance_7,orientation_covariance_8,angular_velocity_x,angular_velocity_y,angular_velocity_z,angular_velocity_covariance_0,angular_velocity_covariance_1,angular_velocity_covariance_2,angular_velocity_covariance_3,angular_velocity_covariance_4,angular_velocity_covariance_5,angular_velocity_covariance_6,angular_velocity_covariance_7,angular_velocity_covariance_8,linear_acceleration_x,linear_acceleration_y,linear_acceleration_z,linear_acceleration_covariance_0,linear_acceleration_covariance_1,linear_acceleration_covariance_2,linear_acceleration_covariance_3,linear_acceleration_covariance_4,linear_acceleration_covariance_5,linear_acceleration_covariance_6,linear_acceleration_covariance_7,linear_acceleration_covariance_8
2025/05/06 15:27:58.960827430,1746538078,957384485,mA1/imu,0.745022602682469,-0.667038619515514,-0.0008325259260958495,0.00032934428747085487,0.0,0.0,0.0,0.0,0.0,0.0,0.0,0.0,0.0,-0.0007315486997719644,-2.0806466261917026e-06,-1.505900890023985e-07,0.0,0.0,0.0,0.0,0.0,0.0,0.0,0.0,0.0,0.008320310037065924,-0.06666029062762636,9.8106494469373,0.0,0.0,0.0,0.0,0.0,0.0,0.0,0.0,0.0
2025/05/06 15:27:59.34039795,1746538079,32177171,mA1/imu,0.7450226063071802,-0.6670386204156892,-0.0008298361361190312,0.0003260938170296067,0.0,0.0,0.0,0.0,0.0,0.0,0.0,0.0,0.0,0.0008572979251126662,-1.4661312333458644e-05,-1.616430215741282e-07,0.0,0.0,0.0,0.0,0.0,0.0,0.0,0.0,0.0,0.007907177467483114,-0.585651590250593,9.809791732542669,0.0,0.0,0.0,0.0,0.0,0.0,0.0,0.0,0.0
2025/05/06 15:27:59.59674306,1746538079,57358756,mA1/imu,0.7450226097620093,-0.6670386206700265,-0.0008276199153231163,0.00032330064812435946,0.0,0.0,0.0,0.0,0.0,0.0,0.0,0.0,0.0,0.0007267568504176258,-1.0209884957325317e-05,-1.3825858099634977e-07,0.0,0.0,0.0,0.0,0.0,0.0,0.0,0.0,0.0,0.007480625179908825,0.03571907841167386,9.80944606701203,0.0,0.0,0.0,0.0,0.0,0.0,0.0,0.0,0.0
2025/05/06 15:27:59.118347133,1746538079,112369570,mA1/imu,0.7450226108189019,-0.667038614099206,-0.0008307352244057581,0.00032641719381906205,0.0,0.0,0.0,0.0,0.0,0.0,0.0,0.0,0.0,-0.0008662582902356771,-4.130225484898987e-06,-1.5212390400535408e-07,0.0,0.0,0.0,0.0,0.0,0.0,0.0,0.0,0.0,0.007893333287001024,0.5542435513720858,9.810049504223512,0.0,0.0,0.0,0.0,0.0,0.0,0.0,0.0,0.0
2025/05/06 15:27:59.158324497,1746538079,154090131,mA1/imu,0.7450226123441794,-0.6670386078475329,-0.0008334053729372569,0.0003288953693229482,0.0,0.0,0.0,0.0,0.0,0.0,0.0,0.0,0.0,-0.0007231433124509248,-1.368993737563516e-05,-1.9833655581041138e-07,0.0,0.0,0.0,0.0,0.0,0.0,0.0,0.0,0.0,0.008303871009612843,-0.06622295299092038,9.810634196926607,0.0,0.0,0.0,0.0,0.0,0.0,0.0,0.0,0.0
2025/05/06 15:27:59.213623748,1746538079,206775421,mA1/imu,0.7450226165313856,-0.6670386081584043,-0.0008307967629309625,0.0003253606699025008,0.0,0.0,0.0,0.0,0.0,0.0,0.0,0.0,0.0,0.0008626652033858711,-2.364246605299675e-05,-2.0206105839853337e-07,0.0,0.0,0.0,0.0,0.0,0.0,0.0,0.0,0.0,0.007899276043271994,-0.5854664684000859,9.809795719240583,0.0,0.0,0.0,0.0,0.0,0.0,0.0,0.0,0.0
2025/05/06 15:27:59.264932403,1746538079,262129864,mA1/imu,0.7450226204735598,-0.6670386078936634,-0.0008286378319558405,0.00032236832465797825,0.0,0.0,0.0,0.0,0.0,0.0,0.0,0.0,0.0,0.0007306797652923763,-1.5829753603456213e-05,-1.7124543439322203e-07,0.0,0.0,0.0,0.0,0.0,0.0,0.0,0.0,0.0,0.007465434415421118,0.03578789248481491,9.809431658260639,0.0,0.0,0.0,0.0,0.0,0.0,0.0,0.0,0.0
2025/05/06 15:27:59.321990595,1746538079,313373267,mA1/imu,0.7450226219679628,-0.6670386008839041,-0.0008317615606628624,0.00032536061814128833,0.0,0.0,0.0,0.0,0.0,0.0,0.0,0.0,0.0,-0.0008631654030431273,-6.362164093385069e-06,-1.7816845772780192e-07,0.0,0.0,0.0,0.0,0.0,0.0,0.0,0.0,0.0,0.007882378052800482,0.5542700710658475,9.810028600311375,0.0,0.0,0.0,0.0,0.0,0.0,0.0,0.0,0.0
2025/05/06 15:27:59.371434673,1746538079,364441524,mA1/imu,0.7450226238627696,-0.6670385942056876,-0.0008344405992890605,0.0003278438965057763,0.0,0.0,0.0,0.0,0.0,0.0,0.0,0.0,0.0,-0.0007280332061489562,-1.2368557820529772e-05,-2.1873268564076242e-07,0.0,0.0,0.0,0.0,0.0,0.0,0.0,0.0,0.0,0.0082920750089669,-0.06673768430625962,9.810663458626928,0.0,0.0,0.0,0.0,0.0,0.0,0.0,0.0,0.0
2025/05/06 15:27:59.439002253,1746538079,408425447,mA1/imu,0.7450226284083757,-0.6670385940969134,-0.0008318070616830247,0.0003244097723767095,0.0,0.0,0.0,0.0,0.0,0.0,0.0,0.0,0.0,0.0008616395787376465,-1.8766230451792285e-05,-2.1939583105595032e-07,0.0,0.0,0.0,0.0,0.0,0.0,0.0,0.0,0.0,0.007883105807459634,-0.5856846662393169,9.809815755734904,0.0,0.0,0.0,0.0,0.0,0.0,0.0,0.0,0.0
2025/05/06 15:27:59.462879023,1746538079,461039773,mA1/imu,0.7450226327448468,-0.6670385934881408,-0.0008295273683259524,0.0003215270519564446,0.0,0.0,0.0,0.0,0.0,0.0,0.0,0.0,0.0,0.000731124915247372,-8.332098375963396e-06,-1.8605855509563194e-07,0.0,0.0,0.0,0.0,0.0,0.0,0.0,0.0,0.0,0.00746190657509426,0.03569406818380929,9.809436646150392,0.0,0.0,0.0,0.0,0.0,0.0,0.0,0.0,0.0
2025/05/06 15:27:59.513967747,1746538079,507172186,mA1/imu,0.7450226346549705,-0.6670385861770467,-0.0008324672731815619,0.00032465509711195577,0.0,0.0,0.0,0.0,0.0,0.0,0.0,0.0,0.0,-0.0008621076459493552,3.7585013143096308e-06,-1.8987325351216222e-07,0.0,0.0,0.0,0.0,0.0,0.0,0.0,0.0,0.0,0.007875346154640257,0.5542315759529874,9.810031179702355,0.0,0.0,0.0,0.0,0.0,0.0,0.0,0.0,0.0
2025/05/06 15:27:59.584037277,1746538079,562715272,mA1/imu,0.7450226369680468,-0.6670385792411112,-0.0008349124952518889,0.0003273076576747997,0.0,0.0,0.0,0.0,0.0,0.0,0.0,0.0,0.0,-0.0007267511353111148,-7.593165153468278e-08,-2.278048714821255e-07,0.0,0.0,0.0,0.0,0.0,0.0,0.0,0.0,0.0,0.008289183171488752,-0.06674925809348858,9.810661118012625,0.0,0.0,0.0,0.0,0.0,0.0,0.0,0.0,0.0
2025/05/06 15:27:59.619370854,1746538079,609458496,mA1/imu,0.7450226418945094,-0.6670385788659606,-0.0008320562725436312,0.0003241162822576072,0.0,0.0,0.0,0.0,0.0,0.0,0.0,0.0,0.0,0.0008604036859273242,-5.276870863523873e-06,-2.241308205843316e-07,0.0,0.0,0.0,0.0,0.0,0.0,0.0,0.0,0.0,0.007884468799614047,-0.5858564512224644,9.80981334079519,0.0,0.0,0.0,0.0,0.0,0.0,0.0,0.0,0.0
2025/05/06 15:27:59.669841871,1746538079,654653762,mA1/imu,0.7450226465388963,-0.66703857811018,-0.0008295271987504197,0.0003214678129089198,0.0,0.0,0.0,0.0,0.0,0.0,0.0,0.0,0.0,0.0007312301242392602,5.517700368555615e-06,-1.859438506224135e-07,0.0,0.0,0.0,0.0,0.0,0.0,0.0,0.0,0.0,0.007463871452269809,0.03562295240978126,9.809438583068188,0.0,0.0,0.0,0.0,0.0,0.0,0.0,0.0,0.0
2025/05/06 15:27:59.714738666,1746538079,709347578,mA1/imu,0.7450226487191182,-0.6670385707165826,-0.000832206055503041,0.0003248153463586657,0.0,0.0,0.0,0.0,0.0,0.0,0.0,0.0,0.0,-0.0008615314349483904,1.7143232150432533e-05,-1.8856668156172295e-07,0.0,0.0,0.0,0.0,0.0,0.0,0.0,0.0,0.0,0.007879828127865621,0.5541976112895074,9.810041688303182,0.0,0.0,0.0,0.0,0.0,0.0,0.0,0.0,0.0
2025/05/06 15:27:59.780381743,1746538079,763175259,mA1/imu,0.7450226512895768,-0.6670385637008283,-0.0008344076826429395,0.0003276663013813674,0.0,0.0,0.0,0.0,0.0,0.0,0.0,0.0,0.0,-0.0007261979131403087,1.1829628641054215e-05,-2.2812154820667605e-07,0.0,0.0,0.0,0.0,0.0,0.0,0.0,0.0,0.0,0.008303783255356155,-0.0667663470106913,9.810661772038221,0.0,0.0,0.0,0.0,0.0,0.0,0.0,0.0,0.0
2025/05/06 15:27:59.816076572,1746538079,805936651,mA1/imu,0.7450226565130751,-0.6670385632483358,-0.0008312999098004429,0.00032459552733690196,0.0,0.0,0.0,0.0,0.0,0.0,0.0,0.0,0.0,0.0008633496165000675,4.652113304046073e-06,-2.3026619974894927e-07,0.0,0.0,0.0,0.0,0.0,0.0,0.0,0.0,0.0,0.007892895974500302,-0.585696499643281,9.80980788516038,0.0,0.0,0.0,0.0,0.0,0.0,0.0,0.0,0.0
2025/05/06 15:27:59.873357347,1746538079,865582623,mA1/imu,0.7450226615365679,-0.6670385622578521,-0.0008285753474824228,0.0003220571991191173,0.0,0.0,0.0,0.0,0.0,0.0,0.0,0.0,0.0,0.0007326335624691866,1.323298217556783e-05,-1.9980290912172387e-07,0.0,0.0,0.0,0.0,0.0,0.0,0.0,0.0,0.0,0.007477598305733969,0.03568929141744659,9.809447341538627,0.0,0.0,0.0,0.0,0.0,0.0,0.0,0.0,0.0
2025/05/06 15:27:59.937967929,1746538079,913318738,mA1/imu,0.7450226641419729,-0.6670385545056619,-0.000831128424263906,0.00032548938013847033,0.0,0.0,0.0,0.0,0.0,0.0,0.0,0.0,0.0,-0.0008609779874239537,2.2015280544066244e-05,-2.0869325440746964e-07,0.0,0.0,0.0,0.0,0.0,0.0,0.0,0.0,0.0,0.007890218674197374,0.5542271944556282,9.810041710498043,0.0,0.0,0.0,0.0,0.0,0.0,0.0,0.0,0.0
2025/05/06 15:27:59.960541822,1746538079,955937325,mA1/imu,0.7450226671651201,-0.667038547028926,-0.0008332776264428547,0.00032838408490197714,0.0,0.0,0.0,0.0,0.0,0.0,0.0,0.0,0.0,-0.0007262942704612165,1.3156042483750656e-05,-2.5434988665536163e-07,0.0,0.0,0.0,0.0,0.0,0.0,0.0,0.0,0.0,0.00832066145327352,-0.06675573133326483,9.810653126454563,0.0,0.0,0.0,0.0,0.0,0.0,0.0,0.0,0.0
2025/05/06 15:28:00.26505101,1746538080,12063490,mA1/imu,0.7450226728640341,-0.6670385460196012,-0.0008301910583345365,0.00032530815131535067,0.0,0.0,0.0,0.0,0.0,0.0,0.0,0.0,0.0,0.00086275905435715,2.507601601333956e-06,-2.6187074220891945e-07,0.0,0.0,0.0,0.0,0.0,0.0,0.0,0.0,0.0,0.007908203029608289,-0.5856925081844985,9.809800553341354,0.0,0.0,0.0,0.0,0.0,0.0,0.0,0.0,0.0
2025/05/06 15:28:00.82895556,1746538080,58732151,mA1/imu,0.7450226783724082,-0.6670385444000096,-0.0008275570850675517,0.0003227147201932345,0.0,0.0,0.0,0.0,0.0,0.0,0.0,0.0,0.0,0.0007317009404332673,7.816976329036886e-06,-2.3607645978591423e-07,0.0,0.0,0.0,0.0,0.0,0.0,0.0,0.0,0.0,0.007486055426400237,0.03569233138191725,9.80944491858614,0.0,0.0,0.0,0.0,0.0,0.0,0.0,0.0,0.0
2025/05/06 15:28:00.116398009,1746538080,111805418,mA1/imu,0.7450226814603503,-0.6670385359732445,-0.0008302570958891465,0.00032605130681686125,0.0,0.0,0.0,0.0,0.0,0.0,0.0,0.0,0.0,-0.0008621105075003506,1.4230311308670305e-05,-2.480600149159069e-07,0.0,0.0,0.0,0.0,0.0,0.0,0.0,0.0,0.0,0.007892079665912256,0.554232571490237,9.810039845032673,0.0,0.0,0.0,0.0,0.0,0.0,0.0,0.0,0.0
2025/05/06 15:28:00.160307808,1746538080,154296034,mA1/imu,0.7450226849546929,-0.6670385277710726,-0.0008326084889583494,0.0003288388728157402,0.0,0.0,0.0,0.0,0.0,0.0,0.0,0.0,0.0,-0.000728961837577687,3.608185011348341e-06,-2.9501180332900684e-07,0.0,0.0,0.0,0.0,0.0,0.0,0.0,0.0,0.0,0.008318203010300958,-0.06684320366758036,9.810647620217454,0.0,0.0,0.0,0.0,0.0,0.0,0.0,0.0,0.0
2025/05/06 15:28:00.213540729,1746538080,210729902,mA1/imu,0.7450226910896689,-0.6670385260767333,-0.0008297367285877008,0.00032561917634823953,0.0,0.0,0.0,0.0,0.0,0.0,0.0,0.0,0.0,0.000861824352142611,-8.149867210077838e-06,-3.0059698484430423e-07,0.0,0.0,0.0,0.0,0.0,0.0,0.0,0.0,0.0,0.007907923841370554,-0.5856427307004607,9.80979767468043,0.0,0.0,0.0,0.0,0.0,0.0,0.0,0.0,0.0
2025/05/06 15:28:00.318670169,1746538080,258023617,mA1/imu,0.7450226969918365,-0.6670385238131847,-0.0008273310977602393,0.0003228612582409671,0.0,0.0,0.0,0.0,0.0,0.0,0.0,0.0,0.0,0.0007303116604418983,-3.437042170926064e-06,-2.733229878204469e-07,0.0,0.0,0.0,0.0,0.0,0.0,0.0,0.0,0.0,0.007482730158133532,0.03571554427994875,9.809444565258344,0.0,0.0,0.0,0.0,0.0,0.0,0.0,0.0,0.0
2025/05/06 15:28:00.318709434,1746538080,308161957,mA1/imu,0.7450227004373164,-0.6670385147688255,-0.0008302701763778534,0.0003260360755230836,0.0,0.0,0.0,0.0,0.0,0.0,0.0,0.0,0.0,-0.000863754910794757,2.66871284377926e-06,-2.8412391911346716e-07,0.0,0.0,0.0,0.0,0.0,0.0,0.0,0.0,0.0,0.007894094604371838,0.5542425810203117,9.810038740987046,0.0,0.0,0.0,0.0,0.0,0.0,0.0,0.0,0.0
2025/05/06 15:28:00.374500532,1746538080,361089608,mA1/imu,0.7450227042743963,-0.6670385059913029,-0.0008328444343603102,0.00032864982036569663,0.0,0.0,0.0,0.0,0.0,0.0,0.0,0.0,0.0,-0.0007293490540013227,-7.462091565666743e-06,-3.297109363764362e-07,0.0,0.0,0.0,0.0,0.0,0.0,0.0,0.0,0.0,0.008314936878657097,-0.06675238372603604,9.81064120213597,0.0,0.0,0.0,0.0,0.0,0.0,0.0,0.0,0.0
2025/05/06 15:28:00.439411619,1746538080,434422026,mA1/imu,0.7450227107762539,-0.6670385037851753,-0.0008301384122316346,0.0003252166254440411,0.0,0.0,0.0,0.0,0.0,0.0,0.0,0.0,0.0,0.0008649551739415629,-1.8331525226964376e-05,-3.3308217614799065e-07,0.0,0.0,0.0,0.0,0.0,0.0,0.0,0.0,0.0,0.007900669797388508,-0.5853168064065271,9.809792905092868,0.0,0.0,0.0,0.0,0.0,0.0,0.0,0.0,0.0
2025/05/06 15:28:00.467906558,1746538080,459451094,mA1/imu,0.7450227169634877,-0.667038501078326,-0.0008278957861137263,0.00032229813937296916,0.0,0.0,0.0,0.0,0.0,0.0,0.0,0.0,0.0,0.0007302174999535029,-1.1955517405678083e-05,-2.9874794896145494e-07,0.0,0.0,0.0,0.0,0.0,0.0,0.0,0.0,0.0,0.007475037018388107,0.03580347532602739,9.809438196187742,0.0,0.0,0.0,0.0,0.0,0.0,0.0,0.0,0.0
2025/05/06 15:28:00.527335627,1746538080,509603298,mA1/imu,0.7450227206091148,-0.6670384916836097,-0.0008309798546405124,0.000325363072758805,0.0,0.0,0.0,0.0,0.0,0.0,0.0,0.0,0.0,-0.0008646806115000018,-3.7951863617887012e-06,-3.0285356592672086e-07,0.0,0.0,0.0,0.0,0.0,0.0,0.0,0.0,0.0,0.007890999448464409,0.5542767449168149,9.81002719695145,0.0,0.0,0.0,0.0,0.0,0.0,0.0,0.0,0.0
2025/05/06 15:28:00.558354013,1746538080,555274450,mA1/imu,0.7450227245881643,-0.6670384826406955,-0.0008336647909987547,0.0003279125541754922,0.0,0.0,0.0,0.0,0.0,0.0,0.0,0.0,0.0,-0.0007305013090142094,-1.1416261627066496e-05,-3.424549302402165e-07,0.0,0.0,0.0,0.0,0.0,0.0,0.0,0.0,0.0,0.00830036862958479,-0.06673491462949122,9.810655020630213,0.0,0.0,0.0,0.0,0.0,0.0,0.0,0.0,0.0
2025/05/06 15:28:00.624894943,1746538080,612277149,mA1/imu,0.7450227311700522,-0.667038480163624,-0.0008310842878314042,0.00032453016040368226,0.0,0.0,0.0,0.0,0.0,0.0,0.0,0.0,0.0,0.0008583813356337295,-1.968509986471234e-05,-3.4318131409402773e-07,0.0,0.0,0.0,0.0,0.0,0.0,0.0,0.0,0.0,0.007890707631734212,-0.585684048783949,9.809815502079516,0.0,0.0,0.0,0.0,0.0,0.0,0.0,0.0,0.0
2025/05/06 15:28:00.668683398,1746538080,666320186,mA1/imu,0.7450227375030808,-0.6670384771905955,-0.0008288962472181425,0.00032168568298934156,0.0,0.0,0.0,0.0,0.0,0.0,0.0,0.0,0.0,0.000727331729381187,-1.0521741682264209e-05,-3.094195983918891e-07,0.0,0.0,0.0,0.0,0.0,0.0,0.0,0.0,0.0,0.007468877186531202,0.03569588096098587,9.809444109309373,0.0,0.0,0.0,0.0,0.0,0.0,0.0,0.0,0.0
2025/05/06 15:28:00.715777661,1746538080,708182355,mA1/imu,0.7450227413753022,-0.6670384675215238,-0.0008319629026043087,0.00032483518159472926,0.0,0.0,0.0,0.0,0.0,0.0,0.0,0.0,0.0,-0.0008662815105078473,5.2544827624504355e-08,-3.1345380776957706e-07,0.0,0.0,0.0,0.0,0.0,0.0,0.0,0.0,0.0,0.00787580825085393,0.5542322466123373,9.810037464786022,0.0,0.0,0.0,0.0,0.0,0.0,0.0,0.0,0.0
2025/05/06 15:28:00.765225066,1746538080,761851152,mA1/imu,0.7450227456076487,-0.66703845820805,-0.0008345858009311792,0.0003275136778923582,0.0,0.0,0.0,0.0,0.0,0.0,0.0,0.0,0.0,-0.0007328188465019771,-5.181362586319031e-06,-3.5067677176032367e-07,0.0,0.0,0.0,0.0,0.0,0.0,0.0,0.0,0.0,0.008291117930477826,-0.06685694534908221,9.810656138827303,0.0,0.0,0.0,0.0,0.0,0.0,0.0,0.0,0.0
2025/05/06 15:28:00.816742284,1746538080,810884110,mA1/imu,0.745022620730529,-0.6670386023824368,-0.0008321760205036513,0.0003240595171478805,0.0,0.0,0.0,0.0,0.0,0.0,0.0,0.0,0.0,0.0008537759526805159,-3.910169905523286e-05,2.588804583544159e-05,0.0,0.0,0.0,0.0,0.0,0.0,0.0,0.0,0.0,0.008112331115986486,-0.5868693518127746,9.809769932636597,0.0,0.0,0.0,0.0,0.0,0.0,0.0,0.0,0.0
2025/05/06 15:28:00.864871835,1746538080,860540046,mA1/imu,0.745021849369019,-0.6670394671248159,-0.0008309897384360901,0.0003204944038673878,0.0,0.0,0.0,0.0,0.0,0.0,0.0,0.0,0.0,0.0007225049292729171,-9.631606856383338e-05,4.8060354145092474e-05,0.0,0.0,0.0,0.0,0.0,0.0,0.0,0.0,0.0,0.01042438857545532,0.035853673673742384,9.809443019961375,0.0,0.0,0.0,0.0,0.0,0.0,0.0,0.0,0.0
2025/05/06 15:28:00.947940302,1746538080,912778172,mA1/imu,0.745021057357784,-0.6670403440922728,-0.0008367722147559988,0.0003213394039475083,0.0,0.0,0.0,0.0,0.0,0.0,0.0,0.0,0.0,-0.0008689227841411478,-0.00017875356236657117,4.668146889303885e-05,0.0,0.0,0.0,0.0,0.0,0.0,0.0,0.0,0.0,0.010758871643061272,0.5544217346888274,9.81003724925662,0.0,0.0,0.0,0.0,0.0,0.0,0.0,0.0,0.0
2025/05/06 15:28:01.26418882,1746538080,963717053,mA1/imu,0.745020286778334,-0.6670411966304738,-0.0008436398223074819,0.0003202473496325859,0.0,0.0,0.0,0.0,0.0,0.0,0.0,0.0,0.0,-0.0007324647477371384,-0.00026226609666067576,4.528563195190363e-05,0.0,0.0,0.0,0.0,0.0,0.0,0.0,0.0,0.0,0.010992076801650763,-0.06683233003765277,9.810663324796165,0.0,0.0,0.0,0.0,0.0,0.0,0.0,0.0,0.0
2025/05/06 15:28:01.55950774,1746538081,11200244,mA1/imu,0.7450195397341153,-0.6670420313065318,-0.0008464447616803125,0.0003121155046248797,0.0,0.0,0.0,0.0,0.0,0.0,0.0,0.0,0.0,0.000856888549282542,-0.00032857620300040454,4.3956606737492995e-05,0.0,0.0,0.0,0.0,0.0,0.0,0.0,0.0,0.0,0.01049504891059059,-0.585917394790077,9.809810200168812,0.0,0.0,0.0,0.0,0.0,0.0,0.0,0.0,0.0
2025/05/06 15:28:01.121370263,1746538081,64006122,mA1/imu,0.7450188131822633,-0.6670428416144091,-0.0008504208808061108,0.00030371004524278923,0.0,0.0,0.0,0.0,0.0,0.0,0.0,0.0,0.0,0.00072992368682745,-0.00035518840145475013,4.2700268785083045e-05,0.0,0.0,0.0,0.0,0.0,0.0,0.0,0.0,0.0,0.009863394772518744,0.035962231946209025,9.809443214153358,0.0,0.0,0.0,0.0,0.0,0.0,0.0,0.0,0.0
2025/05/06 15:28:01.171361432,1746538081,155236016,mA1/imu,0.7450174168038302,-0.6670443799443981,-0.0008691071267219343,0.0002974833504941335,0.0,0.0,0.0,0.0,0.0,0.0,0.0,0.0,0.0,-0.0007234256087659078,-0.00035316324728954505,4.0242210000244304e-05,0.0,0.0,0.0,0.0,0.0,0.0,0.0,0.0,0.0,0.01041118906657101,-0.06697767695041812,9.810652898727156,0.0,0.0,0.0,0.0,0.0,0.0,0.0,0.0,0.0
2025/05/06 15:28:01.209118982,1746538081,206560306,mA1/imu,0.745016750861327,-0.6670451233530365,-0.0008724006523376199,0.0002885551339566684,0.0,0.0,0.0,0.0,0.0,0.0,0.0,0.0,0.0,0.000867329121992904,-0.00032759561428087624,3.9115899549545544e-05,0.0,0.0,0.0,0.0,0.0,0.0,0.0,0.0,0.0,0.009943052955624612,-0.5859197162334444,9.809798999689995,0.0,0.0,0.0,0.0,0.0,0.0,0.0,0.0,0.0
2025/05/06 15:28:01.262501226,1746538081,258440619,mA1/imu,0.7450161039273745,-0.6670458455273207,-0.000875188484256665,0.0002808891854857791,0.0,0.0,0.0,0.0,0.0,0.0,0.0,0.0,0.0,0.0007390226147219699,-0.0002645219420184959,3.80691247544488e-05,0.0,0.0,0.0,0.0,0.0,0.0,0.0,0.0,0.0,0.009362876346344366,0.036077056195741315,9.809442210021246,0.0,0.0,0.0,0.0,0.0,0.0,0.0,0.0,0.0
2025/05/06 15:28:01.309502818,1746538081,308357509,mA1/imu,0.7450154736925085,-0.6670465407041882,-0.0008820196142259291,0.00028024043790837635,0.0,0.0,0.0,0.0,0.0,0.0,0.0,0.0,0.0,-0.0008523661165418256,-0.00018480897751783684,3.703391484990182e-05,0.0,0.0,0.0,0.0,0.0,0.0,0.0,0.0,0.0,0.009737029046223498,0.5546156853587778,9.810038545370428,0.0,0.0,0.0,0.0,0.0,0.0,0.0,0.0,0.0
2025/05/06 15:28:01.360503143,1746538081,359404250,mA1/imu,0.7450148622073895,-0.6670472170710875,-0.000886955063663013,0.00028035430617257,0.0,0.0,0.0,0.0,0.0,0.0,0.0,0.0,0.0,-0.0007173587778965833,-0.00010977120393227644,3.6013931847511794e-05,0.0,0.0,0.0,0.0,0.0,0.0,0.0,0.0,0.0,0.010082052612082509,-0.06701802693999102,9.810637054227096,0.0,0.0,0.0,0.0,0.0,0.0,0.0,0.0,0.0
2025/05/06 15:28:01.415216406,1746538081,409389504,mA1/imu,0.7450142710064698,-0.6670478819401919,-0.0008849205532692499,0.0002758829763127932,0.0,0.0,0.0,0.0,0.0,0.0,0.0,0.0,0.0,0.0008776988773073681,-2.919875396851966e-05,3.506128184832357e-05,0.0,0.0,0.0,0.0,0.0,0.0,0.0,0.0,0.0,0.009644728493759653,-0.5855325439215355,9.809792912031684,0.0,0.0,0.0,0.0,0.0,0.0,0.0,0.0,0.0
2025/05/06 15:28:01.468118273,1746538081,464264523,mA1/imu,0.7450136970426083,-0.6670485280646145,-0.000881789053774547,0.0002736307740337794,0.0,0.0,0.0,0.0,0.0,0.0,0.0,0.0,0.0,0.000736936154194192,6.848690442557131e-05,3.4175559378777386e-05,0.0,0.0,0.0,0.0,0.0,0.0,0.0,0.0,0.0,0.009217566862882134,0.035776329768755305,9.809415819609596,0.0,0.0,0.0,0.0,0.0,0.0,0.0,0.0,0.0
2025/05/06 15:28:01.534419619,1746538081,508978221,mA1/imu,0.7450131379977075,-0.6670491497286706,-0.0008822462277290491,0.0002787447936857866,0.0,0.0,0.0,0.0,0.0,0.0,0.0,0.0,0.0,-0.0008540950579610069,0.00016330477562458314,3.326772957388131e-05,0.0,0.0,0.0,0.0,0.0,0.0,0.0,0.0,0.0,0.009625765216629266,0.5544811117457604,9.810037014631959,0.0,0.0,0.0,0.0,0.0,0.0,0.0,0.0,0.0
2025/05/06 15:28:01.579021962,1746538081,563221473,mA1/imu,0.7450125960797721,-0.6670497544351954,-0.0008807714818331372,0.00028466123823819444,0.0,0.0,0.0,0.0,0.0,0.0,0.0,0.0,0.0,-0.0007197749965446249,0.00023193579676212306,3.232652762777403e-05,0.0,0.0,0.0,0.0,0.0,0.0,0.0,0.0,0.0,0.010102485509864475,-0.06709985554726912,9.81067221208451,0.0,0.0,0.0,0.0,0.0,0.0,0.0,0.0,0.0
2025/05/06 15:28:01.612974109,1746538081,608691865,mA1/imu,0.7450120718673113,-0.6670503501615936,-0.0008725482543607728,0.00028597345144415373,0.0,0.0,0.0,0.0,0.0,0.0,0.0,0.0,0.0,0.0008683844931827157,0.00034237984516008945,3.184363279327418e-05,0.0,0.0,0.0,0.0,0.0,0.0,0.0,0.0,0.0,0.0016032787056611281,-0.5860111858372554,9.80977597565162,0.0,0.0,0.0,0.0,0.0,0.0,0.0,0.0,0.0
2025/05/06 15:28:01.749967716,1746538081,662610890,mA1/imu,0.7450115412505943,-0.6670509565670462,-0.0008598656185211116,0.0002921943201550898,0.0,0.0,0.0,0.0,0.0,0.0,0.0,0.0,0.0,0.0007367765571748089,0.0006666878184291397,3.309064130505249e-05,0.0,0.0,0.0,0.0,0.0,0.0,0.0,0.0,0.0,0.0015979379973796153,0.035959683587512566,9.809410601517559,0.0,0.0,0.0,0.0,0.0,0.0,0.0,0.0,0.0
2025/05/06 15:28:01.793405656,1746538081,706005534,mA1/imu,0.7450109944580184,-0.6670515759078955,-0.0008471052244194278,0.00030923810570398575,0.0,0.0,0.0,0.0,0.0,0.0,0.0,0.0,0.0,-0.000858634751113356,0.0009449152302134957,3.4260762597626e-05,0.0,0.0,0.0,0.0,0.0,0.0,0.0,0.0,0.0,0.00223596878228151,0.5543894997930402,9.810064472006804,0.0,0.0,0.0,0.0,0.0,0.0,0.0,0.0,0.0
2025/05/06 15:28:01.839028697,1746538081,758727653,mA1/imu,0.7450104344486924,-0.6670522135244653,-0.000829653509582398,0.00032965092971647906,0.0,0.0,0.0,0.0,0.0,0.0,0.0,0.0,0.0,-0.0007263749487068506,0.0011410335924090733,3.521440182841768e-05,0.0,0.0,0.0,0.0,0.0,0.0,0.0,0.0,0.0,0.0032456970710830046,-0.0667595268960251,9.810674095136982,0.0,0.0,0.0,0.0,0.0,0.0,0.0,0.0,0.0
2025/05/06 15:28:01.862989698,1746538081,811528207,mA1/imu,0.7450098649665741,-0.6670528722923507,-0.0008039698520925518,0.0003468450501762215,0.0,0.0,0.0,0.0,0.0,0.0,0.0,0.0,0.0,0.0008604355145270322,0.0012639535503566925,3.602613281453089e-05,0.0,0.0,0.0,0.0,0.0,0.0,0.0,0.0,0.0,0.0030472105059889095,-0.5857428066858129,9.809786444783839,0.0,0.0,0.0,0.0,0.0,0.0,0.0,0.0,0.0
2025/05/06 15:28:01.892741617,1746538081,862742776,mA1/imu,0.7450092843284165,-0.6670535422899527,-0.0007772162435749164,0.00036594780683280525,0.0,0.0,0.0,0.0,0.0,0.0,0.0,0.0,0.0,0.0007281439551405347,0.0013185258518514538,3.6705885637622655e-05,0.0,0.0,0.0,0.0,0.0,0.0,0.0,0.0,0.0,0.003273381402005693,0.035907421267757915,9.809428392860006,0.0,0.0,0.0,0.0,0.0,0.0,0.0,0.0,0.0
2025/05/06 15:28:01.913307446,1746538081,906637006,mA1/imu,0.7450086907975468,-0.6670542155548032,-0.0007558014885210057,0.0003910381074834463,0.0,0.0,0.0,0.0,0.0,0.0,0.0,0.0,0.0,-0.0008672076513441729,0.001294543875832175,3.720068623776035e-05,0.0,0.0,0.0,0.0,0.0,0.0,0.0,0.0,0.0,0.003873418254780608,0.5544575650271426,9.810084320868807,0.0,0.0,0.0,0.0,0.0,0.0,0.0,0.0,0.0
2025/05/06 15:28:01.978292866,1746538081,961972553,mA1/imu,0.7450080884846404,-0.667054896882695,-0.0007355381609527098,0.0004142715208473268,0.0,0.0,0.0,0.0,0.0,0.0,0.0,0.0,0.0,-0.0007352725114941016,0.0011723565668186862,3.750301355146674e-05,0.0,0.0,0.0,0.0,0.0,0.0,0.0,0.0,0.0,0.004832324757223955,-0.06697787189467007,9.810693701691118,0.0,0.0,0.0,0.0,0.0,0.0,0.0,0.0,0.0
2025/05/06 15:28:02.38429589,1746538082,10497498,mA1/imu,0.7450074813464254,-0.6670555901986213,-0.0007129448792222689,0.00042898977109313635,0.0,0.0,0.0,0.0,0.0,0.0,0.0,0.0,0.0,0.0008519295233946043,0.000981237453147181,3.773101540121606e-05,0.0,0.0,0.0,0.0,0.0,0.0,0.0,0.0,0.0,0.004539883193026973,-0.5859007231385001,9.809802425402173,0.0,0.0,0.0,0.0,0.0,0.0,0.0,0.0,0.0
2025/05/06 15:28:02.117405992,1746538082,59669921,mA1/imu,0.7450068666168452,-0.6670562882798386,-0.0006948734273774339,0.0004405802930624444,0.0,0.0,0.0,0.0,0.0,0.0,0.0,0.0,0.0,0.0007207394757424938,0.0007462681240615824,3.791401917086583e-05,0.0,0.0,0.0,0.0,0.0,0.0,0.0,0.0,0.0,0.004458763827353561,0.035982378942559776,9.80945092376436,0.0,0.0,0.0,0.0,0.0,0.0,0.0,0.0,0.0
2025/05/06 15:28:02.134551769,1746538082,107979429,mA1/imu,0.7450062416568952,-0.6670569855443464,-0.0006870960188813129,0.0004536825083063784,0.0,0.0,0.0,0.0,0.0,0.0,0.0,0.0,0.0,-0.0008732920182879137,0.00047185252719455416,3.800701637072195e-05,0.0,0.0,0.0,0.0,0.0,0.0,0.0,0.0,0.0,0.00491870977244475,0.5544872183975419,9.810085117107036,0.0,0.0,0.0,0.0,0.0,0.0,0.0,0.0,0.0
2025/05/06 15:28:02.188332222,1746538082,163012960,mA1/imu,0.7450056105426333,-0.6670576878725218,-0.0006845022506303838,0.00046126655271689525,0.0,0.0,0.0,0.0,0.0,0.0,0.0,0.0,0.0,-0.0007396935242621176,0.00015549229756662344,3.803858745842528e-05,0.0,0.0,0.0,0.0,0.0,0.0,0.0,0.0,0.0,0.005429712605590451,-0.06695065963493653,9.810676938747822,0.0,0.0,0.0,0.0,0.0,0.0,0.0,0.0,0.0
2025/05/06 15:28:02.241671347,1746538082,206507203,mA1/imu,0.7450049763255859,-0.667058400738319,-0.0006824855790199598,0.00045767672440545236,0.0,0.0,0.0,0.0,0.0,0.0,0.0,0.0,0.0,0.0008492789579998797,-0.0001679689527496859,3.8130081773671665e-05,0.0,0.0,0.0,0.0,0.0,0.0,0.0,0.0,0.0,0.004997397501510618,-0.5858509313288042,9.809782364548994,0.0,0.0,0.0,0.0,0.0,0.0,0.0,0.0,0.0
2025/05/06 15:28:02.275851586,1746538082,264167824,mA1/imu,0.7450043343375546,-0.6670591192451208,-0.0006865325280183916,0.00044935873028014535,0.0,0.0,0.0,0.0,0.0,0.0,0.0,0.0,0.0,0.0007243194267738265,-0.0004618668954804931,3.8321001969336804e-05,0.0,0.0,0.0,0.0,0.0,0.0,0.0,0.0,0.0,0.004438178803237081,0.03621901431761351,9.80942866315267,0.0,0.0,0.0,0.0,0.0,0.0,0.0,0.0,0.0
2025/05/06 15:28:02.315758039,1746538082,307527013,mA1/imu,0.7450036803377882,-0.6670598391425804,-0.0007012044915875294,0.0004422651768206035,0.0,0.0,0.0,0.0,0.0,0.0,0.0,0.0,0.0,-0.000871035010250953,-0.0007262837568923716,3.855909548369099e-05,0.0,0.0,0.0,0.0,0.0,0.0,0.0,0.0,0.0,0.004802714566362436,0.5545346596404651,9.810057227659504,0.0,0.0,0.0,0.0,0.0,0.0,0.0,0.0,0.0
2025/05/06 15:28:02.384080023,1746538082,362402469,mA1/imu,0.7450030173305575,-0.6670605672013015,-0.0007200583727850869,0.00043054544807387624,0.0,0.0,0.0,0.0,0.0,0.0,0.0,0.0,0.0,-0.0007365001948293159,-0.0009605821074228854,3.884590605598567e-05,0.0,0.0,0.0,0.0,0.0,0.0,0.0,0.0,0.0,0.00491796173617644,-0.06683226056603403,9.810670237748322,0.0,0.0,0.0,0.0,0.0,0.0,0.0,0.0,0.0
2025/05/06 15:28:02.437823345,1746538082,417972251,mA1/imu,0.7450023478288303,-0.6670613093233031,-0.0007372497708730619,0.0004096293280970157,0.0,0.0,0.0,0.0,0.0,0.0,0.0,0.0,0.0,0.0008536430392822652,-0.0011405514522734171,3.923393336687654e-05,0.0,0.0,0.0,0.0,0.0,0.0,0.0,0.0,0.0,0.004444803040371599,-0.5857925912451332,9.809786999290772,0.0,0.0,0.0,0.0,0.0,0.0,0.0,0.0,0.0
2025/05/06 15:28:02.465377725,1746538082,455744024,mA1/imu,0.7450016675667843,-0.6670620601601086,-0.0007572474244311536,0.00038703229880776265,0.0,0.0,0.0,0.0,0.0,0.0,0.0,0.0,0.0,0.0007248946062782365,-0.0012342983781683367,3.9741146879231127e-05,0.0,0.0,0.0,0.0,0.0,0.0,0.0,0.0,0.0,0.00363012628795432,0.03592440923929571,9.80941317330203,0.0,0.0,0.0,0.0,0.0,0.0,0.0,0.0,0.0
2025/05/06 15:28:02.515213154,1746538082,509393167,mA1/imu,0.7450009733868554,-0.6670628150067396,-0.0007836195803857166,0.0003693619844682066,0.0,0.0,0.0,0.0,0.0,0.0,0.0,0.0,0.0,-0.0008666298496297026,-0.0012578642757055274,4.032271807357385e-05,0.0,0.0,0.0,0.0,0.0,0.0,0.0,0.0,0.0,0.003988960926415394,0.5544629529908053,9.81003945493051,0.0,0.0,0.0,0.0,0.0,0.0,0.0,0.0,0.0
2025/05/06 15:28:02.564726462,1746538082,561630406,mA1/imu,0.7450002680463231,-0.667063581834388,-0.000809295482484744,0.0003513431454167578,0.0,0.0,0.0,0.0,0.0,0.0,0.0,0.0,0.0,-0.0007300024465345539,-0.0012225710389259087,4.101569573477808e-05,0.0,0.0,0.0,0.0,0.0,0.0,0.0,0.0,0.0,0.004056168281005232,-0.06699599846174023,9.810652984023426,0.0,0.0,0.0,0.0,0.0,0.0,0.0,0.0,0.0
2025/05/06 15:28:02.615744958,1746538082,611634811,mA1/imu,0.7449995535972481,-0.6670643681870201,-0.0008281156447275998,0.00032872424850838766,0.0,0.0,0.0,0.0,0.0,0.0,0.0,0.0,0.0,0.0008612929135064677,-0.0011219792512389306,4.1815741265150605e-05,0.0,0.0,0.0,0.0,0.0,0.0,0.0,0.0,0.0,0.0036428575424376497,-0.5859640749301311,9.809769802077742,0.0,0.0,0.0,0.0,0.0,0.0,0.0,0.0,0.0
2025/05/06 15:28:02.694386269,1746538082,664959955,mA1/imu,0.7449988353302743,-0.6670651583755765,-0.0008454817734143895,0.00030821822278008704,0.0,0.0,0.0,0.0,0.0,0.0,0.0,0.0,0.0,0.0007328412476615691,-0.001024311997798159,4.1805745006184555e-05,0.0,0.0,0.0,0.0,0.0,0.0,0.0,0.0,0.0,0.005374402186097736,0.036053956216217264,9.809417425730821,0.0,0.0,0.0,0.0,0.0,0.0,0.0,0.0,0.0
2025/05/06 15:28:02.760054719,1746538082,708027554,mA1/imu,0.7449981168387357,-0.6670659404103372,-0.0008658011261987912,0.0002957019098543796,0.0,0.0,0.0,0.0,0.0,0.0,0.0,0.0,0.0,-0.0008586245794669975,-0.0008707727523126909,4.1818805847347854e-05,0.0,0.0,0.0,0.0,0.0,0.0,0.0,0.0,0.0,0.005783518490668852,0.5545991013588837,9.810044623342737,0.0,0.0,0.0,0.0,0.0,0.0,0.0,0.0,0.0
2025/05/06 15:28:02.824250024,1746538082,765062381,mA1/imu,0.7449974013724459,-0.6670667221218128,-0.0008824076948485628,0.00028555668957815463,0.0,0.0,0.0,0.0,0.0,0.0,0.0,0.0,0.0,-0.0007229053821277485,-0.0006840985707657988,4.1853541910272306e-05,0.0,0.0,0.0,0.0,0.0,0.0,0.0,0.0,0.0,0.006035638052707894,-0.06720247192985765,9.810664689007027,0.0,0.0,0.0,0.0,0.0,0.0,0.0,0.0,0.0
2025/05/06 15:28:02.858128959,1746538082,805701522,mA1/imu,0.7449966913847358,-0.6670675105980508,-0.0008897096013662821,0.0002730332238700084,0.0,0.0,0.0,0.0,0.0,0.0,0.0,0.0,0.0,0.0008671178487257388,-0.00046491694904032187,4.194315582748974e-05,0.0,0.0,0.0,0.0,0.0,0.0,0.0,0.0,0.0,0.005686003795492098,-0.5861513215023263,9.809785163398033,0.0,0.0,0.0,0.0,0.0,0.0,0.0,0.0,0.0
2025/05/06 15:28:02.883958825,1746538082,861450288,mA1/imu,0.7449959849171952,-0.6670682985674465,-0.0008928949178275356,0.00026503255603286467,0.0,0.0,0.0,0.0,0.0,0.0,0.0,0.0,0.0,0.0007381879932945034,-0.0002083717169484978,4.2061366267691594e-05,0.0,0.0,0.0,0.0,0.0,0.0,0.0,0.0,0.0,0.0053263514655380855,0.03620144257864681,9.809439851573067,0.0,0.0,0.0,0.0,0.0,0.0,0.0,0.0,0.0
2025/05/06 15:28:02.939409466,1746538082,906409999,mA1/imu,0.7449952805517119,-0.6670690793422921,-0.0008966281743935652,0.0002672059498751044,0.0,0.0,0.0,0.0,0.0,0.0,0.0,0.0,0.0,-0.0008540568907478077,5.514524742877982e-05,4.214331979479144e-05,0.0,0.0,0.0,0.0,0.0,0.0,0.0,0.0,0.0,0.005838631911059678,0.5547394550322738,9.810071491652735,0.0,0.0,0.0,0.0,0.0,0.0,0.0,0.0,0.0
2025/05/06 15:28:02.977407795,1746538082,958968066,mA1/imu,0.744994580788024,-0.6670698603090499,-0.0008952783568561359,0.00027302088693424123,0.0,0.0,0.0,0.0,0.0,0.0,0.0,0.0,0.0,-0.0007198754907584012,0.00029228359874324846,4.217461769319165e-05,0.0,0.0,0.0,0.0,0.0,0.0,0.0,0.0,0.0,0.006490515176525227,-0.06732448255535572,9.810670370761619,0.0,0.0,0.0,0.0,0.0,0.0,0.0,0.0,0.0
2025/05/06 15:28:03.16155825,1746538083,6271512,mA1/imu,0.7449938876110073,-0.6670706474794565,-0.0008843719505432959,0.00027673060820084097,0.0,0.0,0.0,0.0,0.0,0.0,0.0,0.0,0.0,0.0008686309151954127,0.0004967466800061372,4.218241807515291e-05,0.0,0.0,0.0,0.0,0.0,0.0,0.0,0.0,0.0,0.007517551703376877,-0.5862447347441859,9.80980926503172,0.0,0.0,0.0,0.0,0.0,0.0,0.0,0.0,0.0
2025/05/06 15:28:03.70136796,1746538083,61349005,mA1/imu,0.7449931990770416,-0.667071431409256,-0.0008707537268337424,0.0002837507863742095,0.0,0.0,0.0,0.0,0.0,0.0,0.0,0.0,0.0,0.0007382958035295518,0.0006463839049748095,4.209522578769553e-05,0.0,0.0,0.0,0.0,0.0,0.0,0.0,0.0,0.0,0.007398848761982411,0.03627932130085798,9.809455566506083,0.0,0.0,0.0,0.0,0.0,0.0,0.0,0.0,0.0
2025/05/06 15:28:03.162009477,1746538083,111596328,mA1/imu,0.7449925132855434,-0.6670722044768067,-0.0008601955084790323,0.00029870826874700334,0.0,0.0,0.0,0.0,0.0,0.0,0.0,0.0,0.0,-0.0008497440501937458,0.0007580217340470137,4.1917545492392744e-05,0.0,0.0,0.0,0.0,0.0,0.0,0.0,0.0,0.0,0.007891056472147025,0.5527877052235911,9.81006675983569,0.0,0.0,0.0,0.0,0.0,0.0,0.0,0.0,0.0
2025/05/06 15:28:03.205546243,1746538083,167088806,mA1/imu,0.7449918327022644,-0.667072973222912,-0.0008478094528543624,0.0003143590257619426,0.0,0.0,0.0,0.0,0.0,0.0,0.0,0.0,0.0,-0.0007201147265352404,0.0008052944408796167,4.163286171698904e-05,0.0,0.0,0.0,0.0,0.0,0.0,0.0,0.0,0.0,0.008629983435707112,-0.06717934610730154,9.810666110846839,0.0,0.0,0.0,0.0,0.0,0.0,0.0,0.0,0.0
2025/05/06 15:28:03.349828893,1746538083,207875984,mA1/imu,0.744991159650936,-0.6670737427549462,-0.0008297100005506236,0.0003245769192981659,0.0,0.0,0.0,0.0,0.0,0.0,0.0,0.0,0.0,0.000865687010384403,0.0008047740030200011,4.131398706902031e-05,0.0,0.0,0.0,0.0,0.0,0.0,0.0,0.0,0.0,0.008286895831533731,-0.5861907574415165,9.809807334069268,0.0,0.0,0.0,0.0,0.0,0.0,0.0,0.0,0.0
2025/05/06 15:28:03.380127763,1746538083,262735038,mA1/imu,0.7449904916160331,-0.6670745049000651,-0.0008124626394280241,0.00033499028916633906,0.0,0.0,0.0,0.0,0.0,0.0,0.0,0.0,0.0,0.0007332743049702036,0.0007709987743139436,4.096186367391866e-05,0.0,0.0,0.0,0.0,0.0,0.0,0.0,0.0,0.0,0.008143990671573904,0.036305358819458435,9.809446090421323,0.0,0.0,0.0,0.0,0.0,0.0,0.0,0.0,0.0
2025/05/06 15:28:03.428473053,1746538083,303963419,mA1/imu,0.7449898263807636,-0.6670752528926008,-0.0008017917174973817,0.00035028199240652,0.0,0.0,0.0,0.0,0.0,0.0,0.0,0.0,0.0,-0.0008617557173193948,0.0006954690831306439,4.051340664510948e-05,0.0,0.0,0.0,0.0,0.0,0.0,0.0,0.0,0.0,0.00858671697793362,0.5548052558155132,9.810057243671654,0.0,0.0,0.0,0.0,0.0,0.0,0.0,0.0,0.0
2025/05/06 15:28:03.509231881,1746538083,357790680,mA1/imu,0.7449891670692841,-0.6670759930489925,-0.0007927681741009241,0.0003632708866762967,0.0,0.0,0.0,0.0,0.0,0.0,0.0,0.0,0.0,-0.0007297828603420408,0.0005635141347988198,3.996957903423375e-05,0.0,0.0,0.0,0.0,0.0,0.0,0.0,0.0,0.0,0.009164095547988823,-0.06732203117116466,9.81066210511146,0.0,0.0,0.0,0.0,0.0,0.0,0.0,0.0,0.0
2025/05/06 15:28:03.554653217,1746538083,417901524,mA1/imu,0.7449885164531022,-0.6670767307635141,-0.0007811653830912108,0.00036797759721241365,0.0,0.0,0.0,0.0,0.0,0.0,0.0,0.0,0.0,0.0008567960369156923,0.0004012170155492609,3.942566167103434e-05,0.0,0.0,0.0,0.0,0.0,0.0,0.0,0.0,0.0,0.008738424883566777,-0.5862388645865805,9.809806951434073,0.0,0.0,0.0,0.0,0.0,0.0,0.0,0.0,0.0
2025/05/06 15:28:03.653969148,1746538083,465071695,mA1/imu,0.7449878714821635,-0.6670774590755901,-0.0007731194934338492,0.0003704375507217572,0.0,0.0,0.0,0.0,0.0,0.0,0.0,0.0,0.0,0.0007249500268845508,0.00023353555218356915,3.889594423497842e-05,0.0,0.0,0.0,0.0,0.0,0.0,0.0,0.0,0.0,0.008351829469090348,0.03624574063995596,9.809446127372658,0.0,0.0,0.0,0.0,0.0,0.0,0.0,0.0,0.0
2025/05/06 15:28:03.710122029,1746538083,511383443,mA1/imu,0.7449872295046702,-0.6670781722428648,-0.000773772052596819,0.00037585753288325977,0.0,0.0,0.0,0.0,0.0,0.0,0.0,0.0,0.0,-0.0008694276492665361,5.727849652090946e-05,3.832701849894642e-05,0.0,0.0,0.0,0.0,0.0,0.0,0.0,0.0,0.0,0.00871440198334121,0.5547571691761936,9.8100439252451,0.0,0.0,0.0,0.0,0.0,0.0,0.0,0.0,0.0
2025/05/06 15:28:03.832347523,1746538083,565616958,mA1/imu,0.7449865935860313,-0.6670788770840989,-0.0007774813338414648,0.00037768780061375187,0.0,0.0,0.0,0.0,0.0,0.0,0.0,0.0,0.0,-0.0007366111928616831,-0.00013413306217514867,3.7741418908247354e-05,0.0,0.0,0.0,0.0,0.0,0.0,0.0,0.0,0.0,0.009010258562343519,-0.06727195372338692,9.81065008939306,0.0,0.0,0.0,0.0,0.0,0.0,0.0,0.0,0.0
2025/05/06 15:28:03.870767181,1746538083,607371173,mA1/imu,0.744985965999192,-0.667079579863213,-0.000779247843371646,0.0003706299618652432,0.0,0.0,0.0,0.0,0.0,0.0,0.0,0.0,0.0,0.0008511383452216611,-0.00031505103738274697,3.722840490646046e-05,0.0,0.0,0.0,0.0,0.0,0.0,0.0,0.0,0.0,0.008511434053887428,-0.5861829253673329,9.809791485930939,0.0,0.0,0.0,0.0,0.0,0.0,0.0,0.0,0.0
2025/05/06 15:28:03.897628891,1746538083,663110518,mA1/imu,0.7449853429543984,-0.6670802746849104,-0.0007843925692296422,0.0003614384032154313,0.0,0.0,0.0,0.0,0.0,0.0,0.0,0.0,0.0,0.0007207662411440809,-0.00045653992886996613,3.680055082980042e-05,0.0,0.0,0.0,0.0,0.0,0.0,0.0,0.0,0.0,0.007865473468409634,0.036185358412972164,9.80942784680199,0.0,0.0,0.0,0.0,0.0,0.0,0.0,0.0,0.0
2025/05/06 15:28:03.924538431,1746538083,707529604,mA1/imu,0.7449847214216871,-0.6670809564829602,-0.0007972575331558897,0.00035598659547277046,0.0,0.0,0.0,0.0,0.0,0.0,0.0,0.0,0.0,-0.0008654586495142185,-0.0005676326302099885,3.640101099798645e-05,0.0,0.0,0.0,0.0,0.0,0.0,0.0,0.0,0.0,0.008195074184911222,0.5523696950157853,9.810023817029313,0.0,0.0,0.0,0.0,0.0,0.0,0.0,0.0,0.0
2025/05/06 15:28:03.969439617,1746538083,859779093,mA1/imu,0.7449828831505692,-0.6670829850886072,-0.0008323236093029814,0.0003194610274020952,0.0,0.0,0.0,0.0,0.0,0.0,0.0,0.0,0.0,0.0007232521953280645,-0.0007001389323984484,3.5677387320094465e-05,0.0,0.0,0.0,0.0,0.0,0.0,0.0,0.0,0.0,0.0071629809229819515,0.03618461551396128,9.809415667826434,0.0,0.0,0.0,0.0,0.0,0.0,0.0,0.0,0.0
2025/05/06 15:28:04.5258053,1746538083,913496669,mA1/imu,0.7449822729197006,-0.6670836508837682,-0.0008477062238324991,0.0003116939809590944,0.0,0.0,0.0,0.0,0.0,0.0,0.0,0.0,0.0,-0.0008683991329783271,-0.0005950706358003456,3.5921859259938576e-05,0.0,0.0,0.0,0.0,0.0,0.0,0.0,0.0,0.0,-0.00047900631478982325,0.5548076974948599,9.810015143541914,0.0,0.0,0.0,0.0,0.0,0.0,0.0,0.0,0.0
2025/05/06 15:28:04.33115349,1746538083,956801499,mA1/imu,0.7449816477191852,-0.667084338238559,-0.0008575797602885108,0.0003078885943484724,0.0,0.0,0.0,0.0,0.0,0.0,0.0,0.0,0.0,-0.0007315607698197032,-0.00025564306584178055,3.756504200388703e-05,0.0,0.0,0.0,0.0,0.0,0.0,0.0,0.0,0.0,0.00012044500507659567,-0.06717836458447535,9.810649776007006,0.0,0.0,0.0,0.0,0.0,0.0,0.0,0.0,0.0
2025/05/06 15:28:04.57014936,1746538084,7255948,mA1/imu,0.7449810054910341,-0.6670850597946937,-0.0008556214061889796,0.0003039215145780138,0.0,0.0,0.0,0.0,0.0,0.0,0.0,0.0,0.0,0.0008600124412697772,8.646300820359936e-05,3.9121385473479187e-05,0.0,0.0,0.0,0.0,0.0,0.0,0.0,0.0,0.0,-0.00022452154863022294,-0.5860960427172955,9.809802644299971,0.0,0.0,0.0,0.0,0.0,0.0,0.0,0.0,0.0
2025/05/06 15:28:04.154419045,1746538084,62073930,mA1/imu,0.7449799367598862,-0.6670862629717986,-0.0008470203559050285,0.000306816024930646,0.0,0.0,0.0,0.0,0.0,0.0,0.0,0.0,0.0,0.0007292800212197513,0.0004714877852440038,7.090708039881225e-05,0.0,0.0,0.0,0.0,0.0,0.0,0.0,0.0,0.0,-0.000114925036651033,0.03639992412460352,9.809440571674099,0.0,0.0,0.0,0.0,0.0,0.0,0.0,0.0,0.0
2025/05/06 15:28:04.269927788,1746538084,129110662,mA1/imu,0.7449794851230127,-0.6670867714531474,-0.0008389564490803138,0.00031976576347533006,0.0,0.0,0.0,0.0,0.0,0.0,0.0,0.0,0.0,-0.0008589495652745541,0.000547643940093326,-7.5432640811892e-05,0.0,0.0,0.0,0.0,0.0,0.0,0.0,0.0,0.0,0.01890045040653858,0.5548718858574756,9.810055217628364,0.0,0.0,0.0,0.0,0.0,0.0,0.0,0.0,0.0
2025/05/06 15:28:04.298234914,1746538084,164110927,mA1/imu,0.7449828582756125,-0.6670830072850678,-0.000832514279767233,0.00033043453634423297,0.0,0.0,0.0,0.0,0.0,0.0,0.0,0.0,0.0,-0.0007282034956668266,0.0005533869768723216,-0.0002133235026976733,0.0,0.0,0.0,0.0,0.0,0.0,0.0,0.0,0.0,0.0011035510017917208,-0.06724559274806582,9.810663956037102,0.0,0.0,0.0,0.0,0.0,0.0,0.0,0.0,0.0
2025/05/06 15:28:04.338083338,1746538084,212160818,mA1/imu,0.7449863590793385,-0.6670791129025148,-0.0008168499611870359,0.0003386311355308793,0.0,0.0,0.0,0.0,0.0,0.0,0.0,0.0,0.0,0.0008626567893003536,0.0007624147235030062,-0.00020618070223480308,0.0,0.0,0.0,0.0,0.0,0.0,0.0,0.0,0.0,0.0009405464175029363,-0.5861975722876953,9.809814121083464,0.0,0.0,0.0,0.0,0.0,0.0,0.0,0.0,0.0
2025/05/06 15:28:04.364542693,1746538084,264685064,mA1/imu,0.7449897484602341,-0.6670753442986804,-0.0007980957514869669,0.00035037283782202687,0.0,0.0,0.0,0.0,0.0,0.0,0.0,0.0,0.0,0.0007357694478952394,0.0009317042561258074,-0.00019942574768873776,0.0,0.0,0.0,0.0,0.0,0.0,0.0,0.0,0.0,0.001104140332164021,0.036444021369614235,9.809459813701679,0.0,0.0,0.0,0.0,0.0,0.0,0.0,0.0,0.0
2025/05/06 15:28:04.412927506,1746538084,309708637,mA1/imu,0.7449930289577539,-0.6670716887479262,-0.000782226346616141,0.00037013144133040505,0.0,0.0,0.0,0.0,0.0,0.0,0.0,0.0,0.0,-0.0008541602466267081,0.0010424117961809578,-0.0001930834028482188,0.0,0.0,0.0,0.0,0.0,0.0,0.0,0.0,0.0,0.0017461732360684176,0.5549591310766732,9.810055315153832,0.0,0.0,0.0,0.0,0.0,0.0,0.0,0.0,0.0
2025/05/06 15:28:04.455163525,1746538084,363514596,mA1/imu,0.7449962080556316,-0.6670681470000187,-0.0007647753313148512,0.0003903324020376066,0.0,0.0,0.0,0.0,0.0,0.0,0.0,0.0,0.0,-0.0007181814254456742,0.0010673998897916604,-0.000187131701428968,0.0,0.0,0.0,0.0,0.0,0.0,0.0,0.0,0.0,0.00273951187603787,-0.06729156985052373,9.810683807672108,0.0,0.0,0.0,0.0,0.0,0.0,0.0,0.0,0.0
2025/05/06 15:28:04.517961995,1746538084,406812177,mA1/imu,0.7449992928081933,-0.667064719016507,-0.0007421448945894687,0.00040444984307611345,0.0,0.0,0.0,0.0,0.0,0.0,0.0,0.0,0.0,0.0008718077490834853,0.0010260667720450455,-0.00018152825410847976,0.0,0.0,0.0,0.0,0.0,0.0,0.0,0.0,0.0,0.0025772991557394594,-0.5861770983781377,9.809839222043536,0.0,0.0,0.0,0.0,0.0,0.0,0.0,0.0,0.0
2025/05/06 15:28:04.651343700,1746538084,459551312,mA1/imu,0.7450022902206892,-0.6670613860553581,-0.0007212693220030093,0.00041781622473902535,0.0,0.0,0.0,0.0,0.0,0.0,0.0,0.0,0.0,0.000743354319023811,0.0009332439405824192,-0.00017661278545299587,0.0,0.0,0.0,0.0,0.0,0.0,0.0,0.0,0.0,0.0026274163842256674,0.03644431827887395,9.809479002708335,0.0,0.0,0.0,0.0,0.0,0.0,0.0,0.0,0.0
2025/05/06 15:28:04.838473081,1746538084,507735412,mA1/imu,0.7450052024754238,-0.6670581366545237,-0.0007081514356633736,0.00043488974661733766,0.0,0.0,0.0,0.0,0.0,0.0,0.0,0.0,0.0,-0.0008513377216928866,0.0007868871710971426,-0.00017195970270715279,0.0,0.0,0.0,0.0,0.0,0.0,0.0,0.0,0.0,0.003171911807788111,0.5547728648979736,9.810066655695598,0.0,0.0,0.0,0.0,0.0,0.0,0.0,0.0,0.0
2025/05/06 15:28:04.875593531,1746538084,564227340,mA1/imu,0.7450077916338028,-0.6670552467325322,-0.0006977448977075974,0.00044873553734375973,0.0,0.0,0.0,0.0,0.0,0.0,0.0,0.0,0.0,-0.0007195772835137674,0.0006263879654856739,-0.00013015142032719168,0.0,0.0,0.0,0.0,0.0,0.0,0.0,0.0,0.0,0.0011155206253518997,-0.06849717558759726,9.810632574016738,0.0,0.0,0.0,0.0,0.0,0.0,0.0,0.0,0.0
2025/05/06 15:28:04.918058757,1746538084,606246395,mA1/imu,0.745009693514815,-0.6670531319638225,-0.0006854142191050855,0.0004537769988635232,0.0,0.0,0.0,0.0,0.0,0.0,0.0,0.0,0.0,0.0008669579832425537,0.000398263657560241,-0.00011121910440120436,0.0,0.0,0.0,0.0,0.0,0.0,0.0,0.0,0.0,0.0035960815371151806,-0.5861541607362248,9.809813453057938,0.0,0.0,0.0,0.0,0.0,0.0,0.0,0.0,0.0
2025/05/06 15:28:05.31899410,1746538084,660924608,mA1/imu,0.7450115012370112,-0.6670511194370197,-0.0006781926286884218,0.0004551232275529271,0.0,0.0,0.0,0.0,0.0,0.0,0.0,0.0,0.0,0.0007366701213764407,0.00014534779199568465,-0.0001059336066910377,0.0,0.0,0.0,0.0,0.0,0.0,0.0,0.0,0.0,0.003294440992079468,0.03644049420028431,9.809443807282541,0.0,0.0,0.0,0.0,0.0,0.0,0.0,0.0,0.0
2025/05/06 15:28:05.127037181,1746538084,759801667,mA1/imu,0.7450202002873069,-0.6670413878319829,-0.0006984112572846846,0.00044755419712528123,0.0,0.0,0.0,0.0,0.0,0.0,0.0,0.0,0.0,-0.0007314759402407493,-0.0008423506755899435,-0.00038499114395432817,0.0,0.0,0.0,0.0,0.0,0.0,0.0,0.0,0.0,0.0036588767246750692,-0.0672775490374058,9.810649374374622,0.0,0.0,0.0,0.0,0.0,0.0,0.0,0.0,0.0
2025/05/06 15:28:05.137259912,1746538084,860206914,mA1/imu,0.7450325881337431,-0.6670275413767,-0.0007322116852277154,0.000406853461377272,0.0,0.0,0.0,0.0,0.0,0.0,0.0,0.0,0.0,0.0007251326037508796,-0.0011737259420002413,-0.00036235471096993533,0.0,0.0,0.0,0.0,0.0,0.0,0.0,0.0,0.0,0.0024502652776120623,0.03651330492978641,9.809428501913299,0.0,0.0,0.0,0.0,0.0,0.0,0.0,0.0,0.0
2025/05/06 15:28:05.150736528,1746538084,915487455,mA1/imu,0.7450384974394076,-0.6670209224362946,-0.0007578729870066042,0.0003898640789236074,0.0,0.0,0.0,0.0,0.0,0.0,0.0,0.0,0.0,-0.0008682483562151607,-0.0012324565968977728,-0.0003515038057263353,0.0,0.0,0.0,0.0,0.0,0.0,0.0,0.0,0.0,0.002818735671830241,0.5549924716937493,9.810019561332597,0.0,0.0,0.0,0.0,0.0,0.0,0.0,0.0,0.0
2025/05/06 15:28:05.156596472,1746538084,958536990,mA1/imu,0.7450442280316256,-0.667014502000902,-0.0007836168876359439,0.00037194330363844296,0.0,0.0,0.0,0.0,0.0,0.0,0.0,0.0,0.0,-0.0007358348312890706,-0.0012381281668482917,-0.00034101635814744673,0.0,0.0,0.0,0.0,0.0,0.0,0.0,0.0,0.0,0.0030298858823046074,-0.06731276643465964,9.81062193484748,0.0,0.0,0.0,0.0,0.0,0.0,0.0,0.0,0.0
2025/05/06 15:28:05.167943596,1746538085,58722489,mA1/imu,0.7450551858086756,-0.6670022390078187,-0.0008223368219433018,0.00032713958447488077,0.0,0.0,0.0,0.0,0.0,0.0,0.0,0.0,0.0,0.000722179742461597,-0.001106971332044778,-0.0003210865795748005,0.0,0.0,0.0,0.0,0.0,0.0,0.0,0.0,0.0,0.0037010874649093277,0.03641910404264721,9.809413996602176,0.0,0.0,0.0,0.0,0.0,0.0,0.0,0.0,0.0
2025/05/06 15:28:05.183017656,1746538085,159881289,mA1/imu,0.7450655105229093,-0.6669906665258554,-0.000862987190228605,0.00030174449649326995,0.0,0.0,0.0,0.0,0.0,0.0,0.0,0.0,0.0,-0.0007342459662051493,-0.0007799599119414155,-0.0003026904457769597,0.0,0.0,0.0,0.0,0.0,0.0,0.0,0.0,0.0,0.004366586637725302,-0.06721784467451532,9.81063512648276,0.0,0.0,0.0,0.0,0.0,0.0,0.0,0.0,0.0
2025/05/06 15:28:05.211009960,1746538085,209792811,mA1/imu,0.745070456224102,-0.6669851359229865,-0.0008722713913312718,0.0002878583395185963,0.0,0.0,0.0,0.0,0.0,0.0,0.0,0.0,0.0,0.0008540956032996065,-0.0005585884629906911,-0.00029382364577122455,0.0,0.0,0.0,0.0,0.0,0.0,0.0,0.0,0.0,0.003988625514077082,-0.5861670963834147,9.809798250492841,0.0,0.0,0.0,0.0,0.0,0.0,0.0,0.0,0.0
2025/05/06 15:28:05.264792096,1746538085,260797623,mA1/imu,0.7450748575921442,-0.6669802171167292,-0.0008766841210885756,0.00027925600969797644,0.0,0.0,0.0,0.0,0.0,0.0,0.0,0.0,0.0,0.0007205251298927797,-0.0002481481300460659,-0.0002554022657392392,0.0,0.0,0.0,0.0,0.0,0.0,0.0,0.0,0.0,0.0035438173280299594,0.037427005348654147,9.80943770316772,0.0,0.0,0.0,0.0,0.0,0.0,0.0,0.0,0.0
2025/05/06 15:28:05.312554034,1746538085,311025011,mA1/imu,0.7450790251810543,-0.6669755546784375,-0.0008812623822211443,0.0002811996696507009,0.0,0.0,0.0,0.0,0.0,0.0,0.0,0.0,0.0,-0.0008687483141922372,3.0151627535516606e-05,-0.0002466248265020595,0.0,0.0,0.0,0.0,0.0,0.0,0.0,0.0,0.0,0.004056003407334266,0.5548627197325563,9.810047848406553,0.0,0.0,0.0,0.0,0.0,0.0,0.0,0.0,0.0
2025/05/06 15:28:05.365528605,1746538085,362151504,mA1/imu,0.7450830557119633,-0.6669710507992163,-0.0008804027339693024,0.0002870152239542815,0.0,0.0,0.0,0.0,0.0,0.0,0.0,0.0,0.0,-0.0007319760898271458,0.0002853368240192223,-0.00023821796878103506,0.0,0.0,0.0,0.0,0.0,0.0,0.0,0.0,0.0,0.004703901574870855,-0.06722328796278594,9.81067103909954,0.0,0.0,0.0,0.0,0.0,0.0,0.0,0.0,0.0
2025/05/06 15:28:05.415181756,1746538085,412253114,mA1/imu,0.7450869561710737,-0.6669667060098127,-0.000869553389937797,0.00029102413377270095,0.0,0.0,0.0,0.0,0.0,0.0,0.0,0.0,0.0,0.0008590449616244544,0.0005183471291575801,-0.000230068122729536,0.0,0.0,0.0,0.0,0.0,0.0,0.0,0.0,0.0,0.004420355217243288,-0.5861280930901899,9.809817993103456,0.0,0.0,0.0,0.0,0.0,0.0,0.0,0.0,0.0
2025/05/06 15:28:05.471130568,1746538085,465531495,mA1/imu,0.7450907287517226,-0.6669625068047085,-0.0008549464667396707,0.00029918480070775246,0.0,0.0,0.0,0.0,0.0,0.0,0.0,0.0,0.0,0.0007315754223589208,0.0007314390195999558,-0.00022222295922099902,0.0,0.0,0.0,0.0,0.0,0.0,0.0,0.0,0.0,0.004345485145782888,0.03635093550923939,9.809479669511925,0.0,0.0,0.0,0.0,0.0,0.0,0.0,0.0,0.0
2025/05/06 15:28:05.559111893,1746538085,506382835,mA1/imu,0.7450943754765421,-0.6669584411618567,-0.000842250391585078,0.00031624428196596005,0.0,0.0,0.0,0.0,0.0,0.0,0.0,0.0,0.0,-0.0008587804900680131,0.0009001631613093883,-0.00021473160858163123,0.0,0.0,0.0,0.0,0.0,0.0,0.0,0.0,0.0,0.004893732542813108,0.5548710644728748,9.810076769455295,0.0,0.0,0.0,0.0,0.0,0.0,0.0,0.0,0.0
2025/05/06 15:28:05.628616665,1746538085,558771536,mA1/imu,0.745097902671048,-0.6669545110344888,-0.0008267597235703046,0.0003348347520818738,0.0,0.0,0.0,0.0,0.0,0.0,0.0,0.0,0.0,-0.0007226954992311512,0.0009942877360367105,-0.00020758172072371322,0.0,0.0,0.0,0.0,0.0,0.0,0.0,0.0,0.0,0.00578153987496996,-0.06717929689112985,9.810680488821683,0.0,0.0,0.0,0.0,0.0,0.0,0.0,0.0,0.0
2025/05/06 15:28:05.648919388,1746538085,610340453,mA1/imu,0.7451013161557127,-0.6669507176847365,-0.000804626224672898,0.0003484529785485696,0.0,0.0,0.0,0.0,0.0,0.0,0.0,0.0,0.0,0.0008758180838684956,0.0010289515915628566,-0.0002006440250716003,0.0,0.0,0.0,0.0,0.0,0.0,0.0,0.0,0.0,0.005489359729800216,-0.5855222534984196,9.809833254543387,0.0,0.0,0.0,0.0,0.0,0.0,0.0,0.0,0.0
2025/05/06 15:28:05.675406915,1746538085,663692134,mA1/imu,0.7451046162015242,-0.6669470493361919,-0.0007828056807677505,0.0003626460983700299,0.0,0.0,0.0,0.0,0.0,0.0,0.0,0.0,0.0,0.000741396824639444,0.0010150670496121507,-0.00019394125317445703,0.0,0.0,0.0,0.0,0.0,0.0,0.0,0.0,0.0,0.005478730618233818,0.03688555892546279,9.80946837852249,0.0,0.0,0.0,0.0,0.0,0.0,0.0,0.0,0.0
2025/05/06 15:28:05.709375432,1746538085,704903270,mA1/imu,0.7451078031662844,-0.6669434960813692,-0.000767362262405911,0.00038190395718944924,0.0,0.0,0.0,0.0,0.0,0.0,0.0,0.0,0.0,-0.0008524320268633625,0.0009443728636000596,-0.00018752788599273713,0.0,0.0,0.0,0.0,0.0,0.0,0.0,0.0,0.0,0.005981553495709533,0.5549065287340725,9.8100596891329,0.0,0.0,0.0,0.0,0.0,0.0,0.0,0.0,0.0
2025/05/06 15:28:05.762349676,1746538085,759854384,mA1/imu,0.7451108830173279,-0.6669400610509322,-0.0007536449419300916,0.00039874028930368883,0.0,0.0,0.0,0.0,0.0,0.0,0.0,0.0,0.0,-0.0007187592440705299,0.0007998555037135755,-0.00018137965560915,0.0,0.0,0.0,0.0,0.0,0.0,0.0,0.0,0.0,0.006763860509279689,-0.06714772005355328,9.81069441172953,0.0,0.0,0.0,0.0,0.0,0.0,0.0,0.0,0.0
2025/05/06 15:28:05.818024794,1746538085,811544961,mA1/imu,0.7451138616639091,-0.6669367461252513,-0.0007377346335409315,0.00040690511091245386,0.0,0.0,0.0,0.0,0.0,0.0,0.0,0.0,0.0,0.0008690512730407562,0.000609417299194755,-0.00017545947535005556,0.0,0.0,0.0,0.0,0.0,0.0,0.0,0.0,0.0,0.0064340114933727965,-0.5861134263957268,9.809851892721037,0.0,0.0,0.0,0.0,0.0,0.0,0.0,0.0,0.0
2025/05/06 15:28:05.865978013,1746538085,863813036,mA1/imu,0.7451167412030937,-0.6669335386010798,-0.0007260636445814962,0.00041218868013546115,0.0,0.0,0.0,0.0,0.0,0.0,0.0,0.0,0.0,0.0007375063431564377,0.00039905189343611164,-0.00016982300633360697,0.0,0.0,0.0,0.0,0.0,0.0,0.0,0.0,0.0,0.006140082083404636,0.0362883312536611,9.80944652448748,0.0,0.0,0.0,0.0,0.0,0.0,0.0,0.0,0.0
2025/05/06 15:28:05.918706500,1746538085,912363164,mA1/imu,0.7451195212355132,-0.6669304302680672,-0.0007240069289101259,0.00041960717024462857,0.0,0.0,0.0,0.0,0.0,0.0,0.0,0.0,0.0,-0.00085699023873704,0.0001694282346574429,-0.0001643660010814769,0.0,0.0,0.0,0.0,0.0,0.0,0.0,0.0,0.0,0.006552044659204259,0.5548176741071402,9.810027284755252,0.0,0.0,0.0,0.0,0.0,0.0,0.0,0.0,0.0
2025/05/06 15:28:05.975139433,1746538085,963865954,mA1/imu,0.7451222070630535,-0.6669274253961139,-0.0007261444279612593,0.00042250475106272707,0.0,0.0,0.0,0.0,0.0,0.0,0.0,0.0,0.0,-0.0007276708101395569,-8.409334512344269e-05,-0.00015904359031829082,0.0,0.0,0.0,0.0,0.0,0.0,0.0,0.0,0.0,0.006996746390107441,-0.06742899051247618,9.810660898638792,0.0,0.0,0.0,0.0,0.0,0.0,0.0,0.0,0.0
2025/05/06 15:28:06.6215314,1746538086,4413717,mA1/imu,0.7451248041182855,-0.6669245266502374,-0.0007276985891870227,0.00041532494107282753,0.0,0.0,0.0,0.0,0.0,0.0,0.0,0.0,0.0,0.0008604055025060585,-0.00036643740985651423,-0.0001541136553159771,0.0,0.0,0.0,0.0,0.0,0.0,0.0,0.0,0.0,0.01152235505182313,-0.5863554515977745,9.80979717324029,0.0,0.0,0.0,0.0,0.0,0.0,0.0,0.0,0.0
2025/05/06 15:28:06.64468397,1746538086,56701895,mA1/imu,0.745127330109879,-0.6669217027113926,-0.0007363146373314531,0.00040276123846057536,0.0,0.0,0.0,0.0,0.0,0.0,0.0,0.0,0.0,0.0007278012469009178,-0.0007424218281156421,-0.0001506825619850895,0.0,0.0,0.0,0.0,0.0,0.0,0.0,0.0,0.0,0.010698007968588663,0.036156970700985426,9.809404449711744,0.0,0.0,0.0,0.0,0.0,0.0,0.0,0.0,0.0
2025/05/06 15:28:06.118262849,1746538086,108495436,mA1/imu,0.7451297900464013,-0.6669189387053813,-0.0007568727308255046,0.0003902885638207899,0.0,0.0,0.0,0.0,0.0,0.0,0.0,0.0,0.0,-0.0008677076044122497,-0.0010669569609237288,-0.00014746903117076197,0.0,0.0,0.0,0.0,0.0,0.0,0.0,0.0,0.0,0.01085855925264747,0.5547545098411332,9.809996653858247,0.0,0.0,0.0,0.0,0.0,0.0,0.0,0.0,0.0
2025/05/06 15:28:06.195754132,1746538086,161481746,mA1/imu,0.7451321940882787,-0.6669162333687013,-0.0007824629801737716,0.0003724972166210433,0.0,0.0,0.0,0.0,0.0,0.0,0.0,0.0,0.0,-0.0007360364525192583,-0.001334162009942559,-0.00014451457733485285,0.0,0.0,0.0,0.0,0.0,0.0,0.0,0.0,0.0,0.010698315650234424,-0.06732928995549625,9.810622204550537,0.0,0.0,0.0,0.0,0.0,0.0,0.0,0.0,0.0
2025/05/06 15:28:06.217018116,1746538086,212312740,mA1/imu,0.745134545071992,-0.6669135923447218,-0.0008067659953940349,0.00034527502401190686,0.0,0.0,0.0,0.0,0.0,0.0,0.0,0.0,0.0,0.0008503858638113501,-0.0015211382538222937,-0.00014140019003702246,0.0,0.0,0.0,0.0,0.0,0.0,0.0,0.0,0.0,0.010081913323042313,-0.5862555333978228,9.80976072003147,0.0,0.0,0.0,0.0,0.0,0.0,0.0,0.0,0.0
2025/05/06 15:28:06.257158794,1746538086,254711661,mA1/imu,0.7451368393431086,-0.6669110100212355,-0.0008337480452303629,0.00031659187434021543,0.0,0.0,0.0,0.0,0.0,0.0,0.0,0.0,0.0,0.0007186965472903781,-0.0015943003176356512,-0.00013816385319679385,0.0,0.0,0.0,0.0,0.0,0.0,0.0,0.0,0.0,0.008969194995570815,0.03626931682692494,9.80938677930255,0.0,0.0,0.0,0.0,0.0,0.0,0.0,0.0,0.0
2025/05/06 15:28:06.310275430,1746538086,305814072,mA1/imu,0.7451390751036553,-0.6669084808361594,-0.0008664926243218061,0.000293484253278638,0.0,0.0,0.0,0.0,0.0,0.0,0.0,0.0,0.0,-0.0008750738866017001,-0.0015728135215320796,-0.00013488658359404163,0.0,0.0,0.0,0.0,0.0,0.0,0.0,0.0,0.0,0.009209869386323028,0.5547969258040183,9.809987981043248,0.0,0.0,0.0,0.0,0.0,0.0,0.0,0.0,0.0
2025/05/06 15:28:06.359322020,1746538086,356759603,mA1/imu,0.7451412559154612,-0.6669060126940695,-0.0008974911751230847,0.00027106238657083326,0.0,0.0,0.0,0.0,0.0,0.0,0.0,0.0,0.0,-0.000741422924818636,-0.0014698045285487247,-0.0001315415291583106,0.0,0.0,0.0,0.0,0.0,0.0,0.0,0.0,0.0,0.009062847965940663,-0.06733212363345056,9.81062046304458,0.0,0.0,0.0,0.0,0.0,0.0,0.0,0.0,0.0
2025/05/06 15:28:06.413245870,1746538086,410368219,mA1/imu,0.7451433846675982,-0.6669036131837232,-0.0009202123873269998,0.00024539309860932627,0.0,0.0,0.0,0.0,0.0,0.0,0.0,0.0,0.0,0.000847237688185192,-0.0012842027335036074,-0.00012810342990607668,0.0,0.0,0.0,0.0,0.0,0.0,0.0,0.0,0.0,0.008548404184997586,-0.5862545210608676,9.809787071298063,0.0,0.0,0.0,0.0,0.0,0.0,0.0,0.0,0.0
2025/05/06 15:28:06.456986707,1746538086,454257363,mA1/imu,0.7451454607266097,-0.6669012750587731,-0.0009388249837933077,0.00022425690920229634,0.0,0.0,0.0,0.0,0.0,0.0,0.0,0.0,0.0,0.0007179771028493986,-0.0010052731137588625,-0.000124643405138866,0.0,0.0,0.0,0.0,0.0,0.0,0.0,0.0,0.0,0.007727685863540439,0.03626556973655547,9.809426232245313,0.0,0.0,0.0,0.0,0.0,0.0,0.0,0.0,0.0
2025/05/06 15:28:06.513674028,1746538086,507381323,mA1/imu,0.7451474847496117,-0.6668989910271276,-0.0009570146900978224,0.00021415230377210443,0.0,0.0,0.0,0.0,0.0,0.0,0.0,0.0,0.0,-0.0008735187225661729,-0.0006708456977124232,-0.00012124749931148199,0.0,0.0,0.0,0.0,0.0,0.0,0.0,0.0,0.0,0.008107706394130344,0.554786032627389,9.810035120855593,0.0,0.0,0.0,0.0,0.0,0.0,0.0,0.0,0.0
2025/05/06 15:28:06.568451674,1746538086,559874656,mA1/imu,0.7451494607955536,-0.6668967684543639,-0.0009682365851517829,0.00020933021212035451,0.0,0.0,0.0,0.0,0.0,0.0,0.0,0.0,0.0,-0.0007374998330111081,-0.00031515432257304884,-0.00011791974849337083,0.0,0.0,0.0,0.0,0.0,0.0,0.0,0.0,0.0,0.008453508496952448,-0.06730680746074624,9.810663668501961,0.0,0.0,0.0,0.0,0.0,0.0,0.0,0.0,0.0
2025/05/06 15:28:06.616110931,1746538086,610723534,mA1/imu,0.7451513921560464,-0.6668946133911284,-0.0009671992683862612,0.00020475199231216113,0.0,0.0,0.0,0.0,0.0,0.0,0.0,0.0,0.0,0.0008533051727083586,5.3594703286672614e-05,-0.0001146279679443288,0.0,0.0,0.0,0.0,0.0,0.0,0.0,0.0,0.0,0.008090768640681567,-0.5862263377836312,9.8098259676684,0.0,0.0,0.0,0.0,0.0,0.0,0.0,0.0,0.0
2025/05/06 15:28:06.668054392,1746538086,662007773,mA1/imu,0.7451532788312702,-0.6668925156478557,-0.0009595815293351941,0.0002069376003403951,0.0,0.0,0.0,0.0,0.0,0.0,0.0,0.0,0.0,0.0007240708458956724,0.00043143221588872653,-0.00011143090514728622,0.0,0.0,0.0,0.0,0.0,0.0,0.0,0.0,0.0,0.007800965115976761,0.036119352822173954,9.809476555793923,0.0,0.0,0.0,0.0,0.0,0.0,0.0,0.0,0.0
2025/05/06 15:28:06.723258958,1746538086,713400452,mA1/imu,0.7451552530500871,-0.6668903195086232,-0.0009496268946167451,0.0002209214981582055,0.0,0.0,0.0,0.0,0.0,0.0,0.0,0.0,0.0,-0.0007984019004758687,0.0008796008718791873,-0.0001321594775048937,0.0,0.0,0.0,0.0,0.0,0.0,0.0,0.0,0.0,0.0012688387718652744,0.5609897640572242,9.809332135657833,0.0,0.0,0.0,0.0,0.0,0.0,0.0,0.0,0.0
2025/05/06 15:28:06.766335930,1746538086,760386033,mA1/imu,0.7451580150173502,-0.6668872560311718,-0.0009286728873826417,0.00024075980794248684,0.0,0.0,0.0,0.0,0.0,0.0,0.0,0.0,0.0,-0.0005768985511950175,0.0013379983537709006,-0.00018397862200872378,0.0,0.0,0.0,0.0,0.0,0.0,0.0,0.0,0.0,0.003962942445275969,-0.05906712798276479,9.811470257901638,0.0,0.0,0.0,0.0,0.0,0.0,0.0,0.0,0.0
2025/05/06 15:28:06.814197419,1746538086,811169835,mA1/imu,0.7451607441994677,-0.6668842476280965,-0.0008935431008781725,0.00025913380730056834,0.0,0.0,0.0,0.0,0.0,0.0,0.0,0.0,0.0,0.001145517957354203,0.0016212588001297478,-0.00014363709693339003,0.0,0.0,0.0,0.0,0.0,0.0,0.0,0.0,0.0,0.009182108350773285,-0.5650753250898229,9.809909820474818,0.0,0.0,0.0,0.0,0.0,0.0,0.0,0.0,0.0
2025/05/06 15:28:06.880681924,1746538086,865822278,mA1/imu,0.7451570671399714,-0.6668884135141532,-0.0008423050545395567,0.00028237232038125633,0.0,0.0,0.0,0.0,0.0,0.0,0.0,0.0,0.0,0.0013716594171718337,0.0026141202368019346,0.0005616857527411918,0.0,0.0,0.0,0.0,0.0,0.0,0.0,0.0,0.0,-0.04010345331254268,0.07521044222936774,9.808701327365027,0.0,0.0,0.0,0.0,0.0,0.0,0.0,0.0,0.0
2025/05/06 15:28:06.912337017,1746538086,908388668,mA1/imu,0.7451418542411472,-0.6669054740561184,-0.000775607002580884,0.0003227473105398001,0.0,0.0,0.0,0.0,0.0,0.0,0.0,0.0,0.0,-6.034039681339577e-05,0.0031897185963220185,0.0010494629721406437,0.0,0.0,0.0,0.0,0.0,0.0,0.0,0.0,0.0,-0.0047852999242957465,0.5762946136882614,9.810117425808178,0.0,0.0,0.0,0.0,0.0,0.0,0.0,0.0,0.0
2025/05/06 15:28:06.962938291,1746538086,959370179,mA1/imu,0.7451340574498183,-0.6669142347187602,-0.0007224359922341447,0.00034357546235338555,0.0,0.0,0.0,0.0,0.0,0.0,0.0,0.0,0.0,0.0005494952182918362,0.000742486731380634,-0.0003841967053651428,0.0,0.0,0.0,0.0,0.0,0.0,0.0,0.0,0.0,0.12477184527614596,-0.19701185205779492,9.810929906152845,0.0,0.0,0.0,0.0,0.0,0.0,0.0,0.0,0.0
2025/05/06 15:28:07.12391545,1746538087,10210635,mA1/imu,0.745151038926312,-0.666895290833349,-0.0007071262197527957,0.00031658150585359726,0.0,0.0,0.0,0.0,0.0,0.0,0.0,0.0,0.0,0.002199433996823452,-0.000492566312056917,-0.0011724657458812696,0.0,0.0,0.0,0.0,0.0,0.0,0.0,0.0,0.0,0.019578111006348122,-0.5434598637304545,9.810893392124544,0.0,0.0,0.0,0.0,0.0,0.0,0.0,0.0,0.0
