time,header_stamp_secs,header_stamp_nsecs,header_frame_id,orientation_x,orientation_y,orientation_z,orientation_w,orientation_covariance_0,orientation_covariance_1,orientation_covariance_2,orientation_covariance_3,orientation_covariance_4,orientation_covariance_5,orientation_covariance_6,orientation_covariance_7,orientation_covariance_8,angular_velocity_x,angular_velocity_y,angular_velocity_z,angular_velocity_covariance_0,angular_velocity_covariance_1,angular_velocity_covariance_2,angular_velocity_covariance_3,angular_velocity_covariance_4,angular_velocity_covariance_5,angular_velocity_covariance_6,angular_velocity_covariance_7,angular_velocity_covariance_8,linear_acceleration_x,linear_acceleration_y,linear_acceleration_z,linear_acceleration_covariance_0,linear_acceleration_covariance_1,linear_acceleration_covariance_2,linear_acceleration_covariance_3,linear_acceleration_covariance_4,linear_acceleration_covariance_5,linear_acceleration_covariance_6,linear_acceleration_covariance_7,linear_acceleration_covariance_8
2025/05/06 15:48:33.362485975,1746539313,360940694,mA1/imu,0.04769622147449537,0.9988614888840402,0.0007772003579892762,0.0004386809976332601,0.0,0.0,0.0,0.0,0.0,0.0,0.0,0.0,0.0,1.166387791641139e-05,-4.326852768780274e-05,-0.00016286251127906572,0.0,0.0,0.0,0.0,0.0,0.0,0.0,0.0,0.0,0.007785772454070486,-0.01594966563046174,9.811226552398471,0.0,0.0,0.0,0.0,0.0,0.0,0.0,0.0,0.0
2025/05/06 15:48:33.407584849,1746539313,405801598,mA1/imu,0.047692152036592016,0.9988616830262013,0.0007768540655711611,0.0004396748158498953,0.0,0.0,0.0,0.0,0.0,0.0,0.0,0.0,0.0,1.1066173007190836e-05,-3.793515893762187e-05,-0.00016309752755678945,0.0,0.0,0.0,0.0,0.0,0.0,0.0,0.0,0.0,0.007787293627656809,-0.015939509403445982,9.810878642359253,0.0,0.0,0.0,0.0,0.0,0.0,0.0,0.0,0.0
2025/05/06 15:48:33.462674266,1746539313,460301654,mA1/imu,0.047688076758197355,0.9988618775068817,0.0007765037997507508,0.00044050014811422816,0.0,0.0,0.0,0.0,0.0,0.0,0.0,0.0,0.0,1.2350834325792392e-05,-3.035801778126691e-05,-0.00016331194182730714,0.0,0.0,0.0,0.0,0.0,0.0,0.0,0.0,0.0,0.0077870124047508095,-0.015348938667530627,9.809055568182508,0.0,0.0,0.0,0.0,0.0,0.0,0.0,0.0,0.0
2025/05/06 15:48:33.512622683,1746539313,512325935,mA1/imu,0.047683995782749754,0.9988620723256704,0.0007761654203303122,0.0004411152892414097,0.0,0.0,0.0,0.0,0.0,0.0,0.0,0.0,0.0,1.304279696420635e-05,-2.1369462701119615e-05,-0.000163533177490929,0.0,0.0,0.0,0.0,0.0,0.0,0.0,0.0,0.0,0.007785254320914704,-0.015355793320571394,9.808703496426416,0.0,0.0,0.0,0.0,0.0,0.0,0.0,0.0,0.0
2025/05/06 15:48:33.556242833,1746539313,556059305,mA1/imu,0.04767982907322133,0.998862271064793,0.0007758158354972906,0.0004421002395085864,0.0,0.0,0.0,0.0,0.0,0.0,0.0,0.0,0.0,1.3204129615138702e-05,-6.427100588877242e-05,-0.00017338556082091973,0.0,0.0,0.0,0.0,0.0,0.0,0.0,0.0,0.0,0.010133624985029142,-0.01525056069883775,9.81124718906937,0.0,0.0,0.0,0.0,0.0,0.0,0.0,0.0,0.0
2025/05/06 15:48:33.607173107,1746539313,606978049,mA1/imu,0.0476750865002156,0.9988624966775304,0.0007752707941142273,0.00044476232259760604,0.0,0.0,0.0,0.0,0.0,0.0,0.0,0.0,0.0,1.7906458359276157e-05,-0.0001344131869320575,-0.000200988574756069,0.0,0.0,0.0,0.0,0.0,0.0,0.0,0.0,0.0,0.010192620357668016,-0.015187844100586583,9.810901196539989,0.0,0.0,0.0,0.0,0.0,0.0,0.0,0.0,0.0
2025/05/06 15:48:33.662242869,1746539313,659589699,mA1/imu,0.04767192295574064,0.9988626476015576,0.0007743451908503039,0.0004465172270106169,0.0,0.0,0.0,0.0,0.0,0.0,0.0,0.0,0.0,4.648065003661969e-05,2.5873917261323457e-05,-3.524250792659335e-05,0.0,0.0,0.0,0.0,0.0,0.0,0.0,0.0,0.0,0.00928686973293135,-0.013520672273360304,9.8087387465788,0.0,0.0,0.0,0.0,0.0,0.0,0.0,0.0,0.0
2025/05/06 15:48:33.710744375,1746539313,710120066,mA1/imu,0.04767136960020225,0.998862674476102,0.0007729900568659987,0.0004478228013005053,0.0,0.0,0.0,0.0,0.0,0.0,0.0,0.0,0.0,5.687299645515337e-05,-0.00012618135031222801,-2.442833590660722e-05,0.0,0.0,0.0,0.0,0.0,0.0,0.0,0.0,0.0,0.013559952045535152,-0.013974926337028988,9.808704298024589,0.0,0.0,0.0,0.0,0.0,0.0,0.0,0.0,0.0
2025/05/06 15:48:33.761785286,1746539313,761463746,mA1/imu,0.04767068275746464,0.9988627060885695,0.0007712044279365334,0.00045346950000160367,0.0,0.0,0.0,0.0,0.0,0.0,0.0,0.0,0.0,6.346440432537648e-05,-0.0002948048534771224,-2.9881372262565304e-05,0.0,0.0,0.0,0.0,0.0,0.0,0.0,0.0,0.0,0.013269896452800809,-0.01463419532384103,9.811218252156738,0.0,0.0,0.0,0.0,0.0,0.0,0.0,0.0,0.0
2025/05/06 15:48:33.813145531,1746539313,812623982,mA1/imu,0.04766986619508464,0.9988627426081169,0.000768859845092925,0.00046275357605553763,0.0,0.0,0.0,0.0,0.0,0.0,0.0,0.0,0.0,7.372381055744198e-05,-0.0004094914716488034,-3.49942232605575e-05,0.0,0.0,0.0,0.0,0.0,0.0,0.0,0.0,0.0,0.010629495996103515,-0.014198594317200632,9.810848071226829,0.0,0.0,0.0,0.0,0.0,0.0,0.0,0.0,0.0
2025/05/06 15:48:33.855344243,1746539313,855192340,mA1/imu,0.04766761286142469,0.9988628460319766,0.0007667516806561004,0.0004749661601136152,0.0,0.0,0.0,0.0,0.0,0.0,0.0,0.0,0.0,5.837275616174028e-05,-0.0004972287459986153,-0.00010422347666975453,0.0,0.0,0.0,0.0,0.0,0.0,0.0,0.0,0.0,0.00869290093886984,-0.013798750390085155,9.809039361959837,0.0,0.0,0.0,0.0,0.0,0.0,0.0,0.0,0.0
2025/05/06 15:48:33.905545257,1746539313,904900513,mA1/imu,0.04766497632621397,0.9988629678757878,0.0007647459140976225,0.0004864173942633312,0.0,0.0,0.0,0.0,0.0,0.0,0.0,0.0,0.0,6.509518636408935e-05,-0.00043349503236277977,-0.00010709371287613838,0.0,0.0,0.0,0.0,0.0,0.0,0.0,0.0,0.0,0.008629717546000365,-0.017252432449751685,9.808691136757046,0.0,0.0,0.0,0.0,0.0,0.0,0.0,0.0,0.0
2025/05/06 15:48:33.957536460,1746539313,957065214,mA1/imu,0.047662948686872895,0.9988630613327696,0.0007628390061627132,0.0004960887532450673,0.0,0.0,0.0,0.0,0.0,0.0,0.0,0.0,0.0,5.567791761392598e-05,-0.00034873402760004287,-5.114181242182654e-05,0.0,0.0,0.0,0.0,0.0,0.0,0.0,0.0,0.0,0.010649771693063258,-0.013913604293690212,9.811367136757106,0.0,0.0,0.0,0.0,0.0,0.0,0.0,0.0,0.0
2025/05/06 15:48:34.8630173,1746539314,6897368,mA1/imu,0.047661787133353194,0.99886311362801,0.0007611061691661794,0.0005049732778912622,0.0,0.0,0.0,0.0,0.0,0.0,0.0,0.0,0.0,4.747065825622543e-05,-0.00036939713965729494,-4.873864646146873e-05,0.0,0.0,0.0,0.0,0.0,0.0,0.0,0.0,0.0,0.012450460179034685,-0.014724334189595097,9.810867441377006,0.0,0.0,0.0,0.0,0.0,0.0,0.0,0.0,0.0
2025/05/06 15:48:34.58263868,1746539314,58065298,mA1/imu,0.047660507187896266,0.9988631710954753,0.0007595997553518065,0.0005142877555839267,0.0,0.0,0.0,0.0,0.0,0.0,0.0,0.0,0.0,3.794958707582535e-05,-0.0003751605074872978,-5.342709479237631e-05,0.0,0.0,0.0,0.0,0.0,0.0,0.0,0.0,0.0,0.012187232876929837,-0.014202316044035575,9.809087578653978,0.0,0.0,0.0,0.0,0.0,0.0,0.0,0.0,0.0
2025/05/06 15:48:34.108540276,1746539314,108309361,mA1/imu,0.04765911169483545,0.9988632338707172,0.0007583950375748438,0.0005233839503457559,0.0,0.0,0.0,0.0,0.0,0.0,0.0,0.0,0.0,2.67759908806962e-05,-0.00035601069719080745,-5.7989515108254685e-05,0.0,0.0,0.0,0.0,0.0,0.0,0.0,0.0,0.0,0.012077669673967168,-0.014244186448451497,9.808749551791836,0.0,0.0,0.0,0.0,0.0,0.0,0.0,0.0,0.0
2025/05/06 15:48:34.160962096,1746539314,159349386,mA1/imu,0.047654977983758874,0.9988634265136517,0.0007582339741167029,0.0005322856515491566,0.0,0.0,0.0,0.0,0.0,0.0,0.0,0.0,0.0,-4.588302471548333e-05,-0.0003828526778937861,-0.00028520369244162106,0.0,0.0,0.0,0.0,0.0,0.0,0.0,0.0,0.0,0.007092418775549597,-0.017208232948501403,9.811777821445606,0.0,0.0,0.0,0.0,0.0,0.0,0.0,0.0,0.0
2025/05/06 15:48:34.212806343,1746539314,211620622,mA1/imu,0.047647368656497886,0.9988637860320728,0.0007594418106855096,0.000537086512035862,0.0,0.0,0.0,0.0,0.0,0.0,0.0,0.0,0.0,-6.420117691429948e-05,-4.4289558437592944e-05,-0.0003033110726874466,0.0,0.0,0.0,0.0,0.0,0.0,0.0,0.0,0.0,0.0036020998546060943,-0.014503719857008627,9.810994577394148,0.0,0.0,0.0,0.0,0.0,0.0,0.0,0.0,0.0
2025/05/06 15:48:34.264185887,1746539314,263997012,mA1/imu,0.04763983395441117,0.9988641467014322,0.0007613935754080968,0.0005319163837822094,0.0,0.0,0.0,0.0,0.0,0.0,0.0,0.0,0.0,-7.135687413708273e-05,0.000376755675449358,-0.00030027101276823635,0.0,0.0,0.0,0.0,0.0,0.0,0.0,0.0,0.0,0.0019606255799738655,-0.01396825373708003,9.809232154925729,0.0,0.0,0.0,0.0,0.0,0.0,0.0,0.0,0.0
2025/05/06 15:48:34.306698285,1746539314,304934467,mA1/imu,0.04763237299508965,0.9988645085823366,0.0007639162623582529,0.0005166907858495926,0.0,0.0,0.0,0.0,0.0,0.0,0.0,0.0,0.0,-6.951288275659595e-05,0.0007728619049589765,-0.00029685418942528165,0.0,0.0,0.0,0.0,0.0,0.0,0.0,0.0,0.0,0.00040310276356173187,-0.01547766315610737,9.808896129550677,0.0,0.0,0.0,0.0,0.0,0.0,0.0,0.0,0.0
2025/05/06 15:48:34.357468563,1746539314,356476805,mA1/imu,0.04762498948395418,0.9988648714003788,0.0007664065196081868,0.0004916096059368318,0.0,0.0,0.0,0.0,0.0,0.0,0.0,0.0,0.0,-5.402885163222985e-05,0.0011526941720026516,-0.0002936633792763273,0.0,0.0,0.0,0.0,0.0,0.0,0.0,0.0,0.0,0.001216192067055615,-0.013133235882466204,9.811424348569261,0.0,0.0,0.0,0.0,0.0,0.0,0.0,0.0,0.0
2025/05/06 15:48:34.407311348,1746539314,406710512,mA1/imu,0.04761767908084816,0.9988652333632773,0.0007695584736392022,0.00045825411599649253,0.0,0.0,0.0,0.0,0.0,0.0,0.0,0.0,0.0,-6.719258551734945e-05,0.001455313442454152,-0.0002903062849466733,0.0,0.0,0.0,0.0,0.0,0.0,0.0,0.0,0.0,0.0005376423673657494,-0.014039503535466895,9.811054855630246,0.0,0.0,0.0,0.0,0.0,0.0,0.0,0.0,0.0
2025/05/06 15:48:34.461554954,1746539314,461277719,mA1/imu,0.047608650865168196,0.9988656772904573,0.0007733718856132097,0.0004207015584547247,0.0,0.0,0.0,0.0,0.0,0.0,0.0,0.0,0.0,-8.298834196647101e-05,0.0015680858336595451,-0.0003896712220726748,0.0,0.0,0.0,0.0,0.0,0.0,0.0,0.0,0.0,-0.0008957769894065853,-0.013665831976164743,9.809312467917378,0.0,0.0,0.0,0.0,0.0,0.0,0.0,0.0,0.0
2025/05/06 15:48:34.514249338,1746539314,512763234,mA1/imu,0.04759897865048818,0.9988661520300337,0.0007774128530554617,0.0003784037527271007,0.0,0.0,0.0,0.0,0.0,0.0,0.0,0.0,0.0,-7.828990857860627e-05,0.0017604035018239984,-0.00038364133820659494,0.0,0.0,0.0,0.0,0.0,0.0,0.0,0.0,0.0,0.0013740326744629272,-0.01401898471615304,9.808950895930518,0.0,0.0,0.0,0.0,0.0,0.0,0.0,0.0,0.0
2025/05/06 15:48:34.560505779,1746539314,560163700,mA1/imu,0.04759123706752571,0.9988665347676914,0.0007809316754457158,0.0003316945657421914,0.0,0.0,0.0,0.0,0.0,0.0,0.0,0.0,0.0,-3.403484126700889e-05,0.0018937638682270904,-0.00027619287590805087,0.0,0.0,0.0,0.0,0.0,0.0,0.0,0.0,0.0,0.004644040696359454,-0.01344452547508994,9.81128926550438,0.0,0.0,0.0,0.0,0.0,0.0,0.0,0.0,0.0
2025/05/06 15:48:34.612995867,1746539314,612738076,mA1/imu,0.047584321025632016,0.9988668758052824,0.0007839514731728775,0.0002867605479221981,0.0,0.0,0.0,0.0,0.0,0.0,0.0,0.0,0.0,-3.5080059226336424e-05,0.0017333850316912354,-0.0002750544596302045,0.0,0.0,0.0,0.0,0.0,0.0,0.0,0.0,0.0,0.003016614365700448,-0.014290698371797023,9.810958418387314,0.0,0.0,0.0,0.0,0.0,0.0,0.0,0.0,0.0
2025/05/06 15:48:34.656513255,1746539314,655715641,mA1/imu,0.04757563991954254,0.9988672971950162,0.0007868472992390288,0.00024890137943581496,0.0,0.0,0.0,0.0,0.0,0.0,0.0,0.0,0.0,-4.246664182729774e-05,0.001401495427707663,-0.00037641136589177364,0.0,0.0,0.0,0.0,0.0,0.0,0.0,0.0,0.0,0.0013425118813539419,-0.013927411111188925,9.809151301444551,0.0,0.0,0.0,0.0,0.0,0.0,0.0,0.0,0.0
2025/05/06 15:48:34.709627217,1746539314,708768523,mA1/imu,0.04756628848849897,0.9988677480683082,0.0007892777740701757,0.00021704601071802492,0.0,0.0,0.0,0.0,0.0,0.0,0.0,0.0,0.0,-3.170718771411765e-05,0.0011844321814041823,-0.0003715160851794116,0.0,0.0,0.0,0.0,0.0,0.0,0.0,0.0,0.0,0.001541552949726709,-0.014199573563187306,9.80875371712482,0.0,0.0,0.0,0.0,0.0,0.0,0.0,0.0,0.0
2025/05/06 15:48:34.760037207,1746539314,759883694,mA1/imu,0.047557060578681996,0.9988681911950448,0.0007911013523725087,0.00019174593985458286,0.0,0.0,0.0,0.0,0.0,0.0,0.0,0.0,0.0,-1.9548588552114366e-05,0.0008932892371597974,-0.0003668937480829291,0.0,0.0,0.0,0.0,0.0,0.0,0.0,0.0,0.0,0.0020035736457227867,-0.014861410485446496,9.811181948990383,0.0,0.0,0.0,0.0,0.0,0.0,0.0,0.0,0.0
2025/05/06 15:48:34.811254902,1746539314,809697651,mA1/imu,0.04754794205985119,0.9988686275697726,0.0007922153269041806,0.00017452113816109402,0.0,0.0,0.0,0.0,0.0,0.0,0.0,0.0,0.0,-7.272084895393457e-06,0.0005485974220634319,-0.0003634823390544179,0.0,0.0,0.0,0.0,0.0,0.0,0.0,0.0,0.0,0.0022787095217258976,-0.015054701546678666,9.810801273443406,0.0,0.0,0.0,0.0,0.0,0.0,0.0,0.0,0.0
2025/05/06 15:48:34.860790385,1746539314,860660890,mA1/imu,0.04753889844534179,0.9988690591108581,0.0007925778841970086,0.0001664508644699805,0.0,0.0,0.0,0.0,0.0,0.0,0.0,0.0,0.0,5.710080683371783e-06,0.00017119008327439348,-0.0003608480198872198,0.0,0.0,0.0,0.0,0.0,0.0,0.0,0.0,0.0,0.002413104682973942,-0.01456877129894583,9.808948114411388,0.0,0.0,0.0,0.0,0.0,0.0,0.0,0.0,0.0
2025/05/06 15:48:34.911247260,1746539314,910800364,mA1/imu,0.04752992758926009,0.9988694860769705,0.0007921802101170618,0.0001679827474046621,0.0,0.0,0.0,0.0,0.0,0.0,0.0,0.0,0.0,1.8255371710207533e-05,-0.00022567564959911159,-0.0003580888513187619,0.0,0.0,0.0,0.0,0.0,0.0,0.0,0.0,0.0,0.00441581677508625,-0.014439594886287568,9.808574364124246,0.0,0.0,0.0,0.0,0.0,0.0,0.0,0.0,0.0
2025/05/06 15:48:34.963423168,1746539314,962890269,mA1/imu,0.047522842896034555,0.9988698225802649,0.0007907689016236238,0.00017783726558090305,0.0,0.0,0.0,0.0,0.0,0.0,0.0,0.0,0.0,4.3947111671809066e-05,-0.0005447948339180605,-0.00025221787751602084,0.0,0.0,0.0,0.0,0.0,0.0,0.0,0.0,0.0,0.006516604480103248,-0.015236257469248232,9.811047478329284,0.0,0.0,0.0,0.0,0.0,0.0,0.0,0.0,0.0
2025/05/06 15:48:35.9783357,1746539315,9331247,mA1/imu,0.047516563077445825,0.9988701192023652,0.0007885311279170636,0.00019853619337133077,0.0,0.0,0.0,0.0,0.0,0.0,0.0,0.0,0.0,5.290955684040868e-05,-0.0010048060386456878,-0.0002518058844317817,0.0,0.0,0.0,0.0,0.0,0.0,0.0,0.0,0.0,0.0042906117198487125,-0.015302185235670628,9.810696907703031,0.0,0.0,0.0,0.0,0.0,0.0,0.0,0.0,0.0
2025/05/06 15:48:35.62971856,1746539315,62527649,mA1/imu,0.04750852450113413,0.9988704966744494,0.0007858799680937295,0.00023101025887815483,0.0,0.0,0.0,0.0,0.0,0.0,0.0,0.0,0.0,4.429754056825655e-05,-0.0014503095933609575,-0.0003528009943222531,0.0,0.0,0.0,0.0,0.0,0.0,0.0,0.0,0.0,0.0013690711341848901,-0.014484713756580997,9.808920856998466,0.0,0.0,0.0,0.0,0.0,0.0,0.0,0.0,0.0
2025/05/06 15:48:35.110441816,1746539315,110113217,mA1/imu,0.04749982443149685,0.9988709030480729,0.0007828764075634204,0.0002698655865564889,0.0,0.0,0.0,0.0,0.0,0.0,0.0,0.0,0.0,4.769097883074787e-05,-0.0016261989897196042,-0.00034758611285063497,0.0,0.0,0.0,0.0,0.0,0.0,0.0,0.0,0.0,0.003154549050973724,-0.01458006044677097,9.80858100913057,0.0,0.0,0.0,0.0,0.0,0.0,0.0,0.0,0.0
2025/05/06 15:48:35.163145635,1746539315,162600267,mA1/imu,0.04749304104317674,0.9988712165586878,0.0007794402400938674,0.00031025143107419424,0.0,0.0,0.0,0.0,0.0,0.0,0.0,0.0,0.0,6.249756546281268e-05,-0.0016422187493700501,-0.00024063623693928882,0.0,0.0,0.0,0.0,0.0,0.0,0.0,0.0,0.0,0.0050233014865896765,-0.015444528121568886,9.811110227163898,0.0,0.0,0.0,0.0,0.0,0.0,0.0,0.0,0.0
2025/05/06 15:48:35.205493766,1746539315,205093368,mA1/imu,0.04748708717430942,0.9988714881662574,0.00077584605561973,0.00035318992620572297,0.0,0.0,0.0,0.0,0.0,0.0,0.0,0.0,0.0,6.046728066007654e-05,-0.0017618775013659477,-0.00023922795997874627,0.0,0.0,0.0,0.0,0.0,0.0,0.0,0.0,0.0,0.004894209688052668,-0.01536960710123876,9.810807973837342,0.0,0.0,0.0,0.0,0.0,0.0,0.0,0.0,0.0
2025/05/06 15:48:35.258334397,1746539315,258124387,mA1/imu,0.04748117102015159,0.9988717555277987,0.0007722661296780636,0.000397507728071863,0.0,0.0,0.0,0.0,0.0,0.0,0.0,0.0,0.0,5.662181072380594e-05,-0.0017738040314629676,-0.00023767569385034135,0.0,0.0,0.0,0.0,0.0,0.0,0.0,0.0,0.0,0.004317440460957153,-0.014798403879244937,9.809056481519917,0.0,0.0,0.0,0.0,0.0,0.0,0.0,0.0,0.0
2025/05/06 15:48:35.313224479,1746539315,311869105,mA1/imu,0.047475289919494894,0.9988720195661618,0.0007689009860861827,0.0004406428836553111,0.0,0.0,0.0,0.0,0.0,0.0,0.0,0.0,0.0,5.021518284689752e-05,-0.0016858320301137478,-0.0002366361356115652,0.0,0.0,0.0,0.0,0.0,0.0,0.0,0.0,0.0,0.004088240483382953,-0.014666816845651232,9.808741301027299,0.0,0.0,0.0,0.0,0.0,0.0,0.0,0.0,0.0
2025/05/06 15:48:35.369900411,1746539315,363606928,mA1/imu,0.0474694148384759,0.9988722829070728,0.000765932525432328,0.00048004403104659,0.0,0.0,0.0,0.0,0.0,0.0,0.0,0.0,0.0,3.964330738479617e-05,-0.0014975609693504532,-0.00023637286431591855,0.0,0.0,0.0,0.0,0.0,0.0,0.0,0.0,0.0,0.003715959689330331,-0.015282017246429708,9.811288166109446,0.0,0.0,0.0,0.0,0.0,0.0,0.0,0.0,0.0
2025/05/06 15:48:35.409355460,1746539315,408867666,mA1/imu,0.04746354597074572,0.9988725469552118,0.0007635165029936393,0.0005136006627009122,0.0,0.0,0.0,0.0,0.0,0.0,0.0,0.0,0.0,2.7074363639815378e-05,-0.0012339740520470187,-0.00023585184659899713,0.0,0.0,0.0,0.0,0.0,0.0,0.0,0.0,0.0,0.0037750060982415026,-0.015289035381186832,9.810978169252907,0.0,0.0,0.0,0.0,0.0,0.0,0.0,0.0,0.0
2025/05/06 15:48:35.466600371,1746539315,462954448,mA1/imu,0.04745768572185887,0.9988728130367088,0.000761765272096123,0.00053958847990226,0.0,0.0,0.0,0.0,0.0,0.0,0.0,0.0,0.0,1.537547469123981e-05,-0.0009064260016438632,-0.00023523690171454244,0.0,0.0,0.0,0.0,0.0,0.0,0.0,0.0,0.0,0.003657886756657026,-0.014715734558763379,9.809243332780978,0.0,0.0,0.0,0.0,0.0,0.0,0.0,0.0,0.0
2025/05/06 15:48:35.508846328,1746539315,507464465,mA1/imu,0.047451832152669036,0.9988730824654308,0.0007607547270743173,0.0005567796770932335,0.0,0.0,0.0,0.0,0.0,0.0,0.0,0.0,0.0,3.2651895603489207e-06,-0.0005390880093273724,-0.00023474339047074936,0.0,0.0,0.0,0.0,0.0,0.0,0.0,0.0,0.0,0.00378178960631974,-0.014722496247583004,9.808908655831965,0.0,0.0,0.0,0.0,0.0,0.0,0.0,0.0,0.0
2025/05/06 15:48:35.571986652,1746539315,563061672,mA1/imu,0.047446892278218286,0.9988733127078836,0.000760314028357718,0.0005652395032878842,0.0,0.0,0.0,0.0,0.0,0.0,0.0,0.0,0.0,8.050068732675222e-06,-0.0002244632043562862,-0.00014403790875174342,0.0,0.0,0.0,0.0,0.0,0.0,0.0,0.0,0.0,0.007819585691309467,-0.011499483759492633,9.812145624171945,0.0,0.0,0.0,0.0,0.0,0.0,0.0,0.0,0.0
2025/05/06 15:48:35.606575584,1746539315,605811517,mA1/imu,0.04744398602630094,0.9988734500350106,0.0007600087571252702,0.0005669142618215698,0.0,0.0,0.0,0.0,0.0,0.0,0.0,0.0,0.0,3.6461349206497227e-06,4.743694853960239e-05,-0.00011783410916873287,0.0,0.0,0.0,0.0,0.0,0.0,0.0,0.0,0.0,0.006349372557198889,-0.015551286803171862,9.811079713214319,0.0,0.0,0.0,0.0,0.0,0.0,0.0,0.0,0.0
2025/05/06 15:48:35.663571573,1746539315,662595262,mA1/imu,0.04743889967295745,0.9988736946210394,0.0007608576021889746,0.000560435226319655,0.0,0.0,0.0,0.0,0.0,0.0,0.0,0.0,0.0,-3.458743635949995e-05,0.000404246079050313,-0.0002408369372496128,0.0,0.0,0.0,0.0,0.0,0.0,0.0,0.0,0.0,0.004540313738916169,-0.014490221930597359,9.809282217132205,0.0,0.0,0.0,0.0,0.0,0.0,0.0,0.0,0.0
2025/05/06 15:48:35.710797480,1746539315,708450097,mA1/imu,0.04743286980843158,0.9988739880543884,0.0007626040178229424,0.0005452386355809564,0.0,0.0,0.0,0.0,0.0,0.0,0.0,0.0,0.0,-3.9640583531739754e-05,0.0007341337005394037,-0.00024115813036919642,0.0,0.0,0.0,0.0,0.0,0.0,0.0,0.0,0.0,0.006580401691870876,-0.016941587312176053,9.808906851611862,0.0,0.0,0.0,0.0,0.0,0.0,0.0,0.0,0.0
2025/05/06 15:48:35.764316400,1746539315,763250030,mA1/imu,0.04742889761938199,0.9988741866083182,0.0007643538169284834,0.0005241769007379008,0.0,0.0,0.0,0.0,0.0,0.0,0.0,0.0,0.0,-2.6826211613593727e-05,0.0009081233619737416,-0.00012287131473522325,0.0,0.0,0.0,0.0,0.0,0.0,0.0,0.0,0.0,0.00904166693073078,-0.015484518589842896,9.811345654470522,0.0,0.0,0.0,0.0,0.0,0.0,0.0,0.0,0.0
2025/05/06 15:48:35.811617548,1746539315,810985011,mA1/imu,0.047425750134912494,0.9988743470271582,0.0007662993042532504,0.0004998605659761056,0.0,0.0,0.0,0.0,0.0,0.0,0.0,0.0,0.0,-3.5784945138143545e-05,0.0010037289747927272,-0.00012696496689864204,0.0,0.0,0.0,0.0,0.0,0.0,0.0,0.0,0.0,0.010992033804478503,-0.015443169407184687,9.810966125486626,0.0,0.0,0.0,0.0,0.0,0.0,0.0,0.0,0.0
2025/05/06 15:48:35.869210508,1746539315,863365227,mA1/imu,0.04742428427666948,0.9988744282814284,0.0007683549592050205,0.0004726700243491078,0.0,0.0,0.0,0.0,0.0,0.0,0.0,0.0,0.0,-2.5240550111741705e-05,0.0011017710674563845,-2.957390191401402e-05,0.0,0.0,0.0,0.0,0.0,0.0,0.0,0.0,0.0,0.01354427473653087,-0.015028739128633199,9.80909960364081,0.0,0.0,0.0,0.0,0.0,0.0,0.0,0.0,0.0
2025/05/06 15:48:35.905759878,1746539315,905598609,mA1/imu,0.04742342729910297,0.9988744795255656,0.0007698293027816006,0.0004472790872157992,0.0,0.0,0.0,0.0,0.0,0.0,0.0,0.0,0.0,-1.0930280603619859e-05,0.0009535217122556633,-3.6159596662086116e-05,0.0,0.0,0.0,0.0,0.0,0.0,0.0,0.0,0.0,0.013501486581856452,-0.013791976488961513,9.808705741948613,0.0,0.0,0.0,0.0,0.0,0.0,0.0,0.0,0.0
2025/05/06 15:48:35.966959088,1746539315,962843642,mA1/imu,0.04742241004041329,0.9988745357703311,0.0007713462235339458,0.0004264276818644582,0.0,0.0,0.0,0.0,0.0,0.0,0.0,0.0,0.0,-2.5907433642317043e-05,0.0007517148902379108,-4.2687911205876527e-05,0.0,0.0,0.0,0.0,0.0,0.0,0.0,0.0,0.0,0.013631422527637316,-0.015064096354849286,9.811174296051092,0.0,0.0,0.0,0.0,0.0,0.0,0.0,0.0,0.0
2025/05/06 15:48:36.37922248,1746539316,14807682,mA1/imu,0.04742123526253715,0.9988745967643194,0.0007728478984076954,0.0004112070270583594,0.0,0.0,0.0,0.0,0.0,0.0,0.0,0.0,0.0,-3.4868351030831084e-05,0.0005129726912857149,-4.912842939876538e-05,0.0,0.0,0.0,0.0,0.0,0.0,0.0,0.0,0.0,0.013542523146830687,-0.015331437626135936,9.81078744146572,0.0,0.0,0.0,0.0,0.0,0.0,0.0,0.0,0.0
2025/05/06 15:48:36.59783599,1746539316,58367889,mA1/imu,0.047419223681921155,0.998874694899107,0.0007742152146929882,0.0004021273692490338,0.0,0.0,0.0,0.0,0.0,0.0,0.0,0.0,0.0,-4.13561105931074e-05,0.000254921180123765,-0.00011439210252716165,0.0,0.0,0.0,0.0,0.0,0.0,0.0,0.0,0.0,0.011338886672328508,-0.015427611486237775,9.80873793205715,0.0,0.0,0.0,0.0,0.0,0.0,0.0,0.0,0.0
2025/05/06 15:48:36.122176696,1746539316,116658158,mA1/imu,0.04741611894495869,0.998874842839526,0.0007755553991022605,0.0003981461197665581,0.0,0.0,0.0,0.0,0.0,0.0,0.0,0.0,0.0,-4.6543008734367265e-05,0.00010653652481480367,-0.00012583877308569382,0.0,0.0,0.0,0.0,0.0,0.0,0.0,0.0,0.0,0.009379773106576244,-0.014873920099801584,9.808545161839508,0.0,0.0,0.0,0.0,0.0,0.0,0.0,0.0,0.0
2025/05/06 15:48:36.167460318,1746539316,164052577,mA1/imu,0.0474129147162159,0.9988749941798236,0.000776793113921355,0.000397634038114536,0.0,0.0,0.0,0.0,0.0,0.0,0.0,0.0,0.0,-4.877992348798475e-05,-3.2561807715144425e-05,-0.000129884693572735,0.0,0.0,0.0,0.0,0.0,0.0,0.0,0.0,0.0,0.009282866423954744,-0.015504387595440833,9.81103009297894,0.0,0.0,0.0,0.0,0.0,0.0,0.0,0.0,0.0
2025/05/06 15:48:36.227591176,1746539316,208666710,mA1/imu,0.04740961432358893,0.9988751488389704,0.0007778672781858175,0.0004005297876702051,0.0,0.0,0.0,0.0,0.0,0.0,0.0,0.0,0.0,-4.8802588161309896e-05,-0.0001662881803100434,-0.0001337886137918042,0.0,0.0,0.0,0.0,0.0,0.0,0.0,0.0,0.0,0.009212775334655827,-0.015531876579960902,9.810681332766013,0.0,0.0,0.0,0.0,0.0,0.0,0.0,0.0,0.0
2025/05/06 15:48:36.295290167,1746539316,267269825,mA1/imu,0.04740688492531444,0.9988752753173328,0.0007785395903370079,0.00040681384784750977,0.0,0.0,0.0,0.0,0.0,0.0,0.0,0.0,0.0,-3.0183584949405237e-05,-0.00029335364463623203,-8.018184066755338e-05,0.0,0.0,0.0,0.0,0.0,0.0,0.0,0.0,0.0,0.011194746576090911,-0.01437900372432998,9.808713003131873,0.0,0.0,0.0,0.0,0.0,0.0,0.0,0.0,0.0
2025/05/06 15:48:36.316719524,1746539316,310802270,mA1/imu,0.04740498561293686,0.9988753609745197,0.0007787021602765557,0.00041737274231456664,0.0,0.0,0.0,0.0,0.0,0.0,0.0,0.0,0.0,-2.3305398700723882e-05,-0.0005010346171245614,-7.826547014410339e-05,0.0,0.0,0.0,0.0,0.0,0.0,0.0,0.0,0.0,0.010826901179752896,-0.01518856856018598,9.808532156058636,0.0,0.0,0.0,0.0,0.0,0.0,0.0,0.0,0.0
2025/05/06 15:48:36.371384371,1746539316,363851382,mA1/imu,0.04740118599894554,0.9988755341794809,0.0007786386585814049,0.00043417207333755394,0.0,0.0,0.0,0.0,0.0,0.0,0.0,0.0,0.0,-3.525543125394662e-05,-0.0007393022783311462,-0.00018422859753362703,0.0,0.0,0.0,0.0,0.0,0.0,0.0,0.0,0.0,0.00811014644585933,-0.015540405067133058,9.811061691476155,0.0,0.0,0.0,0.0,0.0,0.0,0.0,0.0,0.0
2025/05/06 15:48:36.416228744,1746539316,415612149,mA1/imu,0.047396593614989734,0.9988757438017161,0.0007785732822310914,0.0004529700964582234,0.0,0.0,0.0,0.0,0.0,0.0,0.0,0.0,0.0,-3.223433794190201e-05,-0.0007686825098180187,-0.0001847471067584199,0.0,0.0,0.0,0.0,0.0,0.0,0.0,0.0,0.0,0.010521400483391528,-0.015606598021537263,9.810744039799086,0.0,0.0,0.0,0.0,0.0,0.0,0.0,0.0,0.0
2025/05/06 15:48:36.475241628,1746539316,455963397,mA1/imu,0.047393320013366755,0.9988758908894251,0.0007783207456690512,0.0004712056715029167,0.0,0.0,0.0,0.0,0.0,0.0,0.0,0.0,0.0,-1.9034254541335168e-05,-0.0007414412557706352,-0.00012020451444319649,0.0,0.0,0.0,0.0,0.0,0.0,0.0,0.0,0.0,0.01178030931730484,-0.01516902356407246,9.809010615939643,0.0,0.0,0.0,0.0,0.0,0.0,0.0,0.0,0.0
2025/05/06 15:48:36.515243778,1746539316,510789953,mA1/imu,0.04739029473772769,0.9988760255694126,0.0007777419051343016,0.0004905352735345505,0.0,0.0,0.0,0.0,0.0,0.0,0.0,0.0,0.0,-8.997783369092549e-06,-0.000787785392017404,-0.00012274946313421003,0.0,0.0,0.0,0.0,0.0,0.0,0.0,0.0,0.0,0.011610941104056985,-0.01512141777754249,9.808711107895364,0.0,0.0,0.0,0.0,0.0,0.0,0.0,0.0,0.0
2025/05/06 15:48:36.558369450,1746539316,556764728,mA1/imu,0.04738720767196115,0.9988761628014761,0.0007769284076821542,0.0005102139772960299,0.0,0.0,0.0,0.0,0.0,0.0,0.0,0.0,0.0,-1.2846024972397927e-06,-0.00078091159727778,-0.00012520859664549692,0.0,0.0,0.0,0.0,0.0,0.0,0.0,0.0,0.0,0.011192267336307014,-0.015691415974113814,9.811293638097103,0.0,0.0,0.0,0.0,0.0,0.0,0.0,0.0,0.0
2025/05/06 15:48:36.620919878,1746539316,606497317,mA1/imu,0.04738406029345314,0.998876303110823,0.0007759375760885458,0.0005289939884112721,0.0,0.0,0.0,0.0,0.0,0.0,0.0,0.0,0.0,6.46808465730203e-06,-0.0007265505669270874,-0.00012756035708571398,0.0,0.0,0.0,0.0,0.0,0.0,0.0,0.0,0.0,0.01106332851138885,-0.015667720029094636,9.810997226923101,0.0,0.0,0.0,0.0,0.0,0.0,0.0,0.0,0.0
2025/05/06 15:48:36.671106869,1746539316,654288751,mA1/imu,0.047380080700447115,0.9988764835046112,0.0007748420211989447,0.0005461447822597084,0.0,0.0,0.0,0.0,0.0,0.0,0.0,0.0,0.0,8.315718622098867e-06,-0.0006781918687509858,-0.0002070547706126032,0.0,0.0,0.0,0.0,0.0,0.0,0.0,0.0,0.0,0.013734783826146676,-0.017295710397199182,9.80870892758407,0.0,0.0,0.0,0.0,0.0,0.0,0.0,0.0,0.0
2025/05/06 15:48:36.707520284,1746539316,706637361,mA1/imu,0.047374289830202955,0.9988767510960508,0.0007740636404741679,0.0005600074666987947,0.0,0.0,0.0,0.0,0.0,0.0,0.0,0.0,0.0,7.854241613907287e-06,-0.00044024467330252344,-0.00023177996415772316,0.0,0.0,0.0,0.0,0.0,0.0,0.0,0.0,0.0,0.006598503029188833,-0.0149525792364837,9.80892860992196,0.0,0.0,0.0,0.0,0.0,0.0,0.0,0.0,0.0
2025/05/06 15:48:36.762276912,1746539316,760872885,mA1/imu,0.047369177722634256,0.9988769902522037,0.00077346804268662,0.0005666513632547044,0.0,0.0,0.0,0.0,0.0,0.0,0.0,0.0,0.0,1.5819977569148635e-05,-0.0001400145500874258,-0.00017376467201136303,0.0,0.0,0.0,0.0,0.0,0.0,0.0,0.0,0.0,0.008684229261200584,-0.014999624755332668,9.811640941845281,0.0,0.0,0.0,0.0,0.0,0.0,0.0,0.0,0.0
2025/05/06 15:48:36.844503244,1746539316,815938952,mA1/imu,0.0473649801761464,0.9988771893952789,0.0007728756766843233,0.0005672934776746312,0.0,0.0,0.0,0.0,0.0,0.0,0.0,0.0,0.0,2.4154538267215372e-05,4.114690251109751e-05,-0.00016917889213867695,0.0,0.0,0.0,0.0,0.0,0.0,0.0,0.0,0.0,0.01058001995401835,-0.01563110867566655,9.81113195200374,0.0,0.0,0.0,0.0,0.0,0.0,0.0,0.0,0.0
2025/05/06 15:48:36.888030850,1746539316,866869222,mA1/imu,0.0473607148385691,0.9988773940857388,0.0007723138614451352,0.0005637426387850904,0.0,0.0,0.0,0.0,0.0,0.0,0.0,0.0,0.0,3.1262109373292846e-05,0.00020622020853837717,-0.00017172610141278342,0.0,0.0,0.0,0.0,0.0,0.0,0.0,0.0,0.0,0.010622029425050111,-0.015018696833711357,9.809323891271406,0.0,0.0,0.0,0.0,0.0,0.0,0.0,0.0,0.0
2025/05/06 15:48:36.923074898,1746539316,908806447,mA1/imu,0.04735638334125528,0.9988776040387004,0.0007718176463716381,0.0005562411907950627,0.0,0.0,0.0,0.0,0.0,0.0,0.0,0.0,0.0,3.647085218231098e-05,0.00035842397873951524,-0.00017423682413167813,0.0,0.0,0.0,0.0,0.0,0.0,0.0,0.0,0.0,0.010632265254676223,-0.01502457988358992,9.808962784730577,0.0,0.0,0.0,0.0,0.0,0.0,0.0,0.0,0.0
2025/05/06 15:48:36.979606561,1746539316,963017161,mA1/imu,0.04735198704624401,0.9988778188123381,0.0007714250623634902,0.0005452621858811857,0.0,0.0,0.0,0.0,0.0,0.0,0.0,0.0,0.0,3.69837096119625e-05,0.0004876735585843258,-0.00017672421447961637,0.0,0.0,0.0,0.0,0.0,0.0,0.0,0.0,0.0,0.010762994262245158,-0.0156339279813095,9.811436837966738,0.0,0.0,0.0,0.0,0.0,0.0,0.0,0.0,0.0
2025/05/06 15:48:37.8317258,1746539317,6544006,mA1/imu,0.047347527205933625,0.998878037873303,0.0007711504088974446,0.0005314592276474576,0.0,0.0,0.0,0.0,0.0,0.0,0.0,0.0,0.0,3.581288593628289e-05,0.0005891958063089442,-0.00017917323156375108,0.0,0.0,0.0,0.0,0.0,0.0,0.0,0.0,0.0,0.01077931163051434,-0.015625175152221237,9.811050629782223,0.0,0.0,0.0,0.0,0.0,0.0,0.0,0.0,0.0
2025/05/06 15:48:37.73649061,1746539317,63778854,mA1/imu,0.04734300513387118,0.9988782608345014,0.0007707262737721587,0.000515633733414563,0.0,0.0,0.0,0.0,0.0,0.0,0.0,0.0,0.0,4.5545997880463514e-05,0.0006551761806877525,-0.00018158533798240894,0.0,0.0,0.0,0.0,0.0,0.0,0.0,0.0,0.0,0.01095805940311518,-0.014345246693969731,9.809152900715338,0.0,0.0,0.0,0.0,0.0,0.0,0.0,0.0,0.0
2025/05/06 15:48:37.116871532,1746539317,113449937,mA1/imu,0.0473384226523335,0.998878486847274,0.0007705365721374489,0.0004985257070744712,0.0,0.0,0.0,0.0,0.0,0.0,0.0,0.0,0.0,3.7360951028985945e-05,0.0007102910939643573,-0.00018384713585839122,0.0,0.0,0.0,0.0,0.0,0.0,0.0,0.0,0.0,0.008839002071155183,-0.014759965353742953,9.80873150310261,0.0,0.0,0.0,0.0,0.0,0.0,0.0,0.0,0.0
2025/05/06 15:48:37.155212776,1746539317,154332606,mA1/imu,0.047332442925936136,0.9988787785393528,0.0007706400397213525,0.0004813982993916796,0.0,0.0,0.0,0.0,0.0,0.0,0.0,0.0,0.0,2.206093431296576e-05,0.0007073976856307323,-0.0002515703600886616,0.0,0.0,0.0,0.0,0.0,0.0,0.0,0.0,0.0,0.00745560898438845,-0.015384396278995441,9.811211782944321,0.0,0.0,0.0,0.0,0.0,0.0,0.0,0.0,0.0
2025/05/06 15:48:37.287158506,1746539317,209206560,mA1/imu,0.047326144947433764,0.9988790855112066,0.0007711235327821274,0.00046249454831339624,0.0,0.0,0.0,0.0,0.0,0.0,0.0,0.0,0.0,1.1770509958650016e-05,0.0007828429658866425,-0.0002516858749738424,0.0,0.0,0.0,0.0,0.0,0.0,0.0,0.0,0.0,0.0075569009675570805,-0.015516073188091537,9.810811114804867,0.0,0.0,0.0,0.0,0.0,0.0,0.0,0.0,0.0
2025/05/06 15:48:37.390743528,1746539317,254397128,mA1/imu,0.04731984220481091,0.9988793925977769,0.0007718797931590094,0.000442468973961153,0.0,0.0,0.0,0.0,0.0,0.0,0.0,0.0,0.0,4.069912782265287e-06,0.00080789691161499,-0.00025184569228295725,0.0,0.0,0.0,0.0,0.0,0.0,0.0,0.0,0.0,0.007888429360989968,-0.015004966116870272,9.808865964353279,0.0,0.0,0.0,0.0,0.0,0.0,0.0,0.0,0.0
2025/05/06 15:48:37.431071057,1746539317,315848969,mA1/imu,0.047313534271555754,0.9988796993435483,0.0007728140635635679,0.0004224600576425122,0.0,0.0,0.0,0.0,0.0,0.0,0.0,0.0,0.0,-1.4306312323037023e-06,0.0007993282505848471,-0.00025200080581131546,0.0,0.0,0.0,0.0,0.0,0.0,0.0,0.0,0.0,0.006101269728358832,-0.01488445147123918,9.808488112478614,0.0,0.0,0.0,0.0,0.0,0.0,0.0,0.0,0.0
2025/05/06 15:48:37.443556068,1746539317,360245838,mA1/imu,0.0473051122513422,0.9988801054167542,0.00077445423993304,0.00040196782463719103,0.0,0.0,0.0,0.0,0.0,0.0,0.0,0.0,0.0,-4.0166584263047687e-05,0.0008431725583881192,-0.0003712649994827894,0.0,0.0,0.0,0.0,0.0,0.0,0.0,0.0,0.0,0.004373934605345046,-0.01525503424712691,9.811001213961422,0.0,0.0,0.0,0.0,0.0,0.0,0.0,0.0,0.0
2025/05/06 15:48:37.479669145,1746539317,413640147,mA1/imu,0.047295887897760805,0.998880548945423,0.0007766262842628981,0.0003804971320271693,0.0,0.0,0.0,0.0,0.0,0.0,0.0,0.0,0.0,-5.058735009996965e-05,0.0008831378788431505,-0.0003669415808393446,0.0,0.0,0.0,0.0,0.0,0.0,0.0,0.0,0.0,0.0020841629981326847,-0.015468405585722477,9.810641530882872,0.0,0.0,0.0,0.0,0.0,0.0,0.0,0.0,0.0
2025/05/06 15:48:37.515913178,1746539317,455060935,mA1/imu,0.04728544417935968,0.9988810491099211,0.0007792650107115789,0.0003595050309807732,0.0,0.0,0.0,0.0,0.0,0.0,0.0,0.0,0.0,-6.928240709242531e-05,0.0008551795938222067,-0.00042745463306596317,0.0,0.0,0.0,0.0,0.0,0.0,0.0,0.0,0.0,0.0009893771784612393,-0.014879089220869423,9.80879436452457,0.0,0.0,0.0,0.0,0.0,0.0,0.0,0.0,0.0
2025/05/06 15:48:37.542064757,1746539317,508866204,mA1/imu,0.04727484643831376,0.9988815562087434,0.0007820720845125452,0.0003375255360641466,0.0,0.0,0.0,0.0,0.0,0.0,0.0,0.0,0.0,-7.03137326306642e-05,0.0009034807036369014,-0.00042111060479384476,0.0,0.0,0.0,0.0,0.0,0.0,0.0,0.0,0.0,-0.0006376542953143629,-0.014987525860553644,9.808481773378748,0.0,0.0,0.0,0.0,0.0,0.0,0.0,0.0,0.0
2025/05/06 15:48:37.616562965,1746539317,565191227,mA1/imu,0.047262280674581374,0.9988821559377724,0.0007854137035016753,0.00031384687200914323,0.0,0.0,0.0,0.0,0.0,0.0,0.0,0.0,0.0,-9.714874966171276e-05,0.0009895236868932547,-0.0005347733498605313,0.0,0.0,0.0,0.0,0.0,0.0,0.0,0.0,0.0,-0.002054811270568613,-0.015286761899839345,9.81108970340499,0.0,0.0,0.0,0.0,0.0,0.0,0.0,0.0,0.0
2025/05/06 15:48:37.680779823,1746539317,608428393,mA1/imu,0.04724905507351479,0.9988827864420909,0.0007889739387252129,0.00028855583175858634,0.0,0.0,0.0,0.0,0.0,0.0,0.0,0.0,0.0,-9.278774932891377e-05,0.0010267116719812903,-0.000524925753052699,0.0,0.0,0.0,0.0,0.0,0.0,0.0,0.0,0.0,-0.0017183050221218849,-0.01546457809031409,9.81078030078481,0.0,0.0,0.0,0.0,0.0,0.0,0.0,0.0,0.0
2025/05/06 15:48:37.738445759,1746539317,669048133,mA1/imu,0.04723606563840713,0.9988834050763079,0.0007922981526089201,0.0002634953549528863,0.0,0.0,0.0,0.0,0.0,0.0,0.0,0.0,0.0,-8.086818303715551e-05,0.0009864016873330275,-0.0005156973470383125,0.0,0.0,0.0,0.0,0.0,0.0,0.0,0.0,0.0,-0.0009480997903855374,-0.01497856880484396,9.809004091558075,0.0,0.0,0.0,0.0,0.0,0.0,0.0,0.0,0.0
2025/05/06 15:48:37.758777789,1746539317,709990658,mA1/imu,0.04722329781494102,0.9988840122957926,0.0007951929465294599,0.00024039866477515467,0.0,0.0,0.0,0.0,0.0,0.0,0.0,0.0,0.0,-6.504957906107716e-05,0.0008805880555000657,-0.0005071519398220155,0.0,0.0,0.0,0.0,0.0,0.0,0.0,0.0,0.0,-0.0004352527279463739,-0.014996894331287869,9.808720951036989,0.0,0.0,0.0,0.0,0.0,0.0,0.0,0.0,0.0
2025/05/06 15:48:37.833263036,1746539317,758566517,mA1/imu,0.04721073543934878,0.9988846087665446,0.0007974957759032385,0.00022097300859335347,0.0,0.0,0.0,0.0,0.0,0.0,0.0,0.0,0.0,-4.7975192464427365e-05,0.000707603565362685,-0.0004993278900323617,0.0,0.0,0.0,0.0,0.0,0.0,0.0,0.0,0.0,6.034025801423875e-05,-0.015597240560188628,9.811369253736364,0.0,0.0,0.0,0.0,0.0,0.0,0.0,0.0,0.0
2025/05/06 15:48:37.864296863,1746539317,804238143,mA1/imu,0.047198367696302264,0.998885195055566,0.0007990831948952636,0.00020652277360659767,0.0,0.0,0.0,0.0,0.0,0.0,0.0,0.0,0.0,-2.8961897561446102e-05,0.0004908671118055269,-0.0004918438994007251,0.0,0.0,0.0,0.0,0.0,0.0,0.0,0.0,0.0,0.00022132885028460295,-0.01560157423056917,9.811067123148037,0.0,0.0,0.0,0.0,0.0,0.0,0.0,0.0,0.0
2025/05/06 15:48:37.892641102,1746539317,858978430,mA1/imu,0.0471861873556573,0.9988857716111101,0.0007998657500270753,0.00019801640283577458,0.0,0.0,0.0,0.0,0.0,0.0,0.0,0.0,0.0,-6.856267623606624e-06,0.00023895636512726945,-0.00048459792949835,0.0,0.0,0.0,0.0,0.0,0.0,0.0,0.0,0.0,0.000568677115617726,-0.015051437832445802,9.80926137808609,0.0,0.0,0.0,0.0,0.0,0.0,0.0,0.0,0.0
2025/05/06 15:48:37.977875916,1746539317,910461733,mA1/imu,0.04717418867911016,0.9988863387755347,0.0007998115005359189,0.00019603989124544527,0.0,0.0,0.0,0.0,0.0,0.0,0.0,0.0,0.0,1.4993523536497639e-05,-2.826587362132355e-05,-0.0004776380598177792,0.0,0.0,0.0,0.0,0.0,0.0,0.0,0.0,0.0,0.0006535525310011159,-0.01506521898179392,9.808941542297443,0.0,0.0,0.0,0.0,0.0,0.0,0.0,0.0,0.0
2025/05/06 15:48:38.6413637,1746539317,955566827,mA1/imu,0.0471623647852157,0.9988868968807473,0.0007989401418929876,0.0002007049262582628,0.0,0.0,0.0,0.0,0.0,0.0,0.0,0.0,0.0,3.3773753188177636e-05,-0.0002920936344852842,-0.0004710110346528538,0.0,0.0,0.0,0.0,0.0,0.0,0.0,0.0,0.0,0.0006113982228562426,-0.01564396602139593,9.811534118844124,0.0,0.0,0.0,0.0,0.0,0.0,0.0,0.0,0.0
2025/05/06 15:48:38.47754316,1746539318,7020760,mA1/imu,0.047150709486743714,0.9988874461544035,0.0007973005045142793,0.0002117119172483165,0.0,0.0,0.0,0.0,0.0,0.0,0.0,0.0,0.0,5.0830819410979464e-05,-0.0005401525035686773,-0.00046452528235029844,0.0,0.0,0.0,0.0,0.0,0.0,0.0,0.0,0.0,0.0007485837632891464,-0.01566277854141621,9.811184594416666,0.0,0.0,0.0,0.0,0.0,0.0,0.0,0.0,0.0
2025/05/06 15:48:38.78759618,1746539318,67233537,mA1/imu,0.047139219256028556,0.9988879866237584,0.0007949706160391215,0.00022849154424080178,0.0,0.0,0.0,0.0,0.0,0.0,0.0,0.0,0.0,6.72427093180827e-05,-0.0007589172544941975,-0.00045812457413586013,0.0,0.0,0.0,0.0,0.0,0.0,0.0,0.0,0.0,0.0006359700714368378,-0.015102897411976887,9.809299571234082,0.0,0.0,0.0,0.0,0.0,0.0,0.0,0.0,0.0
2025/05/06 15:48:38.112663033,1746539318,110676194,mA1/imu,0.047127889256125266,0.9988885183623555,0.0007920719021765121,0.00025012041530587015,0.0,0.0,0.0,0.0,0.0,0.0,0.0,0.0,0.0,8.042856609038264e-05,-0.0009365706377925896,-0.0004519343876907892,0.0,0.0,0.0,0.0,0.0,0.0,0.0,0.0,0.0,0.0006656234470796291,-0.015112795269493405,9.808928741261312,0.0,0.0,0.0,0.0,0.0,0.0,0.0,0.0,0.0
2025/05/06 15:48:38.177222856,1746539318,165270828,mA1/imu,0.047116713080749564,0.9988890415792081,0.0007887635648431374,0.00027534247099497136,0.0,0.0,0.0,0.0,0.0,0.0,0.0,0.0,0.0,8.753804675645613e-05,-0.001057101695281049,-0.00044602832177105116,0.0,0.0,0.0,0.0,0.0,0.0,0.0,0.0,0.0,0.00035394164132485865,-0.015688262092814924,9.811447878961562,0.0,0.0,0.0,0.0,0.0,0.0,0.0,0.0,0.0
2025/05/06 15:48:38.233924577,1746539318,204557705,mA1/imu,0.0471056839954469,0.9988895566312299,0.0007852071670224582,0.0003027178402977701,0.0,0.0,0.0,0.0,0.0,0.0,0.0,0.0,0.0,9.095022875372465e-05,-0.0011208004386274067,-0.00044027908127514,0.0,0.0,0.0,0.0,0.0,0.0,0.0,0.0,0.0,0.0003885056463184145,-0.015678522110377315,9.811053727808138,0.0,0.0,0.0,0.0,0.0,0.0,0.0,0.0,0.0
2025/05/06 15:48:38.277711586,1746539318,262326041,mA1/imu,0.04709477926144987,0.9988900647515884,0.0007815736864591135,0.00033083146066958865,0.0,0.0,0.0,0.0,0.0,0.0,0.0,0.0,0.0,9.135922957447605e-05,-0.0011287817743947381,-0.00043604149463649633,0.0,0.0,0.0,0.0,0.0,0.0,0.0,0.0,0.0,0.0004534165512293537,-0.015264673231432655,9.809097005038483,0.0,0.0,0.0,0.0,0.0,0.0,0.0,0.0,0.0
2025/05/06 15:48:38.318048056,1746539318,312625542,mA1/imu,0.04708396948938734,0.9988905676119728,0.0007780493961873515,0.0003583184207460018,0.0,0.0,0.0,0.0,0.0,0.0,0.0,0.0,0.0,8.778803525564791e-05,-0.0010808573244136313,-0.00043202901897938334,0.0,0.0,0.0,0.0,0.0,0.0,0.0,0.0,0.0,0.0005907975154316597,-0.015085565883636628,9.808691466576587,0.0,0.0,0.0,0.0,0.0,0.0,0.0,0.0,0.0
2025/05/06 15:48:38.361644279,1746539318,356529185,mA1/imu,0.047079133066703055,0.9988907920804101,0.0007747494792776561,0.0003748198273118271,0.0,0.0,0.0,0.0,0.0,0.0,0.0,0.0,0.0,9.753730480882918e-05,-0.00048647608209761946,-8.785955305516373e-05,0.0,0.0,0.0,0.0,0.0,0.0,0.0,0.0,0.0,0.0017713325435150034,-0.01473261015732727,9.811167317309993,0.0,0.0,0.0,0.0,0.0,0.0,0.0,0.0,0.0
2025/05/06 15:48:38.414585081,1746539318,410898199,mA1/imu,0.04707731250325818,0.9988908761093327,0.0007718002991238744,0.0003854832016253062,0.0,0.0,0.0,0.0,0.0,0.0,0.0,0.0,0.0,9.656946751080423e-05,-0.0003917677981717697,-6.361783477178109e-05,0.0,0.0,0.0,0.0,0.0,0.0,0.0,0.0,0.0,0.0018286719595246286,-0.014825874871061549,9.81075107204227,0.0,0.0,0.0,0.0,0.0,0.0,0.0,0.0,0.0
2025/05/06 15:48:38.468356915,1746539318,460291331,mA1/imu,0.047076088101616675,0.9988909328476283,0.0007690244871587945,0.0003934528967439257,0.0,0.0,0.0,0.0,0.0,0.0,0.0,0.0,0.0,9.41607722799977e-05,-0.0002759537607827121,-3.9842482773697866e-05,0.0,0.0,0.0,0.0,0.0,0.0,0.0,0.0,0.0,0.0018560126642534567,-0.014310175175365402,9.808842036139223,0.0,0.0,0.0,0.0,0.0,0.0,0.0,0.0,0.0
2025/05/06 15:48:38.512721061,1746539318,508594955,mA1/imu,0.047075448730047494,0.9988909630360512,0.0007664383827133305,0.00039832647450174395,0.0,0.0,0.0,0.0,0.0,0.0,0.0,0.0,0.0,9.347197330195092e-05,-0.00014712946876662577,-1.6482556436195114e-05,0.0,0.0,0.0,0.0,0.0,0.0,0.0,0.0,0.0,0.0019154684108507163,-0.013967633386376433,9.808475011245703,0.0,0.0,0.0,0.0,0.0,0.0,0.0,0.0,0.0
2025/05/06 15:48:38.586081459,1746539318,560605193,mA1/imu,0.04707538043035758,0.9988909672851504,0.0007642699678600161,0.00039990610138912545,0.0,0.0,0.0,0.0,0.0,0.0,0.0,0.0,0.0,7.773073864234418e-05,-1.41381427596928e-05,6.192284730805687e-06,0.0,0.0,0.0,0.0,0.0,0.0,0.0,0.0,0.0,0.002104904422975268,-0.014845005904391298,9.811001158043334,0.0,0.0,0.0,0.0,0.0,0.0,0.0,0.0,0.0
2025/05/06 15:48:38.671730198,1746539318,610937063,mA1/imu,0.047075868390690154,0.9988909461921546,0.000762647694513555,0.00039824502338649584,0.0,0.0,0.0,0.0,0.0,0.0,0.0,0.0,0.0,6.018204980071784e-05,0.00011356991651492969,2.8421584213070554e-05,0.0,0.0,0.0,0.0,0.0,0.0,0.0,0.0,0.0,0.0022459290082013266,-0.014941019764739275,9.810648761120838,0.0,0.0,0.0,0.0,0.0,0.0,0.0,0.0,0.0
2025/05/06 15:48:38.776294341,1746539318,666139491,mA1/imu,0.04707690260506173,0.9988909000793703,0.0007616054909027224,0.0003936201408664528,0.0,0.0,0.0,0.0,0.0,0.0,0.0,0.0,0.0,4.2717257957392586e-05,0.0002265446088636572,5.0218997202470825e-05,0.0,0.0,0.0,0.0,0.0,0.0,0.0,0.0,0.0,0.002505849133180439,-0.014408013369348834,9.808839251536085,0.0,0.0,0.0,0.0,0.0,0.0,0.0,0.0,0.0
2025/05/06 15:48:38.787788013,1746539318,708243138,mA1/imu,0.04707847247555932,0.9988908291844033,0.0007611699694366431,0.00038655004950893,0.0,0.0,0.0,0.0,0.0,0.0,0.0,0.0,0.0,2.3540417004393596e-05,0.0003068885587970529,7.148962865335202e-05,0.0,0.0,0.0,0.0,0.0,0.0,0.0,0.0,0.0,0.00445487925630242,-0.01443025840783066,9.808516854986596,0.0,0.0,0.0,0.0,0.0,0.0,0.0,0.0,0.0
2025/05/06 15:48:38.816614578,1746539318,754770910,mA1/imu,0.047079219516338686,0.9988907963313931,0.0007611326478668218,0.00038048818648209155,0.0,0.0,0.0,0.0,0.0,0.0,0.0,0.0,0.0,2.34090755922614e-06,0.00020312515732989677,9.09502436212375e-06,0.0,0.0,0.0,0.0,0.0,0.0,0.0,0.0,0.0,0.0055926734253635806,-0.0159956060172051,9.811100017209089,0.0,0.0,0.0,0.0,0.0,0.0,0.0,0.0,0.0
2025/05/06 15:48:38.842510502,1746539318,823259233,mA1/imu,0.04707934312336244,0.9988907922244362,0.0007611449550726813,0.00037592375310028825,0.0,0.0,0.0,0.0,0.0,0.0,0.0,0.0,0.0,-1.1675671679867632e-05,0.00015863899724379677,2.362964551482166e-06,0.0,0.0,0.0,0.0,0.0,0.0,0.0,0.0,0.0,0.007450171905412388,-0.014780719577044753,9.81078676664629,0.0,0.0,0.0,0.0,0.0,0.0,0.0,0.0,0.0
2025/05/06 15:48:38.858558657,1746539318,857517972,mA1/imu,0.04708141133706437,0.9988906949920825,0.0007616234471572263,0.0003742919571591289,0.0,0.0,0.0,0.0,0.0,0.0,0.0,0.0,0.0,-2.1830889031419696e-05,-1.1487123146404399e-05,0.00011516538274580952,0.0,0.0,0.0,0.0,0.0,0.0,0.0,0.0,0.0,0.009848499630990517,-0.015190663913015285,9.809122415365227,0.0,0.0,0.0,0.0,0.0,0.0,0.0,0.0,0.0
2025/05/06 15:48:38.941788270,1746539318,907296191,mA1/imu,0.047084153736451334,0.9988905641648451,0.000762097329191707,0.00037748777544403654,0.0,0.0,0.0,0.0,0.0,0.0,0.0,0.0,0.0,-4.218324545180099e-05,-0.00020221311448914632,0.0001061256321621801,0.0,0.0,0.0,0.0,0.0,0.0,0.0,0.0,0.0,0.009740824564534591,-0.014502214932654115,9.808798955643447,0.0,0.0,0.0,0.0,0.0,0.0,0.0,0.0,0.0
2025/05/06 15:48:38.972276314,1746539318,956714739,mA1/imu,0.04708746293419507,0.998890404561357,0.000763389004011495,0.0003843785864506674,0.0,0.0,0.0,0.0,0.0,0.0,0.0,0.0,0.0,-7.309360965491451e-05,-0.0002901169775886687,0.00017537175152838308,0.0,0.0,0.0,0.0,0.0,0.0,0.0,0.0,0.0,0.0054544317779932116,-0.013500380493956427,9.811867806164582,0.0,0.0,0.0,0.0,0.0,0.0,0.0,0.0,0.0
2025/05/06 15:48:39.67004624,1746539319,9523309,mA1/imu,0.04709234498609404,0.9988901691721305,0.0007650398585036657,0.0003945744517754117,0.0,0.0,0.0,0.0,0.0,0.0,0.0,0.0,0.0,-9.796365017508689e-05,-0.000499278965228545,0.00019108337414229572,0.0,0.0,0.0,0.0,0.0,0.0,0.0,0.0,0.0,0.010971137946900359,-0.01632784852859214,9.811050348434833,0.0,0.0,0.0,0.0,0.0,0.0,0.0,0.0,0.0
2025/05/06 15:48:39.182782655,1746539319,64894841,mA1/imu,0.047095121354855767,0.9988900293586841,0.0007673988034619769,0.00041217891137726665,0.0,0.0,0.0,0.0,0.0,0.0,0.0,0.0,0.0,-0.0001395036683040446,-0.0007847378895090431,7.472659102065225e-05,0.0,0.0,0.0,0.0,0.0,0.0,0.0,0.0,0.0,0.008065678424124577,-0.015527348325156875,9.809325178730987,0.0,0.0,0.0,0.0,0.0,0.0,0.0,0.0,0.0
2025/05/06 15:48:39.202467046,1746539319,105249236,mA1/imu,0.04709685846970256,0.9988899366573062,0.0007702494045173136,0.0004325308107535215,0.0,0.0,0.0,0.0,0.0,0.0,0.0,0.0,0.0,-0.00015906207797153647,-0.0008165800049615171,6.522047077545421e-05,0.0,0.0,0.0,0.0,0.0,0.0,0.0,0.0,0.0,0.007967641847134652,-0.01562913904600703,9.808991892719341,0.0,0.0,0.0,0.0,0.0,0.0,0.0,0.0,0.0
2025/05/06 15:48:39.225024562,1746539319,158978537,mA1/imu,0.047098362117147165,0.998889854232187,0.0007734780605656423,0.00045291232303390245,0.0,0.0,0.0,0.0,0.0,0.0,0.0,0.0,0.0,-0.00017134499632696817,-0.0007961321297292389,5.599053731436074e-05,0.0,0.0,0.0,0.0,0.0,0.0,0.0,0.0,0.0,0.007642327256649425,-0.01617616096743142,9.811484338421923,0.0,0.0,0.0,0.0,0.0,0.0,0.0,0.0,0.0
2025/05/06 15:48:39.253589913,1746539319,211775198,mA1/imu,0.047099637668729426,0.9988897825255435,0.0007769341191618541,0.0004720920689271127,0.0,0.0,0.0,0.0,0.0,0.0,0.0,0.0,0.0,-0.00017546691872080762,-0.0007294529984569829,4.699143255639598e-05,0.0,0.0,0.0,0.0,0.0,0.0,0.0,0.0,0.0,0.007572541543922507,-0.016180815363225454,9.811134959430863,0.0,0.0,0.0,0.0,0.0,0.0,0.0,0.0,0.0
2025/05/06 15:48:39.288385797,1746539319,258142048,mA1/imu,0.047101637131027725,0.9988896776971299,0.0007802350498806244,0.0004886747055411227,0.0,0.0,0.0,0.0,0.0,0.0,0.0,0.0,0.0,-0.00015327146649000425,-0.0005883832548313583,0.000119123884125156,0.0,0.0,0.0,0.0,0.0,0.0,0.0,0.0,0.0,0.008022887446141273,-0.015192533307609536,9.809144551009442,0.0,0.0,0.0,0.0,0.0,0.0,0.0,0.0,0.0
2025/05/06 15:48:39.384215899,1746539319,315111194,mA1/imu,0.047105179455609075,0.9988895014061027,0.0007832808869604918,0.0005025138552928258,0.0,0.0,0.0,0.0,0.0,0.0,0.0,0.0,0.0,-0.00014353502762179407,-0.0005197745228381089,0.00015044657265729256,0.0,0.0,0.0,0.0,0.0,0.0,0.0,0.0,0.0,0.008974113266624843,-0.016552150002292716,9.808918838595241,0.0,0.0,0.0,0.0,0.0,0.0,0.0,0.0,0.0
2025/05/06 15:48:39.451807225,1746539319,361671799,mA1/imu,0.04710709463540025,0.9988894015569246,0.0007862071130378184,0.000516692012581168,0.0,0.0,0.0,0.0,0.0,0.0,0.0,0.0,0.0,-0.0001437207945115713,-0.0005463657433543405,4.177157464188798e-05,0.0,0.0,0.0,0.0,0.0,0.0,0.0,0.0,0.0,0.007344438713547298,-0.015971958720597576,9.811335340365206,0.0,0.0,0.0,0.0,0.0,0.0,0.0,0.0,0.0
2025/05/06 15:48:39.549406910,1746539319,405222109,mA1/imu,0.04710801451066907,0.9988893503457275,0.00078894523312005,0.0005275416308309356,0.0,0.0,0.0,0.0,0.0,0.0,0.0,0.0,0.0,-0.00012008957167834217,-0.000346258325660409,3.312389778960537e-05,0.0,0.0,0.0,0.0,0.0,0.0,0.0,0.0,0.0,0.007335052471541852,-0.016047608463624623,9.810930275557515,0.0,0.0,0.0,0.0,0.0,0.0,0.0,0.0,0.0
2025/05/06 15:48:39.627501921,1746539319,458892488,mA1/imu,0.04710862238798385,0.9988893172803455,0.0007913282491925891,0.000532277665758192,0.0,0.0,0.0,0.0,0.0,0.0,0.0,0.0,0.0,-9.527116575767429e-05,-5.44084874239671e-05,1.5671019056509933e-05,0.0,0.0,0.0,0.0,0.0,0.0,0.0,0.0,0.0,0.005712667436605593,-0.015771391961230258,9.808874207683454,0.0,0.0,0.0,0.0,0.0,0.0,0.0,0.0,0.0
2025/05/06 15:48:39.668606249,1746539319,517247533,mA1/imu,0.047108908250574316,0.998889303323219,0.0007932819241049582,0.0005302581281390494,0.0,0.0,0.0,0.0,0.0,0.0,0.0,0.0,0.0,-5.865613744063414e-05,0.00016659742275168787,9.660083283564495e-06,0.0,0.0,0.0,0.0,0.0,0.0,0.0,0.0,0.0,0.007777955341540724,-0.015241138910035357,9.808635708622708,0.0,0.0,0.0,0.0,0.0,0.0,0.0,0.0,0.0
2025/05/06 15:48:39.731452544,1746539319,565448998,mA1/imu,0.047109073032868744,0.9988892983117257,0.0007944946759558354,0.0005231964275245397,0.0,0.0,0.0,0.0,0.0,0.0,0.0,0.0,0.0,-1.8846654969889165e-05,0.0003605075951270091,4.970753098186596e-06,0.0,0.0,0.0,0.0,0.0,0.0,0.0,0.0,0.0,0.007916957788438822,-0.015805102408462324,9.811030166729976,0.0,0.0,0.0,0.0,0.0,0.0,0.0,0.0,0.0
2025/05/06 15:48:39.763686367,1746539319,608191881,mA1/imu,0.04710911617934668,0.9988893019636854,0.0007948499966901277,0.0005116725367404392,0.0,0.0,0.0,0.0,0.0,0.0,0.0,0.0,0.0,2.7879873493886273e-05,0.0005169090110606866,3.6425041488893415e-08,0.0,0.0,0.0,0.0,0.0,0.0,0.0,0.0,0.0,0.009062385896789779,-0.01394211446716933,9.810643921239897,0.0,0.0,0.0,0.0,0.0,0.0,0.0,0.0,0.0
2025/05/06 15:48:39.802139422,1746539319,663769378,mA1/imu,0.0471098013623475,0.9988892780988821,0.0007940439776682567,0.0004961943733139284,0.0,0.0,0.0,0.0,0.0,0.0,0.0,0.0,0.0,8.751124043571406e-05,0.0006621340840319554,3.28596538155466e-05,0.0,0.0,0.0,0.0,0.0,0.0,0.0,0.0,0.0,0.00942300402695289,-0.012474251948712494,9.8088098317642,0.0,0.0,0.0,0.0,0.0,0.0,0.0,0.0,0.0
2025/05/06 15:48:39.838776853,1746539319,714417621,mA1/imu,0.04711051965180884,0.9988892546820756,0.000791694493955305,0.0004785798282355757,0.0,0.0,0.0,0.0,0.0,0.0,0.0,0.0,0.0,0.00015461368877483668,0.0007227463678817408,2.663448854210423e-05,0.0,0.0,0.0,0.0,0.0,0.0,0.0,0.0,0.0,0.008579754121204791,-0.011378422010148038,9.808451091070209,0.0,0.0,0.0,0.0,0.0,0.0,0.0,0.0,0.0
2025/05/06 15:48:39.928527306,1746539319,762095753,mA1/imu,0.047111059596041505,0.9988892412966943,0.0007876848760135555,0.00045960634076362797,0.0,0.0,0.0,0.0,0.0,0.0,0.0,0.0,0.0,0.0002227002864087304,0.0007629301252532376,1.9124464906973726e-05,0.0,0.0,0.0,0.0,0.0,0.0,0.0,0.0,0.0,0.008888919040266523,-0.012206656581473792,9.810947792554332,0.0,0.0,0.0,0.0,0.0,0.0,0.0,0.0,0.0
2025/05/06 15:48:40.22815609,1746539319,805950029,mA1/imu,0.04711141336520351,0.9988892377106527,0.0007821287748595833,0.0004402171548362507,0.0,0.0,0.0,0.0,0.0,0.0,0.0,0.0,0.0,0.00028037550785626423,0.000758920333872671,1.167859314203522e-05,0.0,0.0,0.0,0.0,0.0,0.0,0.0,0.0,0.0,0.008971907985876215,-0.012341209683391367,9.810611529829158,0.0,0.0,0.0,0.0,0.0,0.0,0.0,0.0,0.0
2025/05/06 15:48:40.54919045,1746539319,859629805,mA1/imu,0.04711158349374937,0.9988892430658287,0.0007752820982023713,0.0004215753260795798,0.0,0.0,0.0,0.0,0.0,0.0,0.0,0.0,0.0,0.0003251423299541338,0.0007081796890463342,4.308867498881901e-06,0.0,0.0,0.0,0.0,0.0,0.0,0.0,0.0,0.0,0.0092370418621122,-0.011999717537405889,9.808876588095233,0.0,0.0,0.0,0.0,0.0,0.0,0.0,0.0,0.0
2025/05/06 15:48:40.102838409,1746539319,906355490,mA1/imu,0.04711157256297875,0.9988892565742931,0.000767465552202791,0.0004047563776023314,0.0,0.0,0.0,0.0,0.0,0.0,0.0,0.0,0.0,0.0003549789188021239,0.0006181638895828742,-2.981750493516696e-06,0.0,0.0,0.0,0.0,0.0,0.0,0.0,0.0,0.0,0.009279408528946827,-0.012073178817283125,9.808574583739754,0.0,0.0,0.0,0.0,0.0,0.0,0.0,0.0,0.0
2025/05/06 15:48:40.178143717,1746539319,957363546,mA1/imu,0.04711199227558745,0.9988892494036867,0.0007589882416536956,0.0003892896264963557,0.0,0.0,0.0,0.0,0.0,0.0,0.0,0.0,0.0,0.00037483245028465035,0.0006026650413919536,4.30598748820423e-05,0.0,0.0,0.0,0.0,0.0,0.0,0.0,0.0,0.0,0.00607174026582899,-0.010995927328661144,9.811221274703076,0.0,0.0,0.0,0.0,0.0,0.0,0.0,0.0,0.0
2025/05/06 15:48:40.219623458,1746539320,10749181,mA1/imu,0.04711351989584836,0.9988891896614528,0.0007500528276662786,0.0003747549403763403,0.0,0.0,0.0,0.0,0.0,0.0,0.0,0.0,0.0,0.0003875688380228006,0.0005281863693848599,7.076508935241601e-05,0.0,0.0,0.0,0.0,0.0,0.0,0.0,0.0,0.0,0.007185359316942095,-0.01087110454570395,9.810879021679579,0.0,0.0,0.0,0.0,0.0,0.0,0.0,0.0,0.0
2025/05/06 15:48:40.367478097,1746539320,63841094,mA1/imu,0.04711562542599283,0.9988891015695041,0.0007409345201902007,0.0003627980474959348,0.0,0.0,0.0,0.0,0.0,0.0,0.0,0.0,0.0,0.00038318824511698505,0.0004114520145456265,9.361572579436854e-05,0.0,0.0,0.0,0.0,0.0,0.0,0.0,0.0,0.0,0.00739629389145032,-0.01055808394911893,9.80919218265958,0.0,0.0,0.0,0.0,0.0,0.0,0.0,0.0,0.0
2025/05/06 15:48:40.406210863,1746539320,114277220,mA1/imu,0.04711827798457507,0.9988889876612231,0.0007301276101500672,0.0003537266996041052,0.0,0.0,0.0,0.0,0.0,0.0,0.0,0.0,0.0,0.0004200012401604677,0.0003031228361514444,0.0001140476084751333,0.0,0.0,0.0,0.0,0.0,0.0,0.0,0.0,0.0,0.005950308970532643,-0.005725794915143077,9.808740244966307,0.0,0.0,0.0,0.0,0.0,0.0,0.0,0.0,0.0
2025/05/06 15:48:40.412263297,1746539320,157187957,mA1/imu,0.04712045663753621,0.998888893839187,0.0007210310796525122,0.0003470521250876927,0.0,0.0,0.0,0.0,0.0,0.0,0.0,0.0,0.0,0.00034579355907035956,0.00021867548529146716,4.89741547888056e-05,0.0,0.0,0.0,0.0,0.0,0.0,0.0,0.0,0.0,0.005039782795821136,-0.009151850763772874,9.811829132192921,0.0,0.0,0.0,0.0,0.0,0.0,0.0,0.0,0.0
2025/05/06 15:48:40.471878971,1746539320,209164184,mA1/imu,0.04712133552896642,0.9988888584992623,0.0007147422962698322,0.0003424141600457349,0.0,0.0,0.0,0.0,0.0,0.0,0.0,0.0,0.0,-0.0007194606880875783,0.0001510106451802293,3.185034355636635e-05,0.0,0.0,0.0,0.0,0.0,0.0,0.0,0.0,0.0,0.004752337686119203,0.5510891583945791,9.811475006932756,0.0,0.0,0.0,0.0,0.0,0.0,0.0,0.0,0.0
2025/05/06 15:48:40.549034460,1746539320,257735346,mA1/imu,0.047122008967170885,0.9988888329626208,0.0007072988730827134,0.00033967893027293946,0.0,0.0,0.0,0.0,0.0,0.0,0.0,0.0,0.0,0.0004430334671061731,6.3818012710332e-05,2.3580451729045115e-05,0.0,0.0,0.0,0.0,0.0,0.0,0.0,0.0,0.0,0.005191977859139035,-0.5000835474887754,9.809894673989783,0.0,0.0,0.0,0.0,0.0,0.0,0.0,0.0,0.0
2025/05/06 15:48:42.24880134,1746539320,859952204,mA1/imu,0.04709870632798482,0.9988898970860556,0.0007373831720970159,0.00037633455430214415,0.0,0.0,0.0,0.0,0.0,0.0,0.0,0.0,0.0,-0.0008749868921742679,0.00041651975315681167,7.53586478868226e-06,0.0,0.0,0.0,0.0,0.0,0.0,0.0,0.0,0.0,0.005625094923886009,0.5791012652711515,9.811025274329625,0.0,0.0,0.0,0.0,0.0,0.0,0.0,0.0,0.0
2025/05/06 15:48:42.24946170,1746539320,911918324,mA1/imu,0.04709874912054698,0.998889896285221,0.0007405701588588871,0.0003667239021846717,0.0,0.0,0.0,0.0,0.0,0.0,0.0,0.0,0.0,0.001459988138081439,0.000360679683371719,-1.5621649901630889e-06,0.0,0.0,0.0,0.0,0.0,0.0,0.0,0.0,0.0,0.005589962138324088,-0.5232538960293527,9.80860645295947,0.0,0.0,0.0,0.0,0.0,0.0,0.0,0.0,0.0
2025/05/06 15:48:42.24984283,1746539320,963100528,mA1/imu,0.04709856071076899,0.9988899074277974,0.0007416705700339368,0.0003582493906440098,0.0,0.0,0.0,0.0,0.0,0.0,0.0,0.0,0.0,0.0008899188469645508,0.0003109614547188011,-1.0887402571406133e-05,0.0,0.0,0.0,0.0,0.0,0.0,0.0,0.0,0.0,0.005352872660043787,0.06468679049667926,9.80920340242615,0.0,0.0,0.0,0.0,0.0,0.0,0.0,0.0,0.0
2025/05/06 15:48:42.25020777,1746539321,8144225,mA1/imu,0.04709813907116828,0.9988899189024426,0.0007556637621900764,0.0003523966272794115,0.0,0.0,0.0,0.0,0.0,0.0,0.0,0.0,0.0,-0.00038584664438346577,0.0002147663481319233,-2.012329785780175e-05,0.0,0.0,0.0,0.0,0.0,0.0,0.0,0.0,0.0,0.006182817201260375,-0.029035066597577885,9.807939788815709,0.0,0.0,0.0,0.0,0.0,0.0,0.0,0.0,0.0
2025/05/06 15:48:42.25056992,1746539321,63552246,mA1/imu,0.047097503052470395,0.9988899518378918,0.0007536112063017957,0.00034841593927810145,0.0,0.0,0.0,0.0,0.0,0.0,0.0,0.0,0.0,-0.0004555577541938062,0.00011742338101933501,-2.889531010273763e-05,0.0,0.0,0.0,0.0,0.0,0.0,0.0,0.0,0.0,0.006279428424122341,-0.0386378042629334,9.809384202683912,0.0,0.0,0.0,0.0,0.0,0.0,0.0,0.0,0.0
2025/05/06 15:48:42.25093228,1746539321,106227229,mA1/imu,0.04709665646301318,0.9988900040003662,0.0007381169751202272,0.00034647003401092367,0.0,0.0,0.0,0.0,0.0,0.0,0.0,0.0,0.0,0.0003768688692295569,1.637719953422595e-05,-3.7561817858257296e-05,0.0,0.0,0.0,0.0,0.0,0.0,0.0,0.0,0.0,0.00606578112174812,0.6442546009231671,9.811469834335915,0.0,0.0,0.0,0.0,0.0,0.0,0.0,0.0,0.0
2025/05/06 15:48:42.47273628,1746539321,164542404,mA1/imu,0.04709558682083166,0.9988900405356356,0.0007556926433795941,0.00034863927862016235,0.0,0.0,0.0,0.0,0.0,0.0,0.0,0.0,0.0,-0.0003819308495636933,-0.00010806496295570784,-4.5984390567849884e-05,0.0,0.0,0.0,0.0,0.0,0.0,0.0,0.0,0.0,0.006251744215779264,-0.0396236042503464,9.809256197495888,0.0,0.0,0.0,0.0,0.0,0.0,0.0,0.0,0.0
2025/05/06 15:48:42.47327442,1746539321,205927688,mA1/imu,0.04709432233345324,0.9988901092206511,0.000742004889259882,0.0003520424020407092,0.0,0.0,0.0,0.0,0.0,0.0,0.0,0.0,0.0,-0.0007321557501534962,-0.00019091019302864821,-5.423852974013026e-05,0.0,0.0,0.0,0.0,0.0,0.0,0.0,0.0,0.0,0.0058472838815062855,-0.06483932770634768,9.810163688970395,0.0,0.0,0.0,0.0,0.0,0.0,0.0,0.0,0.0
2025/05/06 15:48:42.47365559,1746539321,260405436,mA1/imu,0.04709264385091962,0.9988901944792695,0.0007302907149169422,0.0003590874121065779,0.0,0.0,0.0,0.0,0.0,0.0,0.0,0.0,0.0,0.0025271687625440164,-0.00037278565263201477,-8.08931603405852e-05,0.0,0.0,0.0,0.0,0.0,0.0,0.0,0.0,0.0,0.007804996996749752,-0.4705111817835643,9.8098824118283,0.0,0.0,0.0,0.0,0.0,0.0,0.0,0.0,0.0
2025/05/06 15:48:42.47402438,1746539321,313778155,mA1/imu,0.04709005674315167,0.9988903055981537,0.0007391272961576503,0.0003709835494766054,0.0,0.0,0.0,0.0,0.0,0.0,0.0,0.0,0.0,-0.0004398734630545887,-0.0005264664040413038,-0.0001189183020857852,0.0,0.0,0.0,0.0,0.0,0.0,0.0,0.0,0.0,0.008719017710886914,-0.05098032527891197,9.810322807815247,0.0,0.0,0.0,0.0,0.0,0.0,0.0,0.0,0.0
2025/05/06 15:48:42.47438952,1746539321,361464008,mA1/imu,0.047086546173422256,0.9988904784269174,0.0007216836477316942,0.0003852923759481283,0.0,0.0,0.0,0.0,0.0,0.0,0.0,0.0,0.0,-0.000838415250882295,-0.0006404010348268868,-0.00015610459474778654,0.0,0.0,0.0,0.0,0.0,0.0,0.0,0.0,0.0,0.00845749167876433,0.5491384339974835,9.810736645555213,0.0,0.0,0.0,0.0,0.0,0.0,0.0,0.0,0.0
2025/05/06 15:48:42.47475094,1746539321,411918677,mA1/imu,0.047082113950799094,0.998890679482802,0.0007229117711366324,0.000402972556715382,0.0,0.0,0.0,0.0,0.0,0.0,0.0,0.0,0.0,0.0013703462371211603,-0.0007460606428880646,-0.00019244949227053098,0.0,0.0,0.0,0.0,0.0,0.0,0.0,0.0,0.0,0.007829609634148861,-0.5570130041557617,9.808745621729397,0.0,0.0,0.0,0.0,0.0,0.0,0.0,0.0,0.0
2025/05/06 15:48:42.47510925,1746539321,454959699,mA1/imu,0.04707678454970055,0.998890923037404,0.0007226533590270815,0.0004219029110574951,0.0,0.0,0.0,0.0,0.0,0.0,0.0,0.0,0.0,-0.0012881218194482646,-0.0007741122569166335,-0.00022803451690267128,0.0,0.0,0.0,0.0,0.0,0.0,0.0,0.0,0.0,0.008369893640158433,-0.11326313590726675,9.81108912508432,0.0,0.0,0.0,0.0,0.0,0.0,0.0,0.0,0.0
2025/05/06 15:48:42.120623354,1746539321,507125372,mA1/imu,0.04707059525580042,0.9988912250864755,0.0006968739957573576,0.0004403114107867712,0.0,0.0,0.0,0.0,0.0,0.0,0.0,0.0,0.0,-0.0002923579063110691,-0.0007627820865766087,-0.00026280834687311574,0.0,0.0,0.0,0.0,0.0,0.0,0.0,0.0,0.0,0.007708911544635993,0.5889736416921061,9.811124740981525,0.0,0.0,0.0,0.0,0.0,0.0,0.0,0.0,0.0
2025/05/06 15:48:42.158285515,1746539321,564193366,mA1/imu,0.047063533335454884,0.9988915465269603,0.0007007659556960069,0.0004593844089202355,0.0,0.0,0.0,0.0,0.0,0.0,0.0,0.0,0.0,0.0021763320151467,-0.0007423214010221156,-0.00029662293016655085,0.0,0.0,0.0,0.0,0.0,0.0,0.0,0.0,0.0,0.006849468061208695,-0.4951775891819731,9.808076620478902,0.0,0.0,0.0,0.0,0.0,0.0,0.0,0.0,0.0
2025/05/06 15:48:42.233031867,1746539321,604731437,mA1/imu,0.04705563293615321,0.9988919123288946,0.0006986485042979457,0.0004762175650352433,0.0,0.0,0.0,0.0,0.0,0.0,0.0,0.0,0.0,0.0006542383987872429,-0.0006519939836534949,-0.0003303640026155952,0.0,0.0,0.0,0.0,0.0,0.0,0.0,0.0,0.0,0.00826255490428932,-0.6004421745424683,9.810093321421943,0.0,0.0,0.0,0.0,0.0,0.0,0.0,0.0,0.0
