time,header_stamp_secs,header_stamp_nsecs,header_frame_id,child_frame_id,pose_pose_position_x,pose_pose_position_y,pose_pose_position_z,pose_pose_orientation_x,pose_pose_orientation_y,pose_pose_orientation_z,pose_pose_orientation_w,pose_covariance_0,pose_covariance_1,pose_covariance_2,pose_covariance_3,pose_covariance_4,pose_covariance_5,pose_covariance_6,pose_covariance_7,pose_covariance_8,pose_covariance_9,pose_covariance_10,pose_covariance_11,pose_covariance_12,pose_covariance_13,pose_covariance_14,pose_covariance_15,pose_covariance_16,pose_covariance_17,pose_covariance_18,pose_covariance_19,pose_covariance_20,pose_covariance_21,pose_covariance_22,pose_covariance_23,pose_covariance_24,pose_covariance_25,pose_covariance_26,pose_covariance_27,pose_covariance_28,pose_covariance_29,pose_covariance_30,pose_covariance_31,pose_covariance_32,pose_covariance_33,pose_covariance_34,pose_covariance_35,twist_twist_linear_x,twist_twist_linear_y,twist_twist_linear_z,twist_twist_angular_x,twist_twist_angular_y,twist_twist_angular_z,twist_covariance_0,twist_covariance_1,twist_covariance_2,twist_covariance_3,twist_covariance_4,twist_covariance_5,twist_covariance_6,twist_covariance_7,twist_covariance_8,twist_covariance_9,twist_covariance_10,twist_covariance_11,twist_covariance_12,twist_covariance_13,twist_covariance_14,twist_covariance_15,twist_covariance_16,twist_covariance_17,twist_covariance_18,twist_covariance_19,twist_covariance_20,twist_covariance_21,twist_covariance_22,twist_covariance_23,twist_covariance_24,twist_covariance_25,twist_covariance_26,twist_covariance_27,twist_covariance_28,twist_covariance_29,twist_covariance_30,twist_covariance_31,twist_covariance_32,twist_covariance_33,twist_covariance_34,twist_covariance_35
2025/05/06 15:48:33.417624976,1746539313,416432300,world_ned,mA1/odom,-5.27889390215698,-12.48482526687609,0.43368720904390046,-0.0002974564386823485,-0.0002708728461030489,0.6728736029838704,0.7397573605954003,0.0,0.0,0.0,0.0,0.0,0.0,0.0,0.0,0.0,0.0,0.0,0.0,0.0,0.0,0.0,0.0,0.0,0.0,0.0,0.0,0.0,0.0,0.0,0.0,0.0,0.0,0.0,0.0,0.0,0.0,0.0,0.0,0.0,0.0,0.0,0.0,4.3192725176813356e-05,0.0003878739736408651,2.276001077276121e-06,-3.6786569562976884e-05,1.2424605532523534e-05,0.0001630727812422778,0.0,0.0,0.0,0.0,0.0,0.0,0.0,0.0,0.0,0.0,0.0,0.0,0.0,0.0,0.0,0.0,0.0,0.0,0.0,0.0,0.0,0.0,0.0,0.0,0.0,0.0,0.0,0.0,0.0,0.0,0.0,0.0,0.0,0.0,0.0,0.0
2025/05/06 15:48:33.526607721,1746539313,524878028,world_ned,mA1/odom,-5.278931444383128,-12.484817446281781,0.4336876867022324,-0.00029890063722942304,-0.00027135368460262443,0.6728796440266865,0.7397518649385796,0.0,0.0,0.0,0.0,0.0,0.0,0.0,0.0,0.0,0.0,0.0,0.0,0.0,0.0,0.0,0.0,0.0,0.0,0.0,0.0,0.0,0.0,0.0,0.0,0.0,0.0,0.0,0.0,0.0,0.0,0.0,0.0,0.0,0.0,0.0,0.0,4.1017653156868066e-05,0.00037514179300596846,3.8070759811968017e-06,-1.962952961986085e-05,1.156827290723118e-05,0.00016355728847777145,0.0,0.0,0.0,0.0,0.0,0.0,0.0,0.0,0.0,0.0,0.0,0.0,0.0,0.0,0.0,0.0,0.0,0.0,0.0,0.0,0.0,0.0,0.0,0.0,0.0,0.0,0.0,0.0,0.0,0.0,0.0,0.0,0.0,0.0,0.0,0.0
2025/05/06 15:48:33.624506671,1746539313,623614254,world_ned,mA1/odom,-5.278978959377062,-12.48480626751607,0.4336880395893317,-0.0003026672643398258,-0.0002737428421020404,0.672886396514465,0.7397457203953003,0.0,0.0,0.0,0.0,0.0,0.0,0.0,0.0,0.0,0.0,0.0,0.0,0.0,0.0,0.0,0.0,0.0,0.0,0.0,0.0,0.0,0.0,0.0,0.0,0.0,0.0,0.0,0.0,0.0,0.0,0.0,0.0,0.0,0.0,0.0,0.0,9.84232961377257e-05,0.0005991104468637602,4.213796093072994e-06,-0.0001600123678087811,2.044331505071038e-05,0.0002062126331621881,0.0,0.0,0.0,0.0,0.0,0.0,0.0,0.0,0.0,0.0,0.0,0.0,0.0,0.0,0.0,0.0,0.0,0.0,0.0,0.0,0.0,0.0,0.0,0.0,0.0,0.0,0.0,0.0,0.0,0.0,0.0,0.0,0.0,0.0,0.0,0.0
2025/05/06 15:48:33.723286295,1746539313,721526467,world_ned,mA1/odom,-5.279022465555873,-12.484782752340722,0.43368700012236827,-0.0003065747818770021,-0.0002741621982798368,0.6728884771641054,0.7397438260281484,0.0,0.0,0.0,0.0,0.0,0.0,0.0,0.0,0.0,0.0,0.0,0.0,0.0,0.0,0.0,0.0,0.0,0.0,0.0,0.0,0.0,0.0,0.0,0.0,0.0,0.0,0.0,0.0,0.0,0.0,0.0,0.0,0.0,0.0,0.0,0.0,0.00025828010909218624,0.0006030850612886576,-1.2696688295433817e-05,-0.00016116283926781436,5.7385326361647546e-05,2.5271070735123853e-05,0.0,0.0,0.0,0.0,0.0,0.0,0.0,0.0,0.0,0.0,0.0,0.0,0.0,0.0,0.0,0.0,0.0,0.0,0.0,0.0,0.0,0.0,0.0,0.0,0.0,0.0,0.0,0.0,0.0,0.0,0.0,0.0,0.0,0.0,0.0,0.0
2025/05/06 15:48:33.824112673,1746539313,823273162,world_ned,mA1/odom,-5.279107052171137,-12.484744124238928,0.433685871940888,-0.0003211814375688037,-0.0002827461797710306,0.6728897081518697,0.7397426968618033,0.0,0.0,0.0,0.0,0.0,0.0,0.0,0.0,0.0,0.0,0.0,0.0,0.0,0.0,0.0,0.0,0.0,0.0,0.0,0.0,0.0,0.0,0.0,0.0,0.0,0.0,0.0,0.0,0.0,0.0,0.0,0.0,0.0,0.0,0.0,0.0,0.00033646855231095183,0.001097014628057567,-3.8038180761925054e-06,-0.00045557977650781205,6.795690039503042e-05,6.0775636089386174e-05,0.0,0.0,0.0,0.0,0.0,0.0,0.0,0.0,0.0,0.0,0.0,0.0,0.0,0.0,0.0,0.0,0.0,0.0,0.0,0.0,0.0,0.0,0.0,0.0,0.0,0.0,0.0,0.0,0.0,0.0,0.0,0.0,0.0,0.0,0.0,0.0
2025/05/06 15:48:33.916001608,1746539313,915581647,world_ned,mA1/odom,-5.279224170380696,-12.484695781734597,0.4336860790453287,-0.0003407152104508084,-0.00029650180828842,0.6728934794186984,0.7397392522744896,0.0,0.0,0.0,0.0,0.0,0.0,0.0,0.0,0.0,0.0,0.0,0.0,0.0,0.0,0.0,0.0,0.0,0.0,0.0,0.0,0.0,0.0,0.0,0.0,0.0,0.0,0.0,0.0,0.0,0.0,0.0,0.0,0.0,0.0,0.0,0.0,0.0004021151750446505,0.0012293084715794837,2.9068721577058594e-06,-0.00042987076927669796,6.159152984764952e-05,0.0001070786930870026,0.0,0.0,0.0,0.0,0.0,0.0,0.0,0.0,0.0,0.0,0.0,0.0,0.0,0.0,0.0,0.0,0.0,0.0,0.0,0.0,0.0,0.0,0.0,0.0,0.0,0.0,0.0,0.0,0.0,0.0,0.0,0.0,0.0,0.0,0.0,0.0
2025/05/06 15:48:34.18063070,1746539314,17538314,world_ned,mA1/odom,-5.279344169499437,-12.484632033105335,0.4336871534677136,-0.0003561541177138917,-0.00030690473134551067,0.672895609828856,0.7397373028560763,0.0,0.0,0.0,0.0,0.0,0.0,0.0,0.0,0.0,0.0,0.0,0.0,0.0,0.0,0.0,0.0,0.0,0.0,0.0,0.0,0.0,0.0,0.0,0.0,0.0,0.0,0.0,0.0,0.0,0.0,0.0,0.0,0.0,0.0,0.0,0.0,0.0005798211473511421,0.0013695396940131797,1.3856201504588852e-05,-0.00037231149234818306,4.70682044025108e-05,4.908915177674591e-05,0.0,0.0,0.0,0.0,0.0,0.0,0.0,0.0,0.0,0.0,0.0,0.0,0.0,0.0,0.0,0.0,0.0,0.0,0.0,0.0,0.0,0.0,0.0,0.0,0.0,0.0,0.0,0.0,0.0,0.0,0.0,0.0,0.0,0.0,0.0,0.0
2025/05/06 15:48:34.119459433,1746539314,118990100,world_ned,mA1/odom,-5.27948985792327,-12.484555150755115,0.43368858075598415,-0.0003708318295219693,-0.0003179249872105753,0.672897607738551,0.7397354736033632,0.0,0.0,0.0,0.0,0.0,0.0,0.0,0.0,0.0,0.0,0.0,0.0,0.0,0.0,0.0,0.0,0.0,0.0,0.0,0.0,0.0,0.0,0.0,0.0,0.0,0.0,0.0,0.0,0.0,0.0,0.0,0.0,0.0,0.0,0.0,0.0,0.0006645194312423887,0.001607014414992532,1.3064872734921163e-05,-0.0003230125641337139,2.289768828820709e-05,5.8167037323037185e-05,0.0,0.0,0.0,0.0,0.0,0.0,0.0,0.0,0.0,0.0,0.0,0.0,0.0,0.0,0.0,0.0,0.0,0.0,0.0,0.0,0.0,0.0,0.0,0.0,0.0,0.0,0.0,0.0,0.0,0.0,0.0,0.0,0.0,0.0,0.0,0.0
2025/05/06 15:48:34.222573817,1746539314,222280689,world_ned,mA1/odom,-5.279656819548104,-12.484492203393096,0.4336917240189651,-0.0003781509187303126,-0.0003274560413526172,0.6729071969791125,0.7397267428098957,0.0,0.0,0.0,0.0,0.0,0.0,0.0,0.0,0.0,0.0,0.0,0.0,0.0,0.0,0.0,0.0,0.0,0.0,0.0,0.0,0.0,0.0,0.0,0.0,0.0,0.0,0.0,0.0,0.0,0.0,0.0,0.0,0.0,0.0,0.0,0.0,0.0004668411465536491,0.0015149599972091744,3.11614845371384e-05,4.102241559496257e-05,-6.476306953156409e-05,0.00030278594941393573,0.0,0.0,0.0,0.0,0.0,0.0,0.0,0.0,0.0,0.0,0.0,0.0,0.0,0.0,0.0,0.0,0.0,0.0,0.0,0.0,0.0,0.0,0.0,0.0,0.0,0.0,0.0,0.0,0.0,0.0,0.0,0.0,0.0,0.0,0.0,0.0
2025/05/06 15:48:34.315959977,1746539314,315589984,world_ned,mA1/odom,-5.279759547623029,-12.484429793254023,0.43369411568432403,-0.0003575373314535108,-0.0003135109053585446,0.6729183032467416,0.7397166559119075,0.0,0.0,0.0,0.0,0.0,0.0,0.0,0.0,0.0,0.0,0.0,0.0,0.0,0.0,0.0,0.0,0.0,0.0,0.0,0.0,0.0,0.0,0.0,0.0,0.0,0.0,0.0,0.0,0.0,0.0,0.0,0.0,0.0,0.0,0.0,0.0,0.0005633875740825325,0.000721119178769666,1.564122465008607e-05,0.0008532640673475921,-7.306124363117265e-05,0.00029753166669560115,0.0,0.0,0.0,0.0,0.0,0.0,0.0,0.0,0.0,0.0,0.0,0.0,0.0,0.0,0.0,0.0,0.0,0.0,0.0,0.0,0.0,0.0,0.0,0.0,0.0,0.0,0.0,0.0,0.0,0.0,0.0,0.0,0.0,0.0,0.0,0.0
2025/05/06 15:48:34.419219922,1746539314,417686026,world_ned,mA1/odom,-5.279783518775301,-12.484370605435421,0.4336946465946019,-0.00030993832779689266,-0.00027414463794736083,0.672929312823408,0.7397066774918059,0.0,0.0,0.0,0.0,0.0,0.0,0.0,0.0,0.0,0.0,0.0,0.0,0.0,0.0,0.0,0.0,0.0,0.0,0.0,0.0,0.0,0.0,0.0,0.0,0.0,0.0,0.0,0.0,0.0,0.0,0.0,0.0,0.0,0.0,0.0,0.0,0.0006378751415055987,1.9548527686288115e-05,1.7512865258107609e-06,0.0014682636118245362,-7.533268587217292e-05,0.00031757240309531945,0.0,0.0,0.0,0.0,0.0,0.0,0.0,0.0,0.0,0.0,0.0,0.0,0.0,0.0,0.0,0.0,0.0,0.0,0.0,0.0,0.0,0.0,0.0,0.0,0.0,0.0,0.0,0.0,0.0,0.0,0.0,0.0,0.0,0.0,0.0,0.0
2025/05/06 15:48:34.524827674,1746539314,524202666,world_ned,mA1/odom,-5.279752442377701,-12.484307373406134,0.43369354092229534,-0.000246660217147638,-0.00022210933702500847,0.6729433859062081,0.7396939158809326,0.0,0.0,0.0,0.0,0.0,0.0,0.0,0.0,0.0,0.0,0.0,0.0,0.0,0.0,0.0,0.0,0.0,0.0,0.0,0.0,0.0,0.0,0.0,0.0,0.0,0.0,0.0,0.0,0.0,0.0,0.0,0.0,0.0,0.0,0.0,0.0,0.000734155979628045,-0.0005902599670632994,-2.7429241038501053e-05,0.0018098077056636825,-7.211111326893971e-05,0.00035974385018768635,0.0,0.0,0.0,0.0,0.0,0.0,0.0,0.0,0.0,0.0,0.0,0.0,0.0,0.0,0.0,0.0,0.0,0.0,0.0,0.0,0.0,0.0,0.0,0.0,0.0,0.0,0.0,0.0,0.0,0.0,0.0,0.0,0.0,0.0,0.0,0.0
2025/05/06 15:48:34.624100624,1746539314,623843770,world_ned,mA1/odom,-5.279658945503717,-12.484234558883966,0.43369056777307063,-0.00017788742870080952,-0.00016236911566732082,0.6729541035302481,0.7396842005438086,0.0,0.0,0.0,0.0,0.0,0.0,0.0,0.0,0.0,0.0,0.0,0.0,0.0,0.0,0.0,0.0,0.0,0.0,0.0,0.0,0.0,0.0,0.0,0.0,0.0,0.0,0.0,0.0,0.0,0.0,0.0,0.0,0.0,0.0,0.0,0.0,0.0008605144303668572,-0.0008746432686054632,-2.7848857708075985e-05,0.001656911607023365,-4.176434574489979e-05,0.0003031607529083534,0.0,0.0,0.0,0.0,0.0,0.0,0.0,0.0,0.0,0.0,0.0,0.0,0.0,0.0,0.0,0.0,0.0,0.0,0.0,0.0,0.0,0.0,0.0,0.0,0.0,0.0,0.0,0.0,0.0,0.0,0.0,0.0,0.0,0.0,0.0,0.0
2025/05/06 15:48:34.721423618,1746539314,720439444,world_ned,mA1/odom,-5.279567608652692,-12.484155652534994,0.4336873669725266,-0.00012680529226048504,-0.00011860438668523268,0.6729677640154234,0.7396717910326842,0.0,0.0,0.0,0.0,0.0,0.0,0.0,0.0,0.0,0.0,0.0,0.0,0.0,0.0,0.0,0.0,0.0,0.0,0.0,0.0,0.0,0.0,0.0,0.0,0.0,0.0,0.0,0.0,0.0,0.0,0.0,0.0,0.0,0.0,0.0,0.0,0.000921439123219393,-0.00091324951777267,-3.667130574253119e-05,0.0011295735841643747,-3.0813673573260724e-05,0.0003724057854704762,0.0,0.0,0.0,0.0,0.0,0.0,0.0,0.0,0.0,0.0,0.0,0.0,0.0,0.0,0.0,0.0,0.0,0.0,0.0,0.0,0.0,0.0,0.0,0.0,0.0,0.0,0.0,0.0,0.0,0.0,0.0,0.0,0.0,0.0,0.0,0.0
2025/05/06 15:48:34.820733265,1746539314,820414872,world_ned,mA1/odom,-5.279461504969118,-12.484067249878057,0.4336839490172648,-9.717260881505884e-05,-9.274441110244636e-05,0.6729813466990607,0.7396594411964719,0.0,0.0,0.0,0.0,0.0,0.0,0.0,0.0,0.0,0.0,0.0,0.0,0.0,0.0,0.0,0.0,0.0,0.0,0.0,0.0,0.0,0.0,0.0,0.0,0.0,0.0,0.0,0.0,0.0,0.0,0.0,0.0,0.0,0.0,0.0,0.0,0.0010233138172614578,-0.0009997029641678032,-3.088993137826183e-05,0.00047363478888915746,-4.50186279019714e-06,0.0003636801986830122,0.0,0.0,0.0,0.0,0.0,0.0,0.0,0.0,0.0,0.0,0.0,0.0,0.0,0.0,0.0,0.0,0.0,0.0,0.0,0.0,0.0,0.0,0.0,0.0,0.0,0.0,0.0,0.0,0.0,0.0,0.0,0.0,0.0,0.0,0.0,0.0
2025/05/06 15:48:34.922887897,1746539314,922171754,world_ned,mA1/odom,-5.279350975917013,-12.48396988285353,0.43368176530570124,-9.546215517567414e-05,-9.051310270088545e-05,0.6729945704994503,0.7396474097653664,0.0,0.0,0.0,0.0,0.0,0.0,0.0,0.0,0.0,0.0,0.0,0.0,0.0,0.0,0.0,0.0,0.0,0.0,0.0,0.0,0.0,0.0,0.0,0.0,0.0,0.0,0.0,0.0,0.0,0.0,0.0,0.0,0.0,0.0,0.0,0.0,0.0011344375432220893,-0.0010370306390019464,-2.1714002670978516e-05,-0.00027605578861629985,2.7216211941257918e-05,0.0003312722902541187,0.0,0.0,0.0,0.0,0.0,0.0,0.0,0.0,0.0,0.0,0.0,0.0,0.0,0.0,0.0,0.0,0.0,0.0,0.0,0.0,0.0,0.0,0.0,0.0,0.0,0.0,0.0,0.0,0.0,0.0,0.0,0.0,0.0,0.0,0.0,0.0
2025/05/06 15:48:35.20811728,1746539315,19966387,world_ned,mA1/odom,-5.279236763992665,-12.483856102158514,0.433681059800175,-0.0001228391257985595,-0.0001122793561716161,0.6730042383297703,0.7396386060057042,0.0,0.0,0.0,0.0,0.0,0.0,0.0,0.0,0.0,0.0,0.0,0.0,0.0,0.0,0.0,0.0,0.0,0.0,0.0,0.0,0.0,0.0,0.0,0.0,0.0,0.0,0.0,0.0,0.0,0.0,0.0,0.0,0.0,0.0,0.0,0.0,0.0012576379752409215,-0.0008808293710751359,7.767276528424095e-06,-0.0011153829887338336,4.881882137881145e-05,0.0002753992624877365,0.0,0.0,0.0,0.0,0.0,0.0,0.0,0.0,0.0,0.0,0.0,0.0,0.0,0.0,0.0,0.0,0.0,0.0,0.0,0.0,0.0,0.0,0.0,0.0,0.0,0.0,0.0,0.0,0.0,0.0,0.0,0.0,0.0,0.0,0.0,0.0
2025/05/06 15:48:35.122778422,1746539315,122097259,world_ned,mA1/odom,-5.27914486878002,-12.483740675468123,0.43368258209348814,-0.0001791921990647764,-0.00016037945090911144,0.6730167392671562,0.7396272107182051,0.0,0.0,0.0,0.0,0.0,0.0,0.0,0.0,0.0,0.0,0.0,0.0,0.0,0.0,0.0,0.0,0.0,0.0,0.0,0.0,0.0,0.0,0.0,0.0,0.0,0.0,0.0,0.0,0.0,0.0,0.0,0.0,0.0,0.0,0.0,0.0,0.0012830447583127365,-0.0009445505190072374,1.3803223308894137e-05,-0.0016200756774989867,5.544065986394123e-05,0.00031844586989305645,0.0,0.0,0.0,0.0,0.0,0.0,0.0,0.0,0.0,0.0,0.0,0.0,0.0,0.0,0.0,0.0,0.0,0.0,0.0,0.0,0.0,0.0,0.0,0.0,0.0,0.0,0.0,0.0,0.0,0.0,0.0,0.0,0.0,0.0,0.0,0.0
2025/05/06 15:48:35.217350750,1746539315,217161219,world_ned,mA1/odom,-5.279016621055053,-12.48361459882877,0.4336850607131504,-0.00024369284733914546,-0.0002147929892835898,0.6730258001309126,0.7396189335299043,0.0,0.0,0.0,0.0,0.0,0.0,0.0,0.0,0.0,0.0,0.0,0.0,0.0,0.0,0.0,0.0,0.0,0.0,0.0,0.0,0.0,0.0,0.0,0.0,0.0,0.0,0.0,0.0,0.0,0.0,0.0,0.0,0.0,0.0,0.0,0.0,0.0014032701412618812,-0.0012262658230615272,3.0016689682843373e-05,-0.0017712306858223394,6.208372311654777e-05,0.00023609149961414182,0.0,0.0,0.0,0.0,0.0,0.0,0.0,0.0,0.0,0.0,0.0,0.0,0.0,0.0,0.0,0.0,0.0,0.0,0.0,0.0,0.0,0.0,0.0,0.0,0.0,0.0,0.0,0.0,0.0,0.0,0.0,0.0,0.0,0.0,0.0,0.0
2025/05/06 15:48:35.327707780,1746539315,327488207,world_ned,mA1/odom,-5.278866700585616,-12.483485392179809,0.4336885446127436,-0.0003099937019648914,-0.00027135535092886527,0.6730344533570172,0.739611015916204,0.0,0.0,0.0,0.0,0.0,0.0,0.0,0.0,0.0,0.0,0.0,0.0,0.0,0.0,0.0,0.0,0.0,0.0,0.0,0.0,0.0,0.0,0.0,0.0,0.0,0.0,0.0,0.0,0.0,0.0,0.0,0.0,0.0,0.0,0.0,0.0,0.0014480583061824547,-0.00152817521881369,3.2124409778602556e-05,-0.001654045497784036,4.875475248954282e-05,0.00023398687380555487,0.0,0.0,0.0,0.0,0.0,0.0,0.0,0.0,0.0,0.0,0.0,0.0,0.0,0.0,0.0,0.0,0.0,0.0,0.0,0.0,0.0,0.0,0.0,0.0,0.0,0.0,0.0,0.0,0.0,0.0,0.0,0.0,0.0,0.0,0.0,0.0
2025/05/06 15:48:35.421609547,1746539315,420811213,world_ned,mA1/odom,-5.278674089540991,-12.483355558034578,0.4336916038110943,-0.0003635592619085467,-0.0003175812627555075,0.6730430831030697,0.7396031200947702,0.0,0.0,0.0,0.0,0.0,0.0,0.0,0.0,0.0,0.0,0.0,0.0,0.0,0.0,0.0,0.0,0.0,0.0,0.0,0.0,0.0,0.0,0.0,0.0,0.0,0.0,0.0,0.0,0.0,0.0,0.0,0.0,0.0,0.0,0.0,0.0,0.001494043625803795,-0.002038761510219195,2.5295580554944583e-05,-0.0011721224495529591,2.6607039773240312e-05,0.0002338436261431787,0.0,0.0,0.0,0.0,0.0,0.0,0.0,0.0,0.0,0.0,0.0,0.0,0.0,0.0,0.0,0.0,0.0,0.0,0.0,0.0,0.0,0.0,0.0,0.0,0.0,0.0,0.0,0.0,0.0,0.0,0.0,0.0,0.0,0.0,0.0,0.0
2025/05/06 15:48:35.523140899,1746539315,521796484,world_ned,mA1/odom,-5.278423281490967,-12.483226850414287,0.43369376363675616,-0.00039334757022346155,-0.00034386449825703506,0.6730517171947034,0.7395952359339242,0.0,0.0,0.0,0.0,0.0,0.0,0.0,0.0,0.0,0.0,0.0,0.0,0.0,0.0,0.0,0.0,0.0,0.0,0.0,0.0,0.0,0.0,0.0,0.0,0.0,0.0,0.0,0.0,0.0,0.0,0.0,0.0,0.0,0.0,0.0,0.0,0.0015352809094810772,-0.0026617356166040813,9.759677759856028e-06,-0.00046234276747748453,-2.0809558967262649e-07,0.00023395793125977456,0.0,0.0,0.0,0.0,0.0,0.0,0.0,0.0,0.0,0.0,0.0,0.0,0.0,0.0,0.0,0.0,0.0,0.0,0.0,0.0,0.0,0.0,0.0,0.0,0.0,0.0,0.0,0.0,0.0,0.0,0.0,0.0,0.0,0.0,0.0,0.0
2025/05/06 15:48:35.622626768,1746539315,619864368,world_ned,mA1/odom,-5.278123977718294,-12.483086428926933,0.4336944175770302,-0.000398892680256559,-0.0003485734197710425,0.6730572007269238,0.7395902405594857,0.0,0.0,0.0,0.0,0.0,0.0,0.0,0.0,0.0,0.0,0.0,0.0,0.0,0.0,0.0,0.0,0.0,0.0,0.0,0.0,0.0,0.0,0.0,0.0,0.0,0.0,0.0,0.0,0.0,0.0,0.0,0.0,0.0,0.0,0.0,0.0,0.0016919416577730122,-0.0029964798062514873,-1.4427556032950074e-06,0.00011648178376187704,-4.739788692007723e-06,0.0001481821635728437,0.0,0.0,0.0,0.0,0.0,0.0,0.0,0.0,0.0,0.0,0.0,0.0,0.0,0.0,0.0,0.0,0.0,0.0,0.0,0.0,0.0,0.0,0.0,0.0,0.0,0.0,0.0,0.0,0.0,0.0,0.0,0.0,0.0,0.0,0.0,0.0
2025/05/06 15:48:35.720781894,1746539315,719068096,world_ned,mA1/odom,-5.27778122898077,-12.482958683175267,0.43369308816039986,-0.0003791857084620138,-0.0003329989447116352,0.6730656937585453,0.7395825290089196,0.0,0.0,0.0,0.0,0.0,0.0,0.0,0.0,0.0,0.0,0.0,0.0,0.0,0.0,0.0,0.0,0.0,0.0,0.0,0.0,0.0,0.0,0.0,0.0,0.0,0.0,0.0,0.0,0.0,0.0,0.0,0.0,0.0,0.0,0.0,0.0,0.0016247053932481746,-0.0034940719742560656,-3.51546731280405e-05,0.0007751562085871759,-3.75577273313251e-05,0.000213194989866058,0.0,0.0,0.0,0.0,0.0,0.0,0.0,0.0,0.0,0.0,0.0,0.0,0.0,0.0,0.0,0.0,0.0,0.0,0.0,0.0,0.0,0.0,0.0,0.0,0.0,0.0,0.0,0.0,0.0,0.0,0.0,0.0,0.0,0.0,0.0,0.0
2025/05/06 15:48:35.823615929,1746539315,822949950,world_ned,mA1/odom,-5.27741255371029,-12.482815233792854,0.43368990723688905,-0.0003434921580742903,-0.00030263746129890394,0.6730706026497179,0.739578092071723,0.0,0.0,0.0,0.0,0.0,0.0,0.0,0.0,0.0,0.0,0.0,0.0,0.0,0.0,0.0,0.0,0.0,0.0,0.0,0.0,0.0,0.0,0.0,0.0,0.0,0.0,0.0,0.0,0.0,0.0,0.0,0.0,0.0,0.0,0.0,0.0,0.0018262925432969486,-0.0035650071148272742,-3.173357132708102e-05,0.0010428102604871773,-3.636947848040602e-05,0.00010359040812281574,0.0,0.0,0.0,0.0,0.0,0.0,0.0,0.0,0.0,0.0,0.0,0.0,0.0,0.0,0.0,0.0,0.0,0.0,0.0,0.0,0.0,0.0,0.0,0.0,0.0,0.0,0.0,0.0,0.0,0.0,0.0,0.0,0.0,0.0,0.0,0.0
2025/05/06 15:48:35.921186602,1746539315,917855640,world_ned,mA1/odom,-5.277047409632048,-12.482661919658662,0.4336867469795325,-0.00030433867933123674,-0.0002683231911053039,0.6730721303089091,0.7395767321800087,0.0,0.0,0.0,0.0,0.0,0.0,0.0,0.0,0.0,0.0,0.0,0.0,0.0,0.0,0.0,0.0,0.0,0.0,0.0,0.0,0.0,0.0,0.0,0.0,0.0,0.0,0.0,0.0,0.0,0.0,0.0,0.0,0.0,0.0,0.0,0.0,0.0018725406369940912,-0.003272513466641064,-3.740871197314546e-05,0.0009160047488298059,-1.648323189191644e-05,3.893117592149557e-05,0.0,0.0,0.0,0.0,0.0,0.0,0.0,0.0,0.0,0.0,0.0,0.0,0.0,0.0,0.0,0.0,0.0,0.0,0.0,0.0,0.0,0.0,0.0,0.0,0.0,0.0,0.0,0.0,0.0,0.0,0.0,0.0,0.0,0.0,0.0,0.0
2025/05/06 15:48:36.37915142,1746539316,17980244,world_ned,mA1/odom,-5.276735888161394,-12.48249884922021,0.43368358789293504,-0.00027826026101417296,-0.0002465190484137748,0.6730738287889297,0.7395752042889191,0.0,0.0,0.0,0.0,0.0,0.0,0.0,0.0,0.0,0.0,0.0,0.0,0.0,0.0,0.0,0.0,0.0,0.0,0.0,0.0,0.0,0.0,0.0,0.0,0.0,0.0,0.0,0.0,0.0,0.0,0.0,0.0,0.0,0.0,0.0,0.0,0.0019420299446897692,-0.0026887099784741815,-2.9303848802842537e-05,0.0004741921797829263,-3.518605916910247e-05,5.104151279701107e-05,0.0,0.0,0.0,0.0,0.0,0.0,0.0,0.0,0.0,0.0,0.0,0.0,0.0,0.0,0.0,0.0,0.0,0.0,0.0,0.0,0.0,0.0,0.0,0.0,0.0,0.0,0.0,0.0,0.0,0.0,0.0,0.0,0.0,0.0,0.0,0.0
2025/05/06 15:48:36.129064066,1746539316,118233197,world_ned,mA1/odom,-5.276479433705413,-12.482330615675375,0.43368119359764234,-0.0002685304439353781,-0.00024058526282794116,0.6730779077085053,0.7395714976693416,0.0,0.0,0.0,0.0,0.0,0.0,0.0,0.0,0.0,0.0,0.0,0.0,0.0,0.0,0.0,0.0,0.0,0.0,0.0,0.0,0.0,0.0,0.0,0.0,0.0,0.0,0.0,0.0,0.0,0.0,0.0,0.0,0.0,0.0,0.0,0.0,0.001923077167861979,-0.002256687346682371,-1.9932965424613884e-05,7.838159851328e-05,-4.8179423346542135e-05,0.00012679035243341115,0.0,0.0,0.0,0.0,0.0,0.0,0.0,0.0,0.0,0.0,0.0,0.0,0.0,0.0,0.0,0.0,0.0,0.0,0.0,0.0,0.0,0.0,0.0,0.0,0.0,0.0,0.0,0.0,0.0,0.0,0.0,0.0,0.0,0.0,0.0,0.0
2025/05/06 15:48:36.227584080,1746539316,219329717,world_ned,mA1/odom,-5.27624882936485,-12.48215711302338,0.43368046253382536,-0.000269636794211134,-0.00024485633210622593,0.6730827492622649,0.7395670895780362,0.0,0.0,0.0,0.0,0.0,0.0,0.0,0.0,0.0,0.0,0.0,0.0,0.0,0.0,0.0,0.0,0.0,0.0,0.0,0.0,0.0,0.0,0.0,0.0,0.0,0.0,0.0,0.0,0.0,0.0,0.0,0.0,0.0,0.0,0.0,0.0,0.001961306615834024,-0.0020207112392591864,7.862485421707931e-07,-0.0002045199115796096,-4.690355040848384e-05,0.00013432250781793108,0.0,0.0,0.0,0.0,0.0,0.0,0.0,0.0,0.0,0.0,0.0,0.0,0.0,0.0,0.0,0.0,0.0,0.0,0.0,0.0,0.0,0.0,0.0,0.0,0.0,0.0,0.0,0.0,0.0,0.0,0.0,0.0,0.0,0.0,0.0,0.0
2025/05/06 15:48:36.327479096,1746539316,323120245,world_ned,mA1/odom,-5.276044007029968,-12.481972979672882,0.433681276771297,-0.0002823875594198516,-0.0002584901034342825,0.6730860499899611,0.7395640761617917,0.0,0.0,0.0,0.0,0.0,0.0,0.0,0.0,0.0,0.0,0.0,0.0,0.0,0.0,0.0,0.0,0.0,0.0,0.0,0.0,0.0,0.0,0.0,0.0,0.0,0.0,0.0,0.0,0.0,0.0,0.0,0.0,0.0,0.0,0.0,0.0,0.002026272863428847,-0.0016310004360566698,8.562680131023541e-06,-0.0005679779232942807,-2.3227420510792758e-05,0.00010416993330352765,0.0,0.0,0.0,0.0,0.0,0.0,0.0,0.0,0.0,0.0,0.0,0.0,0.0,0.0,0.0,0.0,0.0,0.0,0.0,0.0,0.0,0.0,0.0,0.0,0.0,0.0,0.0,0.0,0.0,0.0,0.0,0.0,0.0,0.0,0.0,0.0
2025/05/06 15:48:36.417169631,1746539316,416504099,world_ned,mA1/odom,-5.275885700476397,-12.481788710043372,0.4336836051949746,-0.00030828097756176485,-0.0002841652616681387,0.6730924300627251,0.7395582497715772,0.0,0.0,0.0,0.0,0.0,0.0,0.0,0.0,0.0,0.0,0.0,0.0,0.0,0.0,0.0,0.0,0.0,0.0,0.0,0.0,0.0,0.0,0.0,0.0,0.0,0.0,0.0,0.0,0.0,0.0,0.0,0.0,0.0,0.0,0.0,0.0,0.0020155445071991774,-0.001383102822694058,3.550789691037066e-05,-0.0007399945496688158,-2.9144992731565434e-05,0.00015771732226881388,0.0,0.0,0.0,0.0,0.0,0.0,0.0,0.0,0.0,0.0,0.0,0.0,0.0,0.0,0.0,0.0,0.0,0.0,0.0,0.0,0.0,0.0,0.0,0.0,0.0,0.0,0.0,0.0,0.0,0.0,0.0,0.0,0.0,0.0,0.0,0.0
2025/05/06 15:48:36.526578582,1746539316,522620887,world_ned,mA1/odom,-5.275736432440363,-12.48159536782257,0.43368810624744053,-0.0003357013417941927,-0.00031022174541627337,0.6730969276841084,0.7395541339275252,0.0,0.0,0.0,0.0,0.0,0.0,0.0,0.0,0.0,0.0,0.0,0.0,0.0,0.0,0.0,0.0,0.0,0.0,0.0,0.0,0.0,0.0,0.0,0.0,0.0,0.0,0.0,0.0,0.0,0.0,0.0,0.0,0.0,0.0,0.0,0.0,0.002078577192534307,-0.0011809940522056514,4.2764218110854924e-05,-0.0007898473899190761,-7.879549580337731e-06,0.00012199827756361144,0.0,0.0,0.0,0.0,0.0,0.0,0.0,0.0,0.0,0.0,0.0,0.0,0.0,0.0,0.0,0.0,0.0,0.0,0.0,0.0,0.0,0.0,0.0,0.0,0.0,0.0,0.0,0.0,0.0,0.0,0.0,0.0,0.0,0.0,0.0,0.0
2025/05/06 15:48:36.635089972,1746539316,620013776,world_ned,mA1/odom,-5.275610092174498,-12.481396792420187,0.43369218742490945,-0.000363948291683006,-0.0003357944692524484,0.6731015260414704,0.7395499242271336,0.0,0.0,0.0,0.0,0.0,0.0,0.0,0.0,0.0,0.0,0.0,0.0,0.0,0.0,0.0,0.0,0.0,0.0,0.0,0.0,0.0,0.0,0.0,0.0,0.0,0.0,0.0,0.0,0.0,0.0,0.0,0.0,0.0,0.0,0.0,0.0,0.0021105764674139845,-0.0010013661896313803,3.565727449888246e-05,-0.0007092675028052783,1.0144202326336105e-05,0.000126874610572644,0.0,0.0,0.0,0.0,0.0,0.0,0.0,0.0,0.0,0.0,0.0,0.0,0.0,0.0,0.0,0.0,0.0,0.0,0.0,0.0,0.0,0.0,0.0,0.0,0.0,0.0,0.0,0.0,0.0,0.0,0.0,0.0,0.0,0.0,0.0,0.0
2025/05/06 15:48:36.724488457,1746539316,719904612,world_ned,mA1/odom,-5.2754984701532575,-12.481200348577886,0.43369494402883046,-0.0003860401732725891,-0.00035533740212983963,0.6731091172781115,0.7395429946564276,0.0,0.0,0.0,0.0,0.0,0.0,0.0,0.0,0.0,0.0,0.0,0.0,0.0,0.0,0.0,0.0,0.0,0.0,0.0,0.0,0.0,0.0,0.0,0.0,0.0,0.0,0.0,0.0,0.0,0.0,0.0,0.0,0.0,0.0,0.0,0.0,0.002057811680476249,-0.0009994294377757445,1.8305250963460708e-05,-0.0003927762324043784,8.10532048316487e-06,0.0002313589090798365,0.0,0.0,0.0,0.0,0.0,0.0,0.0,0.0,0.0,0.0,0.0,0.0,0.0,0.0,0.0,0.0,0.0,0.0,0.0,0.0,0.0,0.0,0.0,0.0,0.0,0.0,0.0,0.0,0.0,0.0,0.0,0.0,0.0,0.0,0.0,0.0
2025/05/06 15:48:36.847257127,1746539316,816827501,world_ned,mA1/odom,-5.275363121150832,-12.480999103722185,0.433696316448264,-0.0003903743644769084,-0.00035801055064411307,0.6731157760080998,0.7395369304675156,0.0,0.0,0.0,0.0,0.0,0.0,0.0,0.0,0.0,0.0,0.0,0.0,0.0,0.0,0.0,0.0,0.0,0.0,0.0,0.0,0.0,0.0,0.0,0.0,0.0,0.0,0.0,0.0,0.0,0.0,0.0,0.0,0.0,0.0,0.0,0.0,0.0021583453863612797,-0.0011859557470378628,2.2503753828701133e-06,7.446644698147081e-05,2.6769442384115462e-05,0.00016979895081266903,0.0,0.0,0.0,0.0,0.0,0.0,0.0,0.0,0.0,0.0,0.0,0.0,0.0,0.0,0.0,0.0,0.0,0.0,0.0,0.0,0.0,0.0,0.0,0.0,0.0,0.0,0.0,0.0,0.0,0.0,0.0,0.0,0.0,0.0,0.0,0.0
2025/05/06 15:48:36.943972123,1746539316,919962788,world_ned,mA1/odom,-5.27522618075158,-12.480793324088747,0.43369551698500125,-0.0003821867460472845,-0.000348376067134233,0.6731221724990473,0.7395311173017467,0.0,0.0,0.0,0.0,0.0,0.0,0.0,0.0,0.0,0.0,0.0,0.0,0.0,0.0,0.0,0.0,0.0,0.0,0.0,0.0,0.0,0.0,0.0,0.0,0.0,0.0,0.0,0.0,0.0,0.0,0.0,0.0,0.0,0.0,0.0,0.0,0.002191607347277831,-0.0011519982521890175,-2.178550376277317e-05,0.00038566727257488266,3.521599074187716e-05,0.00017536329629147754,0.0,0.0,0.0,0.0,0.0,0.0,0.0,0.0,0.0,0.0,0.0,0.0,0.0,0.0,0.0,0.0,0.0,0.0,0.0,0.0,0.0,0.0,0.0,0.0,0.0,0.0,0.0,0.0,0.0,0.0,0.0,0.0,0.0,0.0,0.0,0.0
2025/05/06 15:48:37.25843205,1746539317,17619961,world_ned,mA1/odom,-5.275094978090751,-12.480583930208367,0.4336923308540668,-0.000364328991863124,-0.0003296510755164801,0.6731287724128285,0.7395251275951025,0.0,0.0,0.0,0.0,0.0,0.0,0.0,0.0,0.0,0.0,0.0,0.0,0.0,0.0,0.0,0.0,0.0,0.0,0.0,0.0,0.0,0.0,0.0,0.0,0.0,0.0,0.0,0.0,0.0,0.0,0.0,0.0,0.0,0.0,0.0,0.0,0.002220831382863653,-0.0010645876719028162,-4.042592062575137e-05,0.0006043921993045851,3.658725142658265e-05,0.00018060781210884784,0.0,0.0,0.0,0.0,0.0,0.0,0.0,0.0,0.0,0.0,0.0,0.0,0.0,0.0,0.0,0.0,0.0,0.0,0.0,0.0,0.0,0.0,0.0,0.0,0.0,0.0,0.0,0.0,0.0,0.0,0.0,0.0,0.0,0.0,0.0,0.0
2025/05/06 15:48:37.121280011,1746539317,114827780,world_ned,mA1/odom,-5.274976199630206,-12.480373823950998,0.4336880699259048,-0.00034116167581310414,-0.0003056811677875633,0.6731356578283758,0.7395188816573208,0.0,0.0,0.0,0.0,0.0,0.0,0.0,0.0,0.0,0.0,0.0,0.0,0.0,0.0,0.0,0.0,0.0,0.0,0.0,0.0,0.0,0.0,0.0,0.0,0.0,0.0,0.0,0.0,0.0,0.0,0.0,0.0,0.0,0.0,0.0,0.0,0.0022099534890304804,-0.0008938678076173363,-5.196340145009298e-05,0.000685527716148916,3.3665594246014074e-05,0.0002115045438771107,0.0,0.0,0.0,0.0,0.0,0.0,0.0,0.0,0.0,0.0,0.0,0.0,0.0,0.0,0.0,0.0,0.0,0.0,0.0,0.0,0.0,0.0,0.0,0.0,0.0,0.0,0.0,0.0,0.0,0.0,0.0,0.0,0.0,0.0,0.0,0.0
2025/05/06 15:48:37.299305559,1746539317,220517403,world_ned,mA1/odom,-5.274869913177243,-12.480163049790534,0.43368294787529227,-0.00031479999146309174,-0.00028036707617513874,0.67314493347206,0.7395104602614923,0.0,0.0,0.0,0.0,0.0,0.0,0.0,0.0,0.0,0.0,0.0,0.0,0.0,0.0,0.0,0.0,0.0,0.0,0.0,0.0,0.0,0.0,0.0,0.0,0.0,0.0,0.0,0.0,0.0,0.0,0.0,0.0,0.0,0.0,0.0,0.0,0.0022123993405790466,-0.0008960628812146547,-4.7063290094585736e-05,0.0007905582399748751,1.056387632955198e-05,0.0002529543002102914,0.0,0.0,0.0,0.0,0.0,0.0,0.0,0.0,0.0,0.0,0.0,0.0,0.0,0.0,0.0,0.0,0.0,0.0,0.0,0.0,0.0,0.0,0.0,0.0,0.0,0.0,0.0,0.0,0.0,0.0,0.0,0.0,0.0,0.0,0.0,0.0
2025/05/06 15:48:37.431061649,1746539317,318220655,world_ned,mA1/odom,-5.274758572971054,-12.479950730521272,0.4336794008139493,-0.000285179841702762,-0.00025331559844225956,0.6731544202026559,0.7395018465597579,0.0,0.0,0.0,0.0,0.0,0.0,0.0,0.0,0.0,0.0,0.0,0.0,0.0,0.0,0.0,0.0,0.0,0.0,0.0,0.0,0.0,0.0,0.0,0.0,0.0,0.0,0.0,0.0,0.0,0.0,0.0,0.0,0.0,0.0,0.0,0.0,0.00218139741968026,-0.0009324197490860296,-3.5680806390348976e-05,0.0008014092546449771,-1.1032289743789364e-05,0.00028420714283936845,0.0,0.0,0.0,0.0,0.0,0.0,0.0,0.0,0.0,0.0,0.0,0.0,0.0,0.0,0.0,0.0,0.0,0.0,0.0,0.0,0.0,0.0,0.0,0.0,0.0,0.0,0.0,0.0,0.0,0.0,0.0,0.0,0.0,0.0,0.0,0.0
2025/05/06 15:48:37.479662424,1746539317,415255423,world_ned,mA1/odom,-5.2746310394223395,-12.479753199243461,0.43367783969718576,-0.00025245645594951894,-0.0002263585774594167,0.6731679228693154,0.7394895757529946,0.0,0.0,0.0,0.0,0.0,0.0,0.0,0.0,0.0,0.0,0.0,0.0,0.0,0.0,0.0,0.0,0.0,0.0,0.0,0.0,0.0,0.0,0.0,0.0,0.0,0.0,0.0,0.0,0.0,0.0,0.0,0.0,0.0,0.0,0.0,0.0,0.0020723326207174437,-0.0011893582185771145,3.1828149300365897e-06,0.0008543071460348284,-5.848137905299018e-05,0.00039320402243585366,0.0,0.0,0.0,0.0,0.0,0.0,0.0,0.0,0.0,0.0,0.0,0.0,0.0,0.0,0.0,0.0,0.0,0.0,0.0,0.0,0.0,0.0,0.0,0.0,0.0,0.0,0.0,0.0,0.0,0.0,0.0,0.0,0.0,0.0,0.0,0.0
2025/05/06 15:48:37.545250146,1746539317,521275079,world_ned,mA1/odom,-5.274473561539431,-12.479561699645307,0.4336800475135233,-0.00021793420824423382,-0.00019971706205383337,0.6731837542045378,0.7394751826078143,0.0,0.0,0.0,0.0,0.0,0.0,0.0,0.0,0.0,0.0,0.0,0.0,0.0,0.0,0.0,0.0,0.0,0.0,0.0,0.0,0.0,0.0,0.0,0.0,0.0,0.0,0.0,0.0,0.0,0.0,0.0,0.0,0.0,0.0,0.0,0.0,0.002024103213785504,-0.001635450695778107,2.2347963467790465e-05,0.0009146086275827207,-7.777868411074619e-05,0.00045243394515181377,0.0,0.0,0.0,0.0,0.0,0.0,0.0,0.0,0.0,0.0,0.0,0.0,0.0,0.0,0.0,0.0,0.0,0.0,0.0,0.0,0.0,0.0,0.0,0.0,0.0,0.0,0.0,0.0,0.0,0.0,0.0,0.0,0.0,0.0,0.0,0.0
2025/05/06 15:48:37.686635635,1746539317,621685711,world_ned,mA1/odom,-5.2742522376561185,-12.479388059834978,0.4336838421376415,-0.0001779898181455764,-0.0001696856888817611,0.6732031527229374,0.7394575408299581,0.0,0.0,0.0,0.0,0.0,0.0,0.0,0.0,0.0,0.0,0.0,0.0,0.0,0.0,0.0,0.0,0.0,0.0,0.0,0.0,0.0,0.0,0.0,0.0,0.0,0.0,0.0,0.0,0.0,0.0,0.0,0.0,0.0,0.0,0.0,0.0,0.0019498384855512834,-0.0023498052970042744,4.607351188023574e-05,0.0010221152071074656,-9.061541599799661e-05,0.0005246280372444015,0.0,0.0,0.0,0.0,0.0,0.0,0.0,0.0,0.0,0.0,0.0,0.0,0.0,0.0,0.0,0.0,0.0,0.0,0.0,0.0,0.0,0.0,0.0,0.0,0.0,0.0,0.0,0.0,0.0,0.0,0.0,0.0,0.0,0.0,0.0,0.0
2025/05/06 15:48:37.780248943,1746539317,722033863,world_ned,mA1/odom,-5.273969796152652,-12.479216006259929,0.4336890853711708,-0.0001402770835748305,-0.00014054386424080042,0.6732221906338974,0.73944022247093,0.0,0.0,0.0,0.0,0.0,0.0,0.0,0.0,0.0,0.0,0.0,0.0,0.0,0.0,0.0,0.0,0.0,0.0,0.0,0.0,0.0,0.0,0.0,0.0,0.0,0.0,0.0,0.0,0.0,0.0,0.0,0.0,0.0,0.0,0.0,0.0,0.001999492067037147,-0.002865927111303806,4.947682353847955e-05,0.0008484795608900721,-6.338420726623829e-05,0.0005069470517425018,0.0,0.0,0.0,0.0,0.0,0.0,0.0,0.0,0.0,0.0,0.0,0.0,0.0,0.0,0.0,0.0,0.0,0.0,0.0,0.0,0.0,0.0,0.0,0.0,0.0,0.0,0.0,0.0,0.0,0.0,0.0,0.0,0.0,0.0,0.0,0.0
2025/05/06 15:48:37.869464553,1746539317,814230928,world_ned,mA1/odom,-5.273645625939474,-12.479042732723522,0.4336936372541869,-0.00011521537079283335,-0.0001205884487991353,0.6732406106385908,0.7394234594404088,0.0,0.0,0.0,0.0,0.0,0.0,0.0,0.0,0.0,0.0,0.0,0.0,0.0,0.0,0.0,0.0,0.0,0.0,0.0,0.0,0.0,0.0,0.0,0.0,0.0,0.0,0.0,0.0,0.0,0.0,0.0,0.0,0.0,0.0,0.0,0.0,0.002052572329526753,-0.0032105086296985125,3.868804321937384e-05,0.0004416762146729848,-2.3963442142457494e-05,0.0004910571737703287,0.0,0.0,0.0,0.0,0.0,0.0,0.0,0.0,0.0,0.0,0.0,0.0,0.0,0.0,0.0,0.0,0.0,0.0,0.0,0.0,0.0,0.0,0.0,0.0,0.0,0.0,0.0,0.0,0.0,0.0,0.0,0.0,0.0,0.0,0.0,0.0
2025/05/06 15:48:37.988537328,1746539317,923312694,world_ned,mA1/odom,-5.273292177597779,-12.478866928867054,0.43369669648577075,-0.00010937984000864714,-0.0001153180162082673,0.6732584609919563,0.7394072081340215,0.0,0.0,0.0,0.0,0.0,0.0,0.0,0.0,0.0,0.0,0.0,0.0,0.0,0.0,0.0,0.0,0.0,0.0,0.0,0.0,0.0,0.0,0.0,0.0,0.0,0.0,0.0,0.0,0.0,0.0,0.0,0.0,0.0,0.0,0.0,0.0,0.002102891286763102,-0.003466612279417892,1.7171280129420815e-05,-8.29051613027536e-05,1.793633374354063e-05,0.00047618996087812036,0.0,0.0,0.0,0.0,0.0,0.0,0.0,0.0,0.0,0.0,0.0,0.0,0.0,0.0,0.0,0.0,0.0,0.0,0.0,0.0,0.0,0.0,0.0,0.0,0.0,0.0,0.0,0.0,0.0,0.0,0.0,0.0,0.0,0.0,0.0,0.0
2025/05/06 15:48:38.53782622,1746539318,20253752,world_ned,mA1/odom,-5.27291296956213,-12.478688586200294,0.43369708387225275,-0.0001242455824062014,-0.00012618896290868863,0.6732757779246948,0.7393914359115056,0.0,0.0,0.0,0.0,0.0,0.0,0.0,0.0,0.0,0.0,0.0,0.0,0.0,0.0,0.0,0.0,0.0,0.0,0.0,0.0,0.0,0.0,0.0,0.0,0.0,0.0,0.0,0.0,0.0,0.0,0.0,0.0,0.0,0.0,0.0,0.0,0.0021511123195668267,-0.003729526019016974,-9.035358147942986e-06,-0.0005869982725258481,5.573116747891863e-05,0.0004622663190433343,0.0,0.0,0.0,0.0,0.0,0.0,0.0,0.0,0.0,0.0,0.0,0.0,0.0,0.0,0.0,0.0,0.0,0.0,0.0,0.0,0.0,0.0,0.0,0.0,0.0,0.0,0.0,0.0,0.0,0.0,0.0,0.0,0.0,0.0,0.0,0.0
2025/05/06 15:48:38.127039686,1746539318,125252998,world_ned,mA1/odom,-5.2725044904516185,-12.478508628144336,0.4336951582472599,-0.00015661133792620348,-0.00015082783942831974,0.673292593103275,0.7393761132171632,0.0,0.0,0.0,0.0,0.0,0.0,0.0,0.0,0.0,0.0,0.0,0.0,0.0,0.0,0.0,0.0,0.0,0.0,0.0,0.0,0.0,0.0,0.0,0.0,0.0,0.0,0.0,0.0,0.0,0.0,0.0,0.0,0.0,0.0,0.0,0.0,0.0021891443628859536,-0.004052135487042443,-3.3291950325559785e-05,-0.0009653914193423328,8.187048085318652e-05,0.00044922417748591206,0.0,0.0,0.0,0.0,0.0,0.0,0.0,0.0,0.0,0.0,0.0,0.0,0.0,0.0,0.0,0.0,0.0,0.0,0.0,0.0,0.0,0.0,0.0,0.0,0.0,0.0,0.0,0.0,0.0,0.0,0.0,0.0,0.0,0.0,0.0,0.0
2025/05/06 15:48:38.243981702,1746539318,217543244,world_ned,mA1/odom,-5.272057192646967,-12.478328944683922,0.43369101789010134,-0.00019931392324458788,-0.000183657210132482,0.6733089449821135,0.7393612047917192,0.0,0.0,0.0,0.0,0.0,0.0,0.0,0.0,0.0,0.0,0.0,0.0,0.0,0.0,0.0,0.0,0.0,0.0,0.0,0.0,0.0,0.0,0.0,0.0,0.0,0.0,0.0,0.0,0.0,0.0,0.0,0.0,0.0,0.0,0.0,0.0,0.0022195104827858526,-0.004496127806461161,-4.9900156906636914e-05,-0.001125465326392957,9.338879750575719e-05,0.00043732870854488906,0.0,0.0,0.0,0.0,0.0,0.0,0.0,0.0,0.0,0.0,0.0,0.0,0.0,0.0,0.0,0.0,0.0,0.0,0.0,0.0,0.0,0.0,0.0,0.0,0.0,0.0,0.0,0.0,0.0,0.0,0.0,0.0,0.0,0.0,0.0,0.0
2025/05/06 15:48:38.330466429,1746539318,323697920,world_ned,mA1/odom,-5.271558063209144,-12.4781522248068,0.43368606007919785,-0.0002429918515205754,-0.0002172247079801847,0.673324639619385,0.7393468897951838,0.0,0.0,0.0,0.0,0.0,0.0,0.0,0.0,0.0,0.0,0.0,0.0,0.0,0.0,0.0,0.0,0.0,0.0,0.0,0.0,0.0,0.0,0.0,0.0,0.0,0.0,0.0,0.0,0.0,0.0,0.0,0.0,0.0,0.0,0.0,0.0,0.0022425425240227307,-0.005245002754649367,-6.588337666776296e-05,-0.0009265401142355612,9.639528959113504e-05,0.0003471103252554138,0.0,0.0,0.0,0.0,0.0,0.0,0.0,0.0,0.0,0.0,0.0,0.0,0.0,0.0,0.0,0.0,0.0,0.0,0.0,0.0,0.0,0.0,0.0,0.0,0.0,0.0,0.0,0.0,0.0,0.0,0.0,0.0,0.0,0.0,0.0,0.0
2025/05/06 15:48:38.421364109,1746539318,420839952,world_ned,mA1/odom,-5.27093199243213,-12.477978144536612,0.43368121804414683,-0.00026457429751510343,-0.00023012978849316023,0.6733284770506831,0.7393433837083614,0.0,0.0,0.0,0.0,0.0,0.0,0.0,0.0,0.0,0.0,0.0,0.0,0.0,0.0,0.0,0.0,0.0,0.0,0.0,0.0,0.0,0.0,0.0,0.0,0.0,0.0,0.0,0.0,0.0,0.0,0.0,0.0,0.0,0.0,0.0,0.0,0.0023659128559876826,-0.006354912224274815,-4.216445890339884e-05,-0.0003697407605620551,9.761827896946617e-05,5.824172301964343e-05,0.0,0.0,0.0,0.0,0.0,0.0,0.0,0.0,0.0,0.0,0.0,0.0,0.0,0.0,0.0,0.0,0.0,0.0,0.0,0.0,0.0,0.0,0.0,0.0,0.0,0.0,0.0,0.0,0.0,0.0,0.0,0.0,0.0,0.0,0.0,0.0
2025/05/06 15:48:38.534792510,1746539318,519243522,world_ned,mA1/odom,-5.270248747514337,-12.477800715298882,0.43367882605794006,-0.00027650028241189763,-0.0002346058480398812,0.6733296738117762,0.7393422880318811,0.0,0.0,0.0,0.0,0.0,0.0,0.0,0.0,0.0,0.0,0.0,0.0,0.0,0.0,0.0,0.0,0.0,0.0,0.0,0.0,0.0,0.0,0.0,0.0,0.0,0.0,0.0,0.0,0.0,0.0,0.0,0.0,0.0,0.0,0.0,0.0,0.002431296374576687,-0.006869819142460545,-2.015555728444226e-05,-0.0001201614291577889,8.943494275338566e-05,1.1678609337715527e-05,0.0,0.0,0.0,0.0,0.0,0.0,0.0,0.0,0.0,0.0,0.0,0.0,0.0,0.0,0.0,0.0,0.0,0.0,0.0,0.0,0.0,0.0,0.0,0.0,0.0,0.0,0.0,0.0,0.0,0.0,0.0,0.0,0.0,0.0,0.0,0.0
2025/05/06 15:48:38.733297800,1746539318,624461370,world_ned,mA1/odom,-5.269514184357212,-12.477620831531606,0.4336787083734393,-0.00027806307890751897,-0.00023111657372961323,0.6733291998872261,0.7393427201543824,0.0,0.0,0.0,0.0,0.0,0.0,0.0,0.0,0.0,0.0,0.0,0.0,0.0,0.0,0.0,0.0,0.0,0.0,0.0,0.0,0.0,0.0,0.0,0.0,0.0,0.0,0.0,0.0,0.0,0.0,0.0,0.0,0.0,0.0,0.0,0.0,0.002508054567186783,-0.0073662186095487395,5.4801096042242265e-06,0.00013738445299491022,5.778075974300858e-05,-3.2586740792798776e-05,0.0,0.0,0.0,0.0,0.0,0.0,0.0,0.0,0.0,0.0,0.0,0.0,0.0,0.0,0.0,0.0,0.0,0.0,0.0,0.0,0.0,0.0,0.0,0.0,0.0,0.0,0.0,0.0,0.0,0.0,0.0,0.0,0.0,0.0,0.0,0.0
2025/05/06 15:48:38.793974859,1746539318,721571339,world_ned,mA1/odom,-5.268733163347737,-12.477438755913171,0.4336812647327825,-0.0002701458842314567,-0.00022142877881950766,0.6733271874265637,0.7393445588240508,0.0,0.0,0.0,0.0,0.0,0.0,0.0,0.0,0.0,0.0,0.0,0.0,0.0,0.0,0.0,0.0,0.0,0.0,0.0,0.0,0.0,0.0,0.0,0.0,0.0,0.0,0.0,0.0,0.0,0.0,0.0,0.0,0.0,0.0,0.0,0.0,0.0025740396030007103,-0.007737458166011842,2.563915602804666e-05,0.0002894793804725903,2.065507871901414e-05,-5.829147347694664e-05,0.0,0.0,0.0,0.0,0.0,0.0,0.0,0.0,0.0,0.0,0.0,0.0,0.0,0.0,0.0,0.0,0.0,0.0,0.0,0.0,0.0,0.0,0.0,0.0,0.0,0.0,0.0,0.0,0.0,0.0,0.0,0.0,0.0,0.0,0.0,0.0
2025/05/06 15:48:38.842502060,1746539318,825778574,world_ned,mA1/odom,-5.26794208500467,-12.477256626275969,0.4336854483086226,-0.00026310019326686003,-0.0002145414933205074,0.6733266504099095,0.7393450524606272,0.0,0.0,0.0,0.0,0.0,0.0,0.0,0.0,0.0,0.0,0.0,0.0,0.0,0.0,0.0,0.0,0.0,0.0,0.0,0.0,0.0,0.0,0.0,0.0,0.0,0.0,0.0,0.0,0.0,0.0,0.0,0.0,0.0,0.0,0.0,0.0,0.0025831674335159,-0.007708288093865082,4.933213705117634e-05,0.00013590870616380938,-1.311275613163437e-05,-3.159563353099288e-05,0.0,0.0,0.0,0.0,0.0,0.0,0.0,0.0,0.0,0.0,0.0,0.0,0.0,0.0,0.0,0.0,0.0,0.0,0.0,0.0,0.0,0.0,0.0,0.0,0.0,0.0,0.0,0.0,0.0,0.0,0.0,0.0,0.0,0.0,0.0,0.0
2025/05/06 15:48:38.941780056,1746539318,923926740,world_ned,mA1/odom,-5.267166156247175,-12.477061477804748,0.4336906676075133,-0.00026478615624086983,-0.00021771729961918876,0.6733228177446894,0.7393485413469217,0.0,0.0,0.0,0.0,0.0,0.0,0.0,0.0,0.0,0.0,0.0,0.0,0.0,0.0,0.0,0.0,0.0,0.0,0.0,0.0,0.0,0.0,0.0,0.0,0.0,0.0,0.0,0.0,0.0,0.0,0.0,0.0,0.0,0.0,0.0,0.0,0.00266765099765263,-0.007404125851969875,4.1772608736927225e-05,-0.00023817642422249344,-5.0902039086162903e-05,-0.00010473523943297917,0.0,0.0,0.0,0.0,0.0,0.0,0.0,0.0,0.0,0.0,0.0,0.0,0.0,0.0,0.0,0.0,0.0,0.0,0.0,0.0,0.0,0.0,0.0,0.0,0.0,0.0,0.0,0.0,0.0,0.0,0.0,0.0,0.0,0.0,0.0,0.0
2025/05/06 15:48:39.142003676,1746539319,25177772,world_ned,mA1/odom,-5.266409546624736,-12.476858404719342,0.4336949488113952,-0.00027583868590641043,-0.00023322670834123038,0.6733165230113157,0.7393542651248278,0.0,0.0,0.0,0.0,0.0,0.0,0.0,0.0,0.0,0.0,0.0,0.0,0.0,0.0,0.0,0.0,0.0,0.0,0.0,0.0,0.0,0.0,0.0,0.0,0.0,0.0,0.0,0.0,0.0,0.0,0.0,0.0,0.0,0.0,0.0,0.0,0.002709342149666992,-0.007138637854310405,3.332745150641094e-05,-0.0005759541724010852,-0.00010980748374024885,-0.00016350324698617417,0.0,0.0,0.0,0.0,0.0,0.0,0.0,0.0,0.0,0.0,0.0,0.0,0.0,0.0,0.0,0.0,0.0,0.0,0.0,0.0,0.0,0.0,0.0,0.0,0.0,0.0,0.0,0.0,0.0,0.0,0.0,0.0,0.0,0.0,0.0,0.0
2025/05/06 15:48:39.202459853,1746539319,116666705,world_ned,mA1/odom,-5.265699141259401,-12.47666215366366,0.43369735540704346,-0.00029971446972345514,-0.0002647381057954106,0.6733135149380268,0.7393569846067402,0.0,0.0,0.0,0.0,0.0,0.0,0.0,0.0,0.0,0.0,0.0,0.0,0.0,0.0,0.0,0.0,0.0,0.0,0.0,0.0,0.0,0.0,0.0,0.0,0.0,0.0,0.0,0.0,0.0,0.0,0.0,0.0,0.0,0.0,0.0,0.0,0.0025907841772487444,-0.0068526034621898295,4.012501043204155e-06,-0.0008157462909000255,-0.0001620133825563432,-6.466229732637938e-05,0.0,0.0,0.0,0.0,0.0,0.0,0.0,0.0,0.0,0.0,0.0,0.0,0.0,0.0,0.0,0.0,0.0,0.0,0.0,0.0,0.0,0.0,0.0,0.0,0.0,0.0,0.0,0.0,0.0,0.0,0.0,0.0,0.0,0.0,0.0,0.0
2025/05/06 15:48:39.253582993,1746539319,222006258,world_ned,mA1/odom,-5.264990545712639,-12.476470118290583,0.43369686858255946,-0.0003225791269434881,-0.00029713934494698653,0.673311484350226,0.7393588118721599,0.0,0.0,0.0,0.0,0.0,0.0,0.0,0.0,0.0,0.0,0.0,0.0,0.0,0.0,0.0,0.0,0.0,0.0,0.0,0.0,0.0,0.0,0.0,0.0,0.0,0.0,0.0,0.0,0.0,0.0,0.0,0.0,0.0,0.0,0.0,0.0,0.002567551393893095,-0.006901862049830133,-2.2200499569638936e-05,-0.0007185975648200385,-0.00017235416147300478,-4.807850365473383e-05,0.0,0.0,0.0,0.0,0.0,0.0,0.0,0.0,0.0,0.0,0.0,0.0,0.0,0.0,0.0,0.0,0.0,0.0,0.0,0.0,0.0,0.0,0.0,0.0,0.0,0.0,0.0,0.0,0.0,0.0,0.0,0.0,0.0,0.0,0.0,0.0
2025/05/06 15:48:39.395902269,1746539319,315934389,world_ned,mA1/odom,-5.264269959386893,-12.476276220038544,0.43369351844190557,-0.00033905682935872564,-0.00032241961568004764,0.6733070653554509,0.7393628181268576,0.0,0.0,0.0,0.0,0.0,0.0,0.0,0.0,0.0,0.0,0.0,0.0,0.0,0.0,0.0,0.0,0.0,0.0,0.0,0.0,0.0,0.0,0.0,0.0,0.0,0.0,0.0,0.0,0.0,0.0,0.0,0.0,0.0,0.0,0.0,0.0,0.0025683434089635382,-0.006945345752808347,-5.592763757147223e-05,-0.0005413165012572106,-0.00014190219313030183,-0.00012643451062346696,0.0,0.0,0.0,0.0,0.0,0.0,0.0,0.0,0.0,0.0,0.0,0.0,0.0,0.0,0.0,0.0,0.0,0.0,0.0,0.0,0.0,0.0,0.0,0.0,0.0,0.0,0.0,0.0,0.0,0.0,0.0,0.0,0.0,0.0,0.0,0.0
2025/05/06 15:48:39.604450162,1746539319,417140737,world_ned,mA1/odom,-5.2635641075440365,-12.476090834814956,0.4336883007595259,-0.00035198295095491614,-0.0003432149589023242,0.6733052909303237,0.7393644186169135,0.0,0.0,0.0,0.0,0.0,0.0,0.0,0.0,0.0,0.0,0.0,0.0,0.0,0.0,0.0,0.0,0.0,0.0,0.0,0.0,0.0,0.0,0.0,0.0,0.0,0.0,0.0,0.0,0.0,0.0,0.0,0.0,0.0,0.0,0.0,0.0,0.002507486249849734,-0.006929103312461146,-6.0196071589443376e-05,-0.000305798220547782,-0.0001128896868129685,-3.2593326005387065e-05,0.0,0.0,0.0,0.0,0.0,0.0,0.0,0.0,0.0,0.0,0.0,0.0,0.0,0.0,0.0,0.0,0.0,0.0,0.0,0.0,0.0,0.0,0.0,0.0,0.0,0.0,0.0,0.0,0.0,0.0,0.0,0.0,0.0,0.0,0.0,0.0
2025/05/06 15:48:39.676405892,1746539319,518102296,world_ned,mA1/odom,-5.262826938147863,-12.475910572573316,0.43368269680818294,-0.00034915169657269305,-0.00034625043856272106,0.6733047171064114,0.7393649410987662,0.0,0.0,0.0,0.0,0.0,0.0,0.0,0.0,0.0,0.0,0.0,0.0,0.0,0.0,0.0,0.0,0.0,0.0,0.0,0.0,0.0,0.0,0.0,0.0,0.0,0.0,0.0,0.0,0.0,0.0,0.0,0.0,0.0,0.0,0.0,0.0,0.002494590274958574,-0.007290055707269174,-6.15897267636106e-05,0.00020651174381354213,-5.145632998445064e-05,-8.391426116323946e-06,0.0,0.0,0.0,0.0,0.0,0.0,0.0,0.0,0.0,0.0,0.0,0.0,0.0,0.0,0.0,0.0,0.0,0.0,0.0,0.0,0.0,0.0,0.0,0.0,0.0,0.0,0.0,0.0,0.0,0.0,0.0,0.0,0.0,0.0,0.0,0.0
2025/05/06 15:48:39.774857078,1746539319,619178386,world_ned,mA1/odom,-5.262068972939417,-12.475727340784013,0.43367829546735986,-0.0003338985644890472,-0.0003327171289059657,0.6733045638461127,0.7393650939252251,0.0,0.0,0.0,0.0,0.0,0.0,0.0,0.0,0.0,0.0,0.0,0.0,0.0,0.0,0.0,0.0,0.0,0.0,0.0,0.0,0.0,0.0,0.0,0.0,0.0,0.0,0.0,0.0,0.0,0.0,0.0,0.0,0.0,0.0,0.0,0.0,0.0025892555425213364,-0.007439975388430595,-3.84151016954432e-05,0.0005567604397577571,3.687794484644711e-05,-1.3015213917268388e-05,0.0,0.0,0.0,0.0,0.0,0.0,0.0,0.0,0.0,0.0,0.0,0.0,0.0,0.0,0.0,0.0,0.0,0.0,0.0,0.0,0.0,0.0,0.0,0.0,0.0,0.0,0.0,0.0,0.0,0.0,0.0,0.0,0.0,0.0,0.0,0.0
2025/05/06 15:48:39.843583717,1746539319,715262071,world_ned,mA1/odom,-5.261299375804267,-12.475522781588976,0.43367702548442955,-0.0003125045490561985,-0.00030601337827986045,0.6733035147709665,0.7393660701531969,0.0,0.0,0.0,0.0,0.0,0.0,0.0,0.0,0.0,0.0,0.0,0.0,0.0,0.0,0.0,0.0,0.0,0.0,0.0,0.0,0.0,0.0,0.0,0.0,0.0,0.0,0.0,0.0,0.0,0.0,0.0,0.0,0.0,0.0,0.0,0.0,0.0029151787934154644,-0.007457293870017462,-8.353154842892958e-06,0.0007338777441764282,0.00016775223710333305,-2.396153578366646e-05,0.0,0.0,0.0,0.0,0.0,0.0,0.0,0.0,0.0,0.0,0.0,0.0,0.0,0.0,0.0,0.0,0.0,0.0,0.0,0.0,0.0,0.0,0.0,0.0,0.0,0.0,0.0,0.0,0.0,0.0,0.0,0.0,0.0,0.0,0.0,0.0
2025/05/06 15:48:40.33729114,1746539319,817416846,world_ned,mA1/odom,-5.26053063619806,-12.475280222395615,0.4336783992101997,-0.0002924739838127204,-0.00027161743077907467,0.6733029423111162,0.7393666130940277,0.0,0.0,0.0,0.0,0.0,0.0,0.0,0.0,0.0,0.0,0.0,0.0,0.0,0.0,0.0,0.0,0.0,0.0,0.0,0.0,0.0,0.0,0.0,0.0,0.0,0.0,0.0,0.0,0.0,0.0,0.0,0.0,0.0,0.0,0.0,0.0,0.0033008341075041734,-0.007385489000926577,2.0299566273141534e-05,0.0007518125442885945,0.0002902038895601771,-9.001842966662093e-06,0.0,0.0,0.0,0.0,0.0,0.0,0.0,0.0,0.0,0.0,0.0,0.0,0.0,0.0,0.0,0.0,0.0,0.0,0.0,0.0,0.0,0.0,0.0,0.0,0.0,0.0,0.0,0.0,0.0,0.0,0.0,0.0,0.0,0.0,0.0,0.0
2025/05/06 15:48:40.118115568,1746539319,919060841,world_ned,mA1/odom,-5.259771558701607,-12.475001239397665,0.43368244533718275,-0.0002785282730588546,-0.000236417490819723,0.6733029047183713,0.7393666648061534,0.0,0.0,0.0,0.0,0.0,0.0,0.0,0.0,0.0,0.0,0.0,0.0,0.0,0.0,0.0,0.0,0.0,0.0,0.0,0.0,0.0,0.0,0.0,0.0,0.0,0.0,0.0,0.0,0.0,0.0,0.0,0.0,0.0,0.0,0.0,0.0,0.0036394301073113776,-0.00722262618672586,4.172404638709945e-05,0.0006053183089026882,0.00035941026838272067,4.596718878164129e-06,0.0,0.0,0.0,0.0,0.0,0.0,0.0,0.0,0.0,0.0,0.0,0.0,0.0,0.0,0.0,0.0,0.0,0.0,0.0,0.0,0.0,0.0,0.0,0.0,0.0,0.0,0.0,0.0,0.0,0.0,0.0,0.0,0.0,0.0,0.0,0.0
2025/05/06 15:48:40.219616014,1746539320,23694130,world_ned,mA1/odom,-5.25901123952509,-12.474683478557894,0.4336879952357509,-0.000270072591491434,-0.00020311637786115907,0.6733011952041863,0.7393682346038045,0.0,0.0,0.0,0.0,0.0,0.0,0.0,0.0,0.0,0.0,0.0,0.0,0.0,0.0,0.0,0.0,0.0,0.0,0.0,0.0,0.0,0.0,0.0,0.0,0.0,0.0,0.0,0.0,0.0,0.0,0.0,0.0,0.0,0.0,0.0,0.0,0.004073413595649835,-0.007270663107070951,5.2755804133983324e-05,0.0005071796777059314,0.0003884162599319616,-7.455469578881355e-05,0.0,0.0,0.0,0.0,0.0,0.0,0.0,0.0,0.0,0.0,0.0,0.0,0.0,0.0,0.0,0.0,0.0,0.0,0.0,0.0,0.0,0.0,0.0,0.0,0.0,0.0,0.0,0.0,0.0,0.0,0.0,0.0,0.0,0.0,0.0,0.0
2025/05/06 15:48:40.406203715,1746539320,120222845,world_ned,mA1/odom,-5.258251996021548,-12.474336299268574,0.43369365361149775,-0.00027016664733104425,-0.00017484613352604895,0.6732975312569154,0.739371578329973,0.0,0.0,0.0,0.0,0.0,0.0,0.0,0.0,0.0,0.0,0.0,0.0,0.0,0.0,0.0,0.0,0.0,0.0,0.0,0.0,0.0,0.0,0.0,0.0,0.0,0.0,0.0,0.0,0.0,0.0,0.0,0.0,0.0,0.0,0.0,0.0,0.004377157126379087,-0.007229982223808604,4.76037912445245e-05,0.00028284179862850777,0.00040595149688446043,-0.00011735767896757378,0.0,0.0,0.0,0.0,0.0,0.0,0.0,0.0,0.0,0.0,0.0,0.0,0.0,0.0,0.0,0.0,0.0,0.0,0.0,0.0,0.0,0.0,0.0,0.0,0.0,0.0,0.0,0.0,0.0,0.0,0.0,0.0,0.0,0.0,0.0,0.0
2025/05/06 15:48:40.485630674,1746539320,223289129,world_ned,mA1/odom,-5.257481085071301,-12.4739168443203,0.4336985048134113,-0.0002719398215616688,-0.00015833896027433908,0.6732955996536502,0.739373340379905,0.0,0.0,0.0,0.0,0.0,0.0,0.0,0.0,0.0,0.0,0.0,0.0,0.0,0.0,0.0,0.0,0.0,0.0,0.0,0.0,0.0,0.0,0.0,0.0,0.0,0.0,0.0,0.0,0.0,0.0,0.0,0.0,0.0,0.0,0.0,0.0,0.006235976093368158,-0.007337318820390628,2.8691946455698875e-05,0.00012545389033298952,-9.288253485909219e-05,-3.0070614855784788e-05,0.0,0.0,0.0,0.0,0.0,0.0,0.0,0.0,0.0,0.0,0.0,0.0,0.0,0.0,0.0,0.0,0.0,0.0,0.0,0.0,0.0,0.0,0.0,0.0,0.0,0.0,0.0,0.0,0.0,0.0,0.0,0.0,0.0,0.0,0.0,0.0
2025/05/06 15:48:40.993364055,1746539320,318588118,world_ned,mA1/odom,-5.2567007715678615,-12.473526937601493,0.4336998610619996,-0.00028308937365795184,-0.00014382910074801846,0.6732948133150486,0.7393740552228285,0.0,0.0,0.0,0.0,0.0,0.0,0.0,0.0,0.0,0.0,0.0,0.0,0.0,0.0,0.0,0.0,0.0,0.0,0.0,0.0,0.0,0.0,0.0,0.0,0.0,0.0,0.0,0.0,0.0,0.0,0.0,0.0,0.0,0.0,0.0,0.0,0.001621893338151378,-0.007446872414105183,-8.99734201476945e-06,-5.796641036054604e-05,0.0011878046694138833,-1.3978650979957623e-05,0.0,0.0,0.0,0.0,0.0,0.0,0.0,0.0,0.0,0.0,0.0,0.0,0.0,0.0,0.0,0.0,0.0,0.0,0.0,0.0,0.0,0.0,0.0,0.0,0.0,0.0,0.0,0.0,0.0,0.0,0.0,0.0,0.0,0.0,0.0,0.0
2025/05/06 15:48:40.993428308,1746539320,423545280,world_ned,mA1/odom,-5.255899134648893,-12.473020659713423,0.4336978522762914,-0.00028837540642540494,-0.00014890915339558808,0.673294615401564,0.7393742323999052,0.0,0.0,0.0,0.0,0.0,0.0,0.0,0.0,0.0,0.0,0.0,0.0,0.0,0.0,0.0,0.0,0.0,0.0,0.0,0.0,0.0,0.0,0.0,0.0,0.0,0.0,0.0,0.0,0.0,0.0,0.0,0.0,0.0,0.0,0.0,0.0,0.00526881483170681,-0.007553982030566207,-3.717316222599837e-05,-0.0002204955505884544,0.00011789205903179627,1.6223734470200076e-06,0.0,0.0,0.0,0.0,0.0,0.0,0.0,0.0,0.0,0.0,0.0,0.0,0.0,0.0,0.0,0.0,0.0,0.0,0.0,0.0,0.0,0.0,0.0,0.0,0.0,0.0,0.0,0.0,0.0,0.0,0.0,0.0,0.0,0.0,0.0,0.0
2025/05/06 15:48:41.272349745,1746539320,523799994,world_ned,mA1/odom,-5.255085988542258,-12.472511335717384,0.43369352602475414,-0.0002968625014502295,-0.00016095153266807488,0.6732949813027478,0.7393738933177125,0.0,0.0,0.0,0.0,0.0,0.0,0.0,0.0,0.0,0.0,0.0,0.0,0.0,0.0,0.0,0.0,0.0,0.0,0.0,0.0,0.0,0.0,0.0,0.0,0.0,0.0,0.0,0.0,0.0,0.0,0.0,0.0,0.0,0.0,0.0,0.0,0.004650042350859727,-0.0076930326831386835,-5.7728530095495894e-05,-0.0003206920552670731,0.0002659396691701716,1.7278128824572232e-05,0.0,0.0,0.0,0.0,0.0,0.0,0.0,0.0,0.0,0.0,0.0,0.0,0.0,0.0,0.0,0.0,0.0,0.0,0.0,0.0,0.0,0.0,0.0,0.0,0.0,0.0,0.0,0.0,0.0,0.0,0.0,0.0,0.0,0.0,0.0,0.0
2025/05/06 15:48:41.272417807,1746539320,623640407,world_ned,mA1/odom,-5.254231610027071,-12.471906629973423,0.4336871586027075,-0.00029580586483446923,-0.00017979369289532272,0.6732978213275895,0.7393713031817232,0.0,0.0,0.0,0.0,0.0,0.0,0.0,0.0,0.0,0.0,0.0,0.0,0.0,0.0,0.0,0.0,0.0,0.0,0.0,0.0,0.0,0.0,0.0,0.0,0.0,0.0,0.0,0.0,0.0,0.0,0.0,0.0,0.0,0.0,0.0,0.0,0.009992308048703356,-0.008123145188384704,-7.128902460434341e-05,-0.00018561223572984036,-0.0011221689176905865,0.00011629669853468014,0.0,0.0,0.0,0.0,0.0,0.0,0.0,0.0,0.0,0.0,0.0,0.0,0.0,0.0,0.0,0.0,0.0,0.0,0.0,0.0,0.0,0.0,0.0,0.0,0.0,0.0,0.0,0.0,0.0,0.0,0.0,0.0,0.0,0.0,0.0,0.0
2025/05/06 15:48:41.554196657,1746539320,719320404,world_ned,mA1/odom,-5.253340021916682,-12.471310563344323,0.4336810082384379,-0.0002966486662033531,-0.00018881903056501141,0.6733036265227444,0.7393660141352612,0.0,0.0,0.0,0.0,0.0,0.0,0.0,0.0,0.0,0.0,0.0,0.0,0.0,0.0,0.0,0.0,0.0,0.0,0.0,0.0,0.0,0.0,0.0,0.0,0.0,0.0,0.0,0.0,0.0,0.0,0.0,0.0,0.0,0.0,0.0,0.0,0.0054766288469211884,-0.008481649703855804,-6.0866359878328326e-05,-8.76865415340651e-05,0.00032538943120124814,0.00018985821529634957,0.0,0.0,0.0,0.0,0.0,0.0,0.0,0.0,0.0,0.0,0.0,0.0,0.0,0.0,0.0,0.0,0.0,0.0,0.0,0.0,0.0,0.0,0.0,0.0,0.0,0.0,0.0,0.0,0.0,0.0,0.0,0.0,0.0,0.0,0.0,0.0
2025/05/06 15:48:41.554252306,1746539320,819615585,world_ned,mA1/odom,-5.252394971315099,-12.470533376289588,0.43367686699506297,-0.00028264971457724525,-0.00020629787067015385,0.6733118298664714,0.7393585444912308,0.0,0.0,0.0,0.0,0.0,0.0,0.0,0.0,0.0,0.0,0.0,0.0,0.0,0.0,0.0,0.0,0.0,0.0,0.0,0.0,0.0,0.0,0.0,0.0,0.0,0.0,0.0,0.0,0.0,0.0,0.0,0.0,0.0,0.0,0.0,0.0,0.014457869838636606,-0.008977396075812475,-3.125813871679404e-05,9.82441281972961e-05,-0.0019889000204098596,0.00018860188383023376,0.0,0.0,0.0,0.0,0.0,0.0,0.0,0.0,0.0,0.0,0.0,0.0,0.0,0.0,0.0,0.0,0.0,0.0,0.0,0.0,0.0,0.0,0.0,0.0,0.0,0.0,0.0,0.0,0.0,0.0,0.0,0.0,0.0,0.0,0.0,0.0
2025/05/06 15:48:41.554290407,1746539320,923120688,world_ned,mA1/odom,-5.2513723060943,-12.469820429642757,0.4336762903686898,-0.0002694263018320364,-0.00019364043717424152,0.6733124262685363,0.7393580097254819,0.0,0.0,0.0,0.0,0.0,0.0,0.0,0.0,0.0,0.0,0.0,0.0,0.0,0.0,0.0,0.0,0.0,0.0,0.0,0.0,0.0,0.0,0.0,0.0,0.0,0.0,0.0,0.0,0.0,0.0,0.0,0.0,0.0,0.0,0.0,0.0,0.009628803947980947,-0.009613195932515146,2.989442508186157e-06,0.0003644917761701281,-0.0002663018530121636,4.149459654941803e-06,0.0,0.0,0.0,0.0,0.0,0.0,0.0,0.0,0.0,0.0,0.0,0.0,0.0,0.0,0.0,0.0,0.0,0.0,0.0,0.0,0.0,0.0,0.0,0.0,0.0,0.0,0.0,0.0,0.0,0.0,0.0,0.0,0.0,0.0,0.0,0.0
2025/05/06 15:48:41.554326607,1746539321,21324014,world_ned,mA1/odom,-5.250319841511703,-12.468925740353692,0.4336790932659963,-0.00025406755423093075,-0.00018949581457252567,0.6733129545912613,0.739357535107745,0.0,0.0,0.0,0.0,0.0,0.0,0.0,0.0,0.0,0.0,0.0,0.0,0.0,0.0,0.0,0.0,0.0,0.0,0.0,0.0,0.0,0.0,0.0,0.0,0.0,0.0,0.0,0.0,0.0,0.0,0.0,0.0,0.0,0.0,0.0,0.0,0.005756428846219187,-0.009651017701161318,4.475971261991206e-05,0.00019167916451720798,0.001161119326718044,2.2152615266102495e-05,0.0,0.0,0.0,0.0,0.0,0.0,0.0,0.0,0.0,0.0,0.0,0.0,0.0,0.0,0.0,0.0,0.0,0.0,0.0,0.0,0.0,0.0,0.0,0.0,0.0,0.0,0.0,0.0,0.0,0.0,0.0,0.0,0.0,0.0,0.0,0.0
2025/05/06 15:48:41.554362614,1746539321,117144238,world_ned,mA1/odom,-5.249263803848646,-12.468009400706908,0.43368402286474284,-0.00025522946818189824,-0.00018208353454024454,0.6733141222257605,0.7393564732352444,0.0,0.0,0.0,0.0,0.0,0.0,0.0,0.0,0.0,0.0,0.0,0.0,0.0,0.0,0.0,0.0,0.0,0.0,0.0,0.0,0.0,0.0,0.0,0.0,0.0,0.0,0.0,0.0,0.0,0.0,0.0,0.0,0.0,0.0,0.0,0.0,0.015210787959361632,-0.009667923822844454,5.29384435315993e-05,-3.297818595277614e-06,-0.0011468331393905485,3.927237396629893e-05,0.0,0.0,0.0,0.0,0.0,0.0,0.0,0.0,0.0,0.0,0.0,0.0,0.0,0.0,0.0,0.0,0.0,0.0,0.0,0.0,0.0,0.0,0.0,0.0,0.0,0.0,0.0,0.0,0.0,0.0,0.0,0.0,0.0,0.0,0.0,0.0
2025/05/06 15:48:41.947628468,1746539321,217741543,world_ned,mA1/odom,-5.248191796575035,-12.466929810097152,0.4336901570579165,-0.0002591145944520337,-0.00018749222006942477,0.6733159079818153,0.7393548442831209,0.0,0.0,0.0,0.0,0.0,0.0,0.0,0.0,0.0,0.0,0.0,0.0,0.0,0.0,0.0,0.0,0.0,0.0,0.0,0.0,0.0,0.0,0.0,0.0,0.0,0.0,0.0,0.0,0.0,0.0,0.0,0.0,0.0,0.0,0.0,0.0,0.014233457700499977,-0.00965949970065068,5.396762956531346e-05,-0.00022850034385640456,-0.0005950948993748574,5.641205599337073e-05,0.0,0.0,0.0,0.0,0.0,0.0,0.0,0.0,0.0,0.0,0.0,0.0,0.0,0.0,0.0,0.0,0.0,0.0,0.0,0.0,0.0,0.0,0.0,0.0,0.0,0.0,0.0,0.0,0.0,0.0,0.0,0.0,0.0,0.0,0.0,0.0
2025/05/06 15:48:42.158265858,1746539321,317578416,world_ned,mA1/odom,-5.247124652831464,-12.465775937389493,0.4336954907468754,-0.000276650883177207,-0.0001989911248574187,0.6733193044484613,0.7393517418143148,0.0,0.0,0.0,0.0,0.0,0.0,0.0,0.0,0.0,0.0,0.0,0.0,0.0,0.0,0.0,0.0,0.0,0.0,0.0,0.0,0.0,0.0,0.0,0.0,0.0,0.0,0.0,0.0,0.0,0.0,0.0,0.0,0.0,0.0,0.0,0.0,0.014348141893695859,-0.009459173699966485,4.239896935184596e-05,-0.0005586002719907144,-0.00033348905465307803,0.0001255158423056418,0.0,0.0,0.0,0.0,0.0,0.0,0.0,0.0,0.0,0.0,0.0,0.0,0.0,0.0,0.0,0.0,0.0,0.0,0.0,0.0,0.0,0.0,0.0,0.0,0.0,0.0,0.0,0.0,0.0,0.0,0.0,0.0,0.0,0.0,0.0,0.0
2025/05/06 15:48:42.158344530,1746539321,424711126,world_ned,mA1/odom,-5.246081656390974,-12.46470849238783,0.43369882864925513,-0.00032157690849695834,-0.00019964829591368879,0.6733254206120854,0.7393461534940236,0.0,0.0,0.0,0.0,0.0,0.0,0.0,0.0,0.0,0.0,0.0,0.0,0.0,0.0,0.0,0.0,0.0,0.0,0.0,0.0,0.0,0.0,0.0,0.0,0.0,0.0,0.0,0.0,0.0,0.0,0.0,0.0,0.0,0.0,0.0,0.0,0.004583312998125183,-0.00934514621458595,1.9525885253843663e-05,-0.000747967990056567,0.0026757758072611165,0.0001984328367284359,0.0,0.0,0.0,0.0,0.0,0.0,0.0,0.0,0.0,0.0,0.0,0.0,0.0,0.0,0.0,0.0,0.0,0.0,0.0,0.0,0.0,0.0,0.0,0.0,0.0,0.0,0.0,0.0,0.0,0.0,0.0,0.0,0.0,0.0,0.0,0.0
2025/05/06 15:48:42.158383634,1746539321,520130322,world_ned,mA1/odom,-5.245019177160734,-12.463373550309711,0.4336991539479476,-0.0003517139070002943,-0.00022384378259804135,0.6733341788412954,0.7393381565937248,0.0,0.0,0.0,0.0,0.0,0.0,0.0,0.0,0.0,0.0,0.0,0.0,0.0,0.0,0.0,0.0,0.0,0.0,0.0,0.0,0.0,0.0,0.0,0.0,0.0,0.0,0.0,0.0,0.0,0.0,0.0,0.0,0.0,0.0,0.0,0.0,0.020768159148321426,-0.00934303329818066,-1.77867846950998e-05,-0.0007599782257415121,-0.0016999395388557288,0.0002685264068055516,0.0,0.0,0.0,0.0,0.0,0.0,0.0,0.0,0.0,0.0,0.0,0.0,0.0,0.0,0.0,0.0,0.0,0.0,0.0,0.0,0.0,0.0,0.0,0.0,0.0,0.0,0.0,0.0,0.0,0.0,0.0,0.0,0.0,0.0,0.0,0.0
2025/05/06 15:48:42.158420636,1746539321,616084495,world_ned,mA1/odom,-5.243949617149586,-12.462032989403111,0.43369529316280664,-0.0003826232219675588,-0.00024127220813376205,0.6733452055621498,0.7393280932939433,0.0,0.0,0.0,0.0,0.0,0.0,0.0,0.0,0.0,0.0,0.0,0.0,0.0,0.0,0.0,0.0,0.0,0.0,0.0,0.0,0.0,0.0,0.0,0.0,0.0,0.0,0.0,0.0,0.0,0.0,0.0,0.0,0.0,0.0,0.0,0.0,0.013112467585738898,-0.009597129294700394,-5.331271911860479e-05,-0.0005179916377869195,0.0005722478082552185,0.00026526391738340563,0.0,0.0,0.0,0.0,0.0,0.0,0.0,0.0,0.0,0.0,0.0,0.0,0.0,0.0,0.0,0.0,0.0,0.0,0.0,0.0,0.0,0.0,0.0,0.0,0.0,0.0,0.0,0.0,0.0,0.0,0.0,0.0,0.0,0.0,0.0,0.0
2025/05/06 15:48:43.122474123,1746539321,818994313,world_ned,mA1/odom,-5.241640738442482,-12.459135391802548,0.43367590887192303,-0.000390291668371495,-0.00022941564546082673,0.6733494582978754,0.739324219845957,0.0,0.0,0.0,0.0,0.0,0.0,0.0,0.0,0.0,0.0,0.0,0.0,0.0,0.0,0.0,0.0,0.0,0.0,0.0,0.0,0.0,0.0,0.0,0.0,0.0,0.0,0.0,0.0,0.0,0.0,0.0,0.0,0.0,0.0,0.0,0.0,0.016400659779804018,-0.010101282995796764,-9.739803797470627e-05,0.0001424848936044185,1.6966562919971534e-05,6.23432205386819e-05,0.0,0.0,0.0,0.0,0.0,0.0,0.0,0.0,0.0,0.0,0.0,0.0,0.0,0.0,0.0,0.0,0.0,0.0,0.0,0.0,0.0,0.0,0.0,0.0,0.0,0.0,0.0,0.0,0.0,0.0,0.0,0.0,0.0,0.0,0.0,0.0
2025/05/06 15:48:43.122539924,1746539321,920607619,world_ned,mA1/odom,-5.240483532748617,-12.45755690739001,0.43366889769598216,-0.0003822228590278639,-0.00022480484546555217,0.6733521293153647,0.7393217928040076,0.0,0.0,0.0,0.0,0.0,0.0,0.0,0.0,0.0,0.0,0.0,0.0,0.0,0.0,0.0,0.0,0.0,0.0,0.0,0.0,0.0,0.0,0.0,0.0,0.0,0.0,0.0,0.0,0.0,0.0,0.0,0.0,0.0,0.0,0.0,0.0,0.01711201733989722,-0.010006568674518025,-5.900144163058244e-05,0.0002072524926797093,-8.794851524370617e-05,8.013254699097346e-05,0.0,0.0,0.0,0.0,0.0,0.0,0.0,0.0,0.0,0.0,0.0,0.0,0.0,0.0,0.0,0.0,0.0,0.0,0.0,0.0,0.0,0.0,0.0,0.0,0.0,0.0,0.0,0.0,0.0,0.0,0.0,0.0,0.0,0.0,0.0,0.0
2025/05/06 15:48:43.122577367,1746539322,22522832,world_ned,mA1/odom,-5.239329051018842,-12.455908037386688,0.43366670060712087,-0.0003699493047086192,-0.00022098290846008436,0.6733553801349933,0.7393188394375764,0.0,0.0,0.0,0.0,0.0,0.0,0.0,0.0,0.0,0.0,0.0,0.0,0.0,0.0,0.0,0.0,0.0,0.0,0.0,0.0,0.0,0.0,0.0,0.0,0.0,0.0,0.0,0.0,0.0,0.0,0.0,0.0,0.0,0.0,0.0,0.0,0.014519577037455135,-0.009913422130696398,-2.5675858025922947e-06,0.00024315222999939201,0.0007910197893299163,9.401829741764962e-05,0.0,0.0,0.0,0.0,0.0,0.0,0.0,0.0,0.0,0.0,0.0,0.0,0.0,0.0,0.0,0.0,0.0,0.0,0.0,0.0,0.0,0.0,0.0,0.0,0.0,0.0,0.0,0.0,0.0,0.0,0.0,0.0,0.0,0.0,0.0,0.0
2025/05/06 15:48:43.122613504,1746539322,116682247,world_ned,mA1/odom,-5.238180525485875,-12.454207007176864,0.43366971039033575,-0.00035785914026477677,-0.00021654718929203532,0.673359138144027,0.7393154239714492,0.0,0.0,0.0,0.0,0.0,0.0,0.0,0.0,0.0,0.0,0.0,0.0,0.0,0.0,0.0,0.0,0.0,0.0,0.0,0.0,0.0,0.0,0.0,0.0,0.0,0.0,0.0,0.0,0.0,0.0,0.0,0.0,0.0,0.0,0.0,0.0,0.018030429929493448,-0.009792181940772181,3.992635908017565e-05,0.00022032458287991156,-4.1433834354418605e-05,0.00010751925200720331,0.0,0.0,0.0,0.0,0.0,0.0,0.0,0.0,0.0,0.0,0.0,0.0,0.0,0.0,0.0,0.0,0.0,0.0,0.0,0.0,0.0,0.0,0.0,0.0,0.0,0.0,0.0,0.0,0.0,0.0,0.0,0.0,0.0,0.0,0.0,0.0
2025/05/06 15:48:43.468973623,1746539322,224624997,world_ned,mA1/odom,-5.237029963675769,-12.452338188032371,0.43367566814655434,-0.00033692559809602335,-0.00022613948845809058,0.6733633770156159,0.7393115702031172,0.0,0.0,0.0,0.0,0.0,0.0,0.0,0.0,0.0,0.0,0.0,0.0,0.0,0.0,0.0,0.0,0.0,0.0,0.0,0.0,0.0,0.0,0.0,0.0,0.0,0.0,0.0,0.0,0.0,0.0,0.0,0.0,0.0,0.0,0.0,0.0,0.020180006080021875,-0.009647490672248656,5.671309648463258e-05,0.0001408425551499121,-0.0004920663380476008,0.00012011269113546017,0.0,0.0,0.0,0.0,0.0,0.0,0.0,0.0,0.0,0.0,0.0,0.0,0.0,0.0,0.0,0.0,0.0,0.0,0.0,0.0,0.0,0.0,0.0,0.0,0.0,0.0,0.0,0.0,0.0,0.0,0.0,0.0,0.0,0.0,0.0,0.0
2025/05/06 15:48:43.469046448,1746539322,317508431,world_ned,mA1/odom,-5.235900778783235,-12.45053501843089,0.4336836608399216,-0.0003320900116424456,-0.00022483460650270964,0.6733681011826469,0.7393072700003026,0.0,0.0,0.0,0.0,0.0,0.0,0.0,0.0,0.0,0.0,0.0,0.0,0.0,0.0,0.0,0.0,0.0,0.0,0.0,0.0,0.0,0.0,0.0,0.0,0.0,0.0,0.0,0.0,0.0,0.0,0.0,0.0,0.0,0.0,0.0,0.0,0.019369594963258394,-0.009478006685962203,8.376885727053465e-05,4.334073081184051e-05,-1.778146733653441e-05,0.00013796533017625882,0.0,0.0,0.0,0.0,0.0,0.0,0.0,0.0,0.0,0.0,0.0,0.0,0.0,0.0,0.0,0.0,0.0,0.0,0.0,0.0,0.0,0.0,0.0,0.0,0.0,0.0,0.0,0.0,0.0,0.0,0.0,0.0,0.0,0.0,0.0,0.0
2025/05/06 15:48:43.469085871,1746539322,421637871,world_ned,mA1/odom,-5.234781261151871,-12.448526273103367,0.43369378269588676,-0.0003247707606642302,-0.0002400267464937183,0.673374757753999,0.7393012055521465,0.0,0.0,0.0,0.0,0.0,0.0,0.0,0.0,0.0,0.0,0.0,0.0,0.0,0.0,0.0,0.0,0.0,0.0,0.0,0.0,0.0,0.0,0.0,0.0,0.0,0.0,0.0,0.0,0.0,0.0,0.0,0.0,0.0,0.0,0.0,0.0,0.024595975171517837,-0.009112239915824135,0.00010076325036024704,-0.0002087659952317638,-0.0011852210103078763,0.00021612744008617625,0.0,0.0,0.0,0.0,0.0,0.0,0.0,0.0,0.0,0.0,0.0,0.0,0.0,0.0,0.0,0.0,0.0,0.0,0.0,0.0,0.0,0.0,0.0,0.0,0.0,0.0,0.0,0.0,0.0,0.0,0.0,0.0,0.0,0.0,0.0,0.0
2025/05/06 15:48:43.469123752,1746539322,526063956,world_ned,mA1/odom,-5.2336937934935435,-12.446498932979718,0.43370367364376833,-0.0003350296067256769,-0.00025172379852052057,0.6733843449877526,0.7392924646685554,0.0,0.0,0.0,0.0,0.0,0.0,0.0,0.0,0.0,0.0,0.0,0.0,0.0,0.0,0.0,0.0,0.0,0.0,0.0,0.0,0.0,0.0,0.0,0.0,0.0,0.0,0.0,0.0,0.0,0.0,0.0,0.0,0.0,0.0,0.0,0.0,0.021510008666784826,-0.008806492162268439,7.285394431444291e-05,-0.0003840240551192758,2.4556239273607218e-05,0.0002944691715141361,0.0,0.0,0.0,0.0,0.0,0.0,0.0,0.0,0.0,0.0,0.0,0.0,0.0,0.0,0.0,0.0,0.0,0.0,0.0,0.0,0.0,0.0,0.0,0.0,0.0,0.0,0.0,0.0,0.0,0.0,0.0,0.0,0.0,0.0,0.0,0.0
