time,header_stamp_secs,header_stamp_nsecs,header_frame_id,name_0,name_1,name_2,name_3,position_0,position_1,position_2,position_3
2025/05/06 15:48:32.63793378,0,0,,mA1/azimuth_1_joint,mA1/azimuth_2_joint,mA1/azimuth_3_joint,mA1/azimuth_4_joint,2.356194490192345,-2.356194490192345,-0.7853981633974483,0.7853981633974483
2025/05/06 15:48:32.165352494,0,0,,mA1/azimuth_1_joint,mA1/azimuth_2_joint,mA1/azimuth_3_joint,mA1/azimuth_4_joint,2.356194490192345,-2.356194490192345,-0.7853981633974483,0.7853981633974483
2025/05/06 15:48:32.263060242,0,0,,mA1/azimuth_1_joint,mA1/azimuth_2_joint,mA1/azimuth_3_joint,mA1/azimuth_4_joint,2.356194490192345,-2.356194490192345,-0.7853981633974483,0.7853981633974483
2025/05/06 15:48:32.363824584,0,0,,mA1/azimuth_1_joint,mA1/azimuth_2_joint,mA1/azimuth_3_joint,mA1/azimuth_4_joint,2.356194490192345,-2.356194490192345,-0.7853981633974483,0.7853981633974483
2025/05/06 15:48:32.463538469,0,0,,mA1/azimuth_1_joint,mA1/azimuth_2_joint,mA1/azimuth_3_joint,mA1/azimuth_4_joint,2.356194490192345,-2.356194490192345,-0.7853981633974483,0.7853981633974483
2025/05/06 15:48:32.563474259,0,0,,mA1/azimuth_1_joint,mA1/azimuth_2_joint,mA1/azimuth_3_joint,mA1/azimuth_4_joint,2.356194490192345,-2.356194490192345,-0.7853981633974483,0.7853981633974483
2025/05/06 15:48:32.663388045,0,0,,mA1/azimuth_1_joint,mA1/azimuth_2_joint,mA1/azimuth_3_joint,mA1/azimuth_4_joint,2.356194490192345,-2.356194490192345,-0.7853981633974483,0.7853981633974483
2025/05/06 15:48:32.763140243,0,0,,mA1/azimuth_1_joint,mA1/azimuth_2_joint,mA1/azimuth_3_joint,mA1/azimuth_4_joint,2.356194490192345,-2.356194490192345,-0.7853981633974483,0.7853981633974483
2025/05/06 15:48:32.865231928,0,0,,mA1/azimuth_1_joint,mA1/azimuth_2_joint,mA1/azimuth_3_joint,mA1/azimuth_4_joint,2.356194490192345,-2.356194490192345,-0.7853981633974483,0.7853981633974483
2025/05/06 15:48:32.967964348,0,0,,mA1/azimuth_1_joint,mA1/azimuth_2_joint,mA1/azimuth_3_joint,mA1/azimuth_4_joint,2.356194490192345,-2.356194490192345,-0.7853981633974483,0.7853981633974483
2025/05/06 15:48:33.65019033,0,0,,mA1/azimuth_1_joint,mA1/azimuth_2_joint,mA1/azimuth_3_joint,mA1/azimuth_4_joint,2.356194490192345,-2.356194490192345,-0.7853981633974483,0.7853981633974483
2025/05/06 15:48:33.173447510,0,0,,mA1/azimuth_1_joint,mA1/azimuth_2_joint,mA1/azimuth_3_joint,mA1/azimuth_4_joint,2.356194490192345,-2.356194490192345,-0.7853981633974483,0.7853981633974483
2025/05/06 15:48:33.266303325,0,0,,mA1/azimuth_1_joint,mA1/azimuth_2_joint,mA1/azimuth_3_joint,mA1/azimuth_4_joint,2.356194490192345,-2.356194490192345,-0.7853981633974483,0.7853981633974483
2025/05/06 15:48:33.364770602,0,0,,mA1/azimuth_1_joint,mA1/azimuth_2_joint,mA1/azimuth_3_joint,mA1/azimuth_4_joint,2.356194490192345,-2.356194490192345,-0.7853981633974483,0.7853981633974483
2025/05/06 15:48:33.470451575,0,0,,mA1/azimuth_1_joint,mA1/azimuth_2_joint,mA1/azimuth_3_joint,mA1/azimuth_4_joint,2.3387411976724017,-2.356194490192345,-0.7853981633974483,0.7853981633974483
2025/05/06 15:48:33.566457230,0,0,,mA1/azimuth_1_joint,mA1/azimuth_2_joint,mA1/azimuth_3_joint,mA1/azimuth_4_joint,2.3387411976724017,-2.356194490192345,-0.767944870877505,0.7853981633974483
2025/05/06 15:48:33.663064598,0,0,,mA1/azimuth_1_joint,mA1/azimuth_2_joint,mA1/azimuth_3_joint,mA1/azimuth_4_joint,2.3387411976724017,-2.356194490192345,-0.767944870877505,0.7853981633974483
2025/05/06 15:48:33.763899281,0,0,,mA1/azimuth_1_joint,mA1/azimuth_2_joint,mA1/azimuth_3_joint,mA1/azimuth_4_joint,2.3387411976724017,-2.3387411976724017,-0.7853981633974483,0.7853981633974483
2025/05/06 15:48:33.864559885,0,0,,mA1/azimuth_1_joint,mA1/azimuth_2_joint,mA1/azimuth_3_joint,mA1/azimuth_4_joint,2.3387411976724017,-2.356194490192345,-0.767944870877505,0.7853981633974483
2025/05/06 15:48:33.965175417,0,0,,mA1/azimuth_1_joint,mA1/azimuth_2_joint,mA1/azimuth_3_joint,mA1/azimuth_4_joint,2.3387411976724017,-2.356194490192345,-0.767944870877505,0.7853981633974483
2025/05/06 15:48:34.65223232,0,0,,mA1/azimuth_1_joint,mA1/azimuth_2_joint,mA1/azimuth_3_joint,mA1/azimuth_4_joint,2.356194490192345,-2.3387411976724017,-0.7853981633974483,0.767944870877505
2025/05/06 15:48:34.163212743,0,0,,mA1/azimuth_1_joint,mA1/azimuth_2_joint,mA1/azimuth_3_joint,mA1/azimuth_4_joint,2.356194490192345,-2.3387411976724017,-0.7853981633974483,0.767944870877505
2025/05/06 15:48:34.264164623,0,0,,mA1/azimuth_1_joint,mA1/azimuth_2_joint,mA1/azimuth_3_joint,mA1/azimuth_4_joint,2.356194490192345,-2.3387411976724017,-0.7853981633974483,0.767944870877505
2025/05/06 15:48:34.364108013,0,0,,mA1/azimuth_1_joint,mA1/azimuth_2_joint,mA1/azimuth_3_joint,mA1/azimuth_4_joint,2.356194490192345,-2.321287905152458,-0.8028514559173916,0.767944870877505
2025/05/06 15:48:34.463404483,0,0,,mA1/azimuth_1_joint,mA1/azimuth_2_joint,mA1/azimuth_3_joint,mA1/azimuth_4_joint,2.356194490192345,-2.3387411976724017,-0.7853981633974483,0.767944870877505
2025/05/06 15:48:34.564495039,0,0,,mA1/azimuth_1_joint,mA1/azimuth_2_joint,mA1/azimuth_3_joint,mA1/azimuth_4_joint,2.356194490192345,-2.321287905152458,-0.8028514559173916,0.767944870877505
2025/05/06 15:48:34.665523616,0,0,,mA1/azimuth_1_joint,mA1/azimuth_2_joint,mA1/azimuth_3_joint,mA1/azimuth_4_joint,2.356194490192345,-2.321287905152458,-0.8028514559173916,0.767944870877505
2025/05/06 15:48:34.762995221,0,0,,mA1/azimuth_1_joint,mA1/azimuth_2_joint,mA1/azimuth_3_joint,mA1/azimuth_4_joint,2.356194490192345,-2.321287905152458,-0.8028514559173916,0.767944870877505
2025/05/06 15:48:34.862847209,0,0,,mA1/azimuth_1_joint,mA1/azimuth_2_joint,mA1/azimuth_3_joint,mA1/azimuth_4_joint,2.356194490192345,-2.3387411976724017,-0.7853981633974483,0.767944870877505
2025/05/06 15:48:34.963392009,0,0,,mA1/azimuth_1_joint,mA1/azimuth_2_joint,mA1/azimuth_3_joint,mA1/azimuth_4_joint,2.356194490192345,-2.321287905152458,-0.8028514559173916,0.767944870877505
2025/05/06 15:48:35.63431795,0,0,,mA1/azimuth_1_joint,mA1/azimuth_2_joint,mA1/azimuth_3_joint,mA1/azimuth_4_joint,2.356194490192345,-2.3387411976724017,-0.7853981633974483,0.767944870877505
2025/05/06 15:48:35.163103079,0,0,,mA1/azimuth_1_joint,mA1/azimuth_2_joint,mA1/azimuth_3_joint,mA1/azimuth_4_joint,2.356194490192345,-2.3387411976724017,-0.7853981633974483,0.767944870877505
2025/05/06 15:48:35.263921630,0,0,,mA1/azimuth_1_joint,mA1/azimuth_2_joint,mA1/azimuth_3_joint,mA1/azimuth_4_joint,2.356194490192345,-2.3387411976724017,-0.7853981633974483,0.767944870877505
2025/05/06 15:48:35.369859094,0,0,,mA1/azimuth_1_joint,mA1/azimuth_2_joint,mA1/azimuth_3_joint,mA1/azimuth_4_joint,2.356194490192345,-2.3387411976724017,-0.7853981633974483,0.767944870877505
2025/05/06 15:48:35.469384981,0,0,,mA1/azimuth_1_joint,mA1/azimuth_2_joint,mA1/azimuth_3_joint,mA1/azimuth_4_joint,2.3387411976724017,-2.3387411976724017,-0.7853981633974483,0.7853981633974483
2025/05/06 15:48:35.571944867,0,0,,mA1/azimuth_1_joint,mA1/azimuth_2_joint,mA1/azimuth_3_joint,mA1/azimuth_4_joint,2.356194490192345,-2.3387411976724017,-0.7853981633974483,0.767944870877505
2025/05/06 15:48:35.669200142,0,0,,mA1/azimuth_1_joint,mA1/azimuth_2_joint,mA1/azimuth_3_joint,mA1/azimuth_4_joint,2.3387411976724017,-2.3387411976724017,-0.7853981633974483,0.7853981633974483
2025/05/06 15:48:35.782325074,0,0,,mA1/azimuth_1_joint,mA1/azimuth_2_joint,mA1/azimuth_3_joint,mA1/azimuth_4_joint,2.3387411976724017,-2.356194490192345,-0.767944870877505,0.7853981633974483
2025/05/06 15:48:35.869164288,0,0,,mA1/azimuth_1_joint,mA1/azimuth_2_joint,mA1/azimuth_3_joint,mA1/azimuth_4_joint,2.3387411976724017,-2.356194490192345,-0.767944870877505,0.7853981633974483
2025/05/06 15:48:35.970465248,0,0,,mA1/azimuth_1_joint,mA1/azimuth_2_joint,mA1/azimuth_3_joint,mA1/azimuth_4_joint,2.3387411976724017,-2.3387411976724017,-0.7853981633974483,0.7853981633974483
2025/05/06 15:48:36.75345586,0,0,,mA1/azimuth_1_joint,mA1/azimuth_2_joint,mA1/azimuth_3_joint,mA1/azimuth_4_joint,2.3387411976724017,-2.3387411976724017,-0.7853981633974483,0.7853981633974483
2025/05/06 15:48:36.167414236,0,0,,mA1/azimuth_1_joint,mA1/azimuth_2_joint,mA1/azimuth_3_joint,mA1/azimuth_4_joint,2.3387411976724017,-2.356194490192345,-0.767944870877505,0.7853981633974483
2025/05/06 15:48:36.295248725,0,0,,mA1/azimuth_1_joint,mA1/azimuth_2_joint,mA1/azimuth_3_joint,mA1/azimuth_4_joint,2.3387411976724017,-2.3387411976724017,-0.7853981633974483,0.7853981633974483
2025/05/06 15:48:36.368372877,0,0,,mA1/azimuth_1_joint,mA1/azimuth_2_joint,mA1/azimuth_3_joint,mA1/azimuth_4_joint,2.3387411976724017,-2.356194490192345,-0.767944870877505,0.7853981633974483
2025/05/06 15:48:36.489172113,0,0,,mA1/azimuth_1_joint,mA1/azimuth_2_joint,mA1/azimuth_3_joint,mA1/azimuth_4_joint,2.3387411976724017,-2.356194490192345,-0.767944870877505,0.7853981633974483
2025/05/06 15:48:36.565045081,0,0,,mA1/azimuth_1_joint,mA1/azimuth_2_joint,mA1/azimuth_3_joint,mA1/azimuth_4_joint,2.3387411976724017,-2.3387411976724017,-0.7853981633974483,0.7853981633974483
2025/05/06 15:48:36.671063071,0,0,,mA1/azimuth_1_joint,mA1/azimuth_2_joint,mA1/azimuth_3_joint,mA1/azimuth_4_joint,2.3387411976724017,-2.356194490192345,-0.767944870877505,0.7853981633974483
2025/05/06 15:48:36.766595813,0,0,,mA1/azimuth_1_joint,mA1/azimuth_2_joint,mA1/azimuth_3_joint,mA1/azimuth_4_joint,2.3387411976724017,-2.356194490192345,-0.767944870877505,0.7853981633974483
2025/05/06 15:48:36.887990540,0,0,,mA1/azimuth_1_joint,mA1/azimuth_2_joint,mA1/azimuth_3_joint,mA1/azimuth_4_joint,2.3387411976724017,-2.356194490192345,-0.767944870877505,0.7853981633974483
2025/05/06 15:48:36.991339319,0,0,,mA1/azimuth_1_joint,mA1/azimuth_2_joint,mA1/azimuth_3_joint,mA1/azimuth_4_joint,2.3387411976724017,-2.356194490192345,-0.767944870877505,0.7853981633974483
2025/05/06 15:48:37.73600664,0,0,,mA1/azimuth_1_joint,mA1/azimuth_2_joint,mA1/azimuth_3_joint,mA1/azimuth_4_joint,2.3387411976724017,-2.3387411976724017,-0.7853981633974483,0.7853981633974483
2025/05/06 15:48:37.177723816,0,0,,mA1/azimuth_1_joint,mA1/azimuth_2_joint,mA1/azimuth_3_joint,mA1/azimuth_4_joint,2.3387411976724017,-2.3387411976724017,-0.7853981633974483,0.7853981633974483
2025/05/06 15:48:37.399008573,0,0,,mA1/azimuth_1_joint,mA1/azimuth_2_joint,mA1/azimuth_3_joint,mA1/azimuth_4_joint,2.356194490192345,-2.3387411976724017,-0.7853981633974483,0.767944870877505
2025/05/06 15:48:37.451382924,0,0,,mA1/azimuth_1_joint,mA1/azimuth_2_joint,mA1/azimuth_3_joint,mA1/azimuth_4_joint,2.356194490192345,-2.321287905152458,-0.8028514559173916,0.767944870877505
2025/05/06 15:48:37.515800163,0,0,,mA1/azimuth_1_joint,mA1/azimuth_2_joint,mA1/azimuth_3_joint,mA1/azimuth_4_joint,2.3736477827122884,-2.321287905152458,-0.8028514559173916,0.7504915783575618
2025/05/06 15:48:37.656888446,0,0,,mA1/azimuth_1_joint,mA1/azimuth_2_joint,mA1/azimuth_3_joint,mA1/azimuth_4_joint,2.3736477827122884,-2.321287905152458,-0.8028514559173916,0.7504915783575618
2025/05/06 15:48:37.738398197,0,0,,mA1/azimuth_1_joint,mA1/azimuth_2_joint,mA1/azimuth_3_joint,mA1/azimuth_4_joint,2.3736477827122884,-2.321287905152458,-0.8028514559173916,0.7504915783575618
2025/05/06 15:48:37.848604208,0,0,,mA1/azimuth_1_joint,mA1/azimuth_2_joint,mA1/azimuth_3_joint,mA1/azimuth_4_joint,2.3736477827122884,-2.321287905152458,-0.8028514559173916,0.7504915783575618
2025/05/06 15:48:37.946340879,0,0,,mA1/azimuth_1_joint,mA1/azimuth_2_joint,mA1/azimuth_3_joint,mA1/azimuth_4_joint,2.3736477827122884,-2.321287905152458,-0.8028514559173916,0.7504915783575618
2025/05/06 15:48:38.18394439,0,0,,mA1/azimuth_1_joint,mA1/azimuth_2_joint,mA1/azimuth_3_joint,mA1/azimuth_4_joint,2.3736477827122884,-2.321287905152458,-0.8028514559173916,0.7504915783575618
2025/05/06 15:48:38.78711755,0,0,,mA1/azimuth_1_joint,mA1/azimuth_2_joint,mA1/azimuth_3_joint,mA1/azimuth_4_joint,2.3736477827122884,-2.321287905152458,-0.8028514559173916,0.7504915783575618
2025/05/06 15:48:38.177174107,0,0,,mA1/azimuth_1_joint,mA1/azimuth_2_joint,mA1/azimuth_3_joint,mA1/azimuth_4_joint,2.3736477827122884,-2.321287905152458,-0.8028514559173916,0.7504915783575618
2025/05/06 15:48:38.283834209,0,0,,mA1/azimuth_1_joint,mA1/azimuth_2_joint,mA1/azimuth_3_joint,mA1/azimuth_4_joint,2.3736477827122884,-2.321287905152458,-0.7853981633974483,0.7504915783575618
2025/05/06 15:48:38.385282655,0,0,,mA1/azimuth_1_joint,mA1/azimuth_2_joint,mA1/azimuth_3_joint,mA1/azimuth_4_joint,2.3736477827122884,-2.321287905152458,-0.7853981633974483,0.7504915783575618
2025/05/06 15:48:38.468435300,0,0,,mA1/azimuth_1_joint,mA1/azimuth_2_joint,mA1/azimuth_3_joint,mA1/azimuth_4_joint,2.3736477827122884,-2.321287905152458,-0.7853981633974483,0.7504915783575618
2025/05/06 15:48:38.585976218,0,0,,mA1/azimuth_1_joint,mA1/azimuth_2_joint,mA1/azimuth_3_joint,mA1/azimuth_4_joint,2.3736477827122884,-2.321287905152458,-0.7853981633974483,0.7504915783575618
2025/05/06 15:48:38.775805854,0,0,,mA1/azimuth_1_joint,mA1/azimuth_2_joint,mA1/azimuth_3_joint,mA1/azimuth_4_joint,2.3736477827122884,-2.3387411976724017,-0.7853981633974483,0.7504915783575618
2025/05/06 15:48:38.816568494,0,0,,mA1/azimuth_1_joint,mA1/azimuth_2_joint,mA1/azimuth_3_joint,mA1/azimuth_4_joint,2.356194490192345,-2.3387411976724017,-0.7853981633974483,0.767944870877505
2025/05/06 15:48:38.872951109,0,0,,mA1/azimuth_1_joint,mA1/azimuth_2_joint,mA1/azimuth_3_joint,mA1/azimuth_4_joint,2.356194490192345,-2.356194490192345,-0.767944870877505,0.767944870877505
2025/05/06 15:48:38.986618928,0,0,,mA1/azimuth_1_joint,mA1/azimuth_2_joint,mA1/azimuth_3_joint,mA1/azimuth_4_joint,2.356194490192345,-2.3387411976724017,-0.7853981633974483,0.767944870877505
2025/05/06 15:48:39.182675559,0,0,,mA1/azimuth_1_joint,mA1/azimuth_2_joint,mA1/azimuth_3_joint,mA1/azimuth_4_joint,2.356194490192345,-2.3387411976724017,-0.7853981633974483,0.767944870877505
2025/05/06 15:48:39.228121911,0,0,,mA1/azimuth_1_joint,mA1/azimuth_2_joint,mA1/azimuth_3_joint,mA1/azimuth_4_joint,2.3736477827122884,-2.356194490192345,-0.767944870877505,0.767944870877505
2025/05/06 15:48:39.346013793,0,0,,mA1/azimuth_1_joint,mA1/azimuth_2_joint,mA1/azimuth_3_joint,mA1/azimuth_4_joint,2.356194490192345,-2.3387411976724017,-0.7853981633974483,0.767944870877505
2025/05/06 15:48:39.451755906,0,0,,mA1/azimuth_1_joint,mA1/azimuth_2_joint,mA1/azimuth_3_joint,mA1/azimuth_4_joint,2.3736477827122884,-2.356194490192345,-0.767944870877505,0.7504915783575618
2025/05/06 15:48:39.639212441,0,0,,mA1/azimuth_1_joint,mA1/azimuth_2_joint,mA1/azimuth_3_joint,mA1/azimuth_4_joint,2.3736477827122884,-2.356194490192345,-0.767944870877505,0.7504915783575618
2025/05/06 15:48:39.731407744,0,0,,mA1/azimuth_1_joint,mA1/azimuth_2_joint,mA1/azimuth_3_joint,mA1/azimuth_4_joint,2.356194490192345,-2.3387411976724017,-0.767944870877505,0.7504915783575618
2025/05/06 15:48:39.812305455,0,0,,mA1/azimuth_1_joint,mA1/azimuth_2_joint,mA1/azimuth_3_joint,mA1/azimuth_4_joint,2.356194490192345,-2.3387411976724017,-0.767944870877505,0.7504915783575618
2025/05/06 15:48:39.928488624,0,0,,mA1/azimuth_1_joint,mA1/azimuth_2_joint,mA1/azimuth_3_joint,mA1/azimuth_4_joint,2.356194490192345,-2.3387411976724017,-0.767944870877505,0.7504915783575618
2025/05/06 15:48:40.56856314,0,0,,mA1/azimuth_1_joint,mA1/azimuth_2_joint,mA1/azimuth_3_joint,mA1/azimuth_4_joint,2.356194490192345,-2.321287905152458,-0.767944870877505,0.7504915783575618
2025/05/06 15:48:40.195428565,0,0,,mA1/azimuth_1_joint,mA1/azimuth_2_joint,mA1/azimuth_3_joint,mA1/azimuth_4_joint,2.356194490192345,-2.321287905152458,-0.767944870877505,0.7504915783575618
2025/05/06 15:48:40.367419634,0,0,,mA1/azimuth_1_joint,mA1/azimuth_2_joint,mA1/azimuth_3_joint,mA1/azimuth_4_joint,2.356194490192345,-2.321287905152458,-0.767944870877505,0.7330382858376184
2025/05/06 15:48:40.434088239,0,0,,mA1/azimuth_1_joint,mA1/azimuth_2_joint,mA1/azimuth_3_joint,mA1/azimuth_4_joint,2.356194490192345,-2.321287905152458,-0.767944870877505,0.7330382858376184
2025/05/06 15:48:40.604172329,0,0,,mA1/azimuth_1_joint,mA1/azimuth_2_joint,mA1/azimuth_3_joint,mA1/azimuth_4_joint,2.356194490192345,-2.321287905152458,-0.767944870877505,0.7330382858376184
2025/05/06 15:48:40.764279035,0,0,,mA1/azimuth_1_joint,mA1/azimuth_2_joint,mA1/azimuth_3_joint,mA1/azimuth_4_joint,2.3387411976724017,-2.303834612632515,-0.767944870877505,0.7155849933176751
2025/05/06 15:48:40.920553903,0,0,,mA1/azimuth_1_joint,mA1/azimuth_2_joint,mA1/azimuth_3_joint,mA1/azimuth_4_joint,2.3387411976724017,-2.303834612632515,-0.767944870877505,0.7155849933176751
2025/05/06 15:48:41.19987295,0,0,,mA1/azimuth_1_joint,mA1/azimuth_2_joint,mA1/azimuth_3_joint,mA1/azimuth_4_joint,2.3387411976724017,-2.303834612632515,-0.7504915783575618,0.7155849933176751
2025/05/06 15:48:41.195997552,0,0,,mA1/azimuth_1_joint,mA1/azimuth_2_joint,mA1/azimuth_3_joint,mA1/azimuth_4_joint,2.3387411976724017,-2.303834612632515,-0.7504915783575618,0.7155849933176751
2025/05/06 15:48:41.414501942,0,0,,mA1/azimuth_1_joint,mA1/azimuth_2_joint,mA1/azimuth_3_joint,mA1/azimuth_4_joint,2.3387411976724017,-2.303834612632515,-0.7504915783575618,0.7155849933176751
2025/05/06 15:48:41.473289698,0,0,,mA1/azimuth_1_joint,mA1/azimuth_2_joint,mA1/azimuth_3_joint,mA1/azimuth_4_joint,2.321287905152458,-2.303834612632515,-0.7504915783575618,0.7155849933176751
2025/05/06 15:48:41.554175219,0,0,,mA1/azimuth_1_joint,mA1/azimuth_2_joint,mA1/azimuth_3_joint,mA1/azimuth_4_joint,2.321287905152458,-2.303834612632515,-0.7504915783575618,0.7155849933176751
2025/05/06 15:48:41.582618241,0,0,,mA1/azimuth_1_joint,mA1/azimuth_2_joint,mA1/azimuth_3_joint,mA1/azimuth_4_joint,2.321287905152458,-2.303834612632515,-0.7504915783575618,0.7155849933176751
2025/05/06 15:48:41.817605798,0,0,,mA1/azimuth_1_joint,mA1/azimuth_2_joint,mA1/azimuth_3_joint,mA1/azimuth_4_joint,2.321287905152458,-2.303834612632515,-0.7504915783575618,0.7155849933176751
2025/05/06 15:48:41.950630830,0,0,,mA1/azimuth_1_joint,mA1/azimuth_2_joint,mA1/azimuth_3_joint,mA1/azimuth_4_joint,2.321287905152458,-2.303834612632515,-0.7330382858376184,0.7155849933176751
2025/05/06 15:48:42.130884949,0,0,,mA1/azimuth_1_joint,mA1/azimuth_2_joint,mA1/azimuth_3_joint,mA1/azimuth_4_joint,2.321287905152458,-2.303834612632515,-0.7330382858376184,0.7155849933176751
2025/05/06 15:48:42.351236290,0,0,,mA1/azimuth_1_joint,mA1/azimuth_2_joint,mA1/azimuth_3_joint,mA1/azimuth_4_joint,2.321287905152458,-2.303834612632515,-0.7330382858376184,0.7155849933176751
2025/05/06 15:48:42.438646701,0,0,,mA1/azimuth_1_joint,mA1/azimuth_2_joint,mA1/azimuth_3_joint,mA1/azimuth_4_joint,2.321287905152458,-2.303834612632515,-0.7330382858376184,0.7155849933176751
2025/05/06 15:48:42.503801890,0,0,,mA1/azimuth_1_joint,mA1/azimuth_2_joint,mA1/azimuth_3_joint,mA1/azimuth_4_joint,2.303834612632515,-2.303834612632515,-0.7330382858376184,0.7155849933176751
2025/05/06 15:48:42.552159533,0,0,,mA1/azimuth_1_joint,mA1/azimuth_2_joint,mA1/azimuth_3_joint,mA1/azimuth_4_joint,2.303834612632515,-2.303834612632515,-0.7330382858376184,0.7155849933176751
2025/05/06 15:48:42.657192745,0,0,,mA1/azimuth_1_joint,mA1/azimuth_2_joint,mA1/azimuth_3_joint,mA1/azimuth_4_joint,2.303834612632515,-2.303834612632515,-0.7330382858376184,0.7155849933176751
2025/05/06 15:48:42.879378118,0,0,,mA1/azimuth_1_joint,mA1/azimuth_2_joint,mA1/azimuth_3_joint,mA1/azimuth_4_joint,2.303834612632515,-2.303834612632515,-0.7155849933176751,0.7155849933176751
2025/05/06 15:48:43.53415656,0,0,,mA1/azimuth_1_joint,mA1/azimuth_2_joint,mA1/azimuth_3_joint,mA1/azimuth_4_joint,2.303834612632515,-2.303834612632515,-0.7155849933176751,0.7155849933176751
2025/05/06 15:48:43.148115220,0,0,,mA1/azimuth_1_joint,mA1/azimuth_2_joint,mA1/azimuth_3_joint,mA1/azimuth_4_joint,2.303834612632515,-2.303834612632515,-0.7155849933176751,0.7155849933176751
2025/05/06 15:48:43.243540492,0,0,,mA1/azimuth_1_joint,mA1/azimuth_2_joint,mA1/azimuth_3_joint,mA1/azimuth_4_joint,2.2863813201125716,-2.2863813201125716,-0.7155849933176751,0.7155849933176751
2025/05/06 15:48:43.520526564,0,0,,mA1/azimuth_1_joint,mA1/azimuth_2_joint,mA1/azimuth_3_joint,mA1/azimuth_4_joint,2.2863813201125716,-2.2863813201125716,-0.7155849933176751,0.7155849933176751
2025/05/06 15:48:43.699174406,0,0,,mA1/azimuth_1_joint,mA1/azimuth_2_joint,mA1/azimuth_3_joint,mA1/azimuth_4_joint,2.2863813201125716,-2.2863813201125716,-0.6981317007977318,0.6981317007977318
2025/05/06 15:48:43.808369860,0,0,,mA1/azimuth_1_joint,mA1/azimuth_2_joint,mA1/azimuth_3_joint,mA1/azimuth_4_joint,2.2863813201125716,-2.2863813201125716,-0.6981317007977318,0.6981317007977318
2025/05/06 15:48:44.78616509,0,0,,mA1/azimuth_1_joint,mA1/azimuth_2_joint,mA1/azimuth_3_joint,mA1/azimuth_4_joint,2.2689280275926285,-2.2863813201125716,-0.6981317007977318,0.6981317007977318
2025/05/06 15:48:44.132957128,0,0,,mA1/azimuth_1_joint,mA1/azimuth_2_joint,mA1/azimuth_3_joint,mA1/azimuth_4_joint,2.2689280275926285,-2.2863813201125716,-0.6981317007977318,0.6981317007977318
2025/05/06 15:48:44.205902006,0,0,,mA1/azimuth_1_joint,mA1/azimuth_2_joint,mA1/azimuth_3_joint,mA1/azimuth_4_joint,2.2689280275926285,-2.2863813201125716,-0.6981317007977318,0.6981317007977318
2025/05/06 15:48:44.280338738,0,0,,mA1/azimuth_1_joint,mA1/azimuth_2_joint,mA1/azimuth_3_joint,mA1/azimuth_4_joint,2.2689280275926285,-2.2689280275926285,-0.6981317007977318,0.6981317007977318
2025/05/06 15:48:44.356263830,0,0,,mA1/azimuth_1_joint,mA1/azimuth_2_joint,mA1/azimuth_3_joint,mA1/azimuth_4_joint,2.2689280275926285,-2.2689280275926285,-0.6981317007977318,0.6981317007977318
2025/05/06 15:48:44.423051198,0,0,,mA1/azimuth_1_joint,mA1/azimuth_2_joint,mA1/azimuth_3_joint,mA1/azimuth_4_joint,2.2689280275926285,-2.2689280275926285,-0.6981317007977318,0.6981317007977318
2025/05/06 15:48:44.504594324,0,0,,mA1/azimuth_1_joint,mA1/azimuth_2_joint,mA1/azimuth_3_joint,mA1/azimuth_4_joint,2.2689280275926285,-2.2689280275926285,-0.6981317007977318,0.6981317007977318
2025/05/06 15:48:44.577488329,0,0,,mA1/azimuth_1_joint,mA1/azimuth_2_joint,mA1/azimuth_3_joint,mA1/azimuth_4_joint,2.251474735072685,-2.2689280275926285,-0.6806784082777885,0.6806784082777885
2025/05/06 15:48:44.663179268,0,0,,mA1/azimuth_1_joint,mA1/azimuth_2_joint,mA1/azimuth_3_joint,mA1/azimuth_4_joint,2.251474735072685,-2.251474735072685,-0.6806784082777885,0.6806784082777885
2025/05/06 15:48:44.773158415,0,0,,mA1/azimuth_1_joint,mA1/azimuth_2_joint,mA1/azimuth_3_joint,mA1/azimuth_4_joint,2.251474735072685,-2.251474735072685,-0.6806784082777885,0.6806784082777885
2025/05/06 15:48:44.872415151,0,0,,mA1/azimuth_1_joint,mA1/azimuth_2_joint,mA1/azimuth_3_joint,mA1/azimuth_4_joint,2.251474735072685,-2.251474735072685,-0.6806784082777885,0.6806784082777885
2025/05/06 15:48:44.968725233,0,0,,mA1/azimuth_1_joint,mA1/azimuth_2_joint,mA1/azimuth_3_joint,mA1/azimuth_4_joint,2.251474735072685,-2.251474735072685,-0.6806784082777885,0.6806784082777885
2025/05/06 15:48:45.71834466,0,0,,mA1/azimuth_1_joint,mA1/azimuth_2_joint,mA1/azimuth_3_joint,mA1/azimuth_4_joint,2.251474735072685,-2.251474735072685,-0.6806784082777885,0.6806784082777885
2025/05/06 15:48:45.164744689,0,0,,mA1/azimuth_1_joint,mA1/azimuth_2_joint,mA1/azimuth_3_joint,mA1/azimuth_4_joint,2.234021442552742,-2.251474735072685,-0.6632251157578453,0.6806784082777885
2025/05/06 15:48:45.275314517,0,0,,mA1/azimuth_1_joint,mA1/azimuth_2_joint,mA1/azimuth_3_joint,mA1/azimuth_4_joint,2.2165681500327987,-2.251474735072685,-0.6457718232379019,0.6806784082777885
2025/05/06 15:48:45.364652952,0,0,,mA1/azimuth_1_joint,mA1/azimuth_2_joint,mA1/azimuth_3_joint,mA1/azimuth_4_joint,2.2165681500327987,-2.251474735072685,-0.6457718232379019,0.6806784082777885
2025/05/06 15:48:45.465846879,0,0,,mA1/azimuth_1_joint,mA1/azimuth_2_joint,mA1/azimuth_3_joint,mA1/azimuth_4_joint,2.199114857512855,-2.251474735072685,-0.6457718232379019,0.6806784082777885
2025/05/06 15:48:45.567941781,0,0,,mA1/azimuth_1_joint,mA1/azimuth_2_joint,mA1/azimuth_3_joint,mA1/azimuth_4_joint,2.199114857512855,-2.251474735072685,-0.6457718232379019,0.6806784082777885
2025/05/06 15:48:45.667709386,0,0,,mA1/azimuth_1_joint,mA1/azimuth_2_joint,mA1/azimuth_3_joint,mA1/azimuth_4_joint,2.199114857512855,-2.234021442552742,-0.6457718232379019,0.6806784082777885
2025/05/06 15:48:45.773070352,0,0,,mA1/azimuth_1_joint,mA1/azimuth_2_joint,mA1/azimuth_3_joint,mA1/azimuth_4_joint,2.199114857512855,-2.234021442552742,-0.6457718232379019,0.6806784082777885
2025/05/06 15:48:45.877644581,0,0,,mA1/azimuth_1_joint,mA1/azimuth_2_joint,mA1/azimuth_3_joint,mA1/azimuth_4_joint,2.199114857512855,-2.2165681500327987,-0.6457718232379019,0.6632251157578453
2025/05/06 15:48:45.978734392,0,0,,mA1/azimuth_1_joint,mA1/azimuth_2_joint,mA1/azimuth_3_joint,mA1/azimuth_4_joint,2.199114857512855,-2.199114857512855,-0.6457718232379019,0.6632251157578453
2025/05/06 15:48:46.63360921,0,0,,mA1/azimuth_1_joint,mA1/azimuth_2_joint,mA1/azimuth_3_joint,mA1/azimuth_4_joint,2.199114857512855,-2.199114857512855,-0.6457718232379019,0.6632251157578453
2025/05/06 15:48:46.167246268,0,0,,mA1/azimuth_1_joint,mA1/azimuth_2_joint,mA1/azimuth_3_joint,mA1/azimuth_4_joint,2.199114857512855,-2.199114857512855,-0.6632251157578453,0.6457718232379019
2025/05/06 15:48:46.267497640,0,0,,mA1/azimuth_1_joint,mA1/azimuth_2_joint,mA1/azimuth_3_joint,mA1/azimuth_4_joint,2.199114857512855,-2.181661564992912,-0.6632251157578453,0.6457718232379019
2025/05/06 15:48:46.368557749,0,0,,mA1/azimuth_1_joint,mA1/azimuth_2_joint,mA1/azimuth_3_joint,mA1/azimuth_4_joint,2.199114857512855,-2.1642082724729685,-0.6632251157578453,0.6283185307179586
2025/05/06 15:48:46.469870822,0,0,,mA1/azimuth_1_joint,mA1/azimuth_2_joint,mA1/azimuth_3_joint,mA1/azimuth_4_joint,2.199114857512855,-2.1642082724729685,-0.6632251157578453,0.6283185307179586
2025/05/06 15:48:46.565193975,0,0,,mA1/azimuth_1_joint,mA1/azimuth_2_joint,mA1/azimuth_3_joint,mA1/azimuth_4_joint,2.199114857512855,-2.1642082724729685,-0.6632251157578453,0.6283185307179586
2025/05/06 15:48:46.670172748,0,0,,mA1/azimuth_1_joint,mA1/azimuth_2_joint,mA1/azimuth_3_joint,mA1/azimuth_4_joint,2.199114857512855,-2.1642082724729685,-0.6632251157578453,0.6283185307179586
2025/05/06 15:48:46.771663566,0,0,,mA1/azimuth_1_joint,mA1/azimuth_2_joint,mA1/azimuth_3_joint,mA1/azimuth_4_joint,2.181661564992912,-2.1642082724729685,-0.6632251157578453,0.6283185307179586
2025/05/06 15:48:46.874034284,0,0,,mA1/azimuth_1_joint,mA1/azimuth_2_joint,mA1/azimuth_3_joint,mA1/azimuth_4_joint,2.1642082724729685,-2.1642082724729685,-0.6457718232379019,0.6283185307179586
2025/05/06 15:48:46.965581142,0,0,,mA1/azimuth_1_joint,mA1/azimuth_2_joint,mA1/azimuth_3_joint,mA1/azimuth_4_joint,2.1642082724729685,-2.1642082724729685,-0.6457718232379019,0.6283185307179586
2025/05/06 15:48:47.64610879,0,0,,mA1/azimuth_1_joint,mA1/azimuth_2_joint,mA1/azimuth_3_joint,mA1/azimuth_4_joint,2.1467549799530254,-2.1642082724729685,-0.6283185307179586,0.6457718232379019
2025/05/06 15:48:47.166971555,0,0,,mA1/azimuth_1_joint,mA1/azimuth_2_joint,mA1/azimuth_3_joint,mA1/azimuth_4_joint,2.1467549799530254,-2.1642082724729685,-0.6283185307179586,0.6457718232379019
2025/05/06 15:48:47.266886734,0,0,,mA1/azimuth_1_joint,mA1/azimuth_2_joint,mA1/azimuth_3_joint,mA1/azimuth_4_joint,2.129301687433082,-2.1642082724729685,-0.6108652381980153,0.6457718232379019
2025/05/06 15:48:47.368949442,0,0,,mA1/azimuth_1_joint,mA1/azimuth_2_joint,mA1/azimuth_3_joint,mA1/azimuth_4_joint,2.129301687433082,-2.1642082724729685,-0.6108652381980153,0.6457718232379019
2025/05/06 15:48:47.467345962,0,0,,mA1/azimuth_1_joint,mA1/azimuth_2_joint,mA1/azimuth_3_joint,mA1/azimuth_4_joint,2.111848394913139,-2.1642082724729685,-0.5934119456780721,0.6457718232379019
2025/05/06 15:48:47.564296240,0,0,,mA1/azimuth_1_joint,mA1/azimuth_2_joint,mA1/azimuth_3_joint,mA1/azimuth_4_joint,2.111848394913139,-2.1642082724729685,-0.5934119456780721,0.6457718232379019
2025/05/06 15:48:47.666812580,0,0,,mA1/azimuth_1_joint,mA1/azimuth_2_joint,mA1/azimuth_3_joint,mA1/azimuth_4_joint,2.0943951023931953,-2.1467549799530254,-0.6108652381980153,0.6457718232379019
2025/05/06 15:48:47.767938375,0,0,,mA1/azimuth_1_joint,mA1/azimuth_2_joint,mA1/azimuth_3_joint,mA1/azimuth_4_joint,2.0943951023931953,-2.1467549799530254,-0.5934119456780721,0.6457718232379019
2025/05/06 15:48:47.865406606,0,0,,mA1/azimuth_1_joint,mA1/azimuth_2_joint,mA1/azimuth_3_joint,mA1/azimuth_4_joint,2.076941809873252,-2.1467549799530254,-0.5759586531581288,0.6632251157578453
2025/05/06 15:48:47.966920988,0,0,,mA1/azimuth_1_joint,mA1/azimuth_2_joint,mA1/azimuth_3_joint,mA1/azimuth_4_joint,2.076941809873252,-2.1467549799530254,-0.5759586531581288,0.6632251157578453
2025/05/06 15:48:48.65318624,0,0,,mA1/azimuth_1_joint,mA1/azimuth_2_joint,mA1/azimuth_3_joint,mA1/azimuth_4_joint,2.076941809873252,-2.1467549799530254,-0.5759586531581288,0.6457718232379019
2025/05/06 15:48:48.169199185,0,0,,mA1/azimuth_1_joint,mA1/azimuth_2_joint,mA1/azimuth_3_joint,mA1/azimuth_4_joint,2.059488517353309,-2.129301687433082,-0.5759586531581288,0.6457718232379019
2025/05/06 15:48:48.267287994,0,0,,mA1/azimuth_1_joint,mA1/azimuth_2_joint,mA1/azimuth_3_joint,mA1/azimuth_4_joint,2.059488517353309,-2.129301687433082,-0.5759586531581288,0.6457718232379019
2025/05/06 15:48:48.365255755,0,0,,mA1/azimuth_1_joint,mA1/azimuth_2_joint,mA1/azimuth_3_joint,mA1/azimuth_4_joint,2.0420352248333655,-2.111848394913139,-0.5585053606381855,0.6457718232379019
2025/05/06 15:48:48.473438268,0,0,,mA1/azimuth_1_joint,mA1/azimuth_2_joint,mA1/azimuth_3_joint,mA1/azimuth_4_joint,2.0420352248333655,-2.111848394913139,-0.5585053606381855,0.6457718232379019
2025/05/06 15:48:48.596272680,0,0,,mA1/azimuth_1_joint,mA1/azimuth_2_joint,mA1/azimuth_3_joint,mA1/azimuth_4_joint,2.0420352248333655,-2.111848394913139,-0.5585053606381855,0.6457718232379019
2025/05/06 15:48:48.680245369,0,0,,mA1/azimuth_1_joint,mA1/azimuth_2_joint,mA1/azimuth_3_joint,mA1/azimuth_4_joint,2.0420352248333655,-2.111848394913139,-0.5759586531581288,0.6457718232379019
2025/05/06 15:48:48.767640570,0,0,,mA1/azimuth_1_joint,mA1/azimuth_2_joint,mA1/azimuth_3_joint,mA1/azimuth_4_joint,2.0420352248333655,-2.0943951023931953,-0.5759586531581288,0.6283185307179586
2025/05/06 15:48:48.870091679,0,0,,mA1/azimuth_1_joint,mA1/azimuth_2_joint,mA1/azimuth_3_joint,mA1/azimuth_4_joint,2.0420352248333655,-2.0943951023931953,-0.5759586531581288,0.6283185307179586
2025/05/06 15:48:48.967159968,0,0,,mA1/azimuth_1_joint,mA1/azimuth_2_joint,mA1/azimuth_3_joint,mA1/azimuth_4_joint,2.0420352248333655,-2.076941809873252,-0.5934119456780721,0.6283185307179586
2025/05/06 15:48:49.66294307,0,0,,mA1/azimuth_1_joint,mA1/azimuth_2_joint,mA1/azimuth_3_joint,mA1/azimuth_4_joint,2.0420352248333655,-2.059488517353309,-0.5934119456780721,0.6108652381980153
2025/05/06 15:48:49.171181534,0,0,,mA1/azimuth_1_joint,mA1/azimuth_2_joint,mA1/azimuth_3_joint,mA1/azimuth_4_joint,2.0420352248333655,-2.059488517353309,-0.5934119456780721,0.6108652381980153
2025/05/06 15:48:49.267309372,0,0,,mA1/azimuth_1_joint,mA1/azimuth_2_joint,mA1/azimuth_3_joint,mA1/azimuth_4_joint,2.0420352248333655,-2.0420352248333655,-0.5934119456780721,0.5934119456780721
2025/05/06 15:48:49.364793783,0,0,,mA1/azimuth_1_joint,mA1/azimuth_2_joint,mA1/azimuth_3_joint,mA1/azimuth_4_joint,2.0420352248333655,-2.0420352248333655,-0.5934119456780721,0.5934119456780721
2025/05/06 15:48:49.468231650,0,0,,mA1/azimuth_1_joint,mA1/azimuth_2_joint,mA1/azimuth_3_joint,mA1/azimuth_4_joint,2.0420352248333655,-2.0245819323134224,-0.6108652381980153,0.5759586531581288
2025/05/06 15:48:49.567757824,0,0,,mA1/azimuth_1_joint,mA1/azimuth_2_joint,mA1/azimuth_3_joint,mA1/azimuth_4_joint,2.0420352248333655,-2.0245819323134224,-0.6108652381980153,0.5759586531581288
2025/05/06 15:48:49.668190776,0,0,,mA1/azimuth_1_joint,mA1/azimuth_2_joint,mA1/azimuth_3_joint,mA1/azimuth_4_joint,2.0420352248333655,-2.0245819323134224,-0.6108652381980153,0.5759586531581288
2025/05/06 15:48:49.779480929,0,0,,mA1/azimuth_1_joint,mA1/azimuth_2_joint,mA1/azimuth_3_joint,mA1/azimuth_4_joint,2.0420352248333655,-2.0245819323134224,-0.6108652381980153,0.5934119456780721
2025/05/06 15:48:49.877518591,0,0,,mA1/azimuth_1_joint,mA1/azimuth_2_joint,mA1/azimuth_3_joint,mA1/azimuth_4_joint,2.0420352248333655,-2.0245819323134224,-0.6108652381980153,0.5934119456780721
2025/05/06 15:48:49.975029687,0,0,,mA1/azimuth_1_joint,mA1/azimuth_2_joint,mA1/azimuth_3_joint,mA1/azimuth_4_joint,2.059488517353309,-2.0245819323134224,-0.6108652381980153,0.5934119456780721
2025/05/06 15:48:50.64205474,0,0,,mA1/azimuth_1_joint,mA1/azimuth_2_joint,mA1/azimuth_3_joint,mA1/azimuth_4_joint,2.059488517353309,-2.0245819323134224,-0.6108652381980153,0.5934119456780721
2025/05/06 15:48:50.170058548,0,0,,mA1/azimuth_1_joint,mA1/azimuth_2_joint,mA1/azimuth_3_joint,mA1/azimuth_4_joint,2.059488517353309,-2.0245819323134224,-0.6108652381980153,0.5759586531581288
2025/05/06 15:48:50.269323812,0,0,,mA1/azimuth_1_joint,mA1/azimuth_2_joint,mA1/azimuth_3_joint,mA1/azimuth_4_joint,2.059488517353309,-2.0245819323134224,-0.6108652381980153,0.5759586531581288
2025/05/06 15:48:50.367570597,0,0,,mA1/azimuth_1_joint,mA1/azimuth_2_joint,mA1/azimuth_3_joint,mA1/azimuth_4_joint,2.059488517353309,-2.007128639793479,-0.6108652381980153,0.5759586531581288
2025/05/06 15:48:50.469958881,0,0,,mA1/azimuth_1_joint,mA1/azimuth_2_joint,mA1/azimuth_3_joint,mA1/azimuth_4_joint,2.059488517353309,-1.9896753472735358,-0.6283185307179586,0.5585053606381855
2025/05/06 15:48:50.572488282,0,0,,mA1/azimuth_1_joint,mA1/azimuth_2_joint,mA1/azimuth_3_joint,mA1/azimuth_4_joint,2.059488517353309,-1.9896753472735358,-0.6283185307179586,0.5585053606381855
2025/05/06 15:48:50.668179224,0,0,,mA1/azimuth_1_joint,mA1/azimuth_2_joint,mA1/azimuth_3_joint,mA1/azimuth_4_joint,2.059488517353309,-1.9896753472735358,-0.6108652381980153,0.5585053606381855
2025/05/06 15:48:50.766883310,0,0,,mA1/azimuth_1_joint,mA1/azimuth_2_joint,mA1/azimuth_3_joint,mA1/azimuth_4_joint,2.0420352248333655,-1.9896753472735358,-0.6108652381980153,0.5585053606381855
2025/05/06 15:48:50.865128020,0,0,,mA1/azimuth_1_joint,mA1/azimuth_2_joint,mA1/azimuth_3_joint,mA1/azimuth_4_joint,2.0420352248333655,-1.9896753472735358,-0.6108652381980153,0.5585053606381855
2025/05/06 15:48:50.967580808,0,0,,mA1/azimuth_1_joint,mA1/azimuth_2_joint,mA1/azimuth_3_joint,mA1/azimuth_4_joint,2.0245819323134224,-1.9896753472735358,-0.5934119456780721,0.5585053606381855
2025/05/06 15:48:51.65946939,0,0,,mA1/azimuth_1_joint,mA1/azimuth_2_joint,mA1/azimuth_3_joint,mA1/azimuth_4_joint,2.0245819323134224,-1.9896753472735358,-0.5934119456780721,0.5585053606381855
2025/05/06 15:48:51.167143262,0,0,,mA1/azimuth_1_joint,mA1/azimuth_2_joint,mA1/azimuth_3_joint,mA1/azimuth_4_joint,2.007128639793479,-1.9896753472735358,-0.5934119456780721,0.5585053606381855
2025/05/06 15:48:51.268530320,0,0,,mA1/azimuth_1_joint,mA1/azimuth_2_joint,mA1/azimuth_3_joint,mA1/azimuth_4_joint,2.007128639793479,-1.9722220547535925,-0.5934119456780721,0.5585053606381855
2025/05/06 15:48:51.365203477,0,0,,mA1/azimuth_1_joint,mA1/azimuth_2_joint,mA1/azimuth_3_joint,mA1/azimuth_4_joint,2.007128639793479,-1.9722220547535925,-0.5934119456780721,0.5585053606381855
2025/05/06 15:48:51.468812318,0,0,,mA1/azimuth_1_joint,mA1/azimuth_2_joint,mA1/azimuth_3_joint,mA1/azimuth_4_joint,1.9896753472735358,-1.9722220547535925,-0.5934119456780721,0.5585053606381855
2025/05/06 15:48:51.566752208,0,0,,mA1/azimuth_1_joint,mA1/azimuth_2_joint,mA1/azimuth_3_joint,mA1/azimuth_4_joint,1.9896753472735358,-1.9722220547535925,-0.5934119456780721,0.5585053606381855
2025/05/06 15:48:51.669665815,0,0,,mA1/azimuth_1_joint,mA1/azimuth_2_joint,mA1/azimuth_3_joint,mA1/azimuth_4_joint,1.9722220547535925,-1.9722220547535925,-0.5759586531581288,0.5759586531581288
2025/05/06 15:48:51.774600641,0,0,,mA1/azimuth_1_joint,mA1/azimuth_2_joint,mA1/azimuth_3_joint,mA1/azimuth_4_joint,1.9722220547535925,-1.9722220547535925,-0.5759586531581288,0.5759586531581288
2025/05/06 15:48:51.869766668,0,0,,mA1/azimuth_1_joint,mA1/azimuth_2_joint,mA1/azimuth_3_joint,mA1/azimuth_4_joint,1.9547687622336491,-1.9722220547535925,-0.5585053606381855,0.5759586531581288
2025/05/06 15:48:51.970645258,0,0,,mA1/azimuth_1_joint,mA1/azimuth_2_joint,mA1/azimuth_3_joint,mA1/azimuth_4_joint,1.9547687622336491,-1.9722220547535925,-0.5585053606381855,0.5759586531581288
2025/05/06 15:48:52.66769825,0,0,,mA1/azimuth_1_joint,mA1/azimuth_2_joint,mA1/azimuth_3_joint,mA1/azimuth_4_joint,1.9547687622336491,-1.9722220547535925,-0.5585053606381855,0.5759586531581288
2025/05/06 15:48:52.164461583,0,0,,mA1/azimuth_1_joint,mA1/azimuth_2_joint,mA1/azimuth_3_joint,mA1/azimuth_4_joint,1.9373154697137058,-1.9547687622336491,-0.5410520681182421,0.5934119456780721
2025/05/06 15:48:52.274341565,0,0,,mA1/azimuth_1_joint,mA1/azimuth_2_joint,mA1/azimuth_3_joint,mA1/azimuth_4_joint,1.9373154697137058,-1.9547687622336491,-0.5410520681182421,0.5934119456780721
2025/05/06 15:48:52.365376124,0,0,,mA1/azimuth_1_joint,mA1/azimuth_2_joint,mA1/azimuth_3_joint,mA1/azimuth_4_joint,1.9373154697137058,-1.9547687622336491,-0.5410520681182421,0.5934119456780721
2025/05/06 15:48:52.466683767,0,0,,mA1/azimuth_1_joint,mA1/azimuth_2_joint,mA1/azimuth_3_joint,mA1/azimuth_4_joint,1.9373154697137058,-1.9547687622336491,-0.5410520681182421,0.5934119456780721
2025/05/06 15:48:52.571214728,0,0,,mA1/azimuth_1_joint,mA1/azimuth_2_joint,mA1/azimuth_3_joint,mA1/azimuth_4_joint,1.9373154697137058,-1.9547687622336491,-0.5410520681182421,0.5759586531581288
2025/05/06 15:48:52.671102535,0,0,,mA1/azimuth_1_joint,mA1/azimuth_2_joint,mA1/azimuth_3_joint,mA1/azimuth_4_joint,1.9373154697137058,-1.9547687622336491,-0.5410520681182421,0.5759586531581288
2025/05/06 15:48:52.768229092,0,0,,mA1/azimuth_1_joint,mA1/azimuth_2_joint,mA1/azimuth_3_joint,mA1/azimuth_4_joint,1.9373154697137058,-1.9373154697137058,-0.5410520681182421,0.5759586531581288
2025/05/06 15:48:52.865872936,0,0,,mA1/azimuth_1_joint,mA1/azimuth_2_joint,mA1/azimuth_3_joint,mA1/azimuth_4_joint,1.9373154697137058,-1.9373154697137058,-0.5410520681182421,0.5759586531581288
2025/05/06 15:48:52.970215072,0,0,,mA1/azimuth_1_joint,mA1/azimuth_2_joint,mA1/azimuth_3_joint,mA1/azimuth_4_joint,1.9198621771937625,-1.9198621771937625,-0.5410520681182421,0.5759586531581288
2025/05/06 15:48:53.65875713,0,0,,mA1/azimuth_1_joint,mA1/azimuth_2_joint,mA1/azimuth_3_joint,mA1/azimuth_4_joint,1.9198621771937625,-1.9198621771937625,-0.5410520681182421,0.5759586531581288
2025/05/06 15:48:53.169440124,0,0,,mA1/azimuth_1_joint,mA1/azimuth_2_joint,mA1/azimuth_3_joint,mA1/azimuth_4_joint,1.9198621771937625,-1.9198621771937625,-0.5410520681182421,0.5759586531581288
2025/05/06 15:48:53.269899948,0,0,,mA1/azimuth_1_joint,mA1/azimuth_2_joint,mA1/azimuth_3_joint,mA1/azimuth_4_joint,1.9198621771937625,-1.9198621771937625,-0.5235987755982988,0.5585053606381855
2025/05/06 15:48:53.370461013,0,0,,mA1/azimuth_1_joint,mA1/azimuth_2_joint,mA1/azimuth_3_joint,mA1/azimuth_4_joint,1.9198621771937625,-1.9198621771937625,-0.5235987755982988,0.5585053606381855
2025/05/06 15:48:53.465690904,0,0,,mA1/azimuth_1_joint,mA1/azimuth_2_joint,mA1/azimuth_3_joint,mA1/azimuth_4_joint,1.9024088846738192,-1.9024088846738192,-0.5235987755982988,0.5585053606381855
2025/05/06 15:48:53.565019559,0,0,,mA1/azimuth_1_joint,mA1/azimuth_2_joint,mA1/azimuth_3_joint,mA1/azimuth_4_joint,1.9024088846738192,-1.9024088846738192,-0.5235987755982988,0.5585053606381855
2025/05/06 15:48:53.668582383,0,0,,mA1/azimuth_1_joint,mA1/azimuth_2_joint,mA1/azimuth_3_joint,mA1/azimuth_4_joint,1.9024088846738192,-1.9024088846738192,-0.5235987755982988,0.5585053606381855
2025/05/06 15:48:53.769630942,0,0,,mA1/azimuth_1_joint,mA1/azimuth_2_joint,mA1/azimuth_3_joint,mA1/azimuth_4_joint,1.9024088846738192,-1.9024088846738192,-0.5235987755982988,0.5585053606381855
2025/05/06 15:48:53.864546001,0,0,,mA1/azimuth_1_joint,mA1/azimuth_2_joint,mA1/azimuth_3_joint,mA1/azimuth_4_joint,1.9024088846738192,-1.8849555921538759,-0.5235987755982988,0.5585053606381855
2025/05/06 15:48:53.965968807,0,0,,mA1/azimuth_1_joint,mA1/azimuth_2_joint,mA1/azimuth_3_joint,mA1/azimuth_4_joint,1.8849555921538759,-1.8849555921538759,-0.5235987755982988,0.5585053606381855
2025/05/06 15:48:54.64101737,0,0,,mA1/azimuth_1_joint,mA1/azimuth_2_joint,mA1/azimuth_3_joint,mA1/azimuth_4_joint,1.8849555921538759,-1.8849555921538759,-0.5235987755982988,0.5410520681182421
2025/05/06 15:48:54.166008984,0,0,,mA1/azimuth_1_joint,mA1/azimuth_2_joint,mA1/azimuth_3_joint,mA1/azimuth_4_joint,1.8849555921538759,-1.8849555921538759,-0.5235987755982988,0.5410520681182421
2025/05/06 15:48:54.263506618,0,0,,mA1/azimuth_1_joint,mA1/azimuth_2_joint,mA1/azimuth_3_joint,mA1/azimuth_4_joint,1.8849555921538759,-1.8675022996339325,-0.5235987755982988,0.5410520681182421
2025/05/06 15:48:54.365849207,0,0,,mA1/azimuth_1_joint,mA1/azimuth_2_joint,mA1/azimuth_3_joint,mA1/azimuth_4_joint,1.8849555921538759,-1.8675022996339325,-0.5235987755982988,0.5410520681182421
2025/05/06 15:48:54.464934170,0,0,,mA1/azimuth_1_joint,mA1/azimuth_2_joint,mA1/azimuth_3_joint,mA1/azimuth_4_joint,1.8849555921538759,-1.8675022996339325,-0.5061454830783556,0.5410520681182421
2025/05/06 15:48:54.564697518,0,0,,mA1/azimuth_1_joint,mA1/azimuth_2_joint,mA1/azimuth_3_joint,mA1/azimuth_4_joint,1.8849555921538759,-1.8500490071139892,-0.5235987755982988,0.5410520681182421
2025/05/06 15:48:54.665778647,0,0,,mA1/azimuth_1_joint,mA1/azimuth_2_joint,mA1/azimuth_3_joint,mA1/azimuth_4_joint,1.8675022996339325,-1.8500490071139892,-0.5235987755982988,0.5235987755982988
2025/05/06 15:48:54.765587074,0,0,,mA1/azimuth_1_joint,mA1/azimuth_2_joint,mA1/azimuth_3_joint,mA1/azimuth_4_joint,1.8675022996339325,-1.8500490071139892,-0.5235987755982988,0.5235987755982988
2025/05/06 15:48:54.871159171,0,0,,mA1/azimuth_1_joint,mA1/azimuth_2_joint,mA1/azimuth_3_joint,mA1/azimuth_4_joint,1.8675022996339325,-1.8500490071139892,-0.5235987755982988,0.5235987755982988
2025/05/06 15:48:54.967706604,0,0,,mA1/azimuth_1_joint,mA1/azimuth_2_joint,mA1/azimuth_3_joint,mA1/azimuth_4_joint,1.8675022996339325,-1.8500490071139892,-0.5235987755982988,0.5235987755982988
2025/05/06 15:48:55.72804431,0,0,,mA1/azimuth_1_joint,mA1/azimuth_2_joint,mA1/azimuth_3_joint,mA1/azimuth_4_joint,1.8675022996339325,-1.8500490071139892,-0.5235987755982988,0.5235987755982988
2025/05/06 15:48:55.165639647,0,0,,mA1/azimuth_1_joint,mA1/azimuth_2_joint,mA1/azimuth_3_joint,mA1/azimuth_4_joint,1.8500490071139892,-1.8325957145940461,-0.5235987755982988,0.5235987755982988
2025/05/06 15:48:55.263552547,0,0,,mA1/azimuth_1_joint,mA1/azimuth_2_joint,mA1/azimuth_3_joint,mA1/azimuth_4_joint,1.8500490071139892,-1.8325957145940461,-0.5061454830783556,0.5235987755982988
2025/05/06 15:48:55.367743070,0,0,,mA1/azimuth_1_joint,mA1/azimuth_2_joint,mA1/azimuth_3_joint,mA1/azimuth_4_joint,1.8500490071139892,-1.8325957145940461,-0.5061454830783556,0.5235987755982988
2025/05/06 15:48:55.464253655,0,0,,mA1/azimuth_1_joint,mA1/azimuth_2_joint,mA1/azimuth_3_joint,mA1/azimuth_4_joint,1.8500490071139892,-1.8325957145940461,-0.5061454830783556,0.5235987755982988
2025/05/06 15:48:55.563215335,0,0,,mA1/azimuth_1_joint,mA1/azimuth_2_joint,mA1/azimuth_3_joint,mA1/azimuth_4_joint,1.8325957145940461,-1.8325957145940461,-0.5061454830783556,0.5235987755982988
2025/05/06 15:48:55.666867332,0,0,,mA1/azimuth_1_joint,mA1/azimuth_2_joint,mA1/azimuth_3_joint,mA1/azimuth_4_joint,1.8325957145940461,-1.8325957145940461,-0.5061454830783556,0.5235987755982988
2025/05/06 15:48:55.764941920,0,0,,mA1/azimuth_1_joint,mA1/azimuth_2_joint,mA1/azimuth_3_joint,mA1/azimuth_4_joint,1.8325957145940461,-1.8325957145940461,-0.5061454830783556,0.5235987755982988
2025/05/06 15:48:55.869884021,0,0,,mA1/azimuth_1_joint,mA1/azimuth_2_joint,mA1/azimuth_3_joint,mA1/azimuth_4_joint,1.8325957145940461,-1.8325957145940461,-0.5061454830783556,0.5235987755982988
2025/05/06 15:48:55.977557272,0,0,,mA1/azimuth_1_joint,mA1/azimuth_2_joint,mA1/azimuth_3_joint,mA1/azimuth_4_joint,1.8325957145940461,-1.8325957145940461,-0.5061454830783556,0.5235987755982988
2025/05/06 15:48:56.66094316,0,0,,mA1/azimuth_1_joint,mA1/azimuth_2_joint,mA1/azimuth_3_joint,mA1/azimuth_4_joint,1.8325957145940461,-1.8325957145940461,-0.5061454830783556,0.5235987755982988
2025/05/06 15:48:56.165684406,0,0,,mA1/azimuth_1_joint,mA1/azimuth_2_joint,mA1/azimuth_3_joint,mA1/azimuth_4_joint,1.8325957145940461,-1.8151424220741028,-0.5061454830783556,0.5235987755982988
2025/05/06 15:48:56.267413504,0,0,,mA1/azimuth_1_joint,mA1/azimuth_2_joint,mA1/azimuth_3_joint,mA1/azimuth_4_joint,1.8151424220741028,-1.8151424220741028,-0.4886921905584123,0.5235987755982988
2025/05/06 15:48:56.366103021,0,0,,mA1/azimuth_1_joint,mA1/azimuth_2_joint,mA1/azimuth_3_joint,mA1/azimuth_4_joint,1.8151424220741028,-1.8151424220741028,-0.4886921905584123,0.5235987755982988
2025/05/06 15:48:56.464047319,0,0,,mA1/azimuth_1_joint,mA1/azimuth_2_joint,mA1/azimuth_3_joint,mA1/azimuth_4_joint,1.8151424220741028,-1.8151424220741028,-0.5061454830783556,0.5061454830783556
2025/05/06 15:48:56.565826959,0,0,,mA1/azimuth_1_joint,mA1/azimuth_2_joint,mA1/azimuth_3_joint,mA1/azimuth_4_joint,1.8151424220741028,-1.8151424220741028,-0.5061454830783556,0.5061454830783556
2025/05/06 15:48:56.666005636,0,0,,mA1/azimuth_1_joint,mA1/azimuth_2_joint,mA1/azimuth_3_joint,mA1/azimuth_4_joint,1.8151424220741028,-1.8151424220741028,-0.5061454830783556,0.5061454830783556
2025/05/06 15:48:56.765415225,0,0,,mA1/azimuth_1_joint,mA1/azimuth_2_joint,mA1/azimuth_3_joint,mA1/azimuth_4_joint,1.7976891295541595,-1.8151424220741028,-0.5061454830783556,0.5061454830783556
2025/05/06 15:48:56.864472726,0,0,,mA1/azimuth_1_joint,mA1/azimuth_2_joint,mA1/azimuth_3_joint,mA1/azimuth_4_joint,1.7976891295541595,-1.7976891295541595,-0.5061454830783556,0.5061454830783556
2025/05/06 15:48:56.963817748,0,0,,mA1/azimuth_1_joint,mA1/azimuth_2_joint,mA1/azimuth_3_joint,mA1/azimuth_4_joint,1.7976891295541595,-1.7976891295541595,-0.5061454830783556,0.5061454830783556
2025/05/06 15:48:57.65253994,0,0,,mA1/azimuth_1_joint,mA1/azimuth_2_joint,mA1/azimuth_3_joint,mA1/azimuth_4_joint,1.7976891295541595,-1.7976891295541595,-0.5061454830783556,0.4886921905584123
2025/05/06 15:48:57.165720989,0,0,,mA1/azimuth_1_joint,mA1/azimuth_2_joint,mA1/azimuth_3_joint,mA1/azimuth_4_joint,1.7976891295541595,-1.7976891295541595,-0.5061454830783556,0.4886921905584123
2025/05/06 15:48:57.268697841,0,0,,mA1/azimuth_1_joint,mA1/azimuth_2_joint,mA1/azimuth_3_joint,mA1/azimuth_4_joint,1.7976891295541595,-1.7976891295541595,-0.5061454830783556,0.4886921905584123
2025/05/06 15:48:57.365643795,0,0,,mA1/azimuth_1_joint,mA1/azimuth_2_joint,mA1/azimuth_3_joint,mA1/azimuth_4_joint,1.7976891295541595,-1.7976891295541595,-0.5061454830783556,0.4886921905584123
2025/05/06 15:48:57.463539395,0,0,,mA1/azimuth_1_joint,mA1/azimuth_2_joint,mA1/azimuth_3_joint,mA1/azimuth_4_joint,1.7802358370342162,-1.7802358370342162,-0.5061454830783556,0.5061454830783556
2025/05/06 15:48:57.566116925,0,0,,mA1/azimuth_1_joint,mA1/azimuth_2_joint,mA1/azimuth_3_joint,mA1/azimuth_4_joint,1.7802358370342162,-1.7802358370342162,-0.5061454830783556,0.4886921905584123
2025/05/06 15:48:57.667980561,0,0,,mA1/azimuth_1_joint,mA1/azimuth_2_joint,mA1/azimuth_3_joint,mA1/azimuth_4_joint,1.7802358370342162,-1.7802358370342162,-0.5061454830783556,0.4886921905584123
2025/05/06 15:48:57.769348285,0,0,,mA1/azimuth_1_joint,mA1/azimuth_2_joint,mA1/azimuth_3_joint,mA1/azimuth_4_joint,1.7802358370342162,-1.7802358370342162,-0.5061454830783556,0.4886921905584123
2025/05/06 15:48:57.870575157,0,0,,mA1/azimuth_1_joint,mA1/azimuth_2_joint,mA1/azimuth_3_joint,mA1/azimuth_4_joint,1.7802358370342162,-1.7802358370342162,-0.5235987755982988,0.4886921905584123
2025/05/06 15:48:57.966822010,0,0,,mA1/azimuth_1_joint,mA1/azimuth_2_joint,mA1/azimuth_3_joint,mA1/azimuth_4_joint,1.7802358370342162,-1.7627825445142729,-0.5235987755982988,0.47123889803846897
2025/05/06 15:48:58.63910679,0,0,,mA1/azimuth_1_joint,mA1/azimuth_2_joint,mA1/azimuth_3_joint,mA1/azimuth_4_joint,1.7802358370342162,-1.7627825445142729,-0.5235987755982988,0.47123889803846897
2025/05/06 15:48:58.172902369,0,0,,mA1/azimuth_1_joint,mA1/azimuth_2_joint,mA1/azimuth_3_joint,mA1/azimuth_4_joint,1.7802358370342162,-1.7627825445142729,-0.5235987755982988,0.47123889803846897
2025/05/06 15:48:58.306052234,0,0,,mA1/azimuth_1_joint,mA1/azimuth_2_joint,mA1/azimuth_3_joint,mA1/azimuth_4_joint,1.7802358370342162,-1.7627825445142729,-0.5235987755982988,0.47123889803846897
2025/05/06 15:48:58.364139221,0,0,,mA1/azimuth_1_joint,mA1/azimuth_2_joint,mA1/azimuth_3_joint,mA1/azimuth_4_joint,1.7802358370342162,-1.7627825445142729,-0.5235987755982988,0.47123889803846897
2025/05/06 15:48:58.463124657,0,0,,mA1/azimuth_1_joint,mA1/azimuth_2_joint,mA1/azimuth_3_joint,mA1/azimuth_4_joint,1.7802358370342162,-1.7627825445142729,-0.5235987755982988,0.47123889803846897
2025/05/06 15:48:58.564788153,0,0,,mA1/azimuth_1_joint,mA1/azimuth_2_joint,mA1/azimuth_3_joint,mA1/azimuth_4_joint,1.7627825445142729,-1.7627825445142729,-0.5235987755982988,0.47123889803846897
2025/05/06 15:48:58.664559540,0,0,,mA1/azimuth_1_joint,mA1/azimuth_2_joint,mA1/azimuth_3_joint,mA1/azimuth_4_joint,1.7627825445142729,-1.7627825445142729,-0.5235987755982988,0.47123889803846897
2025/05/06 15:48:58.766733647,0,0,,mA1/azimuth_1_joint,mA1/azimuth_2_joint,mA1/azimuth_3_joint,mA1/azimuth_4_joint,1.7627825445142729,-1.7627825445142729,-0.5061454830783556,0.4886921905584123
2025/05/06 15:48:58.868123505,0,0,,mA1/azimuth_1_joint,mA1/azimuth_2_joint,mA1/azimuth_3_joint,mA1/azimuth_4_joint,1.7627825445142729,-1.7627825445142729,-0.5061454830783556,0.5061454830783556
2025/05/06 15:48:58.966445897,0,0,,mA1/azimuth_1_joint,mA1/azimuth_2_joint,mA1/azimuth_3_joint,mA1/azimuth_4_joint,1.7453292519943295,-1.7627825445142729,-0.5061454830783556,0.5061454830783556
2025/05/06 15:48:59.64467141,0,0,,mA1/azimuth_1_joint,mA1/azimuth_2_joint,mA1/azimuth_3_joint,mA1/azimuth_4_joint,1.7453292519943295,-1.7627825445142729,-0.5061454830783556,0.5061454830783556
2025/05/06 15:48:59.163789096,0,0,,mA1/azimuth_1_joint,mA1/azimuth_2_joint,mA1/azimuth_3_joint,mA1/azimuth_4_joint,1.7453292519943295,-1.7627825445142729,-0.4886921905584123,0.5061454830783556
2025/05/06 15:48:59.266744998,0,0,,mA1/azimuth_1_joint,mA1/azimuth_2_joint,mA1/azimuth_3_joint,mA1/azimuth_4_joint,1.7453292519943295,-1.7627825445142729,-0.4886921905584123,0.5235987755982988
2025/05/06 15:48:59.367373902,0,0,,mA1/azimuth_1_joint,mA1/azimuth_2_joint,mA1/azimuth_3_joint,mA1/azimuth_4_joint,1.7453292519943295,-1.7627825445142729,-0.4886921905584123,0.5235987755982988
2025/05/06 15:48:59.466205663,0,0,,mA1/azimuth_1_joint,mA1/azimuth_2_joint,mA1/azimuth_3_joint,mA1/azimuth_4_joint,1.7627825445142729,-1.7802358370342162,-0.5061454830783556,0.5061454830783556
2025/05/06 15:48:59.566284957,0,0,,mA1/azimuth_1_joint,mA1/azimuth_2_joint,mA1/azimuth_3_joint,mA1/azimuth_4_joint,1.7627825445142729,-1.7802358370342162,-0.5061454830783556,0.5061454830783556
2025/05/06 15:48:59.668103662,0,0,,mA1/azimuth_1_joint,mA1/azimuth_2_joint,mA1/azimuth_3_joint,mA1/azimuth_4_joint,1.7627825445142729,-1.7627825445142729,-0.5061454830783556,0.5061454830783556
2025/05/06 15:48:59.765193966,0,0,,mA1/azimuth_1_joint,mA1/azimuth_2_joint,mA1/azimuth_3_joint,mA1/azimuth_4_joint,1.7627825445142729,-1.7627825445142729,-0.5061454830783556,0.5061454830783556
2025/05/06 15:48:59.870264257,0,0,,mA1/azimuth_1_joint,mA1/azimuth_2_joint,mA1/azimuth_3_joint,mA1/azimuth_4_joint,1.7627825445142729,-1.7627825445142729,-0.5061454830783556,0.5061454830783556
2025/05/06 15:48:59.964453443,0,0,,mA1/azimuth_1_joint,mA1/azimuth_2_joint,mA1/azimuth_3_joint,mA1/azimuth_4_joint,1.7627825445142729,-1.7627825445142729,-0.5235987755982988,0.4886921905584123
2025/05/06 15:49:00.67970688,0,0,,mA1/azimuth_1_joint,mA1/azimuth_2_joint,mA1/azimuth_3_joint,mA1/azimuth_4_joint,1.7627825445142729,-1.7627825445142729,-0.5235987755982988,0.4886921905584123
2025/05/06 15:49:00.166603623,0,0,,mA1/azimuth_1_joint,mA1/azimuth_2_joint,mA1/azimuth_3_joint,mA1/azimuth_4_joint,1.7627825445142729,-1.7627825445142729,-0.5235987755982988,0.4886921905584123
2025/05/06 15:49:00.265341917,0,0,,mA1/azimuth_1_joint,mA1/azimuth_2_joint,mA1/azimuth_3_joint,mA1/azimuth_4_joint,1.7627825445142729,-1.7627825445142729,-0.5235987755982988,0.4886921905584123
2025/05/06 15:49:00.377248919,0,0,,mA1/azimuth_1_joint,mA1/azimuth_2_joint,mA1/azimuth_3_joint,mA1/azimuth_4_joint,1.7453292519943295,-1.7627825445142729,-0.5235987755982988,0.4886921905584123
2025/05/06 15:49:00.463659493,0,0,,mA1/azimuth_1_joint,mA1/azimuth_2_joint,mA1/azimuth_3_joint,mA1/azimuth_4_joint,1.7453292519943295,-1.7627825445142729,-0.5235987755982988,0.4886921905584123
2025/05/06 15:49:00.568277996,0,0,,mA1/azimuth_1_joint,mA1/azimuth_2_joint,mA1/azimuth_3_joint,mA1/azimuth_4_joint,1.7627825445142729,-1.7802358370342162,-0.5235987755982988,0.5061454830783556
2025/05/06 15:49:00.666584155,0,0,,mA1/azimuth_1_joint,mA1/azimuth_2_joint,mA1/azimuth_3_joint,mA1/azimuth_4_joint,1.7802358370342162,-1.7976891295541595,-0.5235987755982988,0.5061454830783556
2025/05/06 15:49:00.765401944,0,0,,mA1/azimuth_1_joint,mA1/azimuth_2_joint,mA1/azimuth_3_joint,mA1/azimuth_4_joint,1.7976891295541595,-1.8151424220741028,-0.5235987755982988,0.5235987755982988
2025/05/06 15:49:00.867414537,0,0,,mA1/azimuth_1_joint,mA1/azimuth_2_joint,mA1/azimuth_3_joint,mA1/azimuth_4_joint,1.7976891295541595,-1.8151424220741028,-0.5235987755982988,0.5061454830783556
2025/05/06 15:49:00.967631776,0,0,,mA1/azimuth_1_joint,mA1/azimuth_2_joint,mA1/azimuth_3_joint,mA1/azimuth_4_joint,1.7976891295541595,-1.8151424220741028,-0.5235987755982988,0.5061454830783556
2025/05/06 15:49:01.64686289,0,0,,mA1/azimuth_1_joint,mA1/azimuth_2_joint,mA1/azimuth_3_joint,mA1/azimuth_4_joint,1.7976891295541595,-1.8151424220741028,-0.5235987755982988,0.5061454830783556
2025/05/06 15:49:01.173370410,0,0,,mA1/azimuth_1_joint,mA1/azimuth_2_joint,mA1/azimuth_3_joint,mA1/azimuth_4_joint,1.7976891295541595,-1.8151424220741028,-0.5235987755982988,0.5061454830783556
2025/05/06 15:49:01.270221215,0,0,,mA1/azimuth_1_joint,mA1/azimuth_2_joint,mA1/azimuth_3_joint,mA1/azimuth_4_joint,1.7976891295541595,-1.7976891295541595,-0.5061454830783556,0.5235987755982988
2025/05/06 15:49:01.370087608,0,0,,mA1/azimuth_1_joint,mA1/azimuth_2_joint,mA1/azimuth_3_joint,mA1/azimuth_4_joint,1.7802358370342162,-1.7976891295541595,-0.5061454830783556,0.5061454830783556
2025/05/06 15:49:01.465263209,0,0,,mA1/azimuth_1_joint,mA1/azimuth_2_joint,mA1/azimuth_3_joint,mA1/azimuth_4_joint,1.7802358370342162,-1.7976891295541595,-0.5061454830783556,0.5235987755982988
2025/05/06 15:49:01.565422369,0,0,,mA1/azimuth_1_joint,mA1/azimuth_2_joint,mA1/azimuth_3_joint,mA1/azimuth_4_joint,1.7976891295541595,-1.8151424220741028,-0.5061454830783556,0.5235987755982988
2025/05/06 15:49:01.666530433,0,0,,mA1/azimuth_1_joint,mA1/azimuth_2_joint,mA1/azimuth_3_joint,mA1/azimuth_4_joint,1.8151424220741028,-1.8325957145940461,-0.5235987755982988,0.5410520681182421
2025/05/06 15:49:01.763674272,0,0,,mA1/azimuth_1_joint,mA1/azimuth_2_joint,mA1/azimuth_3_joint,mA1/azimuth_4_joint,1.8325957145940461,-1.8500490071139892,-0.5235987755982988,0.5410520681182421
2025/05/06 15:49:01.865814822,0,0,,mA1/azimuth_1_joint,mA1/azimuth_2_joint,mA1/azimuth_3_joint,mA1/azimuth_4_joint,1.8325957145940461,-1.8500490071139892,-0.5235987755982988,0.5410520681182421
2025/05/06 15:49:01.967632492,0,0,,mA1/azimuth_1_joint,mA1/azimuth_2_joint,mA1/azimuth_3_joint,mA1/azimuth_4_joint,1.8325957145940461,-1.8500490071139892,-0.5235987755982988,0.5410520681182421
2025/05/06 15:49:02.63865993,0,0,,mA1/azimuth_1_joint,mA1/azimuth_2_joint,mA1/azimuth_3_joint,mA1/azimuth_4_joint,1.8325957145940461,-1.8500490071139892,-0.5235987755982988,0.5410520681182421
2025/05/06 15:49:02.164228273,0,0,,mA1/azimuth_1_joint,mA1/azimuth_2_joint,mA1/azimuth_3_joint,mA1/azimuth_4_joint,1.8325957145940461,-1.8500490071139892,-0.5235987755982988,0.5410520681182421
2025/05/06 15:49:02.265279869,0,0,,mA1/azimuth_1_joint,mA1/azimuth_2_joint,mA1/azimuth_3_joint,mA1/azimuth_4_joint,1.8151424220741028,-1.8325957145940461,-0.5235987755982988,0.5410520681182421
2025/05/06 15:49:02.377108903,0,0,,mA1/azimuth_1_joint,mA1/azimuth_2_joint,mA1/azimuth_3_joint,mA1/azimuth_4_joint,1.8151424220741028,-1.8325957145940461,-0.5235987755982988,0.5410520681182421
2025/05/06 15:49:02.463946522,0,0,,mA1/azimuth_1_joint,mA1/azimuth_2_joint,mA1/azimuth_3_joint,mA1/azimuth_4_joint,1.8500490071139892,-1.8500490071139892,-0.5235987755982988,0.5410520681182421
2025/05/06 15:49:02.565197130,0,0,,mA1/azimuth_1_joint,mA1/azimuth_2_joint,mA1/azimuth_3_joint,mA1/azimuth_4_joint,1.8675022996339325,-1.8675022996339325,-0.5235987755982988,0.5410520681182421
2025/05/06 15:49:02.664329341,0,0,,mA1/azimuth_1_joint,mA1/azimuth_2_joint,mA1/azimuth_3_joint,mA1/azimuth_4_joint,1.8849555921538759,-1.8849555921538759,-0.5410520681182421,0.5585053606381855
2025/05/06 15:49:02.766454844,0,0,,mA1/azimuth_1_joint,mA1/azimuth_2_joint,mA1/azimuth_3_joint,mA1/azimuth_4_joint,1.8849555921538759,-1.8849555921538759,-0.5410520681182421,0.5410520681182421
2025/05/06 15:49:02.866677042,0,0,,mA1/azimuth_1_joint,mA1/azimuth_2_joint,mA1/azimuth_3_joint,mA1/azimuth_4_joint,1.8675022996339325,-1.8849555921538759,-0.5410520681182421,0.5585053606381855
2025/05/06 15:49:02.972582864,0,0,,mA1/azimuth_1_joint,mA1/azimuth_2_joint,mA1/azimuth_3_joint,mA1/azimuth_4_joint,1.8675022996339325,-1.8675022996339325,-0.5410520681182421,0.5410520681182421
2025/05/06 15:49:03.65747210,0,0,,mA1/azimuth_1_joint,mA1/azimuth_2_joint,mA1/azimuth_3_joint,mA1/azimuth_4_joint,1.8675022996339325,-1.8675022996339325,-0.5410520681182421,0.5585053606381855
2025/05/06 15:49:03.165616108,0,0,,mA1/azimuth_1_joint,mA1/azimuth_2_joint,mA1/azimuth_3_joint,mA1/azimuth_4_joint,1.8675022996339325,-1.8675022996339325,-0.5410520681182421,0.5585053606381855
2025/05/06 15:49:03.277778032,0,0,,mA1/azimuth_1_joint,mA1/azimuth_2_joint,mA1/azimuth_3_joint,mA1/azimuth_4_joint,1.8675022996339325,-1.8675022996339325,-0.5410520681182421,0.5410520681182421
2025/05/06 15:49:03.365151528,0,0,,mA1/azimuth_1_joint,mA1/azimuth_2_joint,mA1/azimuth_3_joint,mA1/azimuth_4_joint,1.8675022996339325,-1.8675022996339325,-0.5410520681182421,0.5410520681182421
2025/05/06 15:49:03.463354510,0,0,,mA1/azimuth_1_joint,mA1/azimuth_2_joint,mA1/azimuth_3_joint,mA1/azimuth_4_joint,1.8849555921538759,-1.8675022996339325,-0.5410520681182421,0.5585053606381855
2025/05/06 15:49:03.569103888,0,0,,mA1/azimuth_1_joint,mA1/azimuth_2_joint,mA1/azimuth_3_joint,mA1/azimuth_4_joint,1.9024088846738192,-1.8849555921538759,-0.5410520681182421,0.5585053606381855
2025/05/06 15:49:03.663510800,0,0,,mA1/azimuth_1_joint,mA1/azimuth_2_joint,mA1/azimuth_3_joint,mA1/azimuth_4_joint,1.9198621771937625,-1.9024088846738192,-0.5585053606381855,0.5759586531581288
2025/05/06 15:49:03.764873778,0,0,,mA1/azimuth_1_joint,mA1/azimuth_2_joint,mA1/azimuth_3_joint,mA1/azimuth_4_joint,1.9198621771937625,-1.9024088846738192,-0.5585053606381855,0.5759586531581288
2025/05/06 15:49:03.866694178,0,0,,mA1/azimuth_1_joint,mA1/azimuth_2_joint,mA1/azimuth_3_joint,mA1/azimuth_4_joint,1.9198621771937625,-1.8849555921538759,-0.5585053606381855,0.5585053606381855
2025/05/06 15:49:03.963408301,0,0,,mA1/azimuth_1_joint,mA1/azimuth_2_joint,mA1/azimuth_3_joint,mA1/azimuth_4_joint,1.9198621771937625,-1.8849555921538759,-0.5410520681182421,0.5585053606381855
2025/05/06 15:49:04.64914382,0,0,,mA1/azimuth_1_joint,mA1/azimuth_2_joint,mA1/azimuth_3_joint,mA1/azimuth_4_joint,1.9198621771937625,-1.9024088846738192,-0.5410520681182421,0.5585053606381855
2025/05/06 15:49:04.186837298,0,0,,mA1/azimuth_1_joint,mA1/azimuth_2_joint,mA1/azimuth_3_joint,mA1/azimuth_4_joint,1.9198621771937625,-1.9024088846738192,-0.5410520681182421,0.5585053606381855
