time,header_stamp_secs,header_stamp_nsecs,header_frame_id,child_frame_id,pose_position_x,pose_position_y,pose_position_z,pose_orientation_x,pose_orientation_y,pose_orientation_z,pose_orientation_w,twist_linear_x,twist_linear_y,twist_linear_z,twist_angular_x,twist_angular_y,twist_angular_z,gps_status
2025/04/05 15:11:54.891032723,1743858713,962501412,piren,vessel_center,-299.8880844214651,-299.91069727545755,2.2648478391130227,-0.0006288498630534846,-0.0016716621912720427,0.018920939907297808,0.9998193877528044,0.19230081571990904,-0.13864531241024386,-0.06757921695545914,-0.0004268364620613294,-0.00024879218881274226,-0.024735665496383147,0
2025/04/05 15:11:58.471215376,1743858718,69659669,piren,vessel_center,-299.0767816766655,-300.42203410946144,2.0678991734164227,-0.03062360502171213,0.006664974245871508,-0.21121525445888395,0.9769369934738089,-0.18377632719207226,0.2965920257751356,0.2611517547416254,-0.0009870516366116847,-0.0015400433214625916,-0.0346087073227489,0
2025/04/05 15:12:04.696868831,1743858724,61950381,piren,vessel_center,-298.5656938035069,-299.8585962763963,2.4499346005134823,-0.026151380797888778,0.0024582911939653096,-0.07778473304533151,0.9966241003466834,0.6149993662774702,-0.34395095925110514,-0.23196196180159467,0.000644687545659822,0.007880916351336625,0.005419110069271687,0
2025/04/05 15:12:07.204729339,1743858727,185500947,piren,vessel_center,-296.4434225555117,-300.7252133156891,1.8165427122184952,0.0033343006841896005,-3.994546649543636e-05,0.05688085232476541,0.9983754050867416,0.17675248770192387,0.8262784611341436,0.4158887972836217,0.0008343902255913929,-0.0025994195032445436,0.03181917236723567,0
2025/04/05 15:12:09.345915924,1743858729,329139939,piren,vessel_center,-295.88965733504153,-299.1643795103137,2.596850971024638,0.029411503299237935,0.0011672227692418428,0.08181646665474483,0.9962126614577929,0.5252663487629431,0.1707191243073345,0.07414124716411252,0.0026166171660311722,-0.012090999837207485,0.02696746922938563,0
2025/04/05 15:12:11.143675116,1743858731,114672746,piren,vessel_center,-294.9506351764655,-299.19165685478396,2.5572250989818768,0.001291851775059269,-0.002782753383232499,0.0590778939337874,0.9982486613319087,0.6809980684544368,-0.5176502901590078,-0.2865547959963352,0.003822099121514031,0.004328208742919662,0.012240920272990216,0
2025/04/05 15:12:13.339869766,1743858733,323099230,piren,vessel_center,-293.3702995295272,-300.22960496885884,1.9971225434290272,-0.029502173973566692,-0.0011568943018952366,0.01686679683272405,0.9994217300474366,0.25760541987742697,0.1695948553493969,0.12626319066555514,2.5292029145802123e-05,0.00483120965481464,-0.010189052624997239,0
2025/04/05 15:12:15.541016911,1743858735,515345611,piren,vessel_center,-292.6587985908095,-299.74842857211996,2.346363771720045,0.008232742975386126,0.0005431777239529286,-0.04742054459057105,0.9988409377132053,0.3497763906043016,0.2586536745427571,0.1725629356905257,-0.001419281427766563,-0.0017175346495241902,-0.018896094284108916,0
2025/04/05 15:12:17.765452420,1743858737,667581112,piren,vessel_center,-291.98817104949006,-299.51647276804164,2.527712843783032,-0.0291886689806137,0.0026035122138363216,-0.04670208743081609,0.9984789223398244,0.4847917331067489,-0.23096797403031755,-0.09469554069625388,0.00017317660269586534,0.002448742492830028,-0.011775780535792996,0
2025/04/05 15:12:20.21553190,1743858740,4018434,piren,vessel_center,-290.8531897109523,-299.9405625380759,2.3390028582710407,-0.000909339016871975,0.0007952259818315503,-0.036323029044703366,0.9993393709242161,0.578161360859303,-0.01618879577172208,-0.039611610653538916,0.00033969216212461793,0.0008508581146837643,-0.001511618239870087,0
2025/04/05 15:12:22.2587668,1743858741,992298835,piren,vessel_center,-289.2837725616865,-299.95252256118283,2.2654801854360174,-0.02731455989662743,0.0006880793282388513,0.006429393768811378,0.9996059745020821,0.47095026597125944,0.05790338252722961,0.04331040278294459,0.001645745437655005,0.0016576918074973507,0.010821885558072123,0
2025/04/05 15:12:23.465509265,1743858743,454900835,piren,vessel_center,-288.57248541414526,-299.82646785372145,2.348057814367134,-0.02322360870230844,-0.00043182489224263246,0.01794834504711665,0.9995690743696377,0.4812279432655483,0.14548989598879472,0.08264036904870997,0.001063719156649275,0.0011888499830876606,0.01126443419222495,0
2025/04/05 15:12:24.883360337,1743858744,873833262,piren,vessel_center,-287.91852724789806,-299.6762804307036,2.43137270912089,0.02119754912117456,0.0003142763221144667,0.015421033711282813,0.9996563193722753,0.42984807900806987,0.024320013520355704,0.009382455397259043,0.0017679486526149834,0.0010562117640937141,0.004324063666858688,0
2025/04/05 15:12:26.363355412,1743858746,291151297,piren,vessel_center,-287.3823361806297,-299.7676426339249,2.3876220985537744,-0.03257934267397956,-5.0747242502198824e-05,0.006397045497335126,0.9994486788547744,0.2906545275256117,-0.25405278074267634,-0.11691272331721955,0.005707461814732185,0.0009691224916778991,-0.0008784123453898517,0
2025/04/05 15:12:27.828294552,1743858747,806917551,piren,vessel_center,-287.0057956502923,-300.01584718811137,2.2715385650143105,0.024972947196061114,0.0004907454434805505,-0.001087223357258672,0.9996874156568262,0.12252307693724976,0.0727650117416494,0.02934684922945527,0.0031486185504318305,0.0009435201152026292,-0.002993459436824786,0
2025/04/05 15:12:29.236222980,1743858749,209911161,piren,vessel_center,-286.85518492609145,-299.95767756101213,2.3002397612058667,-0.005035490355676166,0.0007764473180036825,-0.0036372455552978033,0.9999804055136334,0.0770657788008062,-0.023789874764769875,0.002060840256744554,0.00463709919477171,0.0009665501016379839,-0.002472794724506695,0
2025/04/05 15:12:30.603432434,1743858750,595501714,piren,vessel_center,-286.72324405764186,-299.9572838432792,2.3162244815086708,-0.0006719357108503536,0.0006776663232838133,-0.001114004236562608,0.9999989241320791,0.1391126909506507,0.04845899944962247,0.031406317882751916,0.005658663171979457,-0.0002531515356317022,0.00026212530238033197,0
2025/04/05 15:12:32.156689845,1743858752,65975499,piren,vessel_center,-286.48966319271864,-299.8999729056558,2.3507258832167865,-0.002279734326648337,0.0003603932773154285,0.0017268358295530204,0.9999958454744217,0.21108692867969656,0.020065481644724686,0.007132683679236803,0.004914192744947356,-0.001386503937078949,0.0008228855937221519,0
2025/04/05 15:12:33.602439426,1743858753,592408209,piren,vessel_center,-286.16047913108235,-299.88899407668504,2.3519393515550933,0.006437418899791502,0.0003959916606585315,-0.0012370212415466595,0.9999784360709791,0.21494517809765018,-0.02471995916666793,-0.014764865031065156,0.00462137129605638,-0.0018434867840653308,-0.0018132102453236607,0
2025/04/05 15:12:35.156265711,1743858755,143276402,piren,vessel_center,-285.8408907271752,-299.94462669226135,2.324759955377154,0.011472740236326062,0.0004267242004911934,-0.004998584070914224,0.9999216010744105,0.18234705587483366,-0.06293356702926695,-0.0241431266078189,0.004504174437446903,-3.125270586481032e-05,-0.00199404170348982,0
2025/04/05 15:12:36.774581455,1743858756,765845347,piren,vessel_center,-285.53728862198307,-300.0330154478157,2.292911973069901,0.03266219807537025,0.0005166133249075019,-0.005476637428892976,0.9994513096544675,0.1893140777659024,-0.02890112254003662,-0.006507607618913783,0.00168706718764982,0.002309374253354889,-0.0012134230901866983,0
2025/04/05 15:12:38.576184922,1743858758,565832797,piren,vessel_center,-285.1701979877692,-300.09199873147014,2.274069504445093,-0.03179496095653011,0.00037478483331914635,-0.002742949884359958,0.9994905783548104,0.24842133452234483,-0.04446409535953472,-0.02237207224701139,-0.006023581423940119,-0.001853183600135071,0.0005914614531453516,0
2025/04/05 15:12:40.45886221,1743858760,32093389,piren,vessel_center,-284.79716493223395,-300.02993482161867,2.294101998760576,-0.02555003073430435,0.00039306666892524145,-0.0011431869390572727,0.9996728137504253,0.2790149949228631,0.2364045996159354,0.09406471622047957,-0.0030092283645557797,-0.0015822236344894371,0.0005037521464123467,0
2025/04/05 15:12:41.520255156,1743858761,508482590,piren,vessel_center,-284.38833547068873,-299.73214751625505,2.414335869080293,0.02118261740460401,0.00039259700581989644,-0.0017509177591186807,0.9997740129021568,0.25569726375247187,0.10861193139849157,0.047095233978848065,-0.006259682349736315,0.00023762338798849302,-6.689958316417072e-05,0
2025/04/05 15:12:42.978348638,1743858762,922644001,piren,vessel_center,-284.04517991351105,-299.7499977656655,2.4107925964367394,-0.004252842501978353,-0.0001981617326036091,-0.0014708753517696704,0.9999898552426824,0.22071640195240394,-0.27062050818499234,-0.10799730193108076,-0.0031754133922434237,-0.0014157111062962154,0.0004990645140673407,0
2025/04/05 15:12:44.326854524,1743858764,315341633,piren,vessel_center,-283.74051299793047,-300.0643235117097,2.2877249916109665,-0.028314925295747202,0.000399899248409599,-0.002703439900389836,0.999595316364974,0.20988488791253945,-0.12568304859087154,-0.04488550388746028,0.0017516810381017368,0.0009633709416346305,-0.0009010005102959961,0
2025/04/05 15:12:45.748353177,1743858765,690225510,piren,vessel_center,-283.4525861064079,-300.09399918251154,2.282695011952513,-0.030666599564040702,0.0008157713445707396,-0.004119496251525796,0.9995208471757484,0.22038913432620535,0.18530706129486196,0.07855597836037716,0.004552043185674584,0.0019120931005337492,-0.0007992780963289684,0
2025/04/05 15:12:47.377636250,1743858767,329855562,piren,vessel_center,-283.09008358199543,-299.80665409405844,2.4023674401911594,-0.0004678816795506505,0.0006277376669313847,-0.003111448015288335,0.9999948529484558,0.220205008792254,0.14621024703656138,0.05720751071824053,-0.00037715160981436274,0.0004195574866034048,0.0003331898176420434,0
2025/04/05 15:12:48.777544580,1743858768,739524139,piren,vessel_center,-282.78780994958987,-299.73802291472214,2.4280144888600392,-0.028304094337789843,0.0001915272405644222,0.0004413587011545323,0.9995992430787103,0.20546948473652227,-0.15712941020333282,-0.06416086594704404,0.0028784631280241264,-0.002472168748862837,0.0019353827777187727,0
2025/04/05 15:12:50.152181773,1743858770,138387136,piren,vessel_center,-282.50792464291624,-299.9219372111898,2.353773272666799,0.025742887944485558,0.0002659019907144539,0.0027773850014785116,0.9996647033625639,0.1883692638466069,-0.07709933438522903,-0.02957782362582237,0.0034271101346569164,-0.002446473380473167,0.0018941660722379917,0
2025/04/05 15:12:51.558602058,1743858771,507080128,piren,vessel_center,-282.25145423791025,-300.0630210461421,2.2995816932583173,0.019394014246758934,0.0004865126188804569,0.002133564034258483,0.9998095235700548,0.17320361464166997,-0.1511554885861181,-0.058137573578954764,0.004354883343426562,-0.0005094361789679691,0.0006792183873288476,0
2025/04/05 15:12:52.987892789,1743858772,979275826,piren,vessel_center,-282.00919707431905,-300.2165075582632,2.242265572709064,0.020109474994228677,0.0007025285957890229,0.001121743905150166,0.9997969079566309,0.1533205134791384,-0.00458777357407536,0.002067406851014142,0.00557079552638217,0.0010174010147984305,7.907371246778002e-05,0
2025/04/05 15:12:54.391300474,1743858774,356377537,piren,vessel_center,-281.8006336185114,-300.17835244886044,2.2609107142589377,-0.00465073079094405,0.0008299086340690663,0.001505603900453115,0.9999877074802792,0.13807301815663742,0.09455401195291477,0.03705584210460186,0.0069396283182689665,0.0013809127443314012,0.0006102648881596999,0
2025/04/05 15:12:55.747338219,1743858775,740960798,piren,vessel_center,-281.6181553472223,-300.023164250157,2.3208365152208223,0.027772899164727614,0.0006224758514578409,0.003935765071990922,0.9996063166812715,0.13175810196207713,0.15741127784454026,0.05970555105025481,0.006644564776974353,0.000628798666970234,0.0018734521102969012,0
2025/04/05 15:12:57.161517351,1743858777,121480280,piren,vessel_center,-281.4379962843861,-299.9144672775053,2.3567912321448037,-0.0022584736691618574,0.00016035972191288537,0.00523692175545531,0.9999837239835319,0.12266697476211412,-0.09024311096309184,-0.045950146593798424,0.006277962324795956,-0.0008429369852414313,0.0011550552282895631,0
2025/04/05 15:12:58.607544501,1743858778,601197176,piren,vessel_center,-281.26287992701515,-300.0221121368536,2.3044441840957823,-0.02935325246782243,9.434853725518684e-05,0.002422596500862978,0.9995661602385846,0.1013948445397542,-0.027509763062652667,-0.00853148573197246,0.008108780375834951,-0.0004079741099003278,-0.0010294240850214915,0
2025/04/05 15:13:00.36560834,1743858779,998707305,piren,vessel_center,-281.1339014943113,-299.98167966627983,2.325329623169487,4.05705524229351e-05,0.0005883540014641459,-0.00047696529790811586,0.9999997123488106,0.08298303424471633,0.14550626508657905,0.06371761419015114,0.0049295738638564564,0.00021888314105819167,-0.0016262757302131596,0
2025/04/05 15:13:01.429703335,1743858781,423008131,piren,vessel_center,-281.01592993888454,-299.8458944375473,2.386097774311285,-0.0028297824537424194,0.00023321747030361672,-0.00024206252833881812,0.9999959396650611,0.0778297003072108,-0.021488960767600734,-0.006504316841004401,0.003409063862708557,-0.0010951912268272281,-0.00023572619574334703,0
2025/04/05 15:13:02.806069701,1743858782,791565801,piren,vessel_center,-280.9077502106214,-299.91228241041705,2.3606068336865196,-0.0010301444818574424,0.00022281196298270294,0.00011515719945271789,0.9999994379478396,0.07754395287433871,-0.09575750880821877,-0.03997048501438215,0.0026635668405128234,-0.0010292356870993903,-0.0006275522774882995,0
2025/04/05 15:13:04.276085583,1743858784,262894148,piren,vessel_center,-280.79732733721966,-300.0270842205183,2.3129823095483455,-0.005595606297062118,0.00046038793196868786,-0.0008743315498028156,0.9999838562584206,0.07157927305875054,-0.04028212183843542,-0.01615525337969089,0.000989782461094959,0.0008899259118987577,-0.00078220782586565,0
2025/04/05 15:13:05.647314493,1743858785,635720519,piren,vessel_center,-280.70571294305836,-300.03979668263327,2.309018296128268,-0.0008126231885887928,0.0005824188642130372,-0.0009346581705740274,0.9999990634225235,0.06036004609054507,0.052372251911265905,0.023525377030375903,-0.0004153423590646486,0.0016782395238412657,-0.00039624081899313206,0
2025/04/05 15:13:07.100689708,1743858787,93124586,piren,vessel_center,-280.6220049105779,-299.97208681474456,2.338904529504425,-0.010860845500552423,0.0005725885585039911,0.0011364863755251834,0.9999402095005852,0.052488480600277033,0.034605991156150324,0.014369710528731115,-0.000577844860804183,0.001210130793806933,0.0010905976804948623,0
2025/04/05 15:13:08.474992106,1743858788,465315529,piren,vessel_center,-280.54944032522764,-299.92810792800816,2.3560171945605846,0.0272392487438316,0.00045822210591087224,0.003565751827312132,0.999622478125757,0.050238203022808736,0.024509330098272317,0.007615574516843037,-0.002881767960384725,-0.0002827315800216814,0.0016082558617574922,0
2025/04/05 15:13:09.958163923,1743858789,949850528,piren,vessel_center,-280.4754426214597,-299.97214073649684,2.333593387598217,0.0006626399710982053,0.0002481347928167754,0.002051750082018416,0.9999976448267237,0.04757216948000823,-0.15490919449966828,-0.06756472030549339,-0.0007382092850153475,-0.0016419998421961127,-0.0005713609862682216,0
2025/04/05 15:13:11.353742301,1743858791,329061482,piren,vessel_center,-280.41721609318944,-300.11540578040507,2.2735768777705325,0.0005760202460187461,0.0006535787763618774,-0.0014204812633938717,0.9999986116332561,0.034551606575541516,-0.00950356633252275,0.001344597194849445,-0.0020626834223565716,0.0003975249408185364,-0.0017375716658181368,0
2025/04/05 15:13:12.765896097,1743858792,759148528,piren,vessel_center,-280.37125519269154,-300.0816686025775,2.2947330938529555,-0.03148742796114786,0.0007358008154575994,-0.001601358778805474,0.99950259435762,0.024908426662386407,0.09623368605780407,0.04401707894797141,-0.0021437028787724154,0.0007934998882343597,-0.0003459607120310269,0
2025/04/05 15:13:14.203032695,1743858794,184255615,piren,vessel_center,-280.335824347634,-299.907316567236,2.36731444903033,-0.013601468903109804,-0.00016764683070785046,0.0030282605127210436,0.9999028960736563,0.0261111456539762,0.18415512547262614,0.06830206728595861,-0.0021598874567763443,-0.0007967513649005329,0.0024580377200175917,0
2025/04/05 15:13:15.655184313,1743858795,627854896,piren,vessel_center,-280.29042367527467,-299.74630612480814,2.426472704214009,0.004244186723741173,-0.004834233976556042,0.02395894583623697,0.9996922456312894,0.04291459693458782,-0.051145095212313474,-0.020213141455590167,-0.002662698131338548,-0.003070239712046712,0.014127547936436712,0
2025/04/05 15:13:17.153004893,1743858797,88321509,piren,vessel_center,-280.21409148157267,-299.95110010730457,2.3700812248575014,-0.02663452949855194,-0.007115643158707085,0.054556564503648,0.9981300269656195,0.074640778936509,-0.34200681873962757,-0.08059525440021224,-0.00047683370432316524,-0.0004244143725205141,0.022963714364588998,0
2025/04/05 15:13:18.484398262,1743858798,476157626,piren,vessel_center,-280.098897183317,-300.4053225140698,2.3006692974710017,0.02754632101092074,-0.0018659628420906406,0.07400402835971467,0.9968756803974956,0.09705559636731739,-0.28112021829774614,0.017385558018969724,-0.0026047582239674435,0.0007327721780878563,0.02165095947362266,0
2025/04/05 15:13:19.939787933,1743858799,880478863,piren,vessel_center,-279.94765369884925,-300.8860734952842,2.3062717252888936,-0.003284361661137241,-0.0029400621103040166,0.07954984141837752,0.996821143301835,0.13273657667509686,-0.47932778407284726,-0.023989058214019955,-0.0014820741283551775,0.0005782319854749171,0.016003638770874528,0
2025/04/05 15:13:21.358556212,1743858801,348425219,piren,vessel_center,-279.77922005307994,-301.53548965729954,2.2949721765010644,-0.002677735682257689,-0.0023178555779051454,0.08447485960029871,0.9964193170410968,0.07921189470607677,-0.37757972630783965,0.028229237393074633,-0.0009486914791474213,-0.0006419108434741959,0.013075093374791987,0
2025/04/05 15:13:22.871182012,1743858802,798670161,piren,vessel_center,-279.6702725378632,-302.1023813816236,2.336707409003303,-0.0037377949618521214,-0.0017999964012195488,0.09105659853265526,0.9958370774205194,0.05691588601484872,-0.3770394835195924,0.026749264652897373,-0.001234013496769596,-0.002162771482055274,0.012722377132472597,0
2025/04/05 15:13:24.210052738,1743858804,198238438,piren,vessel_center,-279.5760801901311,-302.67253994433867,2.360900457563499,0.0004677785794015775,-0.0011872365068672124,0.10177358072303767,0.9948067701415632,0.08961241021856911,-0.4740189051370174,-0.002503856082941302,0.0007049797245370214,-0.0038288090068747237,0.015609101076531021,0
2025/04/05 15:13:25.625886793,1743858805,614022632,piren,vessel_center,-279.4311748113225,-303.3835309679144,2.3472838271982983,0.006836420133335141,0.0007146843035361679,0.11788807768077822,0.9930030985484576,0.1319501637422032,-0.5745861673310168,-0.02495422626197423,0.0006566881532077806,-0.005130243051861632,0.01736122807599844,0
2025/04/05 15:13:27.62714065,1743858807,23190524,piren,vessel_center,-279.2428669501747,-304.19542432081374,2.3137626255880255,-0.028110164438018177,-0.0028720601896962774,0.13191945475224773,0.9908576221553751,0.13911215310658878,-0.5877019125011879,-0.02164647903643426,0.003041684974996604,-0.0028823213902582335,0.017779364211661434,0
2025/04/05 15:13:28.559665126,1743858808,491445537,piren,vessel_center,-279.080020084959,-304.9524686143179,2.317987359972886,0.011513829276599503,0.003460885739105982,0.14614229979405025,0.9891905186647293,0.05262625287696171,-0.37585769127062973,0.057526101718934665,0.0011100202268419321,-0.0008797628963972961,0.018582350397676504,0
2025/04/05 15:13:29.994542149,1743858809,934585158,piren,vessel_center,-279.001649114255,-305.56021917774814,2.366834449003317,0.02279058782248483,0.005801462553551706,0.16261736105359553,0.9864089040671267,0.05809339199158746,-0.5216600602308057,-0.01834981420295114,0.0013312203470750548,-0.00037056816885306374,0.020194877307011545,0
2025/04/05 15:13:31.411960079,1743858811,402005370,piren,vessel_center,-278.90969331800426,-306.37744002640284,2.3185126153226223,-0.0017498480337171675,0.00176298868307306,0.1783054614271972,0.9839720485501591,0.06792872394025795,-0.5910569176057373,-0.06430112716757512,0.0015486704179442957,-0.0015670489232767304,0.02024754511095782,0
2025/04/05 15:13:32.908778060,1743858812,842179941,piren,vessel_center,-278.84153466450107,-307.1134755969646,2.266076272042877,-0.02863255202421138,-0.0036660541671926627,0.19442348305685972,0.9804928588457251,0.008315191859173468,-0.3902458920640578,0.018992695502003304,0.0027157996163554017,-0.001773291697317403,0.02252108557426717,0
2025/04/05 15:13:34.382866710,1743858814,373670253,piren,vessel_center,-278.8562874238794,-307.63961859909233,2.3267115871526896,0.017542807421197914,0.005611141109040704,0.21400646368500578,0.9766585885068926,-0.05312089692124612,-0.21604957381437034,0.0883935214508407,0.001528924893737871,-0.0030629688004179126,0.021732083482901864,0
2025/04/05 15:13:35.826848148,1743858815,795310623,piren,vessel_center,-278.8829853573935,-308.0768426598883,2.396181294040119,-0.000841026183254919,0.0011318873162186774,0.22674826840875847,0.9739523778294769,0.05808837330587227,-0.4942170757533853,-0.040993631339261455,0.0011291177888813413,-0.0022017838484416374,0.022759599237402065,0
2025/04/05 15:13:37.214673874,1743858817,204029531,piren,vessel_center,-278.8112663492067,-308.7751449728173,2.336020026473107,0.0030209285854373644,0.002301734311713728,0.24214181652489392,0.970233434127924,0.03673230801341521,-0.5084065247337088,-0.047149077376437046,0.0018200924934706425,-0.001480793369052521,0.023563407875984228,0
2025/04/05 15:13:38.634231632,1743858818,594746044,piren,vessel_center,-278.7805549226273,-309.4401974135718,2.289085807445422,0.0003096665293572566,0.0012134439659291607,0.25781078533728286,0.9661946132245594,-0.009431836287967989,-0.40283308207858626,-0.004592784742571736,0.0006485604599418218,-0.0008380556624219724,0.02369998826024371,0
2025/04/05 15:13:40.185880851,1743858820,103024695,piren,vessel_center,-278.8081809909748,-310.00284025639934,2.2989619191046886,-0.0035373698470537143,-0.00011583460236483456,0.2759071571084669,0.9611777745314516,-0.039325766584943654,-0.30766244441811014,0.03270063414406672,-0.0006891343128902557,-0.0019180581237187666,0.023444108491937704,0
2025/04/05 15:13:41.531103897,1743858821,510239985,piren,vessel_center,-278.85813240525397,-310.4369634253519,2.341892763750016,-0.028687179343632283,-0.007927070521704748,0.28752308092047263,0.9573111747139744,-0.0276872782117611,-0.312930050033537,0.026122964540216256,0.0003747121151572097,-0.0009950021162497453,0.02288370916566703,0
2025/04/05 15:13:42.946742034,1743858822,936830021,piren,vessel_center,-278.91178491500096,-310.8730335625673,2.3802811032604403,-0.0013775679882896703,0.0012504501737099398,0.30264401722081413,0.9531018505496924,-0.06125556009101313,-0.31370488566399163,0.0306019610577176,-0.0009193551387421063,-0.0016092150923077732,0.022258571612222812,0
2025/04/05 15:13:44.402067289,1743858824,323207422,piren,vessel_center,-278.95407712659284,-311.37861106510354,2.3903430013588753,0.02362180410386637,0.011454345687451382,0.3155391769255696,0.9485493324866583,0.03596743978505361,-0.4581117501693365,-0.04256484554742398,-0.002884963075549094,-0.0008410909987360398,0.02098996135132839,0
2025/04/05 15:13:45.786073047,1743858825,776515149,piren,vessel_center,-278.8722513950436,-312.0422738988592,2.3096762454855417,-0.0002656966941987067,0.004503423229654821,0.3308688102897755,0.9436659784912828,0.10184612508082823,-0.4558742258662272,-0.08459309098858524,-0.0014279855164047088,-0.0001340941793981233,0.022147863082783242,0
2025/04/05 15:13:47.186346299,1743858827,152181963,piren,vessel_center,-278.7987152981923,-312.5103968521609,2.2428466774763125,-0.025496937543084228,-0.004622563573537533,0.34573347151293843,0.9379748955902525,-0.04092238750349721,-0.1261645861187839,0.021189113965083675,-0.001328245863301861,0.0017943583253584733,0.023272838018957784,0
2025/04/05 15:13:48.555036771,1743858828,546799584,piren,vessel_center,-278.92537212481847,-312.5735113542771,2.310593919402648,-0.0018325059035465337,0.0026072044146693693,0.35881618554003586,0.9334028012609306,-0.1910141645420485,0.13867289429235874,0.10371841691412044,-0.0024702242135578975,0.0010950049548590207,0.019952729154953802,0
2025/04/05 15:13:50.14264381,1743858829,944945495,piren,vessel_center,-279.13351674674885,-312.46082205355765,2.407711769807746,-0.00338362098062678,0.00026686757918971925,0.36467208652203337,0.9311298240322996,-0.08057663386302961,-0.026895686111992695,0.00840767399307922,-0.0025518110902274576,0.0001649254448362992,0.01725110845127204,0
2025/04/05 15:13:51.424648706,1743858831,414467913,piren,vessel_center,-279.22364945441944,-312.5886886394494,2.389955809900179,-0.0021791278632187923,-0.0007964632537270477,0.37256609153503345,0.9280027610337969,-0.011596435916181203,-0.22119624665901885,-0.05915664347750797,-0.002261308293121188,-0.0008606221257555538,0.013670487463901813,0
2025/04/05 15:13:52.872290489,1743858832,823262908,piren,vessel_center,-279.2564393846159,-312.9022661617551,2.3169306068919724,-0.028256486910002522,-0.00912661968526617,0.37423341990583775,0.9268590093354039,-0.04838883197862784,-0.22916005222518782,-0.03717527615904444,-0.0006669689687066291,-0.0004706586472675706,0.011035061264353165,0
2025/04/05 15:13:54.237225780,1743858834,224899855,piren,vessel_center,-279.3879038787143,-313.14166143719365,2.3076810626387014,-0.0012702696013066656,-0.0006706299087721016,0.3774955446081554,0.9260102863746481,-0.19027107388997178,-0.049397601595773666,0.05774466248546503,-0.0018794505610181921,0.00027081029438422323,0.00931012214429788,0
2025/04/05 15:13:55.635493746,1743858835,603012458,piren,vessel_center,-279.6158253433258,-313.2464405215291,2.3682810890837853,0.0082316327644186,0.0024658101476844464,0.379309252908776,0.9252300528301778,-0.10682947407854085,-0.12916256594244208,0.013359667717102619,-0.0021120708041308923,-0.00010932885557900441,0.0074876209610918515,0
2025/04/05 15:13:57.3222557,1743858836,994339319,piren,vessel_center,-279.7173463615404,-313.4743862565323,2.359952509576756,0.0025153867210810058,0.000454358536380056,0.38031669599906287,0.924852786735446,-0.01102859997449783,-0.24715898603030784,-0.04535046963228039,0.00031102744221845913,0.000342606735338447,0.0056173945828372086,0
2025/04/05 15:13:58.454180131,1743858838,437261321,piren,vessel_center,-279.7500500763841,-313.82335863775864,2.3053807655201513,-0.0008301561019134552,-0.0007542230223774025,0.382654382420478,0.9238908840349501,-0.048233450917996794,-0.22743907096810237,-0.02070204752067197,-0.0007186742478155546,0.0004436638835167566,0.004919834130164727,0
2025/04/05 15:13:59.972294076,1743858839,896931270,piren,vessel_center,-279.84808417744927,-314.1224041297913,2.2957126436059756,-0.0009925340104310545,-0.0004699884384341617,0.3831103124807458,0.9237019446001027,-0.11024010576125007,-0.15702586259130788,0.02471968102155331,-0.0013667519128347325,0.0002132544063240762,0.003260798330915392,0
2025/04/05 15:14:01.326987733,1743858841,316516597,piren,vessel_center,-280.00277693437744,-314.3469609415393,2.3317274286416985,-0.011308500084049235,-0.0047260334227911685,0.38054501257997886,0.9246811752352481,-0.09933625731741855,-0.15085742934720606,0.02522462832076067,-0.0005485278907055241,-0.00012536625231540727,0.0004978818686524566,0
2025/04/05 15:14:02.739643660,1743858842,730216575,piren,vessel_center,-280.1334628468259,-314.56644188951617,2.3620590858532853,0.025731844206717085,0.010245605363932011,0.3787733891127625,0.9250749264056829,-0.08068706958974914,-0.16924239308377714,0.014146445290925996,-0.0022089767661560233,-0.0007416675327059154,0.0004410549586724905,0
2025/04/05 15:14:04.308079982,1743858844,298769003,piren,vessel_center,-280.19145085226,-314.89808461050836,2.344169275686985,0.027183380590334726,0.011044145873289944,0.3825255610019095,0.9234789038423049,0.07037131341235137,-0.3227981016496864,-0.0751813241188118,-0.0023147881237641286,-0.00033374642941895254,0.002888431838678491,0
2025/04/05 15:14:05.735649514,1743858845,695194217,piren,vessel_center,-280.10082355404944,-315.34236740753175,2.247619786075652,-0.00012472398750352454,0.0001703832527338762,0.38595544309840263,0.9225173989449684,0.046144063364226454,-0.27518811886811767,-0.04869252991678057,-0.0021953906903086004,0.0006148375612960569,0.002951763468124443,0
2025/04/05 15:14:07.113362236,1743858847,104886487,piren,vessel_center,-280.116876169522,-315.6337722467461,2.2335849343027907,-0.008763231089604433,-0.0030718009223634334,0.3832047171237427,0.9236167574238116,-0.1334149165476451,-0.06483923192681637,0.07193789212344215,-0.0028308224939877194,0.00016833900065237043,-0.0006106626259427219,0
2025/04/05 15:14:08.549550848,1743858848,523694322,piren,vessel_center,-280.31798034072085,-315.7128254122188,2.3393261291746357,-0.0019256861831220434,-0.000401131346292667,0.37982508951346317,0.9250562319137453,-0.16386423758585847,-0.03811119078236466,0.08236605031030195,-0.0027682983860133513,-0.0009529862994124482,-0.001227907171213234,0
2025/04/05 15:14:10.11448333,1743858850,1907903,piren,vessel_center,-280.4931085546015,-315.8496335408384,2.4161445098308034,0.0014195850620845254,0.0006345876719013135,0.38245756946356346,0.9239717472070029,-0.00853937907804761,-0.21552600196277985,-0.020621758327936265,-0.0016718130748128509,-0.0014004266118171195,0.001666342025045696,0
2025/04/05 15:14:11.424053965,1743858851,367052783,piren,vessel_center,-280.462223261832,-316.17683862433205,2.3662746747766787,0.00022742919779718092,0.00017024968129503043,0.3886426408789177,0.9213885266171197,0.08578597321929878,-0.29707644925206245,-0.06972247284581326,-0.0023300942369419682,-0.0004128766661439888,0.004514558052499768,0
2025/04/05 15:14:12.802475354,1743858852,794148621,piren,vessel_center,-280.3644427691413,-316.54908638011756,2.2903988846918413,-0.027172962915993353,-0.011082598227378367,0.39046957217557005,0.920147987721499,0.03553658796422455,-0.1978189736133567,-0.020891572920971886,-0.0016173324373674365,0.0006829754678093378,0.002341980332017497,0
2025/04/05 15:14:14.251322574,1743858854,181833848,piren,vessel_center,-280.38837477816685,-316.74347066876834,2.305100419759108,-0.005818471009417788,-0.001767066286068108,0.3883571495270021,0.9214888752899381,-0.12807196534086002,-0.015290570785509272,0.07669733303179443,-0.0019265005136350631,0.00024882412098778953,0.0004862334223860801,0
2025/04/05 15:14:15.675470365,1743858855,668156386,piren,vessel_center,-280.5378185216348,-316.81878340955626,2.3922148115552853,0.0019459905258864402,0.001146410618953772,0.3892580289590572,0.921125987992129,-0.031305040467168935,-0.1314741596229846,0.013453769912266253,-0.0013489947483990797,-0.0010895695593782218,0.0016962719157578188,0
2025/04/05 15:14:17.98558438,1743858857,87516619,piren,vessel_center,-280.5316774271773,-317.05535314484575,2.380238423788942,0.012336373308520556,0.0054169203044404255,0.39001460910620245,0.9207100931084355,0.07927497211417132,-0.2502247098768743,-0.05482366117159973,-0.0017930153548052412,-0.0007750955732801854,0.0009893166580820128,0
2025/04/05 15:14:18.510689481,1743858858,504160641,piren,vessel_center,-280.41426374083403,-317.4099709141334,2.301621205956203,-0.026981635131265832,-0.01101105596781392,0.3896104086533955,0.9205185915998932,0.08527530467490535,-0.23362398978219917,-0.0532343468765448,-0.000679520916164355,-7.361171455789867e-05,0.0005506003093291918,0
2025/04/05 15:14:19.985347342,1743858859,902908823,piren,vessel_center,-280.3880711243733,-317.63353173058823,2.2830403801063652,0.029141499468601853,0.01298136361557486,0.38913071718437997,0.9206299702654547,-0.1224855162577573,-0.001840512745456574,0.07150745382188528,-0.0011524330790681223,3.722098557748008e-05,0.00021114836531117,0
2025/04/05 15:14:21.404761793,1743858861,397034482,piren,vessel_center,-280.48866996248285,-317.7054485893572,2.34242565119238,-0.027765954744015026,-0.011168371873518318,0.3888422952723113,0.9208181083331327,0.04987022748332451,-0.15573238456740857,-0.02765787043966743,-0.00046722375530578976,-0.0006709679107702956,-2.835717482433339e-05,0
2025/04/05 15:14:22.842611535,1743858862,792934745,piren,vessel_center,-280.4682476001717,-317.876525769811,2.33277801873845,0.012008539092504288,0.005470896782491756,0.38879434402839036,0.9212300593927626,-0.05918122790635648,-0.053705887080013254,0.036552802529148457,-0.0009853755539549415,-0.0006678845511380976,-1.4850039235546798e-05,0
2025/04/05 15:14:24.195177349,1743858864,186068442,piren,vessel_center,-280.4992229522421,-318.00293746147605,2.355316753326921,-0.027059650361490942,-0.010973152743244716,0.3887720124503179,0.9208711568816331,0.05793846996339157,-0.1670268864025724,-0.028173916279957564,0.0002827300379544005,-0.0003755926474959551,6.787552001666215e-05,0
2025/04/05 15:14:25.612743276,1743858865,600263650,piren,vessel_center,-280.4598420396622,-318.1951781251321,2.339248386833089,0.016754438740717997,0.007523889808457467,0.3889600453607399,0.9210715297834392,-0.04027434645504441,-0.058844688488579266,0.02643342422545015,-0.0012249576084596054,-0.00021914701851539415,7.240946851546386e-05,0
2025/04/05 15:14:27.139228801,1743858867,122319003,piren,vessel_center,-280.4648437032233,-318.32965775720464,2.3478688216559505,0.013918446647912988,0.006381224073767539,0.3890110719749615,0.9211058260065023,0.08299810057683274,-0.16141560591331602,-0.0426096260912865,-0.000984236447986627,-0.00034326253999515704,6.601914594714416e-05,0
2025/04/05 15:14:28.634590055,1743858868,622522154,piren,vessel_center,-280.34787250547646,-318.56069144806366,2.2892545598634557,-0.008833227235455456,-0.0031965111675021965,0.3891716722290328,0.9211173464588652,0.0653141249567848,-0.1349083571513342,-0.030337630177668114,-0.0004465441425187691,-0.0002482259178369009,0.00011664914381817402,0
2025/04/05 15:14:30.99962733,1743858870,87184211,piren,vessel_center,-280.31699930543664,-318.69333207125436,2.28215022529389,-0.02522161939305057,-0.009969048058217576,0.38919165180918464,0.9207574849861626,-0.07675576496226354,0.0051777082460835455,0.05176520227246851,0.000596898393563257,0.00017384178326498826,0.0001405037836314644,0
2025/04/05 15:14:31.536828549,1743858871,528845938,piren,vessel_center,-280.4461993906662,-318.66661644143943,2.3650637141292488,0.014529131052230413,0.006735666401140399,0.38916435205132105,0.9210291212776474,-0.11725857571964338,0.047928281446093506,0.06969684264628516,-0.002250933637439655,-0.0003064286657397361,-8.867608250036497e-06,0
2025/04/05 15:14:33.33681872,1743858873,22878017,piren,vessel_center,-280.51372727336377,-318.6980626036707,2.4077445731232214,-0.0025660704563056406,-0.0008454239095281676,0.3889965261221883,0.9212352594238326,0.12387470665475989,-0.18187923089844793,-0.06797644558864537,-0.0015405345764477627,-0.0006198091484798191,-9.994824139531803e-05,0
2025/04/05 15:14:34.471179543,1743858874,456724033,piren,vessel_center,-280.34560635351306,-318.94850276612664,2.318393247700235,-0.0007419338912399041,4.8891576456803316e-05,0.3888622017427891,0.9212956285576662,0.097308061556259,-0.15086664456953208,-0.04694009917689154,-0.0009607853676008804,0.00018657836082624593,-0.00011508392556615175,0
2025/04/05 15:14:35.958396908,1743858875,888685873,piren,vessel_center,-280.2572429643956,-319.1094530795753,2.2809535269045154,-0.027272411128539186,-0.010786188660383342,0.38895254139366936,0.9207908526200858,-0.009236180616881445,-0.03892036480788143,0.015982097203660103,7.804885664110357e-05,0.0006248395851066805,0.00015371347850149137,0
2025/04/05 15:14:37.320150414,1743858877,306200324,piren,vessel_center,-280.32508827508735,-319.108318402424,2.332552415627918,-0.0006489412821747823,0.0004992314900753131,0.38998996954329834,0.9208187407404069,-0.13029480114878467,0.08891964108124788,0.07920938472527,-0.0006712145315272117,-2.1160837392534526e-05,0.0006330480836322055,0
2025/04/05 15:14:38.727208524,1743858878,713882356,piren,vessel_center,-280.4359104995127,-319.0520697709093,2.402805754012974,0.0009584255327665143,0.0008338060136296641,0.3904417586902739,0.9206267534994167,0.028332220212950704,-0.06241892826419594,-0.010817956795052305,-0.00023069354830542065,-0.0008126480298308713,0.00041604450351072006,0
2025/04/05 15:14:40.194099324,1743858880,186125126,piren,vessel_center,-280.3559164569271,-319.1818544461611,2.3657302587918156,0.010859096076431715,0.004868715802493642,0.3900810714502592,0.9207036077560766,0.11499573926134828,-0.1500996298440891,-0.058426700299111296,-0.0016828924043912204,-0.0007493890349829554,6.869057439253663e-05,0
2025/04/05 15:14:41.671035380,1743858881,606789348,piren,vessel_center,-280.2048882026075,-319.3845500331506,2.2899818736579354,0.026803840548320978,0.011901415347971444,0.3897105936826967,0.9204702948037244,0.07953999991691446,-0.11618916209981714,-0.0382214990733279,-0.0011866688242202486,-8.22263417675725e-05,4.188537178912175e-05,0
2025/04/05 15:14:43.55491082,1743858883,7047903,piren,vessel_center,-280.1174761665748,-319.52044490564487,2.24813409413289,0.025807590324686675,0.011740219863020915,0.3898920931474128,0.9204239736232049,0.026406854702645005,-0.05681441843080345,-0.01234152580047276,-0.0014780653183217706,0.000516687073393145,0.0001538118994700319,0
2025/04/05 15:14:44.438442636,1743858884,431795154,piren,vessel_center,-280.10599029162347,-319.5713567524766,2.245284048750611,0.025797590196968336,0.011754673278477332,0.39018402964849447,0.920300350430993,-0.03041621682759839,0.007210271225676947,0.01981168766127144,-0.001404810895133127,0.00015285955960006207,0.00023732725919584923,0
2025/04/05 15:14:45.898970360,1743858885,888613941,piren,vessel_center,-280.147676199612,-319.5623372159525,2.272943404337321,-0.0038819478550995174,-0.0010007086723803817,0.3903429330954928,0.9206608081402244,-0.024945478353629792,0.003992684114655744,0.017377957301314487,-0.0011836083740718762,-0.0007406257371208026,7.391741353070671e-05,0
2025/04/05 15:14:47.387566169,1743858887,305407613,piren,vessel_center,-280.20556625264794,-319.53725295377257,2.312328372986454,-0.027534136347200495,-0.011209744975796038,0.38982873184855665,0.9204073950042653,-0.07338995422519516,0.04690973659380735,0.049029073595526884,0.0004450220829090359,-0.0006905903805426124,-0.00016928957708749195,0
2025/04/05 15:14:48.789750894,1743858888,778058764,piren,vessel_center,-280.31430832960876,-319.4710708023017,2.383539843939118,-0.015141219139448575,-0.0005300569659264327,0.37782117101077145,0.9257546247568161,-0.07865677041068053,0.04288272279336572,0.04935585704686705,-0.0004069299927185871,-0.0060019866861477835,-0.009297114993029834,0
2025/04/05 15:14:50.180140513,1743858890,169597666,piren,vessel_center,-280.38732957143753,-319.4655618028824,2.4179123972914818,-0.0199529638540975,-0.00017114541739179492,0.3443907243794131,0.9386143398138057,0.0028265618825567135,-0.07777613803373194,-0.027214965480102403,0.0015798526888076059,-0.006004184806766884,-0.0264676017187028,0
2025/04/05 15:14:51.657109753,1743858891,642144285,piren,vessel_center,-280.4470724241646,-319.5831247202502,2.3733957249266338,0.01092483227354439,0.006859745951554148,0.3019919711197744,0.9532231854631257,-0.13912147138271436,-0.0870749956324739,-0.03798089248818545,0.0013601829250794934,0.010833824192366103,-0.03413519890562465,0
2025/04/05 15:14:53.89720283,1743858893,83186463,piren,vessel_center,-280.7251156761268,-319.7163032655746,2.313483667807812,-0.003708037270551439,0.002388708210761348,0.28985213162283807,0.9570612761607175,-0.3087251373414351,-0.10245055488276145,-0.0487355062766537,0.0012075659639510065,0.009620144200471342,-0.022982737528953356,0
2025/04/05 15:14:54.568428134,1743858894,496776161,piren,vessel_center,-281.2208340105185,-319.77076961438473,2.2763353070255237,-0.013219407014917698,-0.0012488727879546744,0.2941388847709677,0.9556704474140786,-0.41919635753761253,0.10547057294820708,0.025191595118139065,0.001554283199193248,0.0041765236426328884,-0.014577646275487209,0
2025/04/05 15:14:55.889266999,1743858895,883371752,piren,vessel_center,-281.76996962279395,-319.56587377845887,2.3263542559400925,-0.01756719713426679,-0.003201902515040918,0.29282239856770603,0.9560000963923516,-0.37568325171773764,0.24284789048442737,0.06040389122939113,0.001291876631674956,-0.0010525554007834532,-0.013406857303074834,0
2025/04/05 15:14:57.486115078,1743858897,474253213,piren,vessel_center,-282.3333580409146,-319.21733647348606,2.4014835674281616,-0.002466237848560367,0.0011484660618550485,0.2763544850439405,0.9610519222667824,-0.2908642105868698,0.15323791051755553,0.012411021711693122,0.00011994676959776616,-0.0028830100101210365,-0.01616598533739871,0
2025/04/05 15:14:58.918294555,1743858898,909896283,piren,vessel_center,-282.7512758723534,-319.0784336348347,2.3886426366543616,-0.029550224304776693,-0.007786513164516575,0.25706941412077033,0.9659096597404336,-0.287225744012449,-0.029327150344124198,-0.055923906120687865,0.000906179099373469,0.0006458738888614328,-0.021737530197328665,0
2025/04/05 15:15:00.324375066,1743858900,308099343,piren,vessel_center,-283.2257055786368,-319.0778933519368,2.3373045090860693,0.009656819677413222,0.002083498216519947,0.2374676552029492,0.9713452103147021,-0.4481249654137632,0.06311685318246466,0.003957587686340136,-0.0001830466508626323,0.000811656728563483,-0.02307998685776349,0
2025/04/05 15:15:01.826376193,1743858901,818429502,piren,vessel_center,-283.8803139423075,-319.01521506738254,2.3313817676828688,0.026790770157309535,0.006554768952597739,0.21447900724099409,0.9763391035348702,-0.4084908659266152,-0.008079781631613034,-0.02240580296630423,-0.0015306987051519408,0.0006751990935908027,-0.024932939994745124,0
2025/04/05 15:15:03.376292562,1743858903,335606761,piren,vessel_center,-284.4626508853708,-319.04508136157807,2.288777053114467,0.0010465600683825492,-8.52638641761437e-05,0.19136367671251409,0.9815186400049493,-0.34246849010987757,-0.04755684765473185,-0.04248666708642769,9.853214522611741e-05,0.0007821505695930513,-0.02726721504322641,0
2025/04/05 15:15:04.872646345,1743858904,864283507,piren,vessel_center,-285.0295591160766,-319.0455631486589,2.2606681503517105,-0.028665944905252146,-0.004998415901025587,0.16903806250948036,0.9851798885808675,-0.42058110645839447,0.11555404087139369,0.04169589409385696,0.0009904545235700168,0.0026596972760383453,-0.026825610959825448,0
2025/04/05 15:15:06.378926306,1743858906,307276322,piren,vessel_center,-285.67476729889955,-318.8298574939614,2.343330663996578,0.02021591299897961,0.0028534923827381684,0.1534598189976359,0.9879439550885729,-0.4985909404430008,0.22241648641293113,0.0909875668397375,-0.0029005737650930896,0.007119076199319755,-0.02794687125645362,0
2025/04/05 15:15:07.729329700,1743858907,719857286,piren,vessel_center,-286.32424912581206,-318.66819654829567,2.405106944686641,-0.008387210201611707,-0.0013260812441364081,0.1318188926478133,0.9912374467072319,-0.38942520904547606,-0.1109361670400171,-0.05506687915562064,-0.0026484809300158793,0.0031514016707976937,-0.028869022591049735,0
2025/04/05 15:15:09.224051744,1743858909,201454435,piren,vessel_center,-286.9093465923261,-318.82234291667413,2.3311302978244464,-0.0037699131184537917,-0.0016424572024679436,0.11719698922161415,0.9931001741047105,-0.39371963197131704,-0.08430834164996617,-0.0362061089880073,-0.0028965565614683846,0.005465439231471408,-0.023543413762623453,0
2025/04/05 15:15:10.630667883,1743858910,622439847,piren,vessel_center,-287.4764505355446,-318.9017919689634,2.301049031763969,-0.003989411284394369,0.0003186456533629932,0.10459289880756167,0.9945070681405853,-0.4323206311283233,0.001059773515180995,0.009460283306509505,-0.0031109553195109428,-2.9213754428268903e-05,-0.02429122112165586,0
2025/04/05 15:15:12.61646700,1743858912,46320710,piren,vessel_center,-288.09203707856346,-318.88420577733496,2.322705785583411,-0.021453847579323622,-0.0013912624414416808,0.09161056514212838,0.9955628062393663,-0.45127147183638994,0.03684156024314739,0.02807062700626755,-0.0013054882510403465,-0.0058742749480104745,-0.02095013628372217,0
2025/04/05 15:15:13.496316217,1743858913,486461156,piren,vessel_center,-288.7550984499425,-318.82349623847335,2.3657205090934936,0.028401047937853533,0.0024585354827536855,0.0806411215769907,0.9963354583623514,-0.4688204428574413,0.05289390290022361,0.033096423076940586,-0.0027471063373715153,-0.00703253991581243,-0.019488192722803995,0
2025/04/05 15:15:14.958570350,1743858914,911159017,piren,vessel_center,-289.4200454164722,-318.86724342195635,2.3622377363045377,-0.004033435442594726,-0.0004351081801251998,0.07159374558048905,0.9974256251336028,-0.43473621805642365,-0.21492702680629866,-0.0813838525673437,-0.0026331288725560463,-0.0025214906193700495,-0.017489664891433925,0
2025/04/05 15:15:16.439882151,1743858916,419077863,piren,vessel_center,-290.0877872400701,-319.1141909643396,2.2753426980525493,-0.0026221682849607714,-0.00011077824312191212,0.060645305616827815,0.9981559291354772,-0.4699326350107644,-0.04746979027586298,-0.003275705482236657,-0.002183112507900637,0.0031336453449080674,-0.015898073880907006,0
2025/04/05 15:15:17.856977186,1743858917,834591599,piren,vessel_center,-290.753044934851,-319.127692958208,2.293918833920225,-0.0014332306641232644,-0.00010620476064483262,0.056377954485398986,0.9984084639156734,-0.4920488219981966,0.06966584217289032,0.04817268025273538,-0.002975795119834997,0.0037593874078117426,-0.013011125128238437,0
2025/04/05 15:15:19.334849439,1743858919,255037234,piren,vessel_center,-291.44037565732003,-319.04984695562626,2.352883829546415,0.02956717584017332,0.0013062387406775303,0.05116480848471856,0.9982515906453195,-0.42458906076854,0.016796040176996527,0.02304183349010305,-0.004436729074077461,0.002261733501934804,-0.011322377594123164,0
2025/04/05 15:15:20.677951695,1743858920,667693793,piren,vessel_center,-291.97686404854414,-319.117303424768,2.343203845432074,0.0077073465783088916,0.00043921551650609485,0.05404141135373881,0.9985088531191638,-0.3001987635093887,-0.18637170008355447,-0.07043579891494973,-0.003955534495139101,0.00437738019088919,-0.005112744638608352,0
2025/04/05 15:15:22.173309806,1743858922,159840095,piren,vessel_center,-292.380826029146,-319.3275407940126,2.2654965974025245,-0.010732082905344425,-4.113015144545785e-05,0.07168277630568572,0.9973697410117939,-0.1999664358309023,-0.034013550198369075,-0.008969494971942736,-0.0036110973646913415,0.0015929339113060997,0.006961505385205379,0
2025/04/05 15:15:23.598034414,1743858923,588751433,piren,vessel_center,-292.63515421334796,-319.28527575852615,2.2879591926847724,0.014374488101681713,-0.0008012287711161683,0.09129762684289695,0.9957195767168214,-0.14117128971324786,0.16616506445316237,0.06898363344175162,-0.0064705673574312434,-0.0022186240017104215,0.011902940398846925,0
2025/04/05 15:15:25.29002372,1743858925,18524845,piren,vessel_center,-292.82541405462865,-319.1450379578739,2.3566066797598104,-0.027419845972649338,-0.0008954698291516133,0.0564702557780176,0.9980272843930603,-0.11024301158240672,-0.05628869414949755,-0.00019156573024023404,-0.006401967686871901,-0.003042645398593246,-0.021099822500808104,0
2025/04/05 15:15:26.448568816,1743858926,438263589,piren,vessel_center,-293.0261796216463,-319.2219051195107,2.364830785858384,0.020013054293294745,0.0012785380363431948,0.019479671338394237,0.9996091163064148,-0.21298771224583146,-0.05170648361190566,0.01870163662384268,-0.007530940661508006,0.005460397358449779,-0.020505832862082407,0
2025/04/05 15:15:27.985951688,1743858927,949373039,piren,vessel_center,-293.3852366723867,-319.37278954237115,2.3562267066806224,-0.028223697692596167,-0.0007705565477551042,0.02763556192889571,0.9992192476368926,-0.2780552041014748,-0.20963887416246457,-0.0651079473209518,-0.0045947459905281655,-0.0021139738561899595,-0.003684932982930874,0
2025/04/05 15:15:29.366255936,1743858929,355449716,piren,vessel_center,-293.7523758484631,-319.5463735696582,2.3069429583944907,-0.002231368062432687,0.0002651321743971478,0.03761186950937805,0.9992898968635225,-0.22922194023503875,0.05659666823507953,0.027860468379052497,-0.0074583426212061045,-0.0030391720416878907,-0.0041146214944191295,0
2025/04/05 15:15:30.800496473,1743858930,778075804,piren,vessel_center,-294.04189946627434,-319.4840687703396,2.3418467352727803,0.02974742942113202,0.0013920661634848738,0.03337472949614633,0.9989991391516263,-0.15688114684221588,0.018331195967357897,0.018432334360139427,-0.00786042919224765,-0.0019007025198657772,-0.004771994361582845,0
2025/04/05 15:15:32.239713809,1743858932,230469099,piren,vessel_center,-294.28404730221615,-319.55300614860005,2.3323191575092665,0.02897863594883606,0.001102651617217381,0.029705220136489456,0.9991379397833908,-0.18941916948301737,-0.19401360671786227,-0.062170210706781956,-0.008026550806220155,-0.0012455285699919166,-0.0043231517468567465,0
2025/04/05 15:15:33.714101038,1743858933,699537508,piren,vessel_center,-294.59804262722434,-319.8141161998892,2.2519793244686883,-0.0018628305791492394,0.00043205271962534644,0.030017743106251507,0.9995475367842632,-0.27629996148280084,-0.14853688798771095,-0.04019450777838013,-0.008100352159095785,0.0001656107025401001,-0.0023516847067350122,0
2025/04/05 15:15:35.125469202,1743858935,111153523,piren,vessel_center,-295.0077184737112,-319.9131805440983,2.2440494212376283,-0.0018575543576647058,-0.0004463907350940006,0.01598812592848922,0.999870356624505,-0.29693351551513886,0.10983685239361926,0.07170101983109792,-0.008664438506854808,-0.0012438295042444078,-0.011759595925017357,0
2025/04/05 15:15:36.550627170,1743858936,532871543,piren,vessel_center,-295.4042389746317,-319.76956994019736,2.34034269538054,0.012797920785054501,9.856387184688388e-05,-0.015849586863522516,0.9997924755192941,-0.2569747380762242,0.08824123071349327,0.0632639178935288,-0.0072646877720792015,-0.003224125107943161,-0.024076928311659043,0
2025/04/05 15:15:37.965563519,1743858937,952159949,piren,vessel_center,-295.7640213845801,-319.74225983695044,2.3861875170770657,0.0296279065006637,0.0018438914827478279,-0.03183531182390114,0.9990522009092733,-0.228033309512512,-0.13608885774515278,-0.03905398142067869,-0.00682985114563177,0.0007783920460443193,-0.016787605553134213,0
2025/04/05 15:15:39.489055802,1743858939,482590099,piren,vessel_center,-296.10632522556244,-319.96824670334854,2.306097933626932,0.0023363508642394097,-0.0004546493358565968,0.0059059818359104834,0.9999797268630872,-0.22538406489161433,-0.1827423400529819,-0.08630818547028349,-0.006561242108689794,-0.0027903856495494262,0.013961782671056768,0
2025/04/05 15:15:40.922798769,1743858940,872538266,piren,vessel_center,-296.3943594030903,-320.10732206229954,2.2359296868873213,-0.008457553357896625,0.0010105161072081067,0.031248230405475193,0.9994753607492892,-0.1662188030145903,0.07520963056986196,0.025554360558264738,-0.0077225492998079385,-0.009832734862979179,0.010086062878749573,0
2025/04/05 15:15:42.287424775,1743858942,276735246,piren,vessel_center,-296.60949808438755,-319.9660365736258,2.2982261573819724,-0.0005432544390189104,-0.0005385099503894764,0.0014677735614782022,0.9999986302602719,-0.12645044659684615,0.15573157723260966,0.0849547231779943,-0.007420890595946362,-0.0027327185327402767,-0.014530848372459947,0
2025/04/05 15:15:43.685634442,1743858943,677850038,piren,vessel_center,-296.8280023241425,-319.83433332576504,2.3862239179137488,-0.007547135995530878,0.0022893954672365117,-0.033505998090229104,0.9994073981608488,-0.21842724974144445,-0.036520302170674285,0.015991710579339277,-0.007195939018637594,0.003099169004402485,-0.02047656766102125,0
2025/04/05 15:15:45.211733440,1743858945,199729159,piren,vessel_center,-297.19577314552714,-319.9122718320312,2.387010571560347,-0.022295991457004904,-0.004290810239741919,-0.016640660384063484,0.999603704542164,-0.28729101558474257,-0.08459015916055201,-0.03705936096288669,-0.004587122677625876,0.006621141641712098,0.00530699495276709,0
2025/04/05 15:15:46.661997754,1743858946,630051370,piren,vessel_center,-297.57065409134646,-319.97603068703245,2.347937706684138,0.024807329509734043,0.0009316912777360041,0.01979844906020206,0.9994957477492185,-0.22474842075548668,0.03758535267343224,-0.008326404992362858,-0.004290730247642378,0.003161944200272875,0.015304662401707868,0
2025/04/05 15:15:48.76812121,1743858948,69803390,piren,vessel_center,-297.82047556929956,-319.99390969849804,2.3152884051321534,0.011004854362227675,-0.0010280570958777413,0.018018226347646587,0.9997765649375658,-0.05388612285992214,-0.12360235270962172,-0.05399943911665206,-0.002282776624076638,-0.0016037210403213216,0.0011801709601970316,0
2025/04/05 15:15:49.512620022,1743858949,486265500,piren,vessel_center,-297.8976617252832,-320.14943706832224,2.264276579264473,0.0017906224300033575,-1.3802794414664357e-05,-0.022628674128950622,0.9997423350983802,-0.057745103911475346,-0.08462329299268229,0.0006699773087315217,-0.0015710705914162822,-0.0004080717767423662,-0.02150737841034941,0
2025/04/05 15:15:50.911177089,1743858950,901557155,piren,vessel_center,-298.0458018620603,-320.2128657247457,2.2872916704330204,-0.001630292470400351,0.0032580546288440127,-0.04061218238986101,0.9991683431074211,-0.2007500921849446,0.0473685760640824,0.049665712511662616,-0.00031080915104238845,0.0001870991802332553,-0.012524693905601512,0
2025/04/05 15:15:52.500191027,1743858952,483003179,piren,vessel_center,-298.3682398611552,-320.1089813170526,2.353004517716644,-0.03090793842268824,0.0013190493035978173,0.005824092549532805,0.9995043968874617,-0.22784897329324894,0.11555714295109329,0.02512333564350929,-0.0013468793345374804,-0.006269427216481333,0.020866393400115413,0
2025/04/05 15:15:53.924764195,1743858953,915927668,piren,vessel_center,-298.620803938213,-319.92493923498955,2.3881019976608377,0.029193880635237653,-0.00115752741229026,0.03419888170818513,0.9989878947983579,-0.05522902018933609,0.15236399948171356,0.02220112902323902,-0.003572696107700779,-0.0018514833913970167,0.013697496827454681,0
2025/04/05 15:15:55.357085596,1743858955,343956524,piren,vessel_center,-298.6523291699802,-319.89249357839554,2.3652883585316196,0.003819202879256956,-0.0009350404639732791,-0.008065438370197431,0.9999597432359937,0.04724258845353642,-0.2515201080266247,-0.09786329630101216,-0.0027584082663913356,0.001316154186619897,-0.01878314619926073,0
2025/04/05 15:15:56.774653951,1743858956,766861768,piren,vessel_center,-298.6519917668113,-320.20720832309956,2.25930635309513,0.025075352275337626,0.001996820168637269,-0.03437865633557833,0.9990922617086182,-0.10383405270999947,-0.14268577913780928,-0.01891169413783063,-0.004008154330694796,0.010116184522449967,-0.01193161351541865,0
2025/04/05 15:15:58.279812974,1743858958,272081035,piren,vessel_center,-298.860219732924,-320.3349599932551,2.2479429763613585,-0.0006550561057260482,0.0018939638085146992,0.004752327289914306,0.9999866995055084,-0.21949912296590857,0.050482854765733,0.019071246277623195,-0.0024667153098716487,-0.0009891332173387764,0.01751114102813615,0
2025/04/05 15:15:59.740429936,1743858959,692346192,piren,vessel_center,-299.1022155436345,-320.181700987707,2.2949396758341547,-0.001965167344804402,-0.001711021001795597,0.032876512634284004,0.9994560247661955,-0.07725879614290582,0.23471414459459125,0.0644393538713035,-0.005135583791632423,-0.007570022335325273,0.01534443842940722,0
2025/04/05 15:16:01.128511433,1743858961,121706802,piren,vessel_center,-299.15086805495537,-319.91827836766987,2.3689326260686165,-0.027620975962257995,-0.0004363605617156554,-0.002473719241100926,0.9996153120023066,0.06427740546723676,0.06170241101640428,0.020656078953440286,-0.004078401555002214,0.0018845299005365108,-0.016426044217694554,0
2025/04/05 15:16:02.529185109,1743858962,521424954,piren,vessel_center,-299.1001538430509,-319.8761273862268,2.3915555919001967,-0.024929615281729316,0.003065190531061839,-0.03004953857773542,0.9992327777450951,-0.02332562793776609,-0.03690846265199027,0.006563408073555538,-0.003636131155496178,0.007864843966607225,-0.011659622030881946,0
2025/04/05 15:16:04.74952580,1743858964,58839014,piren,vessel_center,-299.19386695160216,-319.931832346057,2.3924464680344824,0.0010387719068789708,0.0010090112018878495,0.005637776223086988,0.9999830590207909,-0.15206366219435996,-0.03362238529689378,-0.014177192667553564,-0.0030607387008788713,-0.0030597001634654246,0.016159054535234835,0
2025/04/05 15:16:05.549568728,1743858965,490691101,piren,vessel_center,-299.37884409428153,-319.99222203016365,2.356556340722255,-0.0015682190901179025,-0.0007581159095401816,0.042906779309552515,0.9990775616729837,-0.08887534112964252,-0.06309465863891958,-0.049844950934980835,-0.004312829677224707,-0.00522289489624746,0.021453822054353328,0
2025/04/05 15:16:06.927113313,1743858966,918040822,piren,vessel_center,-299.44519201769333,-320.06035566112047,2.302116859802906,-0.03020253747541327,-0.002154635671405749,0.025488543148131947,0.9992164422402965,0.04847486843423163,-0.012335040638299266,-0.011108886990486233,-0.003312475534020278,-0.004195983854241983,-0.004906369872545808,0
2025/04/05 15:16:08.387835653,1743858968,371879655,piren,vessel_center,-299.3912131026711,-320.0254992640234,2.3215255984205863,-0.026543773967286764,0.0006620498991276612,-0.022526707719683108,0.9993935847266664,0.012229600140517015,0.10489121577074953,0.06783101262448446,-0.0015708065333226787,0.004020205556555115,-0.022638295440317396,0
2025/04/05 15:16:09.863574962,1743858969,855957708,piren,vessel_center,-299.4305069775489,-319.90069348021296,2.40751661845846,-0.030030649939561768,0.002136387709591331,-0.03324409933044347,0.9989937065725036,-0.11661656890742098,0.030409245833471196,0.0314516686272234,-0.0010495942960646054,0.0021766845484955514,-0.009245547049493825,0
2025/04/05 15:16:11.311626079,1743858971,266602730,piren,vessel_center,-299.59714087716276,-319.87777950747386,2.427341632974232,-0.020953879437662443,0.008442641615383675,-0.042102588341391016,0.9988578621575853,-0.12467129559991054,-0.013140784905499032,-0.022203119094200197,-0.0017083174251662264,-0.0015031437049242917,-0.019258156281244103,0
2025/04/05 15:16:12.726072183,1743858972,716318996,piren,vessel_center,-299.7379550680447,-319.8510036575732,2.3858075837245374,-0.0002276456304039777,0.005146052608470704,-0.06658916766456281,0.997767181796314,-0.03633059274884591,0.08867531001537868,-0.04304696673158695,-0.0030006215821678332,-0.009204648142374922,-0.02066652635582472,0
2025/04/05 15:16:14.214017471,1743858974,177364037,piren,vessel_center,-299.79066816919277,-319.6593432613965,2.3261691974922827,0.015843324855996207,0.002878007181474931,-0.058533504122918203,0.9981555665462489,-0.03653330688039251,0.22919585543031684,-0.03701989905324481,-0.003233351554838745,-0.00824601362676977,-0.0042761710297174235,0
2025/04/05 15:16:15.737106428,1743858975,727867682,piren,vessel_center,-299.8437664458958,-319.2574172730918,2.279403285169866,0.02697476115868104,0.0016772385378487388,-0.03697023227238197,0.9989508251445841,-0.028683758633178978,0.3328880003919043,-0.013419131534217216,-0.003690792219735499,0.001786924816465307,0.004640759006857189,0
2025/04/05 15:16:17.135297526,1743858977,123149318,piren,vessel_center,-299.8659459008179,-318.7760208170461,2.265479328230124,0.018073179647495285,0.0017815788750692636,-0.02309461741363462,0.9995683192261844,0.011423043963531644,0.36595360384894815,-0.0025518342349337107,-0.0036410269539550134,0.005757247326600364,0.007460154008793232,0
