time,header_stamp_secs,header_stamp_nsecs,header_frame_id,pose_position_x,pose_position_y,pose_position_z,pose_orientation_x,pose_orientation_y,pose_orientation_z,pose_orientation_w
2025/04/05 15:12:07.187885542,1743858727,185500947,piren,-296.4434225555117,-300.7252133156891,1.8165427122184952,0.0033343006841896005,-3.994546649543636e-05,0.05688085232476541,0.9983754050867416
2025/04/05 15:12:09.329782828,1743858729,329139939,piren,-295.88965733504153,-299.1643795103137,2.596850971024638,0.029411503299237935,0.0011672227692418428,0.08181646665474483,0.9962126614577929
2025/04/05 15:12:11.120537976,1743858731,114672746,piren,-294.9506351764655,-299.19165685478396,2.5572250989818768,0.001291851775059269,-0.002782753383232499,0.0590778939337874,0.9982486613319087
2025/04/05 15:12:13.324776583,1743858733,323099230,piren,-293.3702995295272,-300.22960496885884,1.9971225434290272,-0.029502173973566692,-0.0011568943018952366,0.01686679683272405,0.9994217300474366
2025/04/05 15:12:15.530721675,1743858735,515345611,piren,-292.6587985908095,-299.74842857211996,2.346363771720045,0.008232742975386126,0.0005431777239529286,-0.04742054459057105,0.9988409377132053
2025/04/05 15:12:17.673867881,1743858737,667581112,piren,-291.98817104949006,-299.51647276804164,2.527712843783032,-0.0291886689806137,0.0026035122138363216,-0.04670208743081609,0.9984789223398244
2025/04/05 15:12:20.4648903,1743858740,4018434,piren,-290.8531897109523,-299.9405625380759,2.3390028582710407,-0.000909339016871975,0.0007952259818315503,-0.036323029044703366,0.9993393709242161
2025/04/05 15:12:21.992911809,1743858741,992298835,piren,-289.2837725616865,-299.95252256118283,2.2654801854360174,-0.02731455989662743,0.0006880793282388513,0.006429393768811378,0.9996059745020821
2025/04/05 15:12:23.455506289,1743858743,454900835,piren,-288.57248541414526,-299.82646785372145,2.348057814367134,-0.02322360870230844,-0.00043182489224263246,0.01794834504711665,0.9995690743696377
2025/04/05 15:12:24.875365048,1743858744,873833262,piren,-287.91852724789806,-299.6762804307036,2.43137270912089,0.02119754912117456,0.0003142763221144667,0.015421033711282813,0.9996563193722753
2025/04/05 15:12:26.292159391,1743858746,291151297,piren,-287.3823361806297,-299.7676426339249,2.3876220985537744,-0.03257934267397956,-5.0747242502198824e-05,0.006397045497335126,0.9994486788547744
2025/04/05 15:12:27.809578616,1743858747,806917551,piren,-287.0057956502923,-300.01584718811137,2.2715385650143105,0.024972947196061114,0.0004907454434805505,-0.001087223357258672,0.9996874156568262
2025/04/05 15:12:29.227793404,1743858749,209911161,piren,-286.85518492609145,-299.95767756101213,2.3002397612058667,-0.005035490355676166,0.0007764473180036825,-0.0036372455552978033,0.9999804055136334
2025/04/05 15:12:30.596257019,1743858750,595501714,piren,-286.72324405764186,-299.9572838432792,2.3162244815086708,-0.0006719357108503536,0.0006776663232838133,-0.001114004236562608,0.9999989241320791
2025/04/05 15:12:32.71163878,1743858752,65975499,piren,-286.48966319271864,-299.8999729056558,2.3507258832167865,-0.002279734326648337,0.0003603932773154285,0.0017268358295530204,0.9999958454744217
2025/04/05 15:12:33.594003125,1743858753,592408209,piren,-286.16047913108235,-299.88899407668504,2.3519393515550933,0.006437418899791502,0.0003959916606585315,-0.0012370212415466595,0.9999784360709791
2025/04/05 15:12:35.147431625,1743858755,143276402,piren,-285.8408907271752,-299.94462669226135,2.324759955377154,0.011472740236326062,0.0004267242004911934,-0.004998584070914224,0.9999216010744105
2025/04/05 15:12:36.768378937,1743858756,765845347,piren,-285.53728862198307,-300.0330154478157,2.292911973069901,0.03266219807537025,0.0005166133249075019,-0.005476637428892976,0.9994513096544675
2025/04/05 15:12:38.566461307,1743858758,565832797,piren,-285.1701979877692,-300.09199873147014,2.274069504445093,-0.03179496095653011,0.00037478483331914635,-0.002742949884359958,0.9994905783548104
2025/04/05 15:12:40.33661737,1743858760,32093389,piren,-284.79716493223395,-300.02993482161867,2.294101998760576,-0.02555003073430435,0.00039306666892524145,-0.0011431869390572727,0.9996728137504253
2025/04/05 15:12:41.517516557,1743858761,508482590,piren,-284.38833547068873,-299.73214751625505,2.414335869080293,0.02118261740460401,0.00039259700581989644,-0.0017509177591186807,0.9997740129021568
2025/04/05 15:12:42.924324056,1743858762,922644001,piren,-284.04517991351105,-299.7499977656655,2.4107925964367394,-0.004252842501978353,-0.0001981617326036091,-0.0014708753517696704,0.9999898552426824
2025/04/05 15:12:44.319153814,1743858764,315341633,piren,-283.74051299793047,-300.0643235117097,2.2877249916109665,-0.028314925295747202,0.000399899248409599,-0.002703439900389836,0.999595316364974
2025/04/05 15:12:45.692883656,1743858765,690225510,piren,-283.4525861064079,-300.09399918251154,2.282695011952513,-0.030666599564040702,0.0008157713445707396,-0.004119496251525796,0.9995208471757484
2025/04/05 15:12:47.331315795,1743858767,329855562,piren,-283.09008358199543,-299.80665409405844,2.4023674401911594,-0.0004678816795506505,0.0006277376669313847,-0.003111448015288335,0.9999948529484558
2025/04/05 15:12:48.741791021,1743858768,739524139,piren,-282.78780994958987,-299.73802291472214,2.4280144888600392,-0.028304094337789843,0.0001915272405644222,0.0004413587011545323,0.9995992430787103
2025/04/05 15:12:50.139712926,1743858770,138387136,piren,-282.50792464291624,-299.9219372111898,2.353773272666799,0.025742887944485558,0.0002659019907144539,0.0027773850014785116,0.9996647033625639
2025/04/05 15:12:51.551295878,1743858771,507080128,piren,-282.25145423791025,-300.0630210461421,2.2995816932583173,0.019394014246758934,0.0004865126188804569,0.002133564034258483,0.9998095235700548
2025/04/05 15:12:52.980992472,1743858772,979275826,piren,-282.00919707431905,-300.2165075582632,2.242265572709064,0.020109474994228677,0.0007025285957890229,0.001121743905150166,0.9997969079566309
2025/04/05 15:12:54.357942626,1743858774,356377537,piren,-281.8006336185114,-300.17835244886044,2.2609107142589377,-0.00465073079094405,0.0008299086340690663,0.001505603900453115,0.9999877074802792
2025/04/05 15:12:55.741779798,1743858775,740960798,piren,-281.6181553472223,-300.023164250157,2.3208365152208223,0.027772899164727614,0.0006224758514578409,0.003935765071990922,0.9996063166812715
2025/04/05 15:12:57.127835602,1743858777,121480280,piren,-281.4379962843861,-299.9144672775053,2.3567912321448037,-0.0022584736691618574,0.00016035972191288537,0.00523692175545531,0.9999837239835319
2025/04/05 15:12:58.601958362,1743858778,601197176,piren,-281.26287992701515,-300.0221121368536,2.3044441840957823,-0.02935325246782243,9.434853725518684e-05,0.002422596500862978,0.9995661602385846
2025/04/05 15:12:59.999919234,1743858779,998707305,piren,-281.1339014943113,-299.98167966627983,2.325329623169487,4.05705524229351e-05,0.0005883540014641459,-0.00047696529790811586,0.9999997123488106
2025/04/05 15:13:01.423766468,1743858781,423008131,piren,-281.01592993888454,-299.8458944375473,2.386097774311285,-0.0028297824537424194,0.00023321747030361672,-0.00024206252833881812,0.9999959396650611
2025/04/05 15:13:02.793584594,1743858782,791565801,piren,-280.9077502106214,-299.91228241041705,2.3606068336865196,-0.0010301444818574424,0.00022281196298270294,0.00011515719945271789,0.9999994379478396
2025/04/05 15:13:04.265966463,1743858784,262894148,piren,-280.79732733721966,-300.0270842205183,2.3129823095483455,-0.005595606297062118,0.00046038793196868786,-0.0008743315498028156,0.9999838562584206
2025/04/05 15:13:05.636592969,1743858785,635720519,piren,-280.70571294305836,-300.03979668263327,2.309018296128268,-0.0008126231885887928,0.0005824188642130372,-0.0009346581705740274,0.9999990634225235
2025/04/05 15:13:07.93972054,1743858787,93124586,piren,-280.6220049105779,-299.97208681474456,2.338904529504425,-0.010860845500552423,0.0005725885585039911,0.0011364863755251834,0.9999402095005852
2025/04/05 15:13:08.465771184,1743858788,465315529,piren,-280.54944032522764,-299.92810792800816,2.3560171945605846,0.0272392487438316,0.00045822210591087224,0.003565751827312132,0.999622478125757
2025/04/05 15:13:09.950414292,1743858789,949850528,piren,-280.4754426214597,-299.97214073649684,2.333593387598217,0.0006626399710982053,0.0002481347928167754,0.002051750082018416,0.9999976448267237
2025/04/05 15:13:11.331819140,1743858791,329061482,piren,-280.41721609318944,-300.11540578040507,2.2735768777705325,0.0005760202460187461,0.0006535787763618774,-0.0014204812633938717,0.9999986116332561
2025/04/05 15:13:12.760487899,1743858792,759148528,piren,-280.37125519269154,-300.0816686025775,2.2947330938529555,-0.03148742796114786,0.0007358008154575994,-0.001601358778805474,0.99950259435762
2025/04/05 15:13:14.186015502,1743858794,184255615,piren,-280.335824347634,-299.907316567236,2.36731444903033,-0.013601468903109804,-0.00016764683070785046,0.0030282605127210436,0.9999028960736563
2025/04/05 15:13:15.650180063,1743858795,627854896,piren,-280.29042367527467,-299.74630612480814,2.426472704214009,0.004244186723741173,-0.004834233976556042,0.02395894583623697,0.9996922456312894
2025/04/05 15:13:17.89731796,1743858797,88321509,piren,-280.21409148157267,-299.95110010730457,2.3700812248575014,-0.02663452949855194,-0.007115643158707085,0.054556564503648,0.9981300269656195
2025/04/05 15:13:18.477993286,1743858798,476157626,piren,-280.098897183317,-300.4053225140698,2.3006692974710017,0.02754632101092074,-0.0018659628420906406,0.07400402835971467,0.9968756803974956
2025/04/05 15:13:19.881291338,1743858799,880478863,piren,-279.94765369884925,-300.8860734952842,2.3062717252888936,-0.003284361661137241,-0.0029400621103040166,0.07954984141837752,0.996821143301835
2025/04/05 15:13:21.352214136,1743858801,348425219,piren,-279.77922005307994,-301.53548965729954,2.2949721765010644,-0.002677735682257689,-0.0023178555779051454,0.08447485960029871,0.9964193170410968
2025/04/05 15:13:22.801218365,1743858802,798670161,piren,-279.6702725378632,-302.1023813816236,2.336707409003303,-0.0037377949618521214,-0.0017999964012195488,0.09105659853265526,0.9958370774205194
2025/04/05 15:13:24.199644490,1743858804,198238438,piren,-279.5760801901311,-302.67253994433867,2.360900457563499,0.0004677785794015775,-0.0011872365068672124,0.10177358072303767,0.9948067701415632
2025/04/05 15:13:25.618349510,1743858805,614022632,piren,-279.4311748113225,-303.3835309679144,2.3472838271982983,0.006836420133335141,0.0007146843035361679,0.11788807768077822,0.9930030985484576
2025/04/05 15:13:27.26559133,1743858807,23190524,piren,-279.2428669501747,-304.19542432081374,2.3137626255880255,-0.028110164438018177,-0.0028720601896962774,0.13191945475224773,0.9908576221553751
2025/04/05 15:13:28.492516528,1743858808,491445537,piren,-279.080020084959,-304.9524686143179,2.317987359972886,0.011513829276599503,0.003460885739105982,0.14614229979405025,0.9891905186647293
2025/04/05 15:13:29.936519510,1743858809,934585158,piren,-279.001649114255,-305.56021917774814,2.366834449003317,0.02279058782248483,0.005801462553551706,0.16261736105359553,0.9864089040671267
2025/04/05 15:13:31.403516069,1743858811,402005370,piren,-278.90969331800426,-306.37744002640284,2.3185126153226223,-0.0017498480337171675,0.00176298868307306,0.1783054614271972,0.9839720485501591
2025/04/05 15:13:32.844756636,1743858812,842179941,piren,-278.84153466450107,-307.1134755969646,2.266076272042877,-0.02863255202421138,-0.0036660541671926627,0.19442348305685972,0.9804928588457251
2025/04/05 15:13:34.374945460,1743858814,373670253,piren,-278.8562874238794,-307.63961859909233,2.3267115871526896,0.017542807421197914,0.005611141109040704,0.21400646368500578,0.9766585885068926
2025/04/05 15:13:35.795841417,1743858815,795310623,piren,-278.8829853573935,-308.0768426598883,2.396181294040119,-0.000841026183254919,0.0011318873162186774,0.22674826840875847,0.9739523778294769
2025/04/05 15:13:37.206873576,1743858817,204029531,piren,-278.8112663492067,-308.7751449728173,2.336020026473107,0.0030209285854373644,0.002301734311713728,0.24214181652489392,0.970233434127924
2025/04/05 15:13:38.596648920,1743858818,594746044,piren,-278.7805549226273,-309.4401974135718,2.289085807445422,0.0003096665293572566,0.0012134439659291607,0.25781078533728286,0.9661946132245594
2025/04/05 15:13:40.104885341,1743858820,103024695,piren,-278.8081809909748,-310.00284025639934,2.2989619191046886,-0.0035373698470537143,-0.00011583460236483456,0.2759071571084669,0.9611777745314516
2025/04/05 15:13:41.525974054,1743858821,510239985,piren,-278.85813240525397,-310.4369634253519,2.341892763750016,-0.028687179343632283,-0.007927070521704748,0.28752308092047263,0.9573111747139744
2025/04/05 15:13:42.938442291,1743858822,936830021,piren,-278.91178491500096,-310.8730335625673,2.3802811032604403,-0.0013775679882896703,0.0012504501737099398,0.30264401722081413,0.9531018505496924
2025/04/05 15:13:44.325508067,1743858824,323207422,piren,-278.95407712659284,-311.37861106510354,2.3903430013588753,0.02362180410386637,0.011454345687451382,0.3155391769255696,0.9485493324866583
2025/04/05 15:13:45.783402283,1743858825,776515149,piren,-278.8722513950436,-312.0422738988592,2.3096762454855417,-0.0002656966941987067,0.004503423229654821,0.3308688102897755,0.9436659784912828
2025/04/05 15:13:47.154253657,1743858827,152181963,piren,-278.7987152981923,-312.5103968521609,2.2428466774763125,-0.025496937543084228,-0.004622563573537533,0.34573347151293843,0.9379748955902525
2025/04/05 15:13:48.548462898,1743858828,546799584,piren,-278.92537212481847,-312.5735113542771,2.310593919402648,-0.0018325059035465337,0.0026072044146693693,0.35881618554003586,0.9334028012609306
2025/04/05 15:13:50.9627015,1743858829,944945495,piren,-279.13351674674885,-312.46082205355765,2.407711769807746,-0.00338362098062678,0.00026686757918971925,0.36467208652203337,0.9311298240322996
2025/04/05 15:13:51.417032999,1743858831,414467913,piren,-279.22364945441944,-312.5886886394494,2.389955809900179,-0.0021791278632187923,-0.0007964632537270477,0.37256609153503345,0.9280027610337969
2025/04/05 15:13:52.826668118,1743858832,823262908,piren,-279.2564393846159,-312.9022661617551,2.3169306068919724,-0.028256486910002522,-0.00912661968526617,0.37423341990583775,0.9268590093354039
2025/04/05 15:13:54.226514355,1743858834,224899855,piren,-279.3879038787143,-313.14166143719365,2.3076810626387014,-0.0012702696013066656,-0.0006706299087721016,0.3774955446081554,0.9260102863746481
2025/04/05 15:13:55.634219007,1743858835,603012458,piren,-279.6158253433258,-313.2464405215291,2.3682810890837853,0.0082316327644186,0.0024658101476844464,0.379309252908776,0.9252300528301778
2025/04/05 15:13:56.999870983,1743858836,994339319,piren,-279.7173463615404,-313.4743862565323,2.359952509576756,0.0025153867210810058,0.000454358536380056,0.38031669599906287,0.924852786735446
2025/04/05 15:13:58.454170854,1743858838,437261321,piren,-279.7500500763841,-313.82335863775864,2.3053807655201513,-0.0008301561019134552,-0.0007542230223774025,0.382654382420478,0.9238908840349501
2025/04/05 15:13:59.898425126,1743858839,896931270,piren,-279.84808417744927,-314.1224041297913,2.2957126436059756,-0.0009925340104310545,-0.0004699884384341617,0.3831103124807458,0.9237019446001027
2025/04/05 15:14:01.319470841,1743858841,316516597,piren,-280.00277693437744,-314.3469609415393,2.3317274286416985,-0.011308500084049235,-0.0047260334227911685,0.38054501257997886,0.9246811752352481
2025/04/05 15:14:02.731454563,1743858842,730216575,piren,-280.1334628468259,-314.56644188951617,2.3620590858532853,0.025731844206717085,0.010245605363932011,0.3787733891127625,0.9250749264056829
2025/04/05 15:14:04.301052560,1743858844,298769003,piren,-280.19145085226,-314.89808461050836,2.344169275686985,0.027183380590334726,0.011044145873289944,0.3825255610019095,0.9234789038423049
2025/04/05 15:14:05.695796962,1743858845,695194217,piren,-280.10082355404944,-315.34236740753175,2.247619786075652,-0.00012472398750352454,0.0001703832527338762,0.38595544309840263,0.9225173989449684
2025/04/05 15:14:07.107696833,1743858847,104886487,piren,-280.116876169522,-315.6337722467461,2.2335849343027907,-0.008763231089604433,-0.0030718009223634334,0.3832047171237427,0.9236167574238116
2025/04/05 15:14:08.547759019,1743858848,523694322,piren,-280.31798034072085,-315.7128254122188,2.3393261291746357,-0.0019256861831220434,-0.000401131346292667,0.37982508951346317,0.9250562319137453
2025/04/05 15:14:10.2385648,1743858850,1907903,piren,-280.4931085546015,-315.8496335408384,2.4161445098308034,0.0014195850620845254,0.0006345876719013135,0.38245756946356346,0.9239717472070029
2025/04/05 15:14:11.370218004,1743858851,367052783,piren,-280.462223261832,-316.17683862433205,2.3662746747766787,0.00022742919779718092,0.00017024968129503043,0.3886426408789177,0.9213885266171197
2025/04/05 15:14:12.794520014,1743858852,794148621,piren,-280.3644427691413,-316.54908638011756,2.2903988846918413,-0.027172962915993353,-0.011082598227378367,0.39046957217557005,0.920147987721499
2025/04/05 15:14:14.182581230,1743858854,181833848,piren,-280.38837477816685,-316.74347066876834,2.305100419759108,-0.005818471009417788,-0.001767066286068108,0.3883571495270021,0.9214888752899381
2025/04/05 15:14:15.670395137,1743858855,668156386,piren,-280.5378185216348,-316.81878340955626,2.3922148115552853,0.0019459905258864402,0.001146410618953772,0.3892580289590572,0.921125987992129
2025/04/05 15:14:17.89136005,1743858857,87516619,piren,-280.5316774271773,-317.05535314484575,2.380238423788942,0.012336373308520556,0.0054169203044404255,0.39001460910620245,0.9207100931084355
2025/04/05 15:14:18.505586641,1743858858,504160641,piren,-280.41426374083403,-317.4099709141334,2.301621205956203,-0.026981635131265832,-0.01101105596781392,0.3896104086533955,0.9205185915998932
2025/04/05 15:14:19.904333214,1743858859,902908823,piren,-280.3880711243733,-317.63353173058823,2.2830403801063652,0.029141499468601853,0.01298136361557486,0.38913071718437997,0.9206299702654547
2025/04/05 15:14:21.398684985,1743858861,397034482,piren,-280.48866996248285,-317.7054485893572,2.34242565119238,-0.027765954744015026,-0.011168371873518318,0.3888422952723113,0.9208181083331327
2025/04/05 15:14:22.796053829,1743858862,792934745,piren,-280.4682476001717,-317.876525769811,2.33277801873845,0.012008539092504288,0.005470896782491756,0.38879434402839036,0.9212300593927626
2025/04/05 15:14:24.187969897,1743858864,186068442,piren,-280.4992229522421,-318.00293746147605,2.355316753326921,-0.027059650361490942,-0.010973152743244716,0.3887720124503179,0.9208711568816331
2025/04/05 15:14:25.601015769,1743858865,600263650,piren,-280.4598420396622,-318.1951781251321,2.339248386833089,0.016754438740717997,0.007523889808457467,0.3889600453607399,0.9210715297834392
2025/04/05 15:14:27.123160901,1743858867,122319003,piren,-280.4648437032233,-318.32965775720464,2.3478688216559505,0.013918446647912988,0.006381224073767539,0.3890110719749615,0.9211058260065023
2025/04/05 15:14:28.626211454,1743858868,622522154,piren,-280.34787250547646,-318.56069144806366,2.2892545598634557,-0.008833227235455456,-0.0031965111675021965,0.3891716722290328,0.9211173464588652
2025/04/05 15:14:30.88761724,1743858870,87184211,piren,-280.31699930543664,-318.69333207125436,2.28215022529389,-0.02522161939305057,-0.009969048058217576,0.38919165180918464,0.9207574849861626
2025/04/05 15:14:31.530199260,1743858871,528845938,piren,-280.4461993906662,-318.66661644143943,2.3650637141292488,0.014529131052230413,0.006735666401140399,0.38916435205132105,0.9210291212776474
2025/04/05 15:14:33.24104039,1743858873,22878017,piren,-280.51372727336377,-318.6980626036707,2.4077445731232214,-0.0025660704563056406,-0.0008454239095281676,0.3889965261221883,0.9212352594238326
2025/04/05 15:14:34.458287133,1743858874,456724033,piren,-280.34560635351306,-318.94850276612664,2.318393247700235,-0.0007419338912399041,4.8891576456803316e-05,0.3888622017427891,0.9212956285576662
2025/04/05 15:14:35.889893882,1743858875,888685873,piren,-280.2572429643956,-319.1094530795753,2.2809535269045154,-0.027272411128539186,-0.010786188660383342,0.38895254139366936,0.9207908526200858
2025/04/05 15:14:37.307745891,1743858877,306200324,piren,-280.32508827508735,-319.108318402424,2.332552415627918,-0.0006489412821747823,0.0004992314900753131,0.38998996954329834,0.9208187407404069
2025/04/05 15:14:38.722547292,1743858878,713882356,piren,-280.4359104995127,-319.0520697709093,2.402805754012974,0.0009584255327665143,0.0008338060136296641,0.3904417586902739,0.9206267534994167
2025/04/05 15:14:40.187849534,1743858880,186125126,piren,-280.3559164569271,-319.1818544461611,2.3657302587918156,0.010859096076431715,0.004868715802493642,0.3900810714502592,0.9207036077560766
2025/04/05 15:14:41.610247217,1743858881,606789348,piren,-280.2048882026075,-319.3845500331506,2.2899818736579354,0.026803840548320978,0.011901415347971444,0.3897105936826967,0.9204702948037244
2025/04/05 15:14:43.46613992,1743858883,7047903,piren,-280.1174761665748,-319.52044490564487,2.24813409413289,0.025807590324686675,0.011740219863020915,0.3898920931474128,0.9204239736232049
2025/04/05 15:14:44.434176783,1743858884,431795154,piren,-280.10599029162347,-319.5713567524766,2.245284048750611,0.025797590196968336,0.011754673278477332,0.39018402964849447,0.920300350430993
2025/04/05 15:14:45.890121047,1743858885,888613941,piren,-280.147676199612,-319.5623372159525,2.272943404337321,-0.0038819478550995174,-0.0010007086723803817,0.3903429330954928,0.9206608081402244
2025/04/05 15:14:47.307092782,1743858887,305407613,piren,-280.20556625264794,-319.53725295377257,2.312328372986454,-0.027534136347200495,-0.011209744975796038,0.38982873184855665,0.9204073950042653
2025/04/05 15:14:48.779330276,1743858888,778058764,piren,-280.31430832960876,-319.4710708023017,2.383539843939118,-0.015141219139448575,-0.0005300569659264327,0.37782117101077145,0.9257546247568161
2025/04/05 15:14:50.170602075,1743858890,169597666,piren,-280.38732957143753,-319.4655618028824,2.4179123972914818,-0.0199529638540975,-0.00017114541739179492,0.3443907243794131,0.9386143398138057
2025/04/05 15:14:51.644290935,1743858891,642144285,piren,-280.4470724241646,-319.5831247202502,2.3733957249266338,0.01092483227354439,0.006859745951554148,0.3019919711197744,0.9532231854631257
2025/04/05 15:14:53.83742532,1743858893,83186463,piren,-280.7251156761268,-319.7163032655746,2.313483667807812,-0.003708037270551439,0.002388708210761348,0.28985213162283807,0.9570612761607175
2025/04/05 15:14:54.498474034,1743858894,496776161,piren,-281.2208340105185,-319.77076961438473,2.2763353070255237,-0.013219407014917698,-0.0012488727879546744,0.2941388847709677,0.9556704474140786
2025/04/05 15:14:55.884171815,1743858895,883371752,piren,-281.76996962279395,-319.56587377845887,2.3263542559400925,-0.01756719713426679,-0.003201902515040918,0.29282239856770603,0.9560000963923516
2025/04/05 15:14:57.474728808,1743858897,474253213,piren,-282.3333580409146,-319.21733647348606,2.4014835674281616,-0.002466237848560367,0.0011484660618550485,0.2763544850439405,0.9610519222667824
2025/04/05 15:14:58.913019515,1743858898,909896283,piren,-282.7512758723534,-319.0784336348347,2.3886426366543616,-0.029550224304776693,-0.007786513164516575,0.25706941412077033,0.9659096597404336
2025/04/05 15:15:00.324358995,1743858900,308099343,piren,-283.2257055786368,-319.0778933519368,2.3373045090860693,0.009656819677413222,0.002083498216519947,0.2374676552029492,0.9713452103147021
2025/04/05 15:15:01.819120005,1743858901,818429502,piren,-283.8803139423075,-319.01521506738254,2.3313817676828688,0.026790770157309535,0.006554768952597739,0.21447900724099409,0.9763391035348702
2025/04/05 15:15:03.338085798,1743858903,335606761,piren,-284.4626508853708,-319.04508136157807,2.288777053114467,0.0010465600683825492,-8.52638641761437e-05,0.19136367671251409,0.9815186400049493
2025/04/05 15:15:04.866661580,1743858904,864283507,piren,-285.0295591160766,-319.0455631486589,2.2606681503517105,-0.028665944905252146,-0.004998415901025587,0.16903806250948036,0.9851798885808675
2025/04/05 15:15:06.373824494,1743858906,307276322,piren,-285.67476729889955,-318.8298574939614,2.343330663996578,0.02021591299897961,0.0028534923827381684,0.1534598189976359,0.9879439550885729
2025/04/05 15:15:07.720346955,1743858907,719857286,piren,-286.32424912581206,-318.66819654829567,2.405106944686641,-0.008387210201611707,-0.0013260812441364081,0.1318188926478133,0.9912374467072319
2025/04/05 15:15:09.202000329,1743858909,201454435,piren,-286.9093465923261,-318.82234291667413,2.3311302978244464,-0.0037699131184537917,-0.0016424572024679436,0.11719698922161415,0.9931001741047105
2025/04/05 15:15:10.623488808,1743858910,622439847,piren,-287.4764505355446,-318.9017919689634,2.301049031763969,-0.003989411284394369,0.0003186456533629932,0.10459289880756167,0.9945070681405853
2025/04/05 15:15:12.46954855,1743858912,46320710,piren,-288.09203707856346,-318.88420577733496,2.322705785583411,-0.021453847579323622,-0.0013912624414416808,0.09161056514212838,0.9955628062393663
2025/04/05 15:15:13.487987033,1743858913,486461156,piren,-288.7550984499425,-318.82349623847335,2.3657205090934936,0.028401047937853533,0.0024585354827536855,0.0806411215769907,0.9963354583623514
2025/04/05 15:15:14.913172680,1743858914,911159017,piren,-289.4200454164722,-318.86724342195635,2.3622377363045377,-0.004033435442594726,-0.0004351081801251998,0.07159374558048905,0.9974256251336028
2025/04/05 15:15:16.422491641,1743858916,419077863,piren,-290.0877872400701,-319.1141909643396,2.2753426980525493,-0.0026221682849607714,-0.00011077824312191212,0.060645305616827815,0.9981559291354772
2025/04/05 15:15:17.835223421,1743858917,834591599,piren,-290.753044934851,-319.127692958208,2.293918833920225,-0.0014332306641232644,-0.00010620476064483262,0.056377954485398986,0.9984084639156734
2025/04/05 15:15:19.257379133,1743858919,255037234,piren,-291.44037565732003,-319.04984695562626,2.352883829546415,0.02956717584017332,0.0013062387406775303,0.05116480848471856,0.9982515906453195
2025/04/05 15:15:20.668438632,1743858920,667693793,piren,-291.97686404854414,-319.117303424768,2.343203845432074,0.0077073465783088916,0.00043921551650609485,0.05404141135373881,0.9985088531191638
2025/04/05 15:15:22.161947346,1743858922,159840095,piren,-292.380826029146,-319.3275407940126,2.2654965974025245,-0.010732082905344425,-4.113015144545785e-05,0.07168277630568572,0.9973697410117939
2025/04/05 15:15:23.590775710,1743858923,588751433,piren,-292.63515421334796,-319.28527575852615,2.2879591926847724,0.014374488101681713,-0.0008012287711161683,0.09129762684289695,0.9957195767168214
2025/04/05 15:15:25.19575683,1743858925,18524845,piren,-292.82541405462865,-319.1450379578739,2.3566066797598104,-0.027419845972649338,-0.0008954698291516133,0.0564702557780176,0.9980272843930603
2025/04/05 15:15:26.446981627,1743858926,438263589,piren,-293.0261796216463,-319.2219051195107,2.364830785858384,0.020013054293294745,0.0012785380363431948,0.019479671338394237,0.9996091163064148
2025/04/05 15:15:27.952341471,1743858927,949373039,piren,-293.3852366723867,-319.37278954237115,2.3562267066806224,-0.028223697692596167,-0.0007705565477551042,0.02763556192889571,0.9992192476368926
2025/04/05 15:15:29.361320770,1743858929,355449716,piren,-293.7523758484631,-319.5463735696582,2.3069429583944907,-0.002231368062432687,0.0002651321743971478,0.03761186950937805,0.9992898968635225
2025/04/05 15:15:30.779975801,1743858930,778075804,piren,-294.04189946627434,-319.4840687703396,2.3418467352727803,0.02974742942113202,0.0013920661634848738,0.03337472949614633,0.9989991391516263
2025/04/05 15:15:32.231992402,1743858932,230469099,piren,-294.28404730221615,-319.55300614860005,2.3323191575092665,0.02897863594883606,0.001102651617217381,0.029705220136489456,0.9991379397833908
2025/04/05 15:15:33.700925378,1743858933,699537508,piren,-294.59804262722434,-319.8141161998892,2.2519793244686883,-0.0018628305791492394,0.00043205271962534644,0.030017743106251507,0.9995475367842632
2025/04/05 15:15:35.122111794,1743858935,111153523,piren,-295.0077184737112,-319.9131805440983,2.2440494212376283,-0.0018575543576647058,-0.0004463907350940006,0.01598812592848922,0.999870356624505
2025/04/05 15:15:36.537764759,1743858936,532871543,piren,-295.4042389746317,-319.76956994019736,2.34034269538054,0.012797920785054501,9.856387184688388e-05,-0.015849586863522516,0.9997924755192941
2025/04/05 15:15:37.955252182,1743858937,952159949,piren,-295.7640213845801,-319.74225983695044,2.3861875170770657,0.0296279065006637,0.0018438914827478279,-0.03183531182390114,0.9990522009092733
2025/04/05 15:15:39.483861780,1743858939,482590099,piren,-296.10632522556244,-319.96824670334854,2.306097933626932,0.0023363508642394097,-0.0004546493358565968,0.0059059818359104834,0.9999797268630872
2025/04/05 15:15:40.873682194,1743858940,872538266,piren,-296.3943594030903,-320.10732206229954,2.2359296868873213,-0.008457553357896625,0.0010105161072081067,0.031248230405475193,0.9994753607492892
2025/04/05 15:15:42.278035377,1743858942,276735246,piren,-296.60949808438755,-319.9660365736258,2.2982261573819724,-0.0005432544390189104,-0.0005385099503894764,0.0014677735614782022,0.9999986302602719
2025/04/05 15:15:43.679278062,1743858943,677850038,piren,-296.8280023241425,-319.83433332576504,2.3862239179137488,-0.007547135995530878,0.0022893954672365117,-0.033505998090229104,0.9994073981608488
2025/04/05 15:15:45.200592460,1743858945,199729159,piren,-297.19577314552714,-319.9122718320312,2.387010571560347,-0.022295991457004904,-0.004290810239741919,-0.016640660384063484,0.999603704542164
2025/04/05 15:15:46.630893950,1743858946,630051370,piren,-297.57065409134646,-319.97603068703245,2.347937706684138,0.024807329509734043,0.0009316912777360041,0.01979844906020206,0.9994957477492185
2025/04/05 15:15:48.70463012,1743858948,69803390,piren,-297.82047556929956,-319.99390969849804,2.3152884051321534,0.011004854362227675,-0.0010280570958777413,0.018018226347646587,0.9997765649375658
2025/04/05 15:15:49.486894846,1743858949,486265500,piren,-297.8976617252832,-320.14943706832224,2.264276579264473,0.0017906224300033575,-1.3802794414664357e-05,-0.022628674128950622,0.9997423350983802
2025/04/05 15:15:50.903890969,1743858950,901557155,piren,-298.0458018620603,-320.2128657247457,2.2872916704330204,-0.001630292470400351,0.0032580546288440127,-0.04061218238986101,0.9991683431074211
2025/04/05 15:15:52.485216211,1743858952,483003179,piren,-298.3682398611552,-320.1089813170526,2.353004517716644,-0.03090793842268824,0.0013190493035978173,0.005824092549532805,0.9995043968874617
2025/04/05 15:15:53.917426934,1743858953,915927668,piren,-298.620803938213,-319.92493923498955,2.3881019976608377,0.029193880635237653,-0.00115752741229026,0.03419888170818513,0.9989878947983579
2025/04/05 15:15:55.347085926,1743858955,343956524,piren,-298.6523291699802,-319.89249357839554,2.3652883585316196,0.003819202879256956,-0.0009350404639732791,-0.008065438370197431,0.9999597432359937
2025/04/05 15:15:56.767588245,1743858956,766861768,piren,-298.6519917668113,-320.20720832309956,2.25930635309513,0.025075352275337626,0.001996820168637269,-0.03437865633557833,0.9990922617086182
2025/04/05 15:15:58.272959296,1743858958,272081035,piren,-298.860219732924,-320.3349599932551,2.2479429763613585,-0.0006550561057260482,0.0018939638085146992,0.004752327289914306,0.9999866995055084
2025/04/05 15:15:59.694632328,1743858959,692346192,piren,-299.1022155436345,-320.181700987707,2.2949396758341547,-0.001965167344804402,-0.001711021001795597,0.032876512634284004,0.9994560247661955
2025/04/05 15:16:01.122889731,1743858961,121706802,piren,-299.15086805495537,-319.91827836766987,2.3689326260686165,-0.027620975962257995,-0.0004363605617156554,-0.002473719241100926,0.9996153120023066
2025/04/05 15:16:02.522193222,1743858962,521424954,piren,-299.1001538430509,-319.8761273862268,2.3915555919001967,-0.024929615281729316,0.003065190531061839,-0.03004953857773542,0.9992327777450951
2025/04/05 15:16:04.63383237,1743858964,58839014,piren,-299.19386695160216,-319.931832346057,2.3924464680344824,0.0010387719068789708,0.0010090112018878495,0.005637776223086988,0.9999830590207909
2025/04/05 15:16:05.493376905,1743858965,490691101,piren,-299.37884409428153,-319.99222203016365,2.356556340722255,-0.0015682190901179025,-0.0007581159095401816,0.042906779309552515,0.9990775616729837
2025/04/05 15:16:06.918747949,1743858966,918040822,piren,-299.44519201769333,-320.06035566112047,2.302116859802906,-0.03020253747541327,-0.002154635671405749,0.025488543148131947,0.9992164422402965
2025/04/05 15:16:08.372591937,1743858968,371879655,piren,-299.3912131026711,-320.0254992640234,2.3215255984205863,-0.026543773967286764,0.0006620498991276612,-0.022526707719683108,0.9993935847266664
2025/04/05 15:16:09.858250202,1743858969,855957708,piren,-299.4305069775489,-319.90069348021296,2.40751661845846,-0.030030649939561768,0.002136387709591331,-0.03324409933044347,0.9989937065725036
2025/04/05 15:16:11.268103069,1743858971,266602730,piren,-299.59714087716276,-319.87777950747386,2.427341632974232,-0.020953879437662443,0.008442641615383675,-0.042102588341391016,0.9988578621575853
2025/04/05 15:16:12.717350838,1743858972,716318996,piren,-299.7379550680447,-319.8510036575732,2.3858075837245374,-0.0002276456304039777,0.005146052608470704,-0.06658916766456281,0.997767181796314
2025/04/05 15:16:14.179409599,1743858974,177364037,piren,-299.79066816919277,-319.6593432613965,2.3261691974922827,0.015843324855996207,0.002878007181474931,-0.058533504122918203,0.9981555665462489
2025/04/05 15:16:15.729057096,1743858975,727867682,piren,-299.8437664458958,-319.2574172730918,2.279403285169866,0.02697476115868104,0.0016772385378487388,-0.03697023227238197,0.9989508251445841
2025/04/05 15:16:17.124037705,1743858977,123149318,piren,-299.8659459008179,-318.7760208170461,2.265479328230124,0.018073179647495285,0.0017815788750692636,-0.02309461741363462,0.9995683192261844
2025/04/05 15:16:18.553532584,1743858978,551471451,piren,-299.840059934516,-318.2124096062287,2.2730860797407675,-0.029475331643638757,0.0032457553671232263,-0.016650669629772633,0.9994215452437848
2025/04/05 15:16:19.976379519,1743858979,973328809,piren,-299.79956181897006,-317.49772766152745,2.3331202363049783,0.001119554457170241,0.0026595507489944738,-0.013645417758582433,0.9999027332505022
2025/04/05 15:16:21.470737868,1743858981,469293510,piren,-299.7830616814501,-316.61102810219444,2.413738834965736,-0.011556516935714767,0.0023153277679530113,-0.010032198518924862,0.9998802134088455
2025/04/05 15:16:22.880425029,1743858982,875082142,piren,-299.80598004629735,-316.01741196381244,2.372074604968222,0.0019028539333483202,0.0014915355395033372,-0.008749200982653879,0.9999588021267716
2025/04/05 15:16:24.346844777,1743858984,308933470,piren,-299.83043643921945,-315.4212983616034,2.3119007337569215,0.0007325131966359367,0.0013718763193318608,-0.006760197324185206,0.9999759402665243
2025/04/05 15:16:25.752757669,1743858985,750506448,piren,-299.8352495949626,-314.74508570592485,2.2911053187900015,-0.0007941767102401206,0.001269730452617129,-0.005066843914394529,0.9999860419829258
2025/04/05 15:16:27.280982427,1743858987,280112977,piren,-299.8277372406642,-313.9111736052118,2.3228664736492184,-0.015953020603581662,0.0013544284737195067,-0.004734427620000844,0.999860616212201
2025/04/05 15:16:28.752764020,1743858988,743247285,piren,-299.8301011818657,-313.06276056412486,2.3629563140486063,8.150509814588984e-05,0.0015496501063682671,-0.0053325085537570165,0.9999845780280769
2025/04/05 15:16:30.158533650,1743858990,155361287,piren,-299.84796761624625,-312.2767594451304,2.37410966656064,-0.0007879875234348485,0.0009872979424919407,-0.01135374206599596,0.9999347463007446
2025/04/05 15:16:31.617149209,1743858991,614319228,piren,-299.87456449386576,-311.6342048861671,2.330602199245846,-0.0008030174271431834,0.0010989428794662265,-0.015601205748422156,0.9998773674140018
2025/04/05 15:16:33.76967270,1743858993,62528915,piren,-299.904421301781,-310.9608431936168,2.303769009003488,-0.0008190613425611933,0.001154640564871308,-0.013433506406246756,0.9999087642626784
2025/04/05 15:16:34.558771633,1743858994,556241407,piren,-299.921227510944,-310.1576788656637,2.3191468812462035,-0.0007933530284151616,0.0010989841855175457,-0.00994806099496106,0.9999495981834149
2025/04/05 15:16:36.29836971,1743858996,27329735,piren,-299.9170961859086,-309.3467957204549,2.3431680140325666,-0.0007819181581833916,0.0007363611068805983,-0.007214782054370731,0.9999733962942325
2025/04/05 15:16:37.439384044,1743858997,436873965,piren,-299.9096387602314,-308.6033626812001,2.3449474774495638,-0.0008342371650134918,0.0006714585817580144,-0.0055553979954285375,0.9999839952443429
2025/04/05 15:16:38.926365628,1743858998,923900528,piren,-299.9126200286378,-307.85898308801666,2.3304722878039756,-0.029776222359031736,-5.0884684107209963e-05,-0.005316096136556685,0.9995424518821806
2025/04/05 15:16:40.402266421,1743859000,401619842,piren,-299.9249311121459,-307.06437963610426,2.3413259629259597,0.02819635236238897,-0.003206759114954742,-0.005705902890999651,0.9995809747497364
2025/04/05 15:16:41.910801322,1743859001,909483887,piren,-299.94351564194113,-306.33903427652325,2.358868822437808,-0.029796290885675085,-0.005050414447553575,-0.0060639081379014435,0.9995248388016474
2025/04/05 15:16:43.339153221,1743859003,336022170,piren,-299.9679323353957,-306.00710520986763,2.30968341023196,0.009706691758588624,-0.005208902690527672,-0.005136881362374052,0.9999261272302736
2025/04/05 15:16:44.819879146,1743859004,817092930,piren,-299.9864001880772,-305.69014405948303,2.3364125521540395,-0.025896271808202,-0.0031520899471081647,0.001666676310958766,0.9996582764252371
2025/04/05 15:16:46.316405891,1743859006,315731193,piren,-299.98749475225327,-305.5723211899334,2.3464412529006444,0.0003214649867597615,-0.002276532870159322,0.018957079649219378,0.9998176549699083
2025/04/05 15:16:47.884371018,1743859007,883618911,piren,-299.9705617438131,-305.44113302499005,2.3737196405530905,-0.002981677768106002,-0.002535998529596026,0.031826450710904675,0.9994857454432712
2025/04/05 15:16:49.310429335,1743859009,308111338,piren,-299.9417651412751,-305.4719147618362,2.339997530575174,-0.0003700870499468637,-0.00031430965051591693,0.00392664347697584,0.9999921728273796
2025/04/05 15:16:50.782262052,1743859010,778541522,piren,-299.92565179819604,-305.54884909432485,2.311799831261914,-0.0014512459395161093,0.001819259776085716,-0.03137636414320058,0.9995049314296771
2025/04/05 15:16:52.311311339,1743859012,304680705,piren,-299.9785112271941,-305.56618857807706,2.3163246687519425,0.02747780082340501,0.000698274159800877,-0.038968299359439934,0.998862330113685
2025/04/05 15:16:53.771281520,1743859013,769525613,piren,-300.06744965383643,-305.5066230673118,2.317260742231849,0.013154701837589258,0.0014370421247795312,-0.024107886137490805,0.9996217777517042
2025/04/05 15:16:55.230432925,1743859015,230030139,piren,-300.0949264554689,-305.447253615075,2.2774124545427825,-0.0007418821961196179,0.0017237385571380992,-0.009749941066421328,0.9999507072778113
2025/04/05 15:16:56.687009805,1743859016,685523784,piren,-300.02170509372564,-305.2328483972538,2.2922810923967165,0.002069696866392243,0.0014941981069001911,-0.0022287148547069113,0.9999942582620138
2025/04/05 15:16:58.200191775,1743859018,197495939,piren,-299.94085188572114,-304.9127389716357,2.3474509136434563,-0.002199565232716125,0.0013857748941679387,0.001207200291408442,0.9999958920956556
2025/04/05 15:16:59.661603809,1743859019,659260058,piren,-299.94080494101877,-304.68452088735404,2.35968038293535,-0.0007038996923496913,0.0009717294204837025,0.0018466308991554423,0.9999975751077994
2025/04/05 15:17:01.128439600,1743859021,126222292,piren,-299.98834651895464,-304.50530251241366,2.336978867604895,0.025472015874784783,0.0007741421420321736,0.0021655359016443847,0.9996728902823551
2025/04/05 15:17:02.569390945,1743859022,567850765,piren,-300.01692873802574,-304.3444376443315,2.2963196169431876,-0.003753726018663445,0.0010273431857192872,0.0017093749794280222,0.9999909660312614
2025/04/05 15:17:04.237455411,1743859024,235951543,piren,-300.00341630031426,-304.13063369784726,2.264501568134834,-0.026046990477904704,0.0008618282698108467,0.002267829026253552,0.9996577756865521
2025/04/05 15:17:05.679512823,1743859025,678762956,piren,-299.98070940480073,-303.68612118095086,2.3484152167645114,-0.003411850901905937,0.0006938193255134382,0.002580919727886695,0.9999906083266608
2025/04/05 15:17:07.139041609,1743859027,138094495,piren,-299.9781021663133,-303.26034898950195,2.4214476519892796,-0.029842840980572542,0.0002125893238187073,0.0026491475751458625,0.9995510700635125
2025/04/05 15:17:08.613941987,1743859028,611494707,piren,-299.9944278543609,-303.0893747427815,2.3857928106671213,0.028182587326384442,0.00015429686416820808,0.0020334216910535313,0.9996007118646398
2025/04/05 15:17:10.139329200,1743859030,137561293,piren,-300.00916992877717,-302.9952983530307,2.320337127878006,-0.029784648688574288,0.00030142648802286863,0.0015850993921002882,0.9995550366560552
2025/04/05 15:17:11.578981589,1743859031,577527820,piren,-300.00974638990283,-302.91327333444707,2.262921554390529,0.0018396658242574905,0.00045595222339216054,0.0017056232418090408,0.9999967492880075
2025/04/05 15:17:13.29024627,1743859033,27182881,piren,-300.0038101500845,-302.5123079459675,2.3459863235768403,0.02821953400133167,0.0004994013964152167,0.0022641138368796514,0.9995990607676293
2025/04/05 15:17:14.462197586,1743859034,447934084,piren,-300.00143222642225,-302.29828429201046,2.3550739285037845,0.028207035386857416,0.0001255676830775973,0.002681183910810576,0.9995984987184995
2025/04/05 15:17:15.952815568,1743859035,950849755,piren,-300.0051656862978,-302.29921351941294,2.2628846901273496,-0.029802647037341957,7.00000830809616e-05,0.003142138329286251,0.9995508612853453
2025/04/05 15:17:17.408108694,1743859037,407570336,piren,-300.0117563505547,-302.11446053330565,2.2547894562051627,0.02820573165689716,0.00046370640550585365,0.0033967850837906687,0.9995962602616935
2025/04/05 15:17:18.826585301,1743859038,824253565,piren,-300.0134729360683,-301.700985394995,2.3568920269330014,0.02822379770611201,0.00046740990468976533,0.006001555949003765,0.9995835033138635
2025/04/05 15:17:20.280659941,1743859040,279150722,piren,-300.00838180511806,-301.60789539333325,2.32666767909396,-0.0033840352174091324,-0.0012706789990500694,0.009854022805011124,0.9999449144403341
2025/04/05 15:17:21.798981200,1743859041,796089429,piren,-300.00337250083453,-301.6029768250092,2.2642766349705252,0.001819178234966833,5.804557039586637e-05,0.004647121962309542,0.9999875456618091
2025/04/05 15:17:23.260298431,1743859043,258649808,piren,-300.00877625544973,-301.37408228572065,2.307502948433363,-0.0034024417701943592,0.0003979041893044224,-0.0040284385022764145,0.9999860182750007
2025/04/05 15:17:24.738331051,1743859044,737123385,piren,-300.0246077607417,-301.133356759401,2.3600703825185874,-0.02980960945685502,0.0006069954872833454,-0.006248577132702929,0.9995358793081542
2025/04/05 15:17:26.187266052,1743859046,184915576,piren,-300.0441948950386,-300.9528614684882,2.383612377254672,0.0018219614839568396,0.00022461299263364426,-0.0032452725037238027,0.9999930490817079
2025/04/05 15:17:27.693075991,1743859047,691884214,piren,-300.0465443963562,-300.8410910836062,2.379146724196146,-0.003358577917052629,3.2133152541893944e-05,0.0009771506712932373,0.9999938820304859
2025/04/05 15:17:29.117285316,1743859049,115700839,piren,-300.029704065224,-300.90784851097476,2.318435285596387,0.0016507946276177155,-9.579420754707646e-05,0.006543738023343606,0.9999772223372138
2025/04/05 15:17:30.564691527,1743859050,562132101,piren,-300.0086684084143,-300.8926643597935,2.2966347362408657,0.02815302483777561,0.0003426021181209755,0.008672342159402189,0.999565945947411
2025/04/05 15:17:31.989397232,1743859051,988852640,piren,-299.99687078845653,-300.81424266333323,2.2974410765857125,0.02811116587205017,0.0003359605595264802,0.007223280588500561,0.9995786480819588
2025/04/05 15:17:33.512530855,1743859053,509700332,piren,-299.9987082610094,-300.7885277021558,2.266802556540224,0.0016256962895192057,0.00025080966632656104,0.0023291054143118237,0.999995934728764
2025/04/05 15:17:34.940142839,1743859054,938014908,piren,-300.0154914089835,-300.70167125667416,2.2744967371826825,0.0016218965517536554,0.0004986047974890519,-0.001163485337519326,0.9999978835711107
2025/04/05 15:17:36.359587418,1743859056,358935887,piren,-300.0358987376702,-300.4973226766499,2.339655957498529,0.028198393036673465,0.0005076191365435694,-0.0004875698236462078,0.9996020984514932
2025/04/05 15:17:37.790816978,1743859057,789388303,piren,-300.04077486493935,-300.4282092554073,2.345460825354392,0.02822094075083321,0.000312709159574313,0.0017655197948136827,0.9996001018687292
2025/04/05 15:17:39.310844756,1743859059,307675835,piren,-300.02890568557865,-300.5555511714703,2.2604917549913552,0.001649995064897203,1.4988528698021099e-05,0.006471663393311776,0.999977697183569
2025/04/05 15:17:40.803791223,1743859060,747470185,piren,-300.0143126325033,-300.543683722401,2.2438785260664553,0.0016220525637133992,0.00021269168254921134,0.008365203686507009,0.9999636728776761
2025/04/05 15:17:42.217552233,1743859062,214787882,piren,-300.0041392748912,-300.30808650696315,2.3297134121900784,-0.0032571469472006593,0.0001035137862833371,0.007133543741682891,0.999969245943267
2025/04/05 15:17:43.652449442,1743859063,647252998,piren,-300.00672202598946,-300.14905563289824,2.3827271317076915,-0.029813839121545005,-0.00020521083640648188,0.0021412046585295046,0.999553154228407
2025/04/05 15:17:45.151896470,1743859065,146596216,piren,-300.02211825694576,-300.1128374106154,2.3799838323457876,0.001626588051852167,0.00011759230743884522,-0.0009576472098233023,0.9999982116459911
2025/04/05 15:17:46.593813204,1743859066,592842663,piren,-300.0407962789173,-300.11574330079316,2.362433865664951,0.028246115010771972,0.00044046361073277315,0.0015981883345627848,0.9995996242359504
2025/04/05 15:17:48.55912558,1743859068,54263861,piren,-300.0439104939629,-300.2783071374869,2.2885760950586627,-0.029766440688411083,-2.8916844666458802e-05,0.008788955700949903,0.9995182401688557
2025/04/05 15:17:49.506321596,1743859069,503738089,piren,-300.0245524357678,-300.32299371764896,2.263139507153805,-0.03075821768307501,7.230876023303612e-05,0.010315828971537629,0.9994736167048301
