time,header_stamp_secs,header_stamp_nsecs,header_frame_id,twist_linear_x,twist_linear_y,twist_linear_z,twist_angular_x,twist_angular_y,twist_angular_z
2025/04/05 15:11:58.471448354,1743858718,69659669,piren,-0.18377632719207226,0.2965920257751356,0.2611517547416254,-0.0009870516366116847,-0.0015400433214625916,-0.0346087073227489
2025/04/05 15:12:07.204736257,1743858727,185500947,piren,0.17675248770192387,0.8262784611341436,0.4158887972836217,0.0008343902255913929,-0.0025994195032445436,0.03181917236723567
2025/04/05 15:12:09.343445180,1743858729,329139939,piren,0.5252663487629431,0.1707191243073345,0.07414124716411252,0.0026166171660311722,-0.012090999837207485,0.02696746922938563
2025/04/05 15:12:11.141399354,1743858731,114672746,piren,0.6809980684544368,-0.5176502901590078,-0.2865547959963352,0.003822099121514031,0.004328208742919662,0.012240920272990216
2025/04/05 15:12:13.337293218,1743858733,323099230,piren,0.25760541987742697,0.1695948553493969,0.12626319066555514,2.5292029145802123e-05,0.00483120965481464,-0.010189052624997239
2025/04/05 15:12:15.541038566,1743858735,515345611,piren,0.3497763906043016,0.2586536745427571,0.1725629356905257,-0.001419281427766563,-0.0017175346495241902,-0.018896094284108916
2025/04/05 15:12:17.765459763,1743858737,667581112,piren,0.4847917331067489,-0.23096797403031755,-0.09469554069625388,0.00017317660269586534,0.002448742492830028,-0.011775780535792996
2025/04/05 15:12:20.21560249,1743858740,4018434,piren,0.578161360859303,-0.01618879577172208,-0.039611610653538916,0.00033969216212461793,0.0008508581146837643,-0.001511618239870087
2025/04/05 15:12:22.2593896,1743858741,992298835,piren,0.47095026597125944,0.05790338252722961,0.04331040278294459,0.001645745437655005,0.0016576918074973507,0.010821885558072123
2025/04/05 15:12:23.465515913,1743858743,454900835,piren,0.4812279432655483,0.14548989598879472,0.08264036904870997,0.001063719156649275,0.0011888499830876606,0.01126443419222495
2025/04/05 15:12:24.883366632,1743858744,873833262,piren,0.42984807900806987,0.024320013520355704,0.009382455397259043,0.0017679486526149834,0.0010562117640937141,0.004324063666858688
2025/04/05 15:12:26.362936637,1743858746,291151297,piren,0.2906545275256117,-0.25405278074267634,-0.11691272331721955,0.005707461814732185,0.0009691224916778991,-0.0008784123453898517
2025/04/05 15:12:27.826597874,1743858747,806917551,piren,0.12252307693724976,0.0727650117416494,0.02934684922945527,0.0031486185504318305,0.0009435201152026292,-0.002993459436824786
2025/04/05 15:12:29.236229764,1743858749,209911161,piren,0.0770657788008062,-0.023789874764769875,0.002060840256744554,0.00463709919477171,0.0009665501016379839,-0.002472794724506695
2025/04/05 15:12:30.602515502,1743858750,595501714,piren,0.1391126909506507,0.04845899944962247,0.031406317882751916,0.005658663171979457,-0.0002531515356317022,0.00026212530238033197
2025/04/05 15:12:32.151347273,1743858752,65975499,piren,0.21108692867969656,0.020065481644724686,0.007132683679236803,0.004914192744947356,-0.001386503937078949,0.0008228855937221519
2025/04/05 15:12:33.602180695,1743858753,592408209,piren,0.21494517809765018,-0.02471995916666793,-0.014764865031065156,0.00462137129605638,-0.0018434867840653308,-0.0018132102453236607
2025/04/05 15:12:35.154815693,1743858755,143276402,piren,0.18234705587483366,-0.06293356702926695,-0.0241431266078189,0.004504174437446903,-3.125270586481032e-05,-0.00199404170348982
2025/04/05 15:12:36.774602284,1743858756,765845347,piren,0.1893140777659024,-0.02890112254003662,-0.006507607618913783,0.00168706718764982,0.002309374253354889,-0.0012134230901866983
2025/04/05 15:12:38.572658767,1743858758,565832797,piren,0.24842133452234483,-0.04446409535953472,-0.02237207224701139,-0.006023581423940119,-0.001853183600135071,0.0005914614531453516
2025/04/05 15:12:40.43542480,1743858760,32093389,piren,0.2790149949228631,0.2364045996159354,0.09406471622047957,-0.0030092283645557797,-0.0015822236344894371,0.0005037521464123467
2025/04/05 15:12:41.517525760,1743858761,508482590,piren,0.25569726375247187,0.10861193139849157,0.047095233978848065,-0.006259682349736315,0.00023762338798849302,-6.689958316417072e-05
2025/04/05 15:12:42.977558982,1743858762,922644001,piren,0.22071640195240394,-0.27062050818499234,-0.10799730193108076,-0.0031754133922434237,-0.0014157111062962154,0.0004990645140673407
2025/04/05 15:12:44.325545815,1743858764,315341633,piren,0.20988488791253945,-0.12568304859087154,-0.04488550388746028,0.0017516810381017368,0.0009633709416346305,-0.0009010005102959961
2025/04/05 15:12:45.747496937,1743858765,690225510,piren,0.22038913432620535,0.18530706129486196,0.07855597836037716,0.004552043185674584,0.0019120931005337492,-0.0007992780963289684
2025/04/05 15:12:47.374100994,1743858767,329855562,piren,0.220205008792254,0.14621024703656138,0.05720751071824053,-0.00037715160981436274,0.0004195574866034048,0.0003331898176420434
2025/04/05 15:12:48.777552169,1743858768,739524139,piren,0.20546948473652227,-0.15712941020333282,-0.06416086594704404,0.0028784631280241264,-0.002472168748862837,0.0019353827777187727
2025/04/05 15:12:50.152188642,1743858770,138387136,piren,0.1883692638466069,-0.07709933438522903,-0.02957782362582237,0.0034271101346569164,-0.002446473380473167,0.0018941660722379917
2025/04/05 15:12:51.558609603,1743858771,507080128,piren,0.17320361464166997,-0.1511554885861181,-0.058137573578954764,0.004354883343426562,-0.0005094361789679691,0.0006792183873288476
2025/04/05 15:12:52.987100550,1743858772,979275826,piren,0.1533205134791384,-0.00458777357407536,0.002067406851014142,0.00557079552638217,0.0010174010147984305,7.907371246778002e-05
2025/04/05 15:12:54.391308216,1743858774,356377537,piren,0.13807301815663742,0.09455401195291477,0.03705584210460186,0.0069396283182689665,0.0013809127443314012,0.0006102648881596999
2025/04/05 15:12:55.747345524,1743858775,740960798,piren,0.13175810196207713,0.15741127784454026,0.05970555105025481,0.006644564776974353,0.000628798666970234,0.0018734521102969012
2025/04/05 15:12:57.161524684,1743858777,121480280,piren,0.12266697476211412,-0.09024311096309184,-0.045950146593798424,0.006277962324795956,-0.0008429369852414313,0.0011550552282895631
2025/04/05 15:12:58.607551047,1743858778,601197176,piren,0.1013948445397542,-0.027509763062652667,-0.00853148573197246,0.008108780375834951,-0.0004079741099003278,-0.0010294240850214915
2025/04/05 15:13:00.36568183,1743858779,998707305,piren,0.08298303424471633,0.14550626508657905,0.06371761419015114,0.0049295738638564564,0.00021888314105819167,-0.0016262757302131596
2025/04/05 15:13:01.429710241,1743858781,423008131,piren,0.0778297003072108,-0.021488960767600734,-0.006504316841004401,0.003409063862708557,-0.0010951912268272281,-0.00023572619574334703
2025/04/05 15:13:02.806077002,1743858782,791565801,piren,0.07754395287433871,-0.09575750880821877,-0.03997048501438215,0.0026635668405128234,-0.0010292356870993903,-0.0006275522774882995
2025/04/05 15:13:04.274968592,1743858784,262894148,piren,0.07157927305875054,-0.04028212183843542,-0.01615525337969089,0.000989782461094959,0.0008899259118987577,-0.00078220782586565
2025/04/05 15:13:05.647322222,1743858785,635720519,piren,0.06036004609054507,0.052372251911265905,0.023525377030375903,-0.0004153423590646486,0.0016782395238412657,-0.00039624081899313206
2025/04/05 15:13:07.100584169,1743858787,93124586,piren,0.052488480600277033,0.034605991156150324,0.014369710528731115,-0.000577844860804183,0.001210130793806933,0.0010905976804948623
2025/04/05 15:13:08.474904404,1743858788,465315529,piren,0.050238203022808736,0.024509330098272317,0.007615574516843037,-0.002881767960384725,-0.0002827315800216814,0.0016082558617574922
2025/04/05 15:13:09.957862566,1743858789,949850528,piren,0.04757216948000823,-0.15490919449966828,-0.06756472030549339,-0.0007382092850153475,-0.0016419998421961127,-0.0005713609862682216
2025/04/05 15:13:11.353750560,1743858791,329061482,piren,0.034551606575541516,-0.00950356633252275,0.001344597194849445,-0.0020626834223565716,0.0003975249408185364,-0.0017375716658181368
2025/04/05 15:13:12.765903401,1743858792,759148528,piren,0.024908426662386407,0.09623368605780407,0.04401707894797141,-0.0021437028787724154,0.0007934998882343597,-0.0003459607120310269
2025/04/05 15:13:14.202662172,1743858794,184255615,piren,0.0261111456539762,0.18415512547262614,0.06830206728595861,-0.0021598874567763443,-0.0007967513649005329,0.0024580377200175917
2025/04/05 15:13:15.654370577,1743858795,627854896,piren,0.04291459693458782,-0.051145095212313474,-0.020213141455590167,-0.002662698131338548,-0.003070239712046712,0.014127547936436712
2025/04/05 15:13:17.146950464,1743858797,88321509,piren,0.074640778936509,-0.34200681873962757,-0.08059525440021224,-0.00047683370432316524,-0.0004244143725205141,0.022963714364588998
2025/04/05 15:13:18.484034966,1743858798,476157626,piren,0.09705559636731739,-0.28112021829774614,0.017385558018969724,-0.0026047582239674435,0.0007327721780878563,0.02165095947362266
2025/04/05 15:13:19.939795044,1743858799,880478863,piren,0.13273657667509686,-0.47932778407284726,-0.023989058214019955,-0.0014820741283551775,0.0005782319854749171,0.016003638770874528
2025/04/05 15:13:21.357444990,1743858801,348425219,piren,0.07921189470607677,-0.37757972630783965,0.028229237393074633,-0.0009486914791474213,-0.0006419108434741959,0.013075093374791987
2025/04/05 15:13:22.871189938,1743858802,798670161,piren,0.05691588601484872,-0.3770394835195924,0.026749264652897373,-0.001234013496769596,-0.002162771482055274,0.012722377132472597
2025/04/05 15:13:24.210059483,1743858804,198238438,piren,0.08961241021856911,-0.4740189051370174,-0.002503856082941302,0.0007049797245370214,-0.0038288090068747237,0.015609101076531021
2025/04/05 15:13:25.625707539,1743858805,614022632,piren,0.1319501637422032,-0.5745861673310168,-0.02495422626197423,0.0006566881532077806,-0.005130243051861632,0.01736122807599844
2025/04/05 15:13:27.62721086,1743858807,23190524,piren,0.13911215310658878,-0.5877019125011879,-0.02164647903643426,0.003041684974996604,-0.0028823213902582335,0.017779364211661434
2025/04/05 15:13:28.559186883,1743858808,491445537,piren,0.05262625287696171,-0.37585769127062973,0.057526101718934665,0.0011100202268419321,-0.0008797628963972961,0.018582350397676504
2025/04/05 15:13:29.993456439,1743858809,934585158,piren,0.05809339199158746,-0.5216600602308057,-0.01834981420295114,0.0013312203470750548,-0.00037056816885306374,0.020194877307011545
2025/04/05 15:13:31.409538337,1743858811,402005370,piren,0.06792872394025795,-0.5910569176057373,-0.06430112716757512,0.0015486704179442957,-0.0015670489232767304,0.02024754511095782
2025/04/05 15:13:32.908784784,1743858812,842179941,piren,0.008315191859173468,-0.3902458920640578,0.018992695502003304,0.0027157996163554017,-0.001773291697317403,0.02252108557426717
2025/04/05 15:13:34.381991830,1743858814,373670253,piren,-0.05312089692124612,-0.21604957381437034,0.0883935214508407,0.001528924893737871,-0.0030629688004179126,0.021732083482901864
2025/04/05 15:13:35.826855148,1743858815,795310623,piren,0.05808837330587227,-0.4942170757533853,-0.040993631339261455,0.0011291177888813413,-0.0022017838484416374,0.022759599237402065
2025/04/05 15:13:37.213246064,1743858817,204029531,piren,0.03673230801341521,-0.5084065247337088,-0.047149077376437046,0.0018200924934706425,-0.001480793369052521,0.023563407875984228
2025/04/05 15:13:38.633068734,1743858818,594746044,piren,-0.009431836287967989,-0.40283308207858626,-0.004592784742571736,0.0006485604599418218,-0.0008380556624219724,0.02369998826024371
2025/04/05 15:13:40.185889788,1743858820,103024695,piren,-0.039325766584943654,-0.30766244441811014,0.03270063414406672,-0.0006891343128902557,-0.0019180581237187666,0.023444108491937704
2025/04/05 15:13:41.528718353,1743858821,510239985,piren,-0.0276872782117611,-0.312930050033537,0.026122964540216256,0.0003747121151572097,-0.0009950021162497453,0.02288370916566703
2025/04/05 15:13:42.946753104,1743858822,936830021,piren,-0.06125556009101313,-0.31370488566399163,0.0306019610577176,-0.0009193551387421063,-0.0016092150923077732,0.022258571612222812
2025/04/05 15:13:44.400663042,1743858824,323207422,piren,0.03596743978505361,-0.4581117501693365,-0.04256484554742398,-0.002884963075549094,-0.0008410909987360398,0.02098996135132839
2025/04/05 15:13:45.786015461,1743858825,776515149,piren,0.10184612508082823,-0.4558742258662272,-0.08459309098858524,-0.0014279855164047088,-0.0001340941793981233,0.022147863082783242
2025/04/05 15:13:47.181269921,1743858827,152181963,piren,-0.04092238750349721,-0.1261645861187839,0.021189113965083675,-0.001328245863301861,0.0017943583253584733,0.023272838018957784
2025/04/05 15:13:48.554367462,1743858828,546799584,piren,-0.1910141645420485,0.13867289429235874,0.10371841691412044,-0.0024702242135578975,0.0010950049548590207,0.019952729154953802
2025/04/05 15:13:50.13813693,1743858829,944945495,piren,-0.08057663386302961,-0.026895686111992695,0.00840767399307922,-0.0025518110902274576,0.0001649254448362992,0.01725110845127204
2025/04/05 15:13:51.424544790,1743858831,414467913,piren,-0.011596435916181203,-0.22119624665901885,-0.05915664347750797,-0.002261308293121188,-0.0008606221257555538,0.013670487463901813
2025/04/05 15:13:52.871716659,1743858832,823262908,piren,-0.04838883197862784,-0.22916005222518782,-0.03717527615904444,-0.0006669689687066291,-0.0004706586472675706,0.011035061264353165
2025/04/05 15:13:54.237236878,1743858834,224899855,piren,-0.19027107388997178,-0.049397601595773666,0.05774466248546503,-0.0018794505610181921,0.00027081029438422323,0.00931012214429788
2025/04/05 15:13:55.634397109,1743858835,603012458,piren,-0.10682947407854085,-0.12916256594244208,0.013359667717102619,-0.0021120708041308923,-0.00010932885557900441,0.0074876209610918515
2025/04/05 15:13:57.2863268,1743858836,994339319,piren,-0.01102859997449783,-0.24715898603030784,-0.04535046963228039,0.00031102744221845913,0.000342606735338447,0.0056173945828372086
2025/04/05 15:13:58.454187768,1743858838,437261321,piren,-0.048233450917996794,-0.22743907096810237,-0.02070204752067197,-0.0007186742478155546,0.0004436638835167566,0.004919834130164727
2025/04/05 15:13:59.972045108,1743858839,896931270,piren,-0.11024010576125007,-0.15702586259130788,0.02471968102155331,-0.0013667519128347325,0.0002132544063240762,0.003260798330915392
2025/04/05 15:14:01.325864074,1743858841,316516597,piren,-0.09933625731741855,-0.15085742934720606,0.02522462832076067,-0.0005485278907055241,-0.00012536625231540727,0.0004978818686524566
2025/04/05 15:14:02.738749872,1743858842,730216575,piren,-0.08068706958974914,-0.16924239308377714,0.014146445290925996,-0.0022089767661560233,-0.0007416675327059154,0.0004410549586724905
2025/04/05 15:14:04.308086723,1743858844,298769003,piren,0.07037131341235137,-0.3227981016496864,-0.0751813241188118,-0.0023147881237641286,-0.00033374642941895254,0.002888431838678491
2025/04/05 15:14:05.734151901,1743858845,695194217,piren,0.046144063364226454,-0.27518811886811767,-0.04869252991678057,-0.0021953906903086004,0.0006148375612960569,0.002951763468124443
2025/04/05 15:14:07.112405086,1743858847,104886487,piren,-0.1334149165476451,-0.06483923192681637,0.07193789212344215,-0.0028308224939877194,0.00016833900065237043,-0.0006106626259427219
2025/04/05 15:14:08.549558661,1743858848,523694322,piren,-0.16386423758585847,-0.03811119078236466,0.08236605031030195,-0.0027682983860133513,-0.0009529862994124482,-0.001227907171213234
2025/04/05 15:14:10.11454829,1743858850,1907903,piren,-0.00853937907804761,-0.21552600196277985,-0.020621758327936265,-0.0016718130748128509,-0.0014004266118171195,0.001666342025045696
2025/04/05 15:14:11.424061195,1743858851,367052783,piren,0.08578597321929878,-0.29707644925206245,-0.06972247284581326,-0.0023300942369419682,-0.0004128766661439888,0.004514558052499768
2025/04/05 15:14:12.801833942,1743858852,794148621,piren,0.03553658796422455,-0.1978189736133567,-0.020891572920971886,-0.0016173324373674365,0.0006829754678093378,0.002341980332017497
2025/04/05 15:14:14.247999674,1743858854,181833848,piren,-0.12807196534086002,-0.015290570785509272,0.07669733303179443,-0.0019265005136350631,0.00024882412098778953,0.0004862334223860801
2025/04/05 15:14:15.675476988,1743858855,668156386,piren,-0.031305040467168935,-0.1314741596229846,0.013453769912266253,-0.0013489947483990797,-0.0010895695593782218,0.0016962719157578188
2025/04/05 15:14:17.98565396,1743858857,87516619,piren,0.07927497211417132,-0.2502247098768743,-0.05482366117159973,-0.0017930153548052412,-0.0007750955732801854,0.0009893166580820128
2025/04/05 15:14:18.510282648,1743858858,504160641,piren,0.08527530467490535,-0.23362398978219917,-0.0532343468765448,-0.000679520916164355,-7.361171455789867e-05,0.0005506003093291918
2025/04/05 15:14:19.982195326,1743858859,902908823,piren,-0.1224855162577573,-0.001840512745456574,0.07150745382188528,-0.0011524330790681223,3.722098557748008e-05,0.00021114836531117
2025/04/05 15:14:21.404768197,1743858861,397034482,piren,0.04987022748332451,-0.15573238456740857,-0.02765787043966743,-0.00046722375530578976,-0.0006709679107702956,-2.835717482433339e-05
2025/04/05 15:14:22.842618137,1743858862,792934745,piren,-0.05918122790635648,-0.053705887080013254,0.036552802529148457,-0.0009853755539549415,-0.0006678845511380976,-1.4850039235546798e-05
2025/04/05 15:14:24.194720510,1743858864,186068442,piren,0.05793846996339157,-0.1670268864025724,-0.028173916279957564,0.0002827300379544005,-0.0003755926474959551,6.787552001666215e-05
2025/04/05 15:14:25.609819378,1743858865,600263650,piren,-0.04027434645504441,-0.058844688488579266,0.02643342422545015,-0.0012249576084596054,-0.00021914701851539415,7.240946851546386e-05
2025/04/05 15:14:27.136667725,1743858867,122319003,piren,0.08299810057683274,-0.16141560591331602,-0.0426096260912865,-0.000984236447986627,-0.00034326253999515704,6.601914594714416e-05
2025/04/05 15:14:28.634596698,1743858868,622522154,piren,0.0653141249567848,-0.1349083571513342,-0.030337630177668114,-0.0004465441425187691,-0.0002482259178369009,0.00011664914381817402
2025/04/05 15:14:30.99969861,1743858870,87184211,piren,-0.07675576496226354,0.0051777082460835455,0.05176520227246851,0.000596898393563257,0.00017384178326498826,0.0001405037836314644
2025/04/05 15:14:31.535134426,1743858871,528845938,piren,-0.11725857571964338,0.047928281446093506,0.06969684264628516,-0.002250933637439655,-0.0003064286657397361,-8.867608250036497e-06
2025/04/05 15:14:33.33688493,1743858873,22878017,piren,0.12387470665475989,-0.18187923089844793,-0.06797644558864537,-0.0015405345764477627,-0.0006198091484798191,-9.994824139531803e-05
2025/04/05 15:14:34.468919370,1743858874,456724033,piren,0.097308061556259,-0.15086664456953208,-0.04694009917689154,-0.0009607853676008804,0.00018657836082624593,-0.00011508392556615175
2025/04/05 15:14:35.894700823,1743858875,888685873,piren,-0.009236180616881445,-0.03892036480788143,0.015982097203660103,7.804885664110357e-05,0.0006248395851066805,0.00015371347850149137
2025/04/05 15:14:37.319315589,1743858877,306200324,piren,-0.13029480114878467,0.08891964108124788,0.07920938472527,-0.0006712145315272117,-2.1160837392534526e-05,0.0006330480836322055
2025/04/05 15:14:38.726981721,1743858878,713882356,piren,0.028332220212950704,-0.06241892826419594,-0.010817956795052305,-0.00023069354830542065,-0.0008126480298308713,0.00041604450351072006
2025/04/05 15:14:40.194106220,1743858880,186125126,piren,0.11499573926134828,-0.1500996298440891,-0.058426700299111296,-0.0016828924043912204,-0.0007493890349829554,6.869057439253663e-05
2025/04/05 15:14:41.671042402,1743858881,606789348,piren,0.07953999991691446,-0.11618916209981714,-0.0382214990733279,-0.0011866688242202486,-8.22263417675725e-05,4.188537178912175e-05
2025/04/05 15:14:43.55498887,1743858883,7047903,piren,0.026406854702645005,-0.05681441843080345,-0.01234152580047276,-0.0014780653183217706,0.000516687073393145,0.0001538118994700319
2025/04/05 15:14:44.438449655,1743858884,431795154,piren,-0.03041621682759839,0.007210271225676947,0.01981168766127144,-0.001404810895133127,0.00015285955960006207,0.00023732725919584923
2025/04/05 15:14:45.898977216,1743858885,888613941,piren,-0.024945478353629792,0.003992684114655744,0.017377957301314487,-0.0011836083740718762,-0.0007406257371208026,7.391741353070671e-05
2025/04/05 15:14:47.386596612,1743858887,305407613,piren,-0.07338995422519516,0.04690973659380735,0.049029073595526884,0.0004450220829090359,-0.0006905903805426124,-0.00016928957708749195
2025/04/05 15:14:48.789652023,1743858888,778058764,piren,-0.07865677041068053,0.04288272279336572,0.04935585704686705,-0.0004069299927185871,-0.0060019866861477835,-0.009297114993029834
2025/04/05 15:14:50.180147384,1743858890,169597666,piren,0.0028265618825567135,-0.07777613803373194,-0.027214965480102403,0.0015798526888076059,-0.006004184806766884,-0.0264676017187028
2025/04/05 15:14:51.655358212,1743858891,642144285,piren,-0.13912147138271436,-0.0870749956324739,-0.03798089248818545,0.0013601829250794934,0.010833824192366103,-0.03413519890562465
2025/04/05 15:14:53.89729930,1743858893,83186463,piren,-0.3087251373414351,-0.10245055488276145,-0.0487355062766537,0.0012075659639510065,0.009620144200471342,-0.022982737528953356
2025/04/05 15:14:54.567796313,1743858894,496776161,piren,-0.41919635753761253,0.10547057294820708,0.025191595118139065,0.001554283199193248,0.0041765236426328884,-0.014577646275487209
2025/04/05 15:14:55.889002868,1743858895,883371752,piren,-0.37568325171773764,0.24284789048442737,0.06040389122939113,0.001291876631674956,-0.0010525554007834532,-0.013406857303074834
2025/04/05 15:14:57.486123221,1743858897,474253213,piren,-0.2908642105868698,0.15323791051755553,0.012411021711693122,0.00011994676959776616,-0.0028830100101210365,-0.01616598533739871
2025/04/05 15:14:58.918301104,1743858898,909896283,piren,-0.287225744012449,-0.029327150344124198,-0.055923906120687865,0.000906179099373469,0.0006458738888614328,-0.021737530197328665
2025/04/05 15:15:00.324382021,1743858900,308099343,piren,-0.4481249654137632,0.06311685318246466,0.003957587686340136,-0.0001830466508626323,0.000811656728563483,-0.02307998685776349
2025/04/05 15:15:01.825529324,1743858901,818429502,piren,-0.4084908659266152,-0.008079781631613034,-0.02240580296630423,-0.0015306987051519408,0.0006751990935908027,-0.024932939994745124
2025/04/05 15:15:03.376301678,1743858903,335606761,piren,-0.34246849010987757,-0.04755684765473185,-0.04248666708642769,9.853214522611741e-05,0.0007821505695930513,-0.02726721504322641
2025/04/05 15:15:04.872653109,1743858904,864283507,piren,-0.42058110645839447,0.11555404087139369,0.04169589409385696,0.0009904545235700168,0.0026596972760383453,-0.026825610959825448
2025/04/05 15:15:06.377640719,1743858906,307276322,piren,-0.4985909404430008,0.22241648641293113,0.0909875668397375,-0.0029005737650930896,0.007119076199319755,-0.02794687125645362
2025/04/05 15:15:07.729336668,1743858907,719857286,piren,-0.38942520904547606,-0.1109361670400171,-0.05506687915562064,-0.0026484809300158793,0.0031514016707976937,-0.028869022591049735
2025/04/05 15:15:09.224059614,1743858909,201454435,piren,-0.39371963197131704,-0.08430834164996617,-0.0362061089880073,-0.0028965565614683846,0.005465439231471408,-0.023543413762623453
2025/04/05 15:15:10.630674786,1743858910,622439847,piren,-0.4323206311283233,0.001059773515180995,0.009460283306509505,-0.0031109553195109428,-2.9213754428268903e-05,-0.02429122112165586
2025/04/05 15:15:12.58174027,1743858912,46320710,piren,-0.45127147183638994,0.03684156024314739,0.02807062700626755,-0.0013054882510403465,-0.0058742749480104745,-0.02095013628372217
2025/04/05 15:15:13.496032632,1743858913,486461156,piren,-0.4688204428574413,0.05289390290022361,0.033096423076940586,-0.0027471063373715153,-0.00703253991581243,-0.019488192722803995
2025/04/05 15:15:14.958577806,1743858914,911159017,piren,-0.43473621805642365,-0.21492702680629866,-0.0813838525673437,-0.0026331288725560463,-0.0025214906193700495,-0.017489664891433925
2025/04/05 15:15:16.438784596,1743858916,419077863,piren,-0.4699326350107644,-0.04746979027586298,-0.003275705482236657,-0.002183112507900637,0.0031336453449080674,-0.015898073880907006
2025/04/05 15:15:17.852977715,1743858917,834591599,piren,-0.4920488219981966,0.06966584217289032,0.04817268025273538,-0.002975795119834997,0.0037593874078117426,-0.013011125128238437
2025/04/05 15:15:19.334856390,1743858919,255037234,piren,-0.42458906076854,0.016796040176996527,0.02304183349010305,-0.004436729074077461,0.002261733501934804,-0.011322377594123164
2025/04/05 15:15:20.677967657,1743858920,667693793,piren,-0.3001987635093887,-0.18637170008355447,-0.07043579891494973,-0.003955534495139101,0.00437738019088919,-0.005112744638608352
2025/04/05 15:15:22.171955292,1743858922,159840095,piren,-0.1999664358309023,-0.034013550198369075,-0.008969494971942736,-0.0036110973646913415,0.0015929339113060997,0.006961505385205379
2025/04/05 15:15:23.598041105,1743858923,588751433,piren,-0.14117128971324786,0.16616506445316237,0.06898363344175162,-0.0064705673574312434,-0.0022186240017104215,0.011902940398846925
2025/04/05 15:15:25.27575308,1743858925,18524845,piren,-0.11024301158240672,-0.05628869414949755,-0.00019156573024023404,-0.006401967686871901,-0.003042645398593246,-0.021099822500808104
2025/04/05 15:15:26.448173952,1743858926,438263589,piren,-0.21298771224583146,-0.05170648361190566,0.01870163662384268,-0.007530940661508006,0.005460397358449779,-0.020505832862082407
2025/04/05 15:15:27.985716702,1743858927,949373039,piren,-0.2780552041014748,-0.20963887416246457,-0.0651079473209518,-0.0045947459905281655,-0.0021139738561899595,-0.003684932982930874
2025/04/05 15:15:29.363641555,1743858929,355449716,piren,-0.22922194023503875,0.05659666823507953,0.027860468379052497,-0.0074583426212061045,-0.0030391720416878907,-0.0041146214944191295
2025/04/05 15:15:30.800509257,1743858930,778075804,piren,-0.15688114684221588,0.018331195967357897,0.018432334360139427,-0.00786042919224765,-0.0019007025198657772,-0.004771994361582845
2025/04/05 15:15:32.239634289,1743858932,230469099,piren,-0.18941916948301737,-0.19401360671786227,-0.062170210706781956,-0.008026550806220155,-0.0012455285699919166,-0.0043231517468567465
2025/04/05 15:15:33.713959464,1743858933,699537508,piren,-0.27629996148280084,-0.14853688798771095,-0.04019450777838013,-0.008100352159095785,0.0001656107025401001,-0.0023516847067350122
2025/04/05 15:15:35.125476841,1743858935,111153523,piren,-0.29693351551513886,0.10983685239361926,0.07170101983109792,-0.008664438506854808,-0.0012438295042444078,-0.011759595925017357
2025/04/05 15:15:36.550634400,1743858936,532871543,piren,-0.2569747380762242,0.08824123071349327,0.0632639178935288,-0.0072646877720792015,-0.003224125107943161,-0.024076928311659043
2025/04/05 15:15:37.965570442,1743858937,952159949,piren,-0.228033309512512,-0.13608885774515278,-0.03905398142067869,-0.00682985114563177,0.0007783920460443193,-0.016787605553134213
2025/04/05 15:15:39.489062697,1743858939,482590099,piren,-0.22538406489161433,-0.1827423400529819,-0.08630818547028349,-0.006561242108689794,-0.0027903856495494262,0.013961782671056768
2025/04/05 15:15:40.922527044,1743858940,872538266,piren,-0.1662188030145903,0.07520963056986196,0.025554360558264738,-0.0077225492998079385,-0.009832734862979179,0.010086062878749573
2025/04/05 15:15:42.284966105,1743858942,276735246,piren,-0.12645044659684615,0.15573157723260966,0.0849547231779943,-0.007420890595946362,-0.0027327185327402767,-0.014530848372459947
2025/04/05 15:15:43.685642494,1743858943,677850038,piren,-0.21842724974144445,-0.036520302170674285,0.015991710579339277,-0.007195939018637594,0.003099169004402485,-0.02047656766102125
2025/04/05 15:15:45.211626379,1743858945,199729159,piren,-0.28729101558474257,-0.08459015916055201,-0.03705936096288669,-0.004587122677625876,0.006621141641712098,0.00530699495276709
2025/04/05 15:15:46.661283181,1743858946,630051370,piren,-0.22474842075548668,0.03758535267343224,-0.008326404992362858,-0.004290730247642378,0.003161944200272875,0.015304662401707868
2025/04/05 15:15:48.76819618,1743858948,69803390,piren,-0.05388612285992214,-0.12360235270962172,-0.05399943911665206,-0.002282776624076638,-0.0016037210403213216,0.0011801709601970316
2025/04/05 15:15:49.512626968,1743858949,486265500,piren,-0.057745103911475346,-0.08462329299268229,0.0006699773087315217,-0.0015710705914162822,-0.0004080717767423662,-0.02150737841034941
2025/04/05 15:15:50.907941642,1743858950,901557155,piren,-0.2007500921849446,0.0473685760640824,0.049665712511662616,-0.00031080915104238845,0.0001870991802332553,-0.012524693905601512
2025/04/05 15:15:52.499650155,1743858952,483003179,piren,-0.22784897329324894,0.11555714295109329,0.02512333564350929,-0.0013468793345374804,-0.006269427216481333,0.020866393400115413
2025/04/05 15:15:53.924148830,1743858953,915927668,piren,-0.05522902018933609,0.15236399948171356,0.02220112902323902,-0.003572696107700779,-0.0018514833913970167,0.013697496827454681
2025/04/05 15:15:55.357093259,1743858955,343956524,piren,0.04724258845353642,-0.2515201080266247,-0.09786329630101216,-0.0027584082663913356,0.001316154186619897,-0.01878314619926073
2025/04/05 15:15:56.774575537,1743858956,766861768,piren,-0.10383405270999947,-0.14268577913780928,-0.01891169413783063,-0.004008154330694796,0.010116184522449967,-0.01193161351541865
2025/04/05 15:15:58.279820310,1743858958,272081035,piren,-0.21949912296590857,0.050482854765733,0.019071246277623195,-0.0024667153098716487,-0.0009891332173387764,0.01751114102813615
2025/04/05 15:15:59.740437189,1743858959,692346192,piren,-0.07725879614290582,0.23471414459459125,0.0644393538713035,-0.005135583791632423,-0.007570022335325273,0.01534443842940722
2025/04/05 15:16:01.128518769,1743858961,121706802,piren,0.06427740546723676,0.06170241101640428,0.020656078953440286,-0.004078401555002214,0.0018845299005365108,-0.016426044217694554
2025/04/05 15:16:02.529192058,1743858962,521424954,piren,-0.02332562793776609,-0.03690846265199027,0.006563408073555538,-0.003636131155496178,0.007864843966607225,-0.011659622030881946
2025/04/05 15:16:04.74884038,1743858964,58839014,piren,-0.15206366219435996,-0.03362238529689378,-0.014177192667553564,-0.0030607387008788713,-0.0030597001634654246,0.016159054535234835
2025/04/05 15:16:05.549465546,1743858965,490691101,piren,-0.08887534112964252,-0.06309465863891958,-0.049844950934980835,-0.004312829677224707,-0.00522289489624746,0.021453822054353328
2025/04/05 15:16:06.925160311,1743858966,918040822,piren,0.04847486843423163,-0.012335040638299266,-0.011108886990486233,-0.003312475534020278,-0.004195983854241983,-0.004906369872545808
2025/04/05 15:16:08.387584432,1743858968,371879655,piren,0.012229600140517015,0.10489121577074953,0.06783101262448446,-0.0015708065333226787,0.004020205556555115,-0.022638295440317396
2025/04/05 15:16:09.863340359,1743858969,855957708,piren,-0.11661656890742098,0.030409245833471196,0.0314516686272234,-0.0010495942960646054,0.0021766845484955514,-0.009245547049493825
2025/04/05 15:16:11.309275237,1743858971,266602730,piren,-0.12467129559991054,-0.013140784905499032,-0.022203119094200197,-0.0017083174251662264,-0.0015031437049242917,-0.019258156281244103
2025/04/05 15:16:12.724845169,1743858972,716318996,piren,-0.03633059274884591,0.08867531001537868,-0.04304696673158695,-0.0030006215821678332,-0.009204648142374922,-0.02066652635582472
2025/04/05 15:16:14.214025512,1743858974,177364037,piren,-0.03653330688039251,0.22919585543031684,-0.03701989905324481,-0.003233351554838745,-0.00824601362676977,-0.0042761710297174235
2025/04/05 15:16:15.737113241,1743858975,727867682,piren,-0.028683758633178978,0.3328880003919043,-0.013419131534217216,-0.003690792219735499,0.001786924816465307,0.004640759006857189
2025/04/05 15:16:17.135304100,1743858977,123149318,piren,0.011423043963531644,0.36595360384894815,-0.0025518342349337107,-0.0036410269539550134,0.005757247326600364,0.007460154008793232
2025/04/05 15:16:18.559238871,1743858978,551471451,piren,0.03236252550082053,0.4434462635985714,0.022672412389116936,-0.0019319632604936365,0.00829921356229491,0.007022719592504713
2025/04/05 15:16:20.13391151,1743858979,973328809,piren,0.021707539458429424,0.6525192173131931,0.08557891625104892,-0.0028551838518295508,0.007874017761745691,0.006339534033730274
2025/04/05 15:16:21.506492469,1743858981,469293510,piren,-0.014302638656727602,0.4385035817408156,-0.021780717039978803,-0.002319206798535794,0.005006843885616689,0.005320129855737598
2025/04/05 15:16:22.887515310,1743858982,875082142,piren,-0.020940360279701517,0.39945509925719347,-0.04693358948849216,-0.001113190036865283,0.0025614527086200807,0.004583781798964871
2025/04/05 15:16:24.352263257,1743858984,308933470,piren,-0.007599956869853951,0.43300150121358494,-0.028946692395562298,-0.0012314863165173073,0.0013156570413373,0.003969400235032879
2025/04/05 15:16:25.759542740,1743858985,750506448,piren,0.006135146347241506,0.5438969587290561,0.01789316666737931,-0.0014794315565505901,0.0010386600815192406,0.0034499459491588885
2025/04/05 15:16:27.321251380,1743858987,280112977,piren,0.0023450965340994015,0.5812265749045767,0.028741214936964986,-0.0013238754514391146,0.0035291522318231724,0.0021151123023064504
2025/04/05 15:16:28.758443868,1743858988,743247285,piren,-0.010488462402554896,0.5882446859338873,0.024946490302972812,-0.0010118178735068013,0.006033314342759374,0.0013663548584694858
2025/04/05 15:16:30.166735101,1743858990,155361287,piren,-0.016515377988617283,0.4460890985530117,-0.03037982033732128,-0.0011191256009359973,0.0018312148405344648,-0.0031699144130063247
2025/04/05 15:16:31.624236146,1743858991,614319228,piren,-0.022414372378216748,0.4368461261959059,-0.029189858115218643,-0.0009310595882747654,0.0021180134748775953,-0.00223923427551848
2025/04/05 15:16:33.82281759,1743858993,62528915,piren,-0.01627540199833721,0.5205053072738796,0.005586259364330385,-0.0007922013778400218,0.001927102083487927,-0.00013430841073242797
2025/04/05 15:16:34.616189647,1743858994,556241407,piren,0.000693114650357065,0.5692834562563351,0.021154090723906116,-0.0008700561050071461,0.0022768433706720193,0.0012880817382490324
2025/04/05 15:16:36.33450383,1743858996,27329735,piren,0.007650856792542517,0.544274875504789,0.006642974413996252,-0.000890718765725663,0.00246780860991224,0.001837063120375684
2025/04/05 15:16:37.448713189,1743858997,436873965,piren,0.00035851790094010554,0.49883253552020534,-0.010127158108907327,-0.0007030579090031035,0.0019389775919407572,0.0018601170166734555
2025/04/05 15:16:38.959796755,1743858998,923900528,piren,-0.007457896602455103,0.49732758906611735,-0.00868080287228324,0.00017536034111686913,0.004139906763379147,0.0010872508221756898
2025/04/05 15:16:40.477682537,1743859000,401619842,piren,-0.009824343749233331,0.5965505663414663,0.04453822837700755,-0.001616538058758843,0.0021973227342584915,0.0005856787088654481
2025/04/05 15:16:41.921777712,1743859001,909483887,piren,-0.018372627627923528,0.2195993825740064,-0.06497689104300874,0.00011084705579688509,0.0035308350930827598,0.0004615291781639268
2025/04/05 15:16:43.401268490,1743859003,336022170,piren,-0.015648390221168037,0.2764553400423668,0.0275602086913284,-0.0006415173420067259,0.0016563104141186584,0.0008646000695679072
2025/04/05 15:16:44.830777564,1743859004,817092930,piren,-0.004573749632800637,0.06004685146735969,-0.004875468024033644,0.0017003312474251939,0.0026490592962837185,0.004767928647002381
2025/04/05 15:16:46.326732353,1743859006,315731193,piren,0.008286789513612792,0.12115306977275427,0.03371787410079137,-0.0002626922127922166,-0.001361203146233811,0.011816724323221848
2025/04/05 15:16:47.955499888,1743859007,883618911,piren,0.017415264879627544,-0.004025950021968719,-0.02163923109370642,-0.001794604124456772,-0.007727204641589546,0.010688655363070282
2025/04/05 15:16:49.316697035,1743859009,308111338,piren,0.025220443990110183,-0.05945335166456939,-0.02676103090010968,-0.0009253456639607018,-0.0026878702358046395,-0.01279953363433268
2025/04/05 15:16:50.841341030,1743859010,778541522,piren,-0.020324574501683408,-0.038663413191488555,-0.0031066835402871994,-0.0005824785714837403,-0.0004545710844933592,-0.019759085424423305
2025/04/05 15:16:52.317166126,1743859012,304680705,piren,-0.06798420214013323,0.05565512579205491,0.01762755254313,-0.0019145172063788466,0.0010709048175240304,-0.01104934834596197
2025/04/05 15:16:53.778449069,1743859013,769525613,piren,-0.046102858220229345,0.00811346341138263,-0.037542756420514745,-0.0005613011453833005,0.0022195247339128806,-0.00021787975180467665
2025/04/05 15:16:55.293803728,1743859015,230030139,piren,0.041806305667477756,0.11386113451776539,-0.004795649323289977,-0.0008320696267260771,0.0008813506191911377,0.004509943495120716
2025/04/05 15:16:56.693410876,1743859016,685523784,piren,0.06992188437052343,0.2239490669209775,0.04402178504054845,-0.00011059620000359768,-0.00011534291906649432,0.005246437469839922
2025/04/05 15:16:58.260512479,1743859018,197495939,piren,0.015369235193520105,0.1719246301827755,0.018235912428155313,-0.001118467066793931,7.151530295152954e-05,0.004396779840680071
2025/04/05 15:16:59.668844635,1743859019,659260058,piren,-0.034220692622603126,0.12328973162452742,-0.013544970988918405,-0.00045391275928004287,0.0008839309024506585,0.0033080890770730577
2025/04/05 15:17:01.175977678,1743859021,126222292,piren,-0.03014183335326426,0.12623438946675408,-0.02056327251515,-0.002089639214816486,0.0024371285169125585,0.0023184716151680215
2025/04/05 15:17:02.578270873,1743859022,567850765,piren,0.003981177231434669,0.07481269681406988,-0.04431356189150193,-0.0013114861920153853,0.002119696716466879,0.0013694301260863543
2025/04/05 15:17:04.246304724,1743859024,235951543,piren,0.019492494365021665,0.27712944448549054,0.04661124897026979,0.0013414275408654892,0.00025076068969656293,0.0013036240750477633
2025/04/05 15:17:05.705213310,1743859025,678762956,piren,0.007064652437974909,0.3717917204857716,0.08293656254576467,-0.0010871615315721623,-0.0009823455867733794,0.0011086446544330253
2025/04/05 15:17:07.146451148,1743859027,138094495,piren,-0.01000208445657383,0.11496878822372342,-0.023129595245247436,0.0006113455724916365,3.921181588828089e-06,0.0006628480723028075
2025/04/05 15:17:08.652836030,1743859028,611494707,piren,-0.012977839676660115,0.11209738492125357,-0.025347972977178734,-0.0011102804820635646,0.001617821061835027,0.00011119467315088953
2025/04/05 15:17:10.156314601,1743859030,137561293,piren,-0.00259582459780224,-0.051502253704165585,-0.08655564584537678,0.0005452646160997619,0.0017922195718664356,5.555236092867289e-05
2025/04/05 15:17:11.584210875,1743859031,577527820,piren,0.004485806043021037,0.2967331327238756,0.06468416505544525,0.00043111912158441353,0.0017316597483509532,0.00019349373917644888
2025/04/05 15:17:13.74251917,1743859033,27182881,piren,0.00317773440569861,0.2286248467039516,0.04018909499575571,-0.0011351462298440473,0.0008175431612940279,0.0003417584627174764
2025/04/05 15:17:14.462206356,1743859034,447934084,piren,-0.0014154855632573533,-0.006393570612771932,-0.06454676986347826,-0.0010728574437041706,-0.0007453314637603184,0.00042114800422460644
2025/04/05 15:17:15.965329167,1743859035,950849755,piren,-0.004989579417952446,0.012884525340769264,-0.05400472786359535,0.0006534112226636023,0.00011967031918142491,0.0004715728027850814
2025/04/05 15:17:17.414856746,1743859037,407570336,piren,-0.0030601069006939005,0.38071066409879706,0.1074347020786628,-0.00110156077928856,-0.00015957504051770287,0.0003751123294913856
2025/04/05 15:17:18.896141324,1743859038,824253565,piren,0.002635679021795548,0.1164429543663576,0.0004566501185929994,-0.0010454636407020836,-2.1241522144408408e-05,0.0021140659787802656
2025/04/05 15:17:20.288382510,1743859040,279150722,piren,0.005433371323033023,-0.0545798439410643,-0.06857567875972143,-0.0009229116561618589,-0.000629395607442499,0.00282582013923295
2025/04/05 15:17:21.868842749,1743859041,796089429,piren,-0.0015789522028176375,0.1386396213365518,0.021778446193986348,0.0005328265686684389,0.004830098864334833,-0.002515686736216105
2025/04/05 15:17:23.267548308,1743859043,258649808,piren,-0.008339400944669725,0.18641401757072373,0.04544141628576235,-0.0009692737020479405,0.008257067506571642,-0.004467445615882465
2025/04/05 15:17:24.814480669,1743859044,737123385,piren,-0.01669643037498692,0.12170752991296496,0.016080805923566227,0.0007141116285611228,0.004989988523277359,-0.002712850848449129
2025/04/05 15:17:26.196541444,1743859046,184915576,piren,-0.00634642869818028,0.1301503320105897,0.016515184573386972,0.000578954753489305,0.0009531158699710025,-0.00023324417548184037
2025/04/05 15:17:27.758487493,1743859047,691884214,piren,0.009808639766697049,-0.05889927979842438,-0.049192863732684756,-0.0010194768584342823,-0.0024920160321682764,0.001405775474106378
2025/04/05 15:17:29.127561106,1743859049,115700839,piren,0.015830455350578157,-0.018678164972606888,-0.02661388062605964,0.0005715214834357325,-0.006521541987404671,0.0037701603374175074
2025/04/05 15:17:30.639280797,1743859050,562132101,piren,0.011357252522656815,0.07551058321319062,0.011053643914212978,-0.0009381016364228706,-0.003748518393806553,0.002347644572450803
2025/04/05 15:17:31.994761845,1743859051,988852640,piren,0.002327577681580331,0.015438073929499599,-0.021463390027197764,-0.000866584566587873,-0.0011630115916842572,0.0009857079722579586
2025/04/05 15:17:33.575907114,1743859053,509700332,piren,-0.009781368184531422,0.019370495274461365,-0.015566332869941905,0.0006184851280870313,0.007574894381868188,-0.002323661267148057
2025/04/05 15:17:34.946215986,1743859054,938014908,piren,-0.016740950336452915,0.15233476923767766,0.04982674965697733,0.0007405730422483808,0.006852713512546669,-0.002139872178146683
2025/04/05 15:17:36.365991565,1743859056,358935887,piren,-0.008050040883381845,0.1147080003272552,0.03378411429849948,-0.0008868079716128626,0.0032473423524268107,-0.0007281154460280434
2025/04/05 15:17:37.797636571,1743859057,789388303,piren,0.00626535931855822,-0.09009602493392746,-0.05887533711683665,-0.0008825236854103726,-0.0002327574505935131,0.0005311833704957002
2025/04/05 15:17:39.319654800,1743859059,307675835,piren,0.011114063586637237,-0.06347937305931706,-0.04538251977771039,0.000698783274894901,-0.0070897530710078965,0.002888318336983767
2025/04/05 15:17:40.808546328,1743859060,747470185,piren,0.009134018127269408,0.159471127951156,0.05822421729746231,0.0007557012345231757,-0.00432795999526445,0.0017740130789361008
2025/04/05 15:17:42.222501964,1743859062,214787882,piren,0.0012484740486793065,0.15066913228361073,0.05460247230855401,-0.0006741699443852132,0.0002539406654039809,0.00044733583046037087
2025/04/05 15:17:43.705077419,1743859063,647252998,piren,-0.008512509619914019,0.018860053372100366,-0.003430831775605797,0.0009177583569424624,0.004874900168996869,-0.0023881831577255994
2025/04/05 15:17:45.155566423,1743859065,146596216,piren,-0.015260641164787123,0.038497589258850266,0.0015504340465507466,0.0007952460507061356,0.006758515459242839,-0.0019073768212892843
2025/04/05 15:17:46.622876681,1743859066,592842663,piren,-0.007463020460455048,-0.09318888252987534,-0.04278921660897986,-0.0005414757983480869,0.0048089460084214065,0.0002608714039386741
2025/04/05 15:17:48.61677430,1743859068,54263861,piren,0.010463994269820866,-0.14422428130651468,-0.06447576913119563,0.0010357927812294791,-0.005667932827929576,0.0037667323579882142
2025/04/05 15:17:49.521986396,1743859069,503738089,piren,0.019828025933338246,0.22050704796251944,0.08644164949179922,0.0005615366093287243,-0.005502794067125877,0.0013811781559209674
