time,header_stamp_secs,header_stamp_nsecs,header_frame_id,child_frame_id,pose_position_x,pose_position_y,pose_position_z,pose_orientation_x,pose_orientation_y,pose_orientation_z,pose_orientation_w,twist_linear_x,twist_linear_y,twist_linear_z,twist_angular_x,twist_angular_y,twist_angular_z,gps_status
2025/04/01 17:52:24.55910369,1743522743,821687916,piren,vessel_center,-500.01679401528475,-329.98582848460023,2.351519249345873,-0.030083227617726565,-0.0009674674115400138,-0.0009593550327326737,0.9995464686850877,0.007933512628505269,0.07489811429972981,0.04311331226474048,0.0006992410593068172,0.010292172761358706,0.00017275872438500566,0
2025/04/01 17:52:24.559010904,1743522744,521897561,piren,vessel_center,-500.01913896311544,-329.9286531062878,2.374552616960319,-0.030016414329416395,0.0005362358130336107,-0.0010311091309960197,0.9995487302457633,-0.004431364133871027,0.1344418021200443,0.0554333649884145,0.00042558595217354127,0.026668689849703348,0.0006672608533549634,0
2025/04/01 17:52:24.906189452,1743522744,858676107,piren,vessel_center,-500.02265485502437,-329.8620428501893,2.4010616269946894,0.0016321517134649,-0.00158446950296782,-0.0004281192433131537,0.9999973211219578,-0.0057308658716017065,0.09410178029315722,0.036896829318463865,0.0011912120091539932,-0.023721125751920643,0.0010270916120381731,0
2025/04/01 17:52:25.120103075,1743522745,106395597,piren,vessel_center,-500.02747985363203,-329.9184498615403,2.3802523685450403,0.02811353998444423,-0.001282354864579748,0.00012048458020929392,0.9996039065144805,-0.013264137658098404,-0.0837277644031939,-0.029922221918576263,-0.0006574387338515857,0.006809251928066524,0.0013973825796342503,0
2025/04/01 17:52:25.386255512,1743522745,368116334,piren,vessel_center,-500.03209651103793,-329.94759177891007,2.3698377716083243,0.0017991391961931316,-5.672485902656115e-05,0.00010080255651363757,0.9999983748583233,-0.013264137658098404,-0.0837277644031939,-0.029922221918576263,0.0004494539148211672,0.026053660859499346,0.0,0
2025/04/01 17:52:25.631413038,1743522745,624285112,piren,vessel_center,-500.03054617393167,-329.98364762565956,2.353258744200232,0.028432338547755728,-0.00044380335137920426,0.00031204867138867414,0.9995955721135013,-0.008312092706137916,-0.15438411533127797,-0.06338451119551335,-0.001154050015922334,0.02321861059295097,0.00915739173786076,0
2025/04/01 17:52:25.861206828,1743522745,853561467,piren,vessel_center,-500.0331283870681,-330.1106476627751,2.301155185049959,0.002067405934886127,-0.0007766362097146736,0.0035759113900029264,0.99999116772431,-0.0038372440543305098,-0.2469475753574908,-0.10130314802861495,0.0009863955842206622,-0.028150360750009422,0.0016549776607328913,0
2025/04/01 17:52:26.60794331,1743522746,50731833,piren,vessel_center,-500.03083061263294,-330.1316024933281,2.2972630323427548,0.002009354231028149,-0.0009839782155026246,0.0009423646034119616,0.9999970531113579,0.002955805695227612,-0.18500395840692466,-0.06543790297698185,0.0011769039683939774,-0.015434690793053962,0.0020865462417881085,0
2025/04/01 17:52:26.239283199,1743522746,231768920,piren,vessel_center,-500.03089038387395,-330.13962848206353,2.2993802787519484,0.0019315563632979012,1.956232527579314e-05,0.0011202700258291203,0.9999975068480922,0.0015289096661938704,-0.1218502402930891,-0.03208331777492302,0.0010271681019888628,0.007034106895199847,0.0019085351383764837,0
2025/04/01 17:52:26.419614230,1743522746,412507851,piren,vessel_center,-500.02938240480574,-330.1359013817939,2.30486131466805,-0.005019640422187864,0.0030490805500938143,0.0012217155331858168,0.9999820067026141,0.004188938847846005,-0.05845126567242108,-0.005389435595313449,0.0008845401101586809,0.016974394991941696,0.0016147441609977286,0
2025/04/01 17:52:26.591664842,1743522746,585713148,piren,vessel_center,-500.02284588268907,-330.1110745295251,2.3166782519732476,-0.03145084417450411,0.003324150240594447,0.001293875407571707,0.9994989346229033,0.01687677463210028,0.022598830970081377,0.023275945102005712,-7.197180230028264e-05,0.012523811794205886,0.0014130706472146616,0
2025/04/01 17:52:26.765029124,1743522746,760675884,piren,vessel_center,-500.01704033809625,-330.04003023523455,2.343976796735784,-0.002177102265763211,0.0031182584632602635,0.0012602506892115803,0.9999919741968338,0.02436819972335732,0.17341598331267855,0.07653474438651231,-0.0009850151017321753,0.0023290152940928436,0.001282112593520014,0
2025/04/01 17:52:26.937509469,1743522746,932397321,piren,vessel_center,-500.01196471759687,-330.0249751192697,2.350432407456023,0.002831626476382881,0.0015553418762099614,0.0013128884737609885,0.9999939195450149,0.02460708132562038,0.12829761822326768,0.05620286417098783,0.0006204890033030308,-0.009905164926695501,0.0008479218423533562,0
2025/04/01 17:52:27.113147124,1743522747,106855631,piren,vessel_center,-500.0118788587023,-330.0354971031821,2.346576406497731,-0.030336425061402595,-0.0005110944165692031,0.0014761898229399008,0.9995385240002498,0.016426323439645125,0.061262919348881825,0.028511585958336253,0.00043530509040811863,-0.009210371573049832,0.0018061258422279302,0
2025/04/01 17:52:27.293817093,1743522747,281334274,piren,vessel_center,-500.0156211365406,-329.992127689087,2.363928882417525,0.01880899310540196,-0.0004276026030003252,0.0016493980381898435,0.9998216433046879,0.0009465973168510354,0.13094120985665436,0.05464646155717774,-0.0008546176752851521,-0.0007414608726873893,0.0011075757736968177,0
2025/04/01 17:52:27.473076833,1743522747,468035918,piren,vessel_center,-500.0196259416416,-330.04196814072367,2.34320316811674,-0.0029914951517258925,2.340990564616946e-05,0.0015615589835617125,0.9999943059549261,-0.008272747026649744,-0.023771176349238088,-0.009754982766206885,-0.00039412093728056504,0.005629759523970995,0.0007858146179833756,0
2025/04/01 17:52:27.644610704,1743522747,641372467,piren,vessel_center,-500.02281457506336,-330.051831054106,2.3393143057320342,-0.001496554801942315,-0.00041797348073915967,0.0015945913137032019,0.9999975214471467,-0.011763114175619852,-0.035357597109578934,-0.014157247846219554,0.0002991018930482357,0.00893730454300133,0.0005156221105272688,0
2025/04/01 17:52:27.818578639,1743522747,813574927,piren,vessel_center,-500.02586341114807,-330.06019469792756,2.335601638403218,-0.017357668735241732,0.0013121276579504738,0.0015523181968988009,0.9998472783206955,-0.0144791377224926,-0.04174213035662536,-0.017522309445508574,0.00036011168405409075,0.005528465099324157,0.0003428771783474145,0
2025/04/01 17:52:27.998394513,1743522747,991755272,piren,vessel_center,-500.0259444718279,-330.0406833751445,2.3429835968913792,0.030572524364195004,0.001330979532969009,0.0015010363791208307,0.999530537871291,-0.008147660704481245,0.020429185854753874,0.006777543901822249,0.00017886488770588117,-0.0036743967820579066,0.0003415772647152681,0
2025/04/01 17:52:28.192533588,1743522748,187466002,piren,vessel_center,-500.0249449934358,-330.1018526674698,2.315942363266567,0.004694356596051478,0.0009936010295489635,0.00154571483778649,0.9999872931886602,-0.0031997700842118547,-0.12235907775748375,-0.05559101026756334,0.0016447785471188968,-0.008525630316607202,0.00018963056059862577,0
2025/04/01 17:52:28.372536553,1743522748,369489701,piren,vessel_center,-500.0244449684824,-330.117339554252,2.310769750957685,-0.004155889381944501,0.00026346182546367207,0.0015949588079662274,0.9999900575894305,-0.0007073453026812107,-0.10401788357226098,-0.04311363306044573,-0.0014041478490548138,-0.007739502932509226,0.00021894487082950675,0
2025/04/01 17:52:28.587255521,1743522748,579807740,piren,vessel_center,-500.0250131475534,-330.1112874449501,2.3150988649563184,0.000853666112444978,0.0015852819089903834,0.0016156197013081886,0.9999970739499283,-0.0016578817765100441,-0.0446449248422606,-0.014458115318058629,-5.0438475645464523e-05,-0.0007820088373887918,0.00015770689829374004,0
2025/04/01 17:52:28.776393715,1743522748,759852256,piren,vessel_center,-500.02313964485853,-330.10786685008105,2.3179655766740717,-0.003996129289666764,0.0017634456048934472,0.001589630607010303,0.9999891970840646,0.00325892533910453,-0.016767946485107252,-0.0015209001896385084,-0.0012332585068900127,0.003742023840704097,-1.398104651195419e-05,0
2025/04/01 17:52:28.973039918,1743522748,964872860,piren,vessel_center,-500.02109292750146,-330.09248597273694,2.3248380615190944,0.00564343301267121,0.001573028327509403,0.0015555683139579501,0.9999816285577116,0.0063387505920211645,0.02523215430023707,0.014516619563762732,0.0017883565900193642,0.005117283754961662,-5.776821381200026e-05,0
2025/04/01 17:52:29.151839929,1743522749,143914102,piren,vessel_center,-500.0197207330396,-330.0917807541064,2.324477014533199,-0.0034648111418342097,0.0014740154184082446,0.001561392486550038,0.9999916921733903,0.006656867633318392,0.015925613585976738,0.007458123722106324,-0.00040420827644054925,0.003253823414010302,-5.573172735120487e-05,0
2025/04/01 17:52:29.320348344,1743522749,316907282,piren,vessel_center,-500.01923331602217,-330.0767177233956,2.3296034032646813,-0.0040734210569158755,0.0010627271092807206,0.0015373524819432805,0.9999899571492359,0.005471168079338235,0.04397578016732846,0.016309696659100825,-0.0004896191546541078,0.0007842930764555832,-0.00019166049094957837,0
2025/04/01 17:52:29.495724865,1743522749,489289567,piren,vessel_center,-500.01963476120727,-330.0612224584472,2.3346942556070074,-0.02924428712059877,0.0009214567655750344,0.001525675616939111,0.9995707053041066,0.0021093862632817714,0.058564004356093255,0.020262174749422244,0.0012601591532453676,-0.002551205663306331,-0.00029341218078498356,0
2025/04/01 17:52:29.678421218,1743522749,663698439,piren,vessel_center,-500.02070787733714,-330.00867081005714,2.3539319127107543,-0.0028087658169592706,0.000512093354045525,0.0014576609476828315,0.9999948618965719,-0.0009431265893460705,0.15682687868256728,0.056605691469956795,-0.0005376348751663687,-0.0032572805160912674,-0.00042369049129194094,0
2025/04/01 17:52:29.856005975,1743522749,840274742,piren,vessel_center,-500.0224520265208,-330.0042787688541,2.3546717085005193,0.027767883746647515,-1.0874997713735764e-05,0.0014130149725020077,0.9996133992212463,-0.004391583227380329,0.09541491531167488,0.03256028154392136,-0.0013295537164633754,-0.0008226569631446991,-0.00035343748509199485,0
2025/04/01 17:52:30.22389590,1743522750,17983045,piren,vessel_center,-500.0247208071759,-330.06245336914236,2.3282292360247405,0.03362372860999885,-0.0011783799771044156,0.0014016010445392602,0.9994328850950936,-0.007934196668021035,-0.06655545508965692,-0.0373649059641971,0.0001322692752968057,0.0023223539099191523,-0.0007773736055090264,0
2025/04/01 17:52:30.201055902,1743522750,195949923,piren,vessel_center,-500.02856972419806,-330.1252285492113,2.2986501601205886,-0.0030364706629506903,-0.0005191261149659088,0.0012668292088351687,0.9999944527334866,-0.012998420031590944,-0.17680102271356293,-0.0866700392148336,-0.000813723611025715,0.006377908206578003,-0.0006154604574622344,0
2025/04/01 17:52:30.376449459,1743522750,371402205,piren,vessel_center,-500.0303619400564,-330.11143696688225,2.3039321706744973,-0.0034411201470773817,0.0012664556883200538,0.00121670988397492,0.9999925371717437,-0.012753084525548478,-0.088621640949351,-0.046730509678975914,-0.0007049994350088297,0.004045484176228882,-0.0007602163597852938,0
2025/04/01 17:52:30.548094452,1743522750,543089191,piren,vessel_center,-500.0290921981198,-330.09624716148255,2.309612730790204,-0.024475202327103596,0.0025369893166304618,0.0012755665483486604,0.9996964044579911,-0.004154502687288845,-0.014716951602441575,-0.012938026574468721,0.002678517385846285,-0.005153501684265,-0.0005628768734617358,0
2025/04/01 17:52:30.718321504,1743522750,714525389,piren,vessel_center,-500.0248190579354,-330.04123829502606,2.3319089166763427,-0.02899021169319239,0.0014035723029221362,0.0011941578969098551,0.9995779967554766,0.006679114324696707,0.11227655614898036,0.040777966372708245,0.0014859838799727734,-0.010151823693384668,-0.001320313675488072,0
2025/04/01 17:52:30.891957855,1743522750,885738637,piren,vessel_center,-500.0228176936013,-329.98329518494086,2.3554097151021502,0.018975145765995547,0.0005050442412110513,0.0009553148026381804,0.9998193717602702,0.008133725830247636,0.19073585923347203,0.07473297351963973,-0.0018210328172332572,-0.00658379605616411,-0.0009481244136024765,0
2025/04/01 17:52:31.101691572,1743522751,95359539,piren,vessel_center,-500.0232244971651,-330.0223289758181,2.3396991662898503,0.02697668881135662,0.0004135228896677249,0.0008780285501506954,0.9996355917660495,0.004448640841518932,0.038768887896002385,0.01426436653783393,-0.0002782098384646871,0.0002495209727274449,-0.0009847593273263411,0
2025/04/01 17:52:31.275879960,1743522751,271558886,piren,vessel_center,-500.0237303655416,-330.07198447085926,2.3178306590154936,-0.00042016638721958504,-0.001821536072050147,0.0008284218339588312,0.9999979095897202,0.0014055175901824218,-0.08831672995420481,-0.04049287380402025,-0.00034348383645493185,0.012000786989998293,-0.0006658915364049101,0
2025/04/01 17:52:31.453387397,1743522751,449067366,piren,vessel_center,-500.0280549654054,-330.0708212788966,2.3171929668958997,-0.0027851246384959015,0.00040947131531641134,0.000827445854080196,0.9999956953644094,-0.008848912178792237,-0.04551296990444021,-0.02347089165576624,-0.001206156726864183,0.013729408526258894,-0.0007622700818728112,0
2025/04/01 17:52:31.624736595,1743522751,621929369,piren,vessel_center,-500.02798879288724,-330.0567281271435,2.321579770345166,0.033209516774768924,0.0017765628379142224,0.0006585201610226161,0.9994466159686903,-0.005874065400121911,0.0004434596248746314,-0.006193197916677325,0.0001665240626364263,0.003344959703510264,-0.0016684942467745398,0
2025/04/01 17:52:31.797324365,1743522751,793883015,piren,vessel_center,-500.0255986816769,-330.10301815144317,2.2986924578890937,0.003030475556775875,0.0011278701632353723,0.0005442950764003732,0.9999946239203812,0.002147789812578845,-0.10287713389429987,-0.05433347548231578,0.0011787848182886777,-0.011479168669634785,-0.0010085371461739533,0
2025/04/01 17:52:31.973281091,1743522751,966690777,piren,vessel_center,-500.02416412296066,-330.09445107454593,2.3025803082392478,-0.0022052329606261183,0.000656465278459446,0.000536239342642707,0.9999972092202534,0.004617183971594637,-0.04940146124381604,-0.02750606427286198,9.280718797415663e-05,-0.015848738333046418,-0.001039520388352415,0
2025/04/01 17:52:32.142546308,1743522752,140278064,piren,vessel_center,-500.0237053675158,-330.0781608216067,2.3105938640172874,-0.0006521408631790699,0.0012440748439714391,0.00044804583051703784,0.9999989131219148,0.0036575430782698056,0.00798040246813693,0.0020950006003181663,0.0006261539761744709,-0.009515364147740419,-0.0007542282580810442,0
2025/04/01 17:52:32.332824555,1743522752,317857944,piren,vessel_center,-500.022703543326,-330.06337059403717,2.3182420816206273,0.0017356169437113356,0.00037769886711877206,0.00048382362024940303,0.9999983054446119,0.004618118659254174,0.03808924967961397,0.0183679180325799,0.0010969947345880094,9.639814427425161e-05,-0.0006616731365857878,0
2025/04/01 17:52:32.513712876,1743522752,502406929,piren,vessel_center,-500.02313810289576,-330.0510693273367,2.323649436294877,-0.0011537080388018587,0.00039575364544337143,0.00036014310114781056,0.9999991913165531,0.0015518074112599385,0.04813416839633541,0.022044717295036754,-0.00023251342717008845,0.012580410623395247,-0.000886372122326821,0
2025/04/01 17:52:32.687322038,1743522752,682680108,piren,vessel_center,-500.023728851834,-330.03302274768157,2.329505747816459,0.001252034985009931,0.0007552040887203608,0.00028218990759791806,0.9999988912214037,-0.00043678668425920853,0.06728823649827867,0.02546334323533005,4.518685953751232e-05,0.014310177639455213,-0.0008887304475127225,0
2025/04/01 17:52:32.861099856,1743522752,856880731,piren,vessel_center,-500.0235509180477,-330.022361256163,2.331249771984433,-0.03420215737185973,0.0006776277813898511,0.00022133403269127997,0.9994146808322091,0.00010588695017693303,0.06847457665607984,0.02081136555705806,-0.0009816029056604308,0.007764437652658062,-0.0008375789523424519,0
2025/04/01 17:52:33.33851973,1743522753,28745884,piren,vessel_center,-500.0234393949039,-329.95175842433844,2.355427513731218,0.010844683987188977,0.00040056693898031965,0.00018504821972697847,0.9999410973314887,0.0003078407586138163,0.19570276753720356,0.06552386374796365,0.0008472613365873164,-0.004980917242634728,-0.0005940152175620022,0
2025/04/01 17:52:33.209640098,1743522753,203002712,piren,vessel_center,-500.0236763838489,-329.97247049426215,2.3449783178446646,-0.02941361003459156,-0.00033145706933147194,0.00018568747635547403,0.9995672539659878,-0.0003254929034489797,0.08210432899727386,0.01967266155218527,0.0005031091779086542,-0.011216514610999028,-0.0011164693074969694,0
2025/04/01 17:52:33.385429030,1743522753,380130000,piren,vessel_center,-500.0250783997706,-329.92825970466305,2.361223289263991,-0.02805261171269701,-0.002302007461656188,5.311614246998752e-05,0.9996037959693923,-0.003300691160394057,0.14483207322468736,0.04726409211652248,3.425600847692102e-05,-0.007925609261705551,-0.0009160744695042126,0
2025/04/01 17:52:33.569951885,1743522753,555437643,piren,vessel_center,-500.0296983833247,-329.8986081294648,2.3729165462404667,0.012005361246034584,-0.0013821526366376332,3.859174922791051e-05,0.9999269770668847,-0.012458062159249241,0.16200711487040173,0.0573513357591184,-0.00016469987156739484,0.0001393694438633381,-0.000884187829725472,0
2025/04/01 17:52:33.773702211,1743522753,766190001,piren,vessel_center,-500.031734152536,-329.9385298531664,2.35664750806247,0.02837008242467082,-0.00186681798681965,7.966527643348488e-05,0.9995957418212952,-0.012746007567194031,-0.0009509594131042465,-0.005700999728940677,-0.000396274335070037,0.00671253643348467,-0.0005950717438098319,0
2025/04/01 17:52:33.986948340,1743522753,983318131,piren,vessel_center,-500.03472765100094,-330.01040031485087,2.3248979315176475,-0.0030701553575729996,-0.0017773705374751355,-0.00011185680936240389,0.9999937012742166,-0.012436499396154179,-0.16016419412403698,-0.07315049356931286,-0.000761248319372212,0.010412947887597494,-0.000651975233378098,0
2025/04/01 17:52:34.166190250,1743522754,160990147,piren,vessel_center,-500.0360607835386,-330.0231538380532,2.3196445221130437,-0.0030435658558421643,-0.00033702251327030443,-0.000155974803635942,0.9999952993862359,-0.00994064446508739,-0.11817745995163129,-0.05270031397440046,-0.0010286848516363942,0.0018577880684290183,-0.00043209495787043775,0
2025/04/01 17:52:34.344752497,1743522754,337988811,piren,vessel_center,-500.03401268806067,-330.02587898537337,2.3186362678549113,-0.0032179534117339793,-0.015672154111233738,-0.0002365211542258482,0.9998719780147343,-0.0008972175947298839,-0.07083769861424222,-0.03112944884139434,-0.0011415375505347673,0.02268070537686772,-0.0006892522168036541,0
2025/04/01 17:52:34.529776444,1743522754,520721043,piren,vessel_center,-500.0571318815575,-330.0172393901413,2.3214985097838503,0.028134016679728934,-0.014172827441076475,0.00012416012084952643,0.9995036731558592,-0.05197920697819492,-0.02749164984889027,-0.014158071899309836,-0.0012360192821474437,0.03167208395985456,-0.0021565238209180016,0
2025/04/01 17:52:34.705236309,1743522754,701275212,piren,vessel_center,-500.07498282614273,-330.0607543439677,2.301399423032829,0.028343929416383813,-0.01205000087303842,-4.9548670478946025e-05,0.9995255958148986,-0.06923630374508385,-0.11234779104133955,-0.05272257120633316,-0.0009545333097968477,0.018017416512531293,-0.0014612479785438934,0
2025/04/01 17:52:34.881883422,1743522754,878138813,piren,vessel_center,-500.0864749889215,-330.1101552885719,2.2814946804305873,0.028176162910036242,-0.012219021152739738,-0.0003765894472892808,0.9995282174836908,-0.0640630859008531,-0.16548382409028012,-0.07109936201487319,-0.0006525665408235376,-0.011597522957828593,-0.0016319939511039317,0
2025/04/01 17:52:35.58391357,1743522755,55321879,piren,vessel_center,-500.0904611109011,-330.1527914729558,2.2707319329675646,0.001618050413218112,-0.012153407886942304,-0.0009409582324456634,0.9999243927353701,-0.05142307915425655,-0.20471082200965715,-0.07115974120422319,0.0011186110757394623,-0.028723655377119444,-0.0019913305906710224,0
2025/04/01 17:52:35.235760454,1743522755,230430216,piren,vessel_center,-500.09393893763365,-330.1664755065578,2.2814507024314374,0.001646495541736691,-0.013396729692723361,-0.0009321481151474753,0.9999084697040338,-0.03601489299067062,-0.14301458397676575,-0.015319277613780831,0.001077629118829753,-0.02857380653216806,-0.001324797311689083,0
2025/04/01 17:52:35.429438279,1743522755,411765190,piren,vessel_center,-500.0947964644813,-330.1768268085079,2.2960425717262236,-0.029798640928814395,-0.013617345130391336,-0.0014838955066858095,0.9994620587918887,-0.02638003841193559,-0.12019279731434941,0.022021002010481773,0.0010374325272475987,-0.012074216061846003,-0.002894167956154196,0
2025/04/01 17:52:35.597890564,1743522755,591425697,piren,vessel_center,-500.09628547050136,-330.1496489689287,2.330238207123816,-0.029818833190991788,-0.01264860999408902,-0.001841379671070625,0.9994735910334261,-0.017693359662644716,-0.0051317841218871535,0.08800904659993933,0.0006831833750400781,0.015756736872637,-0.0018660282174471255,0
2025/04/01 17:52:35.773334310,1743522755,770561649,piren,vessel_center,-500.0938743603733,-330.1281063583651,2.3578708555088728,-0.0031819247707672808,-0.011413427783558295,-0.001611904670965481,0.999928502836235,-0.006346692377974897,0.044483865131268265,0.1196384943751218,-0.001062931511118079,0.0265069324299169,-0.0021050436978916755,0
2025/04/01 17:52:35.957362251,1743522755,953940277,piren,vessel_center,-500.08875386001574,-330.1698098107176,2.3646502549099835,-0.0029953934569476853,-0.009749758768415526,-0.0017166292938465303,0.9999465100723455,0.007779953707994797,-0.06746400959023155,0.0831657977663506,-0.0010911695319983624,0.0190825622238863,-0.0013559136194047118,0
2025/04/01 17:52:36.133753216,1743522756,130510111,piren,vessel_center,-500.08073077241227,-330.2328561509034,2.3645910862512265,-0.0033058112070687364,-0.009853669588097077,-0.0016171312388627746,0.9999446793170451,0.022200817190104576,-0.17801076276773634,0.046577828957845076,-0.0008890105865791384,-0.005019259960564063,-0.001210020664151699,0
2025/04/01 17:52:36.316892464,1743522756,312184236,piren,vessel_center,-500.0743969343838,-330.30279245112405,2.3588343928112283,0.028185064810010187,-0.009985582507378184,-0.0016130696413257247,0.999551543578407,0.028718345168908203,-0.2728321287027494,0.017922735533212594,-0.00083831292584717,-0.021256175815472855,-0.0026173147996355977,0
2025/04/01 17:52:36.529569351,1743522756,524992926,piren,vessel_center,-500.06872078416825,-330.45036582498585,2.3295089371990936,0.028183213398624396,-0.01079281481572183,-0.002094820119920457,0.9995423119405933,0.028317904295772026,-0.4771639372651417,-0.05537689865899344,-0.0005855965529281322,-0.026506560624409484,-0.002168585680897583,0
2025/04/01 17:52:36.706076188,1743522756,702064766,piren,vessel_center,-500.06693108024183,-330.6009635948544,2.3015443102863267,0.028132455196083053,-0.010907274564076573,-0.0021136029171000747,0.9995424598329644,0.02010674431285159,-0.6068176477405824,-0.09376047711345142,-0.000566454475376225,-0.009342931866794356,-0.0021117898404952587,0
2025/04/01 17:52:36.887297259,1743522756,878732694,piren,vessel_center,-500.06674505879147,-330.7471546272079,2.2783348230512215,0.028062787832709844,-0.009889016151776554,-0.0021125605138350425,0.9995550131867089,0.011454775700257673,-0.6581414704196515,-0.10307136865617549,-0.0007699700251732405,0.013799791094422998,-0.0020505919682902735,0
2025/04/01 17:52:37.65285960,1743522757,60023346,piren,vessel_center,-500.0663083492305,-330.84724204827285,2.265667050553613,0.0018272776381212093,-0.00795717187053472,-0.0024886104652334607,0.9999635749817133,0.008536126631997182,-0.6571253699737565,-0.09622949148490972,0.0006758165882858566,0.022339239179618324,-0.0022577945463897386,0
2025/04/01 17:52:37.253130285,1743522757,244100485,piren,vessel_center,-500.062970325553,-330.9153621959282,2.275332348568294,0.001528186181438176,-0.006777537161073159,-0.0026308190943963895,0.9999724038331848,0.01223244910138354,-0.5219552794909316,-0.03278264309280393,0.0005366951918763704,0.014372396860603648,-0.001953003618752501,0
2025/04/01 17:52:37.433181060,1743522757,430135879,piren,vessel_center,-500.05860931922007,-330.9523923432816,2.290612970183227,-0.02955784075570081,-0.005645462391176006,-0.0030805875106317653,0.9995423816851589,0.017741813007341338,-0.42570911574516795,0.012399535379602838,0.0006379695004106982,-0.0014135424922423882,-0.0034791313507897973,0
2025/04/01 17:52:37.622287402,1743522757,612485804,piren,vessel_center,-500.05284378189407,-330.9657879418894,2.325602120240107,-0.029542753567939894,-0.0055874108370117396,-0.003354486915971437,0.9995422722272895,0.02254594456817293,-0.26323378847587375,0.0845786303260001,0.000722961575432285,-0.020085364795135282,-0.002661837470661821,0
2025/04/01 17:52:37.797478251,1743522757,792269078,piren,vessel_center,-500.04849874867347,-330.9938666824776,2.356917460451392,-0.02972614469924756,-0.0074139983948263155,-0.0034785461142660184,0.9995245312977826,0.022448901680535788,-0.21175634283668043,0.11758744974310979,0.0009424849319612544,-0.021689117656916446,-0.0029269463123384205,0
2025/04/01 17:52:37.978489642,1743522757,972242836,piren,vessel_center,-500.0493557955249,-331.0304698269263,2.377820960363822,-0.003214738852000677,-0.007131038689115637,-0.00352868369619864,0.9999631803885082,0.01302851526165731,-0.22222652002879043,0.12468609258385706,-0.0006290980064434026,-0.010218986118018924,-0.0025024516080492396,0
2025/04/01 17:52:38.164947016,1743522758,160037828,piren,vessel_center,-500.0497041715075,-331.1467680386181,2.379059356019229,-0.003308333058392513,-0.007399737315345763,-0.0038426647853383564,0.9999597655642881,0.006325145258642158,-0.37999938997850335,0.0707116163558825,-0.0006819588360570031,0.009945803393217361,-0.0017112608687890594,0
2025/04/01 17:52:38.343105106,1743522758,339773433,piren,vessel_center,-500.0512511589055,-331.27598187695065,2.372310794630495,-0.0033020883630624238,-0.0060144742576185885,-0.003725125332221908,0.9999695224121115,0.00017839427618972746,-0.5044585201599159,0.025432885931322487,-0.0008028146086440699,0.020776390518615913,-0.0015373023693850772,0
2025/04/01 17:52:38.522976135,1743522758,517321061,piren,vessel_center,-500.050411325697,-331.38940984587003,2.3617966475006247,0.028130746288169892,-0.004981123847652558,-0.0037125111760046084,0.9995849472552361,0.00198423042806943,-0.584837564236069,-0.006592638766071815,-0.001005909199703126,0.015847992020150664,-0.002788376067318292,0
2025/04/01 17:52:38.711342399,1743522758,697219364,piren,vessel_center,-500.0477372855012,-331.5823674894344,2.3283670581538383,0.028175272667666652,-0.004457475724246815,-0.004015094370470178,0.999584995854513,0.007023146983646519,-0.7472047967391529,-0.07788560203262282,-0.0010103135927441882,-0.0025776141974655793,-0.0019338042195743263,0
2025/04/01 17:52:38.885909772,1743522758,878234433,piren,vessel_center,-500.04487732898224,-331.7321343227864,2.300622682518502,0.0015339434923261617,-0.004127179600156251,-0.004238277552730849,0.999981325030271,0.011128621629995259,-0.8405883953138993,-0.11458646311702739,0.0006360520361417168,-0.016047367130827002,-0.0020028308349672075,0
2025/04/01 17:52:39.62378929,1743522759,58687731,piren,vessel_center,-500.04164639152583,-331.8724646688811,2.295166510033284,0.0015300969333230153,-0.004633712309833278,-0.004464049043156253,0.9999781296507163,0.013281091861153336,-0.7726083531271808,-0.07492322858751246,0.0007490958420786669,-0.021010562593327536,-0.001496108347958681,0
2025/04/01 17:52:39.278108020,1743522759,273863890,piren,vessel_center,-500.04030020458123,-331.9972835412853,2.297237836903216,0.001526848126444821,-0.004985651227858602,-0.004393981530136232,0.9999767522012428,0.010523804219200694,-0.7155842872062305,-0.03788307422500213,0.0008427532668987902,-0.00872004170026563,-0.0014181333255250425,0
2025/04/01 17:52:39.454716898,1743522759,448992609,piren,vessel_center,-500.04019076027475,-332.11902130178015,2.3029851094566434,0.0014906492199948432,-0.004486733970640665,-0.004790576716999686,0.9999773485224045,0.0060271272664515815,-0.6638468085271153,-0.0080472832020143,0.0008492945033313117,0.009643824335395127,-0.0022654906230838625,0
2025/04/01 17:52:39.637804515,1743522759,624317429,piren,vessel_center,-500.0402559448707,-332.20108375316937,2.310826746003171,-0.029844165492123622,-0.0034343744164072403,-0.004915532563264163,0.9995365768185105,0.003843555471529991,-0.6216792479346633,0.01210255119143707,0.000959369148874034,0.017493485696477334,-0.001435517857737165,0
2025/04/01 17:52:39.807520473,1743522759,800569367,piren,vessel_center,-500.0384515015509,-332.256192329179,2.338640622648275,-0.029880917847411342,-0.002402991190372161,-0.005203546958784889,0.9995370325710714,0.006196611450877109,-0.4760335155312088,0.0687059477295981,0.0008510011110314776,0.013325211060309454,-0.001977942269231304,0
2025/04/01 17:52:39.994761249,1743522759,986467468,piren,vessel_center,-500.03552910171516,-332.29430910298305,2.361600039827248,-0.0032957166273649106,-0.0025554897525209043,-0.005203631374143778,0.9999777647250758,0.010617399715555885,-0.40139725453928005,0.09673451472391353,-0.000826367717455076,0.001802861508225878,-0.0019290865651739617,0
2025/04/01 17:52:40.177644618,1743522760,171580388,piren,vessel_center,-500.03331437781856,-332.418498831323,2.3648764398455797,-0.003311663543304467,-0.0027305053849022614,-0.005334802850192533,0.9999765582769772,0.01082199512525157,-0.4990614544006814,0.06103204235317453,-0.0008821311221627481,-0.013676521516390032,-0.0015045128564539205,0
2025/04/01 17:52:40.362339808,1743522760,358850438,piren,vessel_center,-500.03221059147165,-332.5642644554448,2.3626675511496438,-0.0032932982159268984,-0.003385297335388185,-0.005285334198076353,0.9999748792800881,0.008310664537520362,-0.5940907326948957,0.02812440303349381,-0.0008248498883127207,-0.016914110534637743,-0.0014420998921047213,0
2025/04/01 17:52:40.542745538,1743522760,537940252,piren,vessel_center,-500.03298283819316,-332.71884376925067,2.356762854363002,-0.003291759584416512,-0.003711437786620638,-0.005588076149977571,0.9999720810869355,0.0029075411758633816,-0.6741102666137988,0.0025242653145055756,-0.0007038722442656754,-0.005863110433480364,-0.0028704155216477396,0
2025/04/01 17:52:40.734180769,1743522760,717362663,piren,vessel_center,-500.03508624912934,-332.8408606618866,2.3496169122471215,0.028009740489853774,-0.003503914414148513,-0.0056295707497532365,0.9995856566371103,-0.002698071477289621,-0.7295380753505936,-0.014166077609056863,-0.0007829287905737808,0.0057596591130116,-0.0030756086797614035,0
2025/04/01 17:52:40.923386900,1743522760,917204320,piren,vessel_center,-500.0369948697345,-333.0509920895504,2.319708585781974,0.028040232264377758,-0.0026052347178950955,-0.005808882291412732,0.9995865220245564,-0.005719487824899904,-0.8665239994437809,-0.07423044497520523,-0.0007337922333923232,0.014774218593636153,-0.001959010788337527,0
2025/04/01 17:52:41.113140065,1743522761,107703059,piren,vessel_center,-500.0372947517931,-333.2445890109298,2.2933325849336397,0.028170135495060068,-0.0018714460461053764,-0.005871883442614471,0.9995841446025057,-0.0038803358077536426,-0.9203864089757201,-0.10081831681160382,-0.0007619640521116037,0.010154047998659094,-0.0018925380094956042,0
2025/04/01 17:52:41.291134053,1743522761,286470237,piren,vessel_center,-500.03609237835065,-333.389627337168,2.2754579386760496,0.001539003158793705,-0.001260234735691655,-0.006109435365537458,0.9999793588255722,0.00012391995160150387,-0.9268079632797719,-0.10593849318662131,0.0007375026330168342,0.00019458640392073877,-0.0018864038350168706,0
2025/04/01 17:52:41.468824138,1743522761,463829189,piren,vessel_center,-500.0339547259822,-333.520327783087,2.2801718586650495,0.0015372156668974413,-0.0014261142738615394,-0.006365396957348447,0.9999775421916468,0.004818608142749592,-0.7971928724085512,-0.04744346160609938,0.0006094895065789745,-0.01210499856474894,-0.001449627527075589,0
2025/04/01 17:52:41.647027759,1743522761,641832884,piren,vessel_center,-500.0326093050265,-333.6349173500452,2.2911769104283577,0.001532744833249863,-0.0018693052556194277,-0.006312186460727661,0.999977156085689,0.005749473389004644,-0.7111722932916575,-0.0027090340662451473,0.0005571295834475062,-0.013909100661855642,-0.0014979133185354639,0
2025/04/01 17:52:41.863791919,1743522761,858623525,piren,vessel_center,-500.03257075134394,-333.7202365937898,2.3037907734992733,-0.029867069280451863,-0.002089382165014834,-0.006573138809168504,0.9995300828394115,0.00386813513309725,-0.6574853792199986,0.02625195065358871,0.0007325276268538831,-0.00725706643352632,-0.0026875482265342177,0
2025/04/01 17:52:42.39630371,1743522762,36033342,piren,vessel_center,-500.03297457795657,-333.8190123159107,2.3368021918074953,0.001531303138118465,-0.001957286348895581,-0.006808293025860913,0.9999737352985436,0.0008538630715513975,-0.5172203444468335,0.08525455554661104,0.0007600321497795747,0.008664217727473932,-0.0018658343148454997,0
2025/04/01 17:52:42.219190863,1743522762,214112798,piren,vessel_center,-500.0341190580625,-333.920097893232,2.3417604221655663,-0.029894085534520366,-0.0011986050684931536,-0.006962972073740484,0.9995281006634306,-0.0019976274155403258,-0.562481261893073,0.06659848356076513,0.0009888825990537113,0.01314098467765438,-0.002619922630291161,0
2025/04/01 17:52:42.396050747,1743522762,392964420,piren,vessel_center,-500.03387809844133,-334.0001289013667,2.3653518721837825,-0.029902883397110815,-0.0007561691448169973,-0.007238209473540012,0.999526314859384,-0.0005912762310351424,-0.49515536481212735,0.08999964295258625,0.0010406673977661077,0.008710309130246527,-0.001907202357270565,0
2025/04/01 17:52:42.574398448,1743522762,570384765,piren,vessel_center,-500.0331327071061,-334.0668405700977,2.380787243716274,-0.003287604205802806,-0.0009996665854185797,-0.007198382868404574,0.999968187298668,0.0012635612280057942,-0.4774471102187374,0.09413712632763012,-0.0006044866843266755,6.366912262021485e-05,-0.0018473165174592928,0
2025/04/01 17:52:42.751630470,1743522762,748085117,piren,vessel_center,-500.03340000091754,-334.22064107957317,2.376663060530404,-0.00328828222864693,-0.0012287290631930465,-0.007344907493460976,0.999966864330407,0.0001159655352687809,-0.610112998938622,0.04373209400817853,-0.0007444591875505522,-0.010427269024238567,-0.0014457214499763976,0
2025/04/01 17:52:42.940962650,1743522762,930127979,piren,vessel_center,-500.0344355602658,-334.3599392707495,2.3664443554998504,0.028072918335546745,-0.0019744236035855365,-0.007267245336829814,0.9995775107778155,-0.0022251899600639327,-0.7115142817175649,0.0060972877998284256,-0.0010073674291870209,-0.01233333503108851,-0.0013323890982084496,0
2025/04/01 17:52:43.130396581,1743522763,125864273,piren,vessel_center,-500.0372007224176,-334.58825905114327,2.3330842340457587,0.028108984494595594,-0.0023628524777139772,-0.0075586664591725415,0.9995734932861167,-0.007365541363470317,-0.8975293803572196,-0.07080011097635691,-0.0010400843933059034,-0.0055364048942737505,-0.0018457720418478597,0
2025/04/01 17:52:43.314082872,1743522763,308673743,piren,vessel_center,-500.040737307618,-334.80733971669565,2.30201183942771,0.02812087626645061,-0.0019873787702677395,-0.0076662551653593775,0.999573156489994,-0.012012026698130927,-0.9928141448808685,-0.10896808920555515,-0.0009655104454374922,0.005451629877547194,-0.0019608139577524703,0
2025/04/01 17:52:43.493266983,1743522763,488115410,piren,vessel_center,-500.04335156668935,-335.01428822256736,2.2769173705620394,0.028158765363319984,-0.0013896626001890296,-0.007767033819937059,0.9995723215239161,-0.012425976076884313,-1.006748680740294,-0.11578811605854476,-0.0008244371848559843,0.010757740647545647,-0.001859635245218108,0
2025/04/01 17:52:43.670921103,1743522763,665268901,piren,vessel_center,-500.0440230445064,-335.1540490932968,2.2637165041907146,0.0023838295030011915,-0.0006955436633199938,-0.007930232789249021,0.9999654718958157,-0.0097314091218329,-0.9783406919380025,-0.10612831496403254,0.0008280474838061301,0.008341473539403593,-0.0018438272134545775,0
2025/04/01 17:52:43.848274175,1743522763,843899097,piren,vessel_center,-500.0434487016348,-335.27572896772364,2.272871999742185,0.0016136025090883147,-0.0005390902443317779,-0.008093074029709654,0.9999658033259942,-0.004309260455102691,-0.8321536246488916,-0.04056596097806783,0.0009054535940765358,-0.0014918174028751314,-0.0011029928046623254,0
2025/04/01 17:52:44.28534040,1743522764,23919537,piren,vessel_center,-500.0424373155606,-335.3549723816195,2.288301889677742,-0.029841240817330375,-0.00036630005760748504,-0.007974470720350959,0.9995227731209931,-0.0005882104905146728,-0.7237771814690872,0.00759562251362729,0.0010229806552368944,-0.007590516689748272,-0.0009368215182349646,0
2025/04/01 17:52:44.210883151,1743522764,205090867,piren,vessel_center,-500.0410441142933,-335.41715238962865,2.323711801033609,-0.02980714007650143,-0.0008014302781277968,-0.008115624329720692,0.9995224003251293,0.00276666758941182,-0.543957724366011,0.08295771771936229,0.0008943212720073893,-0.009204107978225537,-0.001325351139335191,0
2025/04/01 17:52:44.391349610,1743522764,387700870,piren,vessel_center,-500.040914412133,-335.45952452598164,2.353460885509516,-0.0032948037755090144,-0.0016520520985631563,-0.008208587586079041,0.999959516221425,0.0021202097439066096,-0.454353438204454,0.1210480331092767,-0.0008501130556591097,-0.005093175347466274,-0.0010812285934098855,0
2025/04/01 17:52:44.603083180,1743522764,598107214,piren,vessel_center,-500.04301676593525,-335.58872141191966,2.3624531784404654,-0.0032839803050259474,-0.0015618532406196115,-0.008333208276913655,0.999958666009563,-0.003500518530382312,-0.5440309199046182,0.08817385287136181,-0.0009472989807367422,0.00434521266654232,-0.0007745278913963968,0
2025/04/01 17:52:44.779981397,1743522764,776564849,piren,vessel_center,-500.0453590766285,-335.73865040356804,2.364673987488122,-0.0032822703294056333,-0.0011213628152056943,-0.008399955335109323,0.999958704145971,-0.007102951554225644,-0.6280650524719489,0.05272334031714925,-0.0008864739941881412,0.00950028927438905,-0.0007640808419791949,0
2025/04/01 17:52:44.968815755,1743522764,956838741,piren,vessel_center,-500.0469937806558,-335.8959645988,2.36129021767118,-0.003275301745958604,-0.0007594630420972999,-0.008483608623360341,0.9999583611326455,-0.0075452824504288465,-0.6955583328240676,0.021515014172051313,-0.0007125247613154104,0.006246166352444183,-0.0007918097842347494,0
2025/04/01 17:52:45.145022269,1743522765,137039261,piren,vessel_center,-500.0479786301405,-336.05749445010355,2.355046699462403,-0.0032089617806049194,-0.0006662433226951515,-0.008478408870117802,0.9999586867801873,-0.00639224173287467,-0.7464985813137913,-0.0018915051778027776,-0.0005471731610636494,-0.0023567803720171434,-0.0008207602989041594,0
2025/04/01 17:52:45.330096738,1743522765,326622843,piren,vessel_center,-500.04848637549964,-336.1819494195485,2.3480883002892607,0.028166598155304253,-0.0009844467772854688,-0.008583860843879049,0.9995659012520952,-0.005486609185118784,-0.7855590912875882,-0.016755183164820484,-0.0006527720085114458,-0.008521942929792026,-0.0014427473604514346,0
2025/04/01 17:52:45.514479174,1743522765,509344976,piren,vessel_center,-500.0504967540461,-336.4039434681113,2.3182813366608848,0.028164861686957896,-0.0014618941642375923,-0.008699970179522369,0.9995643620850448,-0.007457111644362801,-0.9213437654301755,-0.07537477453493516,-0.0006988769939790371,-0.008464086743452125,-0.0005470223866301519,0
2025/04/01 17:52:45.694468657,1743522765,691520773,piren,vessel_center,-500.0533704034969,-336.612839528359,2.292002032730528,0.028175342228330198,-0.0015651841286767817,-0.008649923723259139,0.9995643446564817,-0.010615130369024615,-0.9866389874684514,-0.10114463514590114,-0.000841925319471043,-0.0013255891072738192,-0.0006863362663905801,0
2025/04/01 17:52:45.877649793,1743522765,873073722,piren,vessel_center,-500.05579007517196,-336.7669356875144,2.2748178923701174,0.0015896435710948114,-0.0007248876646726326,-0.008721435098736189,0.9999604412880587,-0.012439429725873839,-0.9988385621108604,-0.10547806534190485,0.0006244780447021954,0.0047192041358231525,-0.0008375621169733832,0
2025/04/01 17:52:46.67878736,1743522766,54679208,piren,vessel_center,-500.056631944969,-336.90945032393313,2.279771911891969,0.0015953419770126827,-0.00024415978617456423,-0.00883496571499628,0.9999596685120806,-0.008664970631935564,-0.862285318619753,-0.04659413875139691,0.00052750380741067,0.007868068541200358,-0.0007147930594397158,0
2025/04/01 17:52:46.246882048,1743522766,242592296,piren,vessel_center,-500.05594790917536,-336.99370206647654,2.2921792125994926,-0.029843525821655108,0.00030977725539212657,-0.00882998175748064,0.9995155323589259,-0.004207955934180707,-0.7572936904820393,-0.0032268156359802486,0.000685483135013828,0.0052017026771197265,-0.0007304465328439449,0
2025/04/01 17:52:46.429433434,1743522766,426192616,piren,vessel_center,-500.0542158825405,-337.05920904737036,2.324828620793635,-0.029832951143801186,0.00041410725433766425,-0.008975522909443484,0.9995145139164991,0.0014842456409490216,-0.5713160986694232,0.07075554267470983,0.0008036165113413417,-0.0019596658205998595,-0.0010634457542138803,0
2025/04/01 17:52:46.610140680,1743522766,606561850,piren,vessel_center,-500.0528107975544,-337.1323500676158,2.35500851741917,-0.029835342324806145,5.5179383564208235e-05,-0.0090509862566847,0.9995138463029808,0.003960249006240056,-0.4847548599651885,0.10698490000739894,0.0009498798342494653,-0.00710668213075245,-0.0011408502477710293,0
2025/04/01 17:52:46.794003255,1743522766,787184192,piren,vessel_center,-500.0527705159211,-337.2255067378215,2.3792897735393144,-0.029795144725924382,-0.0004196368943182149,-0.009168757279370242,0.9995138854191022,0.0022690679122199893,-0.473869434898735,0.11285567370193439,0.0010486089329353435,-0.005733527720594298,-0.0012530971259350472,0
2025/04/01 17:52:46.977115575,1743522766,972140635,piren,vessel_center,-500.05429388463097,-337.30983100763183,2.3920114380317563,-0.003238287709200835,-0.0009601752448268952,-0.009290338277448707,0.9999511393917716,-0.0018889788893381677,-0.5000795860377834,0.10273662162132587,-0.0005570195706406157,-0.0010961099485970005,-0.0013262469818043972,0
2025/04/01 17:52:47.159829977,1743522767,156067144,piren,vessel_center,-500.05762823336795,-337.4788983722907,2.3848710955282857,-0.00324243596169727,-0.0007547792244183359,-0.00947955046658985,0.9999495262463541,-0.00847339275915211,-0.657177503371578,0.0419504949288526,-0.0006695708056632214,0.005175726011403498,-0.001116207836450115,0
2025/04/01 17:52:47.373076727,1743522767,369604865,piren,vessel_center,-500.0605076372219,-337.62826052824266,2.371500122052394,0.028219696216287192,-0.000775189834707952,-0.009384982876612038,0.9995573870081629,-0.011977140710906232,-0.764546987467112,-0.002103457605374434,-0.0009251898438126117,0.0067764728816083405,-0.0010415758601742262,0
2025/04/01 17:52:47.550834395,1743522767,548002993,piren,vessel_center,-500.0644423077679,-337.9008315994461,2.335082474722604,-0.0032428527328936967,-0.00010623675026476312,-0.009736183599926963,0.9999473382877792,-0.014010373316342074,-0.9419117648715214,-0.08186478781738636,-0.0009075266216911331,0.0019959997826780396,-0.0013920934201961483,0
2025/04/01 17:52:47.729629363,1743522767,725745844,piren,vessel_center,-500.0659108940025,-338.07231538698244,2.324460584163919,-0.0031632472490346762,-0.00012947792727744387,-0.009719481498059731,0.9999477530259853,-0.0115495942643981,-0.9219945907565047,-0.07156798660868027,-0.0008320892722099461,-0.004307083615438308,-0.0011969318374013198,0
2025/04/01 17:52:47.918262828,1743522767,905124152,piren,vessel_center,-500.06664635131483,-338.19553464440673,2.321637678983538,0.028246518676270087,-0.0005066098785706191,-0.009903193439341014,0.9995518017035461,-0.009249761749970921,-0.8817739179045033,-0.053462062663494056,-0.0008522078227370627,-0.006907608279904007,-0.0021326090596564193,0
2025/04/01 17:52:48.98229211,1743522768,93536321,piren,vessel_center,-500.06894620777626,-338.4023132012615,2.2967549692081874,0.028225889888473424,-0.0007632928502171925,-0.010124200018718516,0.9995500073022908,-0.010311935824530074,-0.9553181937553303,-0.08536727818681705,-0.0007160114674715402,-0.004967733095204095,-0.0014606345499203076,0
2025/04/01 17:52:48.279197255,1743522768,275527168,piren,vessel_center,-500.0712611898975,-338.5573084347967,2.2792622932622106,0.0016266974521602852,-0.000255276793785591,-0.010142781926243075,0.999947204938318,-0.011968974834144965,-0.9766542794324335,-0.09536916382872399,0.0009134052590846714,-0.0007021841955703868,-0.0014481017214431344,0
2025/04/01 17:52:48.459188440,1743522768,454662635,piren,vessel_center,-500.07251523746464,-338.69967288843657,2.283968702614452,0.0016236874865029846,2.7339131103290462e-05,-0.010272549651635227,0.9999459173451196,-0.00934767475259897,-0.8517446313482209,-0.04181245164589783,0.0008405917685042052,0.004994496079020346,-0.0010903049356694916,0
2025/04/01 17:52:48.638261844,1743522768,633780845,piren,vessel_center,-500.0729725178474,-338.82149574320334,2.2942186719042295,0.0016795471988339538,0.00029341157444300124,-0.010226216831483316,0.9999462573159471,-0.006345875902025647,-0.7563786710803028,-0.001057898694979624,0.0006981126643305572,0.005716773829608928,-0.0010115705161490888,0
2025/04/01 17:52:48.819833824,1743522768,814816478,piren,vessel_center,-500.07254114643104,-338.90765199040976,2.305812955206508,-0.029767415912741357,0.0008235925202798114,-0.010396239999693543,0.9995024466398805,-0.0032284975958197823,-0.6905706861207377,0.025070639105706064,0.0007674873367874933,0.0027841815503250665,-0.0021069994472484683,0
2025/04/01 17:52:49.931499,1743522768,996756806,piren,vessel_center,-500.07113509482525,-338.98017579323476,2.3371992517915556,-0.030096986005582093,0.0012575239138993318,-0.010627316854876829,0.9994896948960764,0.0013859965878048465,-0.5342233317695458,0.08338212043494364,0.0007049621914049079,-0.0029995287717457094,-0.0016382558639520004,0
2025/04/01 17:52:49.188359320,1743522769,181933811,piren,vessel_center,-500.0693858295792,-339.0241658451694,2.3617313084584186,-0.0030521706909889266,0.00016595983459770467,-0.010665665611293567,0.9999384482499283,0.004848857155274607,-0.46148656296554824,0.11148091136357463,-0.000906334338453313,-0.0057996865477733224,-0.0015680220005534888,0
2025/04/01 17:52:49.371736611,1743522769,368001081,piren,vessel_center,-500.07056142944396,-339.1636831893699,2.366863475864773,-0.0030990230449062153,-0.00040732213321823305,-0.010747176763697424,0.9999373622064819,5.527375378668563e-05,-0.5641946463788385,0.07277177459381923,-0.0008617558991337046,-0.005062445444555352,-0.0006751345218456327,0
2025/04/01 17:52:49.553240980,1743522769,548261986,piren,vessel_center,-500.07340125438,-339.32016664983377,2.365230203973619,-0.0031004589981781737,-0.0005313723175829924,-0.01067923072910496,0.9999380274939519,-0.0062811816425443895,-0.6567152330634157,0.03621749320215733,-0.0006961236128388184,0.00153474565854022,-0.000435700295296377,0
2025/04/01 17:52:49.733161720,1743522769,728011113,piren,vessel_center,-500.0763366965389,-339.44574757146086,2.3580017240101503,0.02823191970467153,-0.0006900639782792282,-0.010618304465826145,0.9995447634457227,-0.01081920612032328,-0.728171384161898,0.008700082633928748,-0.0006429025342391613,0.005737287454896313,-0.0005785161620405711,0
2025/04/01 17:52:49.915778151,1743522769,909236644,piren,vessel_center,-500.08028629117166,-339.6649486457519,2.3279153962859813,0.02826445265836489,-0.00035742945734192603,-0.010731601555335653,0.9995428083319712,-0.014691278566352332,-0.8851368243561424,-0.0621290226479524,-0.0005592772748531591,0.006409367336577331,-0.0008651709599777622,0
2025/04/01 17:52:50.129419261,1743522770,124945526,piren,vessel_center,-500.0832786044152,-339.87419352758184,2.2996356151407733,0.02826241701324407,-0.00016564082839768098,-0.010880790691854172,0.9995413031694116,-0.014889003802137006,-0.9614150758630344,-0.09769287572089816,-0.0006673409840316609,0.001439539890114903,-0.00104045408795913,0
2025/04/01 17:52:50.314245444,1743522770,308555204,piren,vessel_center,-500.0854756679093,-340.0718913828753,2.2769495261256756,0.028236864038112888,-9.669664506508124e-05,-0.011038959087491624,0.9995403001086633,-0.013181532862063899,-0.975267761581928,-0.10487430155137865,-0.0009220995135782178,-0.004831661307124344,-0.0009908237559520209,0
2025/04/01 17:52:50.495900841,1743522770,491066120,piren,vessel_center,-500.0872132490165,-340.26199210794533,2.2595738951993862,0.02815858645310254,-0.0003989612008081612,-0.011141088662062884,0.9995413002884611,-0.011294248052764227,-0.9575957345162819,-0.09689649447563944,-0.0012149921653595566,-0.007035232193682446,-0.0009367976414668873,0
2025/04/01 17:52:50.674293140,1743522770,670931307,piren,vessel_center,-500.08851960974454,-340.3855320977882,2.254360442212394,0.0016418516698523814,7.970955641517105e-05,-0.011174363532548906,0.9999362137502189,-0.010362116063061616,-0.9069643588947215,-0.0755774892019226,0.0003381465315145984,-0.004683260512814077,-0.0009791914191840817,0
2025/04/01 17:52:50.859096674,1743522770,850194996,piren,vessel_center,-500.0886734304029,-340.4928283214087,2.2710222858895284,0.0016341372268581776,0.0001371747568959117,-0.011252843319436854,0.999935340057465,-0.006223915443570799,-0.7533054159129747,-0.005870232108209167,0.0005668958018945685,0.0014454032000419945,-0.0008064617083137042,0
2025/04/01 17:52:51.68585399,1743522771,48919833,piren,vessel_center,-500.08834087740786,-340.56099959941,2.290527410541407,-0.029792316168035033,0.0006045442142678308,-0.01122269446565741,0.9994929232128497,-0.00337093701973637,-0.6489618673289911,0.03947314489014381,0.0009613955185792985,0.005047586548852063,-0.0007153005647621394,0
2025/04/01 17:52:51.262153359,1743522771,256559721,piren,vessel_center,-500.08723159210444,-340.6432950338676,2.3303437619624585,0.0016278805944995492,0.0005000440867244779,-0.011390057319727481,0.9999336810783678,0.0009314124991299517,-0.4782459278216734,0.10645954335211832,0.0010961338966675694,0.005133915756948928,-0.0009535696782759505,0
2025/04/01 17:52:51.442230143,1743522771,438669541,piren,vessel_center,-500.0871125806778,-340.7597944451782,2.3442530464013225,0.0016208105910335887,0.0005274239153577658,-0.011458279178600726,0.9999328990663857,0.0007871826039711645,-0.514484552141495,0.09058429790000375,0.0010354588654190602,0.0003500667425674,-0.0013333901391898552,0
2025/04/01 17:52:51.622506908,1743522771,617901843,piren,vessel_center,-500.08757570715125,-340.8601878532701,2.3463279820147753,-0.029778690270332874,0.0006520354795065907,-0.01148772540725194,0.9994902884072885,-0.0004939769232357452,-0.5730197590061848,0.06621612233379032,0.0009851074271639225,-0.0033227430117262315,-0.0014377843116847267,0
2025/04/01 17:52:51.806532273,1743522771,800410607,piren,vessel_center,-500.0876325922138,-340.95171478474686,2.3685245837730453,-0.029786576470655274,0.0003025270182961103,-0.011582044614210026,0.9994891317978978,-0.000395878862492022,-0.5159877735910882,0.08545201279402362,0.0006717123592505633,-0.005082006996072866,-0.0009345907895691938,0
2025/04/01 17:52:52.996404,1743522771,982752342,piren,vessel_center,-500.0885662827212,-341.02521329815676,2.3824011580394653,-0.003212491884221329,-0.00028179994952317006,-0.011616756036192184,0.9999273230909724,-0.0023371933803907397,-0.5045350149455785,0.08734436955446077,-0.0010747740257840712,-0.003368375586876849,-0.0009165338900410398,0
2025/04/01 17:52:52.179030259,1743522772,163706664,piren,vessel_center,-500.0912862361787,-341.18196313729226,2.37664866444573,-0.0032129501113095076,-0.00034286326098475844,-0.011734146761799333,0.9999259318550245,-0.007372499601979792,-0.6347950528656852,0.03678944602245437,-0.0010572315112887202,0.0011405605755562265,-0.0007208247913658253,0
2025/04/01 17:52:52.348873695,1743522772,344553703,piren,vessel_center,-500.0942426911019,-341.3532712701969,2.3668814427412928,-0.0032020945680883194,-0.0002316100877166973,-0.01171756014772605,0.9999261931419382,-0.010610020270406233,-0.7285261361205826,-0.0015518744140376808,-0.0008444001424626663,0.004466491858410591,-0.0006414282951175637,0
2025/04/01 17:52:52.530742509,1743522772,526453075,piren,vessel_center,-500.0962755255536,-341.48544772501,2.355705878969184,0.028208082153017934,-0.00021134244052027293,-0.011794068065629161,0.9995324704050813,-0.011727074420605926,-0.788745339124354,-0.025924829941872285,-0.0007463832441517608,0.0041399473300601005,-0.0012819091142635848,0
2025/04/01 17:52:52.744239107,1743522772,740404493,piren,vessel_center,-500.0992352580514,-341.709393218309,2.3219716365102547,0.028256102948708065,-0.00010791555671152634,-0.01193227729547823,0.9995294901897235,-0.01296334794865353,-0.9272669675361171,-0.08917731895656372,-0.0005045451639732965,0.0006615396084090762,-0.0008985305457641064,0
2025/04/01 17:52:52.937218515,1743522772,921618722,piren,vessel_center,-500.10169976727184,-341.9213300845783,2.292170840365398,0.02824611678103602,-0.00024703964356347465,-0.012024837225946798,0.9995286384831082,-0.01262122716457335,-0.9820309185776764,-0.11537691277391643,-0.0004931068654030941,-0.0034531199679685206,-0.0009936128359659896,0
2025/04/01 17:52:53.117553979,1743522773,103638562,piren,vessel_center,-500.1039965638619,-342.1144214265618,2.269944941072668,0.02824652441223152,-0.00026399374234935296,-0.012144033022105795,0.9995271815352954,-0.012146687939458127,-0.9770733409424807,-0.11377203357168361,-0.0007414157829317555,-0.004283338877953527,-0.0010785533076470447,0
2025/04/01 17:52:53.294820040,1743522773,287501443,piren,vessel_center,-500.10547221696316,-342.2452178065938,2.259562788565587,0.0016278672656351162,0.0003876017132106584,-0.012147994814987392,0.9999248101907725,-0.011406313769885594,-0.9444003864011407,-0.09919291919963313,0.00059223984557601,-0.002923295136374149,0.0,0
2025/04/01 17:52:53.478394871,1743522773,474423891,piren,vessel_center,-500.1053955274145,-342.36079751013403,2.2714256954711014,0.0017047918670538547,0.0004403671119226136,-0.012274738638575727,0.9999231123205681,-0.006304829982992226,-0.7930150285354116,-0.02994473405703857,0.00036102696270681154,0.00047885779357256027,-0.0022771028181104874,0
2025/04/01 17:52:53.659363100,1743522773,655055619,piren,vessel_center,-500.10504481613447,-342.47251996052444,2.287365554690047,0.0017006858241533425,0.0005635441103263384,-0.01253688122437922,0.9999198051318561,-0.0026396139393916325,-0.6783460199941614,0.01918711068004477,0.00039403520098073015,0.003092902600075229,-0.0011081516958005994,0
2025/04/01 17:52:53.839129466,1743522773,835441474,piren,vessel_center,-500.10443258824216,-342.5435030642341,2.303393894990124,-0.02998733065358911,0.0022893372514352166,-0.01227274100917666,0.9994723101533844,-0.0003824459929098463,-0.6057278325099573,0.04829433319684668,0.0007296914980401001,0.0030931193416762937,-0.0006392674511073464,0
2025/04/01 17:52:54.22459045,1743522774,17336961,piren,vessel_center,-500.1003814124454,-342.59391671524236,2.338468855590173,-0.029709283461060217,0.0010034187431826114,-0.012364119257445627,0.9994816057247097,0.008785166017013839,-0.45824060809991485,0.10555620697911891,0.0010467280506959728,0.0011827328301286266,-0.000625823013883482,0
2025/04/01 17:52:54.225780724,1743522774,202433641,piren,vessel_center,-500.0992449491953,-342.6621204108479,2.368496619206191,-0.029869986186763793,0.0007099154373272308,-0.012390208442028877,0.9994767444418293,0.007339358729722594,-0.40268347787632724,0.12461254948615441,0.0011820288255981976,-0.0013912938067237133,-0.000541953901879226,0
2025/04/01 17:52:54.397537154,1743522774,391692329,piren,vessel_center,-500.0997453516829,-342.7228163764109,2.386087700654124,-0.0032291604799505056,1.586051142534366e-05,-0.012425578880461833,0.9999175852341654,0.0037757035854149626,-0.40307546720409976,0.12208549507269624,-0.0004183525050120918,-0.0022091800548869923,-0.0005540936603550528,0
2025/04/01 17:52:54.580861378,1743522774,577083523,piren,vessel_center,-500.10244845063164,-342.86960137224344,2.3834686049988947,-0.003113122320684292,-6.519928749660394e-05,-0.01248192579459188,0.9999172494496371,-0.0038777328597468246,-0.5536380458544058,0.06305436411135398,-0.0007254061197409544,-0.0013194505900189235,-0.00037709044986109045,0
2025/04/01 17:52:54.765993707,1743522774,761944497,piren,vessel_center,-500.1056434483436,-343.0370576651832,2.3748075250743272,-0.0032215232844986412,-0.0002675825545614431,-0.012532483780971522,0.9999162400109239,-0.009190871675310259,-0.6697444653570086,0.014562594241755586,-0.0009658052058442259,0.0012731483129187632,-0.00047754313584839154,0
2025/04/01 17:52:54.951407700,1743522774,945162128,piren,vessel_center,-500.1089649450382,-343.2033124645358,2.3627257769496897,-0.0032172131061264297,-4.8834179098294694e-05,-0.012598204910316001,0.999915462620761,-0.012616138137446537,-0.7509069014635328,-0.018560106946452534,-0.0010405258914429475,0.0023841979442115876,-0.0005281173154176124,0
2025/04/01 17:52:55.131771313,1743522775,128001981,piren,vessel_center,-500.1110735888241,-343.33730704212445,2.351376367800969,0.0282842482117673,-0.0002152221847935366,-0.012583445078666,0.9995206910777078,-0.01302519246405674,-0.7941238490557238,-0.03749473061515442,-0.001070022517672885,0.0014450089355417038,-0.00048588219117566236,0
2025/04/01 17:52:55.326605159,1743522775,312111951,piren,vessel_center,-500.11404873812086,-343.5511912576313,2.317813452037073,0.028131501732589676,-7.487520603853342e-05,-0.012670776303036117,0.9995239188893137,-0.01399004419731747,-0.9251680694919754,-0.09583147914411047,-0.0008623899955472714,-0.0006940018251952704,-0.0006277501235287825,0
2025/04/01 17:52:55.539568409,1743522775,535890768,piren,vessel_center,-500.1163800199315,-343.76167156566174,2.2884420556020593,0.02816602584956768,-0.00025782839632242186,-0.012757288357116339,0.9995218157229651,-0.012734564338916893,-0.9673056187773467,-0.1170203052234648,-0.0006504667075987548,-0.004252857138378974,-0.0005753851072922496,0
2025/04/01 17:52:55.720747150,1743522775,716643791,piren,vessel_center,-500.118376837528,-343.9446708856751,2.2677487242995196,0.028212893332357693,-0.00014295030818399802,-0.012613221142528755,0.9995223453567389,-0.01165716512346145,-0.9552047384750052,-0.11233900697271228,-0.0006100656193296652,-0.0026636546706428816,0.0004965262821477921,0
2025/04/01 17:52:55.904425432,1743522775,898505251,piren,vessel_center,-500.1196443849166,-344.1149356402262,2.254496957415773,0.0282855535011953,-0.00011292904031010317,-0.012487967270836748,0.999521868386883,-0.009238079902116364,-0.9045575814577217,-0.09133023044039813,-0.0007010627379464099,0.00024237650361707769,0.00034490077765539487,0
2025/04/01 17:52:56.95141863,1743522776,88648581,piren,vessel_center,-500.119969451532,-344.225381987968,2.251595400790595,0.0017131825545989823,0.0005274358773869856,-0.012455861388905393,0.9999208160319448,-0.006836801014833976,-0.8441599359026907,-0.06689678203235733,0.0007410073615250459,0.00249056033525305,0.0004145885453082046,0
