time,header_stamp_secs,header_stamp_nsecs,header_frame_id,pose_position_x,pose_position_y,pose_position_z,pose_orientation_x,pose_orientation_y,pose_orientation_z,pose_orientation_w
2025/04/01 17:52:23.825638234,1743522743,821687916,piren,-500.01679401528475,-329.98582848460023,2.351519249345873,-0.030083227617726565,-0.0009674674115400138,-0.0009593550327326737,0.9995464686850877
2025/04/01 17:52:24.547572516,1743522744,521897561,piren,-500.01913896311544,-329.9286531062878,2.374552616960319,-0.030016414329416395,0.0005362358130336107,-0.0010311091309960197,0.9995487302457633
2025/04/01 17:52:24.871488554,1743522744,858676107,piren,-500.02265485502437,-329.8620428501893,2.4010616269946894,0.0016321517134649,-0.00158446950296782,-0.0004281192433131537,0.9999973211219578
2025/04/01 17:52:25.111311666,1743522745,106395597,piren,-500.02747985363203,-329.9184498615403,2.3802523685450403,0.02811353998444423,-0.001282354864579748,0.00012048458020929392,0.9996039065144805
2025/04/01 17:52:25.369637770,1743522745,368116334,piren,-500.03209651103793,-329.94759177891007,2.3698377716083243,0.0017991391961931316,-5.672485902656115e-05,0.00010080255651363757,0.9999983748583233
2025/04/01 17:52:25.626713241,1743522745,624285112,piren,-500.03054617393167,-329.98364762565956,2.353258744200232,0.028432338547755728,-0.00044380335137920426,0.00031204867138867414,0.9995955721135013
2025/04/01 17:52:25.854133737,1743522745,853561467,piren,-500.0331283870681,-330.1106476627751,2.301155185049959,0.002067405934886127,-0.0007766362097146736,0.0035759113900029264,0.99999116772431
2025/04/01 17:52:26.52382193,1743522746,50731833,piren,-500.03083061263294,-330.1316024933281,2.2972630323427548,0.002009354231028149,-0.0009839782155026246,0.0009423646034119616,0.9999970531113579
2025/04/01 17:52:26.234338387,1743522746,231768920,piren,-500.03089038387395,-330.13962848206353,2.2993802787519484,0.0019315563632979012,1.956232527579314e-05,0.0011202700258291203,0.9999975068480922
2025/04/01 17:52:26.413744106,1743522746,412507851,piren,-500.02938240480574,-330.1359013817939,2.30486131466805,-0.005019640422187864,0.0030490805500938143,0.0012217155331858168,0.9999820067026141
2025/04/01 17:52:26.588166185,1743522746,585713148,piren,-500.02284588268907,-330.1110745295251,2.3166782519732476,-0.03145084417450411,0.003324150240594447,0.001293875407571707,0.9994989346229033
2025/04/01 17:52:26.760980373,1743522746,760675884,piren,-500.01704033809625,-330.04003023523455,2.343976796735784,-0.002177102265763211,0.0031182584632602635,0.0012602506892115803,0.9999919741968338
2025/04/01 17:52:26.932834508,1743522746,932397321,piren,-500.01196471759687,-330.0249751192697,2.350432407456023,0.002831626476382881,0.0015553418762099614,0.0013128884737609885,0.9999939195450149
2025/04/01 17:52:27.108357666,1743522747,106855631,piren,-500.0118788587023,-330.0354971031821,2.346576406497731,-0.030336425061402595,-0.0005110944165692031,0.0014761898229399008,0.9995385240002498
2025/04/01 17:52:27.281778183,1743522747,281334274,piren,-500.0156211365406,-329.992127689087,2.363928882417525,0.01880899310540196,-0.0004276026030003252,0.0016493980381898435,0.9998216433046879
2025/04/01 17:52:27.469817053,1743522747,468035918,piren,-500.0196259416416,-330.04196814072367,2.34320316811674,-0.0029914951517258925,2.340990564616946e-05,0.0015615589835617125,0.9999943059549261
2025/04/01 17:52:27.642233265,1743522747,641372467,piren,-500.02281457506336,-330.051831054106,2.3393143057320342,-0.001496554801942315,-0.00041797348073915967,0.0015945913137032019,0.9999975214471467
2025/04/01 17:52:27.816119815,1743522747,813574927,piren,-500.02586341114807,-330.06019469792756,2.335601638403218,-0.017357668735241732,0.0013121276579504738,0.0015523181968988009,0.9998472783206955
2025/04/01 17:52:27.992389264,1743522747,991755272,piren,-500.0259444718279,-330.0406833751445,2.3429835968913792,0.030572524364195004,0.001330979532969009,0.0015010363791208307,0.999530537871291
2025/04/01 17:52:28.187914447,1743522748,187466002,piren,-500.0249449934358,-330.1018526674698,2.315942363266567,0.004694356596051478,0.0009936010295489635,0.00154571483778649,0.9999872931886602
2025/04/01 17:52:28.369919225,1743522748,369489701,piren,-500.0244449684824,-330.117339554252,2.310769750957685,-0.004155889381944501,0.00026346182546367207,0.0015949588079662274,0.9999900575894305
2025/04/01 17:52:28.580287834,1743522748,579807740,piren,-500.0250131475534,-330.1112874449501,2.3150988649563184,0.000853666112444978,0.0015852819089903834,0.0016156197013081886,0.9999970739499283
2025/04/01 17:52:28.760314540,1743522748,759852256,piren,-500.02313964485853,-330.10786685008105,2.3179655766740717,-0.003996129289666764,0.0017634456048934472,0.001589630607010303,0.9999891970840646
2025/04/01 17:52:28.967483632,1743522748,964872860,piren,-500.02109292750146,-330.09248597273694,2.3248380615190944,0.00564343301267121,0.001573028327509403,0.0015555683139579501,0.9999816285577116
2025/04/01 17:52:29.146823130,1743522749,143914102,piren,-500.0197207330396,-330.0917807541064,2.324477014533199,-0.0034648111418342097,0.0014740154184082446,0.001561392486550038,0.9999916921733903
2025/04/01 17:52:29.317237665,1743522749,316907282,piren,-500.01923331602217,-330.0767177233956,2.3296034032646813,-0.0040734210569158755,0.0010627271092807206,0.0015373524819432805,0.9999899571492359
2025/04/01 17:52:29.491173890,1743522749,489289567,piren,-500.01963476120727,-330.0612224584472,2.3346942556070074,-0.02924428712059877,0.0009214567655750344,0.001525675616939111,0.9995707053041066
2025/04/01 17:52:29.666666481,1743522749,663698439,piren,-500.02070787733714,-330.00867081005714,2.3539319127107543,-0.0028087658169592706,0.000512093354045525,0.0014576609476828315,0.9999948618965719
2025/04/01 17:52:29.841619573,1743522749,840274742,piren,-500.0224520265208,-330.0042787688541,2.3546717085005193,0.027767883746647515,-1.0874997713735764e-05,0.0014130149725020077,0.9996133992212463
2025/04/01 17:52:30.18498351,1743522750,17983045,piren,-500.0247208071759,-330.06245336914236,2.3282292360247405,0.03362372860999885,-0.0011783799771044156,0.0014016010445392602,0.9994328850950936
2025/04/01 17:52:30.200531655,1743522750,195949923,piren,-500.02856972419806,-330.1252285492113,2.2986501601205886,-0.0030364706629506903,-0.0005191261149659088,0.0012668292088351687,0.9999944527334866
2025/04/01 17:52:30.373853899,1743522750,371402205,piren,-500.0303619400564,-330.11143696688225,2.3039321706744973,-0.0034411201470773817,0.0012664556883200538,0.00121670988397492,0.9999925371717437
2025/04/01 17:52:30.543414903,1743522750,543089191,piren,-500.0290921981198,-330.09624716148255,2.309612730790204,-0.024475202327103596,0.0025369893166304618,0.0012755665483486604,0.9996964044579911
2025/04/01 17:52:30.715316111,1743522750,714525389,piren,-500.0248190579354,-330.04123829502606,2.3319089166763427,-0.02899021169319239,0.0014035723029221362,0.0011941578969098551,0.9995779967554766
2025/04/01 17:52:30.886947773,1743522750,885738637,piren,-500.0228176936013,-329.98329518494086,2.3554097151021502,0.018975145765995547,0.0005050442412110513,0.0009553148026381804,0.9998193717602702
2025/04/01 17:52:31.95881156,1743522751,95359539,piren,-500.0232244971651,-330.0223289758181,2.3396991662898503,0.02697668881135662,0.0004135228896677249,0.0008780285501506954,0.9996355917660495
2025/04/01 17:52:31.274365229,1743522751,271558886,piren,-500.0237303655416,-330.07198447085926,2.3178306590154936,-0.00042016638721958504,-0.001821536072050147,0.0008284218339588312,0.9999979095897202
2025/04/01 17:52:31.451503581,1743522751,449067366,piren,-500.0280549654054,-330.0708212788966,2.3171929668958997,-0.0027851246384959015,0.00040947131531641134,0.000827445854080196,0.9999956953644094
2025/04/01 17:52:31.622368517,1743522751,621929369,piren,-500.02798879288724,-330.0567281271435,2.321579770345166,0.033209516774768924,0.0017765628379142224,0.0006585201610226161,0.9994466159686903
2025/04/01 17:52:31.795359184,1743522751,793883015,piren,-500.0255986816769,-330.10301815144317,2.2986924578890937,0.003030475556775875,0.0011278701632353723,0.0005442950764003732,0.9999946239203812
2025/04/01 17:52:31.967023070,1743522751,966690777,piren,-500.02416412296066,-330.09445107454593,2.3025803082392478,-0.0022052329606261183,0.000656465278459446,0.000536239342642707,0.9999972092202534
2025/04/01 17:52:32.140665424,1743522752,140278064,piren,-500.0237053675158,-330.0781608216067,2.3105938640172874,-0.0006521408631790699,0.0012440748439714391,0.00044804583051703784,0.9999989131219148
2025/04/01 17:52:32.319064695,1743522752,317857944,piren,-500.022703543326,-330.06337059403717,2.3182420816206273,0.0017356169437113356,0.00037769886711877206,0.00048382362024940303,0.9999983054446119
2025/04/01 17:52:32.504847034,1743522752,502406929,piren,-500.02313810289576,-330.0510693273367,2.323649436294877,-0.0011537080388018587,0.00039575364544337143,0.00036014310114781056,0.9999991913165531
2025/04/01 17:52:32.684122347,1743522752,682680108,piren,-500.023728851834,-330.03302274768157,2.329505747816459,0.001252034985009931,0.0007552040887203608,0.00028218990759791806,0.9999988912214037
2025/04/01 17:52:32.858256994,1743522752,856880731,piren,-500.0235509180477,-330.022361256163,2.331249771984433,-0.03420215737185973,0.0006776277813898511,0.00022133403269127997,0.9994146808322091
2025/04/01 17:52:33.30342494,1743522753,28745884,piren,-500.0234393949039,-329.95175842433844,2.355427513731218,0.010844683987188977,0.00040056693898031965,0.00018504821972697847,0.9999410973314887
2025/04/01 17:52:33.206704696,1743522753,203002712,piren,-500.0236763838489,-329.97247049426215,2.3449783178446646,-0.02941361003459156,-0.00033145706933147194,0.00018568747635547403,0.9995672539659878
2025/04/01 17:52:33.381544177,1743522753,380130000,piren,-500.0250783997706,-329.92825970466305,2.361223289263991,-0.02805261171269701,-0.002302007461656188,5.311614246998752e-05,0.9996037959693923
2025/04/01 17:52:33.555959214,1743522753,555437643,piren,-500.0296983833247,-329.8986081294648,2.3729165462404667,0.012005361246034584,-0.0013821526366376332,3.859174922791051e-05,0.9999269770668847
2025/04/01 17:52:33.769338377,1743522753,766190001,piren,-500.031734152536,-329.9385298531664,2.35664750806247,0.02837008242467082,-0.00186681798681965,7.966527643348488e-05,0.9995957418212952
2025/04/01 17:52:33.984143267,1743522753,983318131,piren,-500.03472765100094,-330.01040031485087,2.3248979315176475,-0.0030701553575729996,-0.0017773705374751355,-0.00011185680936240389,0.9999937012742166
2025/04/01 17:52:34.161342282,1743522754,160990147,piren,-500.0360607835386,-330.0231538380532,2.3196445221130437,-0.0030435658558421643,-0.00033702251327030443,-0.000155974803635942,0.9999952993862359
2025/04/01 17:52:34.338439671,1743522754,337988811,piren,-500.03401268806067,-330.02587898537337,2.3186362678549113,-0.0032179534117339793,-0.015672154111233738,-0.0002365211542258482,0.9998719780147343
2025/04/01 17:52:34.521269694,1743522754,520721043,piren,-500.0571318815575,-330.0172393901413,2.3214985097838503,0.028134016679728934,-0.014172827441076475,0.00012416012084952643,0.9995036731558592
2025/04/01 17:52:34.703932010,1743522754,701275212,piren,-500.07498282614273,-330.0607543439677,2.301399423032829,0.028343929416383813,-0.01205000087303842,-4.9548670478946025e-05,0.9995255958148986
2025/04/01 17:52:34.878974819,1743522754,878138813,piren,-500.0864749889215,-330.1101552885719,2.2814946804305873,0.028176162910036242,-0.012219021152739738,-0.0003765894472892808,0.9995282174836908
2025/04/01 17:52:35.56508885,1743522755,55321879,piren,-500.0904611109011,-330.1527914729558,2.2707319329675646,0.001618050413218112,-0.012153407886942304,-0.0009409582324456634,0.9999243927353701
2025/04/01 17:52:35.231050610,1743522755,230430216,piren,-500.09393893763365,-330.1664755065578,2.2814507024314374,0.001646495541736691,-0.013396729692723361,-0.0009321481151474753,0.9999084697040338
2025/04/01 17:52:35.426772668,1743522755,411765190,piren,-500.0947964644813,-330.1768268085079,2.2960425717262236,-0.029798640928814395,-0.013617345130391336,-0.0014838955066858095,0.9994620587918887
2025/04/01 17:52:35.593852174,1743522755,591425697,piren,-500.09628547050136,-330.1496489689287,2.330238207123816,-0.029818833190991788,-0.01264860999408902,-0.001841379671070625,0.9994735910334261
2025/04/01 17:52:35.770931154,1743522755,770561649,piren,-500.0938743603733,-330.1281063583651,2.3578708555088728,-0.0031819247707672808,-0.011413427783558295,-0.001611904670965481,0.999928502836235
2025/04/01 17:52:35.954221336,1743522755,953940277,piren,-500.08875386001574,-330.1698098107176,2.3646502549099835,-0.0029953934569476853,-0.009749758768415526,-0.0017166292938465303,0.9999465100723455
2025/04/01 17:52:36.131828388,1743522756,130510111,piren,-500.08073077241227,-330.2328561509034,2.3645910862512265,-0.0033058112070687364,-0.009853669588097077,-0.0016171312388627746,0.9999446793170451
2025/04/01 17:52:36.312860587,1743522756,312184236,piren,-500.0743969343838,-330.30279245112405,2.3588343928112283,0.028185064810010187,-0.009985582507378184,-0.0016130696413257247,0.999551543578407
2025/04/01 17:52:36.527418310,1743522756,524992926,piren,-500.06872078416825,-330.45036582498585,2.3295089371990936,0.028183213398624396,-0.01079281481572183,-0.002094820119920457,0.9995423119405933
2025/04/01 17:52:36.704506568,1743522756,702064766,piren,-500.06693108024183,-330.6009635948544,2.3015443102863267,0.028132455196083053,-0.010907274564076573,-0.0021136029171000747,0.9995424598329644
2025/04/01 17:52:36.879362886,1743522756,878732694,piren,-500.06674505879147,-330.7471546272079,2.2783348230512215,0.028062787832709844,-0.009889016151776554,-0.0021125605138350425,0.9995550131867089
2025/04/01 17:52:37.61316504,1743522757,60023346,piren,-500.0663083492305,-330.84724204827285,2.265667050553613,0.0018272776381212093,-0.00795717187053472,-0.0024886104652334607,0.9999635749817133
2025/04/01 17:52:37.245395320,1743522757,244100485,piren,-500.062970325553,-330.9153621959282,2.275332348568294,0.001528186181438176,-0.006777537161073159,-0.0026308190943963895,0.9999724038331848
2025/04/01 17:52:37.430930400,1743522757,430135879,piren,-500.05860931922007,-330.9523923432816,2.290612970183227,-0.02955784075570081,-0.005645462391176006,-0.0030805875106317653,0.9995423816851589
2025/04/01 17:52:37.613799483,1743522757,612485804,piren,-500.05284378189407,-330.9657879418894,2.325602120240107,-0.029542753567939894,-0.0055874108370117396,-0.003354486915971437,0.9995422722272895
2025/04/01 17:52:37.793807878,1743522757,792269078,piren,-500.04849874867347,-330.9938666824776,2.356917460451392,-0.02972614469924756,-0.0074139983948263155,-0.0034785461142660184,0.9995245312977826
2025/04/01 17:52:37.975315774,1743522757,972242836,piren,-500.0493557955249,-331.0304698269263,2.377820960363822,-0.003214738852000677,-0.007131038689115637,-0.00352868369619864,0.9999631803885082
2025/04/01 17:52:38.161343153,1743522758,160037828,piren,-500.0497041715075,-331.1467680386181,2.379059356019229,-0.003308333058392513,-0.007399737315345763,-0.0038426647853383564,0.9999597655642881
2025/04/01 17:52:38.340191178,1743522758,339773433,piren,-500.0512511589055,-331.27598187695065,2.372310794630495,-0.0033020883630624238,-0.0060144742576185885,-0.003725125332221908,0.9999695224121115
2025/04/01 17:52:38.518051777,1743522758,517321061,piren,-500.050411325697,-331.38940984587003,2.3617966475006247,0.028130746288169892,-0.004981123847652558,-0.0037125111760046084,0.9995849472552361
2025/04/01 17:52:38.698688401,1743522758,697219364,piren,-500.0477372855012,-331.5823674894344,2.3283670581538383,0.028175272667666652,-0.004457475724246815,-0.004015094370470178,0.999584995854513
2025/04/01 17:52:38.880028200,1743522758,878234433,piren,-500.04487732898224,-331.7321343227864,2.300622682518502,0.0015339434923261617,-0.004127179600156251,-0.004238277552730849,0.999981325030271
2025/04/01 17:52:39.60051875,1743522759,58687731,piren,-500.04164639152583,-331.8724646688811,2.295166510033284,0.0015300969333230153,-0.004633712309833278,-0.004464049043156253,0.9999781296507163
2025/04/01 17:52:39.274225450,1743522759,273863890,piren,-500.04030020458123,-331.9972835412853,2.297237836903216,0.001526848126444821,-0.004985651227858602,-0.004393981530136232,0.9999767522012428
2025/04/01 17:52:39.451230441,1743522759,448992609,piren,-500.04019076027475,-332.11902130178015,2.3029851094566434,0.0014906492199948432,-0.004486733970640665,-0.004790576716999686,0.9999773485224045
2025/04/01 17:52:39.625817220,1743522759,624317429,piren,-500.0402559448707,-332.20108375316937,2.310826746003171,-0.029844165492123622,-0.0034343744164072403,-0.004915532563264163,0.9995365768185105
2025/04/01 17:52:39.802363168,1743522759,800569367,piren,-500.0384515015509,-332.256192329179,2.338640622648275,-0.029880917847411342,-0.002402991190372161,-0.005203546958784889,0.9995370325710714
2025/04/01 17:52:39.988718713,1743522759,986467468,piren,-500.03552910171516,-332.29430910298305,2.361600039827248,-0.0032957166273649106,-0.0025554897525209043,-0.005203631374143778,0.9999777647250758
2025/04/01 17:52:40.173919241,1743522760,171580388,piren,-500.03331437781856,-332.418498831323,2.3648764398455797,-0.003311663543304467,-0.0027305053849022614,-0.005334802850192533,0.9999765582769772
2025/04/01 17:52:40.359208638,1743522760,358850438,piren,-500.03221059147165,-332.5642644554448,2.3626675511496438,-0.0032932982159268984,-0.003385297335388185,-0.005285334198076353,0.9999748792800881
2025/04/01 17:52:40.540103350,1743522760,537940252,piren,-500.03298283819316,-332.71884376925067,2.356762854363002,-0.003291759584416512,-0.003711437786620638,-0.005588076149977571,0.9999720810869355
2025/04/01 17:52:40.719278168,1743522760,717362663,piren,-500.03508624912934,-332.8408606618866,2.3496169122471215,0.028009740489853774,-0.003503914414148513,-0.0056295707497532365,0.9995856566371103
2025/04/01 17:52:40.923091828,1743522760,917204320,piren,-500.0369948697345,-333.0509920895504,2.319708585781974,0.028040232264377758,-0.0026052347178950955,-0.005808882291412732,0.9995865220245564
2025/04/01 17:52:41.110217539,1743522761,107703059,piren,-500.0372947517931,-333.2445890109298,2.2933325849336397,0.028170135495060068,-0.0018714460461053764,-0.005871883442614471,0.9995841446025057
2025/04/01 17:52:41.288756167,1743522761,286470237,piren,-500.03609237835065,-333.389627337168,2.2754579386760496,0.001539003158793705,-0.001260234735691655,-0.006109435365537458,0.9999793588255722
2025/04/01 17:52:41.464261206,1743522761,463829189,piren,-500.0339547259822,-333.520327783087,2.2801718586650495,0.0015372156668974413,-0.0014261142738615394,-0.006365396957348447,0.9999775421916468
2025/04/01 17:52:41.642268527,1743522761,641832884,piren,-500.0326093050265,-333.6349173500452,2.2911769104283577,0.001532744833249863,-0.0018693052556194277,-0.006312186460727661,0.999977156085689
2025/04/01 17:52:41.859136765,1743522761,858623525,piren,-500.03257075134394,-333.7202365937898,2.3037907734992733,-0.029867069280451863,-0.002089382165014834,-0.006573138809168504,0.9995300828394115
2025/04/01 17:52:42.36465233,1743522762,36033342,piren,-500.03297457795657,-333.8190123159107,2.3368021918074953,0.001531303138118465,-0.001957286348895581,-0.006808293025860913,0.9999737352985436
2025/04/01 17:52:42.215274343,1743522762,214112798,piren,-500.0341190580625,-333.920097893232,2.3417604221655663,-0.029894085534520366,-0.0011986050684931536,-0.006962972073740484,0.9995281006634306
2025/04/01 17:52:42.395401055,1743522762,392964420,piren,-500.03387809844133,-334.0001289013667,2.3653518721837825,-0.029902883397110815,-0.0007561691448169973,-0.007238209473540012,0.999526314859384
2025/04/01 17:52:42.571046452,1743522762,570384765,piren,-500.0331327071061,-334.0668405700977,2.380787243716274,-0.003287604205802806,-0.0009996665854185797,-0.007198382868404574,0.999968187298668
2025/04/01 17:52:42.751125289,1743522762,748085117,piren,-500.03340000091754,-334.22064107957317,2.376663060530404,-0.00328828222864693,-0.0012287290631930465,-0.007344907493460976,0.999966864330407
2025/04/01 17:52:42.931638910,1743522762,930127979,piren,-500.0344355602658,-334.3599392707495,2.3664443554998504,0.028072918335546745,-0.0019744236035855365,-0.007267245336829814,0.9995775107778155
2025/04/01 17:52:43.127832246,1743522763,125864273,piren,-500.0372007224176,-334.58825905114327,2.3330842340457587,0.028108984494595594,-0.0023628524777139772,-0.0075586664591725415,0.9995734932861167
2025/04/01 17:52:43.311862466,1743522763,308673743,piren,-500.040737307618,-334.80733971669565,2.30201183942771,0.02812087626645061,-0.0019873787702677395,-0.0076662551653593775,0.999573156489994
2025/04/01 17:52:43.488640447,1743522763,488115410,piren,-500.04335156668935,-335.01428822256736,2.2769173705620394,0.028158765363319984,-0.0013896626001890296,-0.007767033819937059,0.9995723215239161
2025/04/01 17:52:43.668362024,1743522763,665268901,piren,-500.0440230445064,-335.1540490932968,2.2637165041907146,0.0023838295030011915,-0.0006955436633199938,-0.007930232789249021,0.9999654718958157
2025/04/01 17:52:43.844199195,1743522763,843899097,piren,-500.0434487016348,-335.27572896772364,2.272871999742185,0.0016136025090883147,-0.0005390902443317779,-0.008093074029709654,0.9999658033259942
2025/04/01 17:52:44.24358686,1743522764,23919537,piren,-500.0424373155606,-335.3549723816195,2.288301889677742,-0.029841240817330375,-0.00036630005760748504,-0.007974470720350959,0.9995227731209931
2025/04/01 17:52:44.207330308,1743522764,205090867,piren,-500.0410441142933,-335.41715238962865,2.323711801033609,-0.02980714007650143,-0.0008014302781277968,-0.008115624329720692,0.9995224003251293
2025/04/01 17:52:44.389304308,1743522764,387700870,piren,-500.040914412133,-335.45952452598164,2.353460885509516,-0.0032948037755090144,-0.0016520520985631563,-0.008208587586079041,0.999959516221425
2025/04/01 17:52:44.600149425,1743522764,598107214,piren,-500.04301676593525,-335.58872141191966,2.3624531784404654,-0.0032839803050259474,-0.0015618532406196115,-0.008333208276913655,0.999958666009563
2025/04/01 17:52:44.778126707,1743522764,776564849,piren,-500.0453590766285,-335.73865040356804,2.364673987488122,-0.0032822703294056333,-0.0011213628152056943,-0.008399955335109323,0.999958704145971
2025/04/01 17:52:44.957664132,1743522764,956838741,piren,-500.0469937806558,-335.8959645988,2.36129021767118,-0.003275301745958604,-0.0007594630420972999,-0.008483608623360341,0.9999583611326455
2025/04/01 17:52:45.138151827,1743522765,137039261,piren,-500.0479786301405,-336.05749445010355,2.355046699462403,-0.0032089617806049194,-0.0006662433226951515,-0.008478408870117802,0.9999586867801873
2025/04/01 17:52:45.328837450,1743522765,326622843,piren,-500.04848637549964,-336.1819494195485,2.3480883002892607,0.028166598155304253,-0.0009844467772854688,-0.008583860843879049,0.9995659012520952
2025/04/01 17:52:45.511166440,1743522765,509344976,piren,-500.0504967540461,-336.4039434681113,2.3182813366608848,0.028164861686957896,-0.0014618941642375923,-0.008699970179522369,0.9995643620850448
2025/04/01 17:52:45.691838253,1743522765,691520773,piren,-500.0533704034969,-336.612839528359,2.292002032730528,0.028175342228330198,-0.0015651841286767817,-0.008649923723259139,0.9995643446564817
2025/04/01 17:52:45.874831666,1743522765,873073722,piren,-500.05579007517196,-336.7669356875144,2.2748178923701174,0.0015896435710948114,-0.0007248876646726326,-0.008721435098736189,0.9999604412880587
2025/04/01 17:52:46.55788281,1743522766,54679208,piren,-500.056631944969,-336.90945032393313,2.279771911891969,0.0015953419770126827,-0.00024415978617456423,-0.00883496571499628,0.9999596685120806
2025/04/01 17:52:46.242949055,1743522766,242592296,piren,-500.05594790917536,-336.99370206647654,2.2921792125994926,-0.029843525821655108,0.00030977725539212657,-0.00882998175748064,0.9995155323589259
2025/04/01 17:52:46.426546999,1743522766,426192616,piren,-500.0542158825405,-337.05920904737036,2.324828620793635,-0.029832951143801186,0.00041410725433766425,-0.008975522909443484,0.9995145139164991
2025/04/01 17:52:46.607044053,1743522766,606561850,piren,-500.0528107975544,-337.1323500676158,2.35500851741917,-0.029835342324806145,5.5179383564208235e-05,-0.0090509862566847,0.9995138463029808
2025/04/01 17:52:46.789014955,1743522766,787184192,piren,-500.0527705159211,-337.2255067378215,2.3792897735393144,-0.029795144725924382,-0.0004196368943182149,-0.009168757279370242,0.9995138854191022
2025/04/01 17:52:46.972759340,1743522766,972140635,piren,-500.05429388463097,-337.30983100763183,2.3920114380317563,-0.003238287709200835,-0.0009601752448268952,-0.009290338277448707,0.9999511393917716
2025/04/01 17:52:47.156643576,1743522767,156067144,piren,-500.05762823336795,-337.4788983722907,2.3848710955282857,-0.00324243596169727,-0.0007547792244183359,-0.00947955046658985,0.9999495262463541
2025/04/01 17:52:47.370037027,1743522767,369604865,piren,-500.0605076372219,-337.62826052824266,2.371500122052394,0.028219696216287192,-0.000775189834707952,-0.009384982876612038,0.9995573870081629
2025/04/01 17:52:47.550738557,1743522767,548002993,piren,-500.0644423077679,-337.9008315994461,2.335082474722604,-0.0032428527328936967,-0.00010623675026476312,-0.009736183599926963,0.9999473382877792
2025/04/01 17:52:47.726309330,1743522767,725745844,piren,-500.0659108940025,-338.07231538698244,2.324460584163919,-0.0031632472490346762,-0.00012947792727744387,-0.009719481498059731,0.9999477530259853
2025/04/01 17:52:47.905652935,1743522767,905124152,piren,-500.06664635131483,-338.19553464440673,2.321637678983538,0.028246518676270087,-0.0005066098785706191,-0.009903193439341014,0.9995518017035461
2025/04/01 17:52:48.93887851,1743522768,93536321,piren,-500.06894620777626,-338.4023132012615,2.2967549692081874,0.028225889888473424,-0.0007632928502171925,-0.010124200018718516,0.9995500073022908
2025/04/01 17:52:48.276845349,1743522768,275527168,piren,-500.0712611898975,-338.5573084347967,2.2792622932622106,0.0016266974521602852,-0.000255276793785591,-0.010142781926243075,0.999947204938318
2025/04/01 17:52:48.456733711,1743522768,454662635,piren,-500.07251523746464,-338.69967288843657,2.283968702614452,0.0016236874865029846,2.7339131103290462e-05,-0.010272549651635227,0.9999459173451196
2025/04/01 17:52:48.636237471,1743522768,633780845,piren,-500.0729725178474,-338.82149574320334,2.2942186719042295,0.0016795471988339538,0.00029341157444300124,-0.010226216831483316,0.9999462573159471
2025/04/01 17:52:48.815734463,1743522768,814816478,piren,-500.07254114643104,-338.90765199040976,2.305812955206508,-0.029767415912741357,0.0008235925202798114,-0.010396239999693543,0.9995024466398805
2025/04/01 17:52:49.797332,1743522768,996756806,piren,-500.07113509482525,-338.98017579323476,2.3371992517915556,-0.030096986005582093,0.0012575239138993318,-0.010627316854876829,0.9994896948960764
2025/04/01 17:52:49.184310758,1743522769,181933811,piren,-500.0693858295792,-339.0241658451694,2.3617313084584186,-0.0030521706909889266,0.00016595983459770467,-0.010665665611293567,0.9999384482499283
2025/04/01 17:52:49.368580863,1743522769,368001081,piren,-500.07056142944396,-339.1636831893699,2.366863475864773,-0.0030990230449062153,-0.00040732213321823305,-0.010747176763697424,0.9999373622064819
2025/04/01 17:52:49.548848261,1743522769,548261986,piren,-500.07340125438,-339.32016664983377,2.365230203973619,-0.0031004589981781737,-0.0005313723175829924,-0.01067923072910496,0.9999380274939519
2025/04/01 17:52:49.728384398,1743522769,728011113,piren,-500.0763366965389,-339.44574757146086,2.3580017240101503,0.02823191970467153,-0.0006900639782792282,-0.010618304465826145,0.9995447634457227
2025/04/01 17:52:49.909580676,1743522769,909236644,piren,-500.08028629117166,-339.6649486457519,2.3279153962859813,0.02826445265836489,-0.00035742945734192603,-0.010731601555335653,0.9995428083319712
2025/04/01 17:52:50.125624670,1743522770,124945526,piren,-500.0832786044152,-339.87419352758184,2.2996356151407733,0.02826241701324407,-0.00016564082839768098,-0.010880790691854172,0.9995413031694116
2025/04/01 17:52:50.313747094,1743522770,308555204,piren,-500.0854756679093,-340.0718913828753,2.2769495261256756,0.028236864038112888,-9.669664506508124e-05,-0.011038959087491624,0.9995403001086633
2025/04/01 17:52:50.491562491,1743522770,491066120,piren,-500.0872132490165,-340.26199210794533,2.2595738951993862,0.02815858645310254,-0.0003989612008081612,-0.011141088662062884,0.9995413002884611
2025/04/01 17:52:50.671293571,1743522770,670931307,piren,-500.08851960974454,-340.3855320977882,2.254360442212394,0.0016418516698523814,7.970955641517105e-05,-0.011174363532548906,0.9999362137502189
2025/04/01 17:52:50.856179264,1743522770,850194996,piren,-500.0886734304029,-340.4928283214087,2.2710222858895284,0.0016341372268581776,0.0001371747568959117,-0.011252843319436854,0.999935340057465
2025/04/01 17:52:51.67678746,1743522771,48919833,piren,-500.08834087740786,-340.56099959941,2.290527410541407,-0.029792316168035033,0.0006045442142678308,-0.01122269446565741,0.9994929232128497
2025/04/01 17:52:51.257595141,1743522771,256559721,piren,-500.08723159210444,-340.6432950338676,2.3303437619624585,0.0016278805944995492,0.0005000440867244779,-0.011390057319727481,0.9999336810783678
2025/04/01 17:52:51.439113767,1743522771,438669541,piren,-500.0871125806778,-340.7597944451782,2.3442530464013225,0.0016208105910335887,0.0005274239153577658,-0.011458279178600726,0.9999328990663857
2025/04/01 17:52:51.621269255,1743522771,617901843,piren,-500.08757570715125,-340.8601878532701,2.3463279820147753,-0.029778690270332874,0.0006520354795065907,-0.01148772540725194,0.9994902884072885
2025/04/01 17:52:51.805317215,1743522771,800410607,piren,-500.0876325922138,-340.95171478474686,2.3685245837730453,-0.029786576470655274,0.0003025270182961103,-0.011582044614210026,0.9994891317978978
2025/04/01 17:52:51.985811525,1743522771,982752342,piren,-500.0885662827212,-341.02521329815676,2.3824011580394653,-0.003212491884221329,-0.00028179994952317006,-0.011616756036192184,0.9999273230909724
2025/04/01 17:52:52.164617691,1743522772,163706664,piren,-500.0912862361787,-341.18196313729226,2.37664866444573,-0.0032129501113095076,-0.00034286326098475844,-0.011734146761799333,0.9999259318550245
2025/04/01 17:52:52.344974463,1743522772,344553703,piren,-500.0942426911019,-341.3532712701969,2.3668814427412928,-0.0032020945680883194,-0.0002316100877166973,-0.01171756014772605,0.9999261931419382
2025/04/01 17:52:52.528136584,1743522772,526453075,piren,-500.0962755255536,-341.48544772501,2.355705878969184,0.028208082153017934,-0.00021134244052027293,-0.011794068065629161,0.9995324704050813
2025/04/01 17:52:52.740718800,1743522772,740404493,piren,-500.0992352580514,-341.709393218309,2.3219716365102547,0.028256102948708065,-0.00010791555671152634,-0.01193227729547823,0.9995294901897235
2025/04/01 17:52:52.922123754,1743522772,921618722,piren,-500.10169976727184,-341.9213300845783,2.292170840365398,0.02824611678103602,-0.00024703964356347465,-0.012024837225946798,0.9995286384831082
2025/04/01 17:52:53.104106137,1743522773,103638562,piren,-500.1039965638619,-342.1144214265618,2.269944941072668,0.02824652441223152,-0.00026399374234935296,-0.012144033022105795,0.9995271815352954
2025/04/01 17:52:53.288094090,1743522773,287501443,piren,-500.10547221696316,-342.2452178065938,2.259562788565587,0.0016278672656351162,0.0003876017132106584,-0.012147994814987392,0.9999248101907725
2025/04/01 17:52:53.474793883,1743522773,474423891,piren,-500.1053955274145,-342.36079751013403,2.2714256954711014,0.0017047918670538547,0.0004403671119226136,-0.012274738638575727,0.9999231123205681
2025/04/01 17:52:53.655440662,1743522773,655055619,piren,-500.10504481613447,-342.47251996052444,2.287365554690047,0.0017006858241533425,0.0005635441103263384,-0.01253688122437922,0.9999198051318561
2025/04/01 17:52:53.835764732,1743522773,835441474,piren,-500.10443258824216,-342.5435030642341,2.303393894990124,-0.02998733065358911,0.0022893372514352166,-0.01227274100917666,0.9994723101533844
2025/04/01 17:52:54.18367306,1743522774,17336961,piren,-500.1003814124454,-342.59391671524236,2.338468855590173,-0.029709283461060217,0.0010034187431826114,-0.012364119257445627,0.9994816057247097
2025/04/01 17:52:54.205812070,1743522774,202433641,piren,-500.0992449491953,-342.6621204108479,2.368496619206191,-0.029869986186763793,0.0007099154373272308,-0.012390208442028877,0.9994767444418293
2025/04/01 17:52:54.393052756,1743522774,391692329,piren,-500.0997453516829,-342.7228163764109,2.386087700654124,-0.0032291604799505056,1.586051142534366e-05,-0.012425578880461833,0.9999175852341654
2025/04/01 17:52:54.578393605,1743522774,577083523,piren,-500.10244845063164,-342.86960137224344,2.3834686049988947,-0.003113122320684292,-6.519928749660394e-05,-0.01248192579459188,0.9999172494496371
2025/04/01 17:52:54.762566693,1743522774,761944497,piren,-500.1056434483436,-343.0370576651832,2.3748075250743272,-0.0032215232844986412,-0.0002675825545614431,-0.012532483780971522,0.9999162400109239
2025/04/01 17:52:54.946397959,1743522774,945162128,piren,-500.1089649450382,-343.2033124645358,2.3627257769496897,-0.0032172131061264297,-4.8834179098294694e-05,-0.012598204910316001,0.999915462620761
2025/04/01 17:52:55.128498352,1743522775,128001981,piren,-500.1110735888241,-343.33730704212445,2.351376367800969,0.0282842482117673,-0.0002152221847935366,-0.012583445078666,0.9995206910777078
2025/04/01 17:52:55.313027397,1743522775,312111951,piren,-500.11404873812086,-343.5511912576313,2.317813452037073,0.028131501732589676,-7.487520603853342e-05,-0.012670776303036117,0.9995239188893137
2025/04/01 17:52:55.536295565,1743522775,535890768,piren,-500.1163800199315,-343.76167156566174,2.2884420556020593,0.02816602584956768,-0.00025782839632242186,-0.012757288357116339,0.9995218157229651
2025/04/01 17:52:55.717908837,1743522775,716643791,piren,-500.118376837528,-343.9446708856751,2.2677487242995196,0.028212893332357693,-0.00014295030818399802,-0.012613221142528755,0.9995223453567389
2025/04/01 17:52:55.898879062,1743522775,898505251,piren,-500.1196443849166,-344.1149356402262,2.254496957415773,0.0282855535011953,-0.00011292904031010317,-0.012487967270836748,0.999521868386883
2025/04/01 17:52:56.94968377,1743522776,88648581,piren,-500.119969451532,-344.225381987968,2.251595400790595,0.0017131825545989823,0.0005274358773869856,-0.012455861388905393,0.9999208160319448
2025/04/01 17:52:56.278427691,1743522776,276681333,piren,-500.1187297526249,-344.3174529141574,2.270311498089286,0.0016875571225311138,0.0008242120829322772,-0.01240479504223665,0.999921293845351
2025/04/01 17:52:56.468509786,1743522776,463938670,piren,-500.116910764217,-344.41064254473093,2.29107579294442,0.0017186813819116803,0.0008061098199376278,-0.012360457852288387,0.999921804644217
2025/04/01 17:52:56.646700563,1743522776,644775991,piren,-500.11536392510607,-344.5017838956561,2.3099407276057264,0.0015161535348953755,0.0008133273702457439,-0.012302371180404255,0.9999228427435725
2025/04/01 17:52:56.838759132,1743522776,837271666,piren,-500.1143827923361,-344.5761473222581,2.3229371762201008,-0.02990127316096988,0.002571117209362118,-0.01221155178707171,0.9994749527740056
2025/04/01 17:52:57.24672793,1743522777,23269440,piren,-500.11009356441707,-344.63119023746594,2.3542059794991683,-0.02977647806500507,0.0005270780651376547,-0.012079905601552598,0.9994834462978439
2025/04/01 17:52:57.217913403,1743522777,209904018,piren,-500.1100818232643,-344.7032489719456,2.3790133809784875,-0.02979256730673774,0.00047731516526167486,-0.011925591061309663,0.9994848449983346
2025/04/01 17:52:57.405531987,1743522777,404007139,piren,-500.11096949776794,-344.79592954182124,2.396122468201115,-0.029826519897838268,0.0004605157023005017,-0.011832960629118382,0.9994849411966253
2025/04/01 17:52:57.592075214,1743522777,589518237,piren,-500.1123973136643,-344.9044413334219,2.404611135025572,-0.029810529871122385,0.0005901303017459452,-0.011740036063209624,0.9994864459352435
2025/04/01 17:52:57.774323830,1743522777,772634626,piren,-500.1135956881677,-345.0041454170452,2.4047317675153335,-0.003236056027025973,0.00014175803612553547,-0.011675448286467075,0.9999265931823992
2025/04/01 17:52:57.956289667,1743522777,955878413,piren,-500.1160957575176,-345.18068412113,2.386356580020331,-0.00323191678254213,0.000159133560757627,-0.011572839363286194,0.9999277967830938
2025/04/01 17:52:58.140335445,1743522778,139937338,piren,-500.118518344302,-345.3725144088368,2.3646033669355133,-0.0031573922568188884,-8.571363598644805e-05,-0.011604443108520102,0.9999276775984602
2025/04/01 17:52:58.360278157,1743522778,358319162,piren,-500.1204205701265,-345.51526382764655,2.349267733179033,0.02833560639355545,-0.0006251544259449773,-0.011483810540621019,0.999532302973606
2025/04/01 17:52:58.544170133,1743522778,541183601,piren,-500.1240031539837,-345.7695545888057,2.3106281601644714,-0.003129047706314789,0.0002012119310731259,-0.011326592635515564,0.9999309360518253
2025/04/01 17:52:58.724963921,1743522778,724518562,piren,-500.12394705917166,-345.87280635457614,2.309008781307394,0.027638629574810024,0.0040060527226156864,-0.011420521299920333,0.9995447110510105
2025/04/01 17:52:58.909062654,1743522778,907753519,piren,-500.1183758439313,-346.0636152719155,2.2851299847980413,0.02837882820155772,0.0004190770822200272,-0.011074669985133376,0.9995358013443171
2025/04/01 17:52:59.97089295,1743522779,94742925,piren,-500.1187510737078,-346.1976000376361,2.2703387322309125,0.0017421751464429694,0.0009066669392106125,-0.010979250616969862,0.9999377974837786
2025/04/01 17:52:59.291368442,1743522779,285413134,piren,-500.1179066208426,-346.3094221395466,2.278371253323437,0.0016691961882593321,0.0006464454126293432,-0.010814719466479264,0.9999399170626578
2025/04/01 17:52:59.480164978,1743522779,479803419,piren,-500.11767887209385,-346.41488866584695,2.2909051395771622,0.0016380949770662607,0.0009745270169206342,-0.010646465486228768,0.9999415081466465
2025/04/01 17:52:59.664311061,1743522779,663845836,piren,-500.11710379399744,-346.51181062919846,2.3047665444000787,0.0019440492467783258,0.0013226182123216574,-0.010456886926481094,0.999942560785067
2025/04/01 17:52:59.847392753,1743522779,846823685,piren,-500.11607515882326,-346.6142853588117,2.316954621273065,0.0017084938920482427,0.0006425210186570264,-0.010274190085238503,0.9999455531344964
2025/04/01 17:53:00.32399999,1743522780,31924622,piren,-500.11647761860905,-346.6938233514693,2.324993583786058,-0.029690599042262886,0.0009564012771872032,-0.010289430492303527,0.9995057184655087
2025/04/01 17:53:00.218800636,1743522780,218370118,piren,-500.11592784668636,-346.755258513212,2.352577908454809,-0.029817523421585248,0.0009828368336345056,-0.00996570520905231,0.999505194608036
2025/04/01 17:53:00.412739355,1743522780,410526248,piren,-500.11534825970455,-346.82114156257325,2.374548619594868,-0.02969223537984159,0.0009567604488912313,-0.009723341298934166,0.9995113368049289
2025/04/01 17:53:00.606402874,1743522780,605126379,piren,-500.11479571390015,-346.90906341368174,2.3908991236545827,-0.029680053443004867,0.0005699101329860111,-0.009526738909198808,0.9995138872851226
2025/04/01 17:53:00.796802180,1743522780,795414735,piren,-500.1149731753981,-346.98796102898797,2.397114778879932,-0.003123845546978505,0.00012253825567078015,-0.009462112774471525,0.9999503462648622
2025/04/01 17:53:00.986921232,1743522780,986295458,piren,-500.11619709405744,-347.14500361785264,2.3842261382454564,-0.003145222139352113,5.667051008726928e-05,-0.00927195327943699,0.9999520664754543
2025/04/01 17:53:01.215469515,1743522781,214942910,piren,-500.1172433854557,-347.3140451579336,2.368628278017479,-0.00314173302553124,7.074465039123678e-05,-0.009159936932955732,0.9999531089327014
2025/04/01 17:53:01.406474241,1743522781,406024518,piren,-500.1180357152033,-347.5145624754323,2.352561361226472,-0.02966031540791054,0.0007126355231819799,-0.008974505129386846,0.9995194926054204
2025/04/01 17:53:01.598399026,1743522781,596975839,piren,-500.1165958166403,-347.62744080690544,2.358257792031493,-0.029644698358828943,0.0007302234320437416,-0.008841203082838799,0.9995211312228479
2025/04/01 17:53:01.784263312,1743522781,783399592,piren,-500.11517070723363,-347.6994310966674,2.365839094701511,-0.0031252565094526184,0.0007389241194306756,-0.008684894958259574,0.9999571287622585
2025/04/01 17:53:01.972679492,1743522781,972361856,piren,-500.1140330843531,-347.85520512969805,2.355796992018083,-0.00316377883219463,0.0005895721471264727,-0.008313073015762602,0.9999602670732567
2025/04/01 17:53:02.171519839,1743522782,166876582,piren,-500.1129675415107,-348.0090637576801,2.34618012448819,-0.0031045254435513206,0.0002782022788357512,-0.008075126640949198,0.9999625377257866
2025/04/01 17:53:02.352952720,1743522782,352605596,piren,-500.11232845191785,-348.1514044661969,2.3385633330187225,-0.0030556038891067874,0.0005215309434458059,-0.007842526086057624,0.9999644424052975
2025/04/01 17:53:02.536522187,1743522782,536129856,piren,-500.1110670595939,-348.29349672585573,2.332538407075738,-0.003068605168383045,0.0008995947696996673,-0.007835142812412163,0.9999641918232273
2025/04/01 17:53:02.722720042,1743522782,721313803,piren,-500.10945633195996,-348.3929615560508,2.3305162638994332,0.02827285607754717,0.0008415744440205095,-0.007530146451873077,0.9995715253327733
2025/04/01 17:53:02.915696953,1743522782,910500858,piren,-500.10811330356546,-348.5677242798645,2.3059981343123974,0.02828905225418826,0.002288628933704209,-0.007150821950828004,0.9995715869539266
2025/04/01 17:53:03.104419825,1743522783,102744899,piren,-500.10393071695086,-348.75010135947787,2.2818734985739493,0.028324669657460604,0.0038550491963442925,-0.006984970266136567,0.9995669371657262
2025/04/01 17:53:03.291748936,1743522783,291314943,piren,-500.0985073260916,-348.8663093593643,2.2698948070612612,0.0018308382775665756,0.00603062810217847,-0.006579447504148264,0.999958494351858
2025/04/01 17:53:03.477492153,1743522783,476121055,piren,-500.08888579768086,-348.9729448075515,2.2789718862160204,0.0017889998867974867,0.011063584367291627,-0.005902718640487016,0.9999197740283988
2025/04/01 17:53:03.660594181,1743522783,660240569,piren,-500.07177487042367,-349.0699196977674,2.292257642765456,0.03039239794067332,0.01577669620912341,-0.005966195460754861,0.9993957186799756
2025/04/01 17:53:03.881614663,1743522783,881208123,piren,-500.0499865140442,-349.2100696554989,2.2844312804934956,0.021930302236158897,0.01929499628805917,-0.005795317708819464,0.9995564912773707
2025/04/01 17:53:04.76652797,1743522784,75345955,piren,-500.02664344637174,-349.3266668167863,2.2828804681506347,0.01725590540461697,0.02186499492412733,-0.004086419536068548,0.9996036499038057
2025/04/01 17:53:04.265607009,1743522784,263899757,piren,-500.0027476608553,-349.42558009578215,2.28532848376252,-0.0004762882634001093,0.022874003435646228,-0.002503056763335244,0.9997351088279114
2025/04/01 17:53:04.448908713,1743522784,448616580,piren,-499.98311299775463,-349.4725176691959,2.3009732418863904,0.01295684972293872,0.023469665954858193,-0.0022526344837133488,0.9996380447257435
2025/04/01 17:53:04.633143085,1743522784,632590342,piren,-499.9727480157897,-349.50978685665405,2.304556867779129,0.003218001579256587,0.023248183670239717,-0.0022284783419200733,0.9997220615281781
2025/04/01 17:53:04.835040743,1743522784,832396368,piren,-499.96409124398116,-349.5412339499866,2.3147104807322467,-0.0009122709957127913,0.02270344763860811,-0.0009262251744909252,0.9997413982295009
2025/04/01 17:53:05.25785575,1743522785,25415946,piren,-499.9618915549151,-349.5547795550065,2.325056898067539,-0.0008129311590018378,0.021661463085695415,-0.0001681137084369208,0.9997650183406593
2025/04/01 17:53:05.211401257,1743522785,210848964,piren,-499.9652169442613,-349.56324723178477,2.3322319629892814,-0.0016010227595360962,0.020879417303350696,0.0003811041743786248,0.9997806466514564
2025/04/01 17:53:05.398128668,1743522785,397749164,piren,-499.97134661506647,-349.5637674113877,2.3354227764680826,0.02765394285498814,0.020313633115942243,0.00023883025775727374,0.9994111059590602
2025/04/01 17:53:05.584432259,1743522785,582592095,piren,-499.97995996193293,-349.6122057696846,2.31628317162662,-0.003146887283711075,0.01918809099587811,0.0016418316168156778,0.999809591198894
2025/04/01 17:53:05.787790519,1743522785,771569869,piren,-499.9884987606953,-349.5997711721887,2.319738652254745,0.015612780186438562,0.01835167577090457,0.0017778306653439874,0.9997081056035181
2025/04/01 17:53:05.970087195,1743522785,968105924,piren,-499.9971573419994,-349.60414149346434,2.310800727430594,-0.0004417258375364406,0.018661671625137582,0.0025723332997161143,0.9998224492337804
2025/04/01 17:53:06.162292705,1743522786,161906048,piren,-500.002521589846,-349.5690253887387,2.314553852694755,0.02913802094664245,0.01710368490429349,0.0025443687925055794,0.9994258181003008
2025/04/01 17:53:06.348289599,1743522786,347625378,piren,-500.0090231068028,-349.573372759956,2.2971491711139502,0.0288775142674471,0.016115679808688225,0.002513552853612166,0.999449876725236
2025/04/01 17:53:06.535773493,1743522786,533793212,piren,-500.01412917810325,-349.5724290586909,2.2828243112865496,0.028676760984662552,0.015242590586906217,0.003221652864614534,0.9994673220093033
2025/04/01 17:53:06.760669189,1743522786,760242118,piren,-500.0195749686258,-349.55772550136453,2.2704852514514378,0.005018034432497957,0.014184244898784452,0.004502478029265329,0.9998766695041352
2025/04/01 17:53:06.951381153,1743522786,951061988,piren,-500.0247645650435,-349.481365668557,2.27835021592156,-0.03004026179291168,0.01325267099833539,0.005368135397484965,0.9994464130233184
2025/04/01 17:53:07.142244490,1743522787,140214945,piren,-500.02685407714824,-349.3443879910384,2.315056045566416,-0.005035823491626067,0.012978472683146603,0.005279370166362556,0.9998891578466189
2025/04/01 17:53:07.327634026,1743522787,327209876,piren,-500.029255609871,-349.23637036776375,2.333408821453267,0.010981504673801826,0.012758733877912898,0.006098830189290149,0.9998396999195691
2025/04/01 17:53:07.513937492,1743522787,513480842,piren,-500.030253043796,-349.1642863599988,2.3341575166465627,-0.018200023986817044,0.011831864402279674,0.00677176197052472,0.9997414212442435
2025/04/01 17:53:07.706659611,1743522787,704916748,piren,-500.03176057518414,-349.04457104599845,2.3509260366383735,0.007244160708604052,0.011069020355755806,0.006942279999470926,0.9998883956084303
2025/04/01 17:53:07.905662459,1743522787,905200803,piren,-500.0335978060099,-348.9772960563095,2.345830114470111,-0.029874687513723734,0.009570756095863003,0.007685612851451959,0.9994782814192656
2025/04/01 17:53:08.95582080,1743522788,92961910,piren,-500.0370028690148,-348.8463739355336,2.362623594939705,-0.006964921378276564,0.008964179484777623,0.007860616680067689,0.99990466748674
2025/04/01 17:53:08.281692505,1743522788,280221630,piren,-500.03980215340016,-348.7820377047466,2.3604411327485573,0.0056869859512565695,0.008782010744009097,0.00793601726830496,0.999913773336481
2025/04/01 17:53:08.473164052,1743522788,468255423,piren,-500.04221334543024,-348.7137858984556,2.349020289344948,-0.002897174806745833,0.00819225746082147,0.008477108002983378,0.999926313253002
2025/04/01 17:53:08.665199787,1743522788,660925851,piren,-500.04400864002554,-348.6304452974344,2.342858695409639,-0.002773684221857966,0.008124181920028025,0.008660536445428317,0.9999256469620355
2025/04/01 17:53:08.852654386,1743522788,851990911,piren,-500.04487608488006,-348.53662415605976,2.337508354381993,-0.029770433418002326,0.007220859878781175,0.008862024338129704,0.9994913931602142
2025/04/01 17:53:09.40771130,1743522789,40183393,piren,-500.0462415261955,-348.41623999086784,2.3519337120222943,-0.003177830306668999,0.0068598656691238125,0.009116492141323398,0.9999298641447714
2025/04/01 17:53:09.228148487,1743522789,227738211,piren,-500.0474691528183,-348.31542665866857,2.3483770474888965,-0.0031407367107977057,0.005994371471083308,0.009699382685699958,0.9999300601837593
2025/04/01 17:53:09.415540493,1743522789,414036408,piren,-500.0488305974898,-348.22039614575567,2.34403906229976,-0.030648630679058073,0.0049810320333432394,0.009907618977859352,0.999468703783951
2025/04/01 17:53:09.639811318,1743522789,638335595,piren,-500.05127049431684,-348.0697597608495,2.357685960344808,0.030719771069289574,0.005491446124437483,0.009877166895965317,0.9994641470603247
2025/04/01 17:53:09.832130667,1743522789,831382789,piren,-500.0509670034202,-348.01930080398677,2.3278456979523394,-0.0007572767119895662,0.0038465542243443862,0.010205998245534188,0.9999402322901069
2025/04/01 17:53:10.36986691,1743522790,36626396,piren,-500.0524932999411,-347.91616176977743,2.3225604372210062,0.0033243739903317557,0.004973396988213805,0.010244027484700179,0.999929634404773
2025/04/01 17:53:10.243984912,1743522790,241237023,piren,-500.0511035015748,-347.80784829763064,2.317483007103657,-0.004744069101235559,0.004261003081112502,0.01039175048860853,0.9999256718291055
2025/04/01 17:53:10.432078400,1743522790,430703554,piren,-500.05021402130075,-347.678151161915,2.3207273848404797,-0.0018518924338699104,0.003639129212870166,0.01047582641386947,0.9999367901492234
2025/04/01 17:53:10.618926652,1743522790,618499046,piren,-500.04983269623006,-347.5531310764997,2.323884286730262,-0.004893447353243211,0.0028612094379889645,0.01054920478804598,0.9999282883946693
2025/04/01 17:53:10.808804423,1743522790,806382373,piren,-500.05035848780534,-347.41559485816845,2.3295068129876344,0.0004333667807087415,0.0027479156868743557,0.010602872953160347,0.9999399183139708
2025/04/01 17:53:11.6721328,1743522791,4389811,piren,-500.0505585431315,-347.3216169884128,2.33053690899715,-0.025192615275313378,0.0024450222901000935,0.01063708396246979,0.999623032170811
2025/04/01 17:53:11.202339661,1743522791,200125776,piren,-500.05089497149675,-347.15047567524226,2.3483002256085377,0.026262457040080036,0.0031049097720316707,0.010581943385177492,0.9995942503634755
2025/04/01 17:53:11.397400961,1743522791,396812142,piren,-500.0484720907626,-347.0642958727204,2.328054993346069,-0.031042153582788914,0.0016074346131052933,0.010735886951958842,0.9994591245199885
2025/04/01 17:53:11.591549666,1743522791,589969218,piren,-500.04876207067764,-346.88975674644547,2.3463931414941355,-0.025883523773247333,0.0014165384529551037,0.010700286221000768,0.9996066929001024
2025/04/01 17:53:11.801705868,1743522791,800230929,piren,-500.04878783414154,-346.72035811569714,2.361401492182456,0.0014781343922543478,-0.016823648296745666,0.010748334972133794,0.9997996065572504
2025/04/01 17:53:12.622238,1743522791,997833649,piren,-500.0783847516763,-346.60560492964004,2.3550578011167054,-0.014709275833160451,-0.016075270187502787,0.010689390313708793,0.9997054365299731
2025/04/01 17:53:12.193935390,1743522792,191559696,piren,-500.1040452181975,-346.46911073419267,2.3573192641818834,-0.010416155847238245,-0.012356402513440563,0.011394562295212875,0.9998044743670597
2025/04/01 17:53:12.417893826,1743522792,416213304,piren,-500.11584582876657,-346.3447874689619,2.3560333157266657,-0.026171176110413186,-0.011151898905975831,0.012336573152863727,0.9995191412147307
2025/04/01 17:53:12.612507101,1743522792,605480095,piren,-500.11859394030137,-346.1807408053496,2.3644283064901246,0.01892290450291034,-0.012018293968425596,0.01402310646874223,0.9996503572650933
2025/04/01 17:53:12.806963434,1743522792,800961942,piren,-500.10714221868244,-346.15808566202315,2.337747503333679,0.031284983714909974,-0.0130333479497738,0.01504383332880843,0.999312295888504
2025/04/01 17:53:12.997819002,1743522792,995764790,piren,-500.0915403446568,-346.1808894065525,2.3072880082197718,-0.023195141468893253,-0.013972984194172923,0.015591141694997108,0.9995117094989903
2025/04/01 17:53:13.194236675,1743522793,192569219,piren,-500.07439710589347,-346.0864146769457,2.3187547942629085,0.007484056831024345,-0.012960516943750614,0.01772469044705516,0.9997308884107047
2025/04/01 17:53:13.386279882,1743522793,383688205,piren,-500.04926596464384,-346.02985214533504,2.3137467786555943,0.001240104677954982,-0.010084889842681568,0.018668993599969378,0.9997740873893527
2025/04/01 17:53:13.580545025,1743522793,578473464,piren,-500.0167905206162,-345.9590016664182,2.315384218749148,0.03306524231558872,-0.007786260126990713,0.020215344930084124,0.9992183964145196
2025/04/01 17:53:13.780695833,1743522793,779902480,piren,-499.9757864024223,-345.94138764903886,2.294149106667496,-0.0012009223015336265,-0.008702308111994341,0.02140462887630139,0.9997322989089718
2025/04/01 17:53:13.972857000,1743522793,972237126,piren,-499.93717979901635,-345.87665763628087,2.3011387095499414,0.003981575585772809,-0.0100002507568832,0.0226365194483751,0.9996858156580585
2025/04/01 17:53:14.161920457,1743522794,161577906,piren,-499.8988729941595,-345.82581768096463,2.3068352801550227,-0.02238898008598629,-0.010707070252456449,0.02386267597104101,0.9994071567248353
2025/04/01 17:53:14.353321122,1743522794,351636653,piren,-499.86277830867436,-345.7357685199263,2.330611670463756,0.006194599763233283,-0.008876183470966638,0.02405615514058829,0.9996520103018927
2025/04/01 17:53:14.547191908,1743522794,545781069,piren,-499.8288686640146,-345.7099418237156,2.3314820220687924,0.0020600571671186797,-0.00667195947946627,0.02576156824159108,0.9996437278965474
2025/04/01 17:53:14.736487403,1743522794,736107490,piren,-499.7707073271395,-345.6519422482957,2.335588825556267,0.005428819521627217,-0.004565120776366974,0.028383370761674964,0.9995719443117159
2025/04/01 17:53:14.960827007,1743522794,960281423,piren,-499.72498046812865,-345.6291660014296,2.332387172167112,-0.00478218837166894,-0.004487288328152697,0.028417584573815085,0.999574627431503
2025/04/01 17:53:15.154681639,1743522795,152671404,piren,-499.6570035535682,-345.57807099020954,2.336527439032449,0.00034404058300384544,-0.005041208121430546,0.03231686806573936,0.9994649007820011
2025/04/01 17:53:15.349164492,1743522795,345796678,piren,-499.59727997433896,-345.55636847674316,2.3357934879881426,0.0019921451271989097,-0.0054222851764901435,0.030162972161992815,0.9995283013960194
2025/04/01 17:53:15.543357828,1743522795,541901994,piren,-499.55217057024055,-345.5514465363749,2.332971161398497,0.031389392628193936,-0.004355180786481172,0.03174802853554538,0.9989933939295377
2025/04/01 17:53:15.738991359,1743522795,736415057,piren,-499.4898048901909,-345.58798722392066,2.3081930702987896,-0.01021608210723225,-0.004272423397160732,0.03349957043158639,0.999377384597827
2025/04/01 17:53:15.929305273,1743522795,927860951,piren,-499.42473455545104,-345.5475154846793,2.3156533196047064,0.034732532653513865,-0.001283341069437762,0.03438968451255589,0.9988039616512837
2025/04/01 17:53:16.123186222,1743522796,122590229,piren,-499.35222749889,-345.57304119476066,2.2927528364716636,-0.012558275080904928,-0.002281558457903277,0.035109280295902615,0.9993019677030059
2025/04/01 17:53:16.314062738,1743522796,313496099,piren,-499.2783810416296,-345.51590714802495,2.3069540180500843,0.0053476934149337685,-0.0017934871522851301,0.036071016923954854,0.9993333114216929
2025/04/01 17:53:16.511954985,1743522796,508368698,piren,-499.201136964648,-345.4891764107396,2.311427357646818,0.034869046902710484,-0.0009200371175882585,0.036882072843113886,0.9987106767240421
2025/04/01 17:53:16.712721503,1743522796,711889178,piren,-499.1392924168518,-345.52322412674494,2.2925377293889366,0.03430677833525056,-0.0021199177826343694,0.037428327649647535,0.9987080009683519
2025/04/01 17:53:16.913079342,1743522796,911890002,piren,-499.03746130554606,-345.54830623117664,2.274417372995554,-0.024305313677109086,-0.003737562628340828,0.03869980786430306,0.9989482505234807
2025/04/01 17:53:17.107752772,1743522797,104455674,piren,-498.9573036946748,-345.4672859839652,2.3032071731762955,-0.0008418259936553683,-0.002337266537140652,0.039192440779524294,0.9992285930155693
2025/04/01 17:53:17.299730386,1743522797,297240462,piren,-498.8725873014158,-345.4208887572823,2.31771684664819,-0.02438113736408694,-0.0019425019966956966,0.04011775389947789,0.998895566437697
2025/04/01 17:53:17.491810664,1743522797,489361788,piren,-498.80490548095503,-345.3476901550317,2.343210055278223,-0.02771195165245945,-0.001338312462381145,0.04079574898583658,0.9987822402906699
2025/04/01 17:53:17.721970699,1743522797,721557537,piren,-498.71403490376525,-345.27455819375297,2.36788471399557,0.010338121211813338,-0.001283130681586174,0.04234457010453057,0.9990487546702245
2025/04/01 17:53:17.917979048,1743522797,916668392,piren,-498.5880029939708,-345.2724545476339,2.3643876782440483,0.00678646798342832,-0.0020998548782492003,0.04422225740704461,0.9989964596592049
2025/04/01 17:53:18.111478749,1743522798,111171792,piren,-498.4863282813244,-345.2981793113657,2.351916400667266,-0.01259520686729072,-0.0029227388173804747,0.045904045174538985,0.9988621711719738
2025/04/01 17:53:18.305259165,1743522798,304760000,piren,-498.40684170025474,-345.2927126255999,2.3520302692724067,-0.003004196743435312,-0.0021621600325465147,0.04820256982310777,0.9988307224592007
2025/04/01 17:53:18.496148612,1743522798,495283593,piren,-498.2970393003189,-345.2979948124678,2.34577968857534,0.025894432811872668,0.00045072481840092716,0.05137646056549698,0.9983434952441226
2025/04/01 17:53:18.694178017,1743522798,693861840,piren,-498.181131522742,-345.3463759285909,2.3188422428313378,-0.023556793349741468,-0.0013218234426280943,0.05360954232394292,0.9982831999195827
2025/04/01 17:53:18.899421171,1743522798,898704900,piren,-498.0654474311258,-345.3061432256718,2.329412260386743,-0.027782765611864386,-0.001420098331440477,0.05725575879618006,0.9979718830409797
2025/04/01 17:53:19.99002366,1743522799,97718323,piren,-497.92279800735184,-345.247592953152,2.347644965281807,0.001955387435068006,-0.0009480168655510925,0.061697419446903365,0.9980925338652696
2025/04/01 17:53:19.288150956,1743522799,286810640,piren,-497.82849129393566,-345.25762127524297,2.3427796754970243,0.00640289669694532,-0.0004175127025726389,0.06442645443710651,0.9979018291223315
2025/04/01 17:53:19.478797639,1743522799,478272233,piren,-497.7017309285203,-345.27253926159995,2.334760452512219,-0.013899810452691237,-0.0015371149805329801,0.07067316094356912,0.9974014923134817
2025/04/01 17:53:19.673738217,1743522799,672089443,piren,-497.5802623662116,-345.25067737158946,2.3408791921227663,0.03127038363196683,0.0018615578406637869,0.07427171191799235,0.9967459107107921
2025/04/01 17:53:19.871636241,1743522799,870123796,piren,-497.44392891789585,-345.2992367023904,2.3141261913232682,0.023716057304073956,0.002571029572522829,0.07948644915702353,0.9965504717942263
2025/04/01 17:53:20.71126638,1743522800,67723823,piren,-497.3032408808321,-345.33032786468897,2.294785975750125,0.01778190995526464,0.0015690843502047895,0.07985741968591792,0.9966464439176774
2025/04/01 17:53:20.297766108,1743522800,294551607,piren,-497.1745070788465,-345.34264852209344,2.285191915946161,-0.012762416750787342,-0.0023275844915170516,0.09118740313692868,0.9957492458336373
2025/04/01 17:53:20.486547816,1743522800,485557642,piren,-497.049270556073,-345.2959629170447,2.301955765232962,0.027783507571868524,0.002397552462449449,0.09680764155885992,0.994912362464657
2025/04/01 17:53:20.689706735,1743522800,688875969,piren,-496.9134888202304,-345.31197154450217,2.2915625533425175,0.01481879204574134,0.0032203336273103817,0.09908717725068678,0.9949631973887904
2025/04/01 17:53:20.883076034,1743522800,882161437,piren,-496.7743205071964,-345.3049563606841,2.2916142750057236,-0.02400083384020931,-0.002895538344817264,0.10471484633759592,0.9942084171787936
