time,header_stamp_secs,header_stamp_nsecs,header_frame_id,twist_linear_x,twist_linear_y,twist_linear_z,twist_angular_x,twist_angular_y,twist_angular_z
2025/04/01 17:52:24.49443793,1743522743,821687916,piren,0.007880072492666024,0.07218536907528193,0.047524759775244826,0.0006992410593068172,0.010292172761358706,0.00017275872438500566
2025/04/01 17:52:24.553241076,1743522744,521897561,piren,-0.004768795841072241,0.1308638831978613,0.06339555000087609,0.00042558595217354127,0.026668689849703348,0.0006672608533549634
2025/04/01 17:52:24.906199638,1743522744,858676107,piren,-0.0056950231332941,0.09421685928639457,0.036607567925973285,0.0011912120091539932,-0.023721125751920643,0.0010270916120381731
2025/04/01 17:52:25.120121172,1743522745,106395597,piren,-0.01335513856248656,-0.08527302210483878,-0.02513497999598796,-0.0006574387338515857,0.006809251928066524,0.0013973825796342503
2025/04/01 17:52:25.386261916,1743522745,368116334,piren,-0.01328440564670819,-0.0838322118109624,-0.029619251742910403,0.0004494539148211672,0.026053660859499346,0.0
2025/04/01 17:52:25.631423380,1743522745,624285112,piren,-0.00846186590448004,-0.15773194696694323,-0.05449928387330363,-0.001154050015922334,0.02321861059295097,0.00915739173786076
2025/04/01 17:52:25.861222527,1743522745,853561467,piren,-0.005761305813649252,-0.24732999657477772,-0.10027381197015299,0.0009863955842206622,-0.028150360750009422,0.0016549776607328913
2025/04/01 17:52:26.60802027,1743522746,50731833,piren,0.002478818568966408,-0.1852705722002741,-0.0646992356573794,0.0011769039683939774,-0.015434690793053962,0.0020865462417881085
2025/04/01 17:52:26.239462609,1743522746,231768920,piren,0.0012570033535688225,-0.12197639325290827,-0.031612297216093266,0.0010271681019888628,0.007034106895199847,0.0019085351383764837
2025/04/01 17:52:26.419803664,1743522746,412507851,piren,0.004080749770569567,-0.05840444410993957,-0.005950804393854432,0.0008845401101586809,0.016974394991941696,0.0016147441609977286
2025/04/01 17:52:26.590478767,1743522746,585713148,piren,0.0167735083973648,0.021043705520313927,0.024761142493964976,-7.197180230028264e-05,0.012523811794205886,0.0014130706472146616
2025/04/01 17:52:26.764399813,1743522746,760675884,piren,0.02432465920989528,0.1730193943840521,0.07744081382364032,-0.0009850151017321753,0.0023290152940928436,0.001282112593520014
2025/04/01 17:52:26.937530986,1743522746,932397321,piren,0.024770476013358276,0.128549241592672,0.055552364829699524,0.0006204890033030308,-0.009905164926695501,0.0008479218423533562
2025/04/01 17:52:27.111605631,1743522747,106855631,piren,0.016635508077126403,0.059372803083858845,0.032156026616051527,0.00043530509040811863,-0.009210371573049832,0.0018061258422279302
2025/04/01 17:52:27.293834740,1743522747,281334274,piren,0.001426473121323972,0.1328999579124747,0.04968197467111561,-0.0008546176752851521,-0.0007414608726873893,0.0011075757736968177
2025/04/01 17:52:27.473087210,1743522747,468035918,piren,-0.008346395245129604,-0.023686434262015395,-0.009897341841414439,-0.00039412093728056504,0.005629759523970995,0.0007858146179833756
2025/04/01 17:52:27.644780388,1743522747,641372467,piren,-0.011887623143109934,-0.03527736605014558,-0.014253071796026829,0.0002991018930482357,0.00893730454300133,0.0005156221105272688
2025/04/01 17:52:27.818595283,1743522747,813574927,piren,-0.014559770781245162,-0.041063042586784136,-0.01899794232316024,0.00036011168405409075,0.005528465099324157,0.0003428771783474145
2025/04/01 17:52:27.998400119,1743522747,991755272,piren,-0.008102042452523758,0.020828935413851443,0.005493948362303723,0.00017886488770588117,-0.0036743967820579066,0.0003415772647152681
2025/04/01 17:52:28.191926290,1743522748,187466002,piren,-0.0034694871826069897,-0.12286533050482466,-0.05444645148631849,0.0016447785471188968,-0.008525630316607202,0.00018963056059862577
2025/04/01 17:52:28.372444363,1743522748,369489701,piren,-0.0010156300815961168,-0.1036531921960252,-0.04397715360288388,-0.0014041478490548138,-0.007739502932509226,0.00021894487082950675
2025/04/01 17:52:28.587275350,1743522748,579807740,piren,-0.001756443281046041,-0.04466403299043942,-0.014387287747719217,-5.0438475645464523e-05,-0.0007820088373887918,0.00015770689829374004
2025/04/01 17:52:28.776411390,1743522748,759852256,piren,0.003211199134344768,-0.016765586230671828,-0.0016434961337378924,-0.0012332585068900127,0.003742023840704097,-1.398104651195419e-05
2025/04/01 17:52:28.973054339,1743522748,964872860,piren,0.006372221375586167,0.025374732340707338,0.014251012828421134,0.0017883565900193642,0.005117283754961662,-5.776821381200026e-05
2025/04/01 17:52:29.150511907,1743522749,143914102,piren,0.006684308139710446,0.015852650552871304,0.007587895582674011,-0.00040420827644054925,0.003253823414010302,-5.573172735120487e-05
2025/04/01 17:52:29.320367166,1743522749,316907282,piren,0.005571090877226118,0.04382442561548165,0.016679082483765623,-0.0004896191546541078,0.0007842930764555832,-0.00019166049094957837
2025/04/01 17:52:29.495741307,1743522749,489289567,piren,0.002245705712061118,0.05727247314610429,0.02365519959306908,0.0012601591532453676,-0.002551205663306331,-0.00029341218078498356
2025/04/01 17:52:29.677117851,1743522749,663698439,piren,-0.0005448127589166207,0.15650859186789529,0.05748501998310917,-0.0005376348751663687,-0.0032572805160912674,-0.00042369049129194094
2025/04/01 17:52:29.856023603,1743522749,840274742,piren,-0.004118819142030292,0.09708736268329998,0.027212925926352362,-0.0013295537164633754,-0.0008226569631446991,-0.00035343748509199485
2025/04/01 17:52:30.22395746,1743522750,17983045,piren,-0.00820686395725672,-0.06889299360351153,-0.032789008722513516,0.0001322692752968057,0.0023223539099191523,-0.0007773736055090264
2025/04/01 17:52:30.200838260,1743522750,195949923,piren,-0.013536197682677758,-0.17623784943405055,-0.08772826245023123,-0.000813723611025715,0.006377908206578003,-0.0006154604574622344
2025/04/01 17:52:30.376461317,1743522750,371402205,piren,-0.012849130806693785,-0.08826667105459664,-0.0473716324690256,-0.0007049994350088297,0.004045484176228882,-0.0007602163597852938
2025/04/01 17:52:30.548211161,1743522750,543089191,piren,-0.004123706359389824,-0.01405511472710768,-0.013663450682690863,0.002678517385846285,-0.005153501684265,-0.0005628768734617358
2025/04/01 17:52:30.718338782,1743522750,714525389,piren,0.006820725919184774,0.10970783627311408,0.04723501379843334,0.0014859838799727734,-0.010151823693384668,-0.001320313675488072
2025/04/01 17:52:30.891968121,1743522750,885738637,piren,0.008428958466074419,0.1934184759760427,0.06745063850536817,-0.0018210328172332572,-0.00658379605616411,-0.0009481244136024765
2025/04/01 17:52:31.101712059,1743522751,95359539,piren,0.0045064357587427445,0.03947403133677286,0.01215656668352975,-0.0002782098384646871,0.0002495209727274449,-0.0009847593273263411
2025/04/01 17:52:31.275893816,1743522751,271558886,piren,0.0011115544759012184,-0.08828475449213607,-0.04057166091397939,-0.00034348383645493185,0.012000786989998293,-0.0006658915364049101
2025/04/01 17:52:31.452751411,1743522751,449067366,piren,-0.008904782587818783,-0.04536681513979402,-0.02373127393383278,-0.001206156726864183,0.013729408526258894,-0.0007622700818728112
2025/04/01 17:52:31.624661431,1743522751,621929369,piren,-0.005851665014807866,3.838697745559553e-05,-0.006230051700698411,0.0001665240626364263,0.003344959703510264,-0.0016684942467745398
2025/04/01 17:52:31.797331056,1743522751,793883015,piren,0.0021574716878248424,-0.10320688418214774,-0.05370408374324163,0.0011787848182886777,-0.011479168669634785,-0.0010085371461739533
2025/04/01 17:52:31.973287283,1743522751,966690777,piren,0.0046005170084289235,-0.04928462267974248,-0.027717639567704774,9.280718797415663e-05,-0.015848738333046418,-0.001039520388352415
2025/04/01 17:52:32.142655437,1743522752,140278064,piren,0.003659454609522052,0.007974378918529909,0.0021145082791827483,0.0006261539761744709,-0.009515364147740419,-0.0007542282580810442
2025/04/01 17:52:32.332844923,1743522752,317857944,piren,0.004641177800684866,0.03814830566690194,0.01823909584726027,0.0010969947345880094,9.639814427425161e-05,-0.0006616731365857878
2025/04/01 17:52:32.508677232,1743522752,502406929,piren,0.0015689660578262511,0.04808204860118973,0.022156957866293993,-0.00023251342717008845,0.012580410623395247,-0.000886372122326821
2025/04/01 17:52:32.687346923,1743522752,682680108,piren,-0.00043712479460867194,0.06735203328363523,0.025294108738006308,4.518685953751232e-05,0.014310177639455213,-0.0008887304475127225
2025/04/01 17:52:32.860344373,1743522752,856880731,piren,0.00010450333150927511,0.06689156907224653,0.02544403393197804,-0.0009816029056604308,0.007764437652658062,-0.0008375789523424519
2025/04/01 17:52:33.32722328,1743522753,28745884,piren,0.00032973823428430863,0.19707770798219743,0.06126428810731152,0.0008472613365873164,-0.004980917242634728,-0.0005940152175620022
2025/04/01 17:52:33.209653847,1743522753,203002712,piren,-0.0002805928377069854,0.08080558137869771,0.02446670562171586,0.0005031091779086542,-0.011216514610999028,-0.0011164693074969694
2025/04/01 17:52:33.385450076,1743522753,380130000,piren,-0.0030491931603900233,0.14195332232405128,0.05532698349387262,3.425600847692102e-05,-0.007925609261705551,-0.0009160744695042126
2025/04/01 17:52:33.569081251,1743522753,555437643,piren,-0.012292309441638102,0.16333872989768816,0.05347936741166146,-0.00016469987156739484,0.0001393694438633381,-0.000884187829725472
2025/04/01 17:52:33.773721319,1743522753,766190001,piren,-0.012767271914757168,-0.001269391710724703,-0.005590334798302971,-0.000396274335070037,0.00671253643348467,-0.0005950717438098319
2025/04/01 17:52:33.986898638,1743522753,983318131,piren,-0.012662417461995104,-0.15971495382728423,-0.07408796807872015,-0.000761248319372212,0.010412947887597494,-0.000651975233378098
2025/04/01 17:52:34.166196639,1743522754,160990147,piren,-0.00993959117868938,-0.1178575994315647,-0.053412005480326666,-0.0010286848516363942,0.0018577880684290183,-0.00043209495787043775
2025/04/01 17:52:34.344760148,1743522754,337988811,piren,-0.001846070334147922,-0.07063664867062154,-0.03154176625441342,-0.0011415375505347673,0.02268070537686772,-0.0006892522168036541
2025/04/01 17:52:34.528727414,1743522754,520721043,piren,-0.052344442277754775,-0.028189976785985556,-0.011111450888090048,-0.0012360192821474437,0.03167208395985456,-0.0021565238209180016
2025/04/01 17:52:34.704192997,1743522754,701275212,piren,-0.0703981884217335,-0.11511421303092886,-0.04458894984146763,-0.0009545333097968477,0.018017416512531293,-0.0014612479785438934
2025/04/01 17:52:34.881895417,1743522754,878138813,piren,-0.06554061118984501,-0.1692305179716831,-0.06007956692172695,-0.0006525665408235376,-0.011597522957828593,-0.0016319939511039317
2025/04/01 17:52:35.58401317,1743522755,55321879,piren,-0.052743845685066224,-0.20503602200647106,-0.0692306211725586,0.0011186110757394623,-0.028723655377119444,-0.0019913305906710224
2025/04/01 17:52:35.235778828,1743522755,230430216,piren,-0.036139368619077544,-0.1431299317447905,-0.013881379194121121,0.001077629118829753,-0.02857380653216806,-0.001324797311689083
2025/04/01 17:52:35.429181695,1743522755,411765190,piren,-0.025509806887135274,-0.12138926859906031,0.01552529239580931,0.0010374325272475987,-0.012074216061846003,-0.002894167956154196
2025/04/01 17:52:35.597912704,1743522755,591425697,piren,-0.015437683161334332,-0.010442887720663504,0.08796366580878448,0.0006831833750400781,0.015756736872637,-0.0018660282174471255
2025/04/01 17:52:35.773353207,1743522755,770561649,piren,-0.00375316949535861,0.043704908282502675,0.1200344067684791,-0.001062931511118079,0.0265069324299169,-0.0021050436978916755
2025/04/01 17:52:35.957410814,1743522755,953940277,piren,0.009628558740777804,-0.0679306558522555,0.08259047790066806,-0.0010911695319983624,0.0190825622238863,-0.0013559136194047118
2025/04/01 17:52:36.133770294,1743522756,130510111,piren,0.02367886670688697,-0.1782391489129976,0.044947960595935456,-0.0008890105865791384,-0.005019259960564063,-0.001210020664151699
2025/04/01 17:52:36.316906157,1743522756,312184236,piren,0.030101990102461583,-0.27131036053040497,0.03267868894923155,-0.00083831292584717,-0.021256175815472855,-0.0026173147996355977
2025/04/01 17:52:36.529634402,1743522756,524992926,piren,0.029411313263567176,-0.4794228460172235,-0.02902821048605956,-0.0005855965529281322,-0.026506560624409484,-0.002168585680897583
2025/04/01 17:52:36.706093814,1743522756,702064766,piren,0.021004895477065487,-0.6110564297070318,-0.05993162708045877,-0.000566454475376225,-0.009342931866794356,-0.0021117898404952587
2025/04/01 17:52:36.886465417,1743522756,878732694,piren,0.012571788458824826,-0.6628436504086787,-0.06622204509818236,-0.0007699700251732405,0.013799791094422998,-0.0020505919682902735
2025/04/01 17:52:37.65304553,1743522757,60023346,piren,0.010294089872745271,-0.6574260802767337,-0.09397719424482667,0.0006758165882858566,0.022339239179618324,-0.0022577945463897386
2025/04/01 17:52:37.252807588,1743522757,244100485,piren,0.014544136854284065,-0.5219828711735165,-0.03136875152505605,0.0005366951918763704,0.014372396860603648,-0.001953003618752501
2025/04/01 17:52:37.433350368,1743522757,430135879,piren,0.020362135519625214,-0.4255742394463408,-0.012989295273389972,0.0006379695004106982,-0.0014135424922423882,-0.0034791313507897973
2025/04/01 17:52:37.622296806,1743522757,612485804,piren,0.025183829093728304,-0.2676016562026072,0.06862230008862914,0.000722961575432285,-0.020085364795135282,-0.002661837470661821
2025/04/01 17:52:37.797489715,1743522757,792269078,piren,0.025592135922610365,-0.2181924380953965,0.1044443047380837,0.0009424849319612544,-0.021689117656916446,-0.0029269463123384205
2025/04/01 17:52:37.978501200,1743522757,972242836,piren,0.016365999436553286,-0.22291921361536987,0.12304539146757046,-0.0006290980064434026,-0.010218986118018924,-0.0025024516080492396
2025/04/01 17:52:38.164018615,1743522758,160037828,piren,0.010274214009810044,-0.3803947659867212,0.06807304217256131,-0.0006819588360570031,0.009945803393217361,-0.0017112608687890594
2025/04/01 17:52:38.343116082,1743522758,339773433,piren,0.004223114113445159,-0.5045990012421426,0.022074313712155996,-0.0008028146086440699,0.020776390518615913,-0.0015373023693850772
2025/04/01 17:52:38.522993443,1743522758,517321061,piren,0.006424331763096425,-0.5842526643035664,0.026266496025386107,-0.001005909199703126,0.015847992020150664,-0.002788376067318292
2025/04/01 17:52:38.711347816,1743522758,697219364,piren,0.012531594313045454,-0.750329627220763,-0.035761844558983964,-0.0010103135927441882,-0.0025776141974655793,-0.0019338042195743263
2025/04/01 17:52:38.885963277,1743522758,878234433,piren,0.017319316540999254,-0.8408155913328333,-0.11212464818950596,0.0006360520361417168,-0.016047367130827002,-0.0020028308349672075
2025/04/01 17:52:39.62305816,1743522759,58687731,piren,0.019495413470746466,-0.7726879330148289,-0.07271060398436797,0.0007490958420786669,-0.021010562593327536,-0.001496108347958681
2025/04/01 17:52:39.276362005,1743522759,273863890,piren,0.01644492479710505,-0.7155783391750754,-0.03583231525157601,0.0008427532668987902,-0.00872004170026563,-0.0014181333255250425
2025/04/01 17:52:39.454809572,1743522759,448992609,piren,0.012323666360268139,-0.6637800601185893,-0.006150549411153639,0.0008492945033313117,0.009643824335395127,-0.0022654906230838625
2025/04/01 17:52:39.637820549,1743522759,624317429,piren,0.009911418329661463,-0.6212248590397157,-0.02505534422818039,0.000959369148874034,0.017493485696477334,-0.001435517857737165
2025/04/01 17:52:39.807529248,1743522759,800569367,piren,0.011431086832518743,-0.47919469079943405,0.04010725270271321,0.0008510011110314776,0.013325211060309454,-0.001977942269231304
2025/04/01 17:52:39.994782126,1743522759,986467468,piren,0.015284993649383037,-0.4018911546421718,0.09402085011731628,-0.000826367717455076,0.001802861508225878,-0.0019290865651739617
2025/04/01 17:52:40.177654710,1743522760,171580388,piren,0.01647230168194439,-0.4993088893735023,0.05765116920508014,-0.0008821311221627481,-0.013676521516390032,-0.0015045128564539205
2025/04/01 17:52:40.362433046,1743522760,358850438,piren,0.014767934553131017,-0.594140854971138,0.024132973878145343,-0.0008248498883127207,-0.016914110534637743,-0.0014420998921047213
2025/04/01 17:52:40.542760583,1743522760,537940252,piren,0.010443386378654336,-0.6740375055093706,-0.0019631894574625667,-0.0007038722442656754,-0.005863110433480364,-0.0028704155216477396
2025/04/01 17:52:40.734051573,1743522760,717362663,piren,0.005561169164075888,-0.7291707646456227,0.02669887852358728,-0.0007829287905737808,0.0057596591130116,-0.0030756086797614035
2025/04/01 17:52:40.923255253,1743522760,917204320,piren,0.004108052804428051,-0.869331891869901,-0.02553230883207981,-0.0007337922333923232,0.014774218593636153,-0.001959010788337527
2025/04/01 17:52:41.113146684,1743522761,107703059,piren,0.006677468894259961,-0.9245873102637344,-0.04882877170651343,-0.0007619640521116037,0.010154047998659094,-0.0018925380094956042
2025/04/01 17:52:41.291535196,1743522761,286470237,piren,0.011186801283311006,-0.9270605766274169,-0.10309957921298331,0.0007375026330168342,0.00019458640392073877,-0.0018864038350168706
2025/04/01 17:52:41.468722260,1743522761,463829189,piren,0.014835975501323703,-0.7972099006082227,-0.04502049595185658,0.0006094895065789745,-0.01210499856474894,-0.001449627527075589
2025/04/01 17:52:41.647038459,1743522761,641832884,piren,0.014720874078461527,-0.7110480996644579,-0.0005673495108458972,0.0005571295834475062,-0.013909100661855642,-0.0014979133185354639
2025/04/01 17:52:41.863806849,1743522761,858623525,piren,0.012545088390679231,-0.6577709247034793,-0.013083678480898683,0.0007325276268538831,-0.00725706643352632,-0.0026875482265342177
2025/04/01 17:52:42.39649275,1743522762,36033342,piren,0.008231416884112379,-0.5168949817976756,0.08682035822177236,0.0007600321497795747,0.008664217727473932,-0.0018658343148454997
2025/04/01 17:52:42.218328208,1743522762,214112798,piren,0.005978949870570027,-0.5654281502056727,0.032859969904809654,0.0009888825990537113,0.01314098467765438,-0.002619922630291161
2025/04/01 17:52:42.396060045,1743522762,392964420,piren,0.006726080025527867,-0.49960550741694193,0.060234686415350486,0.0010406673977661077,0.008710309130246527,-0.001907202357270565
2025/04/01 17:52:42.574306735,1743522762,570384765,piren,0.008326426098194574,-0.47798670770718266,0.09098635106489365,-0.0006044866843266755,6.366912262021485e-05,-0.0018473165174592928
2025/04/01 17:52:42.751636934,1743522762,748085117,piren,0.009182751236044853,-0.6103190801907262,0.039707409926957635,-0.0007444591875505522,-0.010427269024238567,-0.0014457214499763976
2025/04/01 17:52:42.940979844,1743522762,930127979,piren,0.00821264557198487,-0.7100073687208388,0.04600858932584988,-0.0010073674291870209,-0.01233333503108851,-0.0013323890982084496
2025/04/01 17:52:43.130413588,1743522763,125864273,piren,0.0060127166823166316,-0.9000999108855594,-0.020245818831617655,-0.0010400843933059034,-0.0055364048942737505,-0.0018457720418478597
2025/04/01 17:52:43.314096932,1743522763,308673743,piren,0.002930332389736525,-0.9974392582166355,-0.05295846340643121,-0.0009655104454374922,0.005451629877547194,-0.0019608139577524703
2025/04/01 17:52:43.491720219,1743522763,488115410,piren,0.003015548230912308,-1.01174326083006,-0.05891247328025392,-0.0008244371848559843,0.010757740647545647,-0.001859635245218108
2025/04/01 17:52:43.670934314,1743522763,665268901,piren,0.0056458555828816336,-0.9788679638743525,-0.10145966034610954,0.0008280474838061301,0.008341473539403593,-0.0018438272134545775
2025/04/01 17:52:43.848290698,1743522763,843899097,piren,0.009118979026936187,-0.8322412873400794,-0.03788279028881531,0.0009054535940765358,-0.0014918174028751314,-0.0011029928046623254
2025/04/01 17:52:44.28556347,1743522764,23919537,piren,0.010943189436060862,-0.7228585362726629,-0.03559818859150624,0.0010229806552368944,-0.007590516689748272,-0.0009368215182349646
2025/04/01 17:52:44.211057058,1743522764,205090867,piren,0.011738249075481037,-0.547816501486066,0.05038787040959282,0.0008943212720073893,-0.009204107978225537,-0.001325351139335191
2025/04/01 17:52:44.391355167,1743522764,387700870,piren,0.009980350970461533,-0.45504185817533244,0.1180316411816696,-0.0008501130556591097,-0.005093175347466274,-0.0010812285934098855
2025/04/01 17:52:44.603102596,1743522764,598107214,piren,0.005841318894252659,-0.5445788059338987,0.08459507606008798,-0.0009472989807367422,0.00434521266654232,-0.0007745278913963968
2025/04/01 17:52:44.779840491,1743522764,776564849,piren,0.0035655927466039117,-0.6284273614942896,0.04860298905687132,-0.0008864739941881412,0.00950028927438905,-0.0007640808419791949
2025/04/01 17:52:44.968832940,1743522764,956838741,piren,0.004287423919990886,-0.6957119964351033,0.016960468610560102,-0.0007125247613154104,0.006246166352444183,-0.0007918097842347494
2025/04/01 17:52:45.145029026,1743522765,137039261,piren,0.006260585190737782,-0.7464721828013927,-0.006682501515601663,-0.0005471731610636494,-0.0023567803720171434,-0.0008207602989041594
2025/04/01 17:52:45.330113587,1743522765,326622843,piren,0.008013307465399484,-0.7852344629887699,0.027505453750511017,-0.0006527720085114458,-0.008521942929792026,-0.0014427473604514346
2025/04/01 17:52:45.514494957,1743522765,509344976,piren,0.008460917499933938,-0.9241175546414719,-0.023376426712582332,-0.0006988769939790371,-0.008464086743452125,-0.0005470223866301519
2025/04/01 17:52:45.694487188,1743522765,691520773,piren,0.0062676175989906414,-0.9908073069352974,-0.04539831822409682,-0.000841925319471043,-0.0013255891072738192,-0.0006863362663905801
2025/04/01 17:52:45.877666412,1743522765,873073722,piren,0.00483671108135806,-0.9992351714478159,-0.10229620328945215,0.0006244780447021954,0.0047192041358231525,-0.0008375621169733832
2025/04/01 17:52:46.65919004,1743522766,54679208,piren,0.006551524368299743,-0.8624482739407188,-0.04384197183444672,0.00052750380741067,0.007868068541200358,-0.0007147930594397158
2025/04/01 17:52:46.246549031,1743522766,242592296,piren,0.009174300530355683,-0.7557083292468837,-0.04840047719663334,0.000685483135013828,0.0052017026771197265,-0.0007304465328439449
2025/04/01 17:52:46.429495222,1743522766,426192616,piren,0.011728184157746874,-0.5744006754086937,0.036564302120564274,0.0008036165113413417,-0.0019596658205998595,-0.0010634457542138803
2025/04/01 17:52:46.610159387,1743522766,606561850,piren,0.012777928642254575,-0.4901216557142452,0.07788590245477366,0.0009498798342494653,-0.00710668213075245,-0.0011408502477710293
2025/04/01 17:52:46.794012339,1743522766,787184192,piren,0.01109853101805363,-0.47962772545806376,0.08442665851684403,0.0010486089329353435,-0.005733527720594298,-0.0012530971259350472
2025/04/01 17:52:46.977131828,1743522766,972140635,piren,0.007603066189048442,-0.5006813983489369,0.09949022447962777,-0.0005570195706406157,-0.0010961099485970005,-0.0013262469818043972
2025/04/01 17:52:47.159847899,1743522767,156067144,piren,0.004049691232213944,-0.6574776854566367,0.03769093358932195,-0.0006695708056632214,0.005175726011403498,-0.001116207836450115
2025/04/01 17:52:47.373089352,1743522767,369604865,piren,0.002400456903078347,-0.763537495101359,0.04104514416519152,-0.0009251898438126117,0.0067764728816083405,-0.0010415758601742262
2025/04/01 17:52:47.550840376,1743522767,548002993,piren,0.004309357438060277,-0.9414554374434025,-0.08797156128520146,-0.0009075266216911331,0.0019959997826780396,-0.0013920934201961483
2025/04/01 17:52:47.729635820,1743522767,725745844,piren,0.00635058263624568,-0.9215738801734775,-0.07739928101299434,-0.0008320892722099461,-0.004307083615438308,-0.0011969318374013198
2025/04/01 17:52:47.917958381,1743522767,905124152,piren,0.008209986723424193,-0.8833961611221506,-0.00357926891599461,-0.0008522078227370627,-0.006907608279904007,-0.0021326090596564193
2025/04/01 17:52:48.98134404,1743522768,93536321,piren,0.008984842564924145,-0.9586266964822642,-0.03131914623686543,-0.0007160114674715402,-0.004967733095204095,-0.0014606345499203076
2025/04/01 17:52:48.279032966,1743522768,275527168,piren,0.007799695805397645,-0.9770016877529307,-0.09218992447618526,0.0009134052590846714,-0.0007021841955703868,-0.0014481017214431344
2025/04/01 17:52:48.459200032,1743522768,454662635,piren,0.00815613502775454,-0.8518881683899183,-0.03904616735502912,0.0008405917685042052,0.004994496079020346,-0.0010903049356694916
2025/04/01 17:52:48.638278759,1743522768,633780845,piren,0.009124317264738637,-0.7563495413309789,0.0014837515587341281,0.0006981126643305572,0.005716773829608928,-0.0010115705161490888
2025/04/01 17:52:48.819850552,1743522768,814816478,piren,0.011131839752704474,-0.690756781548754,-0.016061866619053348,0.0007674873367874933,0.0027841815503250665,-0.0021069994472484683
2025/04/01 17:52:49.937680,1743522768,996756806,piren,0.012618780798657097,-0.5381242615418056,0.05110883204461859,0.0007049621914049079,-0.0029995287717457094,-0.0016382558639520004
2025/04/01 17:52:49.188379460,1743522769,181933811,piren,0.014661995780906692,-0.4619504196738195,0.1086654887939273,-0.000906334338453313,-0.0057996865477733224,-0.0015680220005534888
2025/04/01 17:52:49.371742457,1743522769,368001081,piren,0.012244203011906065,-0.5645026676834298,0.06926868633198363,-0.0008617558991337046,-0.005062445444555352,-0.0006751345218456327
2025/04/01 17:52:49.553256605,1743522769,548261986,piren,0.007784534379941879,-0.6569111413113912,0.0321435971799087,-0.0006961236128388184,0.00153474565854022,-0.000435700295296377
2025/04/01 17:52:49.733240514,1743522769,728011113,piren,0.004675252919979963,-0.7265845117029844,0.049793581259388854,-0.0006429025342391613,0.005737287454896313,-0.0005785161620405711
2025/04/01 17:52:49.915791829,1743522769,909236644,piren,0.004312476267688933,-0.8873445492891414,-0.01200418042482257,-0.0005592772748531591,0.006409367336577331,-0.0008651709599777622
2025/04/01 17:52:50.129230378,1743522770,124945526,piren,0.006063575153991852,-0.9654951540113365,-0.04320728103619586,-0.0006673409840316609,0.001439539890114903,-0.00104045408795913
2025/04/01 17:52:50.314252896,1743522770,308555204,piren,0.008394096496911172,-0.979685829160267,-0.049646691753512884,-0.0009220995135782178,-0.004831661307124344,-0.0009908237559520209
2025/04/01 17:52:50.495913710,1743522770,491066120,piren,0.010041121262004538,-0.9615460329345045,-0.04283087526821265,-0.0012149921653595566,-0.007035232193682446,-0.0009367976414668873
2025/04/01 17:52:50.673780802,1743522770,670931307,piren,0.009923261351960332,-0.9072125620130924,-0.07259872477162484,0.0003381465315145984,-0.004683260512814077,-0.0009791914191840817
2025/04/01 17:52:50.859106615,1743522770,850194996,piren,0.010731708984691309,-0.7532698492124068,-0.0034075037870491868,0.0005668958018945685,0.0014454032000419945,-0.0008064617083137042
2025/04/01 17:52:51.68441314,1743522771,48919833,piren,0.011190799890882118,-0.6500732194266985,0.0007569762546001182,0.0009613955185792985,0.005047586548852063,-0.0007153005647621394
2025/04/01 17:52:51.262091622,1743522771,256559721,piren,0.011713756575897707,-0.47775271520844853,0.10802222176864403,0.0010961338966675694,0.005133915756948928,-0.0009535696782759505
2025/04/01 17:52:51.441914458,1743522771,438669541,piren,0.012476609126836041,-0.514036188376002,0.09225844318701114,0.0010354588654190602,0.0003500667425674,-0.0013333901391898552
2025/04/01 17:52:51.622146708,1743522771,617901843,piren,0.0126460801514784,-0.5758062097499446,0.03199607088121331,0.0009851074271639225,-0.0033227430117262315,-0.0014377843116847267
2025/04/01 17:52:51.806537476,1743522771,800410607,piren,0.011567090952097236,-0.520031532746368,0.054580152642520835,0.0006717123592505633,-0.005082006996072866,-0.0009345907895691938
2025/04/01 17:52:52.1016859,1743522771,982752342,piren,0.009439535599809413,-0.5050033032312663,0.08409899859729848,-0.0010747740257840712,-0.003368375586876849,-0.0009165338900410398
2025/04/01 17:52:52.181571523,1743522772,163706664,piren,0.007552586628067207,-0.6350162518983183,0.032709241691079825,-0.0010572315112887202,0.0011405605755562265,-0.0007208247913658253
2025/04/01 17:52:52.349027495,1743522772,344553703,piren,0.006462816066058556,-0.7285498564649423,-0.0062169533156744795,-0.0008444001424626663,0.004466491858410591,-0.0006414282951175637
2025/04/01 17:52:52.530639262,1743522772,526453075,piren,0.006888224293360851,-0.7890090828251687,0.018602436879182067,-0.0007463832441517608,0.0041399473300601005,-0.0012819091142635848
2025/04/01 17:52:52.744249570,1743522772,740404493,piren,0.009205295904733362,-0.930868852266767,-0.036648521072526426,-0.0005045451639732965,0.0006615396084090762,-0.0008985305457641064
2025/04/01 17:52:52.935723989,1743522772,921618722,piren,0.01102391910925105,-0.9869986383730756,-0.05973285089514803,-0.0004931068654030941,-0.0034531199679685206,-0.0009936128359659896
2025/04/01 17:52:53.117573844,1743522773,103638562,piren,0.011609481532026907,-0.9819457192250829,-0.058410235965356265,-0.0007414157829317555,-0.004283338877953527,-0.0010785533076470447
2025/04/01 17:52:53.294500173,1743522773,287501443,piren,0.011620093244340497,-0.9447157523556868,-0.09611737476547806,0.00059223984557601,-0.002923295136374149,0.0
2025/04/01 17:52:53.478494372,1743522773,474423891,piren,0.013190113792602568,-0.7930279984865968,-0.027237620607556877,0.00036102696270681154,0.00047885779357256027,-0.0022771028181104874
2025/04/01 17:52:53.659318211,1743522773,655055619,piren,0.014344798155787486,-0.6781300587631863,0.021500832254212503,0.00039403520098073015,0.003092902600075229,-0.0011081516958005994
2025/04/01 17:52:53.838902085,1743522773,835441474,piren,0.014375416859873959,-0.6073629249690465,0.011929824987215516,0.0007296914980401001,0.0030931193416762937,-0.0006392674511073464
2025/04/01 17:52:54.22475446,1743522774,17336961,piren,0.020001215686992178,-0.4633463409606659,0.07819121801679323,0.0010467280506959728,0.0011827328301286266,-0.000625823013883482
2025/04/01 17:52:54.225834191,1743522774,202433641,piren,0.017243019781767052,-0.40910246001117095,0.10036928071970705,0.0011820288255981976,-0.0013912938067237133,-0.000541953901879226
2025/04/01 17:52:54.397554869,1743522774,391692329,piren,0.013796570262262081,-0.4036372233664032,0.11948055435330218,-0.0004183525050120918,-0.0022091800548869923,-0.0005540936603550528
2025/04/01 17:52:54.580642860,1743522774,577083523,piren,0.009956166857746352,-0.5539440562234752,0.059605643854319816,-0.0007254061197409544,-0.0013194505900189235,-0.00037709044986109045
2025/04/01 17:52:54.766003439,1743522774,761944497,piren,0.007605547905039891,-0.6698442668995939,0.010247140691780976,-0.0009658052058442259,0.0012731483129187632,-0.00047754313584839154
2025/04/01 17:52:54.949077038,1743522774,945162128,piren,0.006302872168109205,-0.7508514647444097,-0.023391683790134662,-0.0010405258914429475,0.0023841979442115876,-0.0005281173154176124
2025/04/01 17:52:55.131782853,1743522775,128001981,piren,0.006975208412757328,-0.7950494598082128,0.0074766990025181695,-0.001070022517672885,0.0014450089355417038,-0.00048588219117566236
2025/04/01 17:52:55.326460525,1743522775,312111951,piren,0.00950635297006414,-0.9291503625627133,-0.04364153459591942,-0.0008623899955472714,-0.0006940018251952704,-0.0006277501235287825
2025/04/01 17:52:55.539574852,1743522775,535890768,piren,0.011976005710154237,-0.9723701765900877,-0.062361013839676516,-0.0006504667075987548,-0.004252857138378974,-0.0005753851072922496
2025/04/01 17:52:55.720251261,1743522775,716643791,piren,0.012487007157547183,-0.9600102099641891,-0.05827954879882595,-0.0006100656193296652,-0.0026636546706428816,0.0004965262821477921
2025/04/01 17:52:55.904441104,1743522775,898505251,piren,0.013395852551908005,-0.908223027647327,-0.04003066912690004,-0.0007010627379464099,0.00024237650361707769,0.00034490077765539487
2025/04/01 17:52:56.94986764,1743522776,88648581,piren,0.014265028758708578,-0.8442916714575744,-0.06400000890253463,0.0007410073615250459,0.00249056033525305,0.0004145885453082046
2025/04/01 17:52:56.281164109,1743522776,276681333,piren,0.01584907211379212,-0.6847197541913618,0.005858988281033086,0.0005668438518369492,0.002756218374108878,0.0003440820335600233
2025/04/01 17:52:56.471056423,1743522776,463938670,piren,0.01763465078865255,-0.5775718770340715,0.05007590190991819,0.0005070926615174859,0.0008139066232289269,0.00039178707327441995
2025/04/01 17:52:56.648131923,1743522776,644775991,piren,0.018226007430272327,-0.5269926699379369,0.07057187254074984,0.0005382019919945775,-0.0017649109330879595,0.00047466327510804036
2025/04/01 17:52:56.840388587,1743522776,837271666,piren,0.017923969420013765,-0.514309063459435,0.04347270575646574,0.0008092476199934141,-0.0028473306632858623,0.0004857647448603706
2025/04/01 17:52:57.26988084,1743522777,23269440,piren,0.022665997977802714,-0.4167568069320248,0.08678494977520723,0.0009725023726665465,-0.001928177491448297,0.0011888409271099787
2025/04/01 17:52:57.221943603,1743522777,209904018,piren,0.016461155150639114,-0.39649432924941935,0.09409391153555653,0.0010744544324896666,0.0013952045117924799,0.0013002698760374589
2025/04/01 17:52:57.413817670,1743522777,404007139,piren,0.011861666836780046,-0.42470848840859504,0.07711719715874996,0.0010134770179403218,0.003610007326117089,0.0013346554904173863
2025/04/01 17:52:57.594000168,1743522777,589518237,piren,0.009115038005650992,-0.48125678795512056,0.04793318379103452,0.0008255136125719205,0.0029808204750656044,0.0013130696149487467
2025/04/01 17:52:57.777063152,1743522777,772634626,piren,0.008468789323631869,-0.535832299720068,0.04710430778710982,-0.0008924639796974459,0.000917413535597725,0.0011314025029186862
2025/04/01 17:52:57.961565708,1743522777,955878413,piren,0.0082947440372821,-0.6972145988153339,-0.016550847012963835,-0.0009439280450587001,-0.0021819896836901063,0.0008334886911860143
2025/04/01 17:52:58.157888462,1743522778,139937338,piren,0.008973402685956356,-0.7954793086308092,-0.055658551446762815,-0.0008091048894654277,-0.0034442620983655124,0.0007338880476172703
2025/04/01 17:52:58.363060497,1743522778,358319162,piren,0.00876615430641619,-0.8378044090287874,-0.019622310527528226,-0.0007866896380243126,-0.002374392409648052,0.0014629334277138353
2025/04/01 17:52:58.545535947,1743522778,541183601,piren,0.008781338305910602,-0.9467461478832478,-0.12249235853276128,-0.00044416733446963485,0.0005018775225601414,0.0010865123686532886
2025/04/01 17:52:58.727762325,1743522778,724518562,piren,0.011937627371152854,-0.8757631839600943,-0.034330866688092335,-0.0006236639667969851,0.0010796863340110164,0.0014538592872831888
2025/04/01 17:52:58.912207175,1743522778,907753519,piren,0.0278130751084366,-0.9057589562895375,-0.04702192689881035,-0.000727237074673553,0.0009134307691473309,0.001571377354406542
2025/04/01 17:52:59.104776283,1743522779,94742925,piren,0.02399632651584095,-0.8913876039354599,-0.09447043920245442,0.0006616902044223374,-0.00019216481286055576,0.0014765726763614324
2025/04/01 17:52:59.291374558,1743522779,285413134,piren,0.02059483643740992,-0.7521345145545261,-0.03478061950091246,0.0004619222065601976,-0.0005686215346064201,0.001271834384846017
2025/04/01 17:52:59.485306009,1743522779,479803419,piren,0.016558788361471018,-0.6448556022548867,0.009621990232676469,0.0003592646239460035,-0.0013713379470000908,0.0014717362600923135
2025/04/01 17:52:59.669929986,1743522779,663845836,piren,0.014918881255144786,-0.5798066338794986,0.037319789267913836,0.0005504989878296579,-0.0009714837867184844,0.0016071821889530116
2025/04/01 17:52:59.851039015,1743522779,846823685,piren,0.015147912661497608,-0.5505020458973588,0.048499562716068145,0.0008967796067272637,0.0008444506761846321,0.0015576951181498816
2025/04/01 17:53:00.38330765,1743522780,31924622,piren,0.012774804582537847,-0.5428298632653011,0.016503372370391033,0.0012395277147011184,0.0016063026149901185,0.0015217143179453083
2025/04/01 17:53:00.231883252,1743522780,218370118,piren,0.010586456547423878,-0.4335825916433132,0.06193341346294984,0.0011969932801260438,0.0013999531481653298,0.0022257440531184046
2025/04/01 17:53:00.418137250,1743522780,410526248,piren,0.010071482808297515,-0.39937653432457254,0.07588462658124584,0.0010074146887290051,7.363431578817974e-05,0.002466931528539447
2025/04/01 17:53:00.610252168,1743522780,605126379,piren,0.010369847532378074,-0.414582600171807,0.06597947389971119,0.000746224812714625,-0.0005993884910087106,0.0021408449169723017
2025/04/01 17:53:00.799947844,1743522780,795414735,piren,0.009761929146305404,-0.44713532489363744,0.07081591978117151,-0.0010618644852411793,-0.0003237239510119124,0.0020428290652673388
2025/04/01 17:53:00.994303499,1743522780,986295458,piren,0.009236282940648028,-0.6041384952575426,0.0095834446089848,-0.0011242680593202077,0.0005784040306304985,0.0015879229324251396
2025/04/01 17:53:01.221519447,1743522781,214942910,piren,0.009575975429113898,-0.7084029708410958,-0.031741978137113346,-0.0009064045897442966,0.0011282183001186255,0.0014694671058109391
2025/04/01 17:53:01.410706547,1743522781,406024518,piren,0.010434703840003142,-0.755541878177488,-0.09280045220878248,0.0011226834380755424,0.00011754434108787288,0.001406289127473922
2025/04/01 17:53:01.602404119,1743522781,596975839,piren,0.012937427164355492,-0.6748730242986413,-0.05720645917332985,0.0013074632549052072,-0.0015194449678042087,0.001876830752928664
2025/04/01 17:53:01.787956377,1743522781,783399592,piren,0.0145733922230733,-0.6206672377349602,0.0013365684414141884,-0.00030158906098429775,-0.0034833584929822655,0.0022119877502625755
2025/04/01 17:53:01.988247048,1743522781,972361856,piren,0.016040224439611034,-0.6859283569002648,-0.02379795851686627,-0.0006192131325762786,-0.0027885324670363257,0.002118394788917314
2025/04/01 17:53:02.171525685,1743522782,166876582,piren,0.016480532290594874,-0.7165342608254276,-0.03646262024650145,-0.0010542066272614618,0.0004245840728702926,0.0022170492999067882
2025/04/01 17:53:02.355571127,1743522782,352605596,piren,0.015612597809042058,-0.7246199186265906,-0.03960143133555333,-0.0012131155877431815,0.0030466853356102123,0.0023246856259663525
2025/04/01 17:53:02.540210694,1743522782,536129856,piren,0.01630761139798441,-0.7155882433353719,-0.03737576162915464,-0.001043573548188513,0.002717599813222778,0.002071058817663967
2025/04/01 17:53:02.725159746,1743522782,721313803,piren,0.017328660061113017,-0.692335657141489,0.012972119847047554,-0.0009066346474232756,0.0003381555679978958,0.004127536832271187
2025/04/01 17:53:02.928759139,1743522782,910500858,piren,0.01839988968187617,-0.7876876550702603,-0.025052329483460978,-0.0005551595828732816,-0.0036630266164335403,0.0032409772916200605
2025/04/01 17:53:03.114360944,1743522783,102744899,piren,0.024445447675600793,-0.8279321444035972,-0.0419564396579099,-0.0004464533714508438,-0.008040138320302391,0.003285779234395688
2025/04/01 17:53:03.295110475,1743522783,291314943,piren,0.03239644802022152,-0.8225150064206307,-0.08415021595212673,0.0010650145567428152,-0.011362808374064103,0.004189381055999973
2025/04/01 17:53:03.479591221,1743522783,476121055,piren,0.041525885839540935,-0.6923349834826789,-0.024992442223283475,0.0007517732054522741,-0.01541477246626301,0.0037301493828453855
2025/04/01 17:53:03.664496030,1743522783,660240569,piren,0.062133357216319206,-0.5941585080779854,0.05203780597261841,-0.0006168108156965796,-0.022814642512761878,0.004568450984758272
2025/04/01 17:53:03.889182690,1743522783,881208123,piren,0.08643059269451607,-0.6384105515109239,0.02151422894444758,-0.0008626031096228724,-0.02545227664767705,0.004739114751703525
2025/04/01 17:53:04.79121080,1743522784,75345955,piren,0.10166004805867937,-0.620401302496079,0.016822738762235265,-0.0003671721920991196,-0.01302112639911241,0.009372458677943044
2025/04/01 17:53:04.268072301,1743522784,263899757,piren,0.10875359496731524,-0.5594404688472836,0.0049218913756529075,-0.0004320948150851339,0.004080097509333516,0.007069332446763939
2025/04/01 17:53:04.452909536,1743522784,448616580,piren,0.10333516813565079,-0.4185545482265285,0.050798962447587706,-0.0005283667083635815,0.012765982302836942,0.007325731879218693
2025/04/01 17:53:04.642171748,1743522784,632590342,piren,0.09171815437252832,-0.3610827307627264,0.03783825456008758,-0.0002069930321288863,0.01173460947287811,0.006348720768360218
2025/04/01 17:53:04.843876950,1743522784,832396368,piren,0.06738234019437893,-0.26507145178405866,0.04203861541674961,0.0007439538154795866,0.003455365957486391,0.008548009808296925
2025/04/01 17:53:05.29904022,1743522785,25415946,piren,0.041110038861445625,-0.1772625590864934,0.046407766501933206,0.0005734686661874433,-0.0053860394315818575,0.007880821706999963
2025/04/01 17:53:05.216161178,1743522785,210848964,piren,0.015062406935210168,-0.11900908050444169,0.041584120317081086,-0.0002775352888253256,-0.00715927688703603,0.007954426137661867
2025/04/01 17:53:05.402343675,1743522785,397749164,piren,-0.006407748704971579,-0.07311791822929706,0.03752513119078938,-0.0014237307673502606,-0.003461520071517338,0.007840936640477678
2025/04/01 17:53:05.594288989,1743522785,582592095,piren,-0.02150129068673308,-0.15007490356647227,-0.02521257391705814,-0.0011007050708275107,0.005560689638972064,0.006105605255006471
2025/04/01 17:53:05.789947446,1743522785,771569869,piren,-0.031068199293660326,-0.05512252349070248,-0.004635677333097751,-0.00048448684281663713,0.01311226847769173,0.005621095329409289
2025/04/01 17:53:05.973913086,1743522785,968105924,piren,-0.035553658343296886,-0.0396198537720487,-0.02409449091791685,0.0011998081190555386,0.012955490236566343,0.005287699406106427
2025/04/01 17:53:06.168789121,1743522786,161906048,piren,-0.031857853923400854,0.05534699755797515,-0.008814707418261285,0.00014718680970194595,0.004425586223558796,0.005408018548146276
2025/04/01 17:53:06.352377567,1743522786,347625378,piren,-0.030837988964998474,0.01870218947650271,-0.04331866490449303,-0.0002918535134500745,-0.005214698318677805,0.004774559285530459
2025/04/01 17:53:06.539576854,1743522786,533793212,piren,-0.030742448662067247,0.012710827821439327,-0.0607841213477932,-0.0007773663977528545,-0.008337305346421561,0.009231445450086029
2025/04/01 17:53:06.767358984,1743522786,760242118,piren,-0.028424337105112777,0.04132754553099714,-0.06197572592996325,-0.0006208719819666062,-0.004100796027461379,0.006619932172970268
2025/04/01 17:53:06.955251627,1743522786,951061988,piren,-0.023152807249587678,0.18916823740599037,0.0008541119503889978,0.00010221472930065797,0.007528466284179517,0.005893323216839594
2025/04/01 17:53:07.142250037,1743522787,140214945,piren,-0.018726003455482185,0.4285980518430754,0.07919948105842242,-0.0008125846888122031,0.010197395704150538,0.008685721664445058
2025/04/01 17:53:07.334198636,1743522787,327209876,piren,-0.0131292669210368,0.47712333107858523,0.07126339125622862,1.7079525677568888e-05,0.00963318928831363,0.006917867070043633
2025/04/01 17:53:07.519730223,1743522787,513480842,piren,-0.007370036118101729,0.42825440219873956,0.06367944732263456,0.0015724801835787028,0.002500131992232963,0.006905194157367612
2025/04/01 17:53:07.712379207,1743522787,704916748,piren,-0.004173675424075267,0.5009415766989107,0.05611621542213546,0.0005469463428835875,-0.004376159961580543,0.006058394691884769
2025/04/01 17:53:07.909421988,1743522787,905200803,piren,-0.0037258051510286527,0.43229256801370286,0.050646309469954784,0.0008704386085484441,-0.00543023581031622,0.005742027494447367
2025/04/01 17:53:08.96997027,1743522788,92961910,piren,-0.005530572496426123,0.5284448177131726,0.05815383703721329,-0.0005089214182133529,-0.0001990975560199091,0.00535386001355331
2025/04/01 17:53:08.286563078,1743522788,280221630,piren,-0.0073695391148677885,0.49444523645017585,0.02313596990879028,-0.0015530690158422453,0.005225674914878319,0.005015279756425044
2025/04/01 17:53:08.476648174,1743522788,468255423,piren,-0.006153155472488058,0.4231950966325657,-0.007198976307958675,-0.0013854614775291746,0.009093537812843729,0.003590656465715586
2025/04/01 17:53:08.665205557,1743522788,660925851,piren,-0.003986232657980369,0.4266690500851267,-0.016868473779314507,-0.0008932477180024364,0.0066734707047986265,0.0036506220859913027
2025/04/01 17:53:08.856278105,1743522788,851990911,piren,-0.0003341410980334516,0.44211212422774504,0.003925729863846258,0.0012326495673484243,-0.00012210759781864906,0.0032159057389868693
2025/04/01 17:53:09.43548020,1743522789,40183393,piren,0.0014161169236777005,0.5621507139968239,0.020681541314493,-3.0666606400785116e-05,-0.004397656852082742,0.006068033123475013
2025/04/01 17:53:09.231709866,1743522789,227738211,piren,0.002852205310287595,0.5304868854497238,0.00475113779970399,-0.00013080144084088498,-0.005145168177175654,0.0038987449600053395
2025/04/01 17:53:09.419283301,1743522789,414036408,piren,0.002870929397112449,0.5143740691044423,0.022694337423350284,0.000590404161814829,-0.000181945944733327,0.0039031049551929656
2025/04/01 17:53:09.641453154,1743522789,638335595,piren,0.002726417439369206,0.6178019217775074,-0.012522082051207719,-0.000785585331520051,0.0058108719248991855,0.0033002803061323075
2025/04/01 17:53:09.836009055,1743522789,831382789,piren,0.005108660941098934,0.44900575930729575,-0.051772551859018925,-0.0007789502819658591,0.007967968615552656,0.0029729641990529163
2025/04/01 17:53:10.42175970,1743522790,36626396,piren,0.0044191092647121516,0.4835306408194059,-0.044715251258473906,0.0006463869827881144,0.004037704502592792,0.002431295752150648
2025/04/01 17:53:10.245921597,1743522790,241237023,piren,0.010658423736991305,0.509018282748586,-0.02940244459913388,-0.0010217729724044512,-0.002606873509765989,0.0021352500556050926
2025/04/01 17:53:10.435681810,1743522790,430703554,piren,0.013805169676624363,0.56570935595982,-0.009306896027008732,0.00022556752752899683,-0.006024810924633906,0.0017830518632571978
2025/04/01 17:53:10.622686369,1743522790,618499046,piren,0.014533260827530682,0.5989880371451599,0.006419389590613165,-0.0006279426034132834,-0.003021349603252159,0.0016444380402651554
2025/04/01 17:53:10.812180397,1743522790,806382373,piren,0.013214476001952032,0.6323167097749459,0.012271978132681534,0.0004777381670466168,0.0033131346036245567,0.0012561954309368844
2025/04/01 17:53:11.11479749,1743522791,4389811,piren,0.0128731465069275,0.6352864482653902,0.04302770904801238,0.0019481697713185826,0.006702186741141587,0.0010537884787275983
2025/04/01 17:53:11.208770245,1743522791,200125776,piren,0.014459531686043737,0.7407126137894365,0.006801038206080419,-0.0020494632469518735,0.006433616151529079,0.0006531896340201215
2025/04/01 17:53:11.404095914,1743522791,396812142,piren,0.017608746766796482,0.5953105954369518,0.016958739439631144,-1.4414224297933974e-05,0.0022719718842627956,0.0004734893378180721
2025/04/01 17:53:11.596647278,1743522791,589969218,piren,0.01743401177634793,0.7222164209453639,0.06689950306993352,0.001749723475919275,-0.002740887802436815,0.0003568808056697719
2025/04/01 17:53:11.807532166,1743522791,800230929,piren,0.019205885940538975,0.768511409588362,0.04664527194297898,0.0007833834582077835,0.010626545961721218,0.0004412603754864299
2025/04/01 17:53:12.9698880,1743522791,997833649,piren,-0.04987653642983304,0.6801447756848845,0.034970231963894746,0.002071662399366096,0.04577175590900669,0.0018828089330984567
2025/04/01 17:53:12.196751771,1743522792,191559696,piren,-0.07775940589313801,0.6901442889122126,0.02894622471118277,0.0031575052457419785,0.038884038022314195,0.0036148393995739992
2025/04/01 17:53:12.420681866,1743522792,416213304,piren,-0.06204854118034828,0.6628400837689248,0.040392017278417486,0.002797936747627811,-0.001773046976341603,0.005520681485115709
2025/04/01 17:53:12.612846381,1743522792,605480095,piren,-0.021697995338450068,0.6521076054949904,-0.0034644202328338383,-0.0006425765851177048,-0.04325509585267632,0.006860055038888211
2025/04/01 17:53:12.817837521,1743522792,800961942,piren,0.010175922958420534,0.4345925651175172,-0.06802255664963597,-0.001277302644147484,-0.035166891838166035,0.010772479122596205
2025/04/01 17:53:13.2377513,1743522792,995764790,piren,0.0386767040476444,0.24283922156351445,-0.08441915559011152,-0.0006581487195352981,-0.008304998114082869,0.011421759070592256
2025/04/01 17:53:13.196415614,1743522793,192569219,piren,0.06842790008436639,0.34231546088709963,-0.03455048440442537,0.0002021124386516502,0.02905656062392379,0.010015183501950695
2025/04/01 17:53:13.388893781,1743522793,383688205,piren,0.09847188246684725,0.312345760805321,-0.029095424712020524,-0.0005207614992503334,0.038071454215727454,0.01043201047668949
2025/04/01 17:53:13.596425113,1743522793,578473464,piren,0.13473143995100198,0.3296368687574149,-0.035372527327514974,0.000298129731359722,0.012388317268471472,0.011431926785586466
2025/04/01 17:53:13.784826568,1743522793,779902480,piren,0.16602110381672328,0.21609557982060718,-0.055678587193443145,0.00026626843652179463,-0.023587618349740967,0.011527153941213291
2025/04/01 17:53:13.976581590,1743522793,972237126,piren,0.18589861928199608,0.26071280003520975,-0.020081441982776022,0.00042466483448686193,-0.03839495396682537,0.012174225556215116
2025/04/01 17:53:14.168308787,1743522794,161577906,piren,0.1933501242354756,0.25156356118052264,0.012231477936218255,0.0007486601600996891,-0.0210839943448769,0.012127250497503286
2025/04/01 17:53:14.359463609,1743522794,351636653,piren,0.20044318630953267,0.33971924372974827,0.04789254534719565,-0.0013590610327785736,0.011220737405056568,0.011314384076706785
2025/04/01 17:53:14.551036348,1743522794,545781069,piren,0.2105901607713601,0.2759882951913117,0.03457860792369488,-0.0023901134376857966,0.026052761512798738,0.022014818513941808
2025/04/01 17:53:14.740218342,1743522794,736107490,piren,0.23260000791401098,0.24630057292866975,0.02177426466200323,-0.000246474776741168,0.017858739700893016,0.015117959607905108
2025/04/01 17:53:14.967003554,1743522794,960281423,piren,0.2574779734015788,0.20669518511884996,0.010176628520806665,0.0009315309387220203,-0.0015488051136332789,0.022016804956933828
2025/04/01 17:53:15.160770733,1743522795,152671404,piren,0.2755534599441122,0.19627241954489533,0.011062159602648416,0.0002794407279832304,-0.02635177642086687,0.014113600678878164
2025/04/01 17:53:15.357668657,1743522795,345796678,piren,0.28768214646000334,0.14962550128459529,0.002383501900391511,0.0003265514327558763,-0.02225525506385833,0.00993460256376157
2025/04/01 17:53:15.545762504,1743522795,541901994,piren,0.28979590044318626,0.10171229636100161,-0.011753568444300323,-0.0012292736060349292,-0.007074117886727992,0.020542150358050973
2025/04/01 17:53:15.741234130,1743522795,736415057,piren,0.2955071159458278,-0.03324168484411307,-0.059761817053316006,0.0005154663791908332,0.014041041673441085,0.014259687056806135
2025/04/01 17:53:15.931915880,1743522795,927860951,piren,0.31143198649595655,0.05960506979096001,-0.01999949538277194,-0.001709201740542311,0.02021586195565692,0.01307913891303179
2025/04/01 17:53:16.126289109,1743522796,122590229,piren,0.33386254887791866,-0.03226797490603803,-0.0611880753227534,0.0001423696484392059,0.007821119866941933,0.012815352297799735
2025/04/01 17:53:16.320645137,1743522796,313496099,piren,0.3539300340482432,0.09615572198975428,-0.0029025549988787765,0.00047298160589070705,-0.011054447724879525,0.012278620333488048
2025/04/01 17:53:16.520689318,1743522796,508368698,piren,0.3692141499404515,0.0992217494690482,0.0011498283860774065,1.575896224484964e-05,-0.020061539607807738,0.012089826680562936
2025/04/01 17:53:16.716755298,1743522796,711889178,piren,0.38310950494679386,-0.02104986002348666,-0.03663234081746938,-0.0004133279236645269,-0.015140503278835227,0.012197779580608524
2025/04/01 17:53:16.916549694,1743522796,911890002,piren,0.3924581974406341,-0.07894391626810317,-0.062222625380781924,0.0007294311434926121,0.00493364566826936,0.008171972148589392
2025/04/01 17:53:17.111583097,1743522797,104455674,piren,0.4065568059966734,0.12071420262708021,0.03174057058922207,0.00023986835070296815,0.016013069562524244,0.010692407045959666
2025/04/01 17:53:17.314976188,1743522797,297240462,piren,0.4240764957061356,0.15233298212976654,0.0576685128467795,0.0008874956716203669,0.012416666644136933,0.010874973019429275
2025/04/01 17:53:17.495926860,1743522797,489361788,piren,0.4448346403817263,0.24700474540326162,0.10418514744190488,-7.809047338346286e-05,0.0003858749691915315,0.010560020551259949
2025/04/01 17:53:17.726885521,1743522797,721557537,piren,0.4684703848554671,0.28958709466586,0.09871743015705635,-0.0016523371513483607,-0.015746637458086354,0.010437756553594867
2025/04/01 17:53:17.923789577,1743522797,916668392,piren,0.4799273538435683,0.10237460889713403,0.03392766592337286,-0.0011313585747993345,-0.012028524421951223,0.012083750961879376
2025/04/01 17:53:18.121532909,1743522798,111171792,piren,0.49235707534065276,-0.020578080779991202,-0.00922321741788228,-0.0010135211415367492,0.0014554261616289473,0.019856077169045767
2025/04/01 17:53:18.311293428,1743522798,304760000,piren,0.5048538456854289,-0.019795878745049456,-0.005830257353302202,-0.0025702708783326453,0.011134785847461897,0.021974980083832262
2025/04/01 17:53:18.500122750,1743522798,495283593,piren,0.5185016036520508,-0.050159251546341994,-0.014244055438797676,-0.0002792473179681016,0.015279177658068677,0.019248399078240313
2025/04/01 17:53:18.700383001,1743522798,693861840,piren,0.5400509070663447,-0.16052355961328077,-0.07665317353468168,0.0026411979533399904,0.004885012636451546,0.023281552676503833
2025/04/01 17:53:18.910186549,1743522798,898704900,piren,0.5583116318479178,-0.030947347337136312,-0.015498404159730406,0.0005476069563225585,-0.0103220683165204,0.02527703564876224
2025/04/01 17:53:19.101884578,1743522799,97718323,piren,0.5787539427988344,0.062128543819832155,0.027726285457893702,-0.001866667783517833,-0.014638580021952195,0.0304249503834248
2025/04/01 17:53:19.291688042,1743522799,286810640,piren,0.5896005194657763,-0.009861684099407061,0.007727074496617397,-0.0012915543581059645,-0.008556640492156896,0.042554746228492736
2025/04/01 17:53:19.484795782,1743522799,478272233,piren,0.5973868458399414,-0.08165687477185367,-0.016065646932832453,-0.0017570400160992596,0.004600322153753867,0.03548119143965808
2025/04/01 17:53:19.676139960,1743522799,672089443,piren,0.6134968417205687,-0.0405132363654812,0.00817023473209362,-0.0013748106670602354,0.01254958247645641,0.04024268485135386
2025/04/01 17:53:19.873513370,1743522799,870123796,piren,0.6251493910288062,-0.18352613490757733,-0.046447829290946235,-0.0006661916144816842,0.009271366303567957,0.041922450159189134
2025/04/01 17:53:20.72734227,1743522800,67723823,piren,0.6370560235300539,-0.21906068842712945,-0.06542710994109927,0.0005247004364350488,-0.0008486397718786814,0.040612730573194034
2025/04/01 17:53:20.308077292,1743522800,294551607,piren,0.6328098567149337,-0.2075318726899164,-0.06957933833084169,0.0013142682792885376,-0.009636858010131056,0.06720695433915048
2025/04/01 17:53:20.493187038,1743522800,485557642,piren,0.6391104968454319,-0.07033653678583875,0.006377682616543357,-0.0010225966951743783,-0.010011784670447877,0.04469421480863246
2025/04/01 17:53:20.693180914,1743522800,688875969,piren,0.6510198234054975,-0.13677471403153588,-0.015183426450675375,-0.0013204211233935395,-0.0036750659873486225,0.04687888048543504
2025/04/01 17:53:20.885190814,1743522800,882161437,piren,0.65960084839252,-0.12671129698375616,-0.01825515888624943,-0.002282668889504207,0.0052140723490379185,0.04621639734688901
2025/04/01 17:53:21.93185185,1743522801,78772545,piren,0.6582721376071586,0.030492774737604034,0.05781430327755992,-0.00032598995795836546,0.010980091792139551,0.04704789838499274
2025/04/01 17:53:21.278615439,1743522801,274901347,piren,0.6605805581817185,0.12916370803887517,0.10100724252305644,0.0003469399905837533,0.005818705072999879,0.0487431697924281
2025/04/01 17:53:21.481825338,1743522801,475777201,piren,0.6658423014867696,0.08753414170764534,0.08211861366060837,0.0017345742596930635,-0.003556310650426471,0.046416414946956
2025/04/01 17:53:21.676668858,1743522801,672464443,piren,0.657307310327476,-0.013251416213501566,0.04397265453013283,0.0017235585333112038,-0.00861516938208388,0.046175970674965275
2025/04/01 17:53:21.886127291,1743522801,868479305,piren,0.6450451517283953,-0.1101471216631731,0.013457704696215362,0.00048364221177749685,-0.006264746609233912,0.04726546257243058
2025/04/01 17:53:22.72974376,1743522802,69163935,piren,0.6322622142631097,-0.23435239832404753,-0.031000990583300365,-0.001959065659050054,0.001637719739468143,0.04520018578774892
2025/04/01 17:53:22.265006336,1743522802,261355040,piren,0.6242141907855264,-0.30057932449053293,-0.04982614943763612,-0.0029488743330235456,0.006864203602301778,0.04717395863771473
2025/04/01 17:53:22.455586294,1743522802,452237819,piren,0.6208334090731058,-0.3336805685052592,-0.07391576467389255,-0.0011801043558022104,0.006209186448916382,0.0425304195404566
2025/04/01 17:53:22.650301591,1743522802,644877327,piren,0.6110089741117811,-0.2874438790406095,-0.04901077261887025,-0.0018592884659174521,0.0026490848577667096,0.0823110730944249
2025/04/01 17:53:22.891596107,1743522802,886025190,piren,0.6095631755972818,-0.26268501809709227,-0.04205300248867405,0.00013229116432211658,-0.003750328857117225,0.05499449072006017
2025/04/01 17:53:23.87010359,1743522803,81948768,piren,0.609109320065305,-0.18682577160556355,-0.0042931682104907784,0.0026481641478321937,-0.006665515773761316,0.048225339656609065
2025/04/01 17:53:23.279833605,1743522803,276874831,piren,0.6117788588198506,-0.12117075289773943,0.02655205773844973,0.0018579788907938976,-0.0024285823846027766,0.037642187111930896
2025/04/01 17:53:23.475669464,1743522803,468624281,piren,0.6039434062563791,-0.09475848518393498,0.04151566581793162,-0.0007279044905553581,0.002902529853307194,0.03780832433087815
2025/04/01 17:53:23.667785511,1743522803,663874035,piren,0.5907960211053584,-0.08753816191060217,0.047607354943762475,-0.001801106536114706,0.005761194534297027,0.03411108696741866
2025/04/01 17:53:23.864306831,1743522803,860241419,piren,0.5835741574988209,-0.10472092776728557,0.04558534031242154,-0.0036217731181279857,0.00405737752407628,0.03398092108727527
2025/04/01 17:53:24.59689948,1743522804,55943160,piren,0.5726780145839573,-0.22859769496709553,-0.015664919609749334,-0.0011781734616217211,-0.0006134351483791973,0.02942749995058682
2025/04/01 17:53:24.259721145,1743522804,250769540,piren,0.5563142757404994,-0.20291071244495731,-0.008026344191027277,0.001545885536261151,-0.003223093821670188,0.05521068290799219
2025/04/01 17:53:24.452526382,1743522804,446813423,piren,0.5420964046046866,-0.1408862410410037,0.021080588465467426,0.0029952213119672773,-0.003946893585406323,0.03797892613422106
2025/04/01 17:53:24.649010953,1743522804,645090937,piren,0.5332897206130369,-0.055980609447336765,0.06240474625490029,0.004135715709957064,-0.0009294071119498667,0.03220872072654929
2025/04/01 17:53:24.843833862,1743522804,839973719,piren,0.5244167621484858,-0.04405407429879715,0.07186585375168775,-6.069710406474394e-05,0.0026487206329031026,0.030107609735497167
2025/04/01 17:53:25.51839790,1743522805,39327818,piren,0.5135581733583284,-0.19611522586677824,0.014241763109769587,-0.00014133407366557333,0.004009184216321789,0.025602846259288728
2025/04/01 17:53:25.245317732,1743522805,240648659,piren,0.5029669730061944,-0.28195087778640004,-0.0036051856907362866,-0.0031533386755458535,0.0026889188668780513,0.021768841924290617
