time,header_stamp_secs,header_stamp_nsecs,header_frame_id,twist_linear_x,twist_linear_y,twist_linear_z,twist_angular_x,twist_angular_y,twist_angular_z
2025/04/01 17:52:24.48478649,1743522743,821687916,piren,0.007933512628505269,0.07489811429972981,0.04311331226474048,0.0006992410593068172,0.010292172761358706,0.00017275872438500566
2025/04/01 17:52:24.552471027,1743522744,521897561,piren,-0.004431364133871027,0.1344418021200443,0.0554333649884145,0.00042558595217354127,0.026668689849703348,0.0006672608533549634
2025/04/01 17:52:24.906205380,1743522744,858676107,piren,-0.0057308658716017065,0.09410178029315722,0.036896829318463865,0.0011912120091539932,-0.023721125751920643,0.0010270916120381731
2025/04/01 17:52:25.120126934,1743522745,106395597,piren,-0.013264137658098404,-0.0837277644031939,-0.029922221918576263,-0.0006574387338515857,0.006809251928066524,0.0013973825796342503
2025/04/01 17:52:25.386267455,1743522745,368116334,piren,-0.013264137658098404,-0.0837277644031939,-0.029922221918576263,0.0004494539148211672,0.026053660859499346,0.0
2025/04/01 17:52:25.631428734,1743522745,624285112,piren,-0.008312092706137916,-0.15438411533127797,-0.06338451119551335,-0.001154050015922334,0.02321861059295097,0.00915739173786076
2025/04/01 17:52:25.861229015,1743522745,853561467,piren,-0.0038372440543305098,-0.2469475753574908,-0.10130314802861495,0.0009863955842206622,-0.028150360750009422,0.0016549776607328913
2025/04/01 17:52:26.60445383,1743522746,50731833,piren,0.002955805695227612,-0.18500395840692466,-0.06543790297698185,0.0011769039683939774,-0.015434690793053962,0.0020865462417881085
2025/04/01 17:52:26.239534153,1743522746,231768920,piren,0.0015289096661938704,-0.1218502402930891,-0.03208331777492302,0.0010271681019888628,0.007034106895199847,0.0019085351383764837
2025/04/01 17:52:26.419813460,1743522746,412507851,piren,0.004188938847846005,-0.05845126567242108,-0.005389435595313449,0.0008845401101586809,0.016974394991941696,0.0016147441609977286
2025/04/01 17:52:26.590498493,1743522746,585713148,piren,0.01687677463210028,0.022598830970081377,0.023275945102005712,-7.197180230028264e-05,0.012523811794205886,0.0014130706472146616
2025/04/01 17:52:26.764076388,1743522746,760675884,piren,0.02436819972335732,0.17341598331267855,0.07653474438651231,-0.0009850151017321753,0.0023290152940928436,0.001282112593520014
2025/04/01 17:52:26.937537861,1743522746,932397321,piren,0.02460708132562038,0.12829761822326768,0.05620286417098783,0.0006204890033030308,-0.009905164926695501,0.0008479218423533562
2025/04/01 17:52:27.111667478,1743522747,106855631,piren,0.016426323439645125,0.061262919348881825,0.028511585958336253,0.00043530509040811863,-0.009210371573049832,0.0018061258422279302
2025/04/01 17:52:27.291200681,1743522747,281334274,piren,0.0009465973168510354,0.13094120985665436,0.05464646155717774,-0.0008546176752851521,-0.0007414608726873893,0.0011075757736968177
2025/04/01 17:52:27.473092344,1743522747,468035918,piren,-0.008272747026649744,-0.023771176349238088,-0.009754982766206885,-0.00039412093728056504,0.005629759523970995,0.0007858146179833756
2025/04/01 17:52:27.644914876,1743522747,641372467,piren,-0.011763114175619852,-0.035357597109578934,-0.014157247846219554,0.0002991018930482357,0.00893730454300133,0.0005156221105272688
2025/04/01 17:52:27.818604212,1743522747,813574927,piren,-0.0144791377224926,-0.04174213035662536,-0.017522309445508574,0.00036011168405409075,0.005528465099324157,0.0003428771783474145
2025/04/01 17:52:27.998405396,1743522747,991755272,piren,-0.008147660704481245,0.020429185854753874,0.006777543901822249,0.00017886488770588117,-0.0036743967820579066,0.0003415772647152681
2025/04/01 17:52:28.191931574,1743522748,187466002,piren,-0.0031997700842118547,-0.12235907775748375,-0.05559101026756334,0.0016447785471188968,-0.008525630316607202,0.00018963056059862577
2025/04/01 17:52:28.372203869,1743522748,369489701,piren,-0.0007073453026812107,-0.10401788357226098,-0.04311363306044573,-0.0014041478490548138,-0.007739502932509226,0.00021894487082950675
2025/04/01 17:52:28.587282295,1743522748,579807740,piren,-0.0016578817765100441,-0.0446449248422606,-0.014458115318058629,-5.0438475645464523e-05,-0.0007820088373887918,0.00015770689829374004
2025/04/01 17:52:28.776416287,1743522748,759852256,piren,0.00325892533910453,-0.016767946485107252,-0.0015209001896385084,-0.0012332585068900127,0.003742023840704097,-1.398104651195419e-05
2025/04/01 17:52:28.973060126,1743522748,964872860,piren,0.0063387505920211645,0.02523215430023707,0.014516619563762732,0.0017883565900193642,0.005117283754961662,-5.776821381200026e-05
2025/04/01 17:52:29.150209331,1743522749,143914102,piren,0.006656867633318392,0.015925613585976738,0.007458123722106324,-0.00040420827644054925,0.003253823414010302,-5.573172735120487e-05
2025/04/01 17:52:29.320374416,1743522749,316907282,piren,0.005471168079338235,0.04397578016732846,0.016309696659100825,-0.0004896191546541078,0.0007842930764555832,-0.00019166049094957837
2025/04/01 17:52:29.492498756,1743522749,489289567,piren,0.0021093862632817714,0.058564004356093255,0.020262174749422244,0.0012601591532453676,-0.002551205663306331,-0.00029341218078498356
2025/04/01 17:52:29.677134644,1743522749,663698439,piren,-0.0009431265893460705,0.15682687868256728,0.056605691469956795,-0.0005376348751663687,-0.0032572805160912674,-0.00042369049129194094
2025/04/01 17:52:29.856029351,1743522749,840274742,piren,-0.004391583227380329,0.09541491531167488,0.03256028154392136,-0.0013295537164633754,-0.0008226569631446991,-0.00035343748509199485
2025/04/01 17:52:30.22319131,1743522750,17983045,piren,-0.007934196668021035,-0.06655545508965692,-0.0373649059641971,0.0001322692752968057,0.0023223539099191523,-0.0007773736055090264
2025/04/01 17:52:30.200728332,1743522750,195949923,piren,-0.012998420031590944,-0.17680102271356293,-0.0866700392148336,-0.000813723611025715,0.006377908206578003,-0.0006154604574622344
2025/04/01 17:52:30.376466127,1743522750,371402205,piren,-0.012753084525548478,-0.088621640949351,-0.046730509678975914,-0.0007049994350088297,0.004045484176228882,-0.0007602163597852938
2025/04/01 17:52:30.547184841,1743522750,543089191,piren,-0.004154502687288845,-0.014716951602441575,-0.012938026574468721,0.002678517385846285,-0.005153501684265,-0.0005628768734617358
2025/04/01 17:52:30.718344205,1743522750,714525389,piren,0.006679114324696707,0.11227655614898036,0.040777966372708245,0.0014859838799727734,-0.010151823693384668,-0.001320313675488072
2025/04/01 17:52:30.891673837,1743522750,885738637,piren,0.008133725830247636,0.19073585923347203,0.07473297351963973,-0.0018210328172332572,-0.00658379605616411,-0.0009481244136024765
2025/04/01 17:52:31.101718887,1743522751,95359539,piren,0.004448640841518932,0.038768887896002385,0.01426436653783393,-0.0002782098384646871,0.0002495209727274449,-0.0009847593273263411
2025/04/01 17:52:31.275899073,1743522751,271558886,piren,0.0014055175901824218,-0.08831672995420481,-0.04049287380402025,-0.00034348383645493185,0.012000786989998293,-0.0006658915364049101
2025/04/01 17:52:31.453123247,1743522751,449067366,piren,-0.008848912178792237,-0.04551296990444021,-0.02347089165576624,-0.001206156726864183,0.013729408526258894,-0.0007622700818728112
2025/04/01 17:52:31.624683183,1743522751,621929369,piren,-0.005874065400121911,0.0004434596248746314,-0.006193197916677325,0.0001665240626364263,0.003344959703510264,-0.0016684942467745398
2025/04/01 17:52:31.796989893,1743522751,793883015,piren,0.002147789812578845,-0.10287713389429987,-0.05433347548231578,0.0011787848182886777,-0.011479168669634785,-0.0010085371461739533
2025/04/01 17:52:31.973003076,1743522751,966690777,piren,0.004617183971594637,-0.04940146124381604,-0.02750606427286198,9.280718797415663e-05,-0.015848738333046418,-0.001039520388352415
2025/04/01 17:52:32.142877214,1743522752,140278064,piren,0.0036575430782698056,0.00798040246813693,0.0020950006003181663,0.0006261539761744709,-0.009515364147740419,-0.0007542282580810442
2025/04/01 17:52:32.332852267,1743522752,317857944,piren,0.004618118659254174,0.03808924967961397,0.0183679180325799,0.0010969947345880094,9.639814427425161e-05,-0.0006616731365857878
2025/04/01 17:52:32.508697773,1743522752,502406929,piren,0.0015518074112599385,0.04813416839633541,0.022044717295036754,-0.00023251342717008845,0.012580410623395247,-0.000886372122326821
2025/04/01 17:52:32.687354550,1743522752,682680108,piren,-0.00043678668425920853,0.06728823649827867,0.02546334323533005,4.518685953751232e-05,0.014310177639455213,-0.0008887304475127225
2025/04/01 17:52:32.860603535,1743522752,856880731,piren,0.00010588695017693303,0.06847457665607984,0.02081136555705806,-0.0009816029056604308,0.007764437652658062,-0.0008375789523424519
2025/04/01 17:52:33.32740461,1743522753,28745884,piren,0.0003078407586138163,0.19570276753720356,0.06552386374796365,0.0008472613365873164,-0.004980917242634728,-0.0005940152175620022
2025/04/01 17:52:33.208870200,1743522753,203002712,piren,-0.0003254929034489797,0.08210432899727386,0.01967266155218527,0.0005031091779086542,-0.011216514610999028,-0.0011164693074969694
2025/04/01 17:52:33.385456034,1743522753,380130000,piren,-0.003300691160394057,0.14483207322468736,0.04726409211652248,3.425600847692102e-05,-0.007925609261705551,-0.0009160744695042126
2025/04/01 17:52:33.568574018,1743522753,555437643,piren,-0.012458062159249241,0.16200711487040173,0.0573513357591184,-0.00016469987156739484,0.0001393694438633381,-0.000884187829725472
2025/04/01 17:52:33.773727562,1743522753,766190001,piren,-0.012746007567194031,-0.0009509594131042465,-0.005700999728940677,-0.000396274335070037,0.00671253643348467,-0.0005950717438098319
2025/04/01 17:52:33.986910227,1743522753,983318131,piren,-0.012436499396154179,-0.16016419412403698,-0.07315049356931286,-0.000761248319372212,0.010412947887597494,-0.000651975233378098
2025/04/01 17:52:34.166202242,1743522754,160990147,piren,-0.00994064446508739,-0.11817745995163129,-0.05270031397440046,-0.0010286848516363942,0.0018577880684290183,-0.00043209495787043775
2025/04/01 17:52:34.344289254,1743522754,337988811,piren,-0.0008972175947298839,-0.07083769861424222,-0.03112944884139434,-0.0011415375505347673,0.02268070537686772,-0.0006892522168036541
2025/04/01 17:52:34.528742406,1743522754,520721043,piren,-0.05197920697819492,-0.02749164984889027,-0.014158071899309836,-0.0012360192821474437,0.03167208395985456,-0.0021565238209180016
2025/04/01 17:52:34.704198462,1743522754,701275212,piren,-0.06923630374508385,-0.11234779104133955,-0.05272257120633316,-0.0009545333097968477,0.018017416512531293,-0.0014612479785438934
2025/04/01 17:52:34.881900821,1743522754,878138813,piren,-0.0640630859008531,-0.16548382409028012,-0.07109936201487319,-0.0006525665408235376,-0.011597522957828593,-0.0016319939511039317
2025/04/01 17:52:35.58086756,1743522755,55321879,piren,-0.05142307915425655,-0.20471082200965715,-0.07115974120422319,0.0011186110757394623,-0.028723655377119444,-0.0019913305906710224
2025/04/01 17:52:35.235786114,1743522755,230430216,piren,-0.03601489299067062,-0.14301458397676575,-0.015319277613780831,0.001077629118829753,-0.02857380653216806,-0.001324797311689083
2025/04/01 17:52:35.429285619,1743522755,411765190,piren,-0.02638003841193559,-0.12019279731434941,0.022021002010481773,0.0010374325272475987,-0.012074216061846003,-0.002894167956154196
2025/04/01 17:52:35.597919077,1743522755,591425697,piren,-0.017693359662644716,-0.0051317841218871535,0.08800904659993933,0.0006831833750400781,0.015756736872637,-0.0018660282174471255
2025/04/01 17:52:35.773358853,1743522755,770561649,piren,-0.006346692377974897,0.044483865131268265,0.1196384943751218,-0.001062931511118079,0.0265069324299169,-0.0021050436978916755
2025/04/01 17:52:35.957457760,1743522755,953940277,piren,0.007779953707994797,-0.06746400959023155,0.0831657977663506,-0.0010911695319983624,0.0190825622238863,-0.0013559136194047118
2025/04/01 17:52:36.133776620,1743522756,130510111,piren,0.022200817190104576,-0.17801076276773634,0.046577828957845076,-0.0008890105865791384,-0.005019259960564063,-0.001210020664151699
2025/04/01 17:52:36.316912129,1743522756,312184236,piren,0.028718345168908203,-0.2728321287027494,0.017922735533212594,-0.00083831292584717,-0.021256175815472855,-0.0026173147996355977
2025/04/01 17:52:36.529685275,1743522756,524992926,piren,0.028317904295772026,-0.4771639372651417,-0.05537689865899344,-0.0005855965529281322,-0.026506560624409484,-0.002168585680897583
2025/04/01 17:52:36.706099598,1743522756,702064766,piren,0.02010674431285159,-0.6068176477405824,-0.09376047711345142,-0.000566454475376225,-0.009342931866794356,-0.0021117898404952587
2025/04/01 17:52:36.886098096,1743522756,878732694,piren,0.011454775700257673,-0.6581414704196515,-0.10307136865617549,-0.0007699700251732405,0.013799791094422998,-0.0020505919682902735
2025/04/01 17:52:37.65309929,1743522757,60023346,piren,0.008536126631997182,-0.6571253699737565,-0.09622949148490972,0.0006758165882858566,0.022339239179618324,-0.0022577945463897386
2025/04/01 17:52:37.252828559,1743522757,244100485,piren,0.01223244910138354,-0.5219552794909316,-0.03278264309280393,0.0005366951918763704,0.014372396860603648,-0.001953003618752501
2025/04/01 17:52:37.433436738,1743522757,430135879,piren,0.017741813007341338,-0.42570911574516795,0.012399535379602838,0.0006379695004106982,-0.0014135424922423882,-0.0034791313507897973
2025/04/01 17:52:37.621935559,1743522757,612485804,piren,0.02254594456817293,-0.26323378847587375,0.0845786303260001,0.000722961575432285,-0.020085364795135282,-0.002661837470661821
2025/04/01 17:52:37.797030616,1743522757,792269078,piren,0.022448901680535788,-0.21175634283668043,0.11758744974310979,0.0009424849319612544,-0.021689117656916446,-0.0029269463123384205
2025/04/01 17:52:37.978506110,1743522757,972242836,piren,0.01302851526165731,-0.22222652002879043,0.12468609258385706,-0.0006290980064434026,-0.010218986118018924,-0.0025024516080492396
2025/04/01 17:52:38.164029262,1743522758,160037828,piren,0.006325145258642158,-0.37999938997850335,0.0707116163558825,-0.0006819588360570031,0.009945803393217361,-0.0017112608687890594
2025/04/01 17:52:38.343124084,1743522758,339773433,piren,0.00017839427618972746,-0.5044585201599159,0.025432885931322487,-0.0008028146086440699,0.020776390518615913,-0.0015373023693850772
2025/04/01 17:52:38.522998798,1743522758,517321061,piren,0.00198423042806943,-0.584837564236069,-0.006592638766071815,-0.001005909199703126,0.015847992020150664,-0.002788376067318292
2025/04/01 17:52:38.711353101,1743522758,697219364,piren,0.007023146983646519,-0.7472047967391529,-0.07788560203262282,-0.0010103135927441882,-0.0025776141974655793,-0.0019338042195743263
2025/04/01 17:52:38.886013210,1743522758,878234433,piren,0.011128621629995259,-0.8405883953138993,-0.11458646311702739,0.0006360520361417168,-0.016047367130827002,-0.0020028308349672075
2025/04/01 17:52:39.62231557,1743522759,58687731,piren,0.013281091861153336,-0.7726083531271808,-0.07492322858751246,0.0007490958420786669,-0.021010562593327536,-0.001496108347958681
2025/04/01 17:52:39.276381384,1743522759,273863890,piren,0.010523804219200694,-0.7155842872062305,-0.03788307422500213,0.0008427532668987902,-0.00872004170026563,-0.0014181333255250425
2025/04/01 17:52:39.454815525,1743522759,448992609,piren,0.0060271272664515815,-0.6638468085271153,-0.0080472832020143,0.0008492945033313117,0.009643824335395127,-0.0022654906230838625
2025/04/01 17:52:39.637825603,1743522759,624317429,piren,0.003843555471529991,-0.6216792479346633,0.01210255119143707,0.000959369148874034,0.017493485696477334,-0.001435517857737165
2025/04/01 17:52:39.807534805,1743522759,800569367,piren,0.006196611450877109,-0.4760335155312088,0.0687059477295981,0.0008510011110314776,0.013325211060309454,-0.001977942269231304
2025/04/01 17:52:39.994788748,1743522759,986467468,piren,0.010617399715555885,-0.40139725453928005,0.09673451472391353,-0.000826367717455076,0.001802861508225878,-0.0019290865651739617
2025/04/01 17:52:40.177076964,1743522760,171580388,piren,0.01082199512525157,-0.4990614544006814,0.06103204235317453,-0.0008821311221627481,-0.013676521516390032,-0.0015045128564539205
2025/04/01 17:52:40.362442005,1743522760,358850438,piren,0.008310664537520362,-0.5940907326948957,0.02812440303349381,-0.0008248498883127207,-0.016914110534637743,-0.0014420998921047213
2025/04/01 17:52:40.542766826,1743522760,537940252,piren,0.0029075411758633816,-0.6741102666137988,0.0025242653145055756,-0.0007038722442656754,-0.005863110433480364,-0.0028704155216477396
2025/04/01 17:52:40.734071425,1743522760,717362663,piren,-0.002698071477289621,-0.7295380753505936,-0.014166077609056863,-0.0007829287905737808,0.0057596591130116,-0.0030756086797614035
2025/04/01 17:52:40.923264646,1743522760,917204320,piren,-0.005719487824899904,-0.8665239994437809,-0.07423044497520523,-0.0007337922333923232,0.014774218593636153,-0.001959010788337527
2025/04/01 17:52:41.113009251,1743522761,107703059,piren,-0.0038803358077536426,-0.9203864089757201,-0.10081831681160382,-0.0007619640521116037,0.010154047998659094,-0.0018925380094956042
2025/04/01 17:52:41.291545123,1743522761,286470237,piren,0.00012391995160150387,-0.9268079632797719,-0.10593849318662131,0.0007375026330168342,0.00019458640392073877,-0.0018864038350168706
2025/04/01 17:52:41.468731375,1743522761,463829189,piren,0.004818608142749592,-0.7971928724085512,-0.04744346160609938,0.0006094895065789745,-0.01210499856474894,-0.001449627527075589
2025/04/01 17:52:41.646809340,1743522761,641832884,piren,0.005749473389004644,-0.7111722932916575,-0.0027090340662451473,0.0005571295834475062,-0.013909100661855642,-0.0014979133185354639
2025/04/01 17:52:41.862183533,1743522761,858623525,piren,0.00386813513309725,-0.6574853792199986,0.02625195065358871,0.0007325276268538831,-0.00725706643352632,-0.0026875482265342177
2025/04/01 17:52:42.39654966,1743522762,36033342,piren,0.0008538630715513975,-0.5172203444468335,0.08525455554661104,0.0007600321497795747,0.008664217727473932,-0.0018658343148454997
2025/04/01 17:52:42.218349071,1743522762,214112798,piren,-0.0019976274155403258,-0.562481261893073,0.06659848356076513,0.0009888825990537113,0.01314098467765438,-0.002619922630291161
2025/04/01 17:52:42.396064474,1743522762,392964420,piren,-0.0005912762310351424,-0.49515536481212735,0.08999964295258625,0.0010406673977661077,0.008710309130246527,-0.001907202357270565
2025/04/01 17:52:42.573543268,1743522762,570384765,piren,0.0012635612280057942,-0.4774471102187374,0.09413712632763012,-0.0006044866843266755,6.366912262021485e-05,-0.0018473165174592928
2025/04/01 17:52:42.751642461,1743522762,748085117,piren,0.0001159655352687809,-0.610112998938622,0.04373209400817853,-0.0007444591875505522,-0.010427269024238567,-0.0014457214499763976
2025/04/01 17:52:42.940985511,1743522762,930127979,piren,-0.0022251899600639327,-0.7115142817175649,0.0060972877998284256,-0.0010073674291870209,-0.01233333503108851,-0.0013323890982084496
2025/04/01 17:52:43.130420073,1743522763,125864273,piren,-0.007365541363470317,-0.8975293803572196,-0.07080011097635691,-0.0010400843933059034,-0.0055364048942737505,-0.0018457720418478597
2025/04/01 17:52:43.314102387,1743522763,308673743,piren,-0.012012026698130927,-0.9928141448808685,-0.10896808920555515,-0.0009655104454374922,0.005451629877547194,-0.0019608139577524703
2025/04/01 17:52:43.491726173,1743522763,488115410,piren,-0.012425976076884313,-1.006748680740294,-0.11578811605854476,-0.0008244371848559843,0.010757740647545647,-0.001859635245218108
2025/04/01 17:52:43.669260631,1743522763,665268901,piren,-0.0097314091218329,-0.9783406919380025,-0.10612831496403254,0.0008280474838061301,0.008341473539403593,-0.0018438272134545775
2025/04/01 17:52:43.848295705,1743522763,843899097,piren,-0.004309260455102691,-0.8321536246488916,-0.04056596097806783,0.0009054535940765358,-0.0014918174028751314,-0.0011029928046623254
2025/04/01 17:52:44.28561696,1743522764,23919537,piren,-0.0005882104905146728,-0.7237771814690872,0.00759562251362729,0.0010229806552368944,-0.007590516689748272,-0.0009368215182349646
2025/04/01 17:52:44.211139121,1743522764,205090867,piren,0.00276666758941182,-0.543957724366011,0.08295771771936229,0.0008943212720073893,-0.009204107978225537,-0.001325351139335191
2025/04/01 17:52:44.391097579,1743522764,387700870,piren,0.0021202097439066096,-0.454353438204454,0.1210480331092767,-0.0008501130556591097,-0.005093175347466274,-0.0010812285934098855
2025/04/01 17:52:44.603107742,1743522764,598107214,piren,-0.003500518530382312,-0.5440309199046182,0.08817385287136181,-0.0009472989807367422,0.00434521266654232,-0.0007745278913963968
2025/04/01 17:52:44.779788295,1743522764,776564849,piren,-0.007102951554225644,-0.6280650524719489,0.05272334031714925,-0.0008864739941881412,0.00950028927438905,-0.0007640808419791949
2025/04/01 17:52:44.968838385,1743522764,956838741,piren,-0.0075452824504288465,-0.6955583328240676,0.021515014172051313,-0.0007125247613154104,0.006246166352444183,-0.0007918097842347494
2025/04/01 17:52:45.144862689,1743522765,137039261,piren,-0.00639224173287467,-0.7464985813137913,-0.0018915051778027776,-0.0005471731610636494,-0.0023567803720171434,-0.0008207602989041594
2025/04/01 17:52:45.330119294,1743522765,326622843,piren,-0.005486609185118784,-0.7855590912875882,-0.016755183164820484,-0.0006527720085114458,-0.008521942929792026,-0.0014427473604514346
2025/04/01 17:52:45.514500800,1743522765,509344976,piren,-0.007457111644362801,-0.9213437654301755,-0.07537477453493516,-0.0006988769939790371,-0.008464086743452125,-0.0005470223866301519
2025/04/01 17:52:45.694492996,1743522765,691520773,piren,-0.010615130369024615,-0.9866389874684514,-0.10114463514590114,-0.000841925319471043,-0.0013255891072738192,-0.0006863362663905801
2025/04/01 17:52:45.877672283,1743522765,873073722,piren,-0.012439429725873839,-0.9988385621108604,-0.10547806534190485,0.0006244780447021954,0.0047192041358231525,-0.0008375621169733832
2025/04/01 17:52:46.65925076,1743522766,54679208,piren,-0.008664970631935564,-0.862285318619753,-0.04659413875139691,0.00052750380741067,0.007868068541200358,-0.0007147930594397158
2025/04/01 17:52:46.246567825,1743522766,242592296,piren,-0.004207955934180707,-0.7572936904820393,-0.0032268156359802486,0.000685483135013828,0.0052017026771197265,-0.0007304465328439449
2025/04/01 17:52:46.429552770,1743522766,426192616,piren,0.0014842456409490216,-0.5713160986694232,0.07075554267470983,0.0008036165113413417,-0.0019596658205998595,-0.0010634457542138803
2025/04/01 17:52:46.610164969,1743522766,606561850,piren,0.003960249006240056,-0.4847548599651885,0.10698490000739894,0.0009498798342494653,-0.00710668213075245,-0.0011408502477710293
2025/04/01 17:52:46.793835158,1743522766,787184192,piren,0.0022690679122199893,-0.473869434898735,0.11285567370193439,0.0010486089329353435,-0.005733527720594298,-0.0012530971259350472
2025/04/01 17:52:46.975113949,1743522766,972140635,piren,-0.0018889788893381677,-0.5000795860377834,0.10273662162132587,-0.0005570195706406157,-0.0010961099485970005,-0.0013262469818043972
2025/04/01 17:52:47.159854398,1743522767,156067144,piren,-0.00847339275915211,-0.657177503371578,0.0419504949288526,-0.0006695708056632214,0.005175726011403498,-0.001116207836450115
2025/04/01 17:52:47.373094855,1743522767,369604865,piren,-0.011977140710906232,-0.764546987467112,-0.002103457605374434,-0.0009251898438126117,0.0067764728816083405,-0.0010415758601742262
2025/04/01 17:52:47.550845014,1743522767,548002993,piren,-0.014010373316342074,-0.9419117648715214,-0.08186478781738636,-0.0009075266216911331,0.0019959997826780396,-0.0013920934201961483
2025/04/01 17:52:47.729641264,1743522767,725745844,piren,-0.0115495942643981,-0.9219945907565047,-0.07156798660868027,-0.0008320892722099461,-0.004307083615438308,-0.0011969318374013198
2025/04/01 17:52:47.918017001,1743522767,905124152,piren,-0.009249761749970921,-0.8817739179045033,-0.053462062663494056,-0.0008522078227370627,-0.006907608279904007,-0.0021326090596564193
2025/04/01 17:52:48.98148429,1743522768,93536321,piren,-0.010311935824530074,-0.9553181937553303,-0.08536727818681705,-0.0007160114674715402,-0.004967733095204095,-0.0014606345499203076
2025/04/01 17:52:48.278935343,1743522768,275527168,piren,-0.011968974834144965,-0.9766542794324335,-0.09536916382872399,0.0009134052590846714,-0.0007021841955703868,-0.0014481017214431344
2025/04/01 17:52:48.459206411,1743522768,454662635,piren,-0.00934767475259897,-0.8517446313482209,-0.04181245164589783,0.0008405917685042052,0.004994496079020346,-0.0010903049356694916
2025/04/01 17:52:48.638284396,1743522768,633780845,piren,-0.006345875902025647,-0.7563786710803028,-0.001057898694979624,0.0006981126643305572,0.005716773829608928,-0.0010115705161490888
2025/04/01 17:52:48.819856701,1743522768,814816478,piren,-0.0032284975958197823,-0.6905706861207377,0.025070639105706064,0.0007674873367874933,0.0027841815503250665,-0.0021069994472484683
2025/04/01 17:52:49.942656,1743522768,996756806,piren,0.0013859965878048465,-0.5342233317695458,0.08338212043494364,0.0007049621914049079,-0.0029995287717457094,-0.0016382558639520004
2025/04/01 17:52:49.188385816,1743522769,181933811,piren,0.004848857155274607,-0.46148656296554824,0.11148091136357463,-0.000906334338453313,-0.0057996865477733224,-0.0015680220005534888
2025/04/01 17:52:49.371669115,1743522769,368001081,piren,5.527375378668563e-05,-0.5641946463788385,0.07277177459381923,-0.0008617558991337046,-0.005062445444555352,-0.0006751345218456327
2025/04/01 17:52:49.553261827,1743522769,548261986,piren,-0.0062811816425443895,-0.6567152330634157,0.03621749320215733,-0.0006961236128388184,0.00153474565854022,-0.000435700295296377
2025/04/01 17:52:49.732217356,1743522769,728011113,piren,-0.01081920612032328,-0.728171384161898,0.008700082633928748,-0.0006429025342391613,0.005737287454896313,-0.0005785161620405711
2025/04/01 17:52:49.915797196,1743522769,909236644,piren,-0.014691278566352332,-0.8851368243561424,-0.0621290226479524,-0.0005592772748531591,0.006409367336577331,-0.0008651709599777622
2025/04/01 17:52:50.129069542,1743522770,124945526,piren,-0.014889003802137006,-0.9614150758630344,-0.09769287572089816,-0.0006673409840316609,0.001439539890114903,-0.00104045408795913
2025/04/01 17:52:50.314164964,1743522770,308555204,piren,-0.013181532862063899,-0.975267761581928,-0.10487430155137865,-0.0009220995135782178,-0.004831661307124344,-0.0009908237559520209
2025/04/01 17:52:50.495919137,1743522770,491066120,piren,-0.011294248052764227,-0.9575957345162819,-0.09689649447563944,-0.0012149921653595566,-0.007035232193682446,-0.0009367976414668873
2025/04/01 17:52:50.673787871,1743522770,670931307,piren,-0.010362116063061616,-0.9069643588947215,-0.0755774892019226,0.0003381465315145984,-0.004683260512814077,-0.0009791914191840817
2025/04/01 17:52:50.859111727,1743522770,850194996,piren,-0.006223915443570799,-0.7533054159129747,-0.005870232108209167,0.0005668958018945685,0.0014454032000419945,-0.0008064617083137042
2025/04/01 17:52:51.68446873,1743522771,48919833,piren,-0.00337093701973637,-0.6489618673289911,0.03947314489014381,0.0009613955185792985,0.005047586548852063,-0.0007153005647621394
2025/04/01 17:52:51.260917003,1743522771,256559721,piren,0.0009314124991299517,-0.4782459278216734,0.10645954335211832,0.0010961338966675694,0.005133915756948928,-0.0009535696782759505
2025/04/01 17:52:51.441506155,1743522771,438669541,piren,0.0007871826039711645,-0.514484552141495,0.09058429790000375,0.0010354588654190602,0.0003500667425674,-0.0013333901391898552
2025/04/01 17:52:51.622159727,1743522771,617901843,piren,-0.0004939769232357452,-0.5730197590061848,0.06621612233379032,0.0009851074271639225,-0.0033227430117262315,-0.0014377843116847267
2025/04/01 17:52:51.806542150,1743522771,800410607,piren,-0.000395878862492022,-0.5159877735910882,0.08545201279402362,0.0006717123592505633,-0.005082006996072866,-0.0009345907895691938
2025/04/01 17:52:52.1021709,1743522771,982752342,piren,-0.0023371933803907397,-0.5045350149455785,0.08734436955446077,-0.0010747740257840712,-0.003368375586876849,-0.0009165338900410398
2025/04/01 17:52:52.181734308,1743522772,163706664,piren,-0.007372499601979792,-0.6347950528656852,0.03678944602245437,-0.0010572315112887202,0.0011405605755562265,-0.0007208247913658253
2025/04/01 17:52:52.349036076,1743522772,344553703,piren,-0.010610020270406233,-0.7285261361205826,-0.0015518744140376808,-0.0008444001424626663,0.004466491858410591,-0.0006414282951175637
2025/04/01 17:52:52.530692964,1743522772,526453075,piren,-0.011727074420605926,-0.788745339124354,-0.025924829941872285,-0.0007463832441517608,0.0041399473300601005,-0.0012819091142635848
2025/04/01 17:52:52.744254730,1743522772,740404493,piren,-0.01296334794865353,-0.9272669675361171,-0.08917731895656372,-0.0005045451639732965,0.0006615396084090762,-0.0008985305457641064
2025/04/01 17:52:52.935734590,1743522772,921618722,piren,-0.01262122716457335,-0.9820309185776764,-0.11537691277391643,-0.0004931068654030941,-0.0034531199679685206,-0.0009936128359659896
2025/04/01 17:52:53.117579673,1743522773,103638562,piren,-0.012146687939458127,-0.9770733409424807,-0.11377203357168361,-0.0007414157829317555,-0.004283338877953527,-0.0010785533076470447
2025/04/01 17:52:53.294004672,1743522773,287501443,piren,-0.011406313769885594,-0.9444003864011407,-0.09919291919963313,0.00059223984557601,-0.002923295136374149,0.0
2025/04/01 17:52:53.477149505,1743522773,474423891,piren,-0.006304829982992226,-0.7930150285354116,-0.02994473405703857,0.00036102696270681154,0.00047885779357256027,-0.0022771028181104874
2025/04/01 17:52:53.659328896,1743522773,655055619,piren,-0.0026396139393916325,-0.6783460199941614,0.01918711068004477,0.00039403520098073015,0.003092902600075229,-0.0011081516958005994
2025/04/01 17:52:53.838920920,1743522773,835441474,piren,-0.0003824459929098463,-0.6057278325099573,0.04829433319684668,0.0007296914980401001,0.0030931193416762937,-0.0006392674511073464
2025/04/01 17:52:54.22481391,1743522774,17336961,piren,0.008785166017013839,-0.45824060809991485,0.10555620697911891,0.0010467280506959728,0.0011827328301286266,-0.000625823013883482
2025/04/01 17:52:54.225885571,1743522774,202433641,piren,0.007339358729722594,-0.40268347787632724,0.12461254948615441,0.0011820288255981976,-0.0013912938067237133,-0.000541953901879226
2025/04/01 17:52:54.397560229,1743522774,391692329,piren,0.0037757035854149626,-0.40307546720409976,0.12208549507269624,-0.0004183525050120918,-0.0022091800548869923,-0.0005540936603550528
2025/04/01 17:52:54.580057956,1743522774,577083523,piren,-0.0038777328597468246,-0.5536380458544058,0.06305436411135398,-0.0007254061197409544,-0.0013194505900189235,-0.00037709044986109045
2025/04/01 17:52:54.765867823,1743522774,761944497,piren,-0.009190871675310259,-0.6697444653570086,0.014562594241755586,-0.0009658052058442259,0.0012731483129187632,-0.00047754313584839154
2025/04/01 17:52:54.948518605,1743522774,945162128,piren,-0.012616138137446537,-0.7509069014635328,-0.018560106946452534,-0.0010405258914429475,0.0023841979442115876,-0.0005281173154176124
2025/04/01 17:52:55.131239578,1743522775,128001981,piren,-0.01302519246405674,-0.7941238490557238,-0.03749473061515442,-0.001070022517672885,0.0014450089355417038,-0.00048588219117566236
2025/04/01 17:52:55.326169847,1743522775,312111951,piren,-0.01399004419731747,-0.9251680694919754,-0.09583147914411047,-0.0008623899955472714,-0.0006940018251952704,-0.0006277501235287825
2025/04/01 17:52:55.539580023,1743522775,535890768,piren,-0.012734564338916893,-0.9673056187773467,-0.1170203052234648,-0.0006504667075987548,-0.004252857138378974,-0.0005753851072922496
2025/04/01 17:52:55.720257710,1743522775,716643791,piren,-0.01165716512346145,-0.9552047384750052,-0.11233900697271228,-0.0006100656193296652,-0.0026636546706428816,0.0004965262821477921
2025/04/01 17:52:55.904446656,1743522775,898505251,piren,-0.009238079902116364,-0.9045575814577217,-0.09133023044039813,-0.0007010627379464099,0.00024237650361707769,0.00034490077765539487
2025/04/01 17:52:56.94993703,1743522776,88648581,piren,-0.006836801014833976,-0.8441599359026907,-0.06689678203235733,0.0007410073615250459,0.00249056033525305,0.0004145885453082046
2025/04/01 17:52:56.281181822,1743522776,276681333,piren,-0.001134599214947879,-0.684918153284799,0.0035353353428383694,0.0005668438518369492,0.002756218374108878,0.0003440820335600233
2025/04/01 17:52:56.471062529,1743522776,463938670,piren,0.003429249246573168,-0.5780009562161933,0.04807270393852536,0.0005070926615174859,0.0008139066232289269,0.00039178707327441995
2025/04/01 17:52:56.648138433,1743522776,644775991,piren,0.0053658028170041555,-0.5274944861978395,0.0689537954000922,0.0005382019919945775,-0.0017649109330879595,0.00047466327510804036
2025/04/01 17:52:56.840405580,1743522776,837271666,piren,0.005698214961739073,-0.5110806021190467,0.07408850157724411,0.0008092476199934141,-0.0028473306632858623,0.0004857647448603706
2025/04/01 17:52:57.26848678,1743522777,23269440,piren,0.01276275745053616,-0.411279661164873,0.11143501886910623,0.0009725023726665465,-0.001928177491448297,0.0011888409271099787
2025/04/01 17:52:57.221948941,1743522777,209904018,piren,0.007172396017221477,-0.3904679412327835,0.11754033583712942,0.0010744544324896666,0.0013952045117924799,0.0013002698760374589
2025/04/01 17:52:57.413823258,1743522777,404007139,piren,0.0019494922497863502,-0.41951772768961865,0.10230413969233569,0.0010134770179403218,0.003610007326117089,0.0013346554904173863
2025/04/01 17:52:57.594017037,1743522777,589518237,piren,-0.002074593704856591,-0.4776273086410595,0.07652855728633123,0.0008255136125719205,0.0029808204750656044,0.0013130696149487467
2025/04/01 17:52:57.777068650,1743522777,772634626,piren,-0.004027361126100653,-0.535568053076214,0.05057104423008485,-0.0008924639796974459,0.000917413535597725,0.0011314025029186862
2025/04/01 17:52:57.960344940,1743522777,955878413,piren,-0.00784960628175278,-0.6973121722347071,-0.012043597936376257,-0.0009439280450587001,-0.0021819896836901063,0.0008334886911860143
2025/04/01 17:52:58.157906004,1743522778,139937338,piren,-0.0094848362446107,-0.7958090045698566,-0.05063391049102574,-0.0008091048894654277,-0.0034442620983655124,0.0007338880476172703
2025/04/01 17:52:58.363065197,1743522778,358319162,piren,-0.01040256462056342,-0.8353284116987209,-0.06705475060012919,-0.0007866896380243126,-0.002374392409648052,0.0014629334277138353
2025/04/01 17:52:58.544316740,1743522778,541183601,piren,-0.012723031152473335,-0.9474495696636052,-0.11656412722477083,-0.00044416733446963485,0.0005018775225601414,0.0010865123686532886
2025/04/01 17:52:58.727590306,1743522778,724518562,piren,-0.008507303237048031,-0.8725666617686341,-0.0826880662266643,-0.0006236639667969851,0.0010796863340110164,0.0014538592872831888
2025/04/01 17:52:58.912230560,1743522778,907753519,piren,0.007722211688814498,-0.902024898196579,-0.09836343901603405,-0.000727237074673553,0.0009134307691473309,0.001571377354406542
2025/04/01 17:52:59.104782446,1743522779,94742925,piren,0.004247685766267098,-0.8913630764847779,-0.0976021058398985,0.0006616902044223374,-0.00019216481286055576,0.0014765726763614324
2025/04/01 17:52:59.291380256,1743522779,285413134,piren,0.0042773993453913885,-0.752283179660027,-0.037308018177905265,0.0004619222065601976,-0.0005686215346064201,0.001271834384846017
2025/04/01 17:52:59.485312463,1743522779,479803419,piren,0.0028412986568576186,-0.6450901892442756,0.007489905892439391,0.0003592646239460035,-0.0013713379470000908,0.0014717362600923135
2025/04/01 17:52:59.669935419,1743522779,663845836,piren,0.002884533121868374,-0.5801334941367726,0.035041130531270365,0.0005504989878296579,-0.0009714837867184844,0.0016071821889530116
2025/04/01 17:52:59.851044387,1743522779,846823685,piren,0.0038928020332143955,-0.5508601798313079,0.046605554898287535,0.0008967796067272637,0.0008444506761846321,0.0015576951181498816
2025/04/01 17:53:00.38384184,1743522780,31924622,piren,0.0016792416100991272,-0.5410421841291294,0.04868626628464477,0.0012395277147011184,0.0016063026149901185,0.0015217143179453083
2025/04/01 17:53:00.231889726,1743522780,218370118,piren,0.002130597714630569,-0.4292466434197662,0.08766107578496717,0.0011969932801260438,0.0013999531481653298,0.0022257440531184046
2025/04/01 17:53:00.418143159,1743522780,410526248,piren,0.0025184505936061054,-0.39429039283145484,0.09944984169853684,0.0010074146887290051,7.363431578817974e-05,0.002466931528539447
2025/04/01 17:53:00.610257165,1743522780,605126379,piren,0.0025990634507245727,-0.4100608380669668,0.09045944412906651,0.000746224812714625,-0.0005993884910087106,0.0021408449169723017
2025/04/01 17:53:00.799958366,1743522780,795414735,piren,0.0013207944210528535,-0.4467890182153964,0.07360718189870419,-0.0010618644852411793,-0.0003237239510119124,0.0020428290652673388
2025/04/01 17:53:00.994313144,1743522780,986295458,piren,-0.0019659955282356504,-0.6041336686515492,0.013383499108384038,-0.0011242680593202077,0.0005784040306304985,0.0015879229324251396
2025/04/01 17:53:01.221526303,1743522781,214942910,piren,-0.003408879112612992,-0.7086449358052063,-0.027290219471400395,-0.0009064045897442966,0.0011282183001186255,0.0014694671058109391
2025/04/01 17:53:01.410711121,1743522781,406024518,piren,-0.003271367226080399,-0.7597796135210968,-0.047839039377416334,0.0011226834380755424,0.00011754434108787288,0.001406289127473922
2025/04/01 17:53:01.600290905,1743522781,596975839,piren,0.0009234506855130189,-0.6771999400697508,-0.017115587256486077,0.0013074632549052072,-0.0015194449678042087,0.001876830752928664
2025/04/01 17:53:01.787962545,1743522781,783399592,piren,0.0037956948678122735,-0.6208063391982263,0.005203084219851845,-0.00030158906098429775,-0.0034833584929822655,0.0022119877502625755
2025/04/01 17:53:01.988251981,1743522781,972361856,piren,0.004607351370258841,-0.6862369002055869,-0.019468732344938712,-0.0006192131325762786,-0.0027885324670363257,0.002118394788917314
2025/04/01 17:53:02.171531961,1743522782,166876582,piren,0.004885726467681963,-0.716919410962147,-0.03201820449423998,-0.0010542066272614618,0.0004245840728702926,0.0022170492999067882
2025/04/01 17:53:02.355273617,1743522782,352605596,piren,0.004204477944085086,-0.7250038571632115,-0.035182133367116175,-0.0012131155877431815,0.0030466853356102123,0.0023246856259663525
2025/04/01 17:53:02.540216616,1743522782,536129856,piren,0.005027421988688077,-0.7159713813648989,-0.033001906630623946,-0.001043573548188513,0.002717599813222778,0.002071058817663967
2025/04/01 17:53:02.725166186,1743522782,721313803,piren,0.00688771484897123,-0.6921437050060842,-0.026208233572429476,-0.0009066346474232756,0.0003381555679978958,0.004127536832271187
2025/04/01 17:53:02.928764606,1743522782,910500858,piren,0.006930932098929846,-0.7851894004078087,-0.06962459888864217,-0.0005551595828732816,-0.0036630266164335403,0.0032409772916200605
2025/04/01 17:53:03.114442167,1743522783,102744899,piren,0.012393626705078788,-0.8244808570330872,-0.08892284791125611,-0.0004464533714508438,-0.008040138320302391,0.003285779234395688
2025/04/01 17:53:03.295116524,1743522783,291314943,piren,0.020537296587235035,-0.8225490528511739,-0.08748142419263097,0.0010650145567428152,-0.011362808374064103,0.004189381055999973
2025/04/01 17:53:03.479609535,1743522783,476121055,piren,0.0327603186423851,-0.6926781750617477,-0.028292367037418567,0.0007517732054522741,-0.01541477246626301,0.0037301493828453855
2025/04/01 17:53:03.664502248,1743522783,660240569,piren,0.05606487330815005,-0.5968709224391671,0.013951773307753886,-0.0006168108156965796,-0.022814642512761878,0.004568450984758272
2025/04/01 17:53:03.887916076,1743522783,881208123,piren,0.07924824568658484,-0.6396298124574525,-0.009724209598938039,-0.0008626031096228724,-0.02545227664767705,0.004739114751703525
2025/04/01 17:53:04.79126585,1743522784,75345955,piren,0.0967558585857653,-0.6213482818319801,-0.008953353749545635,-0.0003671721920991196,-0.01302112639911241,0.009372458677943044
2025/04/01 17:53:04.268078448,1743522784,263899757,piren,0.10607585605684951,-0.5599757395657445,0.0005398858221879899,-0.0004320948150851339,0.004080097509333516,0.007069332446763939
2025/04/01 17:53:04.452915057,1743522784,448616580,piren,0.1034613438866011,-0.4201335877314716,0.03507306917776481,-0.0005283667083635815,0.012765982302836942,0.007325731879218693
2025/04/01 17:53:04.642180951,1743522784,632590342,piren,0.09171349987159308,-0.36171399295121887,0.031246008534105044,-0.0002069930321288863,0.01173460947287811,0.006348720768360218
2025/04/01 17:53:04.842878120,1743522784,832396368,piren,0.06874125645081156,-0.2651232237727993,0.03943114739668188,0.0007439538154795866,0.003455365957486391,0.008548009808296925
2025/04/01 17:53:05.29910646,1743522785,25415946,piren,0.04302817421180341,-0.1772024847739897,0.04487300474341707,0.0005734686661874433,-0.0053860394315818575,0.007880821706999963
2025/04/01 17:53:05.216166865,1743522785,210848964,piren,0.01688398878300111,-0.11886417785249366,0.041297875901385964,-0.0002775352888253256,-0.00715927688703603,0.007954426137661867
2025/04/01 17:53:05.402365101,1743522785,397749164,piren,-0.004925561668051814,-0.075090184819602,0.03365453411578328,-0.0014237307673502606,-0.003461520071517338,0.007840936640477678
2025/04/01 17:53:05.594294856,1743522785,582592095,piren,-0.02194163403514787,-0.1502993556820923,-0.023433404418052896,-0.0011007050708275107,0.005560689638972064,0.006105605255006471
2025/04/01 17:53:05.787932220,1743522785,771569869,piren,-0.031053076600529236,-0.055079134060816895,-0.005216371576341396,-0.00048448684281663713,0.01311226847769173,0.005621095329409289
2025/04/01 17:53:05.973918415,1743522785,968105924,piren,-0.036223048724651305,-0.039825202874773195,-0.022719680547460975,0.0011998081190555386,0.012955490236566343,0.005287699406106427
2025/04/01 17:53:06.165282238,1743522786,161906048,piren,-0.03236778246860078,0.05557114615480594,-0.00448178929260842,0.00014718680970194595,0.004425586223558796,0.005408018548146276
2025/04/01 17:53:06.352383117,1743522786,347625378,piren,-0.032299879955781506,0.020984102798455466,-0.04115392287879843,-0.0002918535134500745,-0.005214698318677805,0.004774559285530459
2025/04/01 17:53:06.539582053,1743522786,533793212,piren,-0.03266152859300812,0.01594316192758805,-0.05899502385276392,-0.0007773663977528545,-0.008337305346421561,0.009231445450086029
2025/04/01 17:53:06.764108979,1743522786,760242118,piren,-0.030538712219550436,0.04167781382834499,-0.06072270131086846,-0.0006208719819666062,-0.004100796027461379,0.006619932172970268
2025/04/01 17:53:06.955256488,1743522786,951061988,piren,-0.02530144757556693,0.18863732385075188,-0.009859048384954938,0.00010221472930065797,0.007528466284179517,0.005893323216839594
2025/04/01 17:53:07.142255675,1743522787,140214945,piren,-0.02124829155932341,0.4291656028827207,0.07539831866254358,-0.0008125846888122031,0.010197395704150538,0.008685721664445058
2025/04/01 17:53:07.334204752,1743522787,327209876,piren,-0.01698145613500012,0.4752551443856179,0.08210785300620128,1.7079525677568888e-05,0.00963318928831363,0.006917867070043633
2025/04/01 17:53:07.519582949,1743522787,513480842,piren,-0.011859504425411366,0.4301623383264074,0.0482797813441528,0.0015724801835787028,0.002500131992232963,0.006905194157367612
2025/04/01 17:53:07.712392656,1743522787,704916748,piren,-0.009798682046994805,0.49997778686956607,0.06352252303389914,0.0005469463428835875,-0.004376159961580543,0.006058394691884769
2025/04/01 17:53:07.909428270,1743522787,905200803,piren,-0.009667603538992557,0.43444670618455217,0.024867480251081528,0.0008704386085484441,-0.00543023581031622,0.005742027494447367
2025/04/01 17:53:08.97002958,1743522788,92961910,piren,-0.012865863400794045,0.5290601869439784,0.05095262026581178,-0.0005089214182133529,-0.0001990975560199091,0.00535386001355331
2025/04/01 17:53:08.286181009,1743522788,280221630,piren,-0.014756846978890029,0.4939733773494468,0.028951908328795888,-0.0015530690158422453,0.005225674914878319,0.005015279756425044
2025/04/01 17:53:08.476653115,1743522788,468255423,piren,-0.013463535592109768,0.42298043724449463,-0.009489958578092334,-0.0013854614775291746,0.009093537812843729,0.003590656465715586
2025/04/01 17:53:08.665210675,1743522788,660925851,piren,-0.01166740805692891,0.4264336770995656,-0.019107704822082745,-0.0008932477180024364,0.0066734707047986265,0.0036506220859913027
2025/04/01 17:53:08.855468980,1743522788,851990911,piren,-0.008301571125640042,0.44148736137462813,-0.022330406573117863,0.0012326495673484243,-0.00012210759781864906,0.0032159057389868693
2025/04/01 17:53:09.43553178,1743522789,40183393,piren,-0.008575200228279503,0.5622056978311307,0.01715739061394881,-3.0666606400785116e-05,-0.004397656852082742,0.006068033123475013
2025/04/01 17:53:09.231724103,1743522789,227738211,piren,-0.007401915174342069,0.5304622179805378,0.0014460174937766003,-0.00013080144084088498,-0.005145168177175654,0.0038987449600053395
2025/04/01 17:53:09.419300828,1743522789,414036408,piren,-0.007261676782173456,0.5147553263964696,-0.008841953999245184,0.000590404161814829,-0.000181945944733327,0.0039031049551929656
2025/04/01 17:53:09.641170423,1743522789,638335595,piren,-0.009408617259487731,0.617337663414854,0.02547818073734749,-0.000785585331520051,0.0058108719248991855,0.0033002803061323075
2025/04/01 17:53:09.836015852,1743522789,831382789,piren,-0.004457194299585102,0.4489334746907375,-0.05245508702503311,-0.0007789502819658591,0.007967968615552656,0.0029729641990529163
2025/04/01 17:53:10.40474105,1743522790,36626396,piren,-0.0059197409012547025,0.48380187182597045,-0.04149178615553108,0.0006463869827881144,0.004037704502592792,0.002431295752150648
2025/04/01 17:53:10.246620914,1743522790,241237023,piren,-0.00019089016436803306,0.5088249488284404,-0.03427612766871288,-0.0010217729724044512,-0.002606873509765989,0.0021352500556050926
2025/04/01 17:53:10.435715688,1743522790,430703554,piren,0.001874979610055812,0.5658351691307402,-0.011459592932592352,0.00022556752752899683,-0.006024810924633906,0.0017830518632571978
2025/04/01 17:53:10.622692053,1743522790,618499046,piren,0.0019122954783136043,0.5991954416241683,0.000508663769177067,-0.0006279426034132834,-0.003021349603252159,0.0016444380402651554
2025/04/01 17:53:10.812186760,1743522790,806382373,piren,-0.00012757714716892595,0.6324446176909972,0.012784152755189628,0.0004777381670466168,0.0033131346036245567,0.0012561954309368844
2025/04/01 17:53:11.11486102,1743522791,4389811,piren,-0.0005310118626773365,0.6367778525321668,0.010938809235342963,0.0019481697713185826,0.006702186741141587,0.0010537884787275983
2025/04/01 17:53:11.208775993,1743522791,200125776,piren,-0.0010471871912165844,0.7394765855768568,0.04564856171468381,-0.0020494632469518735,0.006433616151529079,0.0006531896340201215
2025/04/01 17:53:11.404105203,1743522791,396812142,piren,0.004812913030809137,0.5954550811908561,-0.020061256135281376,-1.4414224297933974e-05,0.0022719718842627956,0.0004734893378180721
2025/04/01 17:53:11.596652420,1743522791,589969218,piren,0.0020796232471177755,0.7249188597264478,0.029400152054196015,0.001749723475919275,-0.002740887802436815,0.0003568808056697719
2025/04/01 17:53:11.807368419,1743522791,800230929,piren,0.0010675382188758487,0.7685875711385037,0.049258907523951366,0.0007833834582077835,0.010626545961721218,0.0004412603754864299
2025/04/01 17:53:12.9704618,1743522791,997833649,piren,-0.06518907309800917,0.6796219085005291,0.013112899603354114,0.002071662399366096,0.04577175590900669,0.0018828089330984567
2025/04/01 17:53:12.196756649,1743522792,191559696,piren,-0.09398460016145756,0.6886183308033637,0.012459456734053622,0.0031575052457419785,0.038884038022314195,0.0036148393995739992
2025/04/01 17:53:12.420391025,1743522792,416213304,piren,-0.07890034118809192,0.6622659956622087,0.004123144815607452,0.002797936747627811,-0.001773046976341603,0.005520681485115709
2025/04/01 17:53:12.612851431,1743522792,605480095,piren,-0.04018114849031983,0.650917897262751,0.02045728923157977,-0.0006425765851177048,-0.04325509585267632,0.006860055038888211
2025/04/01 17:53:12.817848588,1743522792,800961942,piren,-0.0015455577882228025,0.4381227162275977,-0.04058832409828288,-0.001277302644147484,-0.035166891838166035,0.010772479122596205
2025/04/01 17:53:13.997447,1743522792,995764790,piren,0.03365070647591826,0.23981283464727174,-0.09460868400005407,-0.0006581487195352981,-0.008304998114082869,0.011421759070592256
2025/04/01 17:53:13.196225185,1743522793,192569219,piren,0.057050080481121104,0.3450067167428628,-0.027778444238140784,0.0002021124386516502,0.02905656062392379,0.010015183501950695
2025/04/01 17:53:13.387648036,1743522793,383688205,piren,0.08730103981815707,0.315883626088133,-0.026442255669162883,-0.0005207614992503334,0.038071454215727454,0.01043201047668949
2025/04/01 17:53:13.596430878,1743522793,578473464,piren,0.12162134359718882,0.33636882155278586,-0.011336071356693844,0.000298129731359722,0.012388317268471472,0.011431926785586466
2025/04/01 17:53:13.784833287,1743522793,779902480,piren,0.1575715996968022,0.22289279927726824,-0.05338916183758234,0.00026626843652179463,-0.023587618349740967,0.011527153941213291
2025/04/01 17:53:13.976939935,1743522793,972237126,piren,0.17424850339102638,0.26900504961213156,-0.014368974021184519,0.00042466483448686193,-0.03839495396682537,0.012174225556215116
2025/04/01 17:53:14.165128508,1743522794,161577906,piren,0.18093252179260094,0.26088092386248574,0.00476141057151255,0.0007486601600996891,-0.0210839943448769,0.012127250497503286
2025/04/01 17:53:14.358983198,1743522794,351636653,piren,0.18296762458671698,0.34830477131881565,0.05556047180959625,-0.0013590610327785736,0.011220737405056568,0.011314384076706785
2025/04/01 17:53:14.551047084,1743522794,545781069,piren,0.19561200929870143,0.286305935966719,0.038448509341718534,-0.0023901134376857966,0.026052761512798738,0.022014818513941808
2025/04/01 17:53:14.740234454,1743522794,736107490,piren,0.21803562739446467,0.2588340124217197,0.02657581059036774,-0.000246474776741168,0.017858739700893016,0.015117959607905108
2025/04/01 17:53:14.965344283,1743522794,960281423,piren,0.24522400119913004,0.22108522012172074,0.010386760128624193,0.0009315309387220203,-0.0015488051136332789,0.022016804956933828
2025/04/01 17:53:15.160783828,1743522795,152671404,piren,0.26217294915500067,0.2136507587678338,0.013915507376722633,0.0002794407279832304,-0.02635177642086687,0.014113600678878164
2025/04/01 17:53:15.357684950,1743522795,345796678,piren,0.2780909369388148,0.1666820777919824,0.00608316062997348,0.0003265514327558763,-0.02225525506385833,0.00993460256376157
2025/04/01 17:53:15.545698142,1743522795,541901994,piren,0.2827999252414422,0.12035034701711851,-0.0022798623147090597,-0.0012292736060349292,-0.007074117886727992,0.020542150358050973
2025/04/01 17:53:15.741239559,1743522795,736415057,piren,0.29760719764963073,-0.01455114115338034,-0.05673764325100462,0.0005154663791908332,0.014041041673441085,0.014259687056806135
2025/04/01 17:53:15.931755044,1743522795,927860951,piren,0.3065978154093948,0.08207635972707833,-0.014278555014647532,-0.001709201740542311,0.02021586195565692,0.01307913891303179
2025/04/01 17:53:16.126294383,1743522796,122590229,piren,0.33563134455443944,-0.01025808838253539,-0.059125091837691574,0.0001423696484392059,0.007821119866941933,0.012815352297799735
2025/04/01 17:53:16.320123035,1743522796,313496099,piren,0.3460819430673375,0.12144082185227345,-0.0004818390431809219,0.00047298160589070705,-0.011054447724879525,0.012278620333488048
2025/04/01 17:53:16.520711533,1743522796,508368698,piren,0.36089395741737396,0.12580633274128414,0.009679066643128795,1.575896224484964e-05,-0.020061539607807738,0.012089826680562936
2025/04/01 17:53:16.716670755,1743522796,711889178,piren,0.383670468209629,0.010160225659363656,-0.03537879901449349,-0.0004133279236645269,-0.015140503278835227,0.012197779580608524
2025/04/01 17:53:16.916558649,1743522796,911890002,piren,0.3979428295886912,-0.0512022096627348,-0.05609876886325876,0.0007294311434926121,0.00493364566826936,0.008171972148589392
2025/04/01 17:53:17.111588837,1743522797,104455674,piren,0.39569863644296605,0.15223569365075346,0.03338714925370519,0.00023986835070296815,0.016013069562524244,0.010692407045959666
2025/04/01 17:53:17.313154426,1743522797,297240462,piren,0.4101770548225879,0.18849007319140437,0.050972002454971715,0.0008874956716203669,0.012416666644136933,0.010874973019429275
2025/04/01 17:53:17.495932331,1743522797,489361788,piren,0.4227276590056128,0.28784265416534105,0.09050789599503184,-7.809047338346286e-05,0.0003858749691915315,0.010560020551259949
2025/04/01 17:53:17.725802492,1743522797,721557537,piren,0.44211294905485304,0.3260609929405731,0.106257644718321,-0.0016523371513483607,-0.015746637458086354,0.010437756553594867
2025/04/01 17:53:17.923276939,1743522797,916668392,piren,0.4688757388964852,0.14388909897620433,0.03759495576842463,-0.0011313585747993345,-0.012028524421951223,0.012083750961879376
2025/04/01 17:53:18.122066551,1743522798,111171792,piren,0.4922237797815335,0.02447275436611418,-0.006391376803377237,-0.0010135211415367492,0.0014554261616289473,0.019856077169045767
2025/04/01 17:53:18.311508350,1743522798,304760000,piren,0.5044358887120772,0.028882850076023182,-0.003672787797311851,-0.0025702708783326453,0.011134785847461897,0.021974980083832262
2025/04/01 17:53:18.500134660,1743522798,495283593,piren,0.5208577633484758,0.004110013763464319,-0.015907695221761508,-0.0002792473179681016,0.015279177658068677,0.019248399078240313
2025/04/01 17:53:18.700388472,1743522798,693861840,piren,0.5545123716703522,-0.10517907473627162,-0.06893399980547427,0.0026411979533399904,0.004885012636451546,0.023281552676503833
2025/04/01 17:53:18.910192893,1743522798,898704900,piren,0.5582762761124733,0.03229392639991459,-0.013947004805868475,0.0005476069563225585,-0.0103220683165204,0.02527703564876224
2025/04/01 17:53:19.101909513,1743522799,97718323,piren,0.5666490374229389,0.13282048899991278,0.029196151409776626,-0.001866667783517833,-0.014638580021952195,0.0304249503834248
2025/04/01 17:53:19.291695739,1743522799,286810640,piren,0.5859737535025935,0.06593102018873506,0.008578684678929215,-0.0012915543581059645,-0.008556640492156896,0.042554746228492736
2025/04/01 17:53:19.484355141,1743522799,478272233,piren,0.6030057349461451,0.002992959405990786,-0.01311943625022862,-0.0017570400160992596,0.004600322153753867,0.03548119143965808
2025/04/01 17:53:19.675959866,1743522799,672089443,piren,0.6127860858545766,0.05041170738186194,0.0061905249671041045,-0.0013748106670602354,0.01254958247645641,0.04024268485135386
2025/04/01 17:53:19.873836849,1743522799,870123796,piren,0.6458811457328458,-0.07970885303866596,-0.05599150362089822,-0.0006661916144816842,0.009271366303567957,0.041922450159189134
2025/04/01 17:53:20.72738694,1743522800,67723823,piren,0.6633948485519333,-0.1123838922002065,-0.07338804217327718,0.0005247004364350488,-0.0008486397718786814,0.040612730573194034
2025/04/01 17:53:20.308146230,1743522800,294551607,piren,0.6604390377669453,-0.09079627143332943,-0.06273270078350435,0.0013142682792885376,-0.009636858010131056,0.06720695433915048
2025/04/01 17:53:20.493192632,1743522800,485557642,piren,0.6407283276465471,0.053937928347112044,0.0028355700447440374,-0.0010225966951743783,-0.010011784670447877,0.04469421480863246
2025/04/01 17:53:20.693103566,1743522800,688875969,piren,0.6650363200980784,-0.0051630748531366205,-0.02155701539136188,-0.0013204211233935395,-0.0036750659873486225,0.04687888048543504
2025/04/01 17:53:20.885207331,1743522800,882161437,piren,0.6716871473527128,0.012785012929815293,-0.011627653888872793,-0.002282668889504207,0.0052140723490379185,0.04621639734688901
2025/04/01 17:53:21.93261760,1743522801,78772545,piren,0.6350885061542151,0.17625661130677908,0.05648633857867211,-0.00032598995795836546,0.010980091792139551,0.04704789838499274
2025/04/01 17:53:21.278620400,1743522801,274901347,piren,0.6137904142344717,0.27796729462438485,0.09616605886283466,0.0003469399905837533,0.005818705072999879,0.0487431697924281
2025/04/01 17:53:21.481830544,1743522801,475777201,piren,0.625925745852782,0.24350689958473445,0.08168851606254557,0.0017345742596930635,-0.003556310650426471,0.046416414946956
2025/04/01 17:53:21.676675173,1743522801,672464443,piren,0.6402096905719183,0.14933167488879767,0.04465084053795346,0.0017235585333112038,-0.00861516938208388,0.046175970674965275
2025/04/01 17:53:21.885896973,1743522801,868479305,piren,0.6518329666748279,0.058378630831701556,0.010122500323011839,0.00048364221177749685,-0.006264746609233912,0.04726546257243058
2025/04/01 17:53:22.72638802,1743522802,69163935,piren,0.6716053522913163,-0.056505592494888,-0.03729590316278551,-0.001959065659050054,0.001637719739468143,0.04520018578774892
2025/04/01 17:53:22.265012574,1743522802,261355040,piren,0.6821585822233366,-0.11513884997593926,-0.06226271261567054,-0.0029488743330235456,0.006864203602301778,0.04717395863771473
2025/04/01 17:53:22.455686297,1743522802,452237819,piren,0.6883130444184181,-0.14894322113327838,-0.07925562218887533,-0.0011801043558022104,0.006209186448916382,0.0425304195404566
2025/04/01 17:53:22.650308240,1743522802,644877327,piren,0.6674365990665129,-0.09838089705840651,-0.056635600078505405,-0.0018592884659174521,0.0026490848577667096,0.0823110730944249
2025/04/01 17:53:22.891609405,1743522802,886025190,piren,0.6604658802660188,-0.06593396639041352,-0.04215058570987344,0.00013229116432211658,-0.003750328857117225,0.05499449072006017
2025/04/01 17:53:23.87015460,1743522803,81948768,piren,0.6369228010771613,0.01605719836852436,-0.0028241579793844007,0.0026481641478321937,-0.006665515773761316,0.048225339656609065
2025/04/01 17:53:23.279668390,1743522803,276874831,piren,0.6186029395787946,0.07874788257858958,0.02810532619864916,0.0018579788907938976,-0.0024285823846027766,0.037642187111930896
2025/04/01 17:53:23.475675390,1743522803,468624281,piren,0.6022386378748698,0.10433828393174585,0.04327244550539917,-0.0007279044905553581,0.002902529853307194,0.03780832433087815
2025/04/01 17:53:23.667790913,1743522803,663874035,piren,0.5867177631423138,0.1112594329341376,0.0485070467644141,-0.001801106536114706,0.005761194534297027,0.03411108696741866
2025/04/01 17:53:23.864312696,1743522803,860241419,piren,0.5857468528718974,0.09379772588149385,0.041302593555694,-0.0036217731181279857,0.00405737752407628,0.03398092108727527
2025/04/01 17:53:24.59706347,1743522804,55943160,piren,0.6161689945662139,-0.025100691987246723,-0.012966481230264074,-0.0011781734616217211,-0.0006134351483791973,0.02942749995058682
2025/04/01 17:53:24.259726344,1743522804,250769540,piren,0.592216238652417,-0.0013690807834806466,0.0008972808150096555,0.001545885536261151,-0.003223093821670188,0.05521068290799219
2025/04/01 17:53:24.452531548,1743522804,446813423,piren,0.5564529284170923,0.05943823429961262,0.03144949553536435,0.0029952213119672773,-0.003946893585406323,0.03797892613422106
2025/04/01 17:53:24.648453738,1743522804,645090937,piren,0.5173951565216149,0.13891023128044103,0.066575571753854,0.004135715709957064,-0.0009294071119498667,0.03220872072654929
2025/04/01 17:53:24.844005025,1743522804,839973719,piren,0.5060578505166624,0.1442044028361109,0.07231144413728878,-6.069710406474394e-05,0.0026487206329031026,0.030107609735497167
2025/04/01 17:53:25.51853955,1743522805,39327818,piren,0.5497056942342162,0.0006969819819899747,0.015138394861745973,-0.00014133407366557333,0.004009184216321789,0.025602846259288728
2025/04/01 17:53:25.245370232,1743522805,240648659,piren,0.5705812465618685,-0.08147967698214566,-0.016827777458396788,-0.0031533386755458535,0.0026889188668780513,0.021768841924290617
