time,header_stamp_secs,header_stamp_nsecs,header_frame_id,status_status,status_service,latitude,longitude,altitude,position_covariance_0,position_covariance_1,position_covariance_2,position_covariance_3,position_covariance_4,position_covariance_5,position_covariance_6,position_covariance_7,position_covariance_8,position_covariance_type
2025/04/09 11:15:45.331688541,1744190145,152640065,mA1/gps,0,1,63.43459681859487,10.39309145363632,0.0,1.4400000000000002e-10,0.0,0.0,0.0,1.4400000000000002e-10,0.0,0.0,0.0,1.0,2
2025/04/09 11:15:45.331858395,1744190145,207698752,mA1/gps,0,1,63.434596819891325,10.393091460507822,0.0,1.4400000000000002e-10,0.0,0.0,0.0,1.4400000000000002e-10,0.0,0.0,0.0,1.0,2
2025/04/09 11:15:45.331944991,1744190145,246389689,mA1/gps,0,1,63.43459682060857,10.393091468248198,0.0,1.4400000000000002e-10,0.0,0.0,0.0,1.4400000000000002e-10,0.0,0.0,0.0,1.0,2
2025/04/09 11:15:45.332000473,1744190145,301186291,mA1/gps,0,1,63.43459682036522,10.39309147602303,0.0,1.4400000000000002e-10,0.0,0.0,0.0,1.4400000000000002e-10,0.0,0.0,0.0,1.0,2
2025/04/09 11:15:45.354444860,1744190145,352028845,mA1/gps,0,1,63.434596821134626,10.393091484227115,0.0,1.4400000000000002e-10,0.0,0.0,0.0,1.4400000000000002e-10,0.0,0.0,0.0,1.0,2
2025/04/09 11:15:45.404607133,1744190145,403034591,mA1/gps,0,1,63.43459682186298,10.393091491923297,0.0,1.4400000000000002e-10,0.0,0.0,0.0,1.4400000000000002e-10,0.0,0.0,0.0,1.0,2
2025/04/09 11:15:45.453515260,1744190145,452819652,mA1/gps,0,1,63.43459682249091,10.393091499512568,0.0,1.4400000000000002e-10,0.0,0.0,0.0,1.4400000000000002e-10,0.0,0.0,0.0,1.0,2
2025/04/09 11:15:45.505484086,1744190145,504626931,mA1/gps,0,1,63.43459682300232,10.39309150605546,0.0,1.4400000000000002e-10,0.0,0.0,0.0,1.4400000000000002e-10,0.0,0.0,0.0,1.0,2
2025/04/09 11:15:45.556021475,1744190145,553747730,mA1/gps,0,1,63.43459682313348,10.393091511543807,0.0,1.4400000000000002e-10,0.0,0.0,0.0,1.4400000000000002e-10,0.0,0.0,0.0,1.0,2
2025/04/09 11:15:45.599005685,1744190145,597384091,mA1/gps,0,1,63.43459682217508,10.393091517272936,0.0,1.4400000000000002e-10,0.0,0.0,0.0,1.4400000000000002e-10,0.0,0.0,0.0,1.0,2
2025/04/09 11:15:45.648009826,1744190145,647195617,mA1/gps,0,1,63.434596820722305,10.393091521867342,0.0,1.4400000000000002e-10,0.0,0.0,0.0,1.4400000000000002e-10,0.0,0.0,0.0,1.0,2
2025/04/09 11:15:45.699790709,1744190145,699264918,mA1/gps,0,1,63.434596820743295,10.393091525667773,0.0,1.4400000000000002e-10,0.0,0.0,0.0,1.4400000000000002e-10,0.0,0.0,0.0,1.0,2
2025/04/09 11:15:45.750240761,1744190145,749342621,mA1/gps,0,1,63.43459682149255,10.393091528971707,0.0,1.4400000000000002e-10,0.0,0.0,0.0,1.4400000000000002e-10,0.0,0.0,0.0,1.0,2
2025/04/09 11:15:45.803876579,1744190145,802732796,mA1/gps,0,1,63.434596820860804,10.393091531622694,0.0,1.4400000000000002e-10,0.0,0.0,0.0,1.4400000000000002e-10,0.0,0.0,0.0,1.0,2
2025/04/09 11:15:45.853194175,1744190145,852588968,mA1/gps,0,1,63.43459681941301,10.393091533834557,0.0,1.4400000000000002e-10,0.0,0.0,0.0,1.4400000000000002e-10,0.0,0.0,0.0,1.0,2
2025/04/09 11:15:45.904307983,1744190145,903714179,mA1/gps,0,1,63.43459681801638,10.393091535628832,0.0,1.4400000000000002e-10,0.0,0.0,0.0,1.4400000000000002e-10,0.0,0.0,0.0,1.0,2
2025/04/09 11:15:45.954375288,1744190145,953536378,mA1/gps,0,1,63.43459681751647,10.393091537420393,0.0,1.4400000000000002e-10,0.0,0.0,0.0,1.4400000000000002e-10,0.0,0.0,0.0,1.0,2
2025/04/09 11:15:46.6396606,1744190146,4568954,mA1/gps,0,1,63.434596817119335,10.393091539740693,0.0,1.4400000000000002e-10,0.0,0.0,0.0,1.4400000000000002e-10,0.0,0.0,0.0,1.0,2
2025/04/09 11:15:46.55103786,1744190146,54434850,mA1/gps,0,1,63.43459681671569,10.393091541628458,0.0,1.4400000000000002e-10,0.0,0.0,0.0,1.4400000000000002e-10,0.0,0.0,0.0,1.0,2
2025/04/09 11:15:46.106029717,1744190146,105502866,mA1/gps,0,1,63.434596816609165,10.39309154423485,0.0,1.4400000000000002e-10,0.0,0.0,0.0,1.4400000000000002e-10,0.0,0.0,0.0,1.0,2
2025/04/09 11:15:46.156644148,1744190146,155459201,mA1/gps,0,1,63.434596816833746,10.393091547812466,0.0,1.4400000000000002e-10,0.0,0.0,0.0,1.4400000000000002e-10,0.0,0.0,0.0,1.0,2
2025/04/09 11:15:46.207212289,1744190146,206386688,mA1/gps,0,1,63.434596816079036,10.393091551844352,0.0,1.4400000000000002e-10,0.0,0.0,0.0,1.4400000000000002e-10,0.0,0.0,0.0,1.0,2
2025/04/09 11:15:46.246953735,1744190146,246202633,mA1/gps,0,1,63.434596815023234,10.393091556428903,0.0,1.4400000000000002e-10,0.0,0.0,0.0,1.4400000000000002e-10,0.0,0.0,0.0,1.0,2
2025/04/09 11:15:46.298000456,1744190146,297316530,mA1/gps,0,1,63.43459681551714,10.393091561687925,0.0,1.4400000000000002e-10,0.0,0.0,0.0,1.4400000000000002e-10,0.0,0.0,0.0,1.0,2
2025/04/09 11:15:46.348949846,1744190146,347508159,mA1/gps,0,1,63.43459681699117,10.393091567518368,0.0,1.4400000000000002e-10,0.0,0.0,0.0,1.4400000000000002e-10,0.0,0.0,0.0,1.0,2
2025/04/09 11:15:46.398821794,1744190146,398091644,mA1/gps,0,1,63.434596817819816,10.393091574472132,0.0,1.4400000000000002e-10,0.0,0.0,0.0,1.4400000000000002e-10,0.0,0.0,0.0,1.0,2
2025/04/09 11:15:46.448719685,1744190146,447945963,mA1/gps,0,1,63.43459681766798,10.39309158184288,0.0,1.4400000000000002e-10,0.0,0.0,0.0,1.4400000000000002e-10,0.0,0.0,0.0,1.0,2
2025/04/09 11:15:46.499488033,1744190146,498967689,mA1/gps,0,1,63.43459681734023,10.393091588888511,0.0,1.4400000000000002e-10,0.0,0.0,0.0,1.4400000000000002e-10,0.0,0.0,0.0,1.0,2
2025/04/09 11:15:46.549602928,1744190146,548797469,mA1/gps,0,1,63.434596818270755,10.393091595440293,0.0,1.4400000000000002e-10,0.0,0.0,0.0,1.4400000000000002e-10,0.0,0.0,0.0,1.0,2
2025/04/09 11:15:46.601394695,1744190146,600491118,mA1/gps,0,1,63.43459681893343,10.393091601522535,0.0,1.4400000000000002e-10,0.0,0.0,0.0,1.4400000000000002e-10,0.0,0.0,0.0,1.0,2
2025/04/09 11:15:46.650403524,1744190146,649829516,mA1/gps,0,1,63.43459681999029,10.393091608025179,0.0,1.4400000000000002e-10,0.0,0.0,0.0,1.4400000000000002e-10,0.0,0.0,0.0,1.0,2
2025/04/09 11:15:46.702423203,1744190146,701784314,mA1/gps,0,1,63.434596820978,10.39309161507234,0.0,1.4400000000000002e-10,0.0,0.0,0.0,1.4400000000000002e-10,0.0,0.0,0.0,1.0,2
2025/04/09 11:15:46.751548363,1744190146,750762068,mA1/gps,0,1,63.43459682191398,10.393091622492072,0.0,1.4400000000000002e-10,0.0,0.0,0.0,1.4400000000000002e-10,0.0,0.0,0.0,1.0,2
2025/04/09 11:15:46.802734762,1744190146,802219280,mA1/gps,0,1,63.43459682148527,10.393091630384365,0.0,1.4400000000000002e-10,0.0,0.0,0.0,1.4400000000000002e-10,0.0,0.0,0.0,1.0,2
2025/04/09 11:15:46.852480588,1744190146,851720333,mA1/gps,0,1,63.43459682066028,10.393091637881525,0.0,1.4400000000000002e-10,0.0,0.0,0.0,1.4400000000000002e-10,0.0,0.0,0.0,1.0,2
2025/04/09 11:15:46.905120859,1744190146,903039004,mA1/gps,0,1,63.43459682093511,10.393091646487514,0.0,1.4400000000000002e-10,0.0,0.0,0.0,1.4400000000000002e-10,0.0,0.0,0.0,1.0,2
2025/04/09 11:15:46.954632770,1744190146,953887940,mA1/gps,0,1,63.434596822183494,10.393091657655175,0.0,1.4400000000000002e-10,0.0,0.0,0.0,1.4400000000000002e-10,0.0,0.0,0.0,1.0,2
2025/04/09 11:15:47.5770486,1744190147,4888215,mA1/gps,0,1,63.434596822094676,10.393091670463308,0.0,1.4400000000000002e-10,0.0,0.0,0.0,1.4400000000000002e-10,0.0,0.0,0.0,1.0,2
2025/04/09 11:15:47.55376769,1744190147,54772080,mA1/gps,0,1,63.43459682114823,10.393091681846425,0.0,1.4400000000000002e-10,0.0,0.0,0.0,1.4400000000000002e-10,0.0,0.0,0.0,1.0,2
2025/04/09 11:15:47.106745273,1744190147,105871856,mA1/gps,0,1,63.43459682013081,10.393091691876952,0.0,1.4400000000000002e-10,0.0,0.0,0.0,1.4400000000000002e-10,0.0,0.0,0.0,1.0,2
2025/04/09 11:15:47.157592386,1744190147,155676117,mA1/gps,0,1,63.434596819391906,10.393091699327059,0.0,1.4400000000000002e-10,0.0,0.0,0.0,1.4400000000000002e-10,0.0,0.0,0.0,1.0,2
2025/04/09 11:15:47.198501245,1744190147,196834696,mA1/gps,0,1,63.43459681892916,10.3930917044201,0.0,1.4400000000000002e-10,0.0,0.0,0.0,1.4400000000000002e-10,0.0,0.0,0.0,1.0,2
2025/04/09 11:15:47.249496835,1744190147,247617019,mA1/gps,0,1,63.43459681815258,10.393091707871449,0.0,1.4400000000000002e-10,0.0,0.0,0.0,1.4400000000000002e-10,0.0,0.0,0.0,1.0,2
2025/04/09 11:15:47.299247233,1744190147,298558396,mA1/gps,0,1,63.43459681759519,10.393091708566352,0.0,1.4400000000000002e-10,0.0,0.0,0.0,1.4400000000000002e-10,0.0,0.0,0.0,1.0,2
2025/04/09 11:15:47.349263167,1744190147,348484391,mA1/gps,0,1,63.43459681725475,10.39309170791068,0.0,1.4400000000000002e-10,0.0,0.0,0.0,1.4400000000000002e-10,0.0,0.0,0.0,1.0,2
2025/04/09 11:15:47.400956048,1744190147,400072764,mA1/gps,0,1,63.43459681535698,10.393091705177484,0.0,1.4400000000000002e-10,0.0,0.0,0.0,1.4400000000000002e-10,0.0,0.0,0.0,1.0,2
2025/04/09 11:15:47.450443032,1744190147,449842389,mA1/gps,0,1,63.43459681361449,10.393091700422644,0.0,1.4400000000000002e-10,0.0,0.0,0.0,1.4400000000000002e-10,0.0,0.0,0.0,1.0,2
2025/04/09 11:15:47.502268615,1744190147,501574472,mA1/gps,0,1,63.43459681324555,10.393091693553028,0.0,1.4400000000000002e-10,0.0,0.0,0.0,1.4400000000000002e-10,0.0,0.0,0.0,1.0,2
2025/04/09 11:15:47.551566684,1744190147,550778285,mA1/gps,0,1,63.434596813857794,10.393091683028826,0.0,1.4400000000000002e-10,0.0,0.0,0.0,1.4400000000000002e-10,0.0,0.0,0.0,1.0,2
2025/04/09 11:15:47.602701364,1744190147,602166944,mA1/gps,0,1,63.43459681361422,10.393091672185093,0.0,1.4400000000000002e-10,0.0,0.0,0.0,1.4400000000000002e-10,0.0,0.0,0.0,1.0,2
2025/04/09 11:15:47.652469538,1744190147,651777513,mA1/gps,0,1,63.43459681253585,10.393091662623197,0.0,1.4400000000000002e-10,0.0,0.0,0.0,1.4400000000000002e-10,0.0,0.0,0.0,1.0,2
2025/04/09 11:15:47.703720225,1744190147,702782819,mA1/gps,0,1,63.43459681147349,10.393091655975983,0.0,1.4400000000000002e-10,0.0,0.0,0.0,1.4400000000000002e-10,0.0,0.0,0.0,1.0,2
2025/04/09 11:15:47.753094532,1744190147,752595930,mA1/gps,0,1,63.434596811666616,10.39309165240306,0.0,1.4400000000000002e-10,0.0,0.0,0.0,1.4400000000000002e-10,0.0,0.0,0.0,1.0,2
2025/04/09 11:15:47.804587351,1744190147,803742107,mA1/gps,0,1,63.43459681161649,10.393091651931657,0.0,1.4400000000000002e-10,0.0,0.0,0.0,1.4400000000000002e-10,0.0,0.0,0.0,1.0,2
2025/04/09 11:15:47.854169518,1744190147,853635041,mA1/gps,0,1,63.43459681184601,10.3930916564011,0.0,1.4400000000000002e-10,0.0,0.0,0.0,1.4400000000000002e-10,0.0,0.0,0.0,1.0,2
2025/04/09 11:15:47.905961148,1744190147,904859994,mA1/gps,0,1,63.43459681244294,10.3930916658947,0.0,1.4400000000000002e-10,0.0,0.0,0.0,1.4400000000000002e-10,0.0,0.0,0.0,1.0,2
2025/04/09 11:15:47.955509939,1744190147,954542732,mA1/gps,0,1,63.4345968133538,10.393091679913312,0.0,1.4400000000000002e-10,0.0,0.0,0.0,1.4400000000000002e-10,0.0,0.0,0.0,1.0,2
2025/04/09 11:15:48.6833969,1744190148,5908265,mA1/gps,0,1,63.43459681311134,10.393091697935954,0.0,1.4400000000000002e-10,0.0,0.0,0.0,1.4400000000000002e-10,0.0,0.0,0.0,1.0,2
2025/04/09 11:15:48.56865384,1744190148,55875114,mA1/gps,0,1,63.434596812717196,10.393091720044065,0.0,1.4400000000000002e-10,0.0,0.0,0.0,1.4400000000000002e-10,0.0,0.0,0.0,1.0,2
2025/04/09 11:15:48.98603003,1744190148,96721245,mA1/gps,0,1,63.43459681344899,10.393091745800573,0.0,1.4400000000000002e-10,0.0,0.0,0.0,1.4400000000000002e-10,0.0,0.0,0.0,1.0,2
2025/04/09 11:15:48.147340300,1744190148,146615585,mA1/gps,0,1,63.43459681487247,10.393091775380359,0.0,1.4400000000000002e-10,0.0,0.0,0.0,1.4400000000000002e-10,0.0,0.0,0.0,1.0,2
2025/04/09 11:15:48.198499387,1744190148,197969895,mA1/gps,0,1,63.43459681559838,10.393091807573544,0.0,1.4400000000000002e-10,0.0,0.0,0.0,1.4400000000000002e-10,0.0,0.0,0.0,1.0,2
2025/04/09 11:15:48.248750245,1744190148,247823344,mA1/gps,0,1,63.43459681511555,10.393091839490086,0.0,1.4400000000000002e-10,0.0,0.0,0.0,1.4400000000000002e-10,0.0,0.0,0.0,1.0,2
2025/04/09 11:15:48.299648065,1744190148,299110102,mA1/gps,0,1,63.43459681449922,10.39309187175752,0.0,1.4400000000000002e-10,0.0,0.0,0.0,1.4400000000000002e-10,0.0,0.0,0.0,1.0,2
2025/04/09 11:15:48.349536943,1744190148,348812790,mA1/gps,0,1,63.434596814862644,10.393091901952895,0.0,1.4400000000000002e-10,0.0,0.0,0.0,1.4400000000000002e-10,0.0,0.0,0.0,1.0,2
2025/04/09 11:15:48.401744450,1744190148,399810877,mA1/gps,0,1,63.43459681506407,10.393091928292357,0.0,1.4400000000000002e-10,0.0,0.0,0.0,1.4400000000000002e-10,0.0,0.0,0.0,1.0,2
2025/04/09 11:15:48.450117009,1744190148,449620128,mA1/gps,0,1,63.434596813966266,10.393091951107655,0.0,1.4400000000000002e-10,0.0,0.0,0.0,1.4400000000000002e-10,0.0,0.0,0.0,1.0,2
2025/04/09 11:15:48.501753076,1744190148,501257622,mA1/gps,0,1,63.43459681432797,10.39309196921313,0.0,1.4400000000000002e-10,0.0,0.0,0.0,1.4400000000000002e-10,0.0,0.0,0.0,1.0,2
2025/04/09 11:15:48.551409044,1744190148,550638954,mA1/gps,0,1,63.434596813421386,10.393091982496681,0.0,1.4400000000000002e-10,0.0,0.0,0.0,1.4400000000000002e-10,0.0,0.0,0.0,1.0,2
2025/04/09 11:15:48.602390113,1744190148,601635430,mA1/gps,0,1,63.4345968126211,10.393091990050609,0.0,1.4400000000000002e-10,0.0,0.0,0.0,1.4400000000000002e-10,0.0,0.0,0.0,1.0,2
2025/04/09 11:15:48.652377585,1744190148,651500873,mA1/gps,0,1,63.434596811577606,10.393091993019006,0.0,1.4400000000000002e-10,0.0,0.0,0.0,1.4400000000000002e-10,0.0,0.0,0.0,1.0,2
2025/04/09 11:15:48.704683248,1744190148,703354709,mA1/gps,0,1,63.43459681061254,10.39309199116365,0.0,1.4400000000000002e-10,0.0,0.0,0.0,1.4400000000000002e-10,0.0,0.0,0.0,1.0,2
2025/04/09 11:15:48.753691739,1744190148,752992636,mA1/gps,0,1,63.43459680976915,10.393091985505247,0.0,1.4400000000000002e-10,0.0,0.0,0.0,1.4400000000000002e-10,0.0,0.0,0.0,1.0,2
2025/04/09 11:15:48.804944270,1744190148,804225456,mA1/gps,0,1,63.43459680820976,10.393091977255185,0.0,1.4400000000000002e-10,0.0,0.0,0.0,1.4400000000000002e-10,0.0,0.0,0.0,1.0,2
2025/04/09 11:15:48.855646559,1744190148,853897499,mA1/gps,0,1,63.43459680706357,10.39309196756927,0.0,1.4400000000000002e-10,0.0,0.0,0.0,1.4400000000000002e-10,0.0,0.0,0.0,1.0,2
2025/04/09 11:15:48.906355675,1744190148,905310665,mA1/gps,0,1,63.434596806370934,10.393091956591404,0.0,1.4400000000000002e-10,0.0,0.0,0.0,1.4400000000000002e-10,0.0,0.0,0.0,1.0,2
2025/04/09 11:15:48.955548849,1744190148,954870890,mA1/gps,0,1,63.4345968053419,10.393091946382945,0.0,1.4400000000000002e-10,0.0,0.0,0.0,1.4400000000000002e-10,0.0,0.0,0.0,1.0,2
2025/04/09 11:15:49.7306565,1744190149,6477785,mA1/gps,0,1,63.43459680430185,10.39309193748229,0.0,1.4400000000000002e-10,0.0,0.0,0.0,1.4400000000000002e-10,0.0,0.0,0.0,1.0,2
2025/04/09 11:15:49.47517666,1744190149,46119087,mA1/gps,0,1,63.434596803215385,10.393091930839349,0.0,1.4400000000000002e-10,0.0,0.0,0.0,1.4400000000000002e-10,0.0,0.0,0.0,1.0,2
2025/04/09 11:15:49.98172055,1744190149,97159153,mA1/gps,0,1,63.434596803334436,10.393091926346157,0.0,1.4400000000000002e-10,0.0,0.0,0.0,1.4400000000000002e-10,0.0,0.0,0.0,1.0,2
2025/04/09 11:15:49.149146238,1744190149,147530683,mA1/gps,0,1,63.434596802171924,10.393091926010715,0.0,1.4400000000000002e-10,0.0,0.0,0.0,1.4400000000000002e-10,0.0,0.0,0.0,1.0,2
2025/04/09 11:15:49.199427626,1744190149,198902057,mA1/gps,0,1,63.43459680146516,10.393091929217503,0.0,1.4400000000000002e-10,0.0,0.0,0.0,1.4400000000000002e-10,0.0,0.0,0.0,1.0,2
2025/04/09 11:15:49.249004846,1744190149,248483794,mA1/gps,0,1,63.43459680172257,10.393091936745861,0.0,1.4400000000000002e-10,0.0,0.0,0.0,1.4400000000000002e-10,0.0,0.0,0.0,1.0,2
2025/04/09 11:15:49.300159386,1744190149,299479563,mA1/gps,0,1,63.434596801478996,10.393091946990502,0.0,1.4400000000000002e-10,0.0,0.0,0.0,1.4400000000000002e-10,0.0,0.0,0.0,1.0,2
2025/04/09 11:15:49.349956691,1744190149,349401200,mA1/gps,0,1,63.434596801175,10.393091959702737,0.0,1.4400000000000002e-10,0.0,0.0,0.0,1.4400000000000002e-10,0.0,0.0,0.0,1.0,2
2025/04/09 11:15:49.401196051,1744190149,400596061,mA1/gps,0,1,63.43459680181528,10.393091974897402,0.0,1.4400000000000002e-10,0.0,0.0,0.0,1.4400000000000002e-10,0.0,0.0,0.0,1.0,2
2025/04/09 11:15:49.450920017,1744190149,450267347,mA1/gps,0,1,63.43459680197941,10.393091991498684,0.0,1.4400000000000002e-10,0.0,0.0,0.0,1.4400000000000002e-10,0.0,0.0,0.0,1.0,2
2025/04/09 11:15:49.502081408,1744190149,501257258,mA1/gps,0,1,63.43459680277414,10.393092008372538,0.0,1.4400000000000002e-10,0.0,0.0,0.0,1.4400000000000002e-10,0.0,0.0,0.0,1.0,2
2025/04/09 11:15:49.552369914,1744190149,551180089,mA1/gps,0,1,63.43459680356189,10.393092024343574,0.0,1.4400000000000002e-10,0.0,0.0,0.0,1.4400000000000002e-10,0.0,0.0,0.0,1.0,2
2025/04/09 11:15:49.602649424,1744190149,602083561,mA1/gps,0,1,63.43459680389862,10.393092039260642,0.0,1.4400000000000002e-10,0.0,0.0,0.0,1.4400000000000002e-10,0.0,0.0,0.0,1.0,2
2025/04/09 11:15:49.652909689,1744190149,651949360,mA1/gps,0,1,63.43459680500319,10.39309205126433,0.0,1.4400000000000002e-10,0.0,0.0,0.0,1.4400000000000002e-10,0.0,0.0,0.0,1.0,2
2025/04/09 11:15:49.703594963,1744190149,702899141,mA1/gps,0,1,63.434596806481345,10.3930920614237,0.0,1.4400000000000002e-10,0.0,0.0,0.0,1.4400000000000002e-10,0.0,0.0,0.0,1.0,2
2025/04/09 11:15:49.754812312,1744190149,752826733,mA1/gps,0,1,63.43459680802773,10.393092067758731,0.0,1.4400000000000002e-10,0.0,0.0,0.0,1.4400000000000002e-10,0.0,0.0,0.0,1.0,2
2025/04/09 11:15:49.805793665,1744190149,804573609,mA1/gps,0,1,63.43459680910286,10.39309207051121,0.0,1.4400000000000002e-10,0.0,0.0,0.0,1.4400000000000002e-10,0.0,0.0,0.0,1.0,2
2025/04/09 11:15:49.854201489,1744190149,853510621,mA1/gps,0,1,63.4345968113825,10.393092070289148,0.0,1.4400000000000002e-10,0.0,0.0,0.0,1.4400000000000002e-10,0.0,0.0,0.0,1.0,2
2025/04/09 11:15:49.906308540,1744190149,904665007,mA1/gps,0,1,63.43459681436983,10.393092065453226,0.0,1.4400000000000002e-10,0.0,0.0,0.0,1.4400000000000002e-10,0.0,0.0,0.0,1.0,2
2025/04/09 11:15:49.955390634,1744190149,954582750,mA1/gps,0,1,63.434596817346154,10.393092058198487,0.0,1.4400000000000002e-10,0.0,0.0,0.0,1.4400000000000002e-10,0.0,0.0,0.0,1.0,2
2025/04/09 11:15:50.9213768,1744190150,6738906,mA1/gps,0,1,63.43459681981091,10.393092048496744,0.0,1.4400000000000002e-10,0.0,0.0,0.0,1.4400000000000002e-10,0.0,0.0,0.0,1.0,2
2025/04/09 11:15:50.46519167,1744190150,45898884,mA1/gps,0,1,63.43459682419522,10.39309203693627,0.0,1.4400000000000002e-10,0.0,0.0,0.0,1.4400000000000002e-10,0.0,0.0,0.0,1.0,2
2025/04/09 11:15:50.98179256,1744190150,97614609,mA1/gps,0,1,63.434596827608715,10.3930920233916,0.0,1.4400000000000002e-10,0.0,0.0,0.0,1.4400000000000002e-10,0.0,0.0,0.0,1.0,2
2025/04/09 11:15:50.148899158,1744190150,146731758,mA1/gps,0,1,63.43459683225809,10.393092009457519,0.0,1.4400000000000002e-10,0.0,0.0,0.0,1.4400000000000002e-10,0.0,0.0,0.0,1.0,2
2025/04/09 11:15:50.198619094,1744190150,197729924,mA1/gps,0,1,63.434596838470945,10.39309199450938,0.0,1.4400000000000002e-10,0.0,0.0,0.0,1.4400000000000002e-10,0.0,0.0,0.0,1.0,2
2025/04/09 11:15:50.248253025,1744190150,247749772,mA1/gps,0,1,63.43459684451007,10.39309198103963,0.0,1.4400000000000002e-10,0.0,0.0,0.0,1.4400000000000002e-10,0.0,0.0,0.0,1.0,2
2025/04/09 11:15:50.299870084,1744190150,299163425,mA1/gps,0,1,63.43459685103035,10.39309196803647,0.0,1.4400000000000002e-10,0.0,0.0,0.0,1.4400000000000002e-10,0.0,0.0,0.0,1.0,2
2025/04/09 11:15:50.349259616,1744190150,348513890,mA1/gps,0,1,63.434596859198464,10.393091956338994,0.0,1.4400000000000002e-10,0.0,0.0,0.0,1.4400000000000002e-10,0.0,0.0,0.0,1.0,2
2025/04/09 11:15:50.400476761,1744190150,399494777,mA1/gps,0,1,63.43459686812623,10.393091945498794,0.0,1.4400000000000002e-10,0.0,0.0,0.0,1.4400000000000002e-10,0.0,0.0,0.0,1.0,2
2025/04/09 11:15:50.450642379,1744190150,449953927,mA1/gps,0,1,63.43459687779834,10.393091936507671,0.0,1.4400000000000002e-10,0.0,0.0,0.0,1.4400000000000002e-10,0.0,0.0,0.0,1.0,2
2025/04/09 11:15:50.501875097,1744190150,501315789,mA1/gps,0,1,63.43459688835104,10.393091929029104,0.0,1.4400000000000002e-10,0.0,0.0,0.0,1.4400000000000002e-10,0.0,0.0,0.0,1.0,2
2025/04/09 11:15:50.552794059,1744190150,550913633,mA1/gps,0,1,63.43459690003043,10.39309192365116,0.0,1.4400000000000002e-10,0.0,0.0,0.0,1.4400000000000002e-10,0.0,0.0,0.0,1.0,2
2025/04/09 11:15:50.603322636,1744190150,602523810,mA1/gps,0,1,63.43459691304258,10.393091919310436,0.0,1.4400000000000002e-10,0.0,0.0,0.0,1.4400000000000002e-10,0.0,0.0,0.0,1.0,2
2025/04/09 11:15:50.652850249,1744190150,652283395,mA1/gps,0,1,63.434596927852496,10.393091915489485,0.0,1.4400000000000002e-10,0.0,0.0,0.0,1.4400000000000002e-10,0.0,0.0,0.0,1.0,2
2025/04/09 11:15:50.704344016,1744190150,703664102,mA1/gps,0,1,63.4345969427376,10.393091913139168,0.0,1.4400000000000002e-10,0.0,0.0,0.0,1.4400000000000002e-10,0.0,0.0,0.0,1.0,2
2025/04/09 11:15:50.754240833,1744190150,753171742,mA1/gps,0,1,63.434596959087564,10.393091910896532,0.0,1.4400000000000002e-10,0.0,0.0,0.0,1.4400000000000002e-10,0.0,0.0,0.0,1.0,2
2025/04/09 11:15:50.805167022,1744190150,804508972,mA1/gps,0,1,63.43459697676315,10.393091908077084,0.0,1.4400000000000002e-10,0.0,0.0,0.0,1.4400000000000002e-10,0.0,0.0,0.0,1.0,2
2025/04/09 11:15:50.855261055,1744190150,854501023,mA1/gps,0,1,63.4345969953153,10.393091905638801,0.0,1.4400000000000002e-10,0.0,0.0,0.0,1.4400000000000002e-10,0.0,0.0,0.0,1.0,2
2025/04/09 11:15:50.906622511,1744190150,905680404,mA1/gps,0,1,63.43459701698786,10.393091903431772,0.0,1.4400000000000002e-10,0.0,0.0,0.0,1.4400000000000002e-10,0.0,0.0,0.0,1.0,2
2025/04/09 11:15:50.956692288,1744190150,955637280,mA1/gps,0,1,63.434597037858694,10.393091898576296,0.0,1.4400000000000002e-10,0.0,0.0,0.0,1.4400000000000002e-10,0.0,0.0,0.0,1.0,2
2025/04/09 11:15:50.999632962,1744190150,997925662,mA1/gps,0,1,63.43459706232204,10.39309189149992,0.0,1.4400000000000002e-10,0.0,0.0,0.0,1.4400000000000002e-10,0.0,0.0,0.0,1.0,2
2025/04/09 11:15:51.47853027,1744190151,46322511,mA1/gps,0,1,63.434597086291234,10.393091882029703,0.0,1.4400000000000002e-10,0.0,0.0,0.0,1.4400000000000002e-10,0.0,0.0,0.0,1.0,2
2025/04/09 11:15:51.99136736,1744190151,98257554,mA1/gps,0,1,63.43459711143565,10.393091869620504,0.0,1.4400000000000002e-10,0.0,0.0,0.0,1.4400000000000002e-10,0.0,0.0,0.0,1.0,2
2025/04/09 11:15:51.153666676,1744190151,150986882,mA1/gps,0,1,63.43459713801705,10.393091855815058,0.0,1.4400000000000002e-10,0.0,0.0,0.0,1.4400000000000002e-10,0.0,0.0,0.0,1.0,2
2025/04/09 11:15:51.203552617,1744190151,202095762,mA1/gps,0,1,63.43459716622545,10.393091838943043,0.0,1.4400000000000002e-10,0.0,0.0,0.0,1.4400000000000002e-10,0.0,0.0,0.0,1.0,2
2025/04/09 11:15:51.253584315,1744190151,252724253,mA1/gps,0,1,63.43459719594053,10.39309182123361,0.0,1.4400000000000002e-10,0.0,0.0,0.0,1.4400000000000002e-10,0.0,0.0,0.0,1.0,2
2025/04/09 11:15:51.304539424,1744190151,303896028,mA1/gps,0,1,63.43459722660723,10.39309180307225,0.0,1.4400000000000002e-10,0.0,0.0,0.0,1.4400000000000002e-10,0.0,0.0,0.0,1.0,2
2025/04/09 11:15:51.356353513,1744190151,354290605,mA1/gps,0,1,63.43459725695917,10.393091783701713,0.0,1.4400000000000002e-10,0.0,0.0,0.0,1.4400000000000002e-10,0.0,0.0,0.0,1.0,2
2025/04/09 11:15:51.407136708,1744190151,405498865,mA1/gps,0,1,63.43459729247968,10.393091764731363,0.0,1.4400000000000002e-10,0.0,0.0,0.0,1.4400000000000002e-10,0.0,0.0,0.0,1.0,2
2025/04/09 11:15:51.457427975,1744190151,455102015,mA1/gps,0,1,63.43459732528828,10.393091745491281,0.0,1.4400000000000002e-10,0.0,0.0,0.0,1.4400000000000002e-10,0.0,0.0,0.0,1.0,2
2025/04/09 11:15:51.497706052,1744190151,496802232,mA1/gps,0,1,63.43459736101351,10.393091729150935,0.0,1.4400000000000002e-10,0.0,0.0,0.0,1.4400000000000002e-10,0.0,0.0,0.0,1.0,2
2025/04/09 11:15:51.547488964,1744190151,546695344,mA1/gps,0,1,63.434597398419285,10.393091714280148,0.0,1.4400000000000002e-10,0.0,0.0,0.0,1.4400000000000002e-10,0.0,0.0,0.0,1.0,2
2025/04/09 11:15:51.598182537,1744190151,597767678,mA1/gps,0,1,63.43459743608862,10.393091701413477,0.0,1.4400000000000002e-10,0.0,0.0,0.0,1.4400000000000002e-10,0.0,0.0,0.0,1.0,2
2025/04/09 11:15:51.648021191,1744190151,647553219,mA1/gps,0,1,63.43459747421183,10.393091690903672,0.0,1.4400000000000002e-10,0.0,0.0,0.0,1.4400000000000002e-10,0.0,0.0,0.0,1.0,2
2025/04/09 11:15:51.699245445,1744190151,698643161,mA1/gps,0,1,63.43459751552567,10.393091684025674,0.0,1.4400000000000002e-10,0.0,0.0,0.0,1.4400000000000002e-10,0.0,0.0,0.0,1.0,2
2025/04/09 11:15:51.749005675,1744190151,748360932,mA1/gps,0,1,63.434597556762064,10.393091679853484,0.0,1.4400000000000002e-10,0.0,0.0,0.0,1.4400000000000002e-10,0.0,0.0,0.0,1.0,2
2025/04/09 11:15:51.801245588,1744190151,799749800,mA1/gps,0,1,63.43459760009955,10.393091676847048,0.0,1.4400000000000002e-10,0.0,0.0,0.0,1.4400000000000002e-10,0.0,0.0,0.0,1.0,2
2025/04/09 11:15:51.849661600,1744190151,849201768,mA1/gps,0,1,63.43459764459549,10.393091676021546,0.0,1.4400000000000002e-10,0.0,0.0,0.0,1.4400000000000002e-10,0.0,0.0,0.0,1.0,2
2025/04/09 11:15:51.901253910,1744190151,900262544,mA1/gps,0,1,63.43459769153219,10.39309167700067,0.0,1.4400000000000002e-10,0.0,0.0,0.0,1.4400000000000002e-10,0.0,0.0,0.0,1.0,2
2025/04/09 11:15:51.951708875,1744190151,950064563,mA1/gps,0,1,63.43459773822281,10.393091678730988,0.0,1.4400000000000002e-10,0.0,0.0,0.0,1.4400000000000002e-10,0.0,0.0,0.0,1.0,2
2025/04/09 11:15:52.2688582,1744190152,1218979,mA1/gps,0,1,63.4345977873989,10.393091680400753,0.0,1.4400000000000002e-10,0.0,0.0,0.0,1.4400000000000002e-10,0.0,0.0,0.0,1.0,2
2025/04/09 11:15:52.51613791,1744190152,50982457,mA1/gps,0,1,63.434597838049676,10.39309168168203,0.0,1.4400000000000002e-10,0.0,0.0,0.0,1.4400000000000002e-10,0.0,0.0,0.0,1.0,2
2025/04/09 11:15:52.103512543,1744190152,102007943,mA1/gps,0,1,63.434597890967325,10.393091681902247,0.0,1.4400000000000002e-10,0.0,0.0,0.0,1.4400000000000002e-10,0.0,0.0,0.0,1.0,2
2025/04/09 11:15:52.152436396,1744190152,151921610,mA1/gps,0,1,63.43459794452169,10.393091681751912,0.0,1.4400000000000002e-10,0.0,0.0,0.0,1.4400000000000002e-10,0.0,0.0,0.0,1.0,2
2025/04/09 11:15:52.204811876,1744190152,204079983,mA1/gps,0,1,63.43459800006964,10.39309167869705,0.0,1.4400000000000002e-10,0.0,0.0,0.0,1.4400000000000002e-10,0.0,0.0,0.0,1.0,2
2025/04/09 11:15:52.254057641,1744190152,253339267,mA1/gps,0,1,63.43459805671914,10.393091673841752,0.0,1.4400000000000002e-10,0.0,0.0,0.0,1.4400000000000002e-10,0.0,0.0,0.0,1.0,2
2025/04/09 11:15:52.305712150,1744190152,304481363,mA1/gps,0,1,63.43459811529328,10.393091667557352,0.0,1.4400000000000002e-10,0.0,0.0,0.0,1.4400000000000002e-10,0.0,0.0,0.0,1.0,2
2025/04/09 11:15:52.355418159,1744190152,354670492,mA1/gps,0,1,63.434598174887626,10.393091658235202,0.0,1.4400000000000002e-10,0.0,0.0,0.0,1.4400000000000002e-10,0.0,0.0,0.0,1.0,2
2025/04/09 11:15:52.407212721,1744190152,406192524,mA1/gps,0,1,63.43459823686503,10.393091647595801,0.0,1.4400000000000002e-10,0.0,0.0,0.0,1.4400000000000002e-10,0.0,0.0,0.0,1.0,2
2025/04/09 11:15:52.447748595,1744190152,446111506,mA1/gps,0,1,63.434598297783985,10.393091634763202,0.0,1.4400000000000002e-10,0.0,0.0,0.0,1.4400000000000002e-10,0.0,0.0,0.0,1.0,2
2025/04/09 11:15:52.498068592,1744190152,497139472,mA1/gps,0,1,63.4345983639115,10.393091620483595,0.0,1.4400000000000002e-10,0.0,0.0,0.0,1.4400000000000002e-10,0.0,0.0,0.0,1.0,2
2025/04/09 11:15:52.549134962,1744190152,547046210,mA1/gps,0,1,63.4345984286629,10.393091605699937,0.0,1.4400000000000002e-10,0.0,0.0,0.0,1.4400000000000002e-10,0.0,0.0,0.0,1.0,2
2025/04/09 11:15:52.599106613,1744190152,598539304,mA1/gps,0,1,63.43459849616793,10.39309159045477,0.0,1.4400000000000002e-10,0.0,0.0,0.0,1.4400000000000002e-10,0.0,0.0,0.0,1.0,2
2025/04/09 11:15:52.648931124,1744190152,648157445,mA1/gps,0,1,63.43459856469658,10.393091575697786,0.0,1.4400000000000002e-10,0.0,0.0,0.0,1.4400000000000002e-10,0.0,0.0,0.0,1.0,2
2025/04/09 11:15:52.700122276,1744190152,699383281,mA1/gps,0,1,63.43459863471923,10.393091561610813,0.0,1.4400000000000002e-10,0.0,0.0,0.0,1.4400000000000002e-10,0.0,0.0,0.0,1.0,2
2025/04/09 11:15:52.749620119,1744190152,749094365,mA1/gps,0,1,63.43459870579024,10.393091548730474,0.0,1.4400000000000002e-10,0.0,0.0,0.0,1.4400000000000002e-10,0.0,0.0,0.0,1.0,2
2025/04/09 11:15:52.801123946,1744190152,800300925,mA1/gps,0,1,63.434598778596154,10.393091537932179,0.0,1.4400000000000002e-10,0.0,0.0,0.0,1.4400000000000002e-10,0.0,0.0,0.0,1.0,2
2025/04/09 11:15:52.852653540,1744190152,851031109,mA1/gps,0,1,63.4345988517807,10.393091528511716,0.0,1.4400000000000002e-10,0.0,0.0,0.0,1.4400000000000002e-10,0.0,0.0,0.0,1.0,2
2025/04/09 11:15:52.903958838,1744190152,903329341,mA1/gps,0,1,63.434598927661526,10.393091521661377,0.0,1.4400000000000002e-10,0.0,0.0,0.0,1.4400000000000002e-10,0.0,0.0,0.0,1.0,2
2025/04/09 11:15:52.955132261,1744190152,953393642,mA1/gps,0,1,63.43459900513486,10.393091517244603,0.0,1.4400000000000002e-10,0.0,0.0,0.0,1.4400000000000002e-10,0.0,0.0,0.0,1.0,2
2025/04/09 11:15:53.7060528,1744190153,5158482,mA1/gps,0,1,63.43459908356861,10.393091515122716,0.0,1.4400000000000002e-10,0.0,0.0,0.0,1.4400000000000002e-10,0.0,0.0,0.0,1.0,2
2025/04/09 11:15:53.55714253,1744190153,54949188,mA1/gps,0,1,63.43459916285803,10.393091514531898,0.0,1.4400000000000002e-10,0.0,0.0,0.0,1.4400000000000002e-10,0.0,0.0,0.0,1.0,2
2025/04/09 11:15:53.107227946,1744190153,106166003,mA1/gps,0,1,63.43459924269958,10.393091515531932,0.0,1.4400000000000002e-10,0.0,0.0,0.0,1.4400000000000002e-10,0.0,0.0,0.0,1.0,2
2025/04/09 11:15:53.147073403,1744190153,146314511,mA1/gps,0,1,63.434599324593584,10.393091517874586,0.0,1.4400000000000002e-10,0.0,0.0,0.0,1.4400000000000002e-10,0.0,0.0,0.0,1.0,2
2025/04/09 11:15:53.199210004,1744190153,197404631,mA1/gps,0,1,63.4345994086992,10.393091521564894,0.0,1.4400000000000002e-10,0.0,0.0,0.0,1.4400000000000002e-10,0.0,0.0,0.0,1.0,2
2025/04/09 11:15:53.248675588,1744190153,247251535,mA1/gps,0,1,63.434599493494595,10.393091524794487,0.0,1.4400000000000002e-10,0.0,0.0,0.0,1.4400000000000002e-10,0.0,0.0,0.0,1.0,2
2025/04/09 11:15:53.299036783,1744190153,298298197,mA1/gps,0,1,63.434599578995176,10.393091527918717,0.0,1.4400000000000002e-10,0.0,0.0,0.0,1.4400000000000002e-10,0.0,0.0,0.0,1.0,2
2025/04/09 11:15:53.348816363,1744190153,348197727,mA1/gps,0,1,63.434599666942724,10.393091530574194,0.0,1.4400000000000002e-10,0.0,0.0,0.0,1.4400000000000002e-10,0.0,0.0,0.0,1.0,2
2025/04/09 11:15:53.400914360,1744190153,399950533,mA1/gps,0,1,63.43459975589524,10.393091532227341,0.0,1.4400000000000002e-10,0.0,0.0,0.0,1.4400000000000002e-10,0.0,0.0,0.0,1.0,2
2025/04/09 11:15:53.450716598,1744190153,449772001,mA1/gps,0,1,63.43459984562389,10.393091532388448,0.0,1.4400000000000002e-10,0.0,0.0,0.0,1.4400000000000002e-10,0.0,0.0,0.0,1.0,2
2025/04/09 11:15:53.502733179,1744190153,500755533,mA1/gps,0,1,63.434599936993564,10.393091531008555,0.0,1.4400000000000002e-10,0.0,0.0,0.0,1.4400000000000002e-10,0.0,0.0,0.0,1.0,2
2025/04/09 11:15:53.551894522,1744190153,551161831,mA1/gps,0,1,63.43460002974408,10.393091526899822,0.0,1.4400000000000002e-10,0.0,0.0,0.0,1.4400000000000002e-10,0.0,0.0,0.0,1.0,2
2025/04/09 11:15:53.603888660,1744190153,602750497,mA1/gps,0,1,63.43460012386144,10.393091522047486,0.0,1.4400000000000002e-10,0.0,0.0,0.0,1.4400000000000002e-10,0.0,0.0,0.0,1.0,2
2025/04/09 11:15:53.652905986,1744190153,652380911,mA1/gps,0,1,63.43460021994151,10.393091515026818,0.0,1.4400000000000002e-10,0.0,0.0,0.0,1.4400000000000002e-10,0.0,0.0,0.0,1.0,2
2025/04/09 11:15:53.704592786,1744190153,703847176,mA1/gps,0,1,63.43460031682317,10.393091506358553,0.0,1.4400000000000002e-10,0.0,0.0,0.0,1.4400000000000002e-10,0.0,0.0,0.0,1.0,2
2025/04/09 11:15:53.754343145,1744190153,753520237,mA1/gps,0,1,63.434600414259585,10.39309149649906,0.0,1.4400000000000002e-10,0.0,0.0,0.0,1.4400000000000002e-10,0.0,0.0,0.0,1.0,2
2025/04/09 11:15:53.806020945,1744190153,805330781,mA1/gps,0,1,63.434600512950325,10.393091485595132,0.0,1.4400000000000002e-10,0.0,0.0,0.0,1.4400000000000002e-10,0.0,0.0,0.0,1.0,2
2025/04/09 11:15:53.855168898,1744190153,854649448,mA1/gps,0,1,63.434600612911964,10.393091474643137,0.0,1.4400000000000002e-10,0.0,0.0,0.0,1.4400000000000002e-10,0.0,0.0,0.0,1.0,2
2025/04/09 11:15:53.906686289,1744190153,905850073,mA1/gps,0,1,63.434600713714495,10.393091463682229,0.0,1.4400000000000002e-10,0.0,0.0,0.0,1.4400000000000002e-10,0.0,0.0,0.0,1.0,2
2025/04/09 11:15:53.956486789,1744190153,955649117,mA1/gps,0,1,63.434600815246355,10.393091452403644,0.0,1.4400000000000002e-10,0.0,0.0,0.0,1.4400000000000002e-10,0.0,0.0,0.0,1.0,2
2025/04/09 11:15:54.2210890,1744190154,518958,mA1/gps,0,1,63.43460091767755,10.39309144216498,0.0,1.4400000000000002e-10,0.0,0.0,0.0,1.4400000000000002e-10,0.0,0.0,0.0,1.0,2
2025/04/09 11:15:54.51091697,1744190154,50283223,mA1/gps,0,1,63.43460102185163,10.393091433886957,0.0,1.4400000000000002e-10,0.0,0.0,0.0,1.4400000000000002e-10,0.0,0.0,0.0,1.0,2
2025/04/09 11:15:54.102766201,1744190154,101837710,mA1/gps,0,1,63.434601126385424,10.393091427089342,0.0,1.4400000000000002e-10,0.0,0.0,0.0,1.4400000000000002e-10,0.0,0.0,0.0,1.0,2
2025/04/09 11:15:54.152317963,1744190154,151669564,mA1/gps,0,1,63.43460123161043,10.393091422405226,0.0,1.4400000000000002e-10,0.0,0.0,0.0,1.4400000000000002e-10,0.0,0.0,0.0,1.0,2
2025/04/09 11:15:54.204058037,1744190154,203123319,mA1/gps,0,1,63.434601338442484,10.393091420127236,0.0,1.4400000000000002e-10,0.0,0.0,0.0,1.4400000000000002e-10,0.0,0.0,0.0,1.0,2
2025/04/09 11:15:54.254834953,1744190154,252912511,mA1/gps,0,1,63.43460144523676,10.39309141971139,0.0,1.4400000000000002e-10,0.0,0.0,0.0,1.4400000000000002e-10,0.0,0.0,0.0,1.0,2
2025/04/09 11:15:54.305623430,1744190154,304450143,mA1/gps,0,1,63.43460155334708,10.3930914221602,0.0,1.4400000000000002e-10,0.0,0.0,0.0,1.4400000000000002e-10,0.0,0.0,0.0,1.0,2
2025/04/09 11:15:54.355711512,1744190154,353775543,mA1/gps,0,1,63.43460166305699,10.393091425791122,0.0,1.4400000000000002e-10,0.0,0.0,0.0,1.4400000000000002e-10,0.0,0.0,0.0,1.0,2
2025/04/09 11:15:54.405862405,1744190154,405232091,mA1/gps,0,1,63.43460177242684,10.393091430954087,0.0,1.4400000000000002e-10,0.0,0.0,0.0,1.4400000000000002e-10,0.0,0.0,0.0,1.0,2
2025/04/09 11:15:54.456863180,1744190154,455245537,mA1/gps,0,1,63.434601883028385,10.393091435318139,0.0,1.4400000000000002e-10,0.0,0.0,0.0,1.4400000000000002e-10,0.0,0.0,0.0,1.0,2
2025/04/09 11:15:54.507553071,1744190154,506747847,mA1/gps,0,1,63.43460199464123,10.393091440086371,0.0,1.4400000000000002e-10,0.0,0.0,0.0,1.4400000000000002e-10,0.0,0.0,0.0,1.0,2
2025/04/09 11:15:54.547361585,1744190154,546136599,mA1/gps,0,1,63.43460210636837,10.393091443627748,0.0,1.4400000000000002e-10,0.0,0.0,0.0,1.4400000000000002e-10,0.0,0.0,0.0,1.0,2
2025/04/09 11:15:54.600354015,1744190154,598543773,mA1/gps,0,1,63.43460221978222,10.393091446796939,0.0,1.4400000000000002e-10,0.0,0.0,0.0,1.4400000000000002e-10,0.0,0.0,0.0,1.0,2
2025/04/09 11:15:54.648940966,1744190154,648300403,mA1/gps,0,1,63.43460233353621,10.39309144639704,0.0,1.4400000000000002e-10,0.0,0.0,0.0,1.4400000000000002e-10,0.0,0.0,0.0,1.0,2
2025/04/09 11:15:54.700652320,1744190154,699509756,mA1/gps,0,1,63.43460244891123,10.393091445458822,0.0,1.4400000000000002e-10,0.0,0.0,0.0,1.4400000000000002e-10,0.0,0.0,0.0,1.0,2
2025/04/09 11:15:54.749834741,1744190154,749241460,mA1/gps,0,1,63.434602564611,10.393091441800658,0.0,1.4400000000000002e-10,0.0,0.0,0.0,1.4400000000000002e-10,0.0,0.0,0.0,1.0,2
2025/04/09 11:15:54.802446772,1744190154,801818565,mA1/gps,0,1,63.43460268112133,10.393091436522825,0.0,1.4400000000000002e-10,0.0,0.0,0.0,1.4400000000000002e-10,0.0,0.0,0.0,1.0,2
2025/04/09 11:15:54.851401433,1744190154,850896345,mA1/gps,0,1,63.43460279934341,10.39309142960162,0.0,1.4400000000000002e-10,0.0,0.0,0.0,1.4400000000000002e-10,0.0,0.0,0.0,1.0,2
2025/04/09 11:15:54.903538051,1744190154,902488472,mA1/gps,0,1,63.43460291750198,10.393091420058045,0.0,1.4400000000000002e-10,0.0,0.0,0.0,1.4400000000000002e-10,0.0,0.0,0.0,1.0,2
2025/04/09 11:15:54.954305232,1744190154,952736136,mA1/gps,0,1,63.43460303694609,10.39309141047685,0.0,1.4400000000000002e-10,0.0,0.0,0.0,1.4400000000000002e-10,0.0,0.0,0.0,1.0,2
2025/04/09 11:15:55.4980975,1744190155,4349919,mA1/gps,0,1,63.43460315706388,10.393091398983659,0.0,1.4400000000000002e-10,0.0,0.0,0.0,1.4400000000000002e-10,0.0,0.0,0.0,1.0,2
2025/04/09 11:15:55.55847227,1744190155,55325136,mA1/gps,0,1,63.43460327821657,10.3930913871678,0.0,1.4400000000000002e-10,0.0,0.0,0.0,1.4400000000000002e-10,0.0,0.0,0.0,1.0,2
2025/04/09 11:15:55.99652912,1744190155,97555197,mA1/gps,0,1,63.43460340075576,10.39309137531303,0.0,1.4400000000000002e-10,0.0,0.0,0.0,1.4400000000000002e-10,0.0,0.0,0.0,1.0,2
2025/04/09 11:15:55.148174868,1744190155,146707339,mA1/gps,0,1,63.43460352424549,10.39309136458228,0.0,1.4400000000000002e-10,0.0,0.0,0.0,1.4400000000000002e-10,0.0,0.0,0.0,1.0,2
2025/04/09 11:15:55.199927435,1744190155,197829110,mA1/gps,0,1,63.434603648528714,10.393091354374091,0.0,1.4400000000000002e-10,0.0,0.0,0.0,1.4400000000000002e-10,0.0,0.0,0.0,1.0,2
2025/04/09 11:15:55.249994843,1744190155,247690607,mA1/gps,0,1,63.43460377304797,10.393091345684116,0.0,1.4400000000000002e-10,0.0,0.0,0.0,1.4400000000000002e-10,0.0,0.0,0.0,1.0,2
2025/04/09 11:15:55.299383192,1744190155,298826976,mA1/gps,0,1,63.434603898203775,10.39309133907403,0.0,1.4400000000000002e-10,0.0,0.0,0.0,1.4400000000000002e-10,0.0,0.0,0.0,1.0,2
2025/04/09 11:15:55.349387438,1744190155,348552707,mA1/gps,0,1,63.434604024004365,10.393091333493075,0.0,1.4400000000000002e-10,0.0,0.0,0.0,1.4400000000000002e-10,0.0,0.0,0.0,1.0,2
2025/04/09 11:15:55.401364310,1744190155,400585429,mA1/gps,0,1,63.43460415022042,10.393091330264431,0.0,1.4400000000000002e-10,0.0,0.0,0.0,1.4400000000000002e-10,0.0,0.0,0.0,1.0,2
2025/04/09 11:15:55.454766221,1744190155,450869381,mA1/gps,0,1,63.43460427856871,10.39309132953869,0.0,1.4400000000000002e-10,0.0,0.0,0.0,1.4400000000000002e-10,0.0,0.0,0.0,1.0,2
2025/04/09 11:15:55.503861490,1744190155,502864868,mA1/gps,0,1,63.43460440847521,10.393091329984149,0.0,1.4400000000000002e-10,0.0,0.0,0.0,1.4400000000000002e-10,0.0,0.0,0.0,1.0,2
2025/04/09 11:15:55.553402987,1744190155,552728400,mA1/gps,0,1,63.43460453800497,10.393091332027435,0.0,1.4400000000000002e-10,0.0,0.0,0.0,1.4400000000000002e-10,0.0,0.0,0.0,1.0,2
2025/04/09 11:15:55.604848820,1744190155,603762380,mA1/gps,0,1,63.43460466636962,10.393091335318982,0.0,1.4400000000000002e-10,0.0,0.0,0.0,1.4400000000000002e-10,0.0,0.0,0.0,1.0,2
2025/04/09 11:15:55.654422729,1744190155,653588656,mA1/gps,0,1,63.434604796810575,10.393091340422854,0.0,1.4400000000000002e-10,0.0,0.0,0.0,1.4400000000000002e-10,0.0,0.0,0.0,1.0,2
2025/04/09 11:15:55.705434548,1744190155,704656591,mA1/gps,0,1,63.43460492853676,10.393091344541427,0.0,1.4400000000000002e-10,0.0,0.0,0.0,1.4400000000000002e-10,0.0,0.0,0.0,1.0,2
2025/04/09 11:15:55.749752712,1744190155,746627096,mA1/gps,0,1,63.434605060063625,10.393091348998988,0.0,1.4400000000000002e-10,0.0,0.0,0.0,1.4400000000000002e-10,0.0,0.0,0.0,1.0,2
2025/04/09 11:15:55.799681093,1744190155,798729012,mA1/gps,0,1,63.43460519157585,10.393091352514714,0.0,1.4400000000000002e-10,0.0,0.0,0.0,1.4400000000000002e-10,0.0,0.0,0.0,1.0,2
2025/04/09 11:15:55.855656520,1744190155,853443007,mA1/gps,0,1,63.43460532447155,10.393091356013382,0.0,1.4400000000000002e-10,0.0,0.0,0.0,1.4400000000000002e-10,0.0,0.0,0.0,1.0,2
2025/04/09 11:15:55.905221515,1744190155,904453236,mA1/gps,0,1,63.434605458303224,10.393091357355331,0.0,1.4400000000000002e-10,0.0,0.0,0.0,1.4400000000000002e-10,0.0,0.0,0.0,1.0,2
2025/04/09 11:15:55.955764983,1744190155,955041393,mA1/gps,0,1,63.43460559230644,10.393091358056042,0.0,1.4400000000000002e-10,0.0,0.0,0.0,1.4400000000000002e-10,0.0,0.0,0.0,1.0,2
2025/04/09 11:15:56.1342310,1744190156,619792,mA1/gps,0,1,63.434605725807415,10.393091357235752,0.0,1.4400000000000002e-10,0.0,0.0,0.0,1.4400000000000002e-10,0.0,0.0,0.0,1.0,2
2025/04/09 11:15:56.51157117,1744190156,50451325,mA1/gps,0,1,63.43460586111848,10.393091354666591,0.0,1.4400000000000002e-10,0.0,0.0,0.0,1.4400000000000002e-10,0.0,0.0,0.0,1.0,2
2025/04/09 11:15:56.103973447,1744190156,102151112,mA1/gps,0,1,63.434605996460164,10.393091349978459,0.0,1.4400000000000002e-10,0.0,0.0,0.0,1.4400000000000002e-10,0.0,0.0,0.0,1.0,2
2025/04/09 11:15:56.152284912,1744190156,151576953,mA1/gps,0,1,63.434606132896505,10.393091344021038,0.0,1.4400000000000002e-10,0.0,0.0,0.0,1.4400000000000002e-10,0.0,0.0,0.0,1.0,2
2025/04/09 11:15:56.198171775,1744190156,196547272,mA1/gps,0,1,63.43460626921038,10.3930913373218,0.0,1.4400000000000002e-10,0.0,0.0,0.0,1.4400000000000002e-10,0.0,0.0,0.0,1.0,2
2025/04/09 11:15:56.247342074,1744190156,246369698,mA1/gps,0,1,63.43460640681241,10.39309132986326,0.0,1.4400000000000002e-10,0.0,0.0,0.0,1.4400000000000002e-10,0.0,0.0,0.0,1.0,2
2025/04/09 11:15:56.301026815,1744190156,300186456,mA1/gps,0,1,63.434606544455534,10.393091321365912,0.0,1.4400000000000002e-10,0.0,0.0,0.0,1.4400000000000002e-10,0.0,0.0,0.0,1.0,2
2025/04/09 11:15:56.351848066,1744190156,349975790,mA1/gps,0,1,63.4346066836483,10.393091313805746,0.0,1.4400000000000002e-10,0.0,0.0,0.0,1.4400000000000002e-10,0.0,0.0,0.0,1.0,2
2025/04/09 11:15:56.402679554,1744190156,401043167,mA1/gps,0,1,63.43460682358757,10.393091305346685,0.0,1.4400000000000002e-10,0.0,0.0,0.0,1.4400000000000002e-10,0.0,0.0,0.0,1.0,2
2025/04/09 11:15:56.451595191,1744190156,450928158,mA1/gps,0,1,63.43460696416209,10.393091299228253,0.0,1.4400000000000002e-10,0.0,0.0,0.0,1.4400000000000002e-10,0.0,0.0,0.0,1.0,2
2025/04/09 11:15:56.503175066,1744190156,502642292,mA1/gps,0,1,63.43460710443007,10.393091293671548,0.0,1.4400000000000002e-10,0.0,0.0,0.0,1.4400000000000002e-10,0.0,0.0,0.0,1.0,2
2025/04/09 11:15:56.553021172,1744190156,552147267,mA1/gps,0,1,63.4346072463919,10.39309128943856,0.0,1.4400000000000002e-10,0.0,0.0,0.0,1.4400000000000002e-10,0.0,0.0,0.0,1.0,2
2025/04/09 11:15:56.605421509,1744190156,603245880,mA1/gps,0,1,63.434607388520924,10.393091286763758,0.0,1.4400000000000002e-10,0.0,0.0,0.0,1.4400000000000002e-10,0.0,0.0,0.0,1.0,2
2025/04/09 11:15:56.653721216,1744190156,653013766,mA1/gps,0,1,63.434607531397084,10.393091285381297,0.0,1.4400000000000002e-10,0.0,0.0,0.0,1.4400000000000002e-10,0.0,0.0,0.0,1.0,2
2025/04/09 11:15:56.705342859,1744190156,704048555,mA1/gps,0,1,63.43460767563307,10.393091286274691,0.0,1.4400000000000002e-10,0.0,0.0,0.0,1.4400000000000002e-10,0.0,0.0,0.0,1.0,2
2025/04/09 11:15:56.755697829,1744190156,753915332,mA1/gps,0,1,63.43460782028993,10.393091289079758,0.0,1.4400000000000002e-10,0.0,0.0,0.0,1.4400000000000002e-10,0.0,0.0,0.0,1.0,2
2025/04/09 11:15:56.806390635,1744190156,805524851,mA1/gps,0,1,63.43460796479743,10.393091292842275,0.0,1.4400000000000002e-10,0.0,0.0,0.0,1.4400000000000002e-10,0.0,0.0,0.0,1.0,2
2025/04/09 11:15:56.857080621,1744190156,854852842,mA1/gps,0,1,63.434608110030524,10.393091297238835,0.0,1.4400000000000002e-10,0.0,0.0,0.0,1.4400000000000002e-10,0.0,0.0,0.0,1.0,2
2025/04/09 11:15:56.907405818,1744190156,906627147,mA1/gps,0,1,63.43460825730432,10.393091303141247,0.0,1.4400000000000002e-10,0.0,0.0,0.0,1.4400000000000002e-10,0.0,0.0,0.0,1.0,2
2025/04/09 11:15:56.947465097,1744190156,946484067,mA1/gps,0,1,63.434608404934735,10.393091309740049,0.0,1.4400000000000002e-10,0.0,0.0,0.0,1.4400000000000002e-10,0.0,0.0,0.0,1.0,2
2025/04/09 11:15:57.857289,1744190156,999615319,mA1/gps,0,1,63.43460855055259,10.3930913149048,0.0,1.4400000000000002e-10,0.0,0.0,0.0,1.4400000000000002e-10,0.0,0.0,0.0,1.0,2
2025/04/09 11:15:57.49866341,1744190157,49406158,mA1/gps,0,1,63.434608698075806,10.393091320476374,0.0,1.4400000000000002e-10,0.0,0.0,0.0,1.4400000000000002e-10,0.0,0.0,0.0,1.0,2
2025/04/09 11:15:57.102325736,1744190157,101052206,mA1/gps,0,1,63.43460884766436,10.393091326188431,0.0,1.4400000000000002e-10,0.0,0.0,0.0,1.4400000000000002e-10,0.0,0.0,0.0,1.0,2
2025/04/09 11:15:57.153066728,1744190157,151159746,mA1/gps,0,1,63.43460899586065,10.393091331136372,0.0,1.4400000000000002e-10,0.0,0.0,0.0,1.4400000000000002e-10,0.0,0.0,0.0,1.0,2
2025/04/09 11:15:57.205696916,1744190157,203342132,mA1/gps,0,1,63.43460914588727,10.393091334359553,0.0,1.4400000000000002e-10,0.0,0.0,0.0,1.4400000000000002e-10,0.0,0.0,0.0,1.0,2
2025/04/09 11:15:57.255639643,1744190157,254686731,mA1/gps,0,1,63.43460929599628,10.39309133652196,0.0,1.4400000000000002e-10,0.0,0.0,0.0,1.4400000000000002e-10,0.0,0.0,0.0,1.0,2
2025/04/09 11:15:57.307272803,1744190157,305971809,mA1/gps,0,1,63.43460944506445,10.39309133704908,0.0,1.4400000000000002e-10,0.0,0.0,0.0,1.4400000000000002e-10,0.0,0.0,0.0,1.0,2
2025/04/09 11:15:57.357369269,1744190157,355573870,mA1/gps,0,1,63.43460959568875,10.393091336542783,0.0,1.4400000000000002e-10,0.0,0.0,0.0,1.4400000000000002e-10,0.0,0.0,0.0,1.0,2
2025/04/09 11:15:57.400571300,1744190157,396600408,mA1/gps,0,1,63.434609746731276,10.393091334412041,0.0,1.4400000000000002e-10,0.0,0.0,0.0,1.4400000000000002e-10,0.0,0.0,0.0,1.0,2
2025/04/09 11:15:57.447009949,1744190157,446286133,mA1/gps,0,1,63.434609898147166,10.393091330261294,0.0,1.4400000000000002e-10,0.0,0.0,0.0,1.4400000000000002e-10,0.0,0.0,0.0,1.0,2
2025/04/09 11:15:57.498181977,1744190157,497339758,mA1/gps,0,1,63.43461005006637,10.393091324880398,0.0,1.4400000000000002e-10,0.0,0.0,0.0,1.4400000000000002e-10,0.0,0.0,0.0,1.0,2
2025/04/09 11:15:57.548986935,1744190157,547166756,mA1/gps,0,1,63.43461020284266,10.393091318654939,0.0,1.4400000000000002e-10,0.0,0.0,0.0,1.4400000000000002e-10,0.0,0.0,0.0,1.0,2
2025/04/09 11:15:57.598894298,1744190157,598290193,mA1/gps,0,1,63.43461035524136,10.39309131149194,0.0,1.4400000000000002e-10,0.0,0.0,0.0,1.4400000000000002e-10,0.0,0.0,0.0,1.0,2
2025/04/09 11:15:57.650034272,1744190157,648100617,mA1/gps,0,1,63.43461050901146,10.39309130412445,0.0,1.4400000000000002e-10,0.0,0.0,0.0,1.4400000000000002e-10,0.0,0.0,0.0,1.0,2
2025/04/09 11:15:57.700201423,1744190157,699354834,mA1/gps,0,1,63.4346106628527,10.393091296756262,0.0,1.4400000000000002e-10,0.0,0.0,0.0,1.4400000000000002e-10,0.0,0.0,0.0,1.0,2
2025/04/09 11:15:57.749464406,1744190157,748955232,mA1/gps,0,1,63.43461081766683,10.393091291034242,0.0,1.4400000000000002e-10,0.0,0.0,0.0,1.4400000000000002e-10,0.0,0.0,0.0,1.0,2
2025/04/09 11:15:57.802909944,1744190157,800564882,mA1/gps,0,1,63.43461097194665,10.393091285359215,0.0,1.4400000000000002e-10,0.0,0.0,0.0,1.4400000000000002e-10,0.0,0.0,0.0,1.0,2
2025/04/09 11:15:57.851425013,1744190157,850408634,mA1/gps,0,1,63.43461112698358,10.393091282006626,0.0,1.4400000000000002e-10,0.0,0.0,0.0,1.4400000000000002e-10,0.0,0.0,0.0,1.0,2
2025/04/09 11:15:57.902398621,1744190157,901461156,mA1/gps,0,1,63.43461128414827,10.393091279083967,0.0,1.4400000000000002e-10,0.0,0.0,0.0,1.4400000000000002e-10,0.0,0.0,0.0,1.0,2
2025/04/09 11:15:57.954705639,1744190157,951296452,mA1/gps,0,1,63.434611441721515,10.393091278333651,0.0,1.4400000000000002e-10,0.0,0.0,0.0,1.4400000000000002e-10,0.0,0.0,0.0,1.0,2
2025/04/09 11:15:58.3891552,1744190158,2562624,mA1/gps,0,1,63.434611599793804,10.393091279966571,0.0,1.4400000000000002e-10,0.0,0.0,0.0,1.4400000000000002e-10,0.0,0.0,0.0,1.0,2
2025/04/09 11:15:58.54260662,1744190158,52638551,mA1/gps,0,1,63.43461175827659,10.393091282933092,0.0,1.4400000000000002e-10,0.0,0.0,0.0,1.4400000000000002e-10,0.0,0.0,0.0,1.0,2
2025/04/09 11:15:58.104498919,1744190158,103617576,mA1/gps,0,1,63.43461191664122,10.393091287986595,0.0,1.4400000000000002e-10,0.0,0.0,0.0,1.4400000000000002e-10,0.0,0.0,0.0,1.0,2
2025/04/09 11:15:58.155837548,1744190158,153491944,mA1/gps,0,1,63.4346120756588,10.393091293625455,0.0,1.4400000000000002e-10,0.0,0.0,0.0,1.4400000000000002e-10,0.0,0.0,0.0,1.0,2
2025/04/09 11:15:58.206729716,1744190158,205225959,mA1/gps,0,1,63.434612236763556,10.393091300835906,0.0,1.4400000000000002e-10,0.0,0.0,0.0,1.4400000000000002e-10,0.0,0.0,0.0,1.0,2
2025/04/09 11:15:58.257625323,1744190158,255081119,mA1/gps,0,1,63.43461239813637,10.393091307490415,0.0,1.4400000000000002e-10,0.0,0.0,0.0,1.4400000000000002e-10,0.0,0.0,0.0,1.0,2
2025/04/09 11:15:58.308098499,1744190158,306121926,mA1/gps,0,1,63.434612558265606,10.393091315063627,0.0,1.4400000000000002e-10,0.0,0.0,0.0,1.4400000000000002e-10,0.0,0.0,0.0,1.0,2
2025/04/09 11:15:58.357660001,1744190158,356047556,mA1/gps,0,1,63.4346127196133,10.393091322617654,0.0,1.4400000000000002e-10,0.0,0.0,0.0,1.4400000000000002e-10,0.0,0.0,0.0,1.0,2
2025/04/09 11:15:58.398711226,1744190158,397258573,mA1/gps,0,1,63.43461288157374,10.393091329428906,0.0,1.4400000000000002e-10,0.0,0.0,0.0,1.4400000000000002e-10,0.0,0.0,0.0,1.0,2
2025/04/09 11:15:58.447542766,1744190158,446664985,mA1/gps,0,1,63.43461304575305,10.393091335867393,0.0,1.4400000000000002e-10,0.0,0.0,0.0,1.4400000000000002e-10,0.0,0.0,0.0,1.0,2
2025/04/09 11:15:58.501537555,1744190158,499510674,mA1/gps,0,1,63.43461320923931,10.39309134058337,0.0,1.4400000000000002e-10,0.0,0.0,0.0,1.4400000000000002e-10,0.0,0.0,0.0,1.0,2
2025/04/09 11:15:58.550114813,1744190158,549628615,mA1/gps,0,1,63.43461337313447,10.39309134333623,0.0,1.4400000000000002e-10,0.0,0.0,0.0,1.4400000000000002e-10,0.0,0.0,0.0,1.0,2
2025/04/09 11:15:58.601267954,1744190158,600641695,mA1/gps,0,1,63.434613537337185,10.393091344183972,0.0,1.4400000000000002e-10,0.0,0.0,0.0,1.4400000000000002e-10,0.0,0.0,0.0,1.0,2
2025/04/09 11:15:58.651668300,1744190158,650503395,mA1/gps,0,1,63.434613701421334,10.393091343848875,0.0,1.4400000000000002e-10,0.0,0.0,0.0,1.4400000000000002e-10,0.0,0.0,0.0,1.0,2
2025/04/09 11:15:58.702004903,1744190158,701461847,mA1/gps,0,1,63.43461386587035,10.39309134136658,0.0,1.4400000000000002e-10,0.0,0.0,0.0,1.4400000000000002e-10,0.0,0.0,0.0,1.0,2
2025/04/09 11:15:58.752700778,1744190158,751294227,mA1/gps,0,1,63.43461403064038,10.393091337393319,0.0,1.4400000000000002e-10,0.0,0.0,0.0,1.4400000000000002e-10,0.0,0.0,0.0,1.0,2
2025/04/09 11:15:58.804146352,1744190158,802757319,mA1/gps,0,1,63.43461419684306,10.393091332360221,0.0,1.4400000000000002e-10,0.0,0.0,0.0,1.4400000000000002e-10,0.0,0.0,0.0,1.0,2
2025/04/09 11:15:58.853216348,1744190158,852149260,mA1/gps,0,1,63.434614362163295,10.3930913275624,0.0,1.4400000000000002e-10,0.0,0.0,0.0,1.4400000000000002e-10,0.0,0.0,0.0,1.0,2
2025/04/09 11:15:58.906676132,1744190158,905495188,mA1/gps,0,1,63.43461452795614,10.393091321461664,0.0,1.4400000000000002e-10,0.0,0.0,0.0,1.4400000000000002e-10,0.0,0.0,0.0,1.0,2
2025/04/09 11:15:58.950300613,1744190158,947890302,mA1/gps,0,1,63.434614694489234,10.393091317517904,0.0,1.4400000000000002e-10,0.0,0.0,0.0,1.4400000000000002e-10,0.0,0.0,0.0,1.0,2
2025/04/09 11:15:59.4278695,1744190159,2206126,mA1/gps,0,1,63.434614861252726,10.393091314278825,0.0,1.4400000000000002e-10,0.0,0.0,0.0,1.4400000000000002e-10,0.0,0.0,0.0,1.0,2
2025/04/09 11:15:59.51547021,1744190159,50712855,mA1/gps,0,1,63.434615026617976,10.39309131183266,0.0,1.4400000000000002e-10,0.0,0.0,0.0,1.4400000000000002e-10,0.0,0.0,0.0,1.0,2
2025/04/09 11:15:59.102622654,1744190159,101734137,mA1/gps,0,1,63.4346151936188,10.393091311157406,0.0,1.4400000000000002e-10,0.0,0.0,0.0,1.4400000000000002e-10,0.0,0.0,0.0,1.0,2
2025/04/09 11:15:59.152225451,1744190159,151540768,mA1/gps,0,1,63.43461536062994,10.393091311198107,0.0,1.4400000000000002e-10,0.0,0.0,0.0,1.4400000000000002e-10,0.0,0.0,0.0,1.0,2
2025/04/09 11:15:59.204825843,1744190159,203794319,mA1/gps,0,1,63.43461552838566,10.393091311877699,0.0,1.4400000000000002e-10,0.0,0.0,0.0,1.4400000000000002e-10,0.0,0.0,0.0,1.0,2
2025/04/09 11:15:59.254129431,1744190159,253545830,mA1/gps,0,1,63.434615695037316,10.393091314598736,0.0,1.4400000000000002e-10,0.0,0.0,0.0,1.4400000000000002e-10,0.0,0.0,0.0,1.0,2
2025/04/09 11:15:59.306589129,1744190159,305274519,mA1/gps,0,1,63.434615863676406,10.393091318253916,0.0,1.4400000000000002e-10,0.0,0.0,0.0,1.4400000000000002e-10,0.0,0.0,0.0,1.0,2
2025/04/09 11:15:59.357673315,1744190159,354956844,mA1/gps,0,1,63.43461603306293,10.393091322914572,0.0,1.4400000000000002e-10,0.0,0.0,0.0,1.4400000000000002e-10,0.0,0.0,0.0,1.0,2
2025/04/09 11:15:59.406857976,1744190159,406115193,mA1/gps,0,1,63.43461620029868,10.39309132671373,0.0,1.4400000000000002e-10,0.0,0.0,0.0,1.4400000000000002e-10,0.0,0.0,0.0,1.0,2
2025/04/09 11:15:59.448269770,1744190159,446578792,mA1/gps,0,1,63.434616368456965,10.393091331903776,0.0,1.4400000000000002e-10,0.0,0.0,0.0,1.4400000000000002e-10,0.0,0.0,0.0,1.0,2
2025/04/09 11:15:59.498390456,1744190159,496829200,mA1/gps,0,1,63.43461653729196,10.393091336047977,0.0,1.4400000000000002e-10,0.0,0.0,0.0,1.4400000000000002e-10,0.0,0.0,0.0,1.0,2
2025/04/09 11:15:59.548654924,1744190159,546695016,mA1/gps,0,1,63.434616706040096,10.393091339261252,0.0,1.4400000000000002e-10,0.0,0.0,0.0,1.4400000000000002e-10,0.0,0.0,0.0,1.0,2
2025/04/09 11:15:59.598430826,1744190159,597901122,mA1/gps,0,1,63.43461687480366,10.393091342870513,0.0,1.4400000000000002e-10,0.0,0.0,0.0,1.4400000000000002e-10,0.0,0.0,0.0,1.0,2
2025/04/09 11:15:59.648318133,1744190159,647788823,mA1/gps,0,1,63.43461704368884,10.393091345433147,0.0,1.4400000000000002e-10,0.0,0.0,0.0,1.4400000000000002e-10,0.0,0.0,0.0,1.0,2
2025/04/09 11:15:59.699546859,1744190159,698732025,mA1/gps,0,1,63.43461721255238,10.39309134710022,0.0,1.4400000000000002e-10,0.0,0.0,0.0,1.4400000000000002e-10,0.0,0.0,0.0,1.0,2
2025/04/09 11:15:59.749416244,1744190159,748576403,mA1/gps,0,1,63.434617382309945,10.39309134818632,0.0,1.4400000000000002e-10,0.0,0.0,0.0,1.4400000000000002e-10,0.0,0.0,0.0,1.0,2
2025/04/09 11:15:59.802640890,1744190159,800805698,mA1/gps,0,1,63.43461755201431,10.39309134799085,0.0,1.4400000000000002e-10,0.0,0.0,0.0,1.4400000000000002e-10,0.0,0.0,0.0,1.0,2
2025/04/09 11:15:59.851335946,1744190159,850807967,mA1/gps,0,1,63.434617721551014,10.393091347467529,0.0,1.4400000000000002e-10,0.0,0.0,0.0,1.4400000000000002e-10,0.0,0.0,0.0,1.0,2
2025/04/09 11:15:59.906813138,1744190159,905996711,mA1/gps,0,1,63.43461789037221,10.393091346154874,0.0,1.4400000000000002e-10,0.0,0.0,0.0,1.4400000000000002e-10,0.0,0.0,0.0,1.0,2
2025/04/09 11:15:59.956423311,1744190159,955598209,mA1/gps,0,1,63.4346180599376,10.393091343839586,0.0,1.4400000000000002e-10,0.0,0.0,0.0,1.4400000000000002e-10,0.0,0.0,0.0,1.0,2
2025/04/09 11:15:59.997651374,1744190159,996757973,mA1/gps,0,1,63.434618229048965,10.39309134248752,0.0,1.4400000000000002e-10,0.0,0.0,0.0,1.4400000000000002e-10,0.0,0.0,0.0,1.0,2
2025/04/09 11:16:00.47714375,1744190160,46573014,mA1/gps,0,1,63.434618398489995,10.393091340514891,0.0,1.4400000000000002e-10,0.0,0.0,0.0,1.4400000000000002e-10,0.0,0.0,0.0,1.0,2
2025/04/09 11:16:00.99494356,1744190160,98173040,mA1/gps,0,1,63.434618567335235,10.393091338990649,0.0,1.4400000000000002e-10,0.0,0.0,0.0,1.4400000000000002e-10,0.0,0.0,0.0,1.0,2
2025/04/09 11:16:00.149759591,1744190160,148012951,mA1/gps,0,1,63.43461873666938,10.393091337769205,0.0,1.4400000000000002e-10,0.0,0.0,0.0,1.4400000000000002e-10,0.0,0.0,0.0,1.0,2
2025/04/09 11:16:00.202582329,1744190160,201112198,mA1/gps,0,1,63.43461890518768,10.39309133721672,0.0,1.4400000000000002e-10,0.0,0.0,0.0,1.4400000000000002e-10,0.0,0.0,0.0,1.0,2
2025/04/09 11:16:00.252528443,1744190160,250844995,mA1/gps,0,1,63.43461907413774,10.393091338039309,0.0,1.4400000000000002e-10,0.0,0.0,0.0,1.4400000000000002e-10,0.0,0.0,0.0,1.0,2
2025/04/09 11:16:00.302514493,1744190160,301957346,mA1/gps,0,1,63.43461924244074,10.393091340930033,0.0,1.4400000000000002e-10,0.0,0.0,0.0,1.4400000000000002e-10,0.0,0.0,0.0,1.0,2
2025/04/09 11:16:00.353661892,1744190160,351702055,mA1/gps,0,1,63.4346194100648,10.393091344542272,0.0,1.4400000000000002e-10,0.0,0.0,0.0,1.4400000000000002e-10,0.0,0.0,0.0,1.0,2
2025/04/09 11:16:00.404631916,1744190160,402755620,mA1/gps,0,1,63.434619578781124,10.393091349339183,0.0,1.4400000000000002e-10,0.0,0.0,0.0,1.4400000000000002e-10,0.0,0.0,0.0,1.0,2
2025/04/09 11:16:00.454665672,1744190160,452680950,mA1/gps,0,1,63.434619747046455,10.39309135555945,0.0,1.4400000000000002e-10,0.0,0.0,0.0,1.4400000000000002e-10,0.0,0.0,0.0,1.0,2
2025/04/09 11:16:00.506073447,1744190160,504224780,mA1/gps,0,1,63.434619915353764,10.393091362997268,0.0,1.4400000000000002e-10,0.0,0.0,0.0,1.4400000000000002e-10,0.0,0.0,0.0,1.0,2
2025/04/09 11:16:00.554719161,1744190160,553809021,mA1/gps,0,1,63.43462008188768,10.393091371378425,0.0,1.4400000000000002e-10,0.0,0.0,0.0,1.4400000000000002e-10,0.0,0.0,0.0,1.0,2
2025/04/09 11:16:00.605762445,1744190160,604866846,mA1/gps,0,1,63.43462024878077,10.393091380296681,0.0,1.4400000000000002e-10,0.0,0.0,0.0,1.4400000000000002e-10,0.0,0.0,0.0,1.0,2
2025/04/09 11:16:00.655868427,1744190160,654891006,mA1/gps,0,1,63.43462041543251,10.393091390004187,0.0,1.4400000000000002e-10,0.0,0.0,0.0,1.4400000000000002e-10,0.0,0.0,0.0,1.0,2
2025/04/09 11:16:00.707529609,1744190160,705978488,mA1/gps,0,1,63.43462058276704,10.393091399197814,0.0,1.4400000000000002e-10,0.0,0.0,0.0,1.4400000000000002e-10,0.0,0.0,0.0,1.0,2
2025/04/09 11:16:00.757020133,1744190160,755830908,mA1/gps,0,1,63.43462074932406,10.393091408577893,0.0,1.4400000000000002e-10,0.0,0.0,0.0,1.4400000000000002e-10,0.0,0.0,0.0,1.0,2
2025/04/09 11:16:00.801597932,1744190160,800165543,mA1/gps,0,1,63.4346209155076,10.39309141768525,0.0,1.4400000000000002e-10,0.0,0.0,0.0,1.4400000000000002e-10,0.0,0.0,0.0,1.0,2
2025/04/09 11:16:00.851145988,1744190160,848316995,mA1/gps,0,1,63.43462108159956,10.393091426132335,0.0,1.4400000000000002e-10,0.0,0.0,0.0,1.4400000000000002e-10,0.0,0.0,0.0,1.0,2
2025/04/09 11:16:00.900443566,1744190160,899277463,mA1/gps,0,1,63.434621247487684,10.393091433807427,0.0,1.4400000000000002e-10,0.0,0.0,0.0,1.4400000000000002e-10,0.0,0.0,0.0,1.0,2
2025/04/09 11:16:00.954876739,1744190160,950194328,mA1/gps,0,1,63.43462141366293,10.393091441171341,0.0,1.4400000000000002e-10,0.0,0.0,0.0,1.4400000000000002e-10,0.0,0.0,0.0,1.0,2
2025/04/09 11:16:01.2673016,1744190161,1683480,mA1/gps,0,1,63.43462157821498,10.393091446930976,0.0,1.4400000000000002e-10,0.0,0.0,0.0,1.4400000000000002e-10,0.0,0.0,0.0,1.0,2
2025/04/09 11:16:01.53417314,1744190161,51633630,mA1/gps,0,1,63.43462174420728,10.39309145092413,0.0,1.4400000000000002e-10,0.0,0.0,0.0,1.4400000000000002e-10,0.0,0.0,0.0,1.0,2
2025/04/09 11:16:01.106757531,1744190161,105786032,mA1/gps,0,1,63.434621909577025,10.393091455904807,0.0,1.4400000000000002e-10,0.0,0.0,0.0,1.4400000000000002e-10,0.0,0.0,0.0,1.0,2
2025/04/09 11:16:01.157587106,1744190161,155628911,mA1/gps,0,1,63.43462207403141,10.393091458475855,0.0,1.4400000000000002e-10,0.0,0.0,0.0,1.4400000000000002e-10,0.0,0.0,0.0,1.0,2
2025/04/09 11:16:01.198293701,1744190161,196547863,mA1/gps,0,1,63.4346222381359,10.393091460544069,0.0,1.4400000000000002e-10,0.0,0.0,0.0,1.4400000000000002e-10,0.0,0.0,0.0,1.0,2
2025/04/09 11:16:01.249018348,1744190161,246328514,mA1/gps,0,1,63.43462240300317,10.393091462529007,0.0,1.4400000000000002e-10,0.0,0.0,0.0,1.4400000000000002e-10,0.0,0.0,0.0,1.0,2
2025/04/09 11:16:01.298585476,1744190161,297439859,mA1/gps,0,1,63.43462256717491,10.39309146403706,0.0,1.4400000000000002e-10,0.0,0.0,0.0,1.4400000000000002e-10,0.0,0.0,0.0,1.0,2
2025/04/09 11:16:01.349208424,1744190161,347333183,mA1/gps,0,1,63.43462273041679,10.393091465429722,0.0,1.4400000000000002e-10,0.0,0.0,0.0,1.4400000000000002e-10,0.0,0.0,0.0,1.0,2
2025/04/09 11:16:01.400440899,1744190161,398940093,mA1/gps,0,1,63.434622892922995,10.39309146722355,0.0,1.4400000000000002e-10,0.0,0.0,0.0,1.4400000000000002e-10,0.0,0.0,0.0,1.0,2
2025/04/09 11:16:01.450895259,1744190161,448941430,mA1/gps,0,1,63.43462305633055,10.393091468671008,0.0,1.4400000000000002e-10,0.0,0.0,0.0,1.4400000000000002e-10,0.0,0.0,0.0,1.0,2
2025/04/09 11:16:01.500951079,1744190161,500214036,mA1/gps,0,1,63.434623219533044,10.393091472033493,0.0,1.4400000000000002e-10,0.0,0.0,0.0,1.4400000000000002e-10,0.0,0.0,0.0,1.0,2
2025/04/09 11:16:01.550753210,1744190161,550006742,mA1/gps,0,1,63.43462338142462,10.393091475747061,0.0,1.4400000000000002e-10,0.0,0.0,0.0,1.4400000000000002e-10,0.0,0.0,0.0,1.0,2
2025/04/09 11:16:01.602246856,1744190161,601068178,mA1/gps,0,1,63.43462354236875,10.393091480212671,0.0,1.4400000000000002e-10,0.0,0.0,0.0,1.4400000000000002e-10,0.0,0.0,0.0,1.0,2
