time,header_stamp_secs,header_stamp_nsecs,header_frame_id,quaternion_x,quaternion_y,quaternion_z,quaternion_w
2025/04/09 11:15:45.331732938,1744190145,167043790,,-0.0005550755783641092,-1.1783305693648679e-05,-0.001688325026809852,0.9999984206541828
2025/04/09 11:15:45.331880670,1744190145,259082268,,-0.0004898764099051395,-4.9464559576766474e-05,-0.0017105055069956566,0.9999984158713807
2025/04/09 11:15:45.365047112,1744190145,364303044,,-0.0004159393934326683,-6.60131823906447e-05,-0.0017322516124408096,0.9999984109692535
2025/04/09 11:15:45.464784706,1744190145,464354459,,-0.0003569213312935226,-7.013040293272865e-05,-0.0017500606235612169,0.9999984024870758
2025/04/09 11:15:45.573768049,1744190145,569354041,,-0.0003255059346409215,-7.754975305708296e-05,-0.0017634274808363138,0.9999983891764237
2025/04/09 11:15:45.659807476,1744190145,658668617,,-0.000320331259754684,-5.0130677702984364e-05,-0.00177683701282685,0.9999983688611842
2025/04/09 11:15:45.763303359,1744190145,763138284,,-0.0003408050793596565,-2.7172671804342713e-05,-0.0017901810716868462,0.999998339181258
2025/04/09 11:15:45.864835905,1744190145,864140268,,-0.0003810734004729026,-2.823457299285897e-06,-0.0018034862422808844,0.9999983011047896
2025/04/09 11:15:45.965434933,1744190145,965230483,,-0.0004309498170736871,2.870002031483673e-05,-0.0018167827720475583,0.9999982563779415
2025/04/09 11:15:46.66264541,1744190146,66110099,,-0.0004777148372574287,5.5525292134804596e-05,-0.001830339223479823,0.9999982092802983
2025/04/09 11:15:46.168213874,1744190146,167526869,,-0.0005099709920356082,5.545244327608307e-05,-0.0018442244206157323,0.9999981678437717
2025/04/09 11:15:46.257864094,1744190146,257562063,,-0.0005201909181380159,6.645656695154211e-05,-0.001858150715621029,0.9999981361286887
2025/04/09 11:15:46.360188634,1744190146,358954489,,-0.0005063616727132088,5.272060366773466e-05,-0.001871975128221837,0.9999981182619864
2025/04/09 11:15:46.459442299,1744190146,459319028,,-0.0004732036663400445,2.6936420896712558e-05,-0.0018858671331493054,0.9999981094271506
2025/04/09 11:15:46.561844185,1744190146,560744768,,-0.000456674431906406,3.975841720274069e-06,-0.0018823273928589908,0.9999981241363616
2025/04/09 11:15:46.661886688,1744190146,661580911,,-0.00045310615474870197,-1.9442548901899967e-05,-0.0018655324830337498,0.999998157050979
2025/04/09 11:15:46.762959067,1744190146,762551372,,-0.00043677957395785915,-5.5389499731203346e-05,-0.0018507455393939512,0.9999981904466405
2025/04/09 11:15:46.863687828,1744190146,863073829,,-0.0004115749721722646,-5.955500616979795e-05,-0.0018334337968285638,0.9999982327883166
2025/04/09 11:15:46.965593920,1744190146,965287816,,-0.00031329745676631534,-6.91878350222545e-05,-0.0018641992862209289,0.9999982109077837
2025/04/09 11:15:47.66718260,1744190147,66464244,,-0.00016961422228894767,-6.988092934533052e-05,-0.001941161562084522,0.9999980991179239
2025/04/09 11:15:47.167796366,1744190147,167583306,,-8.532434655864448e-05,-5.036374670206819e-05,-0.0020183753773565286,0.999997958169958
2025/04/09 11:15:47.260504407,1744190147,260302808,,-8.052146439598751e-05,-2.0896393593495938e-05,-0.0020918686128781204,0.9999978085802693
2025/04/09 11:15:47.364299917,1744190147,361044400,,-0.00015022485970322318,-5.60463622717639e-06,-0.0021622922538848577,0.9999976509438852
2025/04/09 11:15:47.461685117,1744190147,461478261,,-0.00027871148804889243,3.35118658864825e-05,-0.002226580627973284,0.9999974817646134
2025/04/09 11:15:47.562664343,1744190147,562218079,,-0.0005413635273546108,5.048764830449092e-05,-0.0022138597971819948,0.9999974015972877
2025/04/09 11:15:47.664650686,1744190147,663773360,,-0.0008324517534934878,5.5434383620318297e-05,-0.002146751409294488,0.9999973477012296
2025/04/09 11:15:47.764446084,1744190147,764291986,,-0.0010540337885272164,5.7295129467916015e-05,-0.002041997221234802,0.9999973579852045
2025/04/09 11:15:47.865166744,1744190147,865016160,,-0.0011512268359579793,5.153773239576684e-05,-0.0019013161641902251,0.9999975285056849
2025/04/09 11:15:47.966486840,1744190147,966250218,,-0.0011034600122118096,1.8201939123519622e-05,-0.0017260511893721574,0.9999979013937892
2025/04/09 11:15:48.58795864,1744190148,57922973,,-0.0009268000934736164,2.0082784630373607e-06,-0.0015180662463149229,0.9999984182549617
2025/04/09 11:15:48.161821991,1744190148,159697911,,-0.00062080202891128,-2.947427617124552e-05,-0.0013011006414319277,0.9999989604360741
2025/04/09 11:15:48.259964986,1744190148,259288865,,-0.00023902565289868314,-5.871707227944313e-05,-0.001098454425922472,0.9999993664082577
2025/04/09 11:15:48.360603380,1744190148,360243098,,0.0001176030996811527,-7.083581483526172e-05,-0.0009041669577174599,0.999999581816868
2025/04/09 11:15:48.461595848,1744190148,461321217,,0.0003699026518618929,-6.464763390636346e-05,-0.0007190350125443424,0.999999670990627
2025/04/09 11:15:48.563129009,1744190148,562503137,,0.00046365979510745747,-5.9716295230045105e-05,-0.0005409952240988908,0.9999997443888303
2025/04/09 11:15:48.663677410,1744190148,663077180,,0.00038533063908606247,-3.221380708495816e-05,-0.00036904837777778314,0.9999998571429218
2025/04/09 11:15:48.765084477,1744190148,764908743,,0.00017008904960708212,-4.526780768263741e-06,-0.00020780929604983882,0.9999999639322593
2025/04/09 11:15:48.865793001,1744190148,865655063,,-0.00011919627428248655,2.4086738969137915e-05,-5.8405230140244414e-05,0.9999999909004531
2025/04/09 11:15:48.968101532,1744190148,966648718,,-0.00041414730620484616,4.570368727949507e-05,7.684275653902619e-05,0.9999999102441822
2025/04/09 11:15:49.57723727,1744190149,57539095,,-0.0006488379556663599,5.362813610416589e-05,0.00020332882926041719,0.9999997673953317
2025/04/09 11:15:49.159553115,1744190149,159356706,,-0.0007658094967109396,6.26855979410104e-05,0.00032062573006148387,0.9999996534026758
2025/04/09 11:15:49.260232887,1744190149,259856373,,-0.0007361837451193062,5.750198763504797e-05,0.00042840437011084476,0.9999996355982889
2025/04/09 11:15:49.361015039,1744190149,360806334,,-0.0005832573020267887,5.2581041031849234e-05,0.0005299063889282391,0.9999996881226377
2025/04/09 11:15:49.462296210,1744190149,461884541,,-0.00035187168021900804,4.643921372270925e-05,0.0006243871668234534,0.9999997420851597
2025/04/09 11:15:49.562732311,1744190149,562517552,,-0.0001038311000423765,4.458268377345784e-05,0.0007111997273773733,0.9999997407131838
2025/04/09 11:15:49.663910550,1744190149,663719035,,0.00010209649410301057,4.831584485671922e-05,0.0007910584050709845,0.9999996807341914
2025/04/09 11:15:49.765195020,1744190149,764976411,,0.00021960156054473575,7.1994799144759e-05,0.0008638349873927862,0.9999996001904291
2025/04/09 11:15:49.868734703,1744190149,867480653,,0.0002275634825643886,9.770434737082011e-05,0.000930696061906332,0.9999995362366736
2025/04/09 11:15:49.967133409,1744190149,966893436,,0.00013062142289923975,0.00013840765181744318,0.0009932190804074988,0.9999994886484813
2025/04/09 11:15:50.59157843,1744190150,57640513,,-1.703028919945908e-05,0.0001746156853227376,0.001029659822139728,0.9999994545098424
2025/04/09 11:15:50.158525586,1744190150,158365991,,-0.0002017495998364355,0.000220751705044409,0.0010538243624985295,0.9999994000098184
2025/04/09 11:15:50.259867883,1744190150,259412698,,-0.00036722826398340934,0.0002664690736848332,0.0010570150129077431,0.9999993384282299
2025/04/09 11:15:50.360579123,1744190150,360379964,,-0.00047162424798290106,0.0003114930165124556,0.0010365076486532985,0.999999303097039
2025/04/09 11:15:50.461962938,1744190150,461804780,,-0.0005194244469962539,0.000353783576898543,0.0010137771379720101,0.9999992886454165
2025/04/09 11:15:50.563632572,1744190150,563392953,,-0.0005004782905077681,0.0004021422862101108,0.000990199862553499,0.9999993036534048
2025/04/09 11:15:50.665885445,1744190150,663784178,,-0.00042150463887287524,0.00042349009770590825,0.0009669903973637982,0.9999993539595653
2025/04/09 11:15:50.765277298,1744190150,764709735,,-0.00031339775207030423,0.00044077735773949503,0.0009481071681368532,0.9999994042948064
2025/04/09 11:15:50.866606460,1744190150,866163831,,-0.00020005656017381784,0.00045636739577240926,0.0009285171714351317,0.9999994447808634
2025/04/09 11:15:50.968588163,1744190150,967287331,,-9.902927054982135e-05,0.00044763901503278025,0.0008834041413240919,0.9999995047046968
2025/04/09 11:15:51.59093515,1744190151,58256525,,-8.474552674257965e-05,0.0004326688100481534,0.0008380330068841053,0.9999995516581874
2025/04/09 11:15:51.162991816,1744190151,162843256,,-0.000156083657742457,0.00041527367201526084,0.0007967060090816645,0.9999995842225157
2025/04/09 11:15:51.265687266,1744190151,263872373,,-0.00029660850722981584,0.0004179437199798278,0.0007597855678096915,0.9999995800360775
2025/04/09 11:15:51.366192253,1744190151,365908150,,-0.00047217012067593154,0.0004161227868244515,0.0007273147581197894,0.999999537455116
2025/04/09 11:15:51.470098569,1744190151,468087042,,-0.0006409923589097365,0.00041960853459258095,0.0006994005267967311,0.9999994619480436
2025/04/09 11:15:51.558689388,1744190151,558421522,,-0.0007604099021011506,0.0004322610352565952,0.0006821029195741714,0.9999993848312034
2025/04/09 11:15:51.660394730,1744190151,659318236,,-0.000800811179197582,0.0004640622694057803,0.0006718831362917761,0.9999993459601444
2025/04/09 11:15:51.761514958,1744190151,760405767,,-0.000746487021361336,0.0004885995245466774,0.000659461939289277,0.9999993845686017
2025/04/09 11:15:51.862120403,1744190151,861074253,,-0.000623776369970658,0.0005183750471990235,0.000649350055219042,0.9999994602672826
2025/04/09 11:15:51.961951462,1744190151,961754551,,-0.000465185037390099,0.0005413761481962418,0.000643316596840314,0.9999995383291451
2025/04/09 11:15:52.62870115,1744190152,62725008,,-0.0003097988338655303,0.000561205741143882,0.0006375803933119337,0.9999995912819368
2025/04/09 11:15:52.164553169,1744190152,163930411,,-0.00018713642145576934,0.0005605754579165796,0.0006241175833156125,0.9999996306061107
2025/04/09 11:15:52.267038506,1744190152,265497997,,-0.00013183109295491512,0.0005588946561399437,0.000612420366993153,0.9999996475992481
2025/04/09 11:15:52.366277580,1744190152,366080440,,-0.00016008834481704153,0.0005427752006827572,0.0006059033628297067,0.9999996563239001
2025/04/09 11:15:52.458022709,1744190152,457790020,,-0.0002591312446103517,0.0005386130887172786,0.0006012245034973818,0.999999640637953
2025/04/09 11:15:52.559173577,1744190152,558997092,,-0.000403195683367139,0.0005040449751893042,0.0005979384193177107,0.9999996129207004
2025/04/09 11:15:52.660346838,1744190152,659915984,,-0.0005565691365881454,0.0004998528799321619,0.0005957320213061883,0.9999995427405222
2025/04/09 11:15:52.762242095,1744190152,760837126,,-0.000682206015006054,0.0004911121579786764,0.0005945578318102724,0.9999994699522525
2025/04/09 11:15:52.864257922,1744190152,862916259,,-0.0007515347496765847,0.0004952046094229001,0.000593953913041244,0.999999418593163
2025/04/09 11:15:52.965527468,1744190152,965304360,,-0.0007435384531766749,0.0004960982054716237,0.0005936748221631452,0.9999994242935066
2025/04/09 11:15:53.69409624,1744190153,68164369,,-0.0006672473424052252,0.0005029729099749682,0.0005941662177922996,0.9999994743827326
2025/04/09 11:15:53.161661834,1744190153,158004602,,-0.0005430932113380135,0.000512469475520237,0.0005954392289476918,0.9999995439383585
2025/04/09 11:15:53.259166706,1744190153,258886864,,-0.00040066415839443235,0.0005228636572807865,0.0005974796441749112,0.9999996045498732
2025/04/09 11:15:53.360714286,1744190153,360080788,,-0.00027367229265075886,0.0005147210223526332,0.0006003097891322726,0.9999996498968899
2025/04/09 11:15:53.463073505,1744190153,461767819,,-0.00018997683280899056,0.000505223262395125,0.0006035440621151301,0.9999996721963579
2025/04/09 11:15:53.563438712,1744190153,562910825,,-0.00016693959887275353,0.0004903459373918668,0.0006069865286124692,0.9999996816296424
2025/04/09 11:15:53.664876832,1744190153,663740808,,-0.00020964368411001535,0.0004636625928640763,0.0006108371646056247,0.9999996839721921
2025/04/09 11:15:53.765629922,1744190153,765456828,,-0.00030712823598687755,0.0004347689050448346,0.0006153875823913992,0.9999996689731299
2025/04/09 11:15:53.869881848,1744190153,867653963,,-0.0004343031458381891,0.00039988237747267226,0.0006207915170912449,0.9999996330463097
2025/04/09 11:15:53.967571930,1744190153,967070836,,-0.0005632262791082987,0.00037825377974587903,0.0006292640173182701,0.9999995718634249
2025/04/09 11:15:54.62741299,1744190154,62515708,,-0.0006644368226955646,0.00035995051114400857,0.0006472752457489858,0.9999995049969247
2025/04/09 11:15:54.163669983,1744190154,163490288,,-0.0006935450917476033,0.0003435895065785629,0.0006685864624211719,0.9999994769666627
2025/04/09 11:15:54.264349677,1744190154,264229053,,-0.0006454699560684648,0.0003427246473228175,0.0006948568481872611,0.999999491541027
2025/04/09 11:15:54.366755786,1744190154,365107152,,-0.0005125330162451192,0.0003388648062631751,0.0007028855097302183,0.9999995642161603
2025/04/09 11:15:54.468501207,1744190154,467210675,,-0.0003568610756847081,0.000352136933455964,0.0007051285531295775,0.9999996257216681
2025/04/09 11:15:54.561877917,1744190154,558721293,,-0.00022100713991093338,0.0003601700206331243,0.0007061505467194694,0.9999996613923455
2025/04/09 11:15:54.661951486,1744190154,660347799,,-0.00013637026222166178,0.0003768745202513264,0.000707570430308402,0.9999996693563622
2025/04/09 11:15:54.762066561,1744190154,760979171,,-0.00012036295808462755,0.00039792887562663335,0.0007084650345936806,0.9999996626212746
2025/04/09 11:15:54.864730137,1744190154,863157312,,-0.00017529258096966592,0.00039918635837869293,0.000708291485335899,0.9999996541229073
2025/04/09 11:15:54.964911228,1744190154,964603497,,-0.0002859040933469855,0.00039722416517859607,0.0007072300856655536,0.9999996301486406
2025/04/09 11:15:55.67654210,1744190155,66766400,,-0.00042586290712346624,0.0004018350828729556,0.0007053062584883002,0.9999995798561279
2025/04/09 11:15:55.159616962,1744190155,158493366,,-0.0005610878639410223,0.0003758054066229144,0.0007025901475236198,0.9999995251587822
2025/04/09 11:15:55.260188155,1744190155,259924345,,-0.0006603727476557217,0.0003526893023479598,0.0006988893956290665,0.9999994755357139
2025/04/09 11:15:55.360914219,1744190155,360254213,,-0.0007018245671180247,0.0003298885016623098,0.0006944154312744791,0.9999994582013844
2025/04/09 11:15:55.463900991,1744190155,462633031,,-0.0006774928352115562,0.00032460634876951263,0.0006893020325119864,0.9999994802483072
2025/04/09 11:15:55.565836209,1744190155,564415293,,-0.0005941067821382279,0.00029240522814088577,0.0006835830794789472,0.9999995471251412
2025/04/09 11:15:55.665666185,1744190155,665329244,,-0.0004770895889773216,0.0002816097838131842,0.0006789739538516747,0.9999996160378382
2025/04/09 11:15:55.761030025,1744190155,760149051,,-0.00035815635182554487,0.00026725777486604456,0.0006769036100660559,0.999999671049352
2025/04/09 11:15:55.866849078,1744190155,865014235,,-0.00026436836054711556,0.0002634534804502034,0.0006786083543970878,0.9999997000961225
2025/04/09 11:15:55.971873976,1744190155,970629421,,-0.00021412289352008666,0.0002709969727870081,0.0006831708372409085,0.9999997069947743
2025/04/09 11:15:56.63742166,1744190156,62622453,,-0.00021736418904362873,0.00028703207386686564,0.0006847291977309823,0.9999997007556171
2025/04/09 11:15:56.166314499,1744190156,165208397,,-0.00028098368436518887,0.00030666564462861385,0.0006849047496381932,0.9999996789548662
2025/04/09 11:15:56.260415308,1744190156,259339394,,-0.0003866177100503478,0.00031846695005767315,0.0006890958150466812,0.999999637126187
2025/04/09 11:15:56.362109517,1744190156,361769611,,-0.0005023472028567378,0.0003350697480748845,0.0006964385978013223,0.9999995751743254
2025/04/09 11:15:56.463789357,1744190156,462700365,,-0.0006009932736578632,0.0003434261459681004,0.000706104714918062,0.9999995111407299
2025/04/09 11:15:56.564160550,1744190156,563983639,,-0.0006612606009438364,0.0003416385701738838,0.0007191003078078121,0.9999994644559828
2025/04/09 11:15:56.664949591,1744190156,664749743,,-0.0006706305070770878,0.00033065595030876263,0.0007345697273252904,0.9999994506641897
2025/04/09 11:15:56.765815277,1744190156,765671267,,-0.0006259903470915937,0.00031722577990497564,0.0007524422121482073,0.9999994706671635
2025/04/09 11:15:56.866935555,1744190156,866757010,,-0.000538118410098055,0.0002938236317746667,0.0007720819869182782,0.9999995139927097
2025/04/09 11:15:56.961451847,1744190156,959711857,,-0.00042754124837618586,0.0002559266518803285,0.0007932902095241205,0.9999995612002404
2025/04/09 11:15:57.62968589,1744190157,61379994,,-0.00032458541070317347,0.0002492928488038936,0.0008220767090225713,0.9999995783435467
2025/04/09 11:15:57.163183202,1744190157,162850721,,-0.00023439219069015606,0.00022420117589500553,0.0008510966975446811,0.9999995852141865
2025/04/09 11:15:57.266547605,1744190157,266369873,,-0.00018226155852359147,0.00022258986931135576,0.0008848800312670336,0.9999995671108086
2025/04/09 11:15:57.372906037,1744190157,371692766,,-0.0001825763451371738,0.0002296561845911162,0.0009198881706775098,0.9999995338647256
2025/04/09 11:15:57.458157197,1744190157,457951992,,-0.0002397885626119933,0.0002400940758094577,0.000955109071727702,0.9999994863113386
2025/04/09 11:15:57.560174114,1744190157,558576621,,-0.0003427141017538006,0.00026124833870897667,0.0009919730715523606,0.9999994151427166
2025/04/09 11:15:57.660386663,1744190157,660138754,,-0.00046650432918016253,0.00027743255687719034,0.0010309421402308993,0.999999321281365
2025/04/09 11:15:57.761471804,1744190157,761044536,,-0.0005792740722830166,0.0003013617746751827,0.0010716257466187554,0.9999992126201346
2025/04/09 11:15:57.862974789,1744190157,861830856,,-0.0006553102472017824,0.00032127901643534944,0.0011133084182740906,0.9999991139459271
2025/04/09 11:15:57.966870985,1744190157,966500776,,-0.0006778442251654147,0.00031892943050014223,0.0011567352803822332,0.9999990503869071
2025/04/09 11:15:58.67011163,1744190158,66677011,,-0.0006412700302769284,0.0003180682545754665,0.001201449844919789,0.9999990220613237
2025/04/09 11:15:58.165633513,1744190158,165458811,,-0.00055530329109068,0.0003029254973208063,0.0012469558704393438,0.9999990224872498
2025/04/09 11:15:58.267721554,1744190158,267040417,,-0.000442917326909284,0.0002808436459328181,0.0012943170017818309,0.999999024846818
2025/04/09 11:15:58.359134558,1744190158,358266677,,-0.0003299026785830182,0.00026743480938562015,0.0013423424511280844,0.9999990088793035
2025/04/09 11:15:58.461361577,1744190158,459816931,,-0.00022616271902075376,0.0002467134655668159,0.001373504255293645,0.9999990007339763
2025/04/09 11:15:58.561963469,1744190158,561708189,,-0.00018038978729243584,0.0002247623721258618,0.0014008311518219371,0.9999989773062194
2025/04/09 11:15:58.663561126,1744190158,662097642,,-0.0002027496191033122,0.00021183120462749472,0.0014253838053971718,0.9999989411500094
2025/04/09 11:15:58.764338730,1744190158,762885147,,-0.0002851719472136116,0.00019905973219130915,0.00144659754295083,0.9999988932032536
2025/04/09 11:15:58.866560443,1744190158,865236136,,-0.00039848333356982366,0.00020130317436343974,0.001464532520228301,0.9999988279155941
2025/04/09 11:15:58.965958336,1744190158,965740177,,-0.0004946193493708654,0.00019168193511743858,0.0014705127585711933,0.9999987781002344
2025/04/09 11:15:59.62564026,1744190159,62330062,,-0.000550223889158615,0.00019156714020811914,0.001463984957608433,0.9999987586511028
2025/04/09 11:15:59.166711815,1744190159,164162322,,-0.000564461298961459,0.00019673890609162356,0.0014528716953711826,0.9999987659197793
2025/04/09 11:15:59.265514177,1744190159,265295182,,-0.0005378547271301713,0.00020385598371899574,0.0014388579587235213,0.9999987994206818
2025/04/09 11:15:59.367360036,1744190159,367206430,,-0.00047698444848159405,0.0001835598050826432,0.0014222216841594183,0.9999988580379054
2025/04/09 11:15:59.459760685,1744190159,457924109,,-0.0004100546060120154,0.0001834617712320493,0.0013997693449132173,0.999998919420806
2025/04/09 11:15:59.559029980,1744190159,558725498,,-0.000359195478732642,0.00016780831135016375,0.0013764367111756533,0.9999989741199532
2025/04/09 11:15:59.659283090,1744190159,659120283,,-0.0003346330982464372,0.0001494984017497381,0.001352859070824768,0.9999990177211435
2025/04/09 11:15:59.762034937,1744190159,761817790,,-0.0003420272673339265,0.00013515065290302557,0.0013293608721711245,0.9999990487752081
2025/04/09 11:15:59.864862356,1744190159,864589003,,-0.0003818937055764998,0.00010844705328660725,0.0013022885965128532,0.9999990732199934
2025/04/09 11:15:59.967818659,1744190159,967591487,,-0.000448509663628918,9.259072182134398e-05,0.001272672541039745,0.9999990852849032
2025/04/09 11:16:00.62779992,1744190160,58903345,,-0.0005242240903945151,7.567524533785081e-05,0.0012397394753760225,0.9999990912537838
2025/04/09 11:16:00.160831903,1744190160,160209355,,-0.0005997081742318672,5.388678600396359e-05,0.0012111783193520852,0.999999085246281
2025/04/09 11:16:00.262891656,1744190160,262604921,,-0.0006445966603707108,4.3015265078775533e-05,0.0011853776151678334,0.9999990887619558
2025/04/09 11:16:00.365983359,1744190160,365790742,,-0.000649519691311216,4.389215566351707e-05,0.0011629275690740852,0.9999991118981648
2025/04/09 11:16:00.464728910,1744190160,464492081,,-0.0006136478005975852,3.080230882097111e-05,0.00114510658848788,0.9999991556088913
2025/04/09 11:16:00.567357283,1744190160,565981340,,-0.0005449930486693723,3.861195291935357e-05,0.001132540690673731,0.9999992094213265
2025/04/09 11:16:00.668348286,1744190160,666917620,,-0.000462780342993959,4.437725457017467e-05,0.0011261556325612375,0.9999992578189769
2025/04/09 11:16:00.758663060,1744190160,758090342,,-0.00038605215053933383,5.559158658211294e-05,0.0011253325296879898,0.9999992907497536
2025/04/09 11:16:00.861430407,1744190160,861109210,,-0.00032349956112080617,5.836964199162948e-05,0.00112495384891769,0.9999993132096925
2025/04/09 11:16:00.965072304,1744190160,963392066,,-0.00029061345594337594,6.214252111242803e-05,0.0011260696179452286,0.999999321824441
2025/04/09 11:16:01.68789865,1744190161,67770681,,-0.00029596043946849497,4.766055984691255e-05,0.001129358895971583,0.9999993173419537
2025/04/09 11:16:01.168151085,1744190161,167269738,,-0.0003348742728093845,3.916329239767538e-05,0.0011343894777668278,0.9999992997427402
2025/04/09 11:16:01.259204405,1744190161,259003515,,-0.0004007920554271933,9.835289873255919e-06,0.0011443667712749386,0.9999992648465739
2025/04/09 11:16:01.363319029,1744190161,362693275,,-0.0004772352972516088,-1.2843243177531882e-05,0.0011591032435336204,0.9999992142802878
2025/04/09 11:16:01.460877639,1744190161,460604501,,-0.0005462833350949769,-4.637003137712129e-05,0.0011789243090414294,0.9999991547805486
2025/04/09 11:16:01.562538767,1744190161,562250081,,-0.0005961561557279396,-6.953619991036104e-05,0.001200882666697969,0.9999990988212818
2025/04/09 11:16:01.664627562,1744190161,663966314,,-0.0006235156801430631,-0.00010138205410759156,0.00122859038973982,0.9999990457573097
2025/04/09 11:16:01.767729242,1744190161,767449389,,-0.0006039645811316145,-0.00011514884434178364,0.0012561964650317646,0.9999990219685065
2025/04/09 11:16:01.869176233,1744190161,867526406,,-0.0005400359940245385,-0.00011063953371235978,0.001284348354222715,0.9999990232841849
2025/04/09 11:16:01.959349112,1744190161,959206971,,-0.0004538395250913994,-0.00011110010297324518,0.0013181188908965166,0.9999990221240429
2025/04/09 11:16:02.67738899,1744190162,67205434,,-0.0003700930474154512,-9.981522734977756e-05,0.0013578133422588192,0.9999990047049968
2025/04/09 11:16:02.166679060,1744190162,165460372,,-0.00030354118026708956,-6.779876304970189e-05,0.0014003121706760383,0.9999989711954229
2025/04/09 11:16:02.265703283,1744190162,264614642,,-0.00026142277347442186,-6.186722497736905e-05,0.0014413331768153225,0.9999989251940491
2025/04/09 11:16:02.368214783,1744190162,368011825,,-0.00025573833515402295,-5.93768826463258e-05,0.0014810355161878582,0.999998868802405
2025/04/09 11:16:02.468316416,1744190162,467687968,,-0.000286351111646446,-5.4516269067038965e-05,0.0015192746592484292,0.9999988034170476
2025/04/09 11:16:02.559958966,1744190162,558627735,,-0.0003472947979721596,-5.8187039770950175e-05,0.0015589363485458414,0.9999987228582109
2025/04/09 11:16:02.660020265,1744190162,659486058,,-0.00042103052050186576,-8.467958526921748e-05,0.0016023180855724419,0.999998624068764
2025/04/09 11:16:02.761876784,1744190162,760483233,,-0.0004679282181552885,-0.0001012301100824529,0.001637820315296378,0.9999985441690714
2025/04/09 11:16:02.861249407,1744190162,861071994,,-0.00047168484585205755,-0.0001393282231166556,0.00166182487410688,0.9999984982184424
2025/04/09 11:16:02.964449226,1744190162,964060533,,-0.0004425792833793382,-0.0001577179642773657,0.0016762581589096599,0.9999984847024551
2025/04/09 11:16:03.67650161,1744190163,66900263,,-0.00039888376054776506,-0.0001836581377518885,0.0016839333784988049,0.9999984857637589
2025/04/09 11:16:03.167395062,1744190163,166304156,,-0.0003509200008799341,-0.0001776521891623246,0.0016844078058536373,0.9999985040314792
2025/04/09 11:16:03.267352746,1744190163,267112312,,-0.00030943033541137833,-0.0001764194249817044,0.0016786316684675616,0.9999985276613039
2025/04/09 11:16:03.362404266,1744190163,360561087,,-0.0002861308633396554,-0.00015553509155969016,0.0016704280607428242,0.9999985518029805
2025/04/09 11:16:03.461847499,1744190163,459169485,,-0.0002814691474076924,-0.00013491256818214196,0.0016555661871959595,0.9999985808361519
2025/04/09 11:16:03.562220499,1744190163,562073157,,-0.00029694462721665567,-9.90703546904844e-05,0.0016338873884242948,0.9999986162095201
2025/04/09 11:16:03.664259197,1744190163,663944086,,-0.00033313992090463996,-8.51640247528223e-05,0.0016086381100615568,0.9999986470232411
2025/04/09 11:16:03.765474749,1744190163,764999711,,-0.0003814671519544149,-7.426497397904697e-05,0.001575154150523278,0.9999986839275978
2025/04/09 11:16:03.866295857,1744190163,866086147,,-0.0004342655918641081,-8.180060632306835e-05,0.0015350539206532528,0.9999987241649447
2025/04/09 11:16:03.969655842,1744190163,969351581,,-0.0004848855812692252,-9.237850963713278e-05,0.0014857044098439203,0.9999987745165444
2025/04/09 11:16:04.62725808,1744190164,60968073,,-0.0005244469763571548,-0.00011942260874730072,0.0014283758765514705,0.999998835217304
2025/04/09 11:16:04.166325517,1744190164,165650046,,-0.000545953297260823,-0.00015144690578636842,0.00136358409142974,0.9999989098180345
2025/04/09 11:16:04.264240666,1744190164,262949676,,-0.0005439337139719267,-0.00018975044015397184,0.0012915333170672467,0.9999990000357881
2025/04/09 11:16:04.365197697,1744190164,363686152,,-0.0005202688376833093,-0.0002208239711334123,0.001215494906884429,0.9999991015642172
2025/04/09 11:16:04.466431070,1744190164,465909162,,-0.0004804719256074456,-0.0002405361472085422,0.0011377946285228353,0.9999992083559236
2025/04/09 11:16:04.570475250,1744190164,570055840,,-0.0004401195186017508,-0.0002502271649720815,0.0010638982094802044,0.9999993059006467
2025/04/09 11:16:04.659581005,1744190164,658186883,,-0.0003973433708332986,-0.0002345119648785109,0.0009893999029280235,0.9999994041049305
2025/04/09 11:16:04.761285961,1744190164,760649861,,-0.00035862533996486654,-0.00021105976324380587,0.0009107218315304139,0.9999994987135681
2025/04/09 11:16:04.864073645,1744190164,862242081,,-0.0003634290525501922,-0.0002052129431357865,0.00084846896368493,0.9999995529535948
2025/04/09 11:16:04.964222140,1744190164,962200428,,-0.00038080065703740234,-0.00017400136479891893,0.0007889447407471332,0.9999996011402108
2025/04/09 11:16:05.66093347,1744190165,63166967,,-0.0003991811448286008,-0.0001498678963009508,0.0007309388650343545,0.9999996419611373
2025/04/09 11:16:05.166172768,1744190165,164893343,,-0.0004139495131529994,-0.00012215854873713752,0.0006744457926381108,0.9999996794229298
2025/04/09 11:16:05.264796141,1744190165,264627941,,-0.0004207492834851122,-0.00011509146286829816,0.0006182356070198047,0.999999713754324
2025/04/09 11:16:05.366691038,1744190165,365557733,,-0.0004176379490899858,-0.00010570619235964848,0.0005623188700402713,0.9999997491010849
2025/04/09 11:16:05.468191147,1744190165,466965931,,-0.00040846385281043715,-0.0001199045365420835,0.0005059489316766692,0.9999997813979069
2025/04/09 11:16:05.570901736,1744190165,570656891,,-0.0003975412882546026,-0.00014677313091718963,0.00045526392453725434,0.9999998065766469
2025/04/09 11:16:05.659197803,1744190165,658133675,,-0.0003620099332048061,-0.00016879763375481533,0.00039985924845589553,0.9999998402843615
2025/04/09 11:16:05.761701123,1744190165,761468674,,-0.00030436615691275577,-0.00019418760532785405,0.00033970617053398646,0.9999998771260595
2025/04/09 11:16:05.865793093,1744190165,864484229,,-0.00024463283087897505,-0.0002138293536735397,0.00027849600709367123,0.9999999084358756
2025/04/09 11:16:05.967128214,1744190165,966582918,,-0.00019826473220058014,-0.00023248032237669543,0.00021593721928951087,0.999999930007554
2025/04/09 11:16:06.71033975,1744190166,69455456,,-0.00017656746189531337,-0.00024426428295224383,0.00015151411373123114,0.9999999431011808
2025/04/09 11:16:06.168385782,1744190166,166846590,,-0.00018424895956632305,-0.00022459064675787123,8.469817034615143e-05,0.9999999542187901
2025/04/09 11:16:06.263592960,1744190166,262546119,,-0.00022026823549712798,-0.00022417393445402388,1.5467716361311863e-05,0.9999999504943494
2025/04/09 11:16:06.361835505,1744190166,361646698,,-0.0002790191039618535,-0.00019717495619370784,-5.7763283896660563e-05,0.9999999399668879
2025/04/09 11:16:06.464819382,1744190166,464284557,,-0.00034807880756532785,-0.00016916088077858436,-0.00013481938662884366,0.999999916024733
2025/04/09 11:16:06.566426922,1744190166,564698990,,-0.00041248196131819776,-0.00014447587685252554,-0.00021639183869495983,0.9999998810799553
2025/04/09 11:16:06.668627436,1744190166,666225703,,-0.0004809245128033951,-0.00012287172511008792,-0.00028623218419401354,0.999999835842631
2025/04/09 11:16:06.768479605,1744190166,767342558,,-0.0005169674864920218,-0.00012305841072972397,-0.0003540050226922537,0.9999997961408239
2025/04/09 11:16:06.858696414,1744190166,858491206,,-0.0005086239301139818,-0.00012012026117552798,-0.0004290283162572702,0.9999997714037361
2025/04/09 11:16:06.964039197,1744190166,959937580,,-0.0004627008774761,-0.00013643403521468596,-0.0005079637854555542,0.9999997546331922
2025/04/09 11:16:07.60191393,1744190167,59453615,,-0.0003936066645212789,-0.0001527532751753168,-0.0005889904316386791,0.9999997374152165
2025/04/09 11:16:07.162817518,1744190167,162014735,,-0.00034005285662959905,-0.00017839425962793212,-0.0006559197599937712,0.9999997111543639
2025/04/09 11:16:07.262796656,1744190167,262077482,,-0.0002968132494807692,-0.00019236240341777503,-0.0007102241022909923,0.9999996852401131
2025/04/09 11:16:07.362021228,1744190167,361884502,,-0.0002683574185350279,-0.00019730331200004322,-0.000753251578025949,0.9999996608338221
2025/04/09 11:16:07.463241230,1744190167,463102683,,-0.0002498208820833162,-0.00021608377793514455,-0.0007912718335810358,0.999999632393039
2025/04/09 11:16:07.566616196,1744190167,563778473,,-0.00024252272533777653,-0.00021498010290759274,-0.0008258888415263646,0.9999996064368748
2025/04/09 11:16:07.670114000,1744190167,669530502,,-0.00024877260117167285,-0.0002029621504988803,-0.0008571938029171806,0.9999995810685836
2025/04/09 11:16:07.765941208,1744190167,765592745,,-0.0002689665378907863,-0.0001778764151330021,-0.0008849375571824163,0.9999995564511528
2025/04/09 11:16:07.868335604,1744190167,866778282,,-0.0003017490353292118,-0.00015332970310478794,-0.0009086039306449694,0.999999529938099
2025/04/09 11:16:07.968776199,1744190167,967344122,,-0.0003386194567697575,-0.0001210070145589993,-0.0009284262192674474,0.9999995043593378
2025/04/09 11:16:08.60089371,1744190168,58872836,,-0.0003751059849532543,-0.00010590969369890884,-0.0009480469470938255,0.9999994746426735
2025/04/09 11:16:08.166157627,1744190168,165195183,,-0.0004040623477088193,-7.72463186288746e-05,-0.0009678027203495543,0.9999994470621071
2025/04/09 11:16:08.263733852,1744190168,263393768,,-0.00041958550777042487,-7.774633722067868e-05,-0.0009871381254015776,0.9999994217307479
2025/04/09 11:16:08.361900622,1744190168,361711116,,-0.00042097490249921594,-9.293144791878024e-05,-0.0010054697731981738,0.9999994015870273
2025/04/09 11:16:08.464003478,1744190168,462883750,,-0.00041750016226514035,-0.00011757736539035085,-0.0010146146661610522,0.9999993912129431
2025/04/09 11:16:08.565589391,1744190168,564010336,,-0.0004003916910522928,-0.0001407981273081482,-0.0010176111588343145,0.9999993921647705
2025/04/09 11:16:08.665134617,1744190168,664908134,,-0.00037134910907533317,-0.00016186076348879223,-0.0010159170306606091,0.9999994019065808
2025/04/09 11:16:08.767749053,1744190168,766396665,,-0.00033887973711664506,-0.00018588480394407045,-0.0010094933429575074,0.9999994157651063
2025/04/09 11:16:08.859080478,1744190168,857926041,,-0.00031443108803241545,-0.00019592839935075583,-0.0010060169176685286,0.9999994253373922
2025/04/09 11:16:08.962428249,1744190168,961532734,,-0.00031405047576788957,-0.0001910317827886313,-0.0010007761040053296,0.9999994316630116
2025/04/09 11:16:09.66384876,1744190169,64833958,,-0.0003408848693083222,-0.00018774027038999716,-0.0009890924163721935,0.9999994351234848
2025/04/09 11:16:09.164255328,1744190169,162995771,,-0.0003892129433244695,-0.00016452174287871863,-0.0009708767192407425,0.9999994394219813
2025/04/09 11:16:09.264042243,1744190169,263816788,,-0.0004493146372472946,-0.00013021885638042649,-0.0009434579094655693,0.9999994455231359
2025/04/09 11:16:09.365987024,1744190169,364578889,,-0.0005060143737224361,-0.00011338721631821112,-0.0009062439189232828,0.9999994549072275
2025/04/09 11:16:09.465828135,1744190169,465594711,,-0.000544655880248807,-9.392705480159253e-05,-0.0008605739008677395,0.999999476969984
2025/04/09 11:16:09.568937770,1744190169,567880221,,-0.0005580047574419188,-8.011537381331597e-05,-0.0008072332181840665,0.999999515293257
2025/04/09 11:16:09.658678490,1744190169,658102815,,-0.0005424959406361982,-8.454525198082288e-05,-0.0007471190549003215,0.9999995701815939
2025/04/09 11:16:09.761847406,1744190169,761532542,,-0.0004958353926841018,-9.88653958840233e-05,-0.000681072308511824,0.999999640256639
2025/04/09 11:16:09.865503196,1744190169,863503540,,-0.0004347600485521304,-0.00010563397086937648,-0.0006087960903872166,0.9999997145962016
2025/04/09 11:16:09.964078715,1744190169,963858390,,-0.0003700513187087027,-0.00012987257901262453,-0.0005336755514822201,0.9999997806927462
2025/04/09 11:16:10.65446865,1744190170,64325775,,-0.00028783889081568067,-0.00014008489855987064,-0.00048419199004865517,0.9999998315415413
2025/04/09 11:16:10.165592591,1744190170,165448768,,-0.0002455547164246341,-0.0001405080420692574,-0.00045038692564654264,0.9999998585559843
2025/04/09 11:16:10.268846987,1744190170,266778053,,-0.00026708677867418485,-0.00011943928151918805,-0.00041268907683084496,0.9999998720433101
2025/04/09 11:16:10.359344591,1744190170,358307288,,-0.0002988722933688283,-0.00010372940808182875,-0.0003873913917923109,0.999999874921728
2025/04/09 11:16:10.460749014,1744190170,459012556,,-0.00034178143226589543,-7.808374048090746e-05,-0.0003721698779609778,0.9999998692889734
2025/04/09 11:16:10.561380913,1744190170,560232341,,-0.00039349989583664673,-5.132023326526795e-05,-0.00036170620946981725,0.9999998558463314
2025/04/09 11:16:10.661959489,1744190170,660345432,,-0.0004350396523882698,-1.4803667818137638e-05,-0.00035691470842780216,0.999999841566609
2025/04/09 11:16:10.761590753,1744190170,761391753,,-0.0004641743599943484,2.852184704620043e-05,-0.0003542356057395355,0.9999998291228871
2025/04/09 11:16:10.862734796,1744190170,862514821,,-0.00047689712305625903,4.415597633662078e-05,-0.00034703161109986156,0.999999825094207
2025/04/09 11:16:10.963907535,1744190170,963661581,,-0.0004643771054868321,6.370402814769611e-05,-0.00033882410216839993,0.9999998327469503
2025/04/09 11:16:11.64750010,1744190171,64592387,,-0.00042895008286979126,5.7107352357652435e-05,-0.00033094151731351447,0.9999998516091334
2025/04/09 11:16:11.159817981,1744190171,158487999,,-0.00038324462045519854,3.819160186005973e-05,-0.0003227223251701,0.9999998737576237
2025/04/09 11:16:11.262356437,1744190171,261316905,,-0.00032870637750549725,3.325974183332057e-05,-0.00032138267545395356,0.9999998937795358
2025/04/09 11:16:11.363385468,1744190171,362117112,,-0.0002874934199793083,1.4824783772594119e-05,-0.0003241524745706693,0.9999999060264618
2025/04/09 11:16:11.463953972,1744190171,463568779,,-0.00027047254444667216,-1.53514203240936e-05,-0.0003254796591126384,0.99999991033596
2025/04/09 11:16:11.564154535,1744190171,563856024,,-0.0002677898874783557,-2.0455932715632092e-05,-0.0003345822149081569,0.999999907962432
2025/04/09 11:16:11.665347999,1744190171,665163921,,-0.0002921642152217292,-2.093109978796792e-05,-0.00034858008665879394,0.9999998963469364
2025/04/09 11:16:11.767331085,1744190171,767175260,,-0.0003409397067103746,-2.3457527089728125e-05,-0.0003611845164441842,0.9999998763777953
2025/04/09 11:16:11.858408106,1744190171,858059438,,-0.0003954474442730423,-3.5600045787342866e-06,-0.00037796742258196936,0.9999998503746251
2025/04/09 11:16:11.961690970,1744190171,960283861,,-0.00044989626376598863,2.7981206226396513e-05,-0.0003971956666424044,0.9999998195229869
2025/04/09 11:16:12.62712015,1744190172,62466629,,-0.0004937342079620041,4.3274782278154e-05,-0.0004176364487278751,0.9999997899667888
2025/04/09 11:16:12.163329819,1744190172,163153747,,-0.0005204817683153386,9.024615628001682e-05,-0.0004457676601119398,0.9999997611227481
2025/04/09 11:16:12.264675049,1744190172,264497681,,-0.0005598433639822616,0.00011100136498578842,-0.0004639814219884508,0.9999997294876358
2025/04/09 11:16:12.358532025,1744190172,358334691,,-0.0005917926025029189,0.00012303647375164786,-0.00045875449774454596,0.9999997120938848
2025/04/09 11:16:12.459760273,1744190172,458672479,,-0.000571340233663408,0.0001159104190920026,-0.00045370718049797906,0.999999727142416
2025/04/09 11:16:12.560389668,1744190172,560235788,,-0.0005132624939371263,0.00011361358250157914,-0.00044640606877027555,0.9999997621875657
2025/04/09 11:16:12.663338186,1744190172,661426662,,-0.0004389035846760059,8.662911181130888e-05,-0.0004330560597940687,0.9999998061607259
2025/04/09 11:16:12.764213864,1744190172,764031775,,-0.00035805421415709875,6.463465031115629e-05,-0.00042188185964018877,0.9999998448176071
2025/04/09 11:16:12.865450070,1744190172,864422655,,-0.00029318856968499444,4.0599209577721567e-05,-0.0004119857073230921,0.9999998713299636
2025/04/09 11:16:12.968253918,1744190172,966783580,,-0.00026817613547075643,2.799275522893918e-05,-0.00039232009526779196,0.999999886691448
2025/04/09 11:16:13.58955799,1744190173,58807447,,-0.0002804996915169838,1.4758917877979443e-05,-0.0003659571439678869,0.9999998935887274
2025/04/09 11:16:13.160373289,1744190173,160058421,,-0.00032368469634552765,1.9531698165116665e-05,-0.00033504667600753953,0.9999998912952216
2025/04/09 11:16:13.261066853,1744190173,260271716,,-0.00038715637335221746,2.4781821510889313e-05,-0.0002990282211349619,0.9999998800389562
2025/04/09 11:16:13.363274549,1744190173,363054141,,-0.0004451080933299294,5.197315462160092e-05,-0.00026639467769290015,0.9999998641057168
2025/04/09 11:16:13.465198051,1744190173,465011946,,-0.0004946106520822947,8.378335679398525e-05,-0.00023363922307076363,0.999999846876671
2025/04/09 11:16:13.567425526,1744190173,565680980,,-0.0005267641865063878,0.00011495838930355209,-0.00019496636183904256,0.9999998356460756
2025/04/09 11:16:13.666679348,1744190173,666484560,,-0.0005306666818510102,0.00014133542259007088,-0.00015222444962879845,0.9999998376224308
2025/04/09 11:16:13.758756017,1744190173,757703517,,-0.0005063055440312367,0.0001545773396112335,-0.00010402338801273742,0.9999998544698279
2025/04/09 11:16:13.860493712,1744190173,858451103,,-0.0004601425174601321,0.00015604243473039348,-5.095190399156693e-05,0.9999998806617557
2025/04/09 11:16:13.960989680,1744190173,960731703,,-0.00039512581356519836,0.0001546195326160628,-1.3621281954191508e-06,0.999999909983264
2025/04/09 11:16:14.61628999,1744190174,61469236,,-0.00033649234426669195,0.00012892342633304466,4.781734668761498e-05,0.9999999339325747
2025/04/09 11:16:14.163549754,1744190174,162487606,,-0.0003029742063896684,0.0001010300008582911,9.320944807512402e-05,0.9999999446557825
2025/04/09 11:16:14.264558361,1744190174,262969482,,-0.00030856851851189217,7.305263306929667e-05,0.00013355013996357783,0.9999999408065694
2025/04/09 11:16:14.366108118,1744190174,365555507,,-0.00035140361626490534,5.089335034527275e-05,0.0001701272415127264,0.9999999224910405
2025/04/09 11:16:14.472793656,1744190174,469615157,,-0.00041403348819426595,3.326533939252648e-05,0.00019559319495304677,0.9999998946064894
2025/04/09 11:16:14.568498346,1744190174,567140344,,-0.0006328143241830006,1.7942178074974683e-05,0.0003184755131407672,0.9999997488986969
2025/04/09 11:16:14.658241555,1744190174,658094443,,-0.0008298675963123574,1.0580404246693711e-05,0.00047138425005731295,0.9999995445022545
2025/04/09 11:16:14.760703325,1744190174,758267476,,-0.0009100230642359093,8.710990274323816e-07,0.0006236219209569967,0.9999993914762966
2025/04/09 11:16:14.859951303,1744190174,859814378,,-0.000859731715624936,8.636096065418163e-06,0.000776140962293805,0.9999993291957758
2025/04/09 11:16:14.961654529,1744190174,960505562,,-0.0006880010158565463,1.8859122654754843e-05,0.0009214177193063149,0.9999993386439424
2025/04/09 11:16:15.62265022,1744190175,61871332,,-0.00044905582286210074,3.49436370223892e-05,0.0010626117733668011,0.9999993339917929
2025/04/09 11:16:15.162657115,1744190175,162492790,,-0.00020063510903160366,6.331459434898651e-05,0.001206528942969138,0.9999992500120812
2025/04/09 11:16:15.265310644,1744190175,264190343,,7.248389452537396e-06,7.495891409588969e-05,0.0013483846372372309,0.9999990880933303
2025/04/09 11:16:15.364685519,1744190175,364545764,,0.00013546653504211204,9.975778262052457e-05,0.0014801652244402644,0.9999988904034399
2025/04/09 11:16:15.465405829,1744190175,465217242,,0.00015755393721926417,9.842755456163149e-05,0.0016008481540431697,0.9999987013861373
2025/04/09 11:16:15.567124892,1744190175,566980058,,8.044319192630967e-05,0.00010723497651636931,0.001701639525879654,0.9999985432251772
2025/04/09 11:16:15.660141142,1744190175,658744931,,-9.450254902761266e-05,9.540746119604627e-05,0.00179247180757951,0.9999983845044469
2025/04/09 11:16:15.760602115,1744190175,758968449,,-0.0003248175202363533,8.41176939702826e-05,0.0018736318339130369,0.9999981884591307
2025/04/09 11:16:15.860918539,1744190175,859806690,,-0.0005544425060306026,6.867958175810244e-05,0.0019438421471252515,0.9999979546750731
2025/04/09 11:16:15.962359521,1744190175,961133565,,-0.0007347962991059947,6.196716229441761e-05,0.002007870142835677,0.9999977123433629
2025/04/09 11:16:16.64357464,1744190176,64217434,,-0.0008293404607166975,4.1817408652786946e-05,0.0020694735107353226,0.999997513859456
2025/04/09 11:16:16.165067097,1744190176,164867323,,-0.0007868750490247025,4.960417560893263e-05,0.0020984327224785855,0.9999974874704397
2025/04/09 11:16:16.269514747,1744190176,268810809,,-0.0006539745402173413,5.044147505315552e-05,0.0021076968391434297,0.9999975636905285
2025/04/09 11:16:16.361204019,1744190176,359731121,,-0.00047294175618821355,6.202559391916118e-05,0.0021053006604481064,0.9999976700913108
2025/04/09 11:16:16.461685099,1744190176,460500195,,-0.00028552817150768117,8.598706811905242e-05,0.002096659148518028,0.9999977575476369
2025/04/09 11:16:16.561531037,1744190176,561318890,,-0.00015725530118882485,0.00010680732807703167,0.002098934899096339,0.9999977791651611
2025/04/09 11:16:16.662438107,1744190176,662298771,,-9.929313500301009e-05,0.0001317463331687907,0.0021090123781773657,0.9999977624227795
2025/04/09 11:16:16.767686080,1744190176,765171664,,-0.00011248522435817155,0.00014330869480006438,0.0021185365946527254,0.9999977393036393
2025/04/09 11:16:16.867392786,1744190176,866219767,,-0.000191620350591686,0.00015181742889242938,0.0021262638536486515,0.9999977096149442
2025/04/09 11:16:16.968956551,1744190176,967478926,,-0.00031724841059808777,0.00015371870522462886,0.0021324369376714935,0.9999976642156283
2025/04/09 11:16:17.59724134,1744190177,58019558,,-0.00045974853999930396,0.0001271147013516458,0.002137340871623751,0.9999976021206907
2025/04/09 11:16:17.159138838,1744190177,158917964,,-0.0005862425015095785,0.00011510287184193446,0.0021424565881389824,0.999997526472354
2025/04/09 11:16:17.260849901,1744190177,259796076,,-0.0006669741502746472,8.34765583068606e-05,0.0021533786806785834,0.9999974555654653
2025/04/09 11:16:17.361927678,1744190177,360324197,,-0.0006702179895926622,5.760674514677626e-05,0.0021598476330767,0.9999974412704821
2025/04/09 11:16:17.462506308,1744190177,462291913,,-0.000607144114533536,4.355585983244152e-05,0.0021641740363359556,0.9999974729116328
2025/04/09 11:16:17.564486544,1744190177,564334664,,-0.0004970485346652137,3.219059922658645e-05,0.0021679657710993007,0.9999975259124069
2025/04/09 11:16:17.664931604,1744190177,664779792,,-0.0003687032951889378,3.0197957328746023e-05,0.002172131769196035,0.999997572491824
2025/04/09 11:16:17.767501971,1744190177,766860033,,-0.00025342026911969693,4.5803480074229375e-05,0.002175513149894712,0.9999976004084925
2025/04/09 11:16:17.859110543,1744190177,857731656,,-0.00017586978716841137,6.731045385854552e-05,0.0021761473958973633,0.9999976144579706
2025/04/09 11:16:17.958756825,1744190177,958522306,,-0.00015667860304577325,8.043160080361739e-05,0.002177507430622769,0.9999976137191341
2025/04/09 11:16:18.60506406,1744190178,59255548,,-0.00020480715987166467,0.00010547598664982418,0.0021754534225423405,0.9999976071627621
2025/04/09 11:16:18.161690487,1744190178,161104623,,-0.0003041989483081389,0.00012001574747562398,0.0021581056281841553,0.9999976178168215
2025/04/09 11:16:18.269905454,1744190178,268705984,,-0.00043982174341259186,0.00012049697737270133,0.0021318558219085896,0.9999976236112099
2025/04/09 11:16:18.365220530,1744190178,364135070,,-0.0005759549802507243,0.0001207096987861532,0.002095052370231102,0.9999976322274945
2025/04/09 11:16:18.465515839,1744190178,465310894,,-0.000724553323382915,0.00010678416726959406,0.002084770639215248,0.9999975586725225
2025/04/09 11:16:18.568775678,1744190178,567348662,,-0.0008174891287114181,8.228003564903744e-05,0.0020915663772621794,0.9999974751426174
2025/04/09 11:16:18.659712504,1744190178,659409444,,-0.0008068646978007518,5.65973016993908e-05,0.002096119985620467,0.9999974760203701
2025/04/09 11:16:18.761373420,1744190178,759679098,,-0.0007009939379582107,4.137646913502497e-05,0.0021017645650145476,0.9999975447375858
2025/04/09 11:16:18.861072094,1744190178,860419417,,-0.0005290381538291829,3.578370647197435e-05,0.0021093388840052944,0.9999976347610181
2025/04/09 11:16:18.961359749,1744190178,961074415,,-0.00033041852817817965,4.148391967849028e-05,0.0021171628250145507,0.9999977033594892
2025/04/09 11:16:19.63785560,1744190179,63630658,,-0.00015481265960913881,4.556965842770378e-05,0.0021260325363291416,0.9999977269684672
2025/04/09 11:16:19.167071142,1744190179,165299213,,-3.6876863792448136e-05,6.201362076239338e-05,0.002131924288992697,0.9999977248440287
2025/04/09 11:16:19.266669936,1744190179,266403597,,1.1278113845804482e-06,6.416857157674107e-05,0.002143019000952336,0.9999977016727009
2025/04/09 11:16:19.358065020,1744190179,357817869,,-3.4618536561004076e-06,9.097254147447154e-05,0.0021085581410918513,0.9999977728448088
2025/04/09 11:16:19.460793464,1744190179,460566096,,-0.00011222442752480412,9.060954097368372e-05,0.0020623702725178815,0.9999978629099404
2025/04/09 11:16:19.560221733,1744190179,559998726,,-0.00028027872434005675,9.393597739950191e-05,0.00200580944894103,0.9999979446720495
2025/04/09 11:16:19.662411782,1744190179,662212241,,-0.00046139901552240035,8.0882027046966e-05,0.0019440330091549222,0.999998000650354
2025/04/09 11:16:19.765596742,1744190179,765393307,,-0.0006023256432078471,5.984848167369117e-05,0.0018703071847127571,0.9999980677846401
2025/04/09 11:16:19.868399698,1744190179,866772386,,-0.0006845934850856052,4.3192229616192294e-05,0.001788048264239675,0.9999981661731167
2025/04/09 11:16:19.960316175,1744190179,960037547,,-0.0006952264155968662,3.044325482706244e-05,0.0016997914773208848,0.9999983132197638
2025/04/09 11:16:20.61691374,1744190180,61519576,,-0.0006340149597063488,1.6996827196038142e-05,0.0016054381893290672,0.9999985101510697
2025/04/09 11:16:20.165061283,1744190180,163112760,,-0.0005165425879426776,9.910650061903353e-06,0.0015048499292037551,0.9999987342553112
2025/04/09 11:16:20.265361248,1744190180,264284263,,-0.00037650843757562423,1.1339594961525543e-05,0.0014027586311029943,0.9999989451899601
2025/04/09 11:16:20.359387674,1744190180,358137830,,-0.00025158223534380616,1.3441964215083084e-05,0.001302484140593185,0.9999991200299908
2025/04/09 11:16:20.459589431,1744190180,459396313,,-0.00019436894654090834,1.8294960905125954e-05,0.0012213231024041167,0.9999992351276508
2025/04/09 11:16:20.560974849,1744190180,560837955,,-0.00019342710193971123,3.079745327067412e-05,0.0011599013702746751,0.9999993081329028
2025/04/09 11:16:20.663344833,1744190180,663118593,,-0.0002325463127755966,3.943332425356735e-05,0.0011088598450399846,0.9999993573983282
2025/04/09 11:16:20.770816836,1744190180,767655041,,-0.00030189073220421027,6.313643035605522e-05,0.0010670823448385178,0.9999993831053329
2025/04/09 11:16:20.866897047,1744190180,866636835,,-0.0003760619084905241,6.793295301593509e-05,0.001026045479304837,0.999999400596435
2025/04/09 11:16:20.968934014,1744190180,967753387,,-0.000448467869513857,8.993087629960033e-05,0.0009888660452124203,0.9999994064662999
2025/04/09 11:16:21.60802657,1744190181,58548749,,-0.000506366548633395,9.174000588204387e-05,0.0009571136532236337,0.999999409554898
2025/04/09 11:16:21.161411114,1744190181,160267604,,-0.0005374692697934458,0.00010265652989885822,0.0009304235527000122,0.9999994174500471
2025/04/09 11:16:21.261380916,1744190181,261227422,,-0.0005363724699423261,9.271929368969641e-05,0.0009099488106694586,0.999999437850276
2025/04/09 11:16:21.363960262,1744190181,363571711,,-0.000503147840824811,8.964708110131252e-05,0.0008951726240387541,0.999999468735671
2025/04/09 11:16:21.464725062,1744190181,464244086,,-0.0004443422982456878,6.625032821466516e-05,0.00088502465205347,0.9999995074509693
2025/04/09 11:16:21.565589331,1744190181,565313853,,-0.0003777397476071985,5.936258130577653e-05,0.0008758879707824359,0.9999995433044105
2025/04/09 11:16:21.666976016,1744190181,665910726,,-0.0003222930722616206,3.904090412037126e-05,0.0008687338148960782,0.9999995699521786
2025/04/09 11:16:21.767881600,1744190181,766677672,,-0.00029165971668307253,3.7082204283286964e-05,0.0008633402059652466,0.9999995841015178
2025/04/09 11:16:21.864692526,1744190181,862323760,,-0.0002894372134919584,2.1942487793331926e-05,0.0008575788039701687,0.9999995901515268
2025/04/09 11:16:21.963171064,1744190181,962088754,,-0.000312345963262444,2.6794591241741355e-05,0.0008482993716095342,0.999999591055029
2025/04/09 11:16:22.63930060,1744190182,63395372,,-0.0003621425560883395,2.068372219399384e-05,0.000837439983749612,0.9999995835595265
2025/04/09 11:16:22.165891288,1744190182,165699139,,-0.0004280353700728019,3.470919853337061e-05,0.0008257305304326808,0.9999995668749485
2025/04/09 11:16:22.260105757,1744190182,258620357,,-0.0005205216160476976,3.426514728260822e-05,0.0008344665435578189,0.9999995157742501
2025/04/09 11:16:22.360419131,1744190182,359616760,,-0.0005907023730859906,4.8812270058853135e-05,0.0008536884989656145,0.9999994599518619
2025/04/09 11:16:22.463195075,1744190182,462523987,,-0.0006048744869738465,4.5495886884997595e-05,0.0008724531948926554,0.9999994354410416
2025/04/09 11:16:22.561383578,1744190182,561133645,,-0.0005583196825364002,5.6882314116771394e-05,0.0008958022387517843,0.9999994412907857
2025/04/09 11:16:22.662844943,1744190182,662694624,,-0.00046528228876549423,5.129691213066718e-05,0.0009248304980579995,0.9999994627846399
2025/04/09 11:16:22.763915148,1744190182,763686681,,-0.00035005635758797454,5.955255355434837e-05,0.0009590347058932647,0.9999994770830997
2025/04/09 11:16:22.868192640,1744190182,866082196,,-0.00024404059399434197,4.624586282625631e-05,0.001000637012303396,0.9999994685153979
2025/04/09 11:16:22.968693417,1744190182,966454561,,-0.0001730394891821806,4.139795984782589e-05,0.0010498410311439684,0.999999433088516
2025/04/09 11:16:23.68603820,1744190183,67503233,,-0.00014456551138483659,1.560591724715068e-05,0.0011008862075922014,0.999999383453223
2025/04/09 11:16:23.157624544,1744190183,157461772,,-0.00011959890549664501,3.7182266391396753e-06,0.0011203357349663544,0.9999993652648573
2025/04/09 11:16:23.260156197,1744190183,258561885,,-0.00015354763063582928,-1.767168890330739e-05,0.0011393038164804778,0.9999993390486067
2025/04/09 11:16:23.359904185,1744190183,359684011,,-0.00024372206799027434,-1.3152175258812688e-05,0.001156586546481988,0.9999993013668231
2025/04/09 11:16:23.461282776,1744190183,460924597,,-0.00037059254665940713,-1.612157081701611e-05,0.0011727929997726492,0.9999992434786333
2025/04/09 11:16:23.565420815,1744190183,563972879,,-0.0005039155544779582,3.449108572057084e-06,0.0011885323725801015,0.9999991667236613
2025/04/09 11:16:23.666236402,1744190183,664431144,,-0.0006107728778015719,1.1249460067691829e-05,0.0012087490564018347,0.9999990828774095
2025/04/09 11:16:23.770750213,1744190183,769717197,,-0.0006648944973293205,4.042099819539558e-05,0.001232235722727008,0.9999990189378057
2025/04/09 11:16:23.859103305,1744190183,858196077,,-0.0006818130025547083,5.27639351970516e-05,0.0012793197380217686,0.9999989478434488
2025/04/09 11:16:23.959410655,1744190183,958215733,,-0.0006372896745005126,7.596148476470559e-05,0.0013305899621774942,0.9999989088104427
2025/04/09 11:16:24.60227931,1744190184,58847109,,-0.0005358069645427075,7.44156795189054e-05,0.0013806591091068646,0.9999989005762095
2025/04/09 11:16:24.159682567,1744190184,159553902,,-0.0004020529176718497,7.591174786241128e-05,0.0014297536571808228,0.9999988941970575
2025/04/09 11:16:24.265993442,1744190184,264793395,,-0.000269641077673271,4.693365772872007e-05,0.0014763970200840023,0.9999988726707446
2025/04/09 11:16:24.366827638,1744190184,366575705,,-0.0001579089927345057,2.1297700320499243e-05,0.0015128145744506742,0.9999988430009413
2025/04/09 11:16:24.465740094,1744190184,465551420,,-9.21751063977893e-05,-1.1451395487836823e-05,0.0015396818091962443,0.9999988103755633
2025/04/09 11:16:24.558612847,1744190184,558434770,,-9.177681823520417e-05,-3.633085534779168e-05,0.0015607977993533665,0.9999987770829093
2025/04/09 11:16:24.661694863,1744190184,659570729,,-0.00015757478215918682,-6.0923967139421445e-05,0.0015826759382049315,0.9999987332968642
2025/04/09 11:16:24.760877786,1744190184,760726046,,-0.0002699288416454321,-7.466305520309833e-05,0.0016040923701223014,0.9999986742248795
2025/04/09 11:16:24.866907417,1744190184,866591828,,-0.0004009916481544683,-4.135671259601291e-05,0.0016242304064646531,0.9999985996844731
2025/04/09 11:16:24.966025613,1744190184,964750664,,-0.0005195830323353425,-1.9772705210436386e-05,0.0016430788086901084,0.9999985149661679
2025/04/09 11:16:25.58331215,1744190185,57990035,,-0.0006013355674063892,1.8831708431788424e-05,0.0016530459406851252,0.999998452738813
2025/04/09 11:16:25.163160496,1744190185,162058540,,-0.0006385182429615295,6.563097616274274e-05,0.001648281868387264,0.9999984355757316
2025/04/09 11:16:25.265897377,1744190185,264588809,,-0.0006542940210585533,9.601732457788428e-05,0.001658616527338767,0.9999984058343406
2025/04/09 11:16:25.365401018,1744190185,365089068,,-0.0006146711977325299,0.00010977118618113681,0.001669056120408158,0.9999984121893756
2025/04/09 11:16:25.467016672,1744190185,466814896,,-0.000523317778970493,0.0001235820302813887,0.0016748629435312712,0.9999984528488554
2025/04/09 11:16:25.568307465,1744190185,568112324,,-0.000402417006552859,0.00010891232225688741,0.001676000628505749,0.999998508609164
2025/04/09 11:16:25.658371286,1744190185,658141046,,-0.0002815048343618358,7.223256604422958e-05,0.0016732751822898615,0.9999985578427846
2025/04/09 11:16:25.759178927,1744190185,759017868,,-0.00019038701363015552,3.626436638693954e-05,0.0016673394798214563,0.9999985912073776
2025/04/09 11:16:25.860949022,1744190185,860333046,,-0.0001476514000869645,-1.4163618628119847e-05,0.0016628109062291185,0.9999986065282022
2025/04/09 11:16:25.964855517,1744190185,964559975,,-0.0001608849634399394,-5.173031097210705e-05,0.0016618724534347132,0.9999986048090027
2025/04/09 11:16:26.68658220,1744190186,67406060,,-0.00022753919182867723,-7.168729552605544e-05,0.0016662952692719306,0.9999985832724582
2025/04/09 11:16:26.163780656,1744190186,163491964,,-0.0003284916088255926,-8.321345772661e-05,0.0016737540216853603,0.999998541857066
2025/04/09 11:16:26.266930671,1744190186,265690035,,-0.00044585740427248595,-7.807333598252119e-05,0.0016822713395304397,0.9999984825382834
2025/04/09 11:16:26.368452076,1744190186,367100839,,-0.0005546772774021952,-4.457203434514075e-05,0.0017007716445034183,0.9999983988598506
2025/04/09 11:16:26.457970998,1744190186,457805870,,-0.00062666249928416,-5.313384405906205e-06,0.0017255484305954037,0.999998314872827
2025/04/09 11:16:26.559752136,1744190186,558426813,,-0.0006452204003212752,2.649677760414249e-05,0.0017552750274037602,0.9999982509975375
2025/04/09 11:16:26.664511077,1744190186,663704754,,-0.0006078863782672937,7.054855720181345e-05,0.0017823879571196135,0.9999982242935347
2025/04/09 11:16:26.761771865,1744190186,760732991,,-0.0005347365525876778,9.721637337907129e-05,0.0018102225640760927,0.9999982138484371
2025/04/09 11:16:26.865589001,1744190186,865395737,,-0.00042530171154828085,9.604416786225146e-05,0.001836378691585971,0.9999982188020502
2025/04/09 11:16:26.966967962,1744190186,966549055,,-0.0003041880798806417,9.240943779703562e-05,0.0018658736273940003,0.9999982087212529
2025/04/09 11:16:27.70153099,1744190187,69675090,,-0.00019834332749989374,6.728223798601987e-05,0.0018977117781976934,0.999998177409855
2025/04/09 11:16:27.160149905,1744190187,158477854,,-0.0001255880884876211,2.1162959635357227e-05,0.0019257188012969484,0.9999981376916957
2025/04/09 11:16:27.262050842,1744190187,261569405,,-0.00011202644440774224,-1.2664630316331328e-05,0.0019530787688578665,0.9999980863846718
2025/04/09 11:16:27.361776567,1744190187,360691938,,-0.00015954919073244277,-4.741975113183319e-05,0.0019801383158383977,0.9999980256718876
2025/04/09 11:16:27.462790098,1744190187,461307423,,-0.00025631066287992217,-8.207973299218343e-05,0.0020072813626844425,0.9999979491925434
2025/04/09 11:16:27.563246076,1744190187,562220331,,-0.0003809061437594289,-8.577699420298699e-05,0.002035520102648166,0.9999978521030576
2025/04/09 11:16:27.666416909,1744190187,665276660,,-0.0005060256463013287,-7.77268983712866e-05,0.002071240973504717,0.9999977239261119
2025/04/09 11:16:27.760768324,1744190187,759127971,,-0.0006013037155603874,-6.589885339284337e-05,0.002113496255559935,0.9999975836094608
2025/04/09 11:16:27.865652149,1744190187,865481602,,-0.0006503770725413039,-2.4985334977007045e-05,0.002156821391593315,0.9999974622502206
