time,header_stamp_secs,header_stamp_nsecs,header_frame_id,status_status,status_service,latitude,longitude,altitude,position_covariance_0,position_covariance_1,position_covariance_2,position_covariance_3,position_covariance_4,position_covariance_5,position_covariance_6,position_covariance_7,position_covariance_8,position_covariance_type
2025/04/01 17:52:24.63718992,1743522744,53178116,mA1/gps,0,1,63.43441713352692,10.39249014206045,0.0,1.4400000000000002e-10,0.0,0.0,0.0,1.4400000000000002e-10,0.0,0.0,0.0,1.0,2
2025/04/01 17:52:24.117707706,1743522744,112338618,mA1/gps,0,1,63.43441713268991,10.392490087996903,0.0,1.4400000000000002e-10,0.0,0.0,0.0,1.4400000000000002e-10,0.0,0.0,0.0,1.0,2
2025/04/01 17:52:24.169883726,1743522744,159888948,mA1/gps,0,1,63.43441713078179,10.392490017759263,0.0,1.4400000000000002e-10,0.0,0.0,0.0,1.4400000000000002e-10,0.0,0.0,0.0,1.0,2
2025/04/01 17:52:24.212681438,1743522744,207006128,mA1/gps,0,1,63.4344171290389,10.392489935930534,0.0,1.4400000000000002e-10,0.0,0.0,0.0,1.4400000000000002e-10,0.0,0.0,0.0,1.0,2
2025/04/01 17:52:24.221496734,1743522744,207006128,mA1/gps,0,1,63.4344171290389,10.392489935930534,0.0,1.4400000000000002e-10,0.0,0.0,0.0,1.4400000000000002e-10,0.0,0.0,0.0,1.0,2
2025/04/01 17:52:24.278550782,1743522744,256679825,mA1/gps,0,1,63.43441712789664,10.392489847734389,0.0,1.4400000000000002e-10,0.0,0.0,0.0,1.4400000000000002e-10,0.0,0.0,0.0,1.0,2
2025/04/01 17:52:24.279088110,1743522744,256679825,mA1/gps,0,1,63.43441712789664,10.392489847734389,0.0,1.4400000000000002e-10,0.0,0.0,0.0,1.4400000000000002e-10,0.0,0.0,0.0,1.0,2
2025/04/01 17:52:24.308911966,1743522744,302744786,mA1/gps,0,1,63.43441712657731,10.392489756732132,0.0,1.4400000000000002e-10,0.0,0.0,0.0,1.4400000000000002e-10,0.0,0.0,0.0,1.0,2
2025/04/01 17:52:24.308959973,1743522744,302744786,mA1/gps,0,1,63.43441712657731,10.392489756732132,0.0,1.4400000000000002e-10,0.0,0.0,0.0,1.4400000000000002e-10,0.0,0.0,0.0,1.0,2
2025/04/01 17:52:24.359124127,1743522744,355833266,mA1/gps,0,1,63.434417124057816,10.392489669674733,0.0,1.4400000000000002e-10,0.0,0.0,0.0,1.4400000000000002e-10,0.0,0.0,0.0,1.0,2
2025/04/01 17:52:24.363729863,1743522744,355833266,mA1/gps,0,1,63.434417124057816,10.392489669674733,0.0,1.4400000000000002e-10,0.0,0.0,0.0,1.4400000000000002e-10,0.0,0.0,0.0,1.0,2
2025/04/01 17:52:24.429750283,1743522744,408090647,mA1/gps,0,1,63.43441712189216,10.39248958974336,0.0,1.4400000000000002e-10,0.0,0.0,0.0,1.4400000000000002e-10,0.0,0.0,0.0,1.0,2
2025/04/01 17:52:24.430026441,1743522744,408090647,mA1/gps,0,1,63.43441712189216,10.39248958974336,0.0,1.4400000000000002e-10,0.0,0.0,0.0,1.4400000000000002e-10,0.0,0.0,0.0,1.0,2
2025/04/01 17:52:24.461202979,1743522744,456425103,mA1/gps,0,1,63.43441712079165,10.392489521809233,0.0,1.4400000000000002e-10,0.0,0.0,0.0,1.4400000000000002e-10,0.0,0.0,0.0,1.0,2
2025/04/01 17:52:24.463775470,1743522744,456425103,mA1/gps,0,1,63.43441712079165,10.392489521809233,0.0,1.4400000000000002e-10,0.0,0.0,0.0,1.4400000000000002e-10,0.0,0.0,0.0,1.0,2
2025/04/01 17:52:24.536134561,1743522744,512553826,mA1/gps,0,1,63.434417119284994,10.392489469485167,0.0,1.4400000000000002e-10,0.0,0.0,0.0,1.4400000000000002e-10,0.0,0.0,0.0,1.0,2
2025/04/01 17:52:24.536202388,1743522744,512553826,mA1/gps,0,1,63.434417119284994,10.392489469485167,0.0,1.4400000000000002e-10,0.0,0.0,0.0,1.4400000000000002e-10,0.0,0.0,0.0,1.0,2
2025/04/01 17:52:24.565498888,1743522744,556442828,mA1/gps,0,1,63.43441711653387,10.392489434959657,0.0,1.4400000000000002e-10,0.0,0.0,0.0,1.4400000000000002e-10,0.0,0.0,0.0,1.0,2
2025/04/01 17:52:24.568568784,1743522744,556442828,mA1/gps,0,1,63.43441711653387,10.392489434959657,0.0,1.4400000000000002e-10,0.0,0.0,0.0,1.4400000000000002e-10,0.0,0.0,0.0,1.0,2
2025/04/01 17:52:24.611316599,1743522744,604202849,mA1/gps,0,1,63.43441711433877,10.39248941917243,0.0,1.4400000000000002e-10,0.0,0.0,0.0,1.4400000000000002e-10,0.0,0.0,0.0,1.0,2
2025/04/01 17:52:24.613398792,1743522744,604202849,mA1/gps,0,1,63.43441711433877,10.39248941917243,0.0,1.4400000000000002e-10,0.0,0.0,0.0,1.4400000000000002e-10,0.0,0.0,0.0,1.0,2
2025/04/01 17:52:24.667960270,1743522744,658832775,mA1/gps,0,1,63.43441711299466,10.392489422527783,0.0,1.4400000000000002e-10,0.0,0.0,0.0,1.4400000000000002e-10,0.0,0.0,0.0,1.0,2
2025/04/01 17:52:24.670326642,1743522744,658832775,mA1/gps,0,1,63.43441711299466,10.392489422527783,0.0,1.4400000000000002e-10,0.0,0.0,0.0,1.4400000000000002e-10,0.0,0.0,0.0,1.0,2
2025/04/01 17:52:24.744935277,1743522744,712305537,mA1/gps,0,1,63.434417111881984,10.392489442785314,0.0,1.4400000000000002e-10,0.0,0.0,0.0,1.4400000000000002e-10,0.0,0.0,0.0,1.0,2
2025/04/01 17:52:24.744984051,1743522744,712305537,mA1/gps,0,1,63.434417111881984,10.392489442785314,0.0,1.4400000000000002e-10,0.0,0.0,0.0,1.4400000000000002e-10,0.0,0.0,0.0,1.0,2
2025/04/01 17:52:24.807529190,1743522744,753857957,mA1/gps,0,1,63.43441710974924,10.392489479869614,0.0,1.4400000000000002e-10,0.0,0.0,0.0,1.4400000000000002e-10,0.0,0.0,0.0,1.0,2
2025/04/01 17:52:24.807665072,1743522744,753857957,mA1/gps,0,1,63.43441710974924,10.392489479869614,0.0,1.4400000000000002e-10,0.0,0.0,0.0,1.4400000000000002e-10,0.0,0.0,0.0,1.0,2
2025/04/01 17:52:24.835106312,1743522744,809528133,mA1/gps,0,1,63.43441710796517,10.392489531387438,0.0,1.4400000000000002e-10,0.0,0.0,0.0,1.4400000000000002e-10,0.0,0.0,0.0,1.0,2
2025/04/01 17:52:24.837910146,1743522744,809528133,mA1/gps,0,1,63.43441710796517,10.392489531387438,0.0,1.4400000000000002e-10,0.0,0.0,0.0,1.4400000000000002e-10,0.0,0.0,0.0,1.0,2
2025/04/01 17:52:24.871540045,1743522744,855157285,mA1/gps,0,1,63.43441710700984,10.392489592342866,0.0,1.4400000000000002e-10,0.0,0.0,0.0,1.4400000000000002e-10,0.0,0.0,0.0,1.0,2
2025/04/01 17:52:24.871588396,1743522744,855157285,mA1/gps,0,1,63.43441710700984,10.392489592342866,0.0,1.4400000000000002e-10,0.0,0.0,0.0,1.4400000000000002e-10,0.0,0.0,0.0,1.0,2
2025/04/01 17:52:24.914727224,1743522744,909713168,mA1/gps,0,1,63.43441710635261,10.3924896601959,0.0,1.4400000000000002e-10,0.0,0.0,0.0,1.4400000000000002e-10,0.0,0.0,0.0,1.0,2
2025/04/01 17:52:24.917996998,1743522744,909713168,mA1/gps,0,1,63.43441710635261,10.3924896601959,0.0,1.4400000000000002e-10,0.0,0.0,0.0,1.4400000000000002e-10,0.0,0.0,0.0,1.0,2
2025/04/01 17:52:24.957260067,1743522744,954825748,mA1/gps,0,1,63.434417104255374,10.39248972788031,0.0,1.4400000000000002e-10,0.0,0.0,0.0,1.4400000000000002e-10,0.0,0.0,0.0,1.0,2
2025/04/01 17:52:24.959327386,1743522744,954825748,mA1/gps,0,1,63.434417104255374,10.39248972788031,0.0,1.4400000000000002e-10,0.0,0.0,0.0,1.4400000000000002e-10,0.0,0.0,0.0,1.0,2
2025/04/01 17:52:25.15343014,1743522745,7921862,mA1/gps,0,1,63.43441710241157,10.392489793036228,0.0,1.4400000000000002e-10,0.0,0.0,0.0,1.4400000000000002e-10,0.0,0.0,0.0,1.0,2
2025/04/01 17:52:25.15404839,1743522745,7921862,mA1/gps,0,1,63.43441710241157,10.392489793036228,0.0,1.4400000000000002e-10,0.0,0.0,0.0,1.4400000000000002e-10,0.0,0.0,0.0,1.0,2
2025/04/01 17:52:25.60808470,1743522745,57956191,mA1/gps,0,1,63.434417101984586,10.392489849412655,0.0,1.4400000000000002e-10,0.0,0.0,0.0,1.4400000000000002e-10,0.0,0.0,0.0,1.0,2
2025/04/01 17:52:25.62281805,1743522745,57956191,mA1/gps,0,1,63.434417101984586,10.392489849412655,0.0,1.4400000000000002e-10,0.0,0.0,0.0,1.4400000000000002e-10,0.0,0.0,0.0,1.0,2
2025/04/01 17:52:25.109214251,1743522745,103844242,mA1/gps,0,1,63.43441710124874,10.392489895007682,0.0,1.4400000000000002e-10,0.0,0.0,0.0,1.4400000000000002e-10,0.0,0.0,0.0,1.0,2
2025/04/01 17:52:25.109452305,1743522745,103844242,mA1/gps,0,1,63.43441710124874,10.392489895007682,0.0,1.4400000000000002e-10,0.0,0.0,0.0,1.4400000000000002e-10,0.0,0.0,0.0,1.0,2
2025/04/01 17:52:25.159019700,1743522745,157692681,mA1/gps,0,1,63.4344170994547,10.392489925344307,0.0,1.4400000000000002e-10,0.0,0.0,0.0,1.4400000000000002e-10,0.0,0.0,0.0,1.0,2
2025/04/01 17:52:25.159197438,1743522745,157692681,mA1/gps,0,1,63.4344170994547,10.392489925344307,0.0,1.4400000000000002e-10,0.0,0.0,0.0,1.4400000000000002e-10,0.0,0.0,0.0,1.0,2
2025/04/01 17:52:25.217272654,1743522745,212062599,mA1/gps,0,1,63.43441709797586,10.392489938039972,0.0,1.4400000000000002e-10,0.0,0.0,0.0,1.4400000000000002e-10,0.0,0.0,0.0,1.0,2
2025/04/01 17:52:25.223987161,1743522745,212062599,mA1/gps,0,1,63.43441709797586,10.392489938039972,0.0,1.4400000000000002e-10,0.0,0.0,0.0,1.4400000000000002e-10,0.0,0.0,0.0,1.0,2
2025/04/01 17:52:25.262985228,1743522745,261087113,mA1/gps,0,1,63.43441709726318,10.392489931315346,0.0,1.4400000000000002e-10,0.0,0.0,0.0,1.4400000000000002e-10,0.0,0.0,0.0,1.0,2
2025/04/01 17:52:25.266171450,1743522745,261087113,mA1/gps,0,1,63.43441709726318,10.392489931315346,0.0,1.4400000000000002e-10,0.0,0.0,0.0,1.4400000000000002e-10,0.0,0.0,0.0,1.0,2
2025/04/01 17:52:25.312108957,1743522745,306498347,mA1/gps,0,1,63.434417096468614,10.392489904437117,0.0,1.4400000000000002e-10,0.0,0.0,0.0,1.4400000000000002e-10,0.0,0.0,0.0,1.0,2
2025/04/01 17:52:25.312798100,1743522745,306498347,mA1/gps,0,1,63.434417096468614,10.392489904437117,0.0,1.4400000000000002e-10,0.0,0.0,0.0,1.4400000000000002e-10,0.0,0.0,0.0,1.0,2
2025/04/01 17:52:25.365229499,1743522745,361681168,mA1/gps,0,1,63.43441709473299,10.39248985895525,0.0,1.4400000000000002e-10,0.0,0.0,0.0,1.4400000000000002e-10,0.0,0.0,0.0,1.0,2
2025/04/01 17:52:25.365261360,1743522745,361681168,mA1/gps,0,1,63.43441709473299,10.39248985895525,0.0,1.4400000000000002e-10,0.0,0.0,0.0,1.4400000000000002e-10,0.0,0.0,0.0,1.0,2
2025/04/01 17:52:25.418522655,1743522745,412655101,mA1/gps,0,1,63.43441709301118,10.392489792819045,0.0,1.4400000000000002e-10,0.0,0.0,0.0,1.4400000000000002e-10,0.0,0.0,0.0,1.0,2
2025/04/01 17:52:25.420905666,1743522745,412655101,mA1/gps,0,1,63.43441709301118,10.392489792819045,0.0,1.4400000000000002e-10,0.0,0.0,0.0,1.4400000000000002e-10,0.0,0.0,0.0,1.0,2
2025/04/01 17:52:25.456237576,1743522745,453877914,mA1/gps,0,1,63.434417092091465,10.392489711555651,0.0,1.4400000000000002e-10,0.0,0.0,0.0,1.4400000000000002e-10,0.0,0.0,0.0,1.0,2
2025/04/01 17:52:25.456530512,1743522745,453877914,mA1/gps,0,1,63.434417092091465,10.392489711555651,0.0,1.4400000000000002e-10,0.0,0.0,0.0,1.4400000000000002e-10,0.0,0.0,0.0,1.0,2
2025/04/01 17:52:25.510974726,1743522745,506550639,mA1/gps,0,1,63.43441709108373,10.392489617184482,0.0,1.4400000000000002e-10,0.0,0.0,0.0,1.4400000000000002e-10,0.0,0.0,0.0,1.0,2
2025/04/01 17:52:25.511197077,1743522745,506550639,mA1/gps,0,1,63.43441709108373,10.392489617184482,0.0,1.4400000000000002e-10,0.0,0.0,0.0,1.4400000000000002e-10,0.0,0.0,0.0,1.0,2
2025/04/01 17:52:25.563590929,1743522745,558695667,mA1/gps,0,1,63.43441708905596,10.392489514121547,0.0,1.4400000000000002e-10,0.0,0.0,0.0,1.4400000000000002e-10,0.0,0.0,0.0,1.0,2
2025/04/01 17:52:25.563663534,1743522745,558695667,mA1/gps,0,1,63.43441708905596,10.392489514121547,0.0,1.4400000000000002e-10,0.0,0.0,0.0,1.4400000000000002e-10,0.0,0.0,0.0,1.0,2
2025/04/01 17:52:25.613019685,1743522745,610718232,mA1/gps,0,1,63.43441708730489,10.392489408035102,0.0,1.4400000000000002e-10,0.0,0.0,0.0,1.4400000000000002e-10,0.0,0.0,0.0,1.0,2
2025/04/01 17:52:25.614184838,1743522745,610718232,mA1/gps,0,1,63.43441708730489,10.392489408035102,0.0,1.4400000000000002e-10,0.0,0.0,0.0,1.4400000000000002e-10,0.0,0.0,0.0,1.0,2
2025/04/01 17:52:25.658652966,1743522745,654312743,mA1/gps,0,1,63.43441708634914,10.392489302783668,0.0,1.4400000000000002e-10,0.0,0.0,0.0,1.4400000000000002e-10,0.0,0.0,0.0,1.0,2
2025/04/01 17:52:25.658709379,1743522745,654312743,mA1/gps,0,1,63.43441708634914,10.392489302783668,0.0,1.4400000000000002e-10,0.0,0.0,0.0,1.4400000000000002e-10,0.0,0.0,0.0,1.0,2
2025/04/01 17:52:25.709093558,1743522745,704301632,mA1/gps,0,1,63.43441708534159,10.392489202631037,0.0,1.4400000000000002e-10,0.0,0.0,0.0,1.4400000000000002e-10,0.0,0.0,0.0,1.0,2
2025/04/01 17:52:25.709137147,1743522745,704301632,mA1/gps,0,1,63.43441708534159,10.392489202631037,0.0,1.4400000000000002e-10,0.0,0.0,0.0,1.4400000000000002e-10,0.0,0.0,0.0,1.0,2
2025/04/01 17:52:25.756769024,1743522745,755807816,mA1/gps,0,1,63.434417083427114,10.392489112378133,0.0,1.4400000000000002e-10,0.0,0.0,0.0,1.4400000000000002e-10,0.0,0.0,0.0,1.0,2
2025/04/01 17:52:25.756808675,1743522745,755807816,mA1/gps,0,1,63.434417083427114,10.392489112378133,0.0,1.4400000000000002e-10,0.0,0.0,0.0,1.4400000000000002e-10,0.0,0.0,0.0,1.0,2
2025/04/01 17:52:25.809702917,1743522745,808409614,mA1/gps,0,1,63.434417081637825,10.39248903555624,0.0,1.4400000000000002e-10,0.0,0.0,0.0,1.4400000000000002e-10,0.0,0.0,0.0,1.0,2
2025/04/01 17:52:25.811148782,1743522745,808409614,mA1/gps,0,1,63.434417081637825,10.39248903555624,0.0,1.4400000000000002e-10,0.0,0.0,0.0,1.4400000000000002e-10,0.0,0.0,0.0,1.0,2
2025/04/01 17:52:25.869765634,1743522745,863470042,mA1/gps,0,1,63.434417080711576,10.392488973454268,0.0,1.4400000000000002e-10,0.0,0.0,0.0,1.4400000000000002e-10,0.0,0.0,0.0,1.0,2
2025/04/01 17:52:25.869832991,1743522745,863470042,mA1/gps,0,1,63.434417080711576,10.392488973454268,0.0,1.4400000000000002e-10,0.0,0.0,0.0,1.4400000000000002e-10,0.0,0.0,0.0,1.0,2
2025/04/01 17:52:25.911090796,1743522745,906678860,mA1/gps,0,1,63.43441708017187,10.392488928431831,0.0,1.4400000000000002e-10,0.0,0.0,0.0,1.4400000000000002e-10,0.0,0.0,0.0,1.0,2
2025/04/01 17:52:25.911778541,1743522745,906678860,mA1/gps,0,1,63.43441708017187,10.392488928431831,0.0,1.4400000000000002e-10,0.0,0.0,0.0,1.4400000000000002e-10,0.0,0.0,0.0,1.0,2
2025/04/01 17:52:25.956031844,1743522745,954236567,mA1/gps,0,1,63.434417078444284,10.392488900795854,0.0,1.4400000000000002e-10,0.0,0.0,0.0,1.4400000000000002e-10,0.0,0.0,0.0,1.0,2
2025/04/01 17:52:25.956080233,1743522745,954236567,mA1/gps,0,1,63.434417078444284,10.392488900795854,0.0,1.4400000000000002e-10,0.0,0.0,0.0,1.4400000000000002e-10,0.0,0.0,0.0,1.0,2
2025/04/01 17:52:26.10468191,1743522746,5421773,mA1/gps,0,1,63.434417077069405,10.392488888970021,0.0,1.4400000000000002e-10,0.0,0.0,0.0,1.4400000000000002e-10,0.0,0.0,0.0,1.0,2
2025/04/01 17:52:26.10507641,1743522746,5421773,mA1/gps,0,1,63.434417077069405,10.392488888970021,0.0,1.4400000000000002e-10,0.0,0.0,0.0,1.4400000000000002e-10,0.0,0.0,0.0,1.0,2
2025/04/01 17:52:26.60831078,1743522746,55479782,mA1/gps,0,1,63.43441707674483,10.392488892536996,0.0,1.4400000000000002e-10,0.0,0.0,0.0,1.4400000000000002e-10,0.0,0.0,0.0,1.0,2
2025/04/01 17:52:26.62368360,1743522746,55479782,mA1/gps,0,1,63.43441707674483,10.392488892536996,0.0,1.4400000000000002e-10,0.0,0.0,0.0,1.4400000000000002e-10,0.0,0.0,0.0,1.0,2
2025/04/01 17:52:26.108263585,1743522746,107020703,mA1/gps,0,1,63.43441707600932,10.39248890690182,0.0,1.4400000000000002e-10,0.0,0.0,0.0,1.4400000000000002e-10,0.0,0.0,0.0,1.0,2
2025/04/01 17:52:26.110859360,1743522746,107020703,mA1/gps,0,1,63.43441707600932,10.39248890690182,0.0,1.4400000000000002e-10,0.0,0.0,0.0,1.4400000000000002e-10,0.0,0.0,0.0,1.0,2
2025/04/01 17:52:26.157739987,1743522746,156840778,mA1/gps,0,1,63.43441707557552,10.39248893052832,0.0,1.4400000000000002e-10,0.0,0.0,0.0,1.4400000000000002e-10,0.0,0.0,0.0,1.0,2
2025/04/01 17:52:26.158556691,1743522746,156840778,mA1/gps,0,1,63.43441707557552,10.39248893052832,0.0,1.4400000000000002e-10,0.0,0.0,0.0,1.4400000000000002e-10,0.0,0.0,0.0,1.0,2
2025/04/01 17:52:26.212150499,1743522746,208888677,mA1/gps,0,1,63.43441707488856,10.392488960421446,0.0,1.4400000000000002e-10,0.0,0.0,0.0,1.4400000000000002e-10,0.0,0.0,0.0,1.0,2
2025/04/01 17:52:26.213270525,1743522746,208888677,mA1/gps,0,1,63.43441707488856,10.392488960421446,0.0,1.4400000000000002e-10,0.0,0.0,0.0,1.4400000000000002e-10,0.0,0.0,0.0,1.0,2
2025/04/01 17:52:26.262129654,1743522746,260903390,mA1/gps,0,1,63.43441707609106,10.392488994372618,0.0,1.4400000000000002e-10,0.0,0.0,0.0,1.4400000000000002e-10,0.0,0.0,0.0,1.0,2
2025/04/01 17:52:26.263050557,1743522746,260903390,mA1/gps,0,1,63.43441707609106,10.392488994372618,0.0,1.4400000000000002e-10,0.0,0.0,0.0,1.4400000000000002e-10,0.0,0.0,0.0,1.0,2
2025/04/01 17:52:26.305709801,1743522746,303906015,mA1/gps,0,1,63.43441707522524,10.392489029013067,0.0,1.4400000000000002e-10,0.0,0.0,0.0,1.4400000000000002e-10,0.0,0.0,0.0,1.0,2
2025/04/01 17:52:26.306012536,1743522746,303906015,mA1/gps,0,1,63.43441707522524,10.392489029013067,0.0,1.4400000000000002e-10,0.0,0.0,0.0,1.4400000000000002e-10,0.0,0.0,0.0,1.0,2
2025/04/01 17:52:26.356102685,1743522746,353166822,mA1/gps,0,1,63.43441707569698,10.3924890619085,0.0,1.4400000000000002e-10,0.0,0.0,0.0,1.4400000000000002e-10,0.0,0.0,0.0,1.0,2
2025/04/01 17:52:26.356280982,1743522746,353166822,mA1/gps,0,1,63.43441707569698,10.3924890619085,0.0,1.4400000000000002e-10,0.0,0.0,0.0,1.4400000000000002e-10,0.0,0.0,0.0,1.0,2
2025/04/01 17:52:26.408994713,1743522746,407897819,mA1/gps,0,1,63.43441707721271,10.392489090842842,0.0,1.4400000000000002e-10,0.0,0.0,0.0,1.4400000000000002e-10,0.0,0.0,0.0,1.0,2
2025/04/01 17:52:26.409221253,1743522746,407897819,mA1/gps,0,1,63.43441707721271,10.392489090842842,0.0,1.4400000000000002e-10,0.0,0.0,0.0,1.4400000000000002e-10,0.0,0.0,0.0,1.0,2
2025/04/01 17:52:26.462220774,1743522746,459850655,mA1/gps,0,1,63.43441707622464,10.39248911215398,0.0,1.4400000000000002e-10,0.0,0.0,0.0,1.4400000000000002e-10,0.0,0.0,0.0,1.0,2
2025/04/01 17:52:26.462401860,1743522746,459850655,mA1/gps,0,1,63.43441707622464,10.39248911215398,0.0,1.4400000000000002e-10,0.0,0.0,0.0,1.4400000000000002e-10,0.0,0.0,0.0,1.0,2
2025/04/01 17:52:26.513287868,1743522746,512296637,mA1/gps,0,1,63.43441707766097,10.39248912556147,0.0,1.4400000000000002e-10,0.0,0.0,0.0,1.4400000000000002e-10,0.0,0.0,0.0,1.0,2
2025/04/01 17:52:26.517519980,1743522746,512296637,mA1/gps,0,1,63.43441707766097,10.39248912556147,0.0,1.4400000000000002e-10,0.0,0.0,0.0,1.4400000000000002e-10,0.0,0.0,0.0,1.0,2
2025/04/01 17:52:26.555359057,1743522746,552585983,mA1/gps,0,1,63.43441707926807,10.39248913035352,0.0,1.4400000000000002e-10,0.0,0.0,0.0,1.4400000000000002e-10,0.0,0.0,0.0,1.0,2
2025/04/01 17:52:26.557203724,1743522746,552585983,mA1/gps,0,1,63.43441707926807,10.39248913035352,0.0,1.4400000000000002e-10,0.0,0.0,0.0,1.4400000000000002e-10,0.0,0.0,0.0,1.0,2
2025/04/01 17:52:26.606716405,1743522746,604400483,mA1/gps,0,1,63.43441707956189,10.392489125281521,0.0,1.4400000000000002e-10,0.0,0.0,0.0,1.4400000000000002e-10,0.0,0.0,0.0,1.0,2
2025/04/01 17:52:26.607774795,1743522746,604400483,mA1/gps,0,1,63.43441707956189,10.392489125281521,0.0,1.4400000000000002e-10,0.0,0.0,0.0,1.4400000000000002e-10,0.0,0.0,0.0,1.0,2
2025/04/01 17:52:26.655053564,1743522746,654372242,mA1/gps,0,1,63.4344170825851,10.392489111366476,0.0,1.4400000000000002e-10,0.0,0.0,0.0,1.4400000000000002e-10,0.0,0.0,0.0,1.0,2
2025/04/01 17:52:26.656517489,1743522746,654372242,mA1/gps,0,1,63.4344170825851,10.392489111366476,0.0,1.4400000000000002e-10,0.0,0.0,0.0,1.4400000000000002e-10,0.0,0.0,0.0,1.0,2
2025/04/01 17:52:26.707390787,1743522746,706141705,mA1/gps,0,1,63.434417082131276,10.39248908873504,0.0,1.4400000000000002e-10,0.0,0.0,0.0,1.4400000000000002e-10,0.0,0.0,0.0,1.0,2
2025/04/01 17:52:26.710880353,1743522746,706141705,mA1/gps,0,1,63.434417082131276,10.39248908873504,0.0,1.4400000000000002e-10,0.0,0.0,0.0,1.4400000000000002e-10,0.0,0.0,0.0,1.0,2
2025/04/01 17:52:26.758016101,1743522746,755932484,mA1/gps,0,1,63.43441708187479,10.392489059740077,0.0,1.4400000000000002e-10,0.0,0.0,0.0,1.4400000000000002e-10,0.0,0.0,0.0,1.0,2
2025/04/01 17:52:26.758470047,1743522746,755932484,mA1/gps,0,1,63.43441708187479,10.392489059740077,0.0,1.4400000000000002e-10,0.0,0.0,0.0,1.4400000000000002e-10,0.0,0.0,0.0,1.0,2
2025/04/01 17:52:26.809347248,1743522746,807219002,mA1/gps,0,1,63.43441708476617,10.392489027413324,0.0,1.4400000000000002e-10,0.0,0.0,0.0,1.4400000000000002e-10,0.0,0.0,0.0,1.0,2
2025/04/01 17:52:26.810073061,1743522746,807219002,mA1/gps,0,1,63.43441708476617,10.392489027413324,0.0,1.4400000000000002e-10,0.0,0.0,0.0,1.4400000000000002e-10,0.0,0.0,0.0,1.0,2
2025/04/01 17:52:26.860206056,1743522746,858249962,mA1/gps,0,1,63.43441708452678,10.392488995120765,0.0,1.4400000000000002e-10,0.0,0.0,0.0,1.4400000000000002e-10,0.0,0.0,0.0,1.0,2
2025/04/01 17:52:26.861679401,1743522746,858249962,mA1/gps,0,1,63.43441708452678,10.392488995120765,0.0,1.4400000000000002e-10,0.0,0.0,0.0,1.4400000000000002e-10,0.0,0.0,0.0,1.0,2
2025/04/01 17:52:26.912003265,1743522746,909022398,mA1/gps,0,1,63.43441708655976,10.392488965271578,0.0,1.4400000000000002e-10,0.0,0.0,0.0,1.4400000000000002e-10,0.0,0.0,0.0,1.0,2
2025/04/01 17:52:26.913871847,1743522746,909022398,mA1/gps,0,1,63.43441708655976,10.392488965271578,0.0,1.4400000000000002e-10,0.0,0.0,0.0,1.4400000000000002e-10,0.0,0.0,0.0,1.0,2
2025/04/01 17:52:26.960338226,1743522746,959690507,mA1/gps,0,1,63.43441708712584,10.392488939261456,0.0,1.4400000000000002e-10,0.0,0.0,0.0,1.4400000000000002e-10,0.0,0.0,0.0,1.0,2
2025/04/01 17:52:26.960754132,1743522746,959690507,mA1/gps,0,1,63.43441708712584,10.392488939261456,0.0,1.4400000000000002e-10,0.0,0.0,0.0,1.4400000000000002e-10,0.0,0.0,0.0,1.0,2
2025/04/01 17:52:27.17230799,1743522747,13523929,mA1/gps,0,1,63.434417084758,10.392488917715164,0.0,1.4400000000000002e-10,0.0,0.0,0.0,1.4400000000000002e-10,0.0,0.0,0.0,1.0,2
2025/04/01 17:52:27.17301614,1743522747,13523929,mA1/gps,0,1,63.434417084758,10.392488917715164,0.0,1.4400000000000002e-10,0.0,0.0,0.0,1.4400000000000002e-10,0.0,0.0,0.0,1.0,2
2025/04/01 17:52:27.54959303,1743522747,53043564,mA1/gps,0,1,63.434417086677975,10.392488902625505,0.0,1.4400000000000002e-10,0.0,0.0,0.0,1.4400000000000002e-10,0.0,0.0,0.0,1.0,2
2025/04/01 17:52:27.55264252,1743522747,53043564,mA1/gps,0,1,63.434417086677975,10.392488902625505,0.0,1.4400000000000002e-10,0.0,0.0,0.0,1.4400000000000002e-10,0.0,0.0,0.0,1.0,2
2025/04/01 17:52:27.107645553,1743522747,105189258,mA1/gps,0,1,63.434417086346535,10.392488894720952,0.0,1.4400000000000002e-10,0.0,0.0,0.0,1.4400000000000002e-10,0.0,0.0,0.0,1.0,2
2025/04/01 17:52:27.109053587,1743522747,105189258,mA1/gps,0,1,63.434417086346535,10.392488894720952,0.0,1.4400000000000002e-10,0.0,0.0,0.0,1.4400000000000002e-10,0.0,0.0,0.0,1.0,2
2025/04/01 17:52:27.156317602,1743522747,155212231,mA1/gps,0,1,63.43441708596131,10.392488893285863,0.0,1.4400000000000002e-10,0.0,0.0,0.0,1.4400000000000002e-10,0.0,0.0,0.0,1.0,2
2025/04/01 17:52:27.158084412,1743522747,155212231,mA1/gps,0,1,63.43441708596131,10.392488893285863,0.0,1.4400000000000002e-10,0.0,0.0,0.0,1.4400000000000002e-10,0.0,0.0,0.0,1.0,2
2025/04/01 17:52:27.208626408,1743522747,206341302,mA1/gps,0,1,63.434417087114774,10.392488898303856,0.0,1.4400000000000002e-10,0.0,0.0,0.0,1.4400000000000002e-10,0.0,0.0,0.0,1.0,2
2025/04/01 17:52:27.209623120,1743522747,206341302,mA1/gps,0,1,63.434417087114774,10.392488898303856,0.0,1.4400000000000002e-10,0.0,0.0,0.0,1.4400000000000002e-10,0.0,0.0,0.0,1.0,2
2025/04/01 17:52:27.259112181,1743522747,256163966,mA1/gps,0,1,63.4344170852386,10.392488908263362,0.0,1.4400000000000002e-10,0.0,0.0,0.0,1.4400000000000002e-10,0.0,0.0,0.0,1.0,2
2025/04/01 17:52:27.259166448,1743522747,256163966,mA1/gps,0,1,63.4344170852386,10.392488908263362,0.0,1.4400000000000002e-10,0.0,0.0,0.0,1.4400000000000002e-10,0.0,0.0,0.0,1.0,2
2025/04/01 17:52:27.313713068,1743522747,310316664,mA1/gps,0,1,63.43441708553225,10.392488923092595,0.0,1.4400000000000002e-10,0.0,0.0,0.0,1.4400000000000002e-10,0.0,0.0,0.0,1.0,2
2025/04/01 17:52:27.313746330,1743522747,310316664,mA1/gps,0,1,63.43441708553225,10.392488923092595,0.0,1.4400000000000002e-10,0.0,0.0,0.0,1.4400000000000002e-10,0.0,0.0,0.0,1.0,2
2025/04/01 17:52:27.362011391,1743522747,360356443,mA1/gps,0,1,63.4344170841611,10.39248894167359,0.0,1.4400000000000002e-10,0.0,0.0,0.0,1.4400000000000002e-10,0.0,0.0,0.0,1.0,2
2025/04/01 17:52:27.362056905,1743522747,360356443,mA1/gps,0,1,63.4344170841611,10.39248894167359,0.0,1.4400000000000002e-10,0.0,0.0,0.0,1.4400000000000002e-10,0.0,0.0,0.0,1.0,2
2025/04/01 17:52:27.412715612,1743522747,411617345,mA1/gps,0,1,63.434417081343895,10.392488961515799,0.0,1.4400000000000002e-10,0.0,0.0,0.0,1.4400000000000002e-10,0.0,0.0,0.0,1.0,2
2025/04/01 17:52:27.413154521,1743522747,411617345,mA1/gps,0,1,63.434417081343895,10.392488961515799,0.0,1.4400000000000002e-10,0.0,0.0,0.0,1.4400000000000002e-10,0.0,0.0,0.0,1.0,2
2025/04/01 17:52:27.453315602,1743522747,451719610,mA1/gps,0,1,63.434417082062716,10.392488983062107,0.0,1.4400000000000002e-10,0.0,0.0,0.0,1.4400000000000002e-10,0.0,0.0,0.0,1.0,2
2025/04/01 17:52:27.453845954,1743522747,451719610,mA1/gps,0,1,63.434417082062716,10.392488983062107,0.0,1.4400000000000002e-10,0.0,0.0,0.0,1.4400000000000002e-10,0.0,0.0,0.0,1.0,2
2025/04/01 17:52:27.506256954,1743522747,505380391,mA1/gps,0,1,63.43441707998657,10.392489005436126,0.0,1.4400000000000002e-10,0.0,0.0,0.0,1.4400000000000002e-10,0.0,0.0,0.0,1.0,2
2025/04/01 17:52:27.507649693,1743522747,505380391,mA1/gps,0,1,63.43441707998657,10.392489005436126,0.0,1.4400000000000002e-10,0.0,0.0,0.0,1.4400000000000002e-10,0.0,0.0,0.0,1.0,2
2025/04/01 17:52:27.556688602,1743522747,555514929,mA1/gps,0,1,63.43441707780758,10.392489023989734,0.0,1.4400000000000002e-10,0.0,0.0,0.0,1.4400000000000002e-10,0.0,0.0,0.0,1.0,2
2025/04/01 17:52:27.557209909,1743522747,555514929,mA1/gps,0,1,63.43441707780758,10.392489023989734,0.0,1.4400000000000002e-10,0.0,0.0,0.0,1.4400000000000002e-10,0.0,0.0,0.0,1.0,2
2025/04/01 17:52:27.608075452,1743522747,607029859,mA1/gps,0,1,63.434417078056725,10.39248903875341,0.0,1.4400000000000002e-10,0.0,0.0,0.0,1.4400000000000002e-10,0.0,0.0,0.0,1.0,2
2025/04/01 17:52:27.612380723,1743522747,607029859,mA1/gps,0,1,63.434417078056725,10.39248903875341,0.0,1.4400000000000002e-10,0.0,0.0,0.0,1.4400000000000002e-10,0.0,0.0,0.0,1.0,2
2025/04/01 17:52:27.658313405,1743522747,656887337,mA1/gps,0,1,63.43441707508344,10.392489048201595,0.0,1.4400000000000002e-10,0.0,0.0,0.0,1.4400000000000002e-10,0.0,0.0,0.0,1.0,2
2025/04/01 17:52:27.658912310,1743522747,656887337,mA1/gps,0,1,63.43441707508344,10.392489048201595,0.0,1.4400000000000002e-10,0.0,0.0,0.0,1.4400000000000002e-10,0.0,0.0,0.0,1.0,2
2025/04/01 17:52:27.710282913,1743522747,707822642,mA1/gps,0,1,63.43441707493638,10.392489050509107,0.0,1.4400000000000002e-10,0.0,0.0,0.0,1.4400000000000002e-10,0.0,0.0,0.0,1.0,2
2025/04/01 17:52:27.710496942,1743522747,707822642,mA1/gps,0,1,63.43441707493638,10.392489050509107,0.0,1.4400000000000002e-10,0.0,0.0,0.0,1.4400000000000002e-10,0.0,0.0,0.0,1.0,2
2025/04/01 17:52:27.759042340,1743522747,757501179,mA1/gps,0,1,63.434417073491076,10.3924890464936,0.0,1.4400000000000002e-10,0.0,0.0,0.0,1.4400000000000002e-10,0.0,0.0,0.0,1.0,2
2025/04/01 17:52:27.760831001,1743522747,757501179,mA1/gps,0,1,63.434417073491076,10.3924890464936,0.0,1.4400000000000002e-10,0.0,0.0,0.0,1.4400000000000002e-10,0.0,0.0,0.0,1.0,2
2025/04/01 17:52:27.811708288,1743522747,809566354,mA1/gps,0,1,63.43441707128331,10.3924890361795,0.0,1.4400000000000002e-10,0.0,0.0,0.0,1.4400000000000002e-10,0.0,0.0,0.0,1.0,2
2025/04/01 17:52:27.811752486,1743522747,809566354,mA1/gps,0,1,63.43441707128331,10.3924890361795,0.0,1.4400000000000002e-10,0.0,0.0,0.0,1.4400000000000002e-10,0.0,0.0,0.0,1.0,2
2025/04/01 17:52:27.861361964,1743522747,859293191,mA1/gps,0,1,63.434417072533684,10.392489020280022,0.0,1.4400000000000002e-10,0.0,0.0,0.0,1.4400000000000002e-10,0.0,0.0,0.0,1.0,2
2025/04/01 17:52:27.861537795,1743522747,859293191,mA1/gps,0,1,63.434417072533684,10.392489020280022,0.0,1.4400000000000002e-10,0.0,0.0,0.0,1.4400000000000002e-10,0.0,0.0,0.0,1.0,2
2025/04/01 17:52:27.913521059,1743522747,910761303,mA1/gps,0,1,63.43441707006173,10.392488998529029,0.0,1.4400000000000002e-10,0.0,0.0,0.0,1.4400000000000002e-10,0.0,0.0,0.0,1.0,2
2025/04/01 17:52:27.915004267,1743522747,910761303,mA1/gps,0,1,63.43441707006173,10.392488998529029,0.0,1.4400000000000002e-10,0.0,0.0,0.0,1.4400000000000002e-10,0.0,0.0,0.0,1.0,2
2025/04/01 17:52:27.961537501,1743522747,959782789,mA1/gps,0,1,63.43441706854852,10.392488973813107,0.0,1.4400000000000002e-10,0.0,0.0,0.0,1.4400000000000002e-10,0.0,0.0,0.0,1.0,2
2025/04/01 17:52:27.961699946,1743522747,959782789,mA1/gps,0,1,63.43441706854852,10.392488973813107,0.0,1.4400000000000002e-10,0.0,0.0,0.0,1.4400000000000002e-10,0.0,0.0,0.0,1.0,2
2025/04/01 17:52:28.13385448,1743522748,10972887,mA1/gps,0,1,63.434417070567235,10.392488946412897,0.0,1.4400000000000002e-10,0.0,0.0,0.0,1.4400000000000002e-10,0.0,0.0,0.0,1.0,2
2025/04/01 17:52:28.13628695,1743522748,10972887,mA1/gps,0,1,63.434417070567235,10.392488946412897,0.0,1.4400000000000002e-10,0.0,0.0,0.0,1.4400000000000002e-10,0.0,0.0,0.0,1.0,2
2025/04/01 17:52:28.54762076,1743522748,51975838,mA1/gps,0,1,63.43441706854707,10.392488918321723,0.0,1.4400000000000002e-10,0.0,0.0,0.0,1.4400000000000002e-10,0.0,0.0,0.0,1.0,2
2025/04/01 17:52:28.54805811,1743522748,51975838,mA1/gps,0,1,63.43441706854707,10.392488918321723,0.0,1.4400000000000002e-10,0.0,0.0,0.0,1.4400000000000002e-10,0.0,0.0,0.0,1.0,2
2025/04/01 17:52:28.106997401,1743522748,104462296,mA1/gps,0,1,63.43441706930632,10.392488891061925,0.0,1.4400000000000002e-10,0.0,0.0,0.0,1.4400000000000002e-10,0.0,0.0,0.0,1.0,2
2025/04/01 17:52:28.107395294,1743522748,104462296,mA1/gps,0,1,63.43441706930632,10.392488891061925,0.0,1.4400000000000002e-10,0.0,0.0,0.0,1.4400000000000002e-10,0.0,0.0,0.0,1.0,2
2025/04/01 17:52:28.155440051,1743522748,154050655,mA1/gps,0,1,63.43441706968123,10.392488866472375,0.0,1.4400000000000002e-10,0.0,0.0,0.0,1.4400000000000002e-10,0.0,0.0,0.0,1.0,2
2025/04/01 17:52:28.155788641,1743522748,154050655,mA1/gps,0,1,63.43441706968123,10.392488866472375,0.0,1.4400000000000002e-10,0.0,0.0,0.0,1.4400000000000002e-10,0.0,0.0,0.0,1.0,2
2025/04/01 17:52:28.208677671,1743522748,205876434,mA1/gps,0,1,63.43441706829389,10.392488846183644,0.0,1.4400000000000002e-10,0.0,0.0,0.0,1.4400000000000002e-10,0.0,0.0,0.0,1.0,2
2025/04/01 17:52:28.208814442,1743522748,205876434,mA1/gps,0,1,63.43441706829389,10.392488846183644,0.0,1.4400000000000002e-10,0.0,0.0,0.0,1.4400000000000002e-10,0.0,0.0,0.0,1.0,2
2025/04/01 17:52:28.257334434,1743522748,255675998,mA1/gps,0,1,63.43441707023626,10.392488832016992,0.0,1.4400000000000002e-10,0.0,0.0,0.0,1.4400000000000002e-10,0.0,0.0,0.0,1.0,2
2025/04/01 17:52:28.257372914,1743522748,255675998,mA1/gps,0,1,63.43441707023626,10.392488832016992,0.0,1.4400000000000002e-10,0.0,0.0,0.0,1.4400000000000002e-10,0.0,0.0,0.0,1.0,2
2025/04/01 17:52:28.315586711,1743522748,311660157,mA1/gps,0,1,63.43441707038268,10.392488823421502,0.0,1.4400000000000002e-10,0.0,0.0,0.0,1.4400000000000002e-10,0.0,0.0,0.0,1.0,2
2025/04/01 17:52:28.316086392,1743522748,311660157,mA1/gps,0,1,63.43441707038268,10.392488823421502,0.0,1.4400000000000002e-10,0.0,0.0,0.0,1.4400000000000002e-10,0.0,0.0,0.0,1.0,2
2025/04/01 17:52:28.353928553,1743522748,352388254,mA1/gps,0,1,63.434417070017076,10.392488820091497,0.0,1.4400000000000002e-10,0.0,0.0,0.0,1.4400000000000002e-10,0.0,0.0,0.0,1.0,2
2025/04/01 17:52:28.353980620,1743522748,352388254,mA1/gps,0,1,63.434417070017076,10.392488820091497,0.0,1.4400000000000002e-10,0.0,0.0,0.0,1.4400000000000002e-10,0.0,0.0,0.0,1.0,2
2025/04/01 17:52:28.407179857,1743522748,403964825,mA1/gps,0,1,63.43441707136608,10.39248882162049,0.0,1.4400000000000002e-10,0.0,0.0,0.0,1.4400000000000002e-10,0.0,0.0,0.0,1.0,2
2025/04/01 17:52:28.407573772,1743522748,403964825,mA1/gps,0,1,63.43441707136608,10.39248882162049,0.0,1.4400000000000002e-10,0.0,0.0,0.0,1.4400000000000002e-10,0.0,0.0,0.0,1.0,2
2025/04/01 17:52:28.457078020,1743522748,455656572,mA1/gps,0,1,63.43441707030958,10.39248882748084,0.0,1.4400000000000002e-10,0.0,0.0,0.0,1.4400000000000002e-10,0.0,0.0,0.0,1.0,2
2025/04/01 17:52:28.459116654,1743522748,455656572,mA1/gps,0,1,63.43441707030958,10.39248882748084,0.0,1.4400000000000002e-10,0.0,0.0,0.0,1.4400000000000002e-10,0.0,0.0,0.0,1.0,2
2025/04/01 17:52:28.511120026,1743522748,507020714,mA1/gps,0,1,63.434417071041715,10.39248883771375,0.0,1.4400000000000002e-10,0.0,0.0,0.0,1.4400000000000002e-10,0.0,0.0,0.0,1.0,2
2025/04/01 17:52:28.511171262,1743522748,507020714,mA1/gps,0,1,63.434417071041715,10.39248883771375,0.0,1.4400000000000002e-10,0.0,0.0,0.0,1.4400000000000002e-10,0.0,0.0,0.0,1.0,2
2025/04/01 17:52:28.557778202,1743522748,556711158,mA1/gps,0,1,63.43441707302394,10.392488851995466,0.0,1.4400000000000002e-10,0.0,0.0,0.0,1.4400000000000002e-10,0.0,0.0,0.0,1.0,2
2025/04/01 17:52:28.558025583,1743522748,556711158,mA1/gps,0,1,63.43441707302394,10.392488851995466,0.0,1.4400000000000002e-10,0.0,0.0,0.0,1.4400000000000002e-10,0.0,0.0,0.0,1.0,2
2025/04/01 17:52:28.610080096,1743522748,607704100,mA1/gps,0,1,63.43441707172215,10.392488868809933,0.0,1.4400000000000002e-10,0.0,0.0,0.0,1.4400000000000002e-10,0.0,0.0,0.0,1.0,2
2025/04/01 17:52:28.613253508,1743522748,607704100,mA1/gps,0,1,63.43441707172215,10.392488868809933,0.0,1.4400000000000002e-10,0.0,0.0,0.0,1.4400000000000002e-10,0.0,0.0,0.0,1.0,2
2025/04/01 17:52:28.659882980,1743522748,658524242,mA1/gps,0,1,63.43441707363574,10.39248888968398,0.0,1.4400000000000002e-10,0.0,0.0,0.0,1.4400000000000002e-10,0.0,0.0,0.0,1.0,2
2025/04/01 17:52:28.660374222,1743522748,658524242,mA1/gps,0,1,63.43441707363574,10.39248888968398,0.0,1.4400000000000002e-10,0.0,0.0,0.0,1.4400000000000002e-10,0.0,0.0,0.0,1.0,2
2025/04/01 17:52:28.714443276,1743522748,712435397,mA1/gps,0,1,63.43441707215344,10.39248891068113,0.0,1.4400000000000002e-10,0.0,0.0,0.0,1.4400000000000002e-10,0.0,0.0,0.0,1.0,2
2025/04/01 17:52:28.718126620,1743522748,712435397,mA1/gps,0,1,63.43441707215344,10.39248891068113,0.0,1.4400000000000002e-10,0.0,0.0,0.0,1.4400000000000002e-10,0.0,0.0,0.0,1.0,2
2025/04/01 17:52:28.776564371,1743522748,763422618,mA1/gps,0,1,63.43441707150037,10.39248893418044,0.0,1.4400000000000002e-10,0.0,0.0,0.0,1.4400000000000002e-10,0.0,0.0,0.0,1.0,2
2025/04/01 17:52:28.781532479,1743522748,763422618,mA1/gps,0,1,63.43441707150037,10.39248893418044,0.0,1.4400000000000002e-10,0.0,0.0,0.0,1.4400000000000002e-10,0.0,0.0,0.0,1.0,2
2025/04/01 17:52:28.810518578,1743522748,807430888,mA1/gps,0,1,63.43441707306135,10.392488957571299,0.0,1.4400000000000002e-10,0.0,0.0,0.0,1.4400000000000002e-10,0.0,0.0,0.0,1.0,2
2025/04/01 17:52:28.810563753,1743522748,807430888,mA1/gps,0,1,63.43441707306135,10.392488957571299,0.0,1.4400000000000002e-10,0.0,0.0,0.0,1.4400000000000002e-10,0.0,0.0,0.0,1.0,2
2025/04/01 17:52:28.859206782,1743522748,858557128,mA1/gps,0,1,63.43441707181252,10.392488980544957,0.0,1.4400000000000002e-10,0.0,0.0,0.0,1.4400000000000002e-10,0.0,0.0,0.0,1.0,2
2025/04/01 17:52:28.859801693,1743522748,858557128,mA1/gps,0,1,63.43441707181252,10.392488980544957,0.0,1.4400000000000002e-10,0.0,0.0,0.0,1.4400000000000002e-10,0.0,0.0,0.0,1.0,2
2025/04/01 17:52:28.913014258,1743522748,910554028,mA1/gps,0,1,63.43441707264682,10.392489003529889,0.0,1.4400000000000002e-10,0.0,0.0,0.0,1.4400000000000002e-10,0.0,0.0,0.0,1.0,2
2025/04/01 17:52:28.915771347,1743522748,910554028,mA1/gps,0,1,63.43441707264682,10.392489003529889,0.0,1.4400000000000002e-10,0.0,0.0,0.0,1.4400000000000002e-10,0.0,0.0,0.0,1.0,2
2025/04/01 17:52:28.957425188,1743522748,955336004,mA1/gps,0,1,63.434417072080365,10.392489024335953,0.0,1.4400000000000002e-10,0.0,0.0,0.0,1.4400000000000002e-10,0.0,0.0,0.0,1.0,2
2025/04/01 17:52:28.961148873,1743522748,955336004,mA1/gps,0,1,63.434417072080365,10.392489024335953,0.0,1.4400000000000002e-10,0.0,0.0,0.0,1.4400000000000002e-10,0.0,0.0,0.0,1.0,2
2025/04/01 17:52:29.9103474,1743522749,7407823,mA1/gps,0,1,63.43441706982971,10.392489043023973,0.0,1.4400000000000002e-10,0.0,0.0,0.0,1.4400000000000002e-10,0.0,0.0,0.0,1.0,2
2025/04/01 17:52:29.9570028,1743522749,7407823,mA1/gps,0,1,63.43441706982971,10.392489043023973,0.0,1.4400000000000002e-10,0.0,0.0,0.0,1.4400000000000002e-10,0.0,0.0,0.0,1.0,2
2025/04/01 17:52:29.60692286,1743522749,57982845,mA1/gps,0,1,63.43441707164829,10.392489060725877,0.0,1.4400000000000002e-10,0.0,0.0,0.0,1.4400000000000002e-10,0.0,0.0,0.0,1.0,2
2025/04/01 17:52:29.60825944,1743522749,57982845,mA1/gps,0,1,63.43441707164829,10.392489060725877,0.0,1.4400000000000002e-10,0.0,0.0,0.0,1.4400000000000002e-10,0.0,0.0,0.0,1.0,2
2025/04/01 17:52:29.110309219,1743522749,108687697,mA1/gps,0,1,63.43441707004399,10.392489075341093,0.0,1.4400000000000002e-10,0.0,0.0,0.0,1.4400000000000002e-10,0.0,0.0,0.0,1.0,2
2025/04/01 17:52:29.110397170,1743522749,108687697,mA1/gps,0,1,63.43441707004399,10.392489075341093,0.0,1.4400000000000002e-10,0.0,0.0,0.0,1.4400000000000002e-10,0.0,0.0,0.0,1.0,2
2025/04/01 17:52:29.159981423,1743522749,158888907,mA1/gps,0,1,63.43441706857575,10.39248908799637,0.0,1.4400000000000002e-10,0.0,0.0,0.0,1.4400000000000002e-10,0.0,0.0,0.0,1.0,2
2025/04/01 17:52:29.160520985,1743522749,158888907,mA1/gps,0,1,63.43441706857575,10.39248908799637,0.0,1.4400000000000002e-10,0.0,0.0,0.0,1.4400000000000002e-10,0.0,0.0,0.0,1.0,2
2025/04/01 17:52:29.213409031,1743522749,210764582,mA1/gps,0,1,63.434417069690426,10.39248909886447,0.0,1.4400000000000002e-10,0.0,0.0,0.0,1.4400000000000002e-10,0.0,0.0,0.0,1.0,2
2025/04/01 17:52:29.214351021,1743522749,210764582,mA1/gps,0,1,63.434417069690426,10.39248909886447,0.0,1.4400000000000002e-10,0.0,0.0,0.0,1.4400000000000002e-10,0.0,0.0,0.0,1.0,2
2025/04/01 17:52:29.260914135,1743522749,259797164,mA1/gps,0,1,63.43441706776498,10.39248910708635,0.0,1.4400000000000002e-10,0.0,0.0,0.0,1.4400000000000002e-10,0.0,0.0,0.0,1.0,2
2025/04/01 17:52:29.261259506,1743522749,259797164,mA1/gps,0,1,63.43441706776498,10.39248910708635,0.0,1.4400000000000002e-10,0.0,0.0,0.0,1.4400000000000002e-10,0.0,0.0,0.0,1.0,2
2025/04/01 17:52:29.312538716,1743522749,311769844,mA1/gps,0,1,63.43441706848659,10.392489113090532,0.0,1.4400000000000002e-10,0.0,0.0,0.0,1.4400000000000002e-10,0.0,0.0,0.0,1.0,2
2025/04/01 17:52:29.312974405,1743522749,311769844,mA1/gps,0,1,63.43441706848659,10.392489113090532,0.0,1.4400000000000002e-10,0.0,0.0,0.0,1.4400000000000002e-10,0.0,0.0,0.0,1.0,2
2025/04/01 17:52:29.354433714,1743522749,352523975,mA1/gps,0,1,63.43441706814674,10.392489117953367,0.0,1.4400000000000002e-10,0.0,0.0,0.0,1.4400000000000002e-10,0.0,0.0,0.0,1.0,2
2025/04/01 17:52:29.355523580,1743522749,352523975,mA1/gps,0,1,63.43441706814674,10.392489117953367,0.0,1.4400000000000002e-10,0.0,0.0,0.0,1.4400000000000002e-10,0.0,0.0,0.0,1.0,2
2025/04/01 17:52:29.406322467,1743522749,404687652,mA1/gps,0,1,63.434417066089516,10.392489122088923,0.0,1.4400000000000002e-10,0.0,0.0,0.0,1.4400000000000002e-10,0.0,0.0,0.0,1.0,2
2025/04/01 17:52:29.406952494,1743522749,404687652,mA1/gps,0,1,63.434417066089516,10.392489122088923,0.0,1.4400000000000002e-10,0.0,0.0,0.0,1.4400000000000002e-10,0.0,0.0,0.0,1.0,2
2025/04/01 17:52:29.456190605,1743522749,454157550,mA1/gps,0,1,63.43441706842284,10.39248912560638,0.0,1.4400000000000002e-10,0.0,0.0,0.0,1.4400000000000002e-10,0.0,0.0,0.0,1.0,2
2025/04/01 17:52:29.456241763,1743522749,454157550,mA1/gps,0,1,63.43441706842284,10.39248912560638,0.0,1.4400000000000002e-10,0.0,0.0,0.0,1.4400000000000002e-10,0.0,0.0,0.0,1.0,2
2025/04/01 17:52:29.508676479,1743522749,505527635,mA1/gps,0,1,63.4344170671189,10.392489130137024,0.0,1.4400000000000002e-10,0.0,0.0,0.0,1.4400000000000002e-10,0.0,0.0,0.0,1.0,2
2025/04/01 17:52:29.511037827,1743522749,505527635,mA1/gps,0,1,63.4344170671189,10.392489130137024,0.0,1.4400000000000002e-10,0.0,0.0,0.0,1.4400000000000002e-10,0.0,0.0,0.0,1.0,2
2025/04/01 17:52:29.557426399,1743522749,556183433,mA1/gps,0,1,63.434417066325864,10.392489136311461,0.0,1.4400000000000002e-10,0.0,0.0,0.0,1.4400000000000002e-10,0.0,0.0,0.0,1.0,2
2025/04/01 17:52:29.557461555,1743522749,556183433,mA1/gps,0,1,63.434417066325864,10.392489136311461,0.0,1.4400000000000002e-10,0.0,0.0,0.0,1.4400000000000002e-10,0.0,0.0,0.0,1.0,2
2025/04/01 17:52:29.609126398,1743522749,607447384,mA1/gps,0,1,63.43441706798294,10.392489143936896,0.0,1.4400000000000002e-10,0.0,0.0,0.0,1.4400000000000002e-10,0.0,0.0,0.0,1.0,2
2025/04/01 17:52:29.609505105,1743522749,607447384,mA1/gps,0,1,63.43441706798294,10.392489143936896,0.0,1.4400000000000002e-10,0.0,0.0,0.0,1.4400000000000002e-10,0.0,0.0,0.0,1.0,2
2025/04/01 17:52:29.659893181,1743522749,658366343,mA1/gps,0,1,63.43441706695981,10.392489154399001,0.0,1.4400000000000002e-10,0.0,0.0,0.0,1.4400000000000002e-10,0.0,0.0,0.0,1.0,2
2025/04/01 17:52:29.661452083,1743522749,658366343,mA1/gps,0,1,63.43441706695981,10.392489154399001,0.0,1.4400000000000002e-10,0.0,0.0,0.0,1.4400000000000002e-10,0.0,0.0,0.0,1.0,2
2025/04/01 17:52:29.712419525,1743522749,710710450,mA1/gps,0,1,63.434417068154474,10.392489166666513,0.0,1.4400000000000002e-10,0.0,0.0,0.0,1.4400000000000002e-10,0.0,0.0,0.0,1.0,2
2025/04/01 17:52:29.712462388,1743522749,710710450,mA1/gps,0,1,63.434417068154474,10.392489166666513,0.0,1.4400000000000002e-10,0.0,0.0,0.0,1.4400000000000002e-10,0.0,0.0,0.0,1.0,2
2025/04/01 17:52:29.762204402,1743522749,760241312,mA1/gps,0,1,63.434417068403526,10.392489182275702,0.0,1.4400000000000002e-10,0.0,0.0,0.0,1.4400000000000002e-10,0.0,0.0,0.0,1.0,2
2025/04/01 17:52:29.762331787,1743522749,760241312,mA1/gps,0,1,63.434417068403526,10.392489182275702,0.0,1.4400000000000002e-10,0.0,0.0,0.0,1.4400000000000002e-10,0.0,0.0,0.0,1.0,2
2025/04/01 17:52:29.814413798,1743522749,812327229,mA1/gps,0,1,63.434417066778344,10.392489200671287,0.0,1.4400000000000002e-10,0.0,0.0,0.0,1.4400000000000002e-10,0.0,0.0,0.0,1.0,2
2025/04/01 17:52:29.820640960,1743522749,812327229,mA1/gps,0,1,63.434417066778344,10.392489200671287,0.0,1.4400000000000002e-10,0.0,0.0,0.0,1.4400000000000002e-10,0.0,0.0,0.0,1.0,2
2025/04/01 17:52:29.858005894,1743522749,854081881,mA1/gps,0,1,63.4344170696212,10.392489222354628,0.0,1.4400000000000002e-10,0.0,0.0,0.0,1.4400000000000002e-10,0.0,0.0,0.0,1.0,2
2025/04/01 17:52:29.858199395,1743522749,854081881,mA1/gps,0,1,63.4344170696212,10.392489222354628,0.0,1.4400000000000002e-10,0.0,0.0,0.0,1.4400000000000002e-10,0.0,0.0,0.0,1.0,2
2025/04/01 17:52:29.908916351,1743522749,907811705,mA1/gps,0,1,63.43441706869894,10.392489248024187,0.0,1.4400000000000002e-10,0.0,0.0,0.0,1.4400000000000002e-10,0.0,0.0,0.0,1.0,2
2025/04/01 17:52:29.909215698,1743522749,907811705,mA1/gps,0,1,63.43441706869894,10.392489248024187,0.0,1.4400000000000002e-10,0.0,0.0,0.0,1.4400000000000002e-10,0.0,0.0,0.0,1.0,2
2025/04/01 17:52:29.957981603,1743522749,956455638,mA1/gps,0,1,63.434417067727416,10.392489275106072,0.0,1.4400000000000002e-10,0.0,0.0,0.0,1.4400000000000002e-10,0.0,0.0,0.0,1.0,2
2025/04/01 17:52:29.958021262,1743522749,956455638,mA1/gps,0,1,63.434417067727416,10.392489275106072,0.0,1.4400000000000002e-10,0.0,0.0,0.0,1.4400000000000002e-10,0.0,0.0,0.0,1.0,2
2025/04/01 17:52:30.12790181,1743522750,10104445,mA1/gps,0,1,63.4344170693027,10.392489304101248,0.0,1.4400000000000002e-10,0.0,0.0,0.0,1.4400000000000002e-10,0.0,0.0,0.0,1.0,2
2025/04/01 17:52:30.12860999,1743522750,10104445,mA1/gps,0,1,63.4344170693027,10.392489304101248,0.0,1.4400000000000002e-10,0.0,0.0,0.0,1.4400000000000002e-10,0.0,0.0,0.0,1.0,2
2025/04/01 17:52:30.55119280,1743522750,53392235,mA1/gps,0,1,63.434417067905486,10.392489332608683,0.0,1.4400000000000002e-10,0.0,0.0,0.0,1.4400000000000002e-10,0.0,0.0,0.0,1.0,2
2025/04/01 17:52:30.55376239,1743522750,53392235,mA1/gps,0,1,63.434417067905486,10.392489332608683,0.0,1.4400000000000002e-10,0.0,0.0,0.0,1.4400000000000002e-10,0.0,0.0,0.0,1.0,2
2025/04/01 17:52:30.107035313,1743522750,104210486,mA1/gps,0,1,63.43441706921261,10.392489360527348,0.0,1.4400000000000002e-10,0.0,0.0,0.0,1.4400000000000002e-10,0.0,0.0,0.0,1.0,2
2025/04/01 17:52:30.107246105,1743522750,104210486,mA1/gps,0,1,63.43441706921261,10.392489360527348,0.0,1.4400000000000002e-10,0.0,0.0,0.0,1.4400000000000002e-10,0.0,0.0,0.0,1.0,2
2025/04/01 17:52:30.158151408,1743522750,156517765,mA1/gps,0,1,63.434417068988935,10.392489383638276,0.0,1.4400000000000002e-10,0.0,0.0,0.0,1.4400000000000002e-10,0.0,0.0,0.0,1.0,2
2025/04/01 17:52:30.159225916,1743522750,156517765,mA1/gps,0,1,63.434417068988935,10.392489383638276,0.0,1.4400000000000002e-10,0.0,0.0,0.0,1.4400000000000002e-10,0.0,0.0,0.0,1.0,2
2025/04/01 17:52:30.210117639,1743522750,208707495,mA1/gps,0,1,63.43441706718707,10.392489401739123,0.0,1.4400000000000002e-10,0.0,0.0,0.0,1.4400000000000002e-10,0.0,0.0,0.0,1.0,2
2025/04/01 17:52:30.212437512,1743522750,208707495,mA1/gps,0,1,63.43441706718707,10.392489401739123,0.0,1.4400000000000002e-10,0.0,0.0,0.0,1.4400000000000002e-10,0.0,0.0,0.0,1.0,2
2025/04/01 17:52:30.261265817,1743522750,258764728,mA1/gps,0,1,63.43441706896301,10.392489414664352,0.0,1.4400000000000002e-10,0.0,0.0,0.0,1.4400000000000002e-10,0.0,0.0,0.0,1.0,2
2025/04/01 17:52:30.261307203,1743522750,258764728,mA1/gps,0,1,63.43441706896301,10.392489414664352,0.0,1.4400000000000002e-10,0.0,0.0,0.0,1.4400000000000002e-10,0.0,0.0,0.0,1.0,2
2025/04/01 17:52:30.313858321,1743522750,310684301,mA1/gps,0,1,63.43441706755594,10.392489421308653,0.0,1.4400000000000002e-10,0.0,0.0,0.0,1.4400000000000002e-10,0.0,0.0,0.0,1.0,2
2025/04/01 17:52:30.314097162,1743522750,310684301,mA1/gps,0,1,63.43441706755594,10.392489421308653,0.0,1.4400000000000002e-10,0.0,0.0,0.0,1.4400000000000002e-10,0.0,0.0,0.0,1.0,2
2025/04/01 17:52:30.361952049,1743522750,360295806,mA1/gps,0,1,63.434417066478424,10.392489421255044,0.0,1.4400000000000002e-10,0.0,0.0,0.0,1.4400000000000002e-10,0.0,0.0,0.0,1.0,2
2025/04/01 17:52:30.362057554,1743522750,360295806,mA1/gps,0,1,63.434417066478424,10.392489421255044,0.0,1.4400000000000002e-10,0.0,0.0,0.0,1.4400000000000002e-10,0.0,0.0,0.0,1.0,2
2025/04/01 17:52:30.411957417,1743522750,411159780,mA1/gps,0,1,63.43441706779694,10.392489414441506,0.0,1.4400000000000002e-10,0.0,0.0,0.0,1.4400000000000002e-10,0.0,0.0,0.0,1.0,2
2025/04/01 17:52:30.414322421,1743522750,411159780,mA1/gps,0,1,63.43441706779694,10.392489414441506,0.0,1.4400000000000002e-10,0.0,0.0,0.0,1.4400000000000002e-10,0.0,0.0,0.0,1.0,2
2025/04/01 17:52:30.453483380,1743522750,451580184,mA1/gps,0,1,63.434417066129264,10.392489403162415,0.0,1.4400000000000002e-10,0.0,0.0,0.0,1.4400000000000002e-10,0.0,0.0,0.0,1.0,2
2025/04/01 17:52:30.453835489,1743522750,451580184,mA1/gps,0,1,63.434417066129264,10.392489403162415,0.0,1.4400000000000002e-10,0.0,0.0,0.0,1.4400000000000002e-10,0.0,0.0,0.0,1.0,2
2025/04/01 17:52:30.506105367,1743522750,504918509,mA1/gps,0,1,63.434417066877955,10.392489388239902,0.0,1.4400000000000002e-10,0.0,0.0,0.0,1.4400000000000002e-10,0.0,0.0,0.0,1.0,2
2025/04/01 17:52:30.507589406,1743522750,504918509,mA1/gps,0,1,63.434417066877955,10.392489388239902,0.0,1.4400000000000002e-10,0.0,0.0,0.0,1.4400000000000002e-10,0.0,0.0,0.0,1.0,2
2025/04/01 17:52:30.556750572,1743522750,554698200,mA1/gps,0,1,63.43441706671993,10.392489372882915,0.0,1.4400000000000002e-10,0.0,0.0,0.0,1.4400000000000002e-10,0.0,0.0,0.0,1.0,2
2025/04/01 17:52:30.556792656,1743522750,554698200,mA1/gps,0,1,63.43441706671993,10.392489372882915,0.0,1.4400000000000002e-10,0.0,0.0,0.0,1.4400000000000002e-10,0.0,0.0,0.0,1.0,2
2025/04/01 17:52:30.608184006,1743522750,605583632,mA1/gps,0,1,63.43441706481578,10.392489357784662,0.0,1.4400000000000002e-10,0.0,0.0,0.0,1.4400000000000002e-10,0.0,0.0,0.0,1.0,2
2025/04/01 17:52:30.610494321,1743522750,605583632,mA1/gps,0,1,63.43441706481578,10.392489357784662,0.0,1.4400000000000002e-10,0.0,0.0,0.0,1.4400000000000002e-10,0.0,0.0,0.0,1.0,2
2025/04/01 17:52:30.656614328,1743522750,655619827,mA1/gps,0,1,63.4344170672573,10.392489347159987,0.0,1.4400000000000002e-10,0.0,0.0,0.0,1.4400000000000002e-10,0.0,0.0,0.0,1.0,2
2025/04/01 17:52:30.656804793,1743522750,655619827,mA1/gps,0,1,63.4344170672573,10.392489347159987,0.0,1.4400000000000002e-10,0.0,0.0,0.0,1.4400000000000002e-10,0.0,0.0,0.0,1.0,2
2025/04/01 17:52:30.709874105,1743522750,706568733,mA1/gps,0,1,63.434417066839025,10.392489340940974,0.0,1.4400000000000002e-10,0.0,0.0,0.0,1.4400000000000002e-10,0.0,0.0,0.0,1.0,2
2025/04/01 17:52:30.709910883,1743522750,706568733,mA1/gps,0,1,63.434417066839025,10.392489340940974,0.0,1.4400000000000002e-10,0.0,0.0,0.0,1.4400000000000002e-10,0.0,0.0,0.0,1.0,2
2025/04/01 17:52:30.761650387,1743522750,759513427,mA1/gps,0,1,63.434417065761664,10.392489340641688,0.0,1.4400000000000002e-10,0.0,0.0,0.0,1.4400000000000002e-10,0.0,0.0,0.0,1.0,2
2025/04/01 17:52:30.762401054,1743522750,759513427,mA1/gps,0,1,63.434417065761664,10.392489340641688,0.0,1.4400000000000002e-10,0.0,0.0,0.0,1.4400000000000002e-10,0.0,0.0,0.0,1.0,2
2025/04/01 17:52:30.811843062,1743522750,810608975,mA1/gps,0,1,63.434417067556396,10.392489347268741,0.0,1.4400000000000002e-10,0.0,0.0,0.0,1.4400000000000002e-10,0.0,0.0,0.0,1.0,2
2025/04/01 17:52:30.812375233,1743522750,810608975,mA1/gps,0,1,63.434417067556396,10.392489347268741,0.0,1.4400000000000002e-10,0.0,0.0,0.0,1.4400000000000002e-10,0.0,0.0,0.0,1.0,2
2025/04/01 17:52:30.861724214,1743522750,860406218,mA1/gps,0,1,63.43441706668978,10.39248936107781,0.0,1.4400000000000002e-10,0.0,0.0,0.0,1.4400000000000002e-10,0.0,0.0,0.0,1.0,2
2025/04/01 17:52:30.861953538,1743522750,860406218,mA1/gps,0,1,63.43441706668978,10.39248936107781,0.0,1.4400000000000002e-10,0.0,0.0,0.0,1.4400000000000002e-10,0.0,0.0,0.0,1.0,2
2025/04/01 17:52:30.907722606,1743522750,902786835,mA1/gps,0,1,63.43441706859004,10.392489382280248,0.0,1.4400000000000002e-10,0.0,0.0,0.0,1.4400000000000002e-10,0.0,0.0,0.0,1.0,2
2025/04/01 17:52:30.907776889,1743522750,902786835,mA1/gps,0,1,63.43441706859004,10.392489382280248,0.0,1.4400000000000002e-10,0.0,0.0,0.0,1.4400000000000002e-10,0.0,0.0,0.0,1.0,2
2025/04/01 17:52:30.956735425,1743522750,953395682,mA1/gps,0,1,63.43441706970516,10.39248941248486,0.0,1.4400000000000002e-10,0.0,0.0,0.0,1.4400000000000002e-10,0.0,0.0,0.0,1.0,2
2025/04/01 17:52:30.957437853,1743522750,953395682,mA1/gps,0,1,63.43441706970516,10.39248941248486,0.0,1.4400000000000002e-10,0.0,0.0,0.0,1.4400000000000002e-10,0.0,0.0,0.0,1.0,2
2025/04/01 17:52:31.6897821,1743522751,5151972,mA1/gps,0,1,63.43441706915926,10.392489450984224,0.0,1.4400000000000002e-10,0.0,0.0,0.0,1.4400000000000002e-10,0.0,0.0,0.0,1.0,2
2025/04/01 17:52:31.9725458,1743522751,5151972,mA1/gps,0,1,63.43441706915926,10.392489450984224,0.0,1.4400000000000002e-10,0.0,0.0,0.0,1.4400000000000002e-10,0.0,0.0,0.0,1.0,2
2025/04/01 17:52:31.57526521,1743522751,54480820,mA1/gps,0,1,63.43441707173565,10.392489496957092,0.0,1.4400000000000002e-10,0.0,0.0,0.0,1.4400000000000002e-10,0.0,0.0,0.0,1.0,2
2025/04/01 17:52:31.57725699,1743522751,54480820,mA1/gps,0,1,63.43441707173565,10.392489496957092,0.0,1.4400000000000002e-10,0.0,0.0,0.0,1.4400000000000002e-10,0.0,0.0,0.0,1.0,2
2025/04/01 17:52:31.108014854,1743522751,106567994,mA1/gps,0,1,63.43441707227556,10.392489549612465,0.0,1.4400000000000002e-10,0.0,0.0,0.0,1.4400000000000002e-10,0.0,0.0,0.0,1.0,2
2025/04/01 17:52:31.108272359,1743522751,106567994,mA1/gps,0,1,63.43441707227556,10.392489549612465,0.0,1.4400000000000002e-10,0.0,0.0,0.0,1.4400000000000002e-10,0.0,0.0,0.0,1.0,2
2025/04/01 17:52:31.157072820,1743522751,156033204,mA1/gps,0,1,63.43441707354824,10.39248960529958,0.0,1.4400000000000002e-10,0.0,0.0,0.0,1.4400000000000002e-10,0.0,0.0,0.0,1.0,2
2025/04/01 17:52:31.157998251,1743522751,156033204,mA1/gps,0,1,63.43441707354824,10.39248960529958,0.0,1.4400000000000002e-10,0.0,0.0,0.0,1.4400000000000002e-10,0.0,0.0,0.0,1.0,2
2025/04/01 17:52:31.211338183,1743522751,209375295,mA1/gps,0,1,63.43441707636639,10.39248966166096,0.0,1.4400000000000002e-10,0.0,0.0,0.0,1.4400000000000002e-10,0.0,0.0,0.0,1.0,2
2025/04/01 17:52:31.211386455,1743522751,209375295,mA1/gps,0,1,63.43441707636639,10.39248966166096,0.0,1.4400000000000002e-10,0.0,0.0,0.0,1.4400000000000002e-10,0.0,0.0,0.0,1.0,2
2025/04/01 17:52:31.262325971,1743522751,259433656,mA1/gps,0,1,63.43441707628431,10.392489714877525,0.0,1.4400000000000002e-10,0.0,0.0,0.0,1.4400000000000002e-10,0.0,0.0,0.0,1.0,2
2025/04/01 17:52:31.263362571,1743522751,259433656,mA1/gps,0,1,63.43441707628431,10.392489714877525,0.0,1.4400000000000002e-10,0.0,0.0,0.0,1.4400000000000002e-10,0.0,0.0,0.0,1.0,2
2025/04/01 17:52:31.314152200,1743522751,311629086,mA1/gps,0,1,63.434417078177376,10.392489762243681,0.0,1.4400000000000002e-10,0.0,0.0,0.0,1.4400000000000002e-10,0.0,0.0,0.0,1.0,2
2025/04/01 17:52:31.314233056,1743522751,311629086,mA1/gps,0,1,63.434417078177376,10.392489762243681,0.0,1.4400000000000002e-10,0.0,0.0,0.0,1.4400000000000002e-10,0.0,0.0,0.0,1.0,2
2025/04/01 17:52:31.363719372,1743522751,361381387,mA1/gps,0,1,63.43441707929761,10.392489799679506,0.0,1.4400000000000002e-10,0.0,0.0,0.0,1.4400000000000002e-10,0.0,0.0,0.0,1.0,2
2025/04/01 17:52:31.368678196,1743522751,361381387,mA1/gps,0,1,63.43441707929761,10.392489799679506,0.0,1.4400000000000002e-10,0.0,0.0,0.0,1.4400000000000002e-10,0.0,0.0,0.0,1.0,2
2025/04/01 17:52:31.406162547,1743522751,403958839,mA1/gps,0,1,63.43441707856345,10.39248982669198,0.0,1.4400000000000002e-10,0.0,0.0,0.0,1.4400000000000002e-10,0.0,0.0,0.0,1.0,2
2025/04/01 17:52:31.407117554,1743522751,403958839,mA1/gps,0,1,63.43441707856345,10.39248982669198,0.0,1.4400000000000002e-10,0.0,0.0,0.0,1.4400000000000002e-10,0.0,0.0,0.0,1.0,2
2025/04/01 17:52:31.454710290,1743522751,453911177,mA1/gps,0,1,63.43441708099707,10.392489841886663,0.0,1.4400000000000002e-10,0.0,0.0,0.0,1.4400000000000002e-10,0.0,0.0,0.0,1.0,2
2025/04/01 17:52:31.457019380,1743522751,453911177,mA1/gps,0,1,63.43441708099707,10.392489841886663,0.0,1.4400000000000002e-10,0.0,0.0,0.0,1.4400000000000002e-10,0.0,0.0,0.0,1.0,2
2025/04/01 17:52:31.507800713,1743522751,504945533,mA1/gps,0,1,63.43441708269398,10.392489844434246,0.0,1.4400000000000002e-10,0.0,0.0,0.0,1.4400000000000002e-10,0.0,0.0,0.0,1.0,2
2025/04/01 17:52:31.507850524,1743522751,504945533,mA1/gps,0,1,63.43441708269398,10.392489844434246,0.0,1.4400000000000002e-10,0.0,0.0,0.0,1.4400000000000002e-10,0.0,0.0,0.0,1.0,2
2025/04/01 17:52:31.560451601,1743522751,557413924,mA1/gps,0,1,63.43441708127704,10.392489837410832,0.0,1.4400000000000002e-10,0.0,0.0,0.0,1.4400000000000002e-10,0.0,0.0,0.0,1.0,2
2025/04/01 17:52:31.560670876,1743522751,557413924,mA1/gps,0,1,63.43441708127704,10.392489837410832,0.0,1.4400000000000002e-10,0.0,0.0,0.0,1.4400000000000002e-10,0.0,0.0,0.0,1.0,2
2025/04/01 17:52:31.611063686,1743522751,609825373,mA1/gps,0,1,63.43441708221314,10.392489820398394,0.0,1.4400000000000002e-10,0.0,0.0,0.0,1.4400000000000002e-10,0.0,0.0,0.0,1.0,2
2025/04/01 17:52:31.613091803,1743522751,609825373,mA1/gps,0,1,63.43441708221314,10.392489820398394,0.0,1.4400000000000002e-10,0.0,0.0,0.0,1.4400000000000002e-10,0.0,0.0,0.0,1.0,2
2025/04/01 17:52:31.659731102,1743522751,658544265,mA1/gps,0,1,63.434417083868695,10.39248979610203,0.0,1.4400000000000002e-10,0.0,0.0,0.0,1.4400000000000002e-10,0.0,0.0,0.0,1.0,2
2025/04/01 17:52:31.659775291,1743522751,658544265,mA1/gps,0,1,63.434417083868695,10.39248979610203,0.0,1.4400000000000002e-10,0.0,0.0,0.0,1.4400000000000002e-10,0.0,0.0,0.0,1.0,2
2025/04/01 17:52:31.713669842,1743522751,710200722,mA1/gps,0,1,63.43441708458326,10.392489766581965,0.0,1.4400000000000002e-10,0.0,0.0,0.0,1.4400000000000002e-10,0.0,0.0,0.0,1.0,2
2025/04/01 17:52:31.715026187,1743522751,710200722,mA1/gps,0,1,63.43441708458326,10.392489766581965,0.0,1.4400000000000002e-10,0.0,0.0,0.0,1.4400000000000002e-10,0.0,0.0,0.0,1.0,2
2025/04/01 17:52:31.761477570,1743522751,759396249,mA1/gps,0,1,63.4344170841575,10.392489734252656,0.0,1.4400000000000002e-10,0.0,0.0,0.0,1.4400000000000002e-10,0.0,0.0,0.0,1.0,2
2025/04/01 17:52:31.761555854,1743522751,759396249,mA1/gps,0,1,63.4344170841575,10.392489734252656,0.0,1.4400000000000002e-10,0.0,0.0,0.0,1.4400000000000002e-10,0.0,0.0,0.0,1.0,2
2025/04/01 17:52:31.814480129,1743522751,811467826,mA1/gps,0,1,63.434417083116756,10.392489702857796,0.0,1.4400000000000002e-10,0.0,0.0,0.0,1.4400000000000002e-10,0.0,0.0,0.0,1.0,2
2025/04/01 17:52:31.815241111,1743522751,811467826,mA1/gps,0,1,63.434417083116756,10.392489702857796,0.0,1.4400000000000002e-10,0.0,0.0,0.0,1.4400000000000002e-10,0.0,0.0,0.0,1.0,2
2025/04/01 17:52:31.863861281,1743522751,861213189,mA1/gps,0,1,63.4344170834204,10.39248967381807,0.0,1.4400000000000002e-10,0.0,0.0,0.0,1.4400000000000002e-10,0.0,0.0,0.0,1.0,2
2025/04/01 17:52:31.863917501,1743522751,861213189,mA1/gps,0,1,63.4344170834204,10.39248967381807,0.0,1.4400000000000002e-10,0.0,0.0,0.0,1.4400000000000002e-10,0.0,0.0,0.0,1.0,2
2025/04/01 17:52:31.905025555,1743522751,902683834,mA1/gps,0,1,63.4344170824509,10.392489651214365,0.0,1.4400000000000002e-10,0.0,0.0,0.0,1.4400000000000002e-10,0.0,0.0,0.0,1.0,2
2025/04/01 17:52:31.905082748,1743522751,902683834,mA1/gps,0,1,63.4344170824509,10.392489651214365,0.0,1.4400000000000002e-10,0.0,0.0,0.0,1.4400000000000002e-10,0.0,0.0,0.0,1.0,2
2025/04/01 17:52:31.954493517,1743522751,952271897,mA1/gps,0,1,63.434417083544034,10.392489634670905,0.0,1.4400000000000002e-10,0.0,0.0,0.0,1.4400000000000002e-10,0.0,0.0,0.0,1.0,2
2025/04/01 17:52:31.954613283,1743522751,952271897,mA1/gps,0,1,63.434417083544034,10.392489634670905,0.0,1.4400000000000002e-10,0.0,0.0,0.0,1.4400000000000002e-10,0.0,0.0,0.0,1.0,2
2025/04/01 17:52:32.8547595,1743522752,7237708,mA1/gps,0,1,63.43441708346964,10.3924896268871,0.0,1.4400000000000002e-10,0.0,0.0,0.0,1.4400000000000002e-10,0.0,0.0,0.0,1.0,2
2025/04/01 17:52:32.9460755,1743522752,7237708,mA1/gps,0,1,63.43441708346964,10.3924896268871,0.0,1.4400000000000002e-10,0.0,0.0,0.0,1.4400000000000002e-10,0.0,0.0,0.0,1.0,2
2025/04/01 17:52:32.59449483,1743522752,57065998,mA1/gps,0,1,63.4344170829684,10.39248962771599,0.0,1.4400000000000002e-10,0.0,0.0,0.0,1.4400000000000002e-10,0.0,0.0,0.0,1.0,2
2025/04/01 17:52:32.59581556,1743522752,57065998,mA1/gps,0,1,63.4344170829684,10.39248962771599,0.0,1.4400000000000002e-10,0.0,0.0,0.0,1.4400000000000002e-10,0.0,0.0,0.0,1.0,2
2025/04/01 17:52:32.109275289,1743522752,108005365,mA1/gps,0,1,63.43441708326448,10.39248963905139,0.0,1.4400000000000002e-10,0.0,0.0,0.0,1.4400000000000002e-10,0.0,0.0,0.0,1.0,2
2025/04/01 17:52:32.109791924,1743522752,108005365,mA1/gps,0,1,63.43441708326448,10.39248963905139,0.0,1.4400000000000002e-10,0.0,0.0,0.0,1.4400000000000002e-10,0.0,0.0,0.0,1.0,2
2025/04/01 17:52:32.160637541,1743522752,158132199,mA1/gps,0,1,63.43441708423028,10.392489661522308,0.0,1.4400000000000002e-10,0.0,0.0,0.0,1.4400000000000002e-10,0.0,0.0,0.0,1.0,2
2025/04/01 17:52:32.160694171,1743522752,158132199,mA1/gps,0,1,63.43441708423028,10.392489661522308,0.0,1.4400000000000002e-10,0.0,0.0,0.0,1.4400000000000002e-10,0.0,0.0,0.0,1.0,2
2025/04/01 17:52:32.210980174,1743522752,209654281,mA1/gps,0,1,63.434417084254754,10.392489694344125,0.0,1.4400000000000002e-10,0.0,0.0,0.0,1.4400000000000002e-10,0.0,0.0,0.0,1.0,2
2025/04/01 17:52:32.211307281,1743522752,209654281,mA1/gps,0,1,63.434417084254754,10.392489694344125,0.0,1.4400000000000002e-10,0.0,0.0,0.0,1.4400000000000002e-10,0.0,0.0,0.0,1.0,2
2025/04/01 17:52:32.260906332,1743522752,259416438,mA1/gps,0,1,63.43441708492638,10.392489736317355,0.0,1.4400000000000002e-10,0.0,0.0,0.0,1.4400000000000002e-10,0.0,0.0,0.0,1.0,2
2025/04/01 17:52:32.261319798,1743522752,259416438,mA1/gps,0,1,63.43441708492638,10.392489736317355,0.0,1.4400000000000002e-10,0.0,0.0,0.0,1.4400000000000002e-10,0.0,0.0,0.0,1.0,2
2025/04/01 17:52:32.315016845,1743522752,312788129,mA1/gps,0,1,63.43441708604096,10.39248978716977,0.0,1.4400000000000002e-10,0.0,0.0,0.0,1.4400000000000002e-10,0.0,0.0,0.0,1.0,2
2025/04/01 17:52:32.316019471,1743522752,312788129,mA1/gps,0,1,63.43441708604096,10.39248978716977,0.0,1.4400000000000002e-10,0.0,0.0,0.0,1.4400000000000002e-10,0.0,0.0,0.0,1.0,2
2025/04/01 17:52:32.356676897,1743522752,354726347,mA1/gps,0,1,63.434417087058,10.392489843965592,0.0,1.4400000000000002e-10,0.0,0.0,0.0,1.4400000000000002e-10,0.0,0.0,0.0,1.0,2
