time,header_stamp_secs,header_stamp_nsecs,header_frame_id,quaternion_x,quaternion_y,quaternion_z,quaternion_w
2025/04/01 17:52:24.175167951,1743522744,172273066,,0.001529325430371073,-6.306430855452928e-05,-0.0005584639786737528,0.9999986726514218
2025/04/01 17:52:24.290886989,1743522744,272267894,,0.00010448992809215282,-4.8583997079598274e-05,-0.0005073062429588549,0.9999998646809038
2025/04/01 17:52:24.290986217,1743522744,277616927,,0.00010448992809215282,-4.8583997079598274e-05,-0.0005073062429588549,0.9999998646809038
2025/04/01 17:52:24.374834600,1743522744,372840206,,-0.001323125598045826,-1.574197184460348e-05,-0.00045213107403032043,0.9999990223336891
2025/04/01 17:52:24.375560860,1743522744,374447612,,-0.001323125598045826,-1.574197184460348e-05,-0.00045213107403032043,0.9999990223336891
2025/04/01 17:52:24.484792484,1743522744,472202865,,-0.0024324403959036785,4.954158651296282e-07,-0.00039292799643287973,0.9999969644159249
2025/04/01 17:52:24.487803806,1743522744,472255294,,-0.0024324403959036785,4.954158651296282e-07,-0.00039292799643287973,0.9999969644159249
2025/04/01 17:52:24.585537710,1743522744,572200286,,-0.002978599367349219,2.8864612478073118e-05,-0.00033043573807606263,0.9999955089523482
2025/04/01 17:52:24.585665347,1743522744,572621563,,-0.002978599367349219,2.8864612478073118e-05,-0.00033043573807606263,0.9999955089523482
2025/04/01 17:52:24.700564487,1743522744,675338950,,-0.002866447895128581,3.408541875457276e-05,-0.0002652423142542063,0.9999958559719953
2025/04/01 17:52:24.700874425,1743522744,677930549,,-0.002866447895128581,3.408541875457276e-05,-0.0002652423142542063,0.9999958559719953
2025/04/01 17:52:24.807582678,1743522744,765607469,,-0.0021440055358435913,4.587351354849903e-05,-0.00019712660594441178,0.9999976811358036
2025/04/01 17:52:24.807706792,1743522744,766451376,,-0.0021440055358435913,4.587351354849903e-05,-0.00019712660594441178,0.9999976811358036
2025/04/01 17:52:24.876639301,1743522744,868383664,,-0.0009473419669079566,3.36686353428872e-05,-0.0001261870046873662,0.9999995427431257
2025/04/01 17:52:24.876742211,1743522744,869408046,,-0.0009473419669079566,3.36686353428872e-05,-0.0001261870046873662,0.9999995427431257
2025/04/01 17:52:24.969245285,1743522744,968281407,,0.0004380866093212751,3.107886099680537e-05,-5.0473757262403015e-05,0.9999999022833087
2025/04/01 17:52:24.972285069,1743522744,970815550,,0.0004380866093212751,3.107886099680537e-05,-5.0473757262403015e-05,0.9999999022833087
2025/04/01 17:52:25.71874056,1743522745,71050114,,0.0016956772820891962,7.857931885943894e-06,2.922850243620477e-05,0.9999985618802172
2025/04/01 17:52:25.72527173,1743522745,71859749,,0.0016956772820891962,7.857931885943894e-06,2.922850243620477e-05,0.9999985618802172
2025/04/01 17:52:25.171117008,1743522745,170611009,,0.002571366517597385,2.6322788362566004e-07,0.00011091568072435785,0.9999966878804523
2025/04/01 17:52:25.174256803,1743522745,172110021,,0.002571366517597385,2.6322788362566004e-07,0.00011091568072435785,0.9999966878804523
2025/04/01 17:52:25.276857243,1743522745,273832282,,0.00287324958822719,-2.033188022391801e-05,0.00019385099250373983,0.9999958532140076
2025/04/01 17:52:25.278708838,1743522745,278136351,,0.00287324958822719,-2.033188022391801e-05,0.00019385099250373983,0.9999958532140076
2025/04/01 17:52:25.374294400,1743522745,373247841,,0.0025421598469185644,-2.0546218155514557e-05,0.00027925675009842876,0.9999967295030685
2025/04/01 17:52:25.376835469,1743522745,374740084,,0.0025421598469185644,-2.0546218155514557e-05,0.00027925675009842876,0.9999967295030685
2025/04/01 17:52:25.466876063,1743522745,465773593,,0.0016047928330024722,-2.9481669783976218e-05,0.0003667895313744745,0.9999986446171985
2025/04/01 17:52:25.467054575,1743522745,466121463,,0.0016047928330024722,-2.9481669783976218e-05,0.0003667895313744745,0.9999986446171985
2025/04/01 17:52:25.572419523,1743522745,571492758,,0.0002886130927123925,-1.4963067956969044e-05,0.0004553334953710976,0.9999998545749881
2025/04/01 17:52:25.574342283,1743522745,572678124,,0.0002886130927123925,-1.4963067956969044e-05,0.0004553334953710976,0.9999998545749881
2025/04/01 17:52:25.665089276,1743522745,664368512,,-0.00109867007824041,-8.539831499887624e-06,0.0005401930907976726,0.9999992505209967
2025/04/01 17:52:25.668827966,1743522745,664809211,,-0.00109867007824041,-8.539831499887624e-06,0.0005401930907976726,0.9999992505209967
2025/04/01 17:52:25.769857973,1743522745,767815430,,-0.002256403077008219,2.0502227857763993e-05,0.0006193616996344488,0.9999972623042014
2025/04/01 17:52:25.769979405,1743522745,768170079,,-0.002256403077008219,2.0502227857763993e-05,0.0006193616996344488,0.9999972623042014
2025/04/01 17:52:25.877436145,1743522745,873494437,,-0.00294711051011235,3.503177929775148e-05,0.0006968906911695007,0.9999954138173736
2025/04/01 17:52:25.880674272,1743522745,875690776,,-0.00294711051011235,3.503177929775148e-05,0.0006968906911695007,0.9999954138173736
2025/04/01 17:52:25.967965986,1743522745,966173819,,-0.0030765751147091066,6.293656249389523e-05,0.0007701179120414234,0.9999949688088207
2025/04/01 17:52:25.968780127,1743522745,966974102,,-0.0030765751147091066,6.293656249389523e-05,0.0007701179120414234,0.9999949688088207
2025/04/01 17:52:26.68389541,1743522746,67015889,,-0.0026838986469503124,7.195501039288407e-05,0.0008410250715098632,0.9999960420858467
2025/04/01 17:52:26.70003044,1743522746,67839989,,-0.0026838986469503124,7.195501039288407e-05,0.0008410250715098632,0.9999960420858467
2025/04/01 17:52:26.168830989,1743522746,168393050,,-0.0019742965560394362,8.43994081428851e-05,0.0009017603916461998,0.9999976409262398
2025/04/01 17:52:26.168899756,1743522746,168393103,,-0.0019742965560394362,8.43994081428851e-05,0.0009017603916461998,0.9999976409262398
2025/04/01 17:52:26.273487273,1743522746,272438972,,-0.0011246764326653584,7.67614386544169e-05,0.0009593451791893252,0.9999989044331151
2025/04/01 17:52:26.274737687,1743522746,273500505,,-0.0011246764326653584,7.67614386544169e-05,0.0009593451791893252,0.9999989044331151
2025/04/01 17:52:26.365884253,1743522746,365076426,,-0.00032522821430751395,7.555126585159814e-05,0.001012996647314633,0.9999994311780419
2025/04/01 17:52:26.369470612,1743522746,366461461,,-0.00032522821430751395,7.555126585159814e-05,0.001012996647314633,0.9999994311780419
2025/04/01 17:52:26.471678997,1743522746,471250899,,0.0002542161984656584,4.2724148200669726e-05,0.001063704150911604,0.9999994010409461
2025/04/01 17:52:26.471721705,1743522746,471298202,,0.0002542161984656584,4.2724148200669726e-05,0.001063704150911604,0.9999994010409461
2025/04/01 17:52:26.564384812,1743522746,563485551,,0.0004986120345487403,1.2737292187621383e-05,0.0011129697149568948,0.9999992562608304
2025/04/01 17:52:26.566933506,1743522746,564866013,,0.0004986120345487403,1.2737292187621383e-05,0.0011129697149568948,0.9999992562608304
2025/04/01 17:52:26.669244493,1743522746,666957643,,0.00037105238846981006,-1.3558356332209392e-05,0.0011624196160715055,0.9999992554581889
2025/04/01 17:52:26.671405377,1743522746,668606257,,0.00037105238846981006,-1.3558356332209392e-05,0.0011624196160715055,0.9999992554581889
2025/04/01 17:52:26.768579202,1743522746,768058351,,-5.685639019874853e-05,-2.3571759095974957e-05,0.0012142289185691373,0.9999992609296551
2025/04/01 17:52:26.769843539,1743522746,769517148,,-5.685639019874853e-05,-2.3571759095974957e-05,0.0012142289185691373,0.9999992609296551
2025/04/01 17:52:26.871565493,1743522746,869716621,,-0.0005899192926354955,-4.609136933040727e-05,0.0012651954614762415,0.9999990245751533
2025/04/01 17:52:26.871662849,1743522746,870134743,,-0.0005899192926354955,-4.609136933040727e-05,0.0012651954614762415,0.9999990245751533
2025/04/01 17:52:26.971607655,1743522746,971326468,,-0.001023645434049746,-7.798125963033806e-05,0.0013109676922868588,0.9999986137153682
2025/04/01 17:52:26.973728494,1743522746,972296962,,-0.001023645434049746,-7.798125963033806e-05,0.0013109676922868588,0.9999986137153682
2025/04/01 17:52:27.65959005,1743522747,64611993,,-0.0012639734821333758,-7.171587041151961e-05,0.0013513422247114634,0.9999982855495614
2025/04/01 17:52:27.66034271,1743522747,64660886,,-0.0012639734821333758,-7.171587041151961e-05,0.0013513422247114634,0.9999982855495614
2025/04/01 17:52:27.168721735,1743522747,167207304,,-0.0012660970480908456,-6.696349990503921e-05,0.0013860779059892913,0.99999823564954
2025/04/01 17:52:27.169759228,1743522747,167268108,,-0.0012660970480908456,-6.696349990503921e-05,0.0013860779059892913,0.99999823564954
2025/04/01 17:52:27.269826014,1743522747,269536362,,-0.0010497536013464373,-6.756424059873923e-05,0.0014159606450847636,0.9999984442527405
2025/04/01 17:52:27.272793212,1743522747,272176347,,-0.0010497536013464373,-6.756424059873923e-05,0.0014159606450847636,0.9999984442527405
2025/04/01 17:52:27.372809041,1743522747,371759101,,-0.0006901946305585067,-6.526746411529601e-05,0.001443837530407584,0.9999987173515353
2025/04/01 17:52:27.372848084,1743522747,371902681,,-0.0006901946305585067,-6.526746411529601e-05,0.001443837530407584,0.9999987173515353
2025/04/01 17:52:27.464951770,1743522747,463308326,,-0.00026115355125185506,-3.7483280649092575e-05,0.001469453910971829,0.9999988855488939
2025/04/01 17:52:27.467654725,1743522747,464516644,,-0.00026115355125185506,-3.7483280649092575e-05,0.001469453910971829,0.9999988855488939
2025/04/01 17:52:27.568857899,1743522747,567133822,,0.00015323010413331956,-8.900098349648473e-07,0.0014893090406135822,0.9999988792385343
2025/04/01 17:52:27.568950708,1743522747,567414006,,0.00015323010413331956,-8.900098349648473e-07,0.0014893090406135822,0.9999988792385343
2025/04/01 17:52:27.670007249,1743522747,668710273,,0.0003968640903101678,2.316112254574206e-05,0.001505119007468501,0.9999987882888807
2025/04/01 17:52:27.670921604,1743522747,669253084,,0.0003968640903101678,2.316112254574206e-05,0.001505119007468501,0.9999987882888807
2025/04/01 17:52:27.769484433,1743522747,769263012,,0.00041230905242772305,3.642387342626648e-05,0.0015170138731745127,0.9999987636709634
2025/04/01 17:52:27.775750840,1743522747,770982137,,0.00041230905242772305,3.642387342626648e-05,0.0015170138731745127,0.9999987636709634
2025/04/01 17:52:27.871315873,1743522747,871072078,,0.0001983807818058955,6.428818358346252e-05,0.0015254794641012146,0.9999988147115473
2025/04/01 17:52:27.872833773,1743522747,871196246,,0.0001983807818058955,6.428818358346252e-05,0.0015254794641012146,0.9999988147115473
2025/04/01 17:52:27.976355839,1743522747,973134782,,-0.00018474811619994315,8.132971966872422e-05,0.0015325918197543616,0.9999988052072484
2025/04/01 17:52:27.978248812,1743522747,974638573,,-0.00018474811619994315,8.132971966872422e-05,0.0015325918197543616,0.9999988052072484
2025/04/01 17:52:28.68205342,1743522748,63583280,,-0.0006442886821496283,6.455893643362266e-05,0.0015425864399236135,0.9999986005746774
2025/04/01 17:52:28.68294597,1743522748,64780283,,-0.0006442886821496283,6.455893643362266e-05,0.0015425864399236135,0.9999986005746774
2025/04/01 17:52:28.167076677,1743522748,165513876,,-0.0010711940141426431,4.343560055893394e-05,0.001555153370523012,0.9999982160757722
2025/04/01 17:52:28.167176104,1743522748,165537687,,-0.0010711940141426431,4.343560055893394e-05,0.001555153370523012,0.9999982160757722
2025/04/01 17:52:28.271022738,1743522748,268828517,,-0.0013398314973464148,3.125483700758639e-05,0.001565754269163727,0.9999978761418759
2025/04/01 17:52:28.271121089,1743522748,269060380,,-0.0013398314973464148,3.125483700758639e-05,0.001565754269163727,0.9999978761418759
2025/04/01 17:52:28.365626711,1743522748,363869902,,-0.001422176626668172,1.0681120104304325e-05,0.0015716966245071552,0.9999977535321151
2025/04/01 17:52:28.365712646,1743522748,363979550,,-0.001422176626668172,1.0681120104304325e-05,0.0015716966245071552,0.9999977535321151
2025/04/01 17:52:28.468445724,1743522748,467532466,,-0.001376616700776093,-1.8639338383243872e-05,0.0015723591835770888,0.9999978161304314
2025/04/01 17:52:28.468918107,1743522748,467760087,,-0.001376616700776093,-1.8639338383243872e-05,0.0015723591835770888,0.9999978161304314
2025/04/01 17:52:28.568520558,1743522748,568352359,,-0.00122211403370684,-4.010556444579065e-05,0.0015701218137440685,0.9999980197712005
2025/04/01 17:52:28.572256378,1743522748,570712424,,-0.00122211403370684,-4.010556444579065e-05,0.0015701218137440685,0.9999980197712005
2025/04/01 17:52:28.670498298,1743522748,669169986,,-0.0009948991590587805,-5.3744738218273145e-05,0.0015668516266326468,0.9999982761300874
2025/04/01 17:52:28.670579282,1743522748,669698827,,-0.0009948991590587805,-5.3744738218273145e-05,0.0015668516266326468,0.9999982761300874
2025/04/01 17:52:28.777556316,1743522748,766536119,,-0.0007399814859179836,-4.031543619907442e-05,0.0015659460993959866,0.9999984993063139
2025/04/01 17:52:28.778185295,1743522748,768358300,,-0.0007399814859179836,-4.031543619907442e-05,0.0015659460993959866,0.9999984993063139
2025/04/01 17:52:28.870835412,1743522748,870339446,,-0.0004973140952259595,-3.868571176563905e-05,0.00156384852927595,0.9999986527790344
2025/04/01 17:52:28.871975758,1743522748,871728027,,-0.0004973140952259595,-3.868571176563905e-05,0.00156384852927595,0.9999986527790344
2025/04/01 17:52:28.975541968,1743522748,974062173,,-0.00030744994343984204,-3.556205505347532e-05,0.0015601382755397511,0.9999987350884169
2025/04/01 17:52:28.975746230,1743522748,972840957,,-0.00030744994343984204,-3.556205505347532e-05,0.0015601382755397511,0.9999987350884169
2025/04/01 17:52:29.72829084,1743522749,71346506,,-0.0002001765952052201,-1.343339432520394e-05,0.0015527395832586068,0.9999987743735795
2025/04/01 17:52:29.74359958,1743522749,71353346,,-0.0002001765952052201,-1.343339432520394e-05,0.0015527395832586068,0.9999987743735795
2025/04/01 17:52:29.170938143,1743522749,170506424,,-0.00017575819672452912,2.052093791027817e-05,0.0015419490699948057,0.9999987955397811
2025/04/01 17:52:29.172149375,1743522749,170657712,,-0.00017575819672452912,2.052093791027817e-05,0.0015419490699948057,0.9999987955397811
2025/04/01 17:52:29.273017307,1743522749,271271177,,-0.00023855242123035312,2.784255645494636e-05,0.0015288287447637894,0.9999988024993848
2025/04/01 17:52:29.273675436,1743522749,271668282,,-0.00023855242123035312,2.784255645494636e-05,0.0015288287447637894,0.9999988024993848
2025/04/01 17:52:29.365212553,1743522749,363548648,,-0.000372530208112554,3.180307259408823e-05,0.0015137316221790138,0.9999987844124535
2025/04/01 17:52:29.367916918,1743522749,363771355,,-0.000372530208112554,3.180307259408823e-05,0.0015137316221790138,0.9999987844124535
2025/04/01 17:52:29.468180772,1743522749,465891172,,-0.0005372745705983894,3.722825220535947e-05,0.001496181164183495,0.9999987356952093
2025/04/01 17:52:29.468647450,1743522749,466498177,,-0.0005372745705983894,3.722825220535947e-05,0.001496181164183495,0.9999987356952093
2025/04/01 17:52:29.569825948,1743522749,568228415,,-0.0006770964554068032,4.608321880466977e-05,0.001476024395078185,0.9999986803834854
2025/04/01 17:52:29.570023828,1743522749,568725891,,-0.0006770964554068032,4.608321880466977e-05,0.001476024395078185,0.9999986803834854
2025/04/01 17:52:29.678483836,1743522749,671899159,,-0.0007512343091233593,2.4029600195250494e-05,0.0014532505840422667,0.9999986615652698
2025/04/01 17:52:29.678901588,1743522749,672701812,,-0.0007512343091233593,2.4029600195250494e-05,0.0014532505840422667,0.9999986615652698
2025/04/01 17:52:29.772668338,1743522749,772452171,,-0.0007300354938586404,1.2787274152883225e-07,0.00143159566522618,0.9999987087901727
2025/04/01 17:52:29.772824410,1743522749,772522420,,-0.0007300354938586404,1.2787274152883225e-07,0.00143159566522618,0.9999987087901727
2025/04/01 17:52:29.868662780,1743522749,865447389,,-0.0005903956126022483,-1.514995908564676e-05,0.0014099220424743917,0.9999988316609842
2025/04/01 17:52:29.868733410,1743522749,867746701,,-0.0005903956126022483,-1.514995908564676e-05,0.0014099220424743917,0.9999988316609842
2025/04/01 17:52:29.973014502,1743522749,970288203,,-0.0003232042672604295,-1.4684555478329392e-05,0.0013825265580602172,0.9999989919713328
2025/04/01 17:52:29.973623152,1743522749,971535007,,-0.0003232042672604295,-1.4684555478329392e-05,0.0013825265580602172,0.9999989919713328
2025/04/01 17:52:30.64850447,1743522750,64667041,,-4.5315079821442e-06,-3.209530756762244e-05,0.001353099547758214,0.9999990840350658
2025/04/01 17:52:30.66034656,1743522750,65311208,,-4.5315079821442e-06,-3.209530756762244e-05,0.001353099547758214,0.9999990840350658
2025/04/01 17:52:30.170657248,1743522750,169119868,,0.0002557979717884742,-3.944208792588577e-05,0.001322068631298654,0.999999092572715
2025/04/01 17:52:30.173329023,1743522750,171755126,,0.0002557979717884742,-3.944208792588577e-05,0.001322068631298654,0.999999092572715
2025/04/01 17:52:30.271121936,1743522750,270191065,,0.00032795090264239033,-2.95498937704076e-05,0.0012898294159864852,0.9999991139571509
2025/04/01 17:52:30.271745064,1743522750,270947238,,0.00032795090264239033,-2.95498937704076e-05,0.0012898294159864852,0.9999991139571509
2025/04/01 17:52:30.373888551,1743522750,372085006,,0.0001713653256993291,-8.255021702027964e-07,0.001256059103905524,0.9999991964740628
2025/04/01 17:52:30.375471708,1743522750,372112650,,0.0001713653256993291,-8.255021702027964e-07,0.001256059103905524,0.9999991964740628
2025/04/01 17:52:30.465407523,1743522750,463215727,,-0.00022753212656763267,1.1270536126201428e-05,0.0012217645034162672,0.9999992276965041
2025/04/01 17:52:30.466551079,1743522750,464004283,,-0.00022753212656763267,1.1270536126201428e-05,0.0012217645034162672,0.9999992276965041
2025/04/01 17:52:30.567634271,1743522750,566233901,,-0.0007375817364811492,2.7227077714151075e-05,0.0011863921275492239,0.9999990238523175
2025/04/01 17:52:30.567722314,1743522750,566324400,,-0.0007375817364811492,2.7227077714151075e-05,0.0011863921275492239,0.9999990238523175
2025/04/01 17:52:30.669058332,1743522750,667341884,,-0.0012050721722011142,5.090952856627568e-05,0.0011447947256709478,0.999998617326202
2025/04/01 17:52:30.669161480,1743522750,667386881,,-0.0012050721722011142,5.090952856627568e-05,0.0011447947256709478,0.999998617326202
2025/04/01 17:52:30.773131614,1743522750,772558292,,-0.0015037325611076324,6.957057261221475e-05,0.0011026790283134265,0.9999982590221248
2025/04/01 17:52:30.774177389,1743522750,773099164,,-0.0015037325611076324,6.957057261221475e-05,0.0011026790283134265,0.9999982590221248
2025/04/01 17:52:30.873303455,1743522750,871870160,,-0.001577242254410681,6.92385504565986e-05,0.0010630358361082995,0.9999981887322122
2025/04/01 17:52:30.874606702,1743522750,872655645,,-0.001577242254410681,6.92385504565986e-05,0.0010630358361082995,0.9999981887322122
2025/04/01 17:52:30.967046505,1743522750,964791824,,-0.0013850507425390115,5.3163785181325325e-05,0.0010298684746845798,0.9999985090883773
2025/04/01 17:52:30.967137698,1743522750,965686638,,-0.0013850507425390115,5.3163785181325325e-05,0.0010298684746845798,0.9999985090883773
2025/04/01 17:52:31.66408987,1743522751,65924647,,-0.0008917964828039275,3.604033701621243e-05,0.0009945108964350465,0.9999991071737035
2025/04/01 17:52:31.70926930,1743522751,70334695,,-0.0008917964828039275,3.604033701621243e-05,0.0009945108964350465,0.9999991071737035
2025/04/01 17:52:31.169107695,1743522751,168815539,,-0.00017226825862363368,1.950989922878885e-05,0.0009508763083076165,0.9999995328885195
2025/04/01 17:52:31.174223108,1743522751,169374094,,-0.00017226825862363368,1.950989922878885e-05,0.0009508763083076165,0.9999995328885195
2025/04/01 17:52:31.274432563,1743522751,272078908,,0.0005635701556164657,-2.2222252437429716e-05,0.0009069101748105262,0.9999994297042304
2025/04/01 17:52:31.277411194,1743522751,275376758,,0.0005635701556164657,-2.2222252437429716e-05,0.0009069101748105262,0.9999994297042304
2025/04/01 17:52:31.364096301,1743522751,363187365,,0.0010630416403312052,-5.347110753039301e-05,0.0008642116801482552,0.9999990601103
2025/04/01 17:52:31.364403654,1743522751,364218021,,0.0010630416403312052,-5.347110753039301e-05,0.0008642116801482552,0.9999990601103
2025/04/01 17:52:31.467695681,1743522751,465529564,,0.0011674035205732406,-5.830863489824815e-05,0.0008220451390852837,0.9999989790049351
2025/04/01 17:52:31.467934467,1743522751,465545687,,0.0011674035205732406,-5.830863489824815e-05,0.0008220451390852837,0.9999989790049351
2025/04/01 17:52:31.570825872,1743522751,570093464,,0.0008726713077632669,-6.799571286466002e-05,0.000779741802288719,0.9999993129118107
2025/04/01 17:52:31.572551295,1743522751,571825537,,0.0008726713077632669,-6.799571286466002e-05,0.000779741802288719,0.9999993129118107
2025/04/01 17:52:31.671771762,1743522751,671033719,,0.00026575226308123357,-5.8830302300600314e-05,0.0007369251237364714,0.9999996914279985
2025/04/01 17:52:31.674352731,1743522751,672182513,,0.00026575226308123357,-5.8830302300600314e-05,0.0007369251237364714,0.9999996914279985
2025/04/01 17:52:31.772441755,1743522751,771061925,,-0.0005043449853000322,-4.3076271165003557e-05,0.0006952886740027343,0.9999996301770468
2025/04/01 17:52:31.772652708,1743522751,771107799,,-0.0005043449853000322,-4.3076271165003557e-05,0.0006952886740027343,0.9999996301770468
2025/04/01 17:52:31.874243289,1743522751,872922532,,-0.001244724698861425,-1.3683717336673149e-05,0.0006568860980399537,0.9999990094864265
2025/04/01 17:52:31.874342176,1743522751,873202606,,-0.001244724698861425,-1.3683717336673149e-05,0.0006568860980399537,0.9999990094864265
2025/04/01 17:52:31.964426550,1743522751,964154179,,-0.0017925841013480303,2.27492114730931e-05,0.0006181136850125744,0.9999982020284763
2025/04/01 17:52:31.965714855,1743522751,965115987,,-0.0017925841013480303,2.27492114730931e-05,0.0006181136850125744,0.9999982020284763
2025/04/01 17:52:32.70862060,1743522752,69202223,,-0.0020761938209158236,4.613970150604388e-05,0.0005794652293813841,0.9999976757524959
2025/04/01 17:52:32.70948881,1743522752,69194168,,-0.0020761938209158236,4.613970150604388e-05,0.0005794652293813841,0.9999976757524959
2025/04/01 17:52:32.171923495,1743522752,170063954,,-0.0020164166441382927,6.654782540936926e-05,0.0005430054934009868,0.9999978173877873
2025/04/01 17:52:32.172321880,1743522752,172107554,,-0.0020164166441382927,6.654782540936926e-05,0.0005430054934009868,0.9999978173877873
2025/04/01 17:52:32.272249126,1743522752,270796469,,-0.0016193389140471328,7.127130511152371e-05,0.000507250390847754,0.9999985576784216
2025/04/01 17:52:32.272328980,1743522752,270939883,,-0.0016193389140471328,7.127130511152371e-05,0.000507250390847754,0.9999985576784216
2025/04/01 17:52:32.366097954,1743522752,365686917,,-0.0009678270228858486,5.978929285575988e-05,0.00047238932966465704,0.9999994182920385
2025/04/01 17:52:32.366434602,1743522752,365706379,,-0.0009678270228858486,5.978929285575988e-05,0.00047238932966465704,0.9999994182920385
2025/04/01 17:52:32.469703080,1743522752,466816031,,-0.00021721418056050277,3.6925008522900555e-05,0.00043794749959936296,0.9999998798282583
2025/04/01 17:52:32.470450937,1743522752,468068234,,-0.00021721418056050277,3.6925008522900555e-05,0.00043794749959936296,0.9999998798282583
2025/04/01 17:52:32.570473494,1743522752,568943688,,0.0004720503716220494,1.7757616411312543e-05,0.0004038717756306345,0.9999998068703326
2025/04/01 17:52:32.570563383,1743522752,569119608,,0.0004720503716220494,1.7757616411312543e-05,0.0004038717756306345,0.9999998068703326
2025/04/01 17:52:32.672507462,1743522752,670444708,,0.0009533045832730459,-2.028934207327994e-05,0.0003700456208979662,0.9999994769323395
2025/04/01 17:52:32.672572274,1743522752,670400706,,0.0009533045832730459,-2.028934207327994e-05,0.0003700456208979662,0.9999994769323395
2025/04/01 17:52:32.773766041,1743522752,772017473,,0.0011358197272745532,-4.647920972605517e-05,0.0003360880936753515,0.9999992973987649
2025/04/01 17:52:32.774725943,1743522752,773207805,,0.0011358197272745532,-4.647920972605517e-05,0.0003360880936753515,0.9999992973987649
2025/04/01 17:52:32.867818400,1743522752,865493422,,0.000993696255485794,-5.370615591278223e-05,0.0003038852537013646,0.9999994586684301
2025/04/01 17:52:32.868704522,1743522752,866891772,,0.000993696255485794,-5.370615591278223e-05,0.0003038852537013646,0.9999994586684301
2025/04/01 17:52:32.971325266,1743522752,969529811,,0.0005826328899325132,-7.277924777010919e-05,0.0002713721287352078,0.9999997907996103
2025/04/01 17:52:32.974260259,1743522752,969752668,,0.0005826328899325132,-7.277924777010919e-05,0.0002713721287352078,0.9999997907996103
2025/04/01 17:52:33.71011002,1743522753,70607390,,1.1472455802330029e-05,-6.624062780360727e-05,0.00023557146317305545,0.9999999699933234
2025/04/01 17:52:33.71301910,1743522753,70740342,,1.1472455802330029e-05,-6.624062780360727e-05,0.00023557146317305545,0.9999999699933234
2025/04/01 17:52:33.166383529,1743522753,164413381,,-0.000552102806810746,-4.76038003080121e-05,0.00019922163286598772,0.9999998266135399
2025/04/01 17:52:33.167402420,1743522753,166356718,,-0.000552102806810746,-4.76038003080121e-05,0.00019922163286598772,0.9999998266135399
2025/04/01 17:52:33.267154669,1743522753,265945563,,-0.0009070400881938945,-3.214702877478153e-05,0.00016247217663511882,0.999999574923729
2025/04/01 17:52:33.270052729,1743522753,268670059,,-0.0009070400881938945,-3.214702877478153e-05,0.00016247217663511882,0.999999574923729
2025/04/01 17:52:33.367218582,1743522753,367042039,,-0.0009888456881073325,-2.769111554011662e-07,0.00012703907073662217,0.999999503022478
2025/04/01 17:52:33.369847017,1743522753,367898079,,-0.0009888456881073325,-2.769111554011662e-07,0.00012703907073662217,0.999999503022478
2025/04/01 17:52:33.470535718,1743522753,468802208,,-0.0008293255846581495,2.740799852703958e-05,9.322294911695186e-05,0.9999996513886182
2025/04/01 17:52:33.470632761,1743522753,468813064,,-0.0008293255846581495,2.740799852703958e-05,9.322294911695186e-05,0.9999996513886182
2025/04/01 17:52:33.572508312,1743522753,572179555,,-0.00046364002155623783,5.004158424589926e-05,6.254861870446152e-05,0.9999998893107142
2025/04/01 17:52:33.574405296,1743522753,573285839,,-0.00046364002155623783,5.004158424589926e-05,6.254861870446152e-05,0.9999998893107142
2025/04/01 17:52:33.665012834,1743522753,663676961,,3.891699440009327e-05,6.145575779181416e-05,3.315491390733105e-05,0.9999999968047045
2025/04/01 17:52:33.665331136,1743522753,663767398,,3.891699440009327e-05,6.145575779181416e-05,3.315491390733105e-05,0.9999999968047045
2025/04/01 17:52:33.773794568,1743522753,767259541,,0.0005661715545675571,6.319439299394657e-05,9.068265232362188e-06,0.9999998376869899
2025/04/01 17:52:33.773882335,1743522753,770375249,,0.0005661715545675571,6.319439299394657e-05,9.068265232362188e-06,0.9999998376869899
2025/04/01 17:52:33.870856118,1743522753,870669716,,0.0010012413569024765,5.5108967553532934e-05,-1.39929085784745e-05,0.9999994971413463
2025/04/01 17:52:33.873754580,1743522753,873587168,,0.0010012413569024765,5.5108967553532934e-05,-1.39929085784745e-05,0.9999994971413463
2025/04/01 17:52:33.967188601,1743522753,964706121,,0.001189043855791619,4.269191199750357e-05,-3.62381718397513e-05,0.9999992915192013
2025/04/01 17:52:33.968416391,1743522753,967161459,,0.001189043855791619,4.269191199750357e-05,-3.62381718397513e-05,0.9999992915192013
2025/04/01 17:52:34.69021488,1743522754,67016802,,0.0013639902434797104,2.4295282559179346e-05,-7.57961508847394e-05,0.9999990665972136
2025/04/01 17:52:34.69154728,1743522754,67117788,,0.0013639902434797104,2.4295282559179346e-05,-7.57961508847394e-05,0.9999990665972136
2025/04/01 17:52:34.171258257,1743522754,169995557,,0.0022740896290726325,4.066760777459307e-06,-0.00014136678568555096,0.9999974042542572
2025/04/01 17:52:34.171954243,1743522754,170343832,,0.0022740896290726325,4.066760777459307e-06,-0.00014136678568555096,0.9999974042542572
2025/04/01 17:52:34.270705157,1743522754,268977772,,0.0036812485628965534,-1.849930827143748e-05,-0.00019859448075535956,0.9999932042904222
2025/04/01 17:52:34.270804447,1743522754,269557600,,0.0036812485628965534,-1.849930827143748e-05,-0.00019859448075535956,0.9999932042904222
2025/04/01 17:52:34.372158755,1743522754,371883386,,0.005247248366503059,-3.676371186285053e-05,-0.0002561458064334627,0.9999861996159425
2025/04/01 17:52:34.372607215,1743522754,372178540,,0.005247248366503059,-3.676371186285053e-05,-0.0002561458064334627,0.9999861996159425
2025/04/01 17:52:34.474321820,1743522754,472654778,,0.006590469618283836,-4.996078276240676e-05,-0.0003179739715416924,0.9999782308163934
2025/04/01 17:52:34.474372701,1743522754,472829905,,0.006590469618283836,-4.996078276240676e-05,-0.0003179739715416924,0.9999782308163934
2025/04/01 17:52:34.566432449,1743522754,564923131,,0.007383871496180848,-5.28076934112954e-05,-0.00038178315931112274,0.9999726645737346
2025/04/01 17:52:34.567041963,1743522754,565149517,,0.007383871496180848,-5.28076934112954e-05,-0.00038178315931112274,0.9999726645737346
2025/04/01 17:52:34.669642833,1743522754,667657841,,0.007447266212589249,-4.836577251778302e-05,-0.0004523457339373542,0.9999721652476372
2025/04/01 17:52:34.670282763,1743522754,668774600,,0.007447266212589249,-4.836577251778302e-05,-0.0004523457339373542,0.9999721652476372
2025/04/01 17:52:34.767833169,1743522754,767692136,,0.00676468381982646,-3.44888506589657e-05,-0.0005305105260621384,0.9999769779459519
2025/04/01 17:52:34.769629344,1743522754,768408879,,0.00676468381982646,-3.44888506589657e-05,-0.0005305105260621384,0.9999769779459519
2025/04/01 17:52:34.869238962,1743522754,869058540,,0.005489171741470599,-1.4994454873140218e-05,-0.0006159759437336653,0.9999847445548335
2025/04/01 17:52:34.870748858,1743522754,870350706,,0.005489171741470599,-1.4994454873140218e-05,-0.0006159759437336653,0.9999847445548335
2025/04/01 17:52:34.971775701,1743522754,971436255,,0.0039051141540852293,8.363909475438673e-06,-0.0006917052562994391,0.9999921357477403
2025/04/01 17:52:34.973804784,1743522754,972204497,,0.0039051141540852293,8.363909475438673e-06,-0.0006917052562994391,0.9999921357477403
2025/04/01 17:52:35.72083793,1743522755,71311133,,0.0023868508095408517,2.880309390938788e-05,-0.0007674740490031182,0.9999968565436488
2025/04/01 17:52:35.72345839,1743522755,71688203,,0.0023868508095408517,2.880309390938788e-05,-0.0007674740490031182,0.9999968565436488
2025/04/01 17:52:35.166233618,1743522755,164547881,,0.0012668231055532895,4.600394077655315e-05,-0.0008457218591091403,0.9999988388980228
2025/04/01 17:52:35.168780020,1743522755,166146914,,0.0012668231055532895,4.600394077655315e-05,-0.0008457218591091403,0.9999988388980228
2025/04/01 17:52:35.267387151,1743522755,265705264,,0.0007707660293373514,5.396030473949237e-05,-0.0009195957878891239,0.9999992786755401
2025/04/01 17:52:35.267541759,1743522755,265879781,,0.0007707660293373514,5.396030473949237e-05,-0.0009195957878891239,0.9999992786755401
2025/04/01 17:52:35.369670698,1743522755,366869317,,0.0009966995956000432,5.309255023376472e-05,-0.0009988889770162354,0.9999990029954574
2025/04/01 17:52:35.369850842,1743522755,368076843,,0.0009966995956000432,5.309255023376472e-05,-0.0009988889770162354,0.9999990029954574
2025/04/01 17:52:35.471838063,1743522755,469954947,,0.0018574645912117001,4.083612764001535e-05,-0.0010855329680399693,0.9999976848852593
2025/04/01 17:52:35.472174694,1743522755,470717379,,0.0018574645912117001,4.083612764001535e-05,-0.0010855329680399693,0.9999976848852593
2025/04/01 17:52:35.574702156,1743522755,572382057,,0.003107506943603688,2.4114337969703296e-05,-0.0011721981850655898,0.9999944843700435
2025/04/01 17:52:35.575188431,1743522755,573144344,,0.003107506943603688,2.4114337969703296e-05,-0.0011721981850655898,0.9999944843700435
2025/04/01 17:52:35.663469289,1743522755,663003572,,0.004426483991436367,1.784586742061726e-06,-0.001241700960067176,0.9999894321516676
2025/04/01 17:52:35.664210141,1743522755,663266943,,0.004426483991436367,1.784586742061726e-06,-0.001241700960067176,0.9999894321516676
2025/04/01 17:52:35.767693041,1743522755,766435390,,0.00552088704874883,-1.8441488501871267e-05,-0.0013114602843532128,0.9999838996394037
2025/04/01 17:52:35.768827086,1743522755,767596112,,0.00552088704874883,-1.8441488501871267e-05,-0.0013114602843532128,0.9999838996394037
2025/04/01 17:52:35.872872150,1743522755,871754008,,0.00612773344058062,-3.6115087352383745e-05,-0.0013822995685961413,0.9999802692185903
2025/04/01 17:52:35.875402202,1743522755,873518788,,0.00612773344058062,-3.6115087352383745e-05,-0.0013822995685961413,0.9999802692185903
2025/04/01 17:52:35.965423548,1743522755,964177531,,0.006106092157101171,-4.52882996986481e-05,-0.0014550493330429055,0.9999802980154046
2025/04/01 17:52:35.966871482,1743522755,964676202,,0.006106092157101171,-4.52882996986481e-05,-0.0014550493330429055,0.9999802980154046
2025/04/01 17:52:36.68158665,1743522756,64682303,,0.005466987970550298,-4.815816258957492e-05,-0.0015337384523480082,0.99998387855489
2025/04/01 17:52:36.68849676,1743522756,67471010,,0.005466987970550298,-4.815816258957492e-05,-0.0015337384523480082,0.99998387855489
2025/04/01 17:52:36.168090848,1743522756,166723557,,0.00435309966559489,-4.1786138118919516e-05,-0.0016191427592361642,0.9999892135187985
2025/04/01 17:52:36.169645705,1743522756,168280335,,0.00435309966559489,-4.1786138118919516e-05,-0.0016191427592361642,0.9999892135187985
2025/04/01 17:52:36.269012849,1743522756,268329966,,0.0030079593921982484,-2.871714189619113e-05,-0.0017120497374398152,0.9999940101027192
2025/04/01 17:52:36.271281949,1743522756,269226075,,0.0030079593921982484,-2.871714189619113e-05,-0.0017120497374398152,0.9999940101027192
2025/04/01 17:52:36.373501132,1743522756,371995754,,0.0017231565997494285,-1.0111630103194927e-05,-0.0017928291370256492,0.9999969081916069
2025/04/01 17:52:36.374288887,1743522756,372574849,,0.0017231565997494285,-1.0111630103194927e-05,-0.0017928291370256492,0.9999969081916069
2025/04/01 17:52:36.464963461,1743522756,464792199,,0.0007989907518219748,7.72416120078601e-06,-0.0018778475120549063,0.9999979176192505
2025/04/01 17:52:36.467637100,1743522756,465788892,,0.0007989907518219748,7.72416120078601e-06,-0.0018778475120549063,0.9999979176192505
2025/04/01 17:52:36.564127530,1743522756,563830875,,0.0004206426131993575,2.404413470853667e-05,-0.0019624589510376807,0.9999979856162396
2025/04/01 17:52:36.566483852,1743522756,565176350,,0.0004206426131993575,2.404413470853667e-05,-0.0019624589510376807,0.9999979856162396
2025/04/01 17:52:36.667367787,1743522756,665691823,,0.0006464383080195052,3.313671465137384e-05,-0.0020453324924897573,0.9999976988145859
2025/04/01 17:52:36.671500352,1743522756,668413472,,0.0006464383080195052,3.313671465137384e-05,-0.0020453324924897573,0.9999976988145859
2025/04/01 17:52:36.769809361,1743522756,768953804,,0.0013970367879226403,3.5832371234753026e-05,-0.002134768780486908,0.9999967448779562
2025/04/01 17:52:36.770858035,1743522756,769173447,,0.0013970367879226403,3.5832371234753026e-05,-0.002134768780486908,0.9999967448779562
2025/04/01 17:52:36.871041844,1743522756,870570532,,0.0024635804977884215,3.109553523336535e-05,-0.00223206532842033,0.9999944738290149
2025/04/01 17:52:36.872905536,1743522756,871836689,,0.0024635804977884215,3.109553523336535e-05,-0.00223206532842033,0.9999944738290149
2025/04/01 17:52:36.966607320,1743522756,965583116,,0.0035566528826737704,2.5261818172247418e-05,-0.002337157640997872,0.9999909435971277
2025/04/01 17:52:36.966657441,1743522756,966185112,,0.0035566528826737704,2.5261818172247418e-05,-0.002337157640997872,0.9999909435971277
2025/04/01 17:52:37.68872012,1743522757,67039840,,0.00440870301750582,1.487119326778036e-05,-0.0024396374080760817,0.9999873055623597
2025/04/01 17:52:37.70962480,1743522757,70178765,,0.00440870301750582,1.487119326778036e-05,-0.0024396374080760817,0.9999873055623597
2025/04/01 17:52:37.170061556,1743522757,169775171,,0.004812394212727781,3.309251883854833e-06,-0.002540260064443675,0.9999851938552866
2025/04/01 17:52:37.172592133,1743522757,170987687,,0.004812394212727781,3.309251883854833e-06,-0.002540260064443675,0.9999851938552866
2025/04/01 17:52:37.272157388,1743522757,270437717,,0.0046564711521038206,-7.498334243726365e-06,-0.0026491692507857895,0.9999856494582636
2025/04/01 17:52:37.272856485,1743522757,270932087,,0.0046564711521038206,-7.498334243726365e-06,-0.0026491692507857895,0.9999856494582636
2025/04/01 17:52:37.372371304,1743522757,372195280,,0.003984083241232341,-1.3637297901693024e-05,-0.0027594026010771366,0.99998825622706
2025/04/01 17:52:37.373990876,1743522757,372810320,,0.003984083241232341,-1.3637297901693024e-05,-0.0027594026010771366,0.99998825622706
2025/04/01 17:52:37.466591591,1743522757,465831103,,0.002943300528871575,-1.6357874862661305e-05,-0.0028722811592865826,0.9999915433219216
2025/04/01 17:52:37.472561991,1743522757,468051425,,0.002943300528871575,-1.6357874862661305e-05,-0.0028722811592865826,0.9999915433219216
2025/04/01 17:52:37.565239838,1743522757,565122757,,0.0017658092540228409,-1.0732711875055067e-05,-0.002984603527665923,0.9999939869540566
2025/04/01 17:52:37.569786109,1743522757,565739213,,0.0017658092540228409,-1.0732711875055067e-05,-0.002984603527665923,0.9999939869540566
2025/04/01 17:52:37.668341546,1743522757,667306629,,0.0007262245360669725,-3.407618509433922e-06,-0.0030862027249045293,0.9999949739568955
2025/04/01 17:52:37.669918024,1743522757,668675081,,0.0007262245360669725,-3.407618509433922e-06,-0.0030862027249045293,0.9999949739568955
2025/04/01 17:52:37.773628659,1743522757,769253448,,5.7764087741077205e-05,4.6581188965097625e-06,-0.0031889978341079475,0.9999949134542766
2025/04/01 17:52:37.773728646,1743522757,769535107,,5.7764087741077205e-05,4.6581188965097625e-06,-0.0031889978341079475,0.9999949134542766
2025/04/01 17:52:37.873346612,1743522757,870999076,,-0.00011983272065586283,8.899745976282117e-06,-0.003284167134262208,0.9999945998889933
2025/04/01 17:52:37.873446850,1743522757,872278886,,-0.00011983272065586283,8.899745976282117e-06,-0.003284167134262208,0.9999945998889933
2025/04/01 17:52:37.974565723,1743522757,972447733,,0.00021690861556119347,1.1516531597432331e-05,-0.0033737535724744972,0.9999942852860981
2025/04/01 17:52:37.978546445,1743522757,975777774,,0.00021690861556119347,1.1516531597432331e-05,-0.0033737535724744972,0.9999942852860981
2025/04/01 17:52:38.65060815,1743522758,63790501,,0.0009768384299026073,7.822036944670128e-06,-0.0034528349923022036,0.9999935618072816
2025/04/01 17:52:38.69284840,1743522758,64758757,,0.0009768384299026073,7.822036944670128e-06,-0.0034528349923022036,0.9999935618072816
2025/04/01 17:52:38.168096284,1743522758,166222221,,0.001977565064321364,1.5081142336389407e-06,-0.0035321091557984634,0.9999918066859615
2025/04/01 17:52:38.171174203,1743522758,169310987,,0.001977565064321364,1.5081142336389407e-06,-0.0035321091557984634,0.9999918066859615
2025/04/01 17:52:38.268930227,1743522758,267247522,,0.00296637739206572,-8.74151113673999e-06,-0.0036112795509030795,0.9999890795347512
2025/04/01 17:52:38.269224196,1743522758,267395356,,0.00296637739206572,-8.74151113673999e-06,-0.0036112795509030795,0.9999890795347512
2025/04/01 17:52:38.369730501,1743522758,368496924,,0.003700149006178595,-1.8098977474580713e-05,-0.0036907715217292473,0.9999863432944139
2025/04/01 17:52:38.371216276,1743522758,368844869,,0.003700149006178595,-1.8098977474580713e-05,-0.0036907715217292473,0.9999863432944139
2025/04/01 17:52:38.471835753,1743522758,471291891,,0.004002653017027714,-2.748342392485797e-05,-0.003770477798187146,0.9999848806410325
2025/04/01 17:52:38.473397116,1743522758,471466766,,0.004002653017027714,-2.748342392485797e-05,-0.003770477798187146,0.9999848806410325
2025/04/01 17:52:38.565660669,1743522758,563728535,,0.003799563145037552,-3.2454383857303214e-05,-0.0038502384219626924,0.9999853688583218
2025/04/01 17:52:38.565895634,1743522758,563833939,,0.003799563145037552,-3.2454383857303214e-05,-0.0038502384219626924,0.9999853688583218
2025/04/01 17:52:38.670813101,1743522758,670041063,,0.003136881485834141,-3.494587962791996e-05,-0.003930614130671781,0.9999873544329874
2025/04/01 17:52:38.671991446,1743522758,671683630,,0.003136881485834141,-3.494587962791996e-05,-0.003930614130671781,0.9999873544329874
2025/04/01 17:52:38.768380831,1743522758,767961075,,0.002164328199224357,-3.202691123307934e-05,-0.004011302343625971,0.9999896120016603
2025/04/01 17:52:38.769033612,1743522758,768302811,,0.002164328199224357,-3.202691123307934e-05,-0.004011302343625971,0.9999896120016603
2025/04/01 17:52:38.873233426,1743522758,871167366,,0.0011012121980952811,-2.7218342268146038e-05,-0.004091657379624604,0.9999910224250738
2025/04/01 17:52:38.873512636,1743522758,871188249,,0.0011012121980952811,-2.7218342268146038e-05,-0.004091657379624604,0.9999910224250738
2025/04/01 17:52:38.973331926,1743522758,972957567,,0.00018023417118871659,-1.887387600884144e-05,-0.0041722798609870595,0.9999912795820681
2025/04/01 17:52:38.973527086,1743522758,973027310,,0.00018023417118871659,-1.887387600884144e-05,-0.0041722798609870595,0.9999912795820681
2025/04/01 17:52:39.68047913,1743522759,65840177,,-0.0004026360509581445,-1.1376644885605234e-05,-0.0042533994958595485,0.9999908731321057
2025/04/01 17:52:39.68331184,1743522759,67864656,,-0.0004026360509581445,-1.1376644885605234e-05,-0.0042533994958595485,0.9999908731321057
2025/04/01 17:52:39.171069252,1743522759,167853587,,-0.0005296439278041454,-3.6237972136334577e-06,-0.004334538218014417,0.9999904655758546
2025/04/01 17:52:39.175179029,1743522759,172632358,,-0.0005296439278041454,-3.6237972136334577e-06,-0.004334538218014417,0.9999904655758546
2025/04/01 17:52:39.270022614,1743522759,268451669,,-0.0001952536209642577,-1.9452375311856985e-07,-0.004415587881938922,0.9999902321821161
2025/04/01 17:52:39.270133260,1743522759,268841334,,-0.0001952536209642577,-1.9452375311856985e-07,-0.004415587881938922,0.9999902321821161
2025/04/01 17:52:39.371113428,1743522759,369368204,,0.0005019535748943563,2.7096969491677637e-06,-0.004496484411016704,0.999989764779224
2025/04/01 17:52:39.371205910,1743522759,369408039,,0.0005019535748943563,2.7096969491677637e-06,-0.004496484411016704,0.999989764779224
2025/04/01 17:52:39.472158603,1743522759,470406275,,0.0013827997365445076,1.516853611166475e-06,-0.004577345557340896,0.9999885678197709
2025/04/01 17:52:39.472241009,1743522759,471199680,,0.0013827997365445076,1.516853611166475e-06,-0.004577345557340896,0.9999885678197709
2025/04/01 17:52:39.573705394,1743522759,572451463,,0.002232824308646631,-6.42063426113689e-07,-0.004658237333714721,0.9999866575710584
2025/04/01 17:52:39.574259140,1743522759,572450041,,0.002232824308646631,-6.42063426113689e-07,-0.004658237333714721,0.9999866575710584
2025/04/01 17:52:39.666512388,1743522759,664954171,,0.0028474141317568827,-5.871651655587398e-06,-0.004738498131447957,0.9999847193001222
2025/04/01 17:52:39.666914117,1743522759,665323065,,0.0028474141317568827,-5.871651655587398e-06,-0.004738498131447957,0.9999847193001222
2025/04/01 17:52:39.766310913,1743522759,765691479,,0.0030857808910947585,-1.0361550221011015e-05,-0.004818664310272183,0.9999836290275933
2025/04/01 17:52:39.771338574,1743522759,769290461,,0.0030857808910947585,-1.0361550221011015e-05,-0.004818664310272183,0.9999836290275933
2025/04/01 17:52:39.870330541,1743522759,869916938,,0.0028927757084207433,-1.625522464708175e-05,-0.004898813579580521,0.9999838164740372
2025/04/01 17:52:39.872350972,1743522759,872015910,,0.0028927757084207433,-1.625522464708175e-05,-0.004898813579580521,0.9999838164740372
2025/04/01 17:52:39.966439656,1743522759,965869908,,0.002318831177875422,-1.9941794859402786e-05,-0.00497834928989403,0.9999849192176056
2025/04/01 17:52:39.970845266,1743522759,967292216,,0.002318831177875422,-1.9941794859402786e-05,-0.00497834928989403,0.9999849192176056
2025/04/01 17:52:40.65751678,1743522760,64391290,,0.0015024477632540286,-2.306177422644726e-05,-0.005058361108816245,0.9999860774539644
2025/04/01 17:52:40.65833932,1743522760,64446779,,0.0015024477632540286,-2.306177422644726e-05,-0.005058361108816245,0.9999860774539644
2025/04/01 17:52:40.174008605,1743522760,172208564,,0.0006340401105611927,-2.2855133015041436e-05,-0.005138554564055053,0.9999865962740567
2025/04/01 17:52:40.178214981,1743522760,176442291,,0.0006340401105611927,-2.2855133015041436e-05,-0.005138554564055053,0.9999865962740567
2025/04/01 17:52:40.270372480,1743522760,268721578,,-8.849962041338878e-05,-2.2381025240572447e-05,-0.005218883389981746,0.9999863773687463
2025/04/01 17:52:40.273884657,1743522760,271716068,,-8.849962041338878e-05,-2.2381025240572447e-05,-0.005218883389981746,0.9999863773687463
2025/04/01 17:52:40.371317920,1743522760,370821068,,-0.0005099995257906588,-1.9171755814868303e-05,-0.005299315985484507,0.9999858282910881
2025/04/01 17:52:40.371622643,1743522760,370820711,,-0.0005099995257906588,-1.9171755814868303e-05,-0.005299315985484507,0.9999858282910881
2025/04/01 17:52:40.464282319,1743522760,464043897,,-0.0005473650215151595,-1.658314947158942e-05,-0.005379682413768678,0.9999853794599496
2025/04/01 17:52:40.466220116,1743522760,464588727,,-0.0005473650215151595,-1.658314947158942e-05,-0.005379682413768678,0.9999853794599496
2025/04/01 17:52:40.567712592,1743522760,565455761,,-0.00020949730937883462,-1.3154181457826134e-05,-0.005459993301842116,0.9999850720940732
2025/04/01 17:52:40.569986624,1743522760,566270553,,-0.00020949730937883462,-1.3154181457826134e-05,-0.005459993301842116,0.9999850720940732
2025/04/01 17:52:40.668059985,1743522760,667207777,,0.0004091897396021535,-1.1044640820805967e-05,-0.0055400254672913355,0.9999845701607574
2025/04/01 17:52:40.669228262,1743522760,668628427,,0.0004091897396021535,-1.1044640820805967e-05,-0.0055400254672913355,0.9999845701607574
2025/04/01 17:52:40.773853963,1743522760,772440879,,0.001148362842462966,-8.231359616287681e-06,-0.005619494649930631,0.99998355110217
2025/04/01 17:52:40.773987782,1743522760,772441171,,0.001148362842462966,-8.231359616287681e-06,-0.005619494649930631,0.99998355110217
2025/04/01 17:52:40.873815111,1743522760,872893452,,0.0018302791733415958,-6.5084147053046495e-06,-0.005698799516537664,0.9999820866994861
2025/04/01 17:52:40.875124658,1743522760,874833050,,0.0018302791733415958,-6.5084147053046495e-06,-0.005698799516537664,0.9999820866994861
2025/04/01 17:52:40.967989313,1743522760,967293916,,0.0022927536767977687,-3.816914403581864e-06,-0.00577778873098482,0.9999806800250637
2025/04/01 17:52:40.968422618,1743522760,967535801,,0.0022927536767977687,-3.816914403581864e-06,-0.00577778873098482,0.9999806800250637
2025/04/01 17:52:41.69718482,1743522761,69411307,,0.00243001252316884,-3.37248352213369e-06,-0.00585599210767315,0.9999799009901141
2025/04/01 17:52:41.72987723,1743522761,71874741,,0.00243001252316884,-3.37248352213369e-06,-0.00585599210767315,0.9999799009901141
2025/04/01 17:52:41.173019731,1743522761,170529471,,0.0022116535995757324,-2.518446915094029e-06,-0.005934321994427175,0.9999799460011582
2025/04/01 17:52:41.173899443,1743522761,171239999,,0.0022116535995757324,-2.518446915094029e-06,-0.005934321994427175,0.9999799460011582
2025/04/01 17:52:41.273368264,1743522761,272931453,,0.0016932262778973327,-4.262384236447626e-06,-0.00601243694181486,0.9999804915940234
2025/04/01 17:52:41.273803421,1743522761,273063020,,0.0016932262778973327,-4.262384236447626e-06,-0.00601243694181486,0.9999804915940234
2025/04/01 17:52:41.368039514,1743522761,364671925,,0.00099543926445638,-5.733581060519359e-06,-0.0060899608615555935,0.9999809605410003
2025/04/01 17:52:41.368363054,1743522761,366770088,,0.00099543926445638,-5.733581060519359e-06,-0.0060899608615555935,0.9999809605410003
2025/04/01 17:52:41.470575602,1743522761,469957701,,0.000276792604334134,-9.61514722130472e-06,-0.0061677777330954925,0.9999809407239911
2025/04/01 17:52:41.472649401,1743522761,471954956,,0.000276792604334134,-9.61514722130472e-06,-0.0061677777330954925,0.9999809407239911
2025/04/01 17:52:41.570776449,1743522761,569208149,,-0.0003027041790316074,-1.2745037423206309e-05,-0.006245520464912423,0.9999804506498446
2025/04/01 17:52:41.571056011,1743522761,569979472,,-0.0003027041790316074,-1.2745037423206309e-05,-0.006245520464912423,0.9999804506498446
2025/04/01 17:52:41.673169797,1743522761,669571610,,-0.0006164766777793311,-1.762230987448482e-05,-0.0063225902723852,0.9999798220455288
2025/04/01 17:52:41.673274056,1743522761,671771242,,-0.0006164766777793311,-1.762230987448482e-05,-0.0063225902723852,0.9999798220455288
2025/04/01 17:52:41.772670900,1743522761,772324804,,-0.0005982378897724939,-2.0170293524947188e-05,-0.006399402142795303,0.9999793444650751
2025/04/01 17:52:41.772909245,1743522761,772425551,,-0.0005982378897724939,-2.0170293524947188e-05,-0.006399402142795303,0.9999793444650751
2025/04/01 17:52:41.868692757,1743522761,867743527,,-0.0002624171756951428,-2.280682080735725e-05,-0.006475493049068541,0.9999789990829039
2025/04/01 17:52:41.872368500,1743522761,869589277,,-0.0002624171756951428,-2.280682080735725e-05,-0.006475493049068541,0.9999789990829039
2025/04/01 17:52:41.971445129,1743522761,969803241,,0.0003027161574002986,-2.2899254772587415e-05,-0.006551594075801901,0.9999784919955119
2025/04/01 17:52:41.971631655,1743522761,969807312,,0.0003027161574002986,-2.2899254772587415e-05,-0.006551594075801901,0.9999784919955119
2025/04/01 17:52:42.72423435,1743522762,71648590,,0.0009580189751652366,-2.2038854715600184e-05,-0.006627627595060742,0.999977577881821
2025/04/01 17:52:42.72555366,1743522762,71652343,,0.0009580189751652366,-2.2038854715600184e-05,-0.006627627595060742,0.999977577881821
2025/04/01 17:52:42.171630009,1743522762,169236117,,0.0015515564884544266,-1.7338071069751052e-05,-0.006703589148559798,0.9999763268519819
2025/04/01 17:52:42.173295472,1743522762,171089007,,0.0015515564884544266,-1.7338071069751052e-05,-0.006703589148559798,0.9999763268519819
2025/04/01 17:52:42.269164026,1743522762,267806299,,0.0019472237247912835,-1.247787933351134e-05,-0.006779635399579468,0.9999751220445021
2025/04/01 17:52:42.269942776,1743522762,268835759,,0.0019472237247912835,-1.247787933351134e-05,-0.006779635399579468,0.9999751220445021
2025/04/01 17:52:42.369212274,1743522762,368457596,,0.0020588812896563907,-5.559453600696564e-06,-0.006855891124855652,0.9999743785386762
2025/04/01 17:52:42.371983670,1743522762,370836253,,0.0020588812896563907,-5.559453600696564e-06,-0.006855891124855652,0.9999743785386762
2025/04/01 17:52:42.476233800,1743522762,465402982,,0.0018624138019763116,-5.719579370632877e-07,-0.006932442089342214,0.9999742359986986
2025/04/01 17:52:42.477685092,1743522762,475204948,,0.0018624138019763116,-5.719579370632877e-07,-0.006932442089342214,0.9999742359986986
2025/04/01 17:52:42.565541175,1743522762,565324539,,0.0014112786188899508,4.1862850749719634e-06,-0.00700919947866432,0.9999744393722287
2025/04/01 17:52:42.570669761,1743522762,568863339,,0.0014112786188899508,4.1862850749719634e-06,-0.00700919947866432,0.9999744393722287
2025/04/01 17:52:42.669880811,1743522762,666857391,,0.0008137915347462398,4.93498785774325e-06,-0.007085591869842309,0.9999745657299679
2025/04/01 17:52:42.670868447,1743522762,668576578,,0.0008137915347462398,4.93498785774325e-06,-0.007085591869842309,0.9999745657299679
2025/04/01 17:52:42.774067875,1743522762,770450203,,0.00021186809941068252,3.4907074952067235e-06,-0.0071613812012505445,0.9999743345301487
2025/04/01 17:52:42.774448960,1743522762,771305047,,0.00021186809941068252,3.4907074952067235e-06,-0.0071613812012505445,0.9999743345301487
2025/04/01 17:52:42.872773826,1743522762,871649219,,-0.00025677398222175555,-1.9075824689652297e-06,-0.00723713789995808,0.9999737786054693
2025/04/01 17:52:42.872840257,1743522762,871736071,,-0.00025677398222175555,-1.9075824689652297e-06,-0.00723713789995808,0.9999737786054693
2025/04/01 17:52:42.966497841,1743522762,964968028,,-0.0004908936337268277,-7.864479321565338e-06,-0.00731324460172037,0.9999731373466918
2025/04/01 17:52:42.967169428,1743522762,965792885,,-0.0004908936337268277,-7.864479321565338e-06,-0.00731324460172037,0.9999731373466918
2025/04/01 17:52:43.67475690,1743522763,66194972,,-0.0004434279173956261,-1.6132137882165684e-05,-0.007389597464494185,0.9999725981049425
2025/04/01 17:52:43.67764300,1743522763,66329466,,-0.0004434279173956261,-1.6132137882165684e-05,-0.007389597464494185,0.9999725981049425
2025/04/01 17:52:43.169268597,1743522763,168844045,,-0.0001388204759393416,-2.292934089637603e-05,-0.007465912831812388,0.9999721197857011
2025/04/01 17:52:43.172058267,1743522763,171134941,,-0.0001388204759393416,-2.292934089637603e-05,-0.007465912831812388,0.9999721197857011
2025/04/01 17:52:43.272419840,1743522763,270580150,,0.0003405060915392988,-2.8912398237213223e-05,-0.0075416566027504675,0.9999715029116385
2025/04/01 17:52:43.273130721,1743522763,270587714,,0.0003405060915392988,-2.8912398237213223e-05,-0.0075416566027504675,0.9999715029116385
2025/04/01 17:52:43.372313122,1743522763,370591257,,0.00087434885592182,-2.9970715929241766e-05,-0.007616760451071134,0.9999706093561277
2025/04/01 17:52:43.372458901,1743522763,371369970,,0.00087434885592182,-2.9970715929241766e-05,-0.007616760451071134,0.9999706093561277
2025/04/01 17:52:43.473503990,1743522763,472382075,,0.0013390990465425045,-2.8862235396693765e-05,-0.007692704169849402,0.9999695136769271
2025/04/01 17:52:43.475368903,1743522763,473021964,,0.0013390990465425045,-2.8862235396693765e-05,-0.007692704169849402,0.9999695136769271
2025/04/01 17:52:43.564967960,1743522763,564549600,,0.0015970745940713106,-2.2553944215953016e-05,-0.0077545481128987485,0.9999686574226341
2025/04/01 17:52:43.565152351,1743522763,564615219,,0.0015970745940713106,-2.2553944215953016e-05,-0.0077545481128987485,0.9999686574226341
2025/04/01 17:52:43.665006094,1743522763,663687660,,0.0016042577940758866,-1.4421070044374563e-05,-0.0078046891906014566,0.9999682559839592
2025/04/01 17:52:43.665129320,1743522763,663855325,,0.0016042577940758866,-1.4421070044374563e-05,-0.0078046891906014566,0.9999682559839592
2025/04/01 17:52:43.768111578,1743522763,766798074,,0.0013850621875609501,-2.8176927283400177e-06,-0.007858858287288571,0.9999681594636989
2025/04/01 17:52:43.768786111,1743522763,767849576,,0.0013850621875609501,-2.8176927283400177e-06,-0.007858858287288571,0.9999681594636989
2025/04/01 17:52:43.871878650,1743522763,871062762,,0.0009885787546671872,7.312405206349884e-06,-0.00791422820253973,0.9999681933194339
2025/04/01 17:52:43.873125568,1743522763,872180405,,0.0009885787546671872,7.312405206349884e-06,-0.00791422820253973,0.9999681933194339
2025/04/01 17:52:43.974591398,1743522763,974193913,,0.0005129659855546154,1.66397227273501e-05,-0.007970826925361937,0.9999681007447904
2025/04/01 17:52:43.975677256,1743522763,975023888,,0.0005129659855546154,1.66397227273501e-05,-0.007970826925361937,0.9999681007447904
2025/04/01 17:52:44.67085245,1743522764,66285255,,5.798628774863176e-05,2.031049655931173e-05,-0.008020709361674793,0.9999678317058053
2025/04/01 17:52:44.67659501,1743522764,66286012,,5.798628774863176e-05,2.031049655931173e-05,-0.008020709361674793,0.9999678317058053
2025/04/01 17:52:44.169159437,1743522764,168298829,,-0.00026723781356219545,1.9165594218430985e-05,-0.008059762226604433,0.9999674836960858
2025/04/01 17:52:44.172555324,1743522764,169285519,,-0.00026723781356219545,1.9165594218430985e-05,-0.008059762226604433,0.9999674836960858
2025/04/01 17:52:44.270893851,1743522764,270711717,,-0.00037131722664466855,1.0855610171802111e-05,-0.00809954976462825,0.9999671291093939
2025/04/01 17:52:44.271108455,1743522764,270826975,,-0.00037131722664466855,1.0855610171802111e-05,-0.00809954976462825,0.9999671291093939
2025/04/01 17:52:44.365691137,1743522764,363906710,,-0.00023531235955523715,-5.199904790146894e-07,-0.0081403677215387,0.9999668389707637
2025/04/01 17:52:44.365869835,1743522764,363588616,,-0.00023531235955523715,-5.199904790146894e-07,-0.0081403677215387,0.9999668389707637
2025/04/01 17:52:44.466661497,1743522764,464993051,,0.00010143500642248973,-1.5883223153957363e-05,-0.008181646950939467,0.9999665244956117
2025/04/01 17:52:44.466725310,1743522764,465402733,,0.00010143500642248973,-1.5883223153957363e-05,-0.008181646950939467,0.9999665244956117
2025/04/01 17:52:44.571325684,1743522764,569638239,,0.0005550503786230166,-2.8375180236919592e-05,-0.008223606556057313,0.9999660311276266
2025/04/01 17:52:44.571504963,1743522764,569651861,,0.0005550503786230166,-2.8375180236919592e-05,-0.008223606556057313,0.9999660311276266
2025/04/01 17:52:44.673219442,1743522764,671042644,,0.0010168359852053032,-3.872191934128278e-05,-0.008265425664952003,0.9999653230406389
2025/04/01 17:52:44.673279637,1743522764,671892368,,0.0010168359852053032,-3.872191934128278e-05,-0.008265425664952003,0.9999653230406389
2025/04/01 17:52:44.772344290,1743522764,772036017,,0.0013816287798987244,-4.225537316464627e-05,-0.00830838458409595,0.9999645294019187
2025/04/01 17:52:44.773742441,1743522764,772294613,,0.0013816287798987244,-4.225537316464627e-05,-0.00830838458409595,0.9999645294019187
2025/04/01 17:52:44.867408462,1743522764,865669937,,0.0015619291126192452,-4.099021894371143e-05,-0.008351830361534092,0.9999639021619037
2025/04/01 17:52:44.867758863,1743522764,865806740,,0.0015619291126192452,-4.099021894371143e-05,-0.008351830361534092,0.9999639021619037
2025/04/01 17:52:44.974354871,1743522764,972415416,,0.001519801599355233,-3.228978491498976e-05,-0.008396413643965817,0.9999635940364968
2025/04/01 17:52:44.977179433,1743522764,973357029,,0.001519801599355233,-3.228978491498976e-05,-0.008396413643965817,0.9999635940364968
2025/04/01 17:52:45.64028138,1743522765,62955256,,0.0012414832718030543,-2.0040736011257117e-05,-0.008428116819589833,0.9999637119238528
2025/04/01 17:52:45.65717524,1743522765,64914040,,0.0012414832718030543,-2.0040736011257117e-05,-0.008428116819589833,0.9999637119238528
2025/04/01 17:52:45.167591103,1743522765,165814250,,0.0008070954778173232,-4.559027341210966e-06,-0.008448253970180326,0.9999639871420172
2025/04/01 17:52:45.167655230,1743522765,166718160,,0.0008070954778173232,-4.559027341210966e-06,-0.008448253970180326,0.9999639871420172
2025/04/01 17:52:45.269365907,1743522765,268406163,,0.00033774405163700734,8.779106336605039e-06,-0.008473546054446965,0.9999640417880765
2025/04/01 17:52:45.271952211,1743522765,269951787,,0.00033774405163700734,8.779106336605039e-06,-0.008473546054446965,0.9999640417880765
2025/04/01 17:52:45.369547096,1743522765,369401558,,-6.40565917092709e-05,2.12009206663082e-05,-0.008501094590434981,0.9999638627660694
2025/04/01 17:52:45.370572770,1743522765,369949517,,-6.40565917092709e-05,2.12009206663082e-05,-0.008501094590434981,0.9999638627660694
2025/04/01 17:52:45.473726879,1743522765,472524451,,-0.0003053884183360354,2.7468804621414576e-05,-0.008530968529000562,0.9999635636158629
2025/04/01 17:52:45.475490860,1743522765,474575033,,-0.0003053884183360354,2.7468804621414576e-05,-0.008530968529000562,0.9999635636158629
2025/04/01 17:52:45.563734928,1743522765,563404621,,-0.0003381606705404701,2.9088206085685823e-05,-0.008563539355424487,0.999963274623096
2025/04/01 17:52:45.563778016,1743522765,563426639,,-0.0003381606705404701,2.9088206085685823e-05,-0.008563539355424487,0.999963274623096
2025/04/01 17:52:45.668023700,1743522765,664396246,,-0.0001640452676124368,2.315154853090035e-05,-0.008598956130427469,0.9999630145693504
