time,header_stamp_secs,header_stamp_nsecs,header_frame_id,vessel_state_pose_position_x,vessel_state_pose_position_y,vessel_state_pose_position_z,vessel_state_pose_orientation_x,vessel_state_pose_orientation_y,vessel_state_pose_orientation_z,vessel_state_pose_orientation_w,vessel_state_velocity_linear_x,vessel_state_velocity_linear_y,vessel_state_velocity_linear_z,vessel_state_velocity_angular_x,vessel_state_velocity_angular_y,vessel_state_velocity_angular_z,vessel_state_vessel_frame_id,vessel_state_w_1,vessel_state_w_2,vessel_state_w_3,vessel_state_w_4,vessel_state_a_1,vessel_state_a_2,vessel_state_a_3,vessel_state_a_4
2025/04/05 15:42:02.223801394,1743860521,903917522,world_ned,213.41943065616297,10.558110608994504,0.4336955339973703,0.0007556298606650464,0.0001297409591014922,0.018780180631404315,0.9998233428992589,-0.001211714364496261,0.0056377641699211925,-0.00021443968312255163,-0.009584903599452738,0.0020764923327188565,-0.0006860506390012903,,0.0,0.0,1.0,1.0,2.3311944901923454,-2.7188346126325063,-0.10822511575784477,0.7003981633974482
2025/04/05 15:42:02.223919044,1743860522,4232974,world_ned,213.41962666145506,10.559435610951105,0.4336738153535572,-3.616394429803532e-05,0.00014483776291617003,0.01887744578063228,0.999821793998806,-0.0004843645008027322,0.01888900588936079,-0.00011839847668186813,-0.02032203733056058,0.0009380133716031982,0.004057320424704525,,0.0,0.0,1.0,1.0,2.2811944901923464,-2.768834612632505,-0.05822511575784473,0.7503981633974482
2025/04/05 15:42:02.223996877,1743860522,103741907,world_ned,213.41965192802843,10.561870085190403,0.433659567313697,-0.0012092616422721052,0.00012220294651374826,0.01920490319122104,0.9998148300791183,-0.0006547337981738648,0.028153413178775937,-3.75812909521644e-05,-0.02510627251356577,6.201967956759774e-05,0.00853959539829741,,0.0,0.0,1.0,1.0,2.2311944901923475,-2.818834612632504,-0.08822511575784475,0.7203981633974482
2025/04/05 15:42:02.224079543,1743860522,206714408,world_ned,213.41960598410856,10.564529447150152,0.4336576938571056,-0.002297600191593707,6.734560736491968e-05,0.019654397116256696,0.9998041914154617,-0.0007327775855237324,0.02353686537642831,0.00010568473848430494,-0.017427592385341556,-0.0005845809558326914,0.008837276574857863,,0.0,0.0,1.0,1.0,2.1811944901923486,-2.868834612632503,-0.1382251157578448,0.6703981633974482
2025/04/05 15:42:02.319993634,1743860522,310445512,world_ned,213.41960356203077,10.566408744148134,0.4336629498366137,-0.0028278340654153047,1.537666104092847e-06,0.02007610654848344,0.9997944555247283,0.00021683587868196052,0.014547504418282352,0.0001819298873461389,-0.004655944362748642,-0.0009208583746556878,0.00787565755097394,,8.0,0.0,0.0,7.0,2.1261944901923497,-2.923834612632502,-0.17453292519943295,0.6153981633974481
2025/04/05 15:42:02.410795813,1743860522,406355021,world_ned,213.41968839189545,10.567339442792331,0.4336756296568822,-0.002686356300234371,-4.17623553921947e-05,0.02043141551085493,0.9997876469560707,0.0030400566355078345,0.005108633110442024,0.00016531048760354004,0.008703219088205212,-0.0012318432467145763,0.0064913401019121774,,3.0,1.0,0.0,2.0,2.0811944901923507,-2.968834612632501,-0.1295329251994329,0.5703981633974481
2025/04/05 15:42:02.508996015,1743860522,507193515,world_ned,213.41994288550347,10.567433195389828,0.4336903472536942,-0.001946678710766868,-6.707527296717285e-05,0.020721025764376445,0.9997833990591046,0.0050629324668880924,-0.0022411562603529512,0.00011110229524278482,0.01911150035540827,-0.001253168062822713,0.005211596660703519,,2.0,0.0,0.0,2.0,2.021194490192352,-3.0288346126324996,-0.06953292519943285,0.6203981633974481
2025/04/05 15:42:02.613606348,1743860522,609698865,world_ned,213.42029742188683,10.56703079632772,0.43370015364923625,-0.0008387855065147378,-6.59966237084974e-05,0.02095877530936859,0.9997799867075011,0.0012958631056134227,-0.004400775226516138,4.754840174802917e-05,0.02325999098916506,0.0003519717920191462,0.004702609880078392,,1.0,0.0,0.0,2.0,1.9811944901923528,-3.0788346126324986,-0.019532925199432862,0.6703981633974482
2025/04/05 15:42:02.704477252,1743860522,703786322,world_ned,213.42077159493408,10.56666572023305,0.4337011194809489,0.00030295900179352415,-6.069444791673972e-05,0.021182472598337516,0.9997755785108215,0.0023441788340082823,-0.0028578027120298934,-3.9405769443650836e-05,0.02159714119322281,0.0003836534138702851,0.004286102759669785,,4.0,0.0,1.0,5.0,2.0311944901923518,-3.1288346126324975,0.020467074800567142,0.7203981633974482
2025/04/05 15:42:02.808283645,1743860522,807193973,world_ned,213.42120141862054,10.566612256950622,0.433691293072279,0.0012240062476653593,-3.8397237448913124e-05,0.021384483979664862,0.9997705757719024,0.01100750985314911,0.0012941634672883238,-0.00012805629582637705,0.015258757749372557,-0.0016771172469932094,0.003811189910704738,,3.0,0.0,1.0,4.0,2.0561944901923512,-3.1838346126324963,-2.233456475320139e-19,0.7753981633974483
2025/04/05 15:42:02.905016665,1743860522,903644352,world_ned,213.4215828459556,10.567083475670254,0.433675080819442,0.001730512814756673,-1.274630963002892e-05,0.021570262846030534,0.9997658370456968,-0.0011885242715048226,0.007682393225635902,-0.0002118622294820647,0.0054388659243241625,0.0015918087542411729,0.003939136895185631,,1.0,1.0,0.0,0.0,2.016194490192352,-3.2238346126324955,5.421010862427522e-20,0.8153981633974483
2025/04/05 15:42:03.8632818,1743860523,7550587,world_ned,213.42191458603662,10.568218225552133,0.43365840171226255,0.0017176075748226859,-1.0336600075615599e-05,0.021773527711077375,0.9997614531518949,0.004566984702678991,0.013150037025207444,-0.0002147876116629663,-0.004301256997915335,-3.5360943699244163e-07,0.00372196607894224,,1.0,0.0,0.0,1.0,1.9661944901923532,-3.229,5.421010862427522e-20,0.8653981633974484
2025/04/05 15:42:03.102790384,1743860523,101945937,world_ned,213.42226281377245,10.569745191534222,0.4336445384637333,0.0012838235754827146,-1.8363574364780979e-06,0.021932571715415555,0.9997586279155599,0.009488350457193593,0.01696039317544914,-0.00013719071884669618,-0.012201693528907613,-0.0010295787152702547,0.0029164147699355047,,5.0,0.0,0.0,6.0,2.016194490192352,-3.179000000000001,-0.049999999999999996,0.8153981633974483
2025/04/05 15:42:03.204351794,1743860523,203214915,world_ned,213.42257325124385,10.571652778287607,0.4336384945327201,0.0005003745719419168,2.505517417024482e-06,0.022076507966778285,0.9997561589782795,-0.000864726147570119,0.020484329511490377,-4.859794066529509e-05,-0.01811324733831779,0.00151211405593108,0.0031504765950242093,,2.0,4.0,2.0,0.0,2.0511944901923513,-3.229,-2.4286128663675297e-19,0.8903981633974484
2025/04/05 15:42:03.307541666,1743860523,306612934,world_ned,213.42277979335398,10.573821122640897,0.43364132375500675,-0.0004778393476947495,-1.855860044181714e-05,0.022258339294239225,0.9997521381107413,0.003090150381232587,0.0220147180343164,7.226410431739768e-05,-0.020027485296841258,-0.0003499011679112715,0.004033723285144133,,2.0,4.0,1.0,0.0,2.0511944901923513,-3.2040000000000006,-0.025,0.8903981633974484
2025/04/05 15:42:03.408863610,1743860523,407922461,world_ned,213.42282742215997,10.57592186109088,0.4336500332869275,-0.0014023534299614437,-4.255249659093199e-05,0.02246641859573552,0.9997466137125065,0.0038007073025733236,0.018827874830941123,0.00018354940173168392,-0.016000885768671293,-0.0006049040132764548,0.0037880319583767667,,2.0,0.0,0.0,3.0,2.0961944901923504,-3.1590000000000016,-0.06999999999999999,0.8453981633974483
2025/04/05 15:42:03.509832637,1743860523,508927501,world_ned,213.42294088881448,10.577496539501944,0.433663848731364,-0.001994863158723011,-5.446132260718797e-05,0.02263808839789083,0.9997417339036275,-0.002342736587823408,0.013767776385608025,0.00018739386194763767,-0.008623926562831261,0.0009782736394091406,0.003641701035057973,,2.0,4.0,2.0,0.0,2.11619449019235,-3.139000000000002,-0.09000000000000001,0.8253981633974483
2025/04/05 15:42:03.615173307,1743860523,611179636,world_ned,213.42310266924437,10.57860907277379,0.4336787092212342,-0.002193672664931354,-7.943697371272719e-05,0.022827629655933736,0.9997370058241807,0.0022152461614246347,0.007907366404389339,0.0001762377436443896,0.00043653742441056753,-0.00030254615219482467,0.0034249165921077726,,2.0,0.0,0.0,3.0,2.216194490192348,-3.139000000000002,-0.09000000000000001,0.8253981633974483
2025/04/05 15:42:03.702975768,1743860523,701966520,world_ned,213.42322205482517,10.578998693254887,0.4336923301320189,-0.0019008674685602593,-5.891145844850828e-05,0.022963794354090135,0.9997344884423914,0.004822587401792624,0.0007087233521972446,0.00014104568887122072,0.01002658674723287,-0.00040794395121410295,0.002171232180640148,,1.0,0.0,1.0,2.0,2.216194490192348,-3.139000000000002,-0.09000000000000001,0.8253981633974483
2025/04/05 15:42:03.804191404,1743860523,803404652,world_ned,213.42353595170326,10.578846567517369,0.4337006864521653,-0.0012238908282427542,-3.4123753952383976e-05,0.02305559751577738,0.9997334346464564,-0.0020821318427722006,-0.002305903002957277,2.9628416117508982e-05,0.01527352891238746,0.0014022775770178159,0.0020769567798581147,,1.0,3.0,1.0,0.0,2.2761944901923465,-3.179000000000001,-0.049999999999999996,0.8653981633974484
2025/04/05 15:42:03.905296945,1743860523,904320340,world_ned,213.4237786093686,10.578462446888157,0.4336984629304215,-0.0003673669162055228,-1.5870707393836262e-05,0.023141804862191938,0.9997321249501737,0.0031342575229825827,-0.008093617191090162,-9.182913526090532e-05,0.020054227158758094,-0.0002492727708834164,7.30951213117722e-05,,1.0,1.0,0.0,0.0,2.3311944901923454,-3.224,-0.005,0.9103981633974484
2025/04/05 15:42:04.7601446,1743860524,4746357,world_ned,213.4240397836485,10.577300844172978,0.4336829049165799,0.0007154827315301233,1.9741740443340606e-05,0.023046938590280553,0.9997341278141606,0.004164280998046987,-0.011295336860272398,-0.00017850482267945712,0.020286881526515924,-0.00027406616286601543,-0.0024048706228023816,,1.0,0.0,1.0,3.0,2.3811944901923443,-3.1740000000000013,-0.045,0.8703981633974484
2025/04/05 15:42:04.108192810,1743860524,105386497,world_ned,213.42430658989016,10.57648492063229,0.433661272404467,0.0015103043344073337,5.218291933635693e-05,0.02292559095747355,0.9997360319289342,-0.0012166649517997253,-0.005487715242333727,-0.00021132792575938552,0.011766257056625224,0.0012860605458652186,-0.0024523333357150605,,1.0,0.0,1.0,3.0,2.4261944901923433,-3.1290000000000022,-8.673617379884035e-19,0.9153981633974484
2025/04/05 15:42:04.213824970,1743860524,210551657,world_ned,213.42468837789033,10.576325195522113,0.4336426910043832,0.00180893311073709,5.512837852615521e-05,0.022801180611990712,0.9997383812200881,0.0035945762310603145,0.0012686004829837222,-0.00016653375986584105,0.0011062702292998295,-5.604494998042424e-05,-0.0025625711655413276,,3.0,0.0,2.0,5.0,2.4761944901923423,-3.179000000000001,-3.469446951953617e-20,0.9653981633974484
2025/04/05 15:42:04.308571927,1743860524,305263747,world_ned,213.42487452041456,10.57678082482112,0.4336316564193152,0.001586237753118535,6.735277138969983e-05,0.02266412665655498,0.9997418750238936,0.004967020237691359,0.006513317101213819,-7.961454933688638e-05,-0.008478605757119943,-0.0005023230501863386,-0.002987889575498193,,1.0,1.0,1.0,0.0,2.5211944901923413,-3.229,-3.469446951953617e-20,1.020398163397448
2025/04/05 15:42:04.409825327,1743860524,408938577,world_ned,213.4251476472144,10.577620811718605,0.433630459836475,0.0009643005060985374,4.933955408752427e-05,0.022495856233512482,0.9997464699324842,-0.002074424955626022,0.009387767777222755,2.0912026057404924e-05,-0.015192383399066192,0.0012861351002833399,-0.0036526375987492,,1.0,1.0,1.0,0.0,2.4761944901923423,-3.229,2.4286128663675297e-19,1.065398163397447
2025/04/05 15:42:04.507123523,1743860524,501748231,world_ned,213.42542517617142,10.578623740626526,0.4336407880325566,0.00010763256536069762,1.6865844865844957e-05,0.022295820381843696,0.9997514113639824,0.002328003337780002,0.009921702669391401,0.0001328902889734037,-0.018100445111055238,-7.357994110132703e-05,-0.004273744207369171,,1.0,1.0,1.0,0.0,2.5161944901923414,-3.184000000000001,2.4286128663675297e-19,1.115398163397446
2025/04/05 15:42:04.607099258,1743860524,606216813,world_ned,213.42566904236642,10.579651057386146,0.43365725029130076,-0.0008150826936907422,-1.1495671968068658e-05,0.0220695444961778,0.999756105614656,0.005355625105401289,0.011276258356046195,0.00021311896712125785,-0.018957115156831728,-0.000692091086512824,-0.0045621361433215634,,0.0,49.0,108.99999999999999,85.0,2.5711944901923403,-3.1290000000000022,-3.122502256758253e-19,1.1703981633974447
2025/04/05 15:42:04.709643017,1743860524,708483861,world_ned,213.42595980682913,10.580875754002717,0.43367494052393873,-0.0017263196953509288,-3.0295785777465814e-05,0.021847210916599236,0.9997598302980774,-0.0011068624226056967,0.01226769228472411,0.0001930012316346443,-0.016874162352407504,0.0014786649935223317,-0.004351404543279422,,0.0,49.0,108.99999999999999,85.0,2.6161944901923393,-3.084000000000003,-3.469446951953617e-20,1.2153981633974438
2025/04/05 15:42:04.810496260,1743860524,809294531,world_ned,213.42642716805906,10.582080614721654,0.43368951962347785,-0.0024241129735628167,-3.546062187014714e-05,0.02162650138729293,0.9997631803865259,0.0012981677776228231,0.01142920343721171,0.00021658391926407356,-0.011254374668872536,0.001844812155022182,-0.004561033157846016,,0.0,49.0,167.00000000000003,132.0,2.57619449019234,-3.0340000000000042,-0.045,1.1753981633974446
2025/04/05 15:42:04.910876328,1743860524,909963296,world_ned,213.4271822009975,10.583135896594126,0.43370003121424294,-0.002768581442844385,-8.561734943081484e-06,0.02139207914689243,0.9997673298489325,0.011557979370972948,0.009049060019505574,9.529502896170746e-05,-0.003053610686203222,0.0002388847049848866,-0.004758854857911541,,0.0,49.0,167.00000000000003,132.0,2.526194490192341,-2.9840000000000053,-0.09500000000000001,1.1253981633974457
2025/04/05 15:42:05.5813146,1743860525,4850259,world_ned,213.42815730375736,10.583915972872287,0.43369801253523776,-0.002678535671604705,5.9798477190292054e-05,0.0211455500712986,0.9997728179856563,0.018285768707626743,0.0056981533961467275,-2.3027201672758925e-05,0.005985144935797176,-0.0002071256308496973,-0.005288746042324774,,0.0,46.0,196.0,157.0,2.4711944901923424,-2.9290000000000065,-0.15000000000000005,1.0703981633974469
2025/04/05 15:42:05.110861391,1743860525,108894747,world_ned,213.4295721762549,10.584321997367729,0.4336888401056005,-0.0021419943856791634,0.00016136523389655779,0.02084807503374626,0.9997803476707773,0.015470040441900075,0.0018919480226207365,-9.559392449036812e-05,0.014274191879053499,0.002197124500671782,-0.00645928801165495,,0.0,46.0,196.0,157.0,2.4311944901923432,-2.8690000000000078,-0.20943951023931956,1.0103981633974481
2025/04/05 15:42:05.213731071,1743860525,210229050,world_ned,213.43149515744102,10.584480325703487,0.43367518430379687,-0.0012837476089094305,0.00028023597458997387,0.020485937563897667,0.9997892777090597,0.02377639924583709,0.00029890270275720646,-0.0001410107847803447,0.018930166479864306,0.0015667733163955524,-0.007981549969219298,,0.0,50.0,237.99999999999997,196.0,2.4761944901923423,-2.8240000000000087,-0.20943951023931956,0.9653981633974483
2025/04/05 15:42:05.303701267,1743860525,302243441,world_ned,213.43395635947542,10.584679622541781,0.4336624125813358,-0.0003282887553613792,0.00041844474352894915,0.02003783786271076,0.9997990809078979,0.031602265839716676,0.001750358628880162,-9.573718398800062e-05,0.018808751542192026,0.0014903978448123538,-0.010049766153160132,,0.0,36.0,294.0,249.99999999999997,2.526194490192341,-2.77400000000001,-0.19943951023931955,0.9153981633974483
2025/04/05 15:42:05.406918602,1743860525,405623716,world_ned,213.43727279856142,10.585180306303984,0.433652446342457,0.0005050194874989412,0.0005470451027656264,0.0194596679675052,0.9998103655291674,0.03905862147456048,0.005750659176713446,-7.705579354457345e-05,0.014351953766112284,0.0016453402439742329,-0.012805663173030928,,0.0,33.0,309.99999999999994,275.0,2.57619449019234,-2.724000000000011,-0.18698621771937624,0.8653981633974482
2025/04/05 15:42:05.511459241,1743860525,509273774,world_ned,213.4411913687572,10.586256755991739,0.4336474926656177,0.0010091408078330723,0.0006832341446511628,0.018752349863694857,0.999823416509397,0.04671621449551921,0.012230926768405773,1.989235148435513e-05,0.0064202564510383,0.0011835697633561294,-0.015272457921272046,,0.0,39.0,295.0,292.0,2.631194490192339,-2.669000000000012,-0.1319862177193762,0.8103981633974482
2025/04/05 15:42:05.602918582,1743860525,601910350,world_ned,213.44581958124704,10.588124136859365,0.4336514611415705,0.0010548593995844784,0.0007709991743476479,0.017946372548465157,0.9998380971658721,0.04724109852958238,0.02128829877138019,9.747719638196722e-05,-0.0037676999312917683,0.0019511987452118468,-0.01647287972854093,,0.0,45.0,296.0,293.0,2.676194490192338,-2.624000000000013,-0.09471975511965977,0.7653981633974482
2025/04/05 15:42:05.704923188,1743860525,702773781,world_ned,213.45105755376363,10.59078756088539,0.4336615708846804,0.0006502266572298665,0.0007969065895150846,0.017089636475087083,0.9998534324941487,0.056186631610528504,0.027070356103200695,0.0001718140286218419,-0.010998034951794858,0.000160650611916712,-0.017814840474806297,,0.0,39.0,296.0,294.0,2.7461944901923365,-2.5540000000000145,-0.09981317007977321,0.6953981633974481
2025/04/05 15:42:05.805253492,1743860525,803645234,world_ned,213.45695140308857,10.593905956602367,0.4336750096227311,-2.6037490328168596e-05,0.00075934381151746,0.016165281584545766,0.999869044620503,0.06260160157828132,0.03046811358568815,0.0002365259280859474,-0.014931968613803718,-0.0009660234899315368,-0.01909100651238088,,0.0,36.0,296.0,294.0,2.8011944901923354,-2.4990000000000157,-0.08726646259971647,0.640398163397448
2025/04/05 15:42:05.905731121,1743860525,904916205,world_ned,213.4635994363927,10.597246356639092,0.4336883827373278,-0.0007942758165245367,0.0006515614634844205,0.015187567255678111,0.9998841344848116,0.067850950576414,0.031554075558139466,0.0002537825312775084,-0.015114529887957263,-0.0016349955581956206,-0.019920283834360477,,0.0,36.0,296.0,294.0,2.8461944901923344,-2.4540000000000166,-0.06981317007977318,0.595398163397448
2025/04/05 15:42:06.9893357,1743860526,8518782,world_ned,213.47073776442926,10.600566495623445,0.4336988724161609,-0.001466402415719137,0.0005260405439407839,0.01418055273824135,0.9998982372568417,0.07142773067447838,0.030524645666310423,0.00023396583595752666,-0.011705804782616496,-0.001541747010298714,-0.020239799670689698,,0.0,38.0,298.0,296.0,2.8961944901923333,-2.4040000000000177,-0.06981317007977318,0.545398163397448
2025/04/05 15:42:06.110466200,1743860526,109444280,world_ned,213.47868832408193,10.603655056989547,0.4337024237742803,-0.001877334678698952,0.000363387958712113,0.013158494772246973,0.9999115948817797,0.08570806719202748,0.027072892630796087,0.00018344921854460355,-0.005160003767440102,-0.003755521609739136,-0.0205926287681681,,0.0,30.999999999999996,299.0,298.0,2.9461944901923323,-2.3540000000000187,-0.08726646259971647,0.4953981633974479
2025/04/05 15:42:06.203799131,1743860526,202336717,world_ned,213.48734319847117,10.6063513297817,0.4336984312850022,-0.0019248762883812525,0.00021679123769478744,0.012124670772755674,0.9999246172644646,0.08968752804519839,0.022879524221819936,4.077249600063047e-05,0.002446391280857716,-0.002445486814762742,-0.020736400430702333,,0.0,32.0,300.0,299.0,2.996194490192331,-2.30400000000002,-0.08726646259971647,0.44539816339744787
2025/04/05 15:42:06.303198112,1743860526,302224113,world_ned,213.496835086037,10.608643787966336,0.43368590744891133,-0.0016069778958020984,9.403563196388823e-05,0.011087625144586857,0.9999372347042566,0.09787185760719773,0.019114623733862916,-4.978719917468903e-05,0.009256462307078892,-0.0018289166745774851,-0.02073563360585532,,0.0,29.999999999999996,301.0,300.0,3.04619449019233,-2.254000000000021,-0.08726646259971647,0.3953981633974478
2025/04/05 15:42:06.403771403,1743860526,403024758,world_ned,213.50700692546988,10.61060094666616,0.4336741884461663,-0.0009999930216342814,3.799594005830913e-05,0.01004856567031063,0.9999490111491859,0.10474925069958889,0.016218305034549824,-4.1411087531825606e-05,0.014077203390760544,-0.0004664177564776406,-0.02087542577329674,,0.0,25.0,302.0,301.0,3.0361944901923303,-2.204000000000022,-0.08726646259971647,0.3453981633974478
2025/04/05 15:42:06.505107443,1743860526,503871975,world_ned,213.5180509635077,10.6123896001431,0.43366587574592685,-0.000248769247991664,3.05713588836325e-05,0.00901146269030303,0.9999593645340967,0.11420581941823843,0.01570699897648166,-3.819389459450967e-05,0.01529304418959938,0.0002878916614429807,-0.0206025134347254,,0.0,24.0,302.0,302.0,3.05119449019233,-2.149000000000023,-0.06981317007977318,0.29039816339744773
2025/04/05 15:42:06.606676827,1743860526,605977194,world_ned,213.52987217713198,10.614196060453926,0.4336658499637191,0.00047768434250898984,8.173340969221324e-05,0.007989737450384345,0.999967964103247,0.11872236516263855,0.01656065498855242,2.7238605645974933e-05,0.013440544725858844,0.002242862116580904,-0.02033017485173444,,0.0,14.0,303.0,303.0,3.0311944901923304,-2.099000000000024,-0.06981317007977318,0.24039816339744768
2025/04/05 15:42:06.708350891,1743860526,707456705,world_ned,213.54238941665946,10.616195459384864,0.43367203439258617,0.0010191606120204962,0.0001824069513854504,0.006994306806651506,0.9999750035434113,0.12499928274957257,0.019617900794147394,7.768310885491906e-05,0.008362642111262988,0.0032182212453988903,-0.019507823897494145,,0.0,22.0,304.0,303.0,3.0261944901923306,-2.0940000000000243,-0.06981317007977318,0.23539816339744768
2025/04/05 15:42:06.809982456,1743860526,809158163,world_ned,213.55559960074936,10.618481727909362,0.43368040031424326,0.001273892017771362,0.00030591001825099555,0.006039817671969593,0.9999809019279704,0.1338995025626026,0.022399734316128878,0.00011375201054618512,0.0023691623394255213,0.0029440434030057615,-0.01870888115310704,,0.0,18.0,304.0,303.0,2.9761944901923316,-2.0440000000000254,-0.05235987755982989,0.18539816339744764
2025/04/05 15:42:06.912004600,1743860526,910827662,world_ned,213.5695557667254,10.62101016984059,0.4336893967414718,0.0012248934527083685,0.00041445225259040535,0.0051303785764027455,0.9999860034425595,0.14519079068449744,0.024711525057203063,0.00013580302302010377,-0.0035742298952610514,0.001269188061083403,-0.01776399605321245,,0.0,19.0,305.00000000000006,304.0,2.9761944901923316,-1.9440000000000275,-0.06981317007977318,0.08539816339744755
2025/04/05 15:42:07.3886650,1743860527,3075312,world_ned,213.5839877352181,10.623661509558252,0.43369793675845475,0.0009205548317396859,0.0005139122473969857,0.004264318477978643,0.999990351983919,0.1529481369156044,0.025077713793868396,0.00022227960181204776,-0.007638608025940637,4.239069126128561e-05,-0.01708388940137858,,0.0,9.0,305.00000000000006,306.00000000000006,2.9761944901923316,-1.9440000000000275,-0.06981317007977318,0.08539816339744755
2025/04/05 15:42:07.106791484,1743860527,105565346,world_ned,213.59902284401025,10.626312994391956,0.4337039052840394,0.00044884637550099367,0.0005721599486000041,0.0034322756051616693,0.9999938453081072,0.1557182670287274,0.025374531191418446,0.00017008349589565502,-0.010499322536484636,7.839269576753566e-05,-0.016305298509218896,,0.0,9.0,305.00000000000006,306.00000000000006,3.0161944901923308,-1.874000000000029,-0.06481317007977318,0.01539816339744754
2025/04/05 15:42:07.208490223,1743860527,207542306,world_ned,213.6146207109666,10.628857834315085,0.4337033354273024,-8.88635699288991e-05,0.0005829664195280882,0.002628662734269804,0.9999963711862404,0.15547077853543914,0.023383614510861832,0.00017443572293626935,-0.010427304040349132,0.0006517172540474371,-0.016018454362872542,,0.0,5.0,306.00000000000006,307.0,2.966194490192332,-1.82400000000003,-0.05235987755982989,-1.88079096131566e-36
2025/04/05 15:42:07.309259021,1743860527,308442943,world_ned,213.63080533168414,10.63116889005973,0.4336974967276226,-0.0005774651985614967,0.000538400455369354,0.0018463155751005029,0.9999979838868133,0.16518159514820435,0.021552404178883093,0.00011417017179961941,-0.008974763876573193,-0.0014583618619446277,-0.015325671384285373,,2.0,0.0,307.0,308.99999999999994,2.9361944901923325,-1.774000000000031,-0.042359877559829895,-1.88079096131566e-36
2025/04/05 15:42:07.410177374,1743860527,409222064,world_ned,213.64751513011268,10.633255856750912,0.43368463317005973,-0.0009523950835848091,0.00045923657283020506,0.0011034902839967425,0.9999988321766021,0.1678479653909009,0.019297673362393103,4.667647444819815e-05,-0.0060269916797025804,-0.001330542548475377,-0.014490955563719325,,0.0,0.0,308.0,308.99999999999994,2.966194490192332,-1.7440000000000317,-0.02490658503988659,-1.88079096131566e-36
2025/04/05 15:42:07.511391924,1743860527,510315341,world_ned,213.6648856217388,10.635053966308554,0.43366957223311103,-0.001142409954294121,0.00034182189619884134,0.00040159672047157,0.9999992083883675,0.17436333404751853,0.01629761484676683,8.176729270594553e-06,-0.001790997358721561,-0.0019203664147953087,-0.013698488114486158,,0.0,2.0,308.99999999999994,309.99999999999994,2.916194490192333,-1.7940000000000307,-0.017453292519943295,2.168404344971007e-21
2025/04/05 15:42:07.602734370,1743860527,601801928,world_ned,213.6827230150738,10.636480738664337,0.4336582198335442,-0.0010973172579605808,0.00023207221857433595,-0.0002673147817085168,0.9999993352898432,0.18090163446229332,0.012665563569299404,3.845379405833438e-05,0.003038601452439981,-0.00210847216312386,-0.013083066890839963,,0.0,7.0,308.99999999999994,309.99999999999994,2.8861944901923335,-1.82400000000003,-0.027453292519943297,-1.88079096131566e-36
2025/04/05 15:42:07.703553820,1743860527,702649717,world_ned,213.7012555297882,10.63750084891524,0.43365503251497833,-0.0008164096198526554,0.00011960300450282831,-0.0009153105521988475,0.9999992406882352,0.18859258355324918,0.008590070037214402,6.665081735464961e-05,0.007610833105904329,-0.0021766303491007363,-0.012972930112659256,,0.0,0.0,308.99999999999994,312.0,2.916194490192333,-1.774000000000031,-0.044906585039886586,-1.88079096131566e-36
2025/04/05 15:42:07.806750199,1743860527,803482497,world_ned,213.7203258580805,10.638219519043625,0.43365864917982866,-0.0003777379934698552,4.782725552842775e-05,-0.001547552174500931,0.9999987300536082,0.19125928226744585,0.007180949184548055,6.20665257417942e-05,0.009346687464018478,-0.0004646713682261822,-0.012333283073528998,,0.0,3.0,309.99999999999994,312.0,2.8861944901923335,-1.7240000000000322,-0.04235987755982989,-1.88079096131566e-36
2025/04/05 15:42:07.906140317,1743860527,904900761,world_ned,213.73994908475854,10.638825451272448,0.4336681516542326,9.376720172586214e-05,2.8163331512530034e-05,-0.002150015865593703,0.999997683920476,0.19745567015578686,0.00670470494215972,0.00011186050653143601,0.009139562249947587,0.0004708382881061959,-0.011823649379821098,,0.0,2.0,309.99999999999994,313.0,2.916194490192333,-1.6740000000000332,-0.044906585039886586,-1.88079096131566e-36
2025/04/05 15:42:08.8085786,1743860528,6822156,world_ned,213.7603160684992,10.639394226555583,0.43368037363596956,0.0005056618597410696,3.500193657421337e-05,-0.0027359366085075937,0.9999961288584183,0.20653028198316253,0.0066823155987805385,0.0001351985557392116,0.007303848618221704,0.0004515997335780313,-0.01174922660849554,,0.0,1.0,311.0,314.0,2.8911944901923334,-1.6190000000000344,-0.05235987755982989,-1.88079096131566e-36
2025/04/05 15:42:08.109833007,1743860528,108767614,world_ned,213.78111600527114,10.6400579400671,0.43369398818347077,0.0007563254675068331,0.00010327759207114514,-0.0033074028096155795,0.999994239179497,0.21095289637686657,0.009044063172118427,0.00015288243768412822,0.0029249533638099454,0.0015386082876382029,-0.011158108794234888,,0.0,0.0,311.0,314.0,2.9311944901923326,-1.5790000000000353,-0.04735987755982989,-1.88079096131566e-36
2025/04/05 15:42:08.210920973,1743860528,209876767,world_ned,213.8024697123389,10.64096429668497,0.43370406558017693,0.000763924074006989,0.00019891701777290766,-0.003846076168558344,0.9999922922453627,0.21426661292087906,0.01188627182795916,0.0001508572913555483,-0.002129906652630592,0.0024702187834460755,-0.010421501292269266,,0.0,2.0,312.0,315.0,2.9761944901923316,-1.5533430342749532,-0.03490658503988659,-1.88079096131566e-36
2025/04/05 15:42:08.302074004,1743860528,300841405,world_ned,213.8243314319964,10.642082545396843,0.43370866832960675,0.0005400365313077419,0.0003029455826144256,-0.0043517152785393165,0.9999903395326644,0.22064087916033231,0.013828720409870399,0.00013290580513207432,-0.00627540705779883,0.002003319106722596,-0.009882763175536055,,6.0,0.0,312.0,316.0,3.0261944901923306,-1.5533430342749532,-0.03490658503988659,-1.88079096131566e-36
2025/04/05 15:42:08.403002678,1743860528,401407845,world_ned,213.84660346614558,10.643343104850432,0.43370632313600815,0.00014056460934352562,0.00040211627951554076,-0.004829224238364719,0.9999882484996231,0.2251515917892219,0.015144971452813363,0.00012533778955962162,-0.00908088494429946,0.0015812587804662796,-0.009281013351750193,,2.0,0.0,313.0,316.0,2.9761944901923316,-1.5533430342749532,-0.05235987755982989,-1.88079096131566e-36
2025/04/05 15:42:08.503550675,1743860528,502643397,world_ned,213.8693396367054,10.644639235304453,0.433698003366382,-0.00034100235417925144,0.000468613291601824,-0.005276408054221337,0.9999859117192715,0.22876696080415232,0.015158177937756425,0.00012032372026411378,-0.009738461429188348,0.0010100692911443206,-0.00868163587944228,,3.0,0.0,313.0,317.00000000000006,2.9261944901923327,-1.6033430342749522,-0.03490658503988659,-1.88079096131566e-36
2025/04/05 15:42:08.604367304,1743860528,603505964,world_ned,213.89245468587234,10.645839233475828,0.433682547875038,-0.0007939065518364934,0.0004957535080200451,-0.005694570930952672,0.9999833477627308,0.2379435705849853,0.013854269641658491,7.30569601153121e-05,-0.00816398114710288,-0.0013579881223567383,-0.008112220082684052,,3.0,0.0,314.0,317.00000000000006,2.871194490192334,-1.658343034274951,-0.03490658503988659,-1.88079096131566e-36
2025/04/05 15:42:08.705262660,1743860528,704395112,world_ned,213.91588150508144,10.646827117016693,0.43366509395599057,-0.0011169261877739132,0.0004853555741329085,-0.0060853938623654374,0.9999807422582685,0.2380049065983308,0.01154960325316121,9.564315293867102e-05,-0.004833561268900697,-0.0012640794320824041,-0.00757965309047711,,6.0,0.0,314.0,318.00000000000006,2.826194490192335,-1.70334303427495,-0.03490658503988659,-1.88079096131566e-36
2025/04/05 15:42:08.809215864,1743860528,808433437,world_ned,213.93964559078867,10.647526207641363,0.43365284452941005,-0.0012415293016399382,0.0004358332847682007,-0.00645242641173871,0.9999783171887989,0.23968751868225233,0.008628048744240889,0.00015217297548864614,-0.00045294508526539214,-0.0014276387328747493,-0.007198076813085374,,8.0,0.0,316.0,320.0,2.776194490192336,-1.753343034274949,-0.03490658503988659,-1.0842021724855063e-21
2025/04/05 15:42:08.910608766,1743860528,909397272,world_ned,213.9637957737469,10.64793872993413,0.43364977651663544,-0.001153775714241888,0.00035117886456190477,-0.0067997312380300235,0.9999761542807393,0.2375690390363756,0.006352673881474637,0.0002024998060082497,0.0035020625758076115,-0.0003221076186794766,-0.006740970220094021,,14.999999999999998,0.0,316.0,321.0,2.726194490192337,-1.803343034274948,-0.03490658503988659,-1.0842021724855063e-21
2025/04/05 15:42:09.13639198,1743860529,10181143,world_ned,213.98830736267578,10.648081585804444,0.4336568862613092,-0.0008734925025469382,0.0002489837639990247,-0.007136925322653566,0.9999741193225313,0.2460021111156997,0.0034245769600727725,0.00025097979035556357,0.007347118252097302,-0.0018863121934363971,-0.006936614788237496,,18.0,0.0,317.00000000000006,321.0,2.676194490192338,-1.8533430342749468,-0.017453292519943295,-1.88079096131566e-36
2025/04/05 15:42:09.103340253,1743860529,102369095,world_ned,214.01327661159203,10.648055082904303,0.43367166680618474,-0.00047522743757451167,0.000133646181236943,-0.007467976378503472,0.9999719924209832,0.2556780951723268,0.003897791346777833,0.00022903849191263485,0.007984937902225351,-0.00327911017142666,-0.006171373826027199,,10.0,0.0,318.00000000000006,322.0,2.621194490192339,-1.8983430342749459,-0.012453292519943295,-1.88079096131566e-36
2025/04/05 15:42:09.205331809,1743860529,204638125,world_ned,214.0384597963615,10.648123624147454,0.43368924005805864,-9.818295784043467e-05,6.867354569645574e-05,-0.007754686168391584,0.9999699247909812,0.2560575360333578,0.005450853176262769,0.00022152821205667265,0.006773354506265893,-0.0016006072082108184,-0.005241628072992027,,7.0,0.0,318.00000000000006,323.0,2.57619449019234,-1.8533430342749468,0.0,-1.88079096131566e-36
2025/04/05 15:42:09.309963162,1743860529,307743231,world_ned,214.06418730410988,10.64831547521053,0.43370683060252363,0.00019333343084111893,2.4550160583371213e-05,-0.008003711147444642,0.9999679508000956,0.2598074987888464,0.00653151213322248,0.00017171597589128571,0.004851726381852074,-0.0006672343753520967,-0.004770981597378498,,3.0,0.0,319.0,324.0,2.526194490192341,-1.9033430342749458,-0.017453292519943295,5.4210108624275035e-22
2025/04/05 15:42:09.402485481,1743860529,400887494,world_ned,214.09027863424973,10.648630256499839,0.43371973112570406,0.000358280883867335,3.163743246773587e-05,-0.00823130777348469,0.9999660575270639,0.26068796576710884,0.008156459556448009,9.668602984773739e-05,0.0019004064332721327,0.0010849483256216857,-0.004416292239699815,,10.0,0.0,320.0,324.0,2.4761944901923423,-1.9533430342749447,-0.03490658503988659,5.4210108624275035e-22
2025/04/05 15:42:09.502469285,1743860529,501463667,world_ned,214.11677024862627,10.649191648936133,0.4337206962054852,0.00033556700918550245,8.210155514261247e-05,-0.008425666753640914,0.9999644437648139,0.2637743410875547,0.012200262473809502,-5.1725489566085395e-05,-0.002786831828492945,0.0021148225132130807,-0.0031609831588589408,,6.0,0.0,321.0,324.0,2.4261944901923433,-2.003343034274944,-0.03490658503988659,-1.88079096131566e-36
2025/04/05 15:42:09.603216266,1743860529,602288100,world_ned,214.14361037701048,10.650030934025668,0.43370731115531896,0.0001198932735758926,0.0001689702242628558,-0.008571907689222006,0.9999632390609335,0.2672414935074552,0.013467591465571454,-8.837571523008948e-05,-0.005416935268033698,0.0026068026804189092,-0.00273334926813768,,6.0,0.0,321.0,326.0,2.3711944901923445,-2.0583430342749427,-0.017453292519943295,-1.88079096131566e-36
2025/04/05 15:42:09.705215309,1743860529,704281285,world_ned,214.1708722741677,10.650936874567737,0.4336872996621953,-0.00019191651816890685,0.0002612867928214068,-0.008696925811586481,0.9999621284722185,0.2759780372450318,0.013848735224331263,-6.49185604659335e-05,-0.006686448556857614,0.0012521058840554104,-0.002321748093346682,,1.0,0.0,323.0,327.0,2.3161944901923457,-2.1133430342749415,-0.03490658503988659,-1.88079096131566e-36
2025/04/05 15:42:09.810039173,1743860529,807593700,world_ned,214.19832003764992,10.651818805060433,0.43366627188022355,-0.0005242853643287164,0.00037047920066280533,-0.008801934713113878,0.9999610561493506,0.27302419771824116,0.013316859362646313,1.3312859192014922e-05,-0.006417811561363517,0.0027304297028346546,-0.001918248999905789,,5.0,0.0,323.0,327.0,2.2661944901923468,-2.1633430342749405,-0.03490658503988659,-1.88079096131566e-36
2025/04/05 15:42:09.910571889,1743860529,908381522,world_ned,214.22610883519656,10.652588791856106,0.4336495334523964,-0.000801990814629667,0.0004530003565838959,-0.008886822275210357,0.9999600871991137,0.27969417383684714,0.011923826808279235,0.0001490552016081365,-0.004666078666514337,0.0011515854482591122,-0.0015224594362007306,,4.0,0.0,324.0,327.99999999999994,2.216194490192348,-2.2133430342749394,-0.03490658503988659,-1.88079096131566e-36
2025/04/05 15:42:10.11087168,1743860530,10280123,world_ned,214.25410999109005,10.65317463809821,0.43364297669734786,-0.0009618336323534724,0.0005098418038215364,-0.008954491170870438,0.9999593151850077,0.28044817068825123,0.009921997701905548,0.00027508488212640755,-0.001906981268876967,0.0009080712503965202,-0.001257205001460258,,9.0,0.0,325.0,329.0,2.161194490192349,-2.268343034274938,-0.03490658503988659,-1.88079096131566e-36
2025/04/05 15:42:10.103014146,1743860530,100978539,world_ned,214.28234147078246,10.653659943143346,0.4336491159158259,-0.0010103579554786993,0.0005257243843824339,-0.008987817905819527,0.9999589601178467,0.28053876482332135,0.009838374997866843,0.00043051773472615063,-0.00014244667993248947,0.0006651653884104139,-0.0001766675356764992,,6.0,0.0,326.0,331.0,2.11619449019235,-2.3133430342749373,-0.02490658503988659,-1.88079096131566e-36
2025/04/05 15:42:10.206119822,1743860530,203913860,world_ned,214.31080918678546,10.654010733755698,0.4336636907289027,-0.0009313580585531408,0.0004970773493335785,-0.008989258051830153,0.9999590385240553,0.2840659650579718,0.0076641489404708895,0.00046098115712773314,0.002948156502306302,-0.00044886674622591875,5.204584818602056e-05,,8.0,0.0,327.99999999999994,333.0,2.0561944901923512,-2.373343034274936,-0.03490658503988659,-1.88079096131566e-36
2025/04/05 15:42:10.305984162,1743860530,305211314,world_ned,214.3395531809107,10.6541817500347,0.43368393793181986,-0.0007205579465681946,0.00042952171051056085,-0.00897878787388624,0.9999593380111321,0.29254554718705456,0.00632961909874238,0.0004795544176413268,0.005119220291687408,-0.0026776702930505466,0.00033996283272588545,,9.0,0.0,327.99999999999994,332.00000000000006,2.0061944901923523,-2.423343034274935,-0.017453292519943295,-1.88079096131566e-36
2025/04/05 15:42:10.407634630,1743860530,406446880,world_ned,214.3684850812626,10.654257685181179,0.4337054995191636,-0.00043415884657832196,0.0003492926303854621,-0.008954198144277706,0.999959755108348,0.28898600956013437,0.0057628917901772206,0.00039842493904261155,0.006033947483915434,-0.0012640326131707525,0.0006162277162994936,,8.0,0.0,329.99999999999994,334.00000000000006,1.9361944901923538,-2.4933430342749334,-0.017453292519943295,-5.08219768352599e-23
2025/04/05 15:42:10.513495544,1743860530,510445566,world_ned,214.3977282947963,10.654321555296061,0.4337193969703378,-0.00014171413490905886,0.0002549705931898569,-0.008915558387092425,0.9999602130713736,0.2957156084471515,0.006094687481938074,0.00023665185109101184,0.005491441222908705,-0.00241865138140582,0.0009086553904794803,,9.0,0.0,331.0,335.0,1.9361944901923538,-2.4933430342749334,-0.017453292519943295,-5.08219768352599e-23
2025/04/05 15:42:10.604404885,1743860530,602133859,world_ned,214.42723078750416,10.654463121019404,0.4337237041411629,8.613458420058138e-05,0.00017116637935330714,-0.00886163358717686,0.9999607165949423,0.29549502483274376,0.007213751009165155,0.00011442092298550774,0.003654084257033013,-0.0012754850156955647,0.0012189331107882158,,9.0,0.0,332.00000000000006,336.0,1.881194490192355,-2.5483430342749323,-0.017453292519943295,-5.08219768352599e-23
2025/04/05 15:42:10.705822676,1743860530,704816039,world_ned,214.45703940572645,10.65477891327819,0.43371750099315204,0.0001865327859295175,0.00010700535002621935,-0.008783396526962289,0.9999614021055138,0.29645592534602255,0.009678367840558609,-6.198289426207253e-05,0.0004487237052367058,-0.00025112057022063793,0.001977486729765107,,5.0,0.0,332.00000000000006,336.0,1.786194490192357,-2.6433430342749302,-0.017453292519943295,8.470329472542816e-23
2025/04/05 15:42:10.806782204,1743860530,805562219,world_ned,214.48717530662884,10.655279361307324,0.4337023529784173,0.00014255770853680304,6.662449602891672e-05,-0.008676513212281415,0.9999623459695637,0.3023300938121993,0.010687629132106519,-0.00013769881905619072,-0.0019032125301016486,-0.00047867988479231215,0.0022584032646594675,,2.0,0.0,334.00000000000006,338.0,1.736194490192358,-2.693343034274929,-0.03490658503988659,8.470329472542816e-23
2025/04/05 15:42:10.910167772,1743860530,906943543,world_ned,214.51750446474904,10.655853034053424,0.43368563244791936,-2.6648294413274573e-06,7.077979755173071e-05,-0.008559268102905795,0.9999633662853162,0.29778325685742485,0.010932863615038623,-0.00011334824296456516,-0.0035067213529473506,0.00214931731336907,0.002328291406807936,,0.0,0.0,335.0,338.99999999999994,1.6861944901923591,-2.743343034274928,-0.03490658503988659,-4.573977915173241e-22
2025/04/05 15:42:11.11923579,1743860531,9502382,world_ned,214.54825469276588,10.656406338428308,0.4336713804873902,-0.00020047184416214822,8.021428695150691e-05,-0.008443012930964226,0.9999643338186395,0.31060137094755713,0.01070498676219365,-6.952486172019144e-05,-0.004301648071168314,-0.0001845757832124464,0.00239919770125272,,2.0,0.0,336.0,340.0,1.6861944901923591,-2.743343034274928,-0.03490658503988659,-4.573977915173241e-22
2025/04/05 15:42:11.106529824,1743860531,105048717,world_ned,214.57905032999236,10.656943554750006,0.4336621753011022,-0.0004210631971389821,0.00014455406766762432,-0.008316057703727339,0.9999653218958015,0.3107858283656459,0.010282111247919409,2.8543969243035686e-05,-0.004348368929933933,0.0009343816630777748,0.0026529900769476917,,2.0,0.0,338.0,340.99999999999994,1.7161944901923585,-2.7133430342749287,-0.03490658503988659,8.470329472542813e-23
2025/04/05 15:42:11.206883009,1743860531,205811525,world_ned,214.61024256363356,10.657394180213965,0.43365981241615587,-0.0006117982035792535,0.00020253218316341388,-0.008179623320092482,0.9999663386564641,0.30961683491679665,0.0088748516934587,0.00012623514115685778,-0.003150898857408214,0.0020590187672144982,0.0027080158802200876,,0.0,0.0,338.99999999999994,341.99999999999994,1.6811944901923592,-2.748343034274928,-0.03490658503988659,8.470329472542813e-23
2025/04/05 15:42:11.308047209,1743860531,307292546,world_ned,214.64160282560098,10.657667416610122,0.43366187742387086,-0.0007168719969142203,0.00026505886638887284,-0.008046935644498767,0.999967330798897,0.3119315992038911,0.007087150271843649,0.0002137729773761238,-0.0013016633978787274,0.0019002697547810267,0.0026540887216416806,,4.0,0.0,340.0,343.00000000000006,1.6261944901923604,-2.803343034274927,-0.03490658503988659,8.470329472542813e-23
2025/04/05 15:42:11.408932713,1743860531,407871514,world_ned,214.67317901067386,10.657810214932953,0.43366870090695525,-0.000736148730894287,0.00031991268073768524,-0.007908674227786896,0.999968403807281,0.316525550346809,0.005968619797736221,0.00029776040051803394,0.000345271367409494,0.0010400005108312487,0.0028665827201075035,,7.0,0.0,341.99999999999994,346.0,1.6761944901923593,-2.753343034274928,-0.03490658503988659,8.470329472542813e-23
2025/04/05 15:42:11.511514346,1743860531,508798594,world_ned,214.70497169167504,10.657887400246828,0.4336803969442776,-0.0006867417227843167,0.0003585851742288649,-0.007751477143374225,0.9999696567419307,0.3187981946434305,0.005767737180724427,0.0003667538169943222,0.0013520581873174915,0.0005745740583842085,0.0034783229993655637,,1.0,0.0,343.00000000000006,346.0,1.6211944901923605,-2.8083430342749267,-0.017453292519943295,8.470329472542813e-23
2025/04/05 15:42:11.610709172,1743860531,609668538,world_ned,214.73695278561487,10.65790329480799,0.4336935531285781,-0.0005765802985053409,0.00037461077381141565,-0.007573612602976764,0.9999710833889486,0.32079418103356366,0.004539980418297907,0.000359566244925244,0.0027943342543052586,6.779658774329851e-05,0.0035912912851938303,,6.0,0.0,344.0,347.0,1.5533430342749532,-2.878343034274925,-0.03490658503988659,8.470329472542813e-23
2025/04/05 15:42:11.712906079,1743860531,710568946,world_ned,214.7691529449356,10.657852108359036,0.43370290786240545,-0.0004206443684620973,0.00036107531936624816,-0.007388785016424531,0.9999725488926734,0.3235663298102416,0.004183616129189939,0.00030503828718398383,0.0032622346943682293,-0.0006780943430941385,0.0037875991676164012,,7.0,0.0,345.00000000000006,349.0,1.5533430342749532,-2.928343034274924,-0.017453292519943295,8.470329472542813e-23
2025/04/05 15:42:11.806881128,1743860531,805717412,world_ned,214.80149573912036,10.657801218064012,0.4337072605627017,-0.0002624460238330572,0.000331696597366437,-0.007194070869356531,0.9999740328847437,0.3212284325099071,0.0042677087598796916,0.0002351168863141512,0.0029797268557755787,0.00011253362959908955,0.003972949960064732,,6.0,0.0,347.0,349.99999999999994,1.5533430342749532,-2.978343034274923,-0.017453292519943295,6.268043809681804e-22
2025/04/05 15:42:11.909111535,1743860531,908194451,world_ned,214.8341284242116,10.657787564227256,0.4337068534696588,-0.00013791525462949716,0.00027081306724951624,-0.006991068754871092,0.9999755159989318,0.32700330344771933,0.004708423430568026,0.00015044075346875094,0.0020279573440572587,-0.0012646532798480832,0.0041329597060758205,,6.0,0.0,347.0,349.99999999999994,1.5533430342749532,-3.028343034274922,-0.017453292519943295,8.470329472542813e-23
2025/04/05 15:42:12.9994713,1743860532,9061844,world_ned,214.8668871895002,10.65787595155873,0.4337016282609385,-8.356684191371875e-05,0.0002119603413551489,-0.006772408101926804,0.9999770410253915,0.326664382984655,0.00611779480801585,7.954998999245545e-05,0.00019106709773331247,-0.0006910130601695014,0.00466956985974258,,1.0,0.0,349.99999999999994,353.0,1.5533430342749532,-3.073343034274921,-0.017453292519943295,6.268043809681804e-22
2025/04/05 15:42:12.113785880,1743860532,112569031,world_ned,214.90000332592447,10.658059357239791,0.43369334116719493,-0.00010562549264995388,0.0001336660804743249,-0.006536183966486957,0.9999786244094373,0.3365235088455726,0.006330709445036479,-1.0985306747871479e-05,-0.0009385172955892038,-0.002737608632848286,0.004736070715482636,,4.0,0.0,352.0,354.99999999999994,1.5533430342749532,-3.12834303427492,-0.03490658503988659,8.470329472542804e-23
2025/04/05 15:42:12.202484023,1743860532,201491619,world_ned,214.93322988570486,10.658286123268363,0.433682884356444,-0.00018257166104108398,8.37984570467427e-05,-0.00629597791721455,0.9999801599569229,0.33367398680591737,0.0065335040272882765,-5.446762913211798e-05,-0.0018890076652796689,-0.001000330229448752,0.004846877307030182,,0.0,0.0,353.0,354.99999999999994,1.5533430342749532,-3.173343034274919,-0.017453292519943295,8.470329472542804e-23
2025/04/05 15:42:12.305507894,1743860532,302464231,world_ned,214.96676046084104,10.658483090948662,0.43367310586593616,-0.0002803526364177208,3.946000412544155e-05,-0.0060574054986914485,0.9999816136729374,0.337659774293208,0.005712480147519075,-6.109144021462787e-05,-0.0019332654602206413,-0.0011101696014449896,0.004711722561313408,,0.0,2.0,354.0,356.99999999999994,1.5783430342749527,-3.178343034274919,-0.03490658503988659,8.470329472542804e-23
2025/04/05 15:42:12.404447637,1743860532,403259219,world_ned,215.0004478189955,10.65860570954916,0.4336663848050048,-0.00037081948969752915,2.781164071771645e-05,-0.00582545263435276,0.9999829627653781,0.340326785977257,0.0049622928716070705,-2.25470919699197e-05,-0.0017601904112027483,-0.0006564852552112681,0.0046200196279851955,,5.0,0.0,356.00000000000006,358.0,1.6283430342749516,-3.12834303427492,-0.03490658503988659,6.268043809681803e-22
2025/04/05 15:42:12.506665484,1743860532,504065785,world_ned,215.03440455909944,10.658704239301198,0.4336654323498271,-0.0004575880035680305,4.2520806494364875e-05,-0.00559068394468452,0.9999842664053423,0.34195900305039323,0.004718100400401244,4.793092554289946e-05,-0.0016515493236525008,0.0001603010954168162,0.00475367888032996,,5.0,0.0,356.00000000000006,359.0,1.6333430342749515,-3.12334303427492,-0.017453292519943295,8.470329472542804e-23
2025/04/05 15:42:12.606570255,1743860532,605567205,world_ned,215.0686263790688,10.658807051371019,0.4336686883238586,-0.0005361085213879976,8.104534714522967e-05,-0.005342211748174673,0.9999855832925506,0.3471022369187403,0.004910987425060637,9.345493429131347e-05,-0.0015416792609195152,-0.00011082313771384341,0.005242663231969294,,0.0,0.0,359.0,360.99999999999994,1.5833430342749526,-3.173343034274919,-0.017453292519943295,8.470329472542804e-23
2025/04/05 15:42:12.707757763,1743860532,706413125,world_ned,215.103002643122,10.65886058772693,0.43367392772510405,-0.0005766759151700252,0.00014742338409688392,-0.005081203636168534,0.9999869134547924,0.34539308466921614,0.0033451522559496873,0.00017960267857501975,-0.0001386060308738756,0.0011905734042280882,0.005156662053991501,,0.0,3.0,360.99999999999994,362.0,1.563343034274953,-3.2190000000000003,-0.03490658503988659,8.470329472542804e-23
2025/04/05 15:42:12.808892307,1743860532,803755544,world_ned,215.13762509042343,10.658765411367158,0.4336820080062677,-0.0005430965905678616,0.00021292582533738506,-0.0048276581209373655,0.9999881766429809,0.3447706630492036,0.0019392074549330397,0.00022518866458787738,0.0011713936696078296,0.0019885614249743225,0.005031013493475175,,1.0,0.0,362.0,364.00000000000006,1.5733430342749528,-3.2090000000000005,-0.03490658503988659,8.470329472542804e-23
2025/04/05 15:42:12.908905673,1743860532,907283033,world_ned,215.172521876089,10.658595285841551,0.4336901259814543,-0.00046524561050166456,0.0002656826003550554,-0.004575635640602492,0.999989388202576,0.3443162712407395,0.0012529857902493903,0.0002721170835848629,0.0018349949427615912,0.0025333218874365768,0.005022644133310101,,0.0,0.0,364.00000000000006,365.00000000000006,1.5783430342749527,-3.2040000000000006,-0.017453292519943295,8.470329472542804e-23
2025/04/05 15:42:13.2725300,1743860533,902579,world_ned,215.20754382598471,10.658371935498701,0.4336990858159435,-0.0003603946537831588,0.00031523481785825097,-0.004327463767663623,0.9999905218551037,0.3519460768369444,0.0005442549735883409,0.0003102302139725797,0.0022575836035316566,0.0005478293185514069,0.004877507794073423,,0.0,1.0,366.0,367.0,1.5533430342749532,-3.229,-0.017453292519943295,8.470329472542804e-23
2025/04/05 15:42:13.102782399,1743860533,101811423,world_ned,215.24271033299317,10.658096921368058,0.43370566427021734,-0.0002453715918138811,0.00034374624584433477,-0.004090761061018484,0.9999915436168658,0.35581390174885436,-4.965907489012423e-05,0.000279887010189877,0.002278675467398091,-0.000601242598962795,0.004617992904774522,,0.0,1.0,366.0,367.0,1.568343034274953,-3.2140000000000004,-0.017453292519943295,8.470329472542804e-23
2025/04/05 15:42:13.205270775,1743860533,203597482,world_ned,215.27808236690282,10.6578085265662,0.4337074140975934,-0.00014987697489049837,0.0003340206333249149,-0.003863274570449374,0.9999924705100045,0.3514534160536391,-1.0059617522172413e-05,0.00020648039495693317,0.001538256075916959,0.00035828115162842965,0.004586012648212792,,0.0,10.0,368.99999999999994,369.99999999999994,1.613343034274952,-3.1690000000000014,-0.017453292519943295,8.470329472542804e-23
2025/04/05 15:42:13.306250480,1743860533,304503780,world_ned,215.3135573360338,10.657528641841575,0.4337013328624837,-9.347402085668459e-05,0.0003004461439741554,-0.0036371254161555863,0.999993336134511,0.3518486755617077,-0.0002436537256660661,0.00015123777227534258,0.0007462962025783321,8.856543722212013e-05,0.004455469820650261,,0.0,8.0,371.0,372.0,1.6433430342749513,-3.1190000000000024,-0.027453292519943297,6.268043809681803e-22
2025/04/05 15:42:13.406436044,1743860533,405524972,world_ned,215.34922194924667,10.65724321853573,0.43369170718695366,-8.019592751301416e-05,0.00024029259599451518,-0.0034181574172285757,0.9999941259967243,0.35689679300862287,-0.0004170372293692368,5.9930681958825663e-05,-0.00014823438568615623,-0.0011866142651058684,0.004310337019008953,,0.0,4.0,372.0,374.0,1.5933430342749524,-3.0690000000000035,-0.03490658503988659,8.470329472542804e-23
2025/04/05 15:42:13.508106168,1743860533,506500989,world_ned,215.38500188764462,10.656908360462158,0.4336809199730192,-9.780372699218654e-05,0.00017634162722683538,-0.0032183116070123446,0.9999948008907155,0.3552320335970497,-0.0017285003907630413,2.5355947788433894e-05,-0.0003296227797737589,-0.0004081615297383504,0.0035786707419015146,,0.0,5.0,374.0,375.0,1.568343034274953,-3.0140000000000047,-0.03490658503988659,-4.573977915173242e-22
2025/04/05 15:42:13.609357476,1743860533,608619642,world_ned,215.42100754991006,10.656525262431929,0.4336721638004394,-0.00014478866925853804,0.00010750518763720534,-0.003041896231612884,0.999995357162318,0.3640713707284643,-0.001436479194432736,-5.250864315310748e-06,-0.0014235973780718579,-0.0021348207863831673,0.003553364426675095,,0.0,6.0,376.99999999999994,378.00000000000006,1.5783430342749527,-2.954000000000006,-0.017453292519943295,8.470329472542804e-23
2025/04/05 15:42:13.705157676,1743860533,701875167,world_ned,215.45720736502577,10.656098217407243,0.43366852529899685,-0.00021520523161405936,5.4559483893543186e-05,-0.0028805592595481087,0.9999958265354527,0.3655853060342044,-0.0030078360254981425,4.3514800092860024e-05,-0.0011699821066935088,-0.0016523300131506694,0.002795510327570601,,0.0,2.0,378.00000000000006,379.0,1.5733430342749528,-2.909000000000007,-0.03490658503988659,8.470329472542804e-23
2025/04/05 15:42:13.803882659,1743860533,802628087,world_ned,215.4935712497365,10.655584961300233,0.4336720788953431,-0.00028644658179390156,3.3118415107557184e-05,-0.0027464136022288333,0.9999961870246565,0.36784746901683546,-0.00317025599200438,8.870993435790522e-05,-0.001594898316297709,-0.0010379278182571891,0.0025996591502790165,,0.0,1.0,379.0,381.0,1.6233430342749517,-2.859000000000008,-0.017453292519943295,8.470329472542804e-23
2025/04/05 15:42:13.904568845,1743860533,903372226,world_ned,215.53016661856648,10.655054228040987,0.4336808059768471,-0.0003689056416378495,4.485786166265174e-05,-0.002621169665493592,0.9999964956768521,0.3628559822677358,-0.0035291867844464823,0.00010485358134296085,-0.0016431218246186327,0.0016791056804198695,0.0024213169501770336,,0.0,2.0,382.0,382.0,1.6283430342749516,-2.804000000000009,-0.017453292519943295,8.470329472542804e-23
2025/04/05 15:42:14.5240791,1743860534,4132015,world_ned,215.56702933710017,10.654495624220816,0.43368992222565,-0.0004472765614731303,8.320555139067546e-05,-0.0025022511819412572,0.9999967658745383,0.37008990373326717,-0.0037075341293023294,0.0001597370778211123,-0.0015588227532972957,0.0009470534926558775,0.002419531136577631,,3.0,0.0,383.0,384.0,1.6233430342749517,-2.75900000000001,-0.017453292519943295,8.470329472542804e-23
2025/04/05 15:42:14.105927291,1743860534,105022543,world_ned,215.60408700459925,10.653940189547102,0.43370009537307613,-0.0005191904317977005,0.00015571796996948777,-0.002377590983346919,0.9999970266227421,0.3718527721771349,-0.003832488383460956,0.00019466749064719874,-0.0012846866226597555,0.0015709097089989142,0.0025479782591104286,,0.0,0.0,385.0,386.0,1.6333430342749515,-2.7490000000000103,-0.017453292519943295,8.470329472542804e-23
2025/04/05 15:42:14.207647936,1743860534,206518705,world_ned,215.64145246875634,10.653372114569223,0.4337058781357288,-0.0005698323668131536,0.00023105418947831071,-0.0022464021514270825,0.9999972877875266,0.37809238344120116,-0.004081007494307322,0.00022149965868138705,-0.0007513471589745413,0.0005834507094936047,0.002691906877884225,,0.0,0.0,387.0,387.99999999999994,1.5833430342749526,-2.7990000000000093,-0.017453292519943295,8.470329472542804e-23
2025/04/05 15:42:14.308676122,1743860534,307546024,world_ned,215.67894790726717,10.652781013897183,0.4337053595154254,-0.0005885112014281453,0.0003150859357244925,-0.0021085643175049683,0.9999975541629779,0.3746251786197422,-0.0044747345025545875,0.00018385985551529413,-4.5804096890497636e-05,0.0018969971410428526,0.0028046636483984593,,0.0,0.0,387.0,389.0,1.5533430342749532,-2.859000000000008,-0.017453292519943295,8.470329472542804e-23
2025/04/05 15:42:14.411608312,1743860534,408206376,world_ned,215.7166470126085,10.65215493159583,0.4336986883887547,-0.0005685419711637723,0.00038079961274799516,-0.001966919424082469,0.9999978314874793,0.37805966606699615,-0.004901907181358145,0.00020705632560576054,0.0007171756622787307,0.0010466582991845938,0.0028233611150582268,,3.0,0.0,389.99999999999994,391.00000000000006,1.5533430342749532,-2.909000000000007,-0.017453292519943295,8.470329472542804e-23
2025/04/05 15:42:14.512046810,1743860534,509067382,world_ned,215.75450701487176,10.651522854131219,0.4336893808844266,-0.0005226364534052572,0.00041926297161387356,-0.0018234496339394391,0.999998113048785,0.37494749775884134,-0.004969085832082852,0.00020428597622929476,0.001113891131247511,0.0016346913172164519,0.0028981037376719534,,2.0,0.0,389.99999999999994,391.00000000000006,1.5533430342749532,-2.959000000000006,-8.673617379884034e-20,8.470329472542804e-23
2025/04/05 15:42:14.611603173,1743860534,609855952,world_ned,215.79254697253276,10.650807431333982,0.4336762432131643,-0.0004330862013053068,0.00041076026809380766,-0.0016943315290938205,0.9999983864752052,0.3818654620451298,-0.00673017005167408,0.00015852042086584493,0.002437882883780046,-0.0007980468212756563,0.0021748376908334306,,2.0,0.0,392.0,393.0,1.5707963267948966,-2.944000000000006,-0.017453292519943295,8.470329472542804e-23
2025/04/05 15:42:14.703981589,1743860534,701708766,world_ned,215.83060037093537,10.65002698313054,0.4336645490708991,-0.0003186332328066296,0.0003777005104629145,-0.001586018430226054,0.9999986201794112,0.38124525779319945,-0.00642753950758606,0.00018957333254171032,0.0021216088983141415,-0.0010321557326502045,0.00218053748040899,,0.0,2.0,392.0,392.0,1.5707963267948966,-2.8940000000000072,0.0,-5.0821976835260017e-23
2025/04/05 15:42:14.805276689,1743860534,804354996,world_ned,215.86879834570786,10.649274580943304,0.43365930124563135,-0.00022588177105533673,0.00030815469810936604,-0.0014782568235223081,0.9999988343867563,0.3805936567169276,-0.006127490271551565,0.00020892577589760284,0.0015014488671283685,-0.001072822242479936,0.0022437075323253133,,0.0,8.0,393.0,394.0,1.6157963267948956,-2.8390000000000084,-0.017453292519943295,-5.0821976835259993e-23
2025/04/05 15:42:14.908794931,1743860534,906739355,world_ned,215.9071433016997,10.648492324903284,0.4336596054009586,-0.00014761649742846345,0.0002170492360628863,-0.0013798040689433056,0.9999990136193786,0.3856031101509777,-0.007468278345033473,0.00019940234061860678,0.001734249578896604,-0.0023223563614678784,0.0015756715802223201,,0.0,3.0,394.0,395.0,1.6607963267948946,-2.7940000000000094,-0.03490658503988659,-3.218725199566361e-22
2025/04/05 15:42:15.8522477,1743860535,7457340,world_ned,215.94568622754718,10.647671963752986,0.43366893183520544,-9.29766091043907e-05,0.00011863308750906244,-0.0013020623869021313,0.9999991409571717,0.3857650897767668,-0.006864383548201314,0.00021191703473044183,0.00048802556218357015,-0.0017932595282379408,0.0015949087319650252,,0.0,7.0,395.0,395.0,1.7157963267948935,-2.7390000000000105,-0.017453292519943295,1.6940658945084047e-23
2025/04/05 15:42:15.109072695,1743860535,108232078,world_ned,215.98423342019183,10.646892652350553,0.43368305467137097,-9.59280682198662e-05,5.502877156927097e-05,-0.0012251668115048856,0.9999992433676758,0.3892405702366716,-0.0068054734695518464,0.00019426963256205531,-0.00048340096226973307,-0.0019122976459303275,0.0014957072804065396,,0.0,12.0,395.0,396.0,1.735796326794893,-2.719000000000011,-0.027453292519943297,1.6940658945084047e-23
2025/04/05 15:42:15.209846306,1743860535,209007146,world_ned,216.02304972610455,10.646070573114585,0.4336974456794105,-0.00012973969070453396,1.3913622679374905e-06,-0.0011657458243494487,0.9999993121009383,0.3916620009019907,-0.007999504312421826,0.0001438288854954961,-0.0006032668525116815,-0.0015393037863551838,0.0007752075696241828,,0.0,6.0,396.0,396.0,1.785796326794892,-2.669000000000012,-0.03490658503988659,1.6940658945084047e-23
