time,header_stamp_secs,header_stamp_nsecs,header_frame_id,status_status,status_service,latitude,longitude,altitude,position_covariance_0,position_covariance_1,position_covariance_2,position_covariance_3,position_covariance_4,position_covariance_5,position_covariance_6,position_covariance_7,position_covariance_8,position_covariance_type
2025/04/11 11:15:45.326648689,1744362945,326019929,hemisphere,2,1,63.44119928516667,10.419908538166666,43.800000000000004,0.00019599999999999997,0.0,0.0,0.0,0.00019599999999999997,0.0,0.0,0.0,0.0031359999999999995,1
2025/04/11 11:15:45.380116400,1744362945,379818589,hemisphere,2,1,63.44119929066667,10.419908467833334,43.800000000000004,0.00019599999999999997,0.0,0.0,0.0,0.00019599999999999997,0.0,0.0,0.0,0.0031359999999999995,1
2025/04/11 11:15:45.426699264,1744362945,426247940,hemisphere,2,1,63.441199301,10.4199084695,43.803000000000004,0.00019599999999999997,0.0,0.0,0.0,0.00019599999999999997,0.0,0.0,0.0,0.0031359999999999995,1
2025/04/11 11:15:45.476235453,1744362945,475897046,hemisphere,2,1,63.44119934166667,10.419908482333334,43.803000000000004,0.00019599999999999997,0.0,0.0,0.0,0.00019599999999999997,0.0,0.0,0.0,0.0031359999999999995,1
2025/04/11 11:15:45.526273875,1744362945,525864334,hemisphere,2,1,63.4411993455,10.419908438166667,43.803000000000004,0.00019599999999999997,0.0,0.0,0.0,0.00019599999999999997,0.0,0.0,0.0,0.0031359999999999995,1
2025/04/11 11:15:45.575828086,1744362945,575547387,hemisphere,2,1,63.44119935316667,10.419908448,43.800000000000004,0.00019599999999999997,0.0,0.0,0.0,0.00019599999999999997,0.0,0.0,0.0,0.0031359999999999995,1
2025/04/11 11:15:45.626305256,1744362945,625942835,hemisphere,2,1,63.44119939,10.419908475833333,43.805,0.00019599999999999997,0.0,0.0,0.0,0.00019599999999999997,0.0,0.0,0.0,0.0031359999999999995,1
2025/04/11 11:15:45.675963821,1744362945,675615271,hemisphere,2,1,63.441199408833334,10.419908475166666,43.805,0.00019599999999999997,0.0,0.0,0.0,0.00019599999999999997,0.0,0.0,0.0,0.0031359999999999995,1
2025/04/11 11:15:45.726158619,1744362945,725877708,hemisphere,2,1,63.44119943133333,10.419908510333332,43.805,0.00019599999999999997,0.0,0.0,0.0,0.00019599999999999997,0.0,0.0,0.0,0.0031359999999999995,1
2025/04/11 11:15:45.776675723,1744362945,776191856,hemisphere,2,1,63.44119948666667,10.419908515333333,43.805,0.00019599999999999997,0.0,0.0,0.0,0.00019599999999999997,0.0,0.0,0.0,0.0031359999999999995,1
2025/04/11 11:15:45.827278371,1744362945,826985346,hemisphere,2,1,63.441199494,10.419908576,43.805,0.00019599999999999997,0.0,0.0,0.0,0.00019599999999999997,0.0,0.0,0.0,0.0031359999999999995,1
2025/04/11 11:15:45.877586118,1744362945,877095791,hemisphere,2,1,63.4411995565,10.419908604333333,43.805,0.00019599999999999997,0.0,0.0,0.0,0.00019599999999999997,0.0,0.0,0.0,0.0031359999999999995,1
2025/04/11 11:15:45.927291059,1744362945,926606467,hemisphere,2,1,63.4411995625,10.4199086515,43.802,0.00019599999999999997,0.0,0.0,0.0,0.00019599999999999997,0.0,0.0,0.0,0.0031359999999999995,1
2025/04/11 11:15:45.977830156,1744362945,977504575,hemisphere,2,1,63.4411996105,10.419908697333334,43.805,0.00019599999999999997,0.0,0.0,0.0,0.00019599999999999997,0.0,0.0,0.0,0.0031359999999999995,1
2025/04/11 11:15:46.30428167,1744362946,26311307,hemisphere,2,1,63.44119965316666,10.419908725166668,43.803000000000004,0.00019599999999999997,0.0,0.0,0.0,0.00019599999999999997,0.0,0.0,0.0,0.0031359999999999995,1
2025/04/11 11:15:46.81234277,1744362946,77388654,hemisphere,2,1,63.441199679,10.4199088315,43.803000000000004,0.00019599999999999997,0.0,0.0,0.0,0.00019599999999999997,0.0,0.0,0.0,0.0031359999999999995,1
2025/04/11 11:15:46.267173548,1744362946,126776780,hemisphere,2,1,63.4411997345,10.419908858,43.801,0.00019599999999999997,0.0,0.0,0.0,0.00019599999999999997,0.0,0.0,0.0,0.0031359999999999995,1
2025/04/11 11:15:46.267611103,1744362946,175990633,hemisphere,2,1,63.441199774833336,10.419908901333333,43.801,0.00019599999999999997,0.0,0.0,0.0,0.00019599999999999997,0.0,0.0,0.0,0.0031359999999999995,1
2025/04/11 11:15:46.270988887,1744362946,227576773,hemisphere,2,1,63.44119980833333,10.4199089665,43.799,0.00019599999999999997,0.0,0.0,0.0,0.00019599999999999997,0.0,0.0,0.0,0.0031359999999999995,1
2025/04/11 11:15:46.276440467,1744362946,276033218,hemisphere,2,1,63.4411998505,10.419909010333333,43.797000000000004,0.00019599999999999997,0.0,0.0,0.0,0.00019599999999999997,0.0,0.0,0.0,0.0031359999999999995,1
2025/04/11 11:15:46.326725960,1744362946,326376082,hemisphere,2,1,63.44119988533333,10.4199090635,43.798,0.00019599999999999997,0.0,0.0,0.0,0.00019599999999999997,0.0,0.0,0.0,0.0031359999999999995,1
2025/04/11 11:15:46.379589241,1744362946,379162218,hemisphere,2,1,63.44119992933334,10.419909111666666,43.797000000000004,0.00019599999999999997,0.0,0.0,0.0,0.00019599999999999997,0.0,0.0,0.0,0.0031359999999999995,1
2025/04/11 11:15:46.426973571,1744362946,426484049,hemisphere,2,1,63.441199970166664,10.419909190333334,43.795,0.00019599999999999997,0.0,0.0,0.0,0.00019599999999999997,0.0,0.0,0.0,0.0031359999999999995,1
2025/04/11 11:15:46.477468917,1744362946,477106963,hemisphere,2,1,63.441199986166666,10.4199092555,43.79,0.00019599999999999997,0.0,0.0,0.0,0.00019599999999999997,0.0,0.0,0.0,0.0031359999999999995,1
2025/04/11 11:15:46.526938148,1744362946,526589043,hemisphere,2,1,63.441200029166666,10.419909268833333,43.792,0.00019599999999999997,0.0,0.0,0.0,0.00019599999999999997,0.0,0.0,0.0,0.0031359999999999995,1
2025/04/11 11:15:46.577959299,1744362946,577196434,hemisphere,2,1,63.44120008183334,10.4199093335,43.791000000000004,0.00019599999999999997,0.0,0.0,0.0,0.00019599999999999997,0.0,0.0,0.0,0.0031359999999999995,1
2025/04/11 11:15:46.626316587,1744362946,625983953,hemisphere,2,1,63.441200116333334,10.4199093675,43.788000000000004,0.00019599999999999997,0.0,0.0,0.0,0.00019599999999999997,0.0,0.0,0.0,0.0031359999999999995,1
2025/04/11 11:15:46.676895019,1744362946,676464686,hemisphere,2,1,63.441200139833335,10.419909375,43.784000000000006,0.00019599999999999997,0.0,0.0,0.0,0.00019599999999999997,0.0,0.0,0.0,0.0031359999999999995,1
2025/04/11 11:15:46.726621339,1744362946,726123155,hemisphere,2,1,63.44120019933333,10.4199094345,43.787,0.00019599999999999997,0.0,0.0,0.0,0.00019599999999999997,0.0,0.0,0.0,0.0031359999999999995,1
2025/04/11 11:15:46.828551441,1744362946,775954995,hemisphere,2,1,63.441200228,10.419909462,43.787,0.00019599999999999997,0.0,0.0,0.0,0.00019599999999999997,0.0,0.0,0.0,0.0031359999999999995,1
2025/04/11 11:15:46.830291133,1744362946,826268037,hemisphere,2,1,63.44120025616667,10.4199095025,43.784000000000006,0.00019599999999999997,0.0,0.0,0.0,0.00019599999999999997,0.0,0.0,0.0,0.0031359999999999995,1
2025/04/11 11:15:46.887643588,1744362946,885772824,hemisphere,2,1,63.441200314666666,10.419909518166667,43.787,0.00019599999999999997,0.0,0.0,0.0,0.00019599999999999997,0.0,0.0,0.0,0.0031359999999999995,1
2025/04/11 11:15:46.928018954,1744362946,927080543,hemisphere,2,1,63.4412003225,10.419909527666666,43.783,0.00019599999999999997,0.0,0.0,0.0,0.00019599999999999997,0.0,0.0,0.0,0.0031359999999999995,1
2025/04/11 11:15:46.985664998,1744362946,978183458,hemisphere,2,1,63.441200388,10.419909573833333,43.785000000000004,0.00019599999999999997,0.0,0.0,0.0,0.00019599999999999997,0.0,0.0,0.0,0.0031359999999999995,1
2025/04/11 11:15:47.36026720,1744362947,26769175,hemisphere,2,1,63.44120038716667,10.419909577166667,43.785000000000004,0.00019599999999999997,0.0,0.0,0.0,0.00019599999999999997,0.0,0.0,0.0,0.0031359999999999995,1
2025/04/11 11:15:47.92044347,1744362947,78888458,hemisphere,2,1,63.44120043116666,10.419909580833334,43.787,0.00019599999999999997,0.0,0.0,0.0,0.00019599999999999997,0.0,0.0,0.0,0.0031359999999999995,1
2025/04/11 11:15:47.133633424,1744362947,131082053,hemisphere,2,1,63.44120045033333,10.419909624166667,43.786,0.00019599999999999997,0.0,0.0,0.0,0.00019599999999999997,0.0,0.0,0.0,0.0031359999999999995,1
2025/04/11 11:15:47.185292965,1744362947,176434806,hemisphere,2,1,63.4412004815,10.419909618333334,43.787,0.00019599999999999997,0.0,0.0,0.0,0.00019599999999999997,0.0,0.0,0.0,0.0031359999999999995,1
2025/04/11 11:15:47.227671750,1744362947,226318304,hemisphere,2,1,63.441200509666665,10.4199096485,43.789,0.00019599999999999997,0.0,0.0,0.0,0.00019599999999999997,0.0,0.0,0.0,0.0031359999999999995,1
2025/04/11 11:15:47.276565668,1744362947,275872704,hemisphere,2,1,63.44120053983333,10.419909653666666,43.788000000000004,0.00019599999999999997,0.0,0.0,0.0,0.00019599999999999997,0.0,0.0,0.0,0.0031359999999999995,1
2025/04/11 11:15:47.326788476,1744362947,326259948,hemisphere,2,1,63.4412005585,10.419909655,43.79,0.00019599999999999997,0.0,0.0,0.0,0.00019599999999999997,0.0,0.0,0.0,0.0031359999999999995,1
2025/04/11 11:15:47.405468503,1744362947,402743398,hemisphere,2,1,63.4412005765,10.419909675666666,43.789,0.00019599999999999997,0.0,0.0,0.0,0.00019599999999999997,0.0,0.0,0.0,0.0031359999999999995,1
2025/04/11 11:15:47.435993035,1744362947,431855733,hemisphere,2,1,63.441200627,10.4199096685,43.796,0.00019599999999999997,0.0,0.0,0.0,0.00019599999999999997,0.0,0.0,0.0,0.0031359999999999995,1
2025/04/11 11:15:47.516061029,1744362947,478564113,hemisphere,2,1,63.4412006375,10.419909676166666,43.795,0.00019599999999999997,0.0,0.0,0.0,0.00019599999999999997,0.0,0.0,0.0,0.0031359999999999995,1
2025/04/11 11:15:47.533706224,1744362947,530918236,hemisphere,2,1,63.4412007015,10.419909675,43.799,0.00019599999999999997,0.0,0.0,0.0,0.00019599999999999997,0.0,0.0,0.0,0.0031359999999999995,1
2025/04/11 11:15:47.577173141,1744362947,576360598,hemisphere,2,1,63.441200726333335,10.419909673166666,43.799,0.00019599999999999997,0.0,0.0,0.0,0.00019599999999999997,0.0,0.0,0.0,0.0031359999999999995,1
2025/04/11 11:15:47.633786281,1744362947,625914789,hemisphere,2,1,63.44120074533333,10.419909698833333,43.801,0.00019599999999999997,0.0,0.0,0.0,0.00019599999999999997,0.0,0.0,0.0,0.0031359999999999995,1
2025/04/11 11:15:47.686366323,1744362947,676398410,hemisphere,2,1,63.44120075883333,10.419909717,43.800000000000004,0.00019599999999999997,0.0,0.0,0.0,0.00019599999999999997,0.0,0.0,0.0,0.0031359999999999995,1
2025/04/11 11:15:47.726494657,1744362947,725976363,hemisphere,2,1,63.441200792,10.419909732333334,43.802,0.00019599999999999997,0.0,0.0,0.0,0.00019599999999999997,0.0,0.0,0.0,0.0031359999999999995,1
2025/04/11 11:15:47.857920816,1744362947,776419246,hemisphere,2,1,63.441200816666665,10.419909739666666,43.798,0.00019599999999999997,0.0,0.0,0.0,0.00019599999999999997,0.0,0.0,0.0,0.0031359999999999995,1
2025/04/11 11:15:47.877172606,1744362947,876508619,hemisphere,2,1,63.44120087616667,10.4199097815,43.802,0.00019599999999999997,0.0,0.0,0.0,0.00019599999999999997,0.0,0.0,0.0,0.0031359999999999995,1
2025/04/11 11:15:47.927308684,1744362947,926180961,hemisphere,2,1,63.44120091533333,10.4199098205,43.804,0.00019599999999999997,0.0,0.0,0.0,0.00019599999999999997,0.0,0.0,0.0,0.0031359999999999995,1
2025/04/11 11:15:47.976446203,1744362947,975865993,hemisphere,2,1,63.441200946,10.419909871166666,43.803000000000004,0.00019599999999999997,0.0,0.0,0.0,0.00019599999999999997,0.0,0.0,0.0,0.0031359999999999995,1
2025/04/11 11:15:48.29778088,1744362948,26581076,hemisphere,2,1,63.44120096033333,10.419909898,43.803000000000004,0.00019599999999999997,0.0,0.0,0.0,0.00019599999999999997,0.0,0.0,0.0,0.0031359999999999995,1
2025/04/11 11:15:48.80119441,1744362948,78336456,hemisphere,2,1,63.44120100466667,10.419909925333334,43.802,0.00019599999999999997,0.0,0.0,0.0,0.00019599999999999997,0.0,0.0,0.0,0.0031359999999999995,1
2025/04/11 11:15:48.127683729,1744362948,127270366,hemisphere,2,1,63.441201031666665,10.4199099625,43.801,0.00019599999999999997,0.0,0.0,0.0,0.00019599999999999997,0.0,0.0,0.0,0.0031359999999999995,1
2025/04/11 11:15:48.177950644,1744362948,176058724,hemisphere,2,1,63.441201064666664,10.41991,43.800000000000004,0.00019599999999999997,0.0,0.0,0.0,0.00019599999999999997,0.0,0.0,0.0,0.0031359999999999995,1
2025/04/11 11:15:48.237578764,1744362948,225784488,hemisphere,2,1,63.441201089833335,10.419910034166668,43.800000000000004,0.00019599999999999997,0.0,0.0,0.0,0.00019599999999999997,0.0,0.0,0.0,0.0031359999999999995,1
2025/04/11 11:15:48.276683860,1744362948,276163813,hemisphere,2,1,63.44120113366667,10.419910086,43.801,0.00019599999999999997,0.0,0.0,0.0,0.00019599999999999997,0.0,0.0,0.0,0.0031359999999999995,1
2025/04/11 11:15:48.416610921,1744362948,328407957,hemisphere,2,1,63.441201179833335,10.4199101025,43.799,0.00019599999999999997,0.0,0.0,0.0,0.00019599999999999997,0.0,0.0,0.0,0.0031359999999999995,1
2025/04/11 11:15:48.425017456,1744362948,381415592,hemisphere,2,1,63.44120121433333,10.419910133333333,43.798,0.00019599999999999997,0.0,0.0,0.0,0.00019599999999999997,0.0,0.0,0.0,0.0031359999999999995,1
2025/04/11 11:15:48.454430503,1744362948,427067561,hemisphere,2,1,63.44120125716667,10.419910154,43.799,0.00019599999999999997,0.0,0.0,0.0,0.00019599999999999997,0.0,0.0,0.0,0.0031359999999999995,1
2025/04/11 11:15:48.484519834,1744362948,476008779,hemisphere,2,1,63.4412012875,10.419910182,43.797000000000004,0.00019599999999999997,0.0,0.0,0.0,0.00019599999999999997,0.0,0.0,0.0,0.0031359999999999995,1
2025/04/11 11:15:48.535831150,1744362948,526901719,hemisphere,2,1,63.44120132583333,10.419910207666666,43.797000000000004,0.00019599999999999997,0.0,0.0,0.0,0.00019599999999999997,0.0,0.0,0.0,0.0031359999999999995,1
2025/04/11 11:15:48.577909373,1744362948,576563353,hemisphere,2,1,63.44120137316666,10.419910234333333,43.792,0.00019599999999999997,0.0,0.0,0.0,0.00019599999999999997,0.0,0.0,0.0,0.0031359999999999995,1
2025/04/11 11:15:48.630158378,1744362948,626476543,hemisphere,2,1,63.441201399,10.419910288666667,43.793,0.00019599999999999997,0.0,0.0,0.0,0.00019599999999999997,0.0,0.0,0.0,0.0031359999999999995,1
2025/04/11 11:15:48.682499020,1744362948,677327850,hemisphere,2,1,63.441201439333334,10.419910311166667,43.793,0.00019599999999999997,0.0,0.0,0.0,0.00019599999999999997,0.0,0.0,0.0,0.0031359999999999995,1
2025/04/11 11:15:48.727157708,1744362948,726449774,hemisphere,2,1,63.44120147816667,10.419910335,43.794000000000004,0.00019599999999999997,0.0,0.0,0.0,0.00019599999999999997,0.0,0.0,0.0,0.0031359999999999995,1
2025/04/11 11:15:48.778503704,1744362948,776308729,hemisphere,2,1,63.44120152266667,10.419910404833333,43.793,0.00019599999999999997,0.0,0.0,0.0,0.00019599999999999997,0.0,0.0,0.0,0.0031359999999999995,1
2025/04/11 11:15:48.827995246,1744362948,826547390,hemisphere,2,1,63.44120154833333,10.419910388833333,43.79,0.00019599999999999997,0.0,0.0,0.0,0.00019599999999999997,0.0,0.0,0.0,0.0031359999999999995,1
2025/04/11 11:15:48.887127995,1744362948,885543123,hemisphere,2,1,63.4412015995,10.419910446833333,43.792,0.00019599999999999997,0.0,0.0,0.0,0.00019599999999999997,0.0,0.0,0.0,0.0031359999999999995,1
2025/04/11 11:15:48.930153133,1744362948,928875624,hemisphere,2,1,63.4412016465,10.4199104985,43.795,0.00019599999999999997,0.0,0.0,0.0,0.00019599999999999997,0.0,0.0,0.0,0.0031359999999999995,1
2025/04/11 11:15:48.980389243,1744362948,976320830,hemisphere,2,1,63.44120167216666,10.419910519166667,43.794000000000004,0.00019599999999999997,0.0,0.0,0.0,0.00019599999999999997,0.0,0.0,0.0,0.0031359999999999995,1
2025/04/11 11:15:49.29665357,1744362949,26766158,hemisphere,2,1,63.441201705833336,10.419910555666666,43.792,0.00019599999999999997,0.0,0.0,0.0,0.00019599999999999997,0.0,0.0,0.0,0.0031359999999999995,1
2025/04/11 11:15:49.80244385,1744362949,76416521,hemisphere,2,1,63.441201760666665,10.419910593,43.796,0.00019599999999999997,0.0,0.0,0.0,0.00019599999999999997,0.0,0.0,0.0,0.0031359999999999995,1
2025/04/11 11:15:49.129826947,1744362949,128745059,hemisphere,2,1,63.441201773833335,10.419910613833334,43.796,0.00019599999999999997,0.0,0.0,0.0,0.00019599999999999997,0.0,0.0,0.0,0.0031359999999999995,1
2025/04/11 11:15:49.181381436,1744362949,176593562,hemisphere,2,1,63.44120182183333,10.419910651166667,43.796,0.00019599999999999997,0.0,0.0,0.0,0.00019599999999999997,0.0,0.0,0.0,0.0031359999999999995,1
2025/04/11 11:15:49.233985483,1744362949,226225876,hemisphere,2,1,63.44120185083333,10.419910682,43.794000000000004,0.00019599999999999997,0.0,0.0,0.0,0.00019599999999999997,0.0,0.0,0.0,0.0031359999999999995,1
2025/04/11 11:15:49.278286974,1744362949,276251477,hemisphere,2,1,63.44120188383334,10.4199106915,43.797000000000004,0.00019599999999999997,0.0,0.0,0.0,0.00019599999999999997,0.0,0.0,0.0,0.0031359999999999995,1
2025/04/11 11:15:49.327964528,1744362949,327079925,hemisphere,2,1,63.44120191566667,10.419910720166667,43.798,0.00019599999999999997,0.0,0.0,0.0,0.00019599999999999997,0.0,0.0,0.0,0.0031359999999999995,1
2025/04/11 11:15:49.395501073,1744362949,379139119,hemisphere,2,1,63.44120193316667,10.419910737833334,43.794000000000004,0.00019599999999999997,0.0,0.0,0.0,0.00019599999999999997,0.0,0.0,0.0,0.0031359999999999995,1
2025/04/11 11:15:49.427578537,1744362949,427094858,hemisphere,2,1,63.44120197666667,10.419910780833334,43.802,0.00019599999999999997,0.0,0.0,0.0,0.00019599999999999997,0.0,0.0,0.0,0.0031359999999999995,1
2025/04/11 11:15:49.488989489,1744362949,476912715,hemisphere,2,1,63.44120201016667,10.419910768666666,43.803000000000004,0.00019599999999999997,0.0,0.0,0.0,0.00019599999999999997,0.0,0.0,0.0,0.0031359999999999995,1
2025/04/11 11:15:49.534200472,1744362949,526902285,hemisphere,2,1,63.4412019855,10.4199108345,43.799,0.00019599999999999997,0.0,0.0,0.0,0.00019599999999999997,0.0,0.0,0.0,0.0031359999999999995,1
2025/04/11 11:15:49.577906098,1744362949,577012808,hemisphere,2,1,63.441202032666666,10.419910822666667,43.802,0.00019599999999999997,0.0,0.0,0.0,0.00019599999999999997,0.0,0.0,0.0,0.0031359999999999995,1
2025/04/11 11:15:49.644798646,1744362949,626806548,hemisphere,2,1,63.441202055666665,10.419910865333334,43.805,0.00019599999999999997,0.0,0.0,0.0,0.00019599999999999997,0.0,0.0,0.0,0.0031359999999999995,1
2025/04/11 11:15:49.677180133,1744362949,675309777,hemisphere,2,1,63.4412020905,10.419910855333333,43.801,0.00019599999999999997,0.0,0.0,0.0,0.00019599999999999997,0.0,0.0,0.0,0.0031359999999999995,1
2025/04/11 11:15:49.727456514,1744362949,726935987,hemisphere,2,1,63.44120210116667,10.419910885166667,43.801,0.00019599999999999997,0.0,0.0,0.0,0.00019599999999999997,0.0,0.0,0.0,0.0031359999999999995,1
2025/04/11 11:15:49.776732172,1744362949,775904807,hemisphere,2,1,63.44120214283333,10.419910881666667,43.806000000000004,0.00019599999999999997,0.0,0.0,0.0,0.00019599999999999997,0.0,0.0,0.0,0.0031359999999999995,1
2025/04/11 11:15:49.856317751,1744362949,826879460,hemisphere,2,1,63.4412021725,10.419910893666668,43.805,0.00019599999999999997,0.0,0.0,0.0,0.00019599999999999997,0.0,0.0,0.0,0.0031359999999999995,1
2025/04/11 11:15:49.895160428,1744362949,876366396,hemisphere,2,1,63.44120220433334,10.419910918333333,43.805,0.00019599999999999997,0.0,0.0,0.0,0.00019599999999999997,0.0,0.0,0.0,0.0031359999999999995,1
2025/04/11 11:15:49.928138790,1744362949,927235617,hemisphere,2,1,63.441202229,10.419910931833334,43.806000000000004,0.00019599999999999997,0.0,0.0,0.0,0.00019599999999999997,0.0,0.0,0.0,0.0031359999999999995,1
2025/04/11 11:15:49.980198346,1744362949,978591810,hemisphere,2,1,63.4412022505,10.419910922833333,43.801,0.00019599999999999997,0.0,0.0,0.0,0.00019599999999999997,0.0,0.0,0.0,0.0031359999999999995,1
2025/04/11 11:15:50.28391661,1744362950,27834929,hemisphere,2,1,63.441202285,10.419910957333334,43.806000000000004,0.00019599999999999997,0.0,0.0,0.0,0.00019599999999999997,0.0,0.0,0.0,0.0031359999999999995,1
2025/04/11 11:15:50.87183375,1744362950,76951536,hemisphere,2,1,63.441202325166664,10.419910995166667,43.806000000000004,0.00019599999999999997,0.0,0.0,0.0,0.00019599999999999997,0.0,0.0,0.0,0.0031359999999999995,1
2025/04/11 11:15:50.135232637,1744362950,132153492,hemisphere,2,1,63.44120234366667,10.419911006666666,43.805,0.00019599999999999997,0.0,0.0,0.0,0.00019599999999999997,0.0,0.0,0.0,0.0031359999999999995,1
2025/04/11 11:15:50.194734555,1744362950,191187308,hemisphere,2,1,63.441202375833335,10.419911024666666,43.807,0.00019599999999999997,0.0,0.0,0.0,0.00019599999999999997,0.0,0.0,0.0,0.0031359999999999995,1
2025/04/11 11:15:50.244932883,1744362950,228056559,hemisphere,2,1,63.44120241183333,10.419911059166667,43.804,0.00019599999999999997,0.0,0.0,0.0,0.00019599999999999997,0.0,0.0,0.0,0.0031359999999999995,1
2025/04/11 11:15:50.290474660,1744362950,278054352,hemisphere,2,1,63.441202433166666,10.419911081166667,43.808,0.00019599999999999997,0.0,0.0,0.0,0.00019599999999999997,0.0,0.0,0.0,0.0031359999999999995,1
2025/04/11 11:15:50.330672136,1744362950,326093303,hemisphere,2,1,63.44120246683333,10.419911103,43.804,0.00019599999999999997,0.0,0.0,0.0,0.00019599999999999997,0.0,0.0,0.0,0.0031359999999999995,1
2025/04/11 11:15:50.379428240,1744362950,378721767,hemisphere,2,1,63.441202499666666,10.419911153166666,43.81,0.00019599999999999997,0.0,0.0,0.0,0.00019599999999999997,0.0,0.0,0.0,0.0031359999999999995,1
2025/04/11 11:15:50.427775687,1744362950,427136175,hemisphere,2,1,63.44120254,10.4199111645,43.805,0.00019599999999999997,0.0,0.0,0.0,0.00019599999999999997,0.0,0.0,0.0,0.0031359999999999995,1
2025/04/11 11:15:50.477407687,1744362950,476183427,hemisphere,2,1,63.44120255433333,10.419911216166666,43.803000000000004,0.00019599999999999997,0.0,0.0,0.0,0.00019599999999999997,0.0,0.0,0.0,0.0031359999999999995,1
2025/04/11 11:15:50.554116836,1744362950,527332144,hemisphere,2,1,63.44120260133333,10.419911235833334,43.804,0.00019599999999999997,0.0,0.0,0.0,0.00019599999999999997,0.0,0.0,0.0,0.0031359999999999995,1
2025/04/11 11:15:50.607877418,1744362950,576513739,hemisphere,2,1,63.44120263833333,10.419911291333333,43.804,0.00019599999999999997,0.0,0.0,0.0,0.00019599999999999997,0.0,0.0,0.0,0.0031359999999999995,1
2025/04/11 11:15:50.628961568,1744362950,625809766,hemisphere,2,1,63.4412026755,10.419911326333333,43.807,0.00019599999999999997,0.0,0.0,0.0,0.00019599999999999997,0.0,0.0,0.0,0.0031359999999999995,1
2025/04/11 11:15:50.677236164,1744362950,676820207,hemisphere,2,1,63.4412026925,10.419911357,43.804,0.00019599999999999997,0.0,0.0,0.0,0.00019599999999999997,0.0,0.0,0.0,0.0031359999999999995,1
2025/04/11 11:15:50.777098751,1744362950,725821226,hemisphere,2,1,63.4412027355,10.419911408833332,43.800000000000004,0.00019599999999999997,0.0,0.0,0.0,0.00019599999999999997,0.0,0.0,0.0,0.0031359999999999995,1
2025/04/11 11:15:50.777219744,1744362950,776284887,hemisphere,2,1,63.44120276866666,10.419911417166666,43.803000000000004,0.00019599999999999997,0.0,0.0,0.0,0.00019599999999999997,0.0,0.0,0.0,0.0031359999999999995,1
2025/04/11 11:15:50.827140077,1744362950,826011514,hemisphere,2,1,63.44120281516667,10.419911474166666,43.804,0.00019599999999999997,0.0,0.0,0.0,0.00019599999999999997,0.0,0.0,0.0,0.0031359999999999995,1
2025/04/11 11:15:50.883665915,1744362950,877033822,hemisphere,2,1,63.441202841,10.419911491,43.802,0.00019599999999999997,0.0,0.0,0.0,0.00019599999999999997,0.0,0.0,0.0,0.0031359999999999995,1
2025/04/11 11:15:50.929860691,1744362950,929201499,hemisphere,2,1,63.44120288883333,10.419911534,43.800000000000004,0.00019599999999999997,0.0,0.0,0.0,0.00019599999999999997,0.0,0.0,0.0,0.0031359999999999995,1
2025/04/11 11:15:50.979542407,1744362950,978992949,hemisphere,2,1,63.441202911666664,10.4199115725,43.803000000000004,0.00019599999999999997,0.0,0.0,0.0,0.00019599999999999997,0.0,0.0,0.0,0.0031359999999999995,1
2025/04/11 11:15:51.70592952,1744362951,29286529,hemisphere,2,1,63.44120295,10.419911612166667,43.800000000000004,0.00019599999999999997,0.0,0.0,0.0,0.00019599999999999997,0.0,0.0,0.0,0.0031359999999999995,1
2025/04/11 11:15:51.82024370,1744362951,76621877,hemisphere,2,1,63.441202996,10.419911613666667,43.799,0.00019599999999999997,0.0,0.0,0.0,0.00019599999999999997,0.0,0.0,0.0,0.0031359999999999995,1
2025/04/11 11:15:51.128427416,1744362951,127188075,hemisphere,2,1,63.44120303766667,10.419911691166666,43.801,0.00019599999999999997,0.0,0.0,0.0,0.00019599999999999997,0.0,0.0,0.0,0.0031359999999999995,1
2025/04/11 11:15:51.184955111,1744362951,180363016,hemisphere,2,1,63.441203075333334,10.419911661333334,43.801,0.00019599999999999997,0.0,0.0,0.0,0.00019599999999999997,0.0,0.0,0.0,0.0031359999999999995,1
2025/04/11 11:15:51.235111557,1744362951,228655323,hemisphere,2,1,63.44120310933334,10.419911698333333,43.798,0.00019599999999999997,0.0,0.0,0.0,0.00019599999999999997,0.0,0.0,0.0,0.0031359999999999995,1
2025/04/11 11:15:51.294576123,1744362951,288173758,hemisphere,2,1,63.44120315133333,10.419911744666667,43.802,0.00019599999999999997,0.0,0.0,0.0,0.00019599999999999997,0.0,0.0,0.0,0.0031359999999999995,1
2025/04/11 11:15:51.350184766,1744362951,328937693,hemisphere,2,1,63.441203172,10.419911747333334,43.799,0.00019599999999999997,0.0,0.0,0.0,0.00019599999999999997,0.0,0.0,0.0,0.0031359999999999995,1
2025/04/11 11:15:51.395453995,1744362951,380132900,hemisphere,2,1,63.44120320066666,10.419911777333333,43.801,0.00019599999999999997,0.0,0.0,0.0,0.00019599999999999997,0.0,0.0,0.0,0.0031359999999999995,1
2025/04/11 11:15:51.429021283,1744362951,427263539,hemisphere,2,1,63.44120324283333,10.419911787,43.799,0.00019599999999999997,0.0,0.0,0.0,0.00019599999999999997,0.0,0.0,0.0,0.0031359999999999995,1
2025/04/11 11:15:51.478382559,1744362951,476624984,hemisphere,2,1,63.44120326316666,10.419911801,43.798,0.00019599999999999997,0.0,0.0,0.0,0.00019599999999999997,0.0,0.0,0.0,0.0031359999999999995,1
2025/04/11 11:15:51.537494250,1744362951,526104774,hemisphere,2,1,63.44120328766667,10.419911900166667,43.798,0.00019599999999999997,0.0,0.0,0.0,0.00019599999999999997,0.0,0.0,0.0,0.0031359999999999995,1
2025/04/11 11:15:51.599976619,1744362951,575407782,hemisphere,2,1,63.4412033265,10.4199118815,43.792,0.00019599999999999997,0.0,0.0,0.0,0.00019599999999999997,0.0,0.0,0.0,0.0031359999999999995,1
2025/04/11 11:15:51.636934419,1744362951,627115699,hemisphere,2,1,63.441203339666664,10.419911939,43.799,0.00019599999999999997,0.0,0.0,0.0,0.00019599999999999997,0.0,0.0,0.0,0.0031359999999999995,1
2025/04/11 11:15:51.733610505,1744362951,677328827,hemisphere,2,1,63.441203371166665,10.419911905833333,43.795,0.00019599999999999997,0.0,0.0,0.0,0.00019599999999999997,0.0,0.0,0.0,0.0031359999999999995,1
2025/04/11 11:15:51.793447748,1744362951,725846016,hemisphere,2,1,63.441203402666666,10.419911965,43.795,0.00019599999999999997,0.0,0.0,0.0,0.00019599999999999997,0.0,0.0,0.0,0.0031359999999999995,1
2025/04/11 11:15:51.808693349,1744362951,775440973,hemisphere,2,1,63.4412034275,10.419911962333334,43.794000000000004,0.00019599999999999997,0.0,0.0,0.0,0.00019599999999999997,0.0,0.0,0.0,0.0031359999999999995,1
2025/04/11 11:15:51.836339440,1744362951,826478740,hemisphere,2,1,63.441203457,10.419911976833333,43.793,0.00019599999999999997,0.0,0.0,0.0,0.00019599999999999997,0.0,0.0,0.0,0.0031359999999999995,1
2025/04/11 11:15:51.907895347,1744362951,878720170,hemisphere,2,1,63.441203505,10.4199119985,43.797000000000004,0.00019599999999999997,0.0,0.0,0.0,0.00019599999999999997,0.0,0.0,0.0,0.0031359999999999995,1
2025/04/11 11:15:51.927381474,1744362951,925905956,hemisphere,2,1,63.441203527666666,10.419912020833333,43.793,0.00019599999999999997,0.0,0.0,0.0,0.00019599999999999997,0.0,0.0,0.0,0.0031359999999999995,1
2025/04/11 11:15:51.978866942,1744362951,976455213,hemisphere,2,1,63.4412035595,10.4199120255,43.796,0.00019599999999999997,0.0,0.0,0.0,0.00019599999999999997,0.0,0.0,0.0,0.0031359999999999995,1
2025/04/11 11:15:52.63709809,1744362952,26731867,hemisphere,2,1,63.44120359883333,10.419912084666667,43.793,0.00019599999999999997,0.0,0.0,0.0,0.00019599999999999997,0.0,0.0,0.0,0.0031359999999999995,1
2025/04/11 11:15:52.121885846,1744362952,76339082,hemisphere,2,1,63.441203613333336,10.419912089333334,43.796,0.00019599999999999997,0.0,0.0,0.0,0.00019599999999999997,0.0,0.0,0.0,0.0031359999999999995,1
2025/04/11 11:15:52.128080801,1744362952,126811427,hemisphere,2,1,63.44120365366667,10.419912110666667,43.796,0.00019599999999999997,0.0,0.0,0.0,0.00019599999999999997,0.0,0.0,0.0,0.0031359999999999995,1
2025/04/11 11:15:52.177259465,1744362952,176484095,hemisphere,2,1,63.441203687,10.4199121365,43.794000000000004,0.00019599999999999997,0.0,0.0,0.0,0.00019599999999999997,0.0,0.0,0.0,0.0031359999999999995,1
2025/04/11 11:15:52.231141618,1744362952,227627625,hemisphere,2,1,63.4412037105,10.419912192833333,43.793,0.00019599999999999997,0.0,0.0,0.0,0.00019599999999999997,0.0,0.0,0.0,0.0031359999999999995,1
2025/04/11 11:15:52.277451288,1744362952,275923117,hemisphere,2,1,63.44120375366667,10.4199122015,43.796,0.00019599999999999997,0.0,0.0,0.0,0.00019599999999999997,0.0,0.0,0.0,0.0031359999999999995,1
2025/04/11 11:15:52.327043031,1744362952,326246381,hemisphere,2,1,63.4412037795,10.419912246833333,43.794000000000004,0.00019599999999999997,0.0,0.0,0.0,0.00019599999999999997,0.0,0.0,0.0,0.0031359999999999995,1
2025/04/11 11:15:52.388161157,1744362952,379390850,hemisphere,2,1,63.44120381133333,10.419912284,43.794000000000004,0.00019599999999999997,0.0,0.0,0.0,0.00019599999999999997,0.0,0.0,0.0,0.0031359999999999995,1
2025/04/11 11:15:52.458591481,1744362952,427142558,hemisphere,2,1,63.441203868833334,10.419912259666667,43.801,0.00019599999999999997,0.0,0.0,0.0,0.00019599999999999997,0.0,0.0,0.0,0.0031359999999999995,1
2025/04/11 11:15:52.527448283,1744362952,477468263,hemisphere,2,1,63.44120390883333,10.419912304833334,43.801,0.00019599999999999997,0.0,0.0,0.0,0.00019599999999999997,0.0,0.0,0.0,0.0031359999999999995,1
2025/04/11 11:15:52.566541020,1744362952,540990823,hemisphere,2,1,63.441203925,10.419912336333333,43.800000000000004,0.00019599999999999997,0.0,0.0,0.0,0.00019599999999999997,0.0,0.0,0.0,0.0031359999999999995,1
2025/04/11 11:15:52.585533927,1744362952,583304256,hemisphere,2,1,63.441203977166666,10.419912366666667,43.801,0.00019599999999999997,0.0,0.0,0.0,0.00019599999999999997,0.0,0.0,0.0,0.0031359999999999995,1
2025/04/11 11:15:52.638078633,1744362952,627280030,hemisphere,2,1,63.44120401516667,10.419912384333333,43.798,0.00019599999999999997,0.0,0.0,0.0,0.00019599999999999997,0.0,0.0,0.0,0.0031359999999999995,1
2025/04/11 11:15:52.708157637,1744362952,688313065,hemisphere,2,1,63.441204043166664,10.419912432166667,43.800000000000004,0.00019599999999999997,0.0,0.0,0.0,0.00019599999999999997,0.0,0.0,0.0,0.0031359999999999995,1
2025/04/11 11:15:52.911026270,1744362952,726602010,hemisphere,2,1,63.44120407333333,10.41991247,43.800000000000004,0.00019599999999999997,0.0,0.0,0.0,0.00019599999999999997,0.0,0.0,0.0,0.0031359999999999995,1
2025/04/11 11:15:52.976973817,1744362952,778523566,hemisphere,2,1,63.441204101,10.419912496166667,43.800000000000004,0.00019599999999999997,0.0,0.0,0.0,0.00019599999999999997,0.0,0.0,0.0,0.0031359999999999995,1
2025/04/11 11:15:53.60945355,1744362952,826624318,hemisphere,2,1,63.44120414533333,10.419912538833334,43.800000000000004,0.00019599999999999997,0.0,0.0,0.0,0.00019599999999999997,0.0,0.0,0.0,0.0031359999999999995,1
2025/04/11 11:15:53.149852511,1744362952,876407041,hemisphere,2,1,63.4412041685,10.419912541333334,43.799,0.00019599999999999997,0.0,0.0,0.0,0.00019599999999999997,0.0,0.0,0.0,0.0031359999999999995,1
2025/04/11 11:15:53.198669986,1744362952,926600925,hemisphere,2,1,63.44120418083333,10.419912561666667,43.799,0.00019599999999999997,0.0,0.0,0.0,0.00019599999999999997,0.0,0.0,0.0,0.0031359999999999995,1
2025/04/11 11:15:53.256507643,1744362952,978261518,hemisphere,2,1,63.441204240333334,10.419912595833333,43.798,0.00019599999999999997,0.0,0.0,0.0,0.00019599999999999997,0.0,0.0,0.0,0.0031359999999999995,1
2025/04/11 11:15:53.300799752,1744362953,27340253,hemisphere,2,1,63.441204254166664,10.4199126025,43.801,0.00019599999999999997,0.0,0.0,0.0,0.00019599999999999997,0.0,0.0,0.0,0.0031359999999999995,1
2025/04/11 11:15:53.416299710,1744362953,76734088,hemisphere,2,1,63.44120429183333,10.419912642,43.800000000000004,0.00019599999999999997,0.0,0.0,0.0,0.00019599999999999997,0.0,0.0,0.0,0.0031359999999999995,1
2025/04/11 11:15:53.416530568,1744362953,126618435,hemisphere,2,1,63.4412043255,10.419912674,43.798,0.00019599999999999997,0.0,0.0,0.0,0.00019599999999999997,0.0,0.0,0.0,0.0031359999999999995,1
2025/04/11 11:15:53.449544750,1744362953,177801105,hemisphere,2,1,63.44120434716667,10.419912675,43.796,0.00019599999999999997,0.0,0.0,0.0,0.00019599999999999997,0.0,0.0,0.0,0.0031359999999999995,1
2025/04/11 11:15:53.618408295,1744362953,232312069,hemisphere,2,1,63.44120438816667,10.4199126835,43.802,0.00019599999999999997,0.0,0.0,0.0,0.00019599999999999997,0.0,0.0,0.0,0.0031359999999999995,1
2025/04/11 11:15:53.618606219,1744362953,283361593,hemisphere,2,1,63.441204414,10.419912743833333,43.800000000000004,0.00019599999999999997,0.0,0.0,0.0,0.00019599999999999997,0.0,0.0,0.0,0.0031359999999999995,1
2025/04/11 11:15:53.670737858,1744362953,332305575,hemisphere,2,1,63.4412044455,10.419912742666666,43.802,0.00019599999999999997,0.0,0.0,0.0,0.00019599999999999997,0.0,0.0,0.0,0.0031359999999999995,1
2025/04/11 11:15:53.694410629,1744362953,379331059,hemisphere,2,1,63.441204472833334,10.419912771833333,43.798,0.00019599999999999997,0.0,0.0,0.0,0.00019599999999999997,0.0,0.0,0.0,0.0031359999999999995,1
2025/04/11 11:15:53.740703671,1744362953,427006373,hemisphere,2,1,63.44120450783333,10.419912790333333,43.803000000000004,0.00019599999999999997,0.0,0.0,0.0,0.00019599999999999997,0.0,0.0,0.0,0.0031359999999999995,1
2025/04/11 11:15:53.991045641,1744362953,475801272,hemisphere,2,1,63.441204525,10.419912802333334,43.798,0.00019599999999999997,0.0,0.0,0.0,0.00019599999999999997,0.0,0.0,0.0,0.0031359999999999995,1
2025/04/11 11:15:54.154457717,1744362953,626455507,hemisphere,2,1,63.44120461566666,10.419912854,43.803000000000004,0.00019599999999999997,0.0,0.0,0.0,0.00019599999999999997,0.0,0.0,0.0,0.0031359999999999995,1
2025/04/11 11:15:54.210457644,1744362953,677607864,hemisphere,2,1,63.441204668333334,10.419912909333334,43.801,0.00019599999999999997,0.0,0.0,0.0,0.00019599999999999997,0.0,0.0,0.0,0.0031359999999999995,1
2025/04/11 11:15:54.359393785,1744362953,728673818,hemisphere,2,1,63.441204705,10.419912901166667,43.801,0.00019599999999999997,0.0,0.0,0.0,0.00019599999999999997,0.0,0.0,0.0,0.0031359999999999995,1
2025/04/11 11:15:54.393878841,1744362953,777851874,hemisphere,2,1,63.44120474616667,10.419912936833333,43.801,0.00019599999999999997,0.0,0.0,0.0,0.00019599999999999997,0.0,0.0,0.0,0.0031359999999999995,1
2025/04/11 11:15:54.504928473,1744362953,827015574,hemisphere,2,1,63.44120478283333,10.419912959833333,43.803000000000004,0.00019599999999999997,0.0,0.0,0.0,0.00019599999999999997,0.0,0.0,0.0,0.0031359999999999995,1
2025/04/11 11:15:54.509307531,1744362953,977578862,hemisphere,2,1,63.44120488116667,10.419913030166667,43.799,0.00019599999999999997,0.0,0.0,0.0,0.00019599999999999997,0.0,0.0,0.0,0.0031359999999999995,1
2025/04/11 11:15:54.518486437,1744362954,26778050,hemisphere,2,1,63.441204934666665,10.419913061333334,43.801,0.00019599999999999997,0.0,0.0,0.0,0.00019599999999999997,0.0,0.0,0.0,0.0031359999999999995,1
2025/04/11 11:15:54.617043728,1744362954,132227743,hemisphere,2,1,63.44120500816667,10.419913124833334,43.804,0.00019599999999999997,0.0,0.0,0.0,0.00019599999999999997,0.0,0.0,0.0,0.0031359999999999995,1
2025/04/11 11:15:54.678248054,1744362954,178208368,hemisphere,2,1,63.441205037833335,10.419913148166668,43.796,0.00019599999999999997,0.0,0.0,0.0,0.00019599999999999997,0.0,0.0,0.0,0.0031359999999999995,1
2025/04/11 11:15:54.794649581,1744362954,226337922,hemisphere,2,1,63.4412050605,10.419913190833334,43.798,0.00019599999999999997,0.0,0.0,0.0,0.00019599999999999997,0.0,0.0,0.0,0.0031359999999999995,1
2025/04/11 11:15:54.989956607,1744362954,382887112,hemisphere,2,1,63.44120516833333,10.419913275333334,43.799,0.00019599999999999997,0.0,0.0,0.0,0.00019599999999999997,0.0,0.0,0.0,0.0031359999999999995,1
2025/04/11 11:15:55.96345551,1744362954,426892082,hemisphere,2,1,63.4412052245,10.419913318833334,43.803000000000004,0.00019599999999999997,0.0,0.0,0.0,0.00019599999999999997,0.0,0.0,0.0,0.0031359999999999995,1
2025/04/11 11:15:55.198524510,1744362954,526697533,hemisphere,2,1,63.4412052805,10.419913359666667,43.796,0.00019599999999999997,0.0,0.0,0.0,0.00019599999999999997,0.0,0.0,0.0,0.0031359999999999995,1
2025/04/11 11:15:55.305018005,1744362954,626858668,hemisphere,2,1,63.44120536583333,10.419913476666666,43.801,0.00019599999999999997,0.0,0.0,0.0,0.00019599999999999997,0.0,0.0,0.0,0.0031359999999999995,1
2025/04/11 11:15:55.345577622,1744362954,690501969,hemisphere,2,1,63.441205391333334,10.419913467833334,43.797000000000004,0.00019599999999999997,0.0,0.0,0.0,0.00019599999999999997,0.0,0.0,0.0,0.0031359999999999995,1
2025/04/11 11:15:55.499069396,1744362954,849636733,hemisphere,2,1,63.441205470166665,10.419913568833334,43.796,0.00019599999999999997,0.0,0.0,0.0,0.00019599999999999997,0.0,0.0,0.0,0.0031359999999999995,1
2025/04/11 11:15:55.510851583,1744362955,85496467,hemisphere,2,1,63.441205639,10.419913731833333,43.797000000000004,0.00019599999999999997,0.0,0.0,0.0,0.00019599999999999997,0.0,0.0,0.0,0.0031359999999999995,1
2025/04/11 11:15:55.545733550,1744362955,127783414,hemisphere,2,1,63.441205665333335,10.419913753833333,43.798,0.00019599999999999997,0.0,0.0,0.0,0.00019599999999999997,0.0,0.0,0.0,0.0031359999999999995,1
2025/04/11 11:15:55.652423606,1744362955,278273007,hemisphere,2,1,63.441205751,10.4199138305,43.795,0.00019599999999999997,0.0,0.0,0.0,0.00019599999999999997,0.0,0.0,0.0,0.0031359999999999995,1
2025/04/11 11:15:55.833764908,1744362955,329768215,hemisphere,2,1,63.441205778833336,10.419913888833333,43.797000000000004,0.00019599999999999997,0.0,0.0,0.0,0.00019599999999999997,0.0,0.0,0.0,0.0031359999999999995,1
2025/04/11 11:15:55.892779551,1744362955,379561189,hemisphere,2,1,63.44120580166667,10.4199139185,43.798,0.00019599999999999997,0.0,0.0,0.0,0.00019599999999999997,0.0,0.0,0.0,0.0031359999999999995,1
2025/04/11 11:15:55.982178362,1744362955,477640148,hemisphere,2,1,63.44120584866667,10.419913924,43.801,0.00019599999999999997,0.0,0.0,0.0,0.00019599999999999997,0.0,0.0,0.0,0.0031359999999999995,1
2025/04/11 11:15:56.87309804,1744362955,526914960,hemisphere,2,1,63.441205907833336,10.419913968833333,43.800000000000004,0.00019599999999999997,0.0,0.0,0.0,0.00019599999999999997,0.0,0.0,0.0,0.0031359999999999995,1
2025/04/11 11:15:56.333623512,1744362955,575623950,hemisphere,2,1,63.44120592233333,10.419914042333334,43.797000000000004,0.00019599999999999997,0.0,0.0,0.0,0.00019599999999999997,0.0,0.0,0.0,0.0031359999999999995,1
2025/04/11 11:15:56.497961701,1744362955,676284122,hemisphere,2,1,63.441205976333336,10.41991409,43.796,0.00019599999999999997,0.0,0.0,0.0,0.00019599999999999997,0.0,0.0,0.0,0.0031359999999999995,1
2025/04/11 11:15:56.601341311,1744362955,826757206,hemisphere,2,1,63.44120603733333,10.419914216,43.801,0.00019599999999999997,0.0,0.0,0.0,0.00019599999999999997,0.0,0.0,0.0,0.0031359999999999995,1
2025/04/11 11:15:56.632797292,1744362955,889099643,hemisphere,2,1,63.4412060525,10.419914270166666,43.803000000000004,0.00019599999999999997,0.0,0.0,0.0,0.00019599999999999997,0.0,0.0,0.0,0.0031359999999999995,1
2025/04/11 11:15:56.744023615,1744362955,933416849,hemisphere,2,1,63.44120608483333,10.419914308333333,43.800000000000004,0.00019599999999999997,0.0,0.0,0.0,0.00019599999999999997,0.0,0.0,0.0,0.0031359999999999995,1
2025/04/11 11:15:56.746672386,1744362955,976060155,hemisphere,2,1,63.44120609916666,10.419914367,43.802,0.00019599999999999997,0.0,0.0,0.0,0.00019599999999999997,0.0,0.0,0.0,0.0031359999999999995,1
2025/04/11 11:15:56.908461461,1744362956,27299975,hemisphere,2,1,63.44120612616667,10.419914402166667,43.800000000000004,0.00019599999999999997,0.0,0.0,0.0,0.00019599999999999997,0.0,0.0,0.0,0.0031359999999999995,1
2025/04/11 11:15:56.972717020,1744362956,380212142,hemisphere,2,1,63.4412062825,10.419914761166666,43.801,0.00019599999999999997,0.0,0.0,0.0,0.00019599999999999997,0.0,0.0,0.0,0.0031359999999999995,1
2025/04/11 11:15:57.145686799,1744362956,627021687,hemisphere,2,1,63.441206394333335,10.419915105,43.799,0.00019599999999999997,0.0,0.0,0.0,0.00019599999999999997,0.0,0.0,0.0,0.0031359999999999995,1
2025/04/11 11:15:57.181922352,1744362956,727771204,hemisphere,2,1,63.441206429666664,10.419915251333334,43.799,0.00019599999999999997,0.0,0.0,0.0,0.00019599999999999997,0.0,0.0,0.0,0.0031359999999999995,1
2025/04/11 11:15:57.266975763,1744362956,778689571,hemisphere,2,1,63.441206451666666,10.419915346333333,43.803000000000004,0.00019599999999999997,0.0,0.0,0.0,0.00019599999999999997,0.0,0.0,0.0,0.0031359999999999995,1
2025/04/11 11:15:57.533541726,1744362956,926861346,hemisphere,2,1,63.441206486333336,10.419915561333333,43.797000000000004,0.00019599999999999997,0.0,0.0,0.0,0.00019599999999999997,0.0,0.0,0.0,0.0031359999999999995,1
2025/04/11 11:15:57.546406181,1744362956,977334244,hemisphere,2,1,63.44120651433333,10.419915663,43.800000000000004,0.00019599999999999997,0.0,0.0,0.0,0.00019599999999999997,0.0,0.0,0.0,0.0031359999999999995,1
2025/04/11 11:15:57.570055484,1744362957,26940035,hemisphere,2,1,63.44120652183334,10.419915727666666,43.800000000000004,0.00019599999999999997,0.0,0.0,0.0,0.00019599999999999997,0.0,0.0,0.0,0.0031359999999999995,1
2025/04/11 11:15:57.596203824,1744362957,76568020,hemisphere,2,1,63.44120654216667,10.419915816833333,43.802,0.00019599999999999997,0.0,0.0,0.0,0.00019599999999999997,0.0,0.0,0.0,0.0031359999999999995,1
2025/04/11 11:15:57.689350673,1744362957,177886096,hemisphere,2,1,63.44120656516667,10.419915977166667,43.801,0.00019599999999999997,0.0,0.0,0.0,0.00019599999999999997,0.0,0.0,0.0,0.0031359999999999995,1
2025/04/11 11:15:57.702083216,1744362957,227397423,hemisphere,2,1,63.441206580166664,10.419916068833333,43.801,0.00019599999999999997,0.0,0.0,0.0,0.00019599999999999997,0.0,0.0,0.0,0.0031359999999999995,1
2025/04/11 11:15:57.718278053,1744362957,275542086,hemisphere,2,1,63.441206577,10.4199161695,43.802,0.00019599999999999997,0.0,0.0,0.0,0.00019599999999999997,0.0,0.0,0.0,0.0031359999999999995,1
2025/04/11 11:15:57.735556208,1744362957,427046298,hemisphere,2,1,63.441206595333334,10.419916412666666,43.803000000000004,0.00019599999999999997,0.0,0.0,0.0,0.00019599999999999997,0.0,0.0,0.0,0.0031359999999999995,1
2025/04/11 11:15:57.737528894,1744362957,530009617,hemisphere,2,1,63.4412066445,10.419916617166667,43.807,0.00019599999999999997,0.0,0.0,0.0,0.00019599999999999997,0.0,0.0,0.0,0.0031359999999999995,1
2025/04/11 11:15:57.803318136,1744362957,577023245,hemisphere,2,1,63.441206626833335,10.419916680833333,43.803000000000004,0.00019599999999999997,0.0,0.0,0.0,0.00019599999999999997,0.0,0.0,0.0,0.0031359999999999995,1
2025/04/11 11:15:57.845164971,1744362957,627536143,hemisphere,2,1,63.441206633166665,10.419916810833334,43.808,0.00019599999999999997,0.0,0.0,0.0,0.00019599999999999997,0.0,0.0,0.0,0.0031359999999999995,1
2025/04/11 11:15:57.889372133,1744362957,726314627,hemisphere,2,1,63.44120662433333,10.419916965666667,43.803000000000004,0.00019599999999999997,0.0,0.0,0.0,0.00019599999999999997,0.0,0.0,0.0,0.0031359999999999995,1
2025/04/11 11:15:57.909588118,1744362957,776614088,hemisphere,2,1,63.441206623166664,10.419917080333333,43.802,0.00019599999999999997,0.0,0.0,0.0,0.00019599999999999997,0.0,0.0,0.0,0.0031359999999999995,1
2025/04/11 11:15:57.925036238,1744362957,828835817,hemisphere,2,1,63.44120662833333,10.419917168166666,43.803000000000004,0.00019599999999999997,0.0,0.0,0.0,0.00019599999999999997,0.0,0.0,0.0,0.0031359999999999995,1
2025/04/11 11:15:57.941495011,1744362957,876037235,hemisphere,2,1,63.44120661816667,10.419917282833334,43.801,0.00019599999999999997,0.0,0.0,0.0,0.00019599999999999997,0.0,0.0,0.0,0.0031359999999999995,1
2025/04/11 11:15:57.964833246,1744362957,926455096,hemisphere,2,1,63.441206617166664,10.419917358666666,43.800000000000004,0.00019599999999999997,0.0,0.0,0.0,0.00019599999999999997,0.0,0.0,0.0,0.0031359999999999995,1
2025/04/11 11:15:58.13752453,1744362957,977638277,hemisphere,2,1,63.441206607,10.4199174635,43.799,0.00019599999999999997,0.0,0.0,0.0,0.00019599999999999997,0.0,0.0,0.0,0.0031359999999999995,1
2025/04/11 11:15:58.60441017,1744362958,26532925,hemisphere,2,1,63.441206617666666,10.419917589833334,43.798,0.00019599999999999997,0.0,0.0,0.0,0.00019599999999999997,0.0,0.0,0.0,0.0031359999999999995,1
2025/04/11 11:15:58.93323073,1744362958,76160233,hemisphere,2,1,63.441206604166666,10.4199176835,43.795,0.00019599999999999997,0.0,0.0,0.0,0.00019599999999999997,0.0,0.0,0.0,0.0031359999999999995,1
2025/04/11 11:15:58.127062422,1744362958,126571571,hemisphere,2,1,63.441206603333335,10.419917788833333,43.792,0.00019599999999999997,0.0,0.0,0.0,0.00019599999999999997,0.0,0.0,0.0,0.0031359999999999995,1
2025/04/11 11:15:58.183766565,1744362958,177037261,hemisphere,2,1,63.441206622,10.419917962,43.798,0.00019599999999999997,0.0,0.0,0.0,0.00019599999999999997,0.0,0.0,0.0,0.0031359999999999995,1
2025/04/11 11:15:58.227724580,1744362958,225563027,hemisphere,2,1,63.44120658916667,10.419918033,43.791000000000004,0.00019599999999999997,0.0,0.0,0.0,0.00019599999999999997,0.0,0.0,0.0,0.0031359999999999995,1
2025/04/11 11:15:58.277040971,1744362958,275856438,hemisphere,2,1,63.441206617666666,10.419918205833334,43.799,0.00019599999999999997,0.0,0.0,0.0,0.00019599999999999997,0.0,0.0,0.0,0.0031359999999999995,1
2025/04/11 11:15:58.327290861,1744362958,326283276,hemisphere,2,1,63.4412066035,10.4199183275,43.795,0.00019599999999999997,0.0,0.0,0.0,0.00019599999999999997,0.0,0.0,0.0,0.0031359999999999995,1
2025/04/11 11:15:58.380170275,1744362958,379561258,hemisphere,2,1,63.4412065925,10.4199184735,43.796,0.00019599999999999997,0.0,0.0,0.0,0.00019599999999999997,0.0,0.0,0.0,0.0031359999999999995,1
2025/04/11 11:15:58.428483740,1744362958,427035438,hemisphere,2,1,63.44120659483333,10.419918652,43.798,0.00019599999999999997,0.0,0.0,0.0,0.00019599999999999997,0.0,0.0,0.0,0.0031359999999999995,1
2025/04/11 11:15:58.479621611,1744362958,476966262,hemisphere,2,1,63.44120656733333,10.4199187705,43.796,0.00019599999999999997,0.0,0.0,0.0,0.00019599999999999997,0.0,0.0,0.0,0.0031359999999999995,1
2025/04/11 11:15:58.528554193,1744362958,526354480,hemisphere,2,1,63.4412065745,10.419918965,43.798,0.00019599999999999997,0.0,0.0,0.0,0.00019599999999999997,0.0,0.0,0.0,0.0031359999999999995,1
2025/04/11 11:15:58.586184385,1744362958,577904327,hemisphere,2,1,63.441206578,10.419919110166667,43.802,0.00019599999999999997,0.0,0.0,0.0,0.00019599999999999997,0.0,0.0,0.0,0.0031359999999999995,1
2025/04/11 11:15:58.636652250,1744362958,626086729,hemisphere,2,1,63.44120654666666,10.419919250833333,43.798,0.00019599999999999997,0.0,0.0,0.0,0.00019599999999999997,0.0,0.0,0.0,0.0031359999999999995,1
2025/04/11 11:15:58.678709233,1744362958,677130482,hemisphere,2,1,63.441206537666666,10.419919411833334,43.802,0.00019599999999999997,0.0,0.0,0.0,0.00019599999999999997,0.0,0.0,0.0,0.0031359999999999995,1
2025/04/11 11:15:58.745153793,1744362958,729105807,hemisphere,2,1,63.4412065155,10.4199195785,43.800000000000004,0.00019599999999999997,0.0,0.0,0.0,0.00019599999999999997,0.0,0.0,0.0,0.0031359999999999995,1
2025/04/11 11:15:58.792340094,1744362958,776598800,hemisphere,2,1,63.4412065025,10.419919696833333,43.801,0.00019599999999999997,0.0,0.0,0.0,0.00019599999999999997,0.0,0.0,0.0,0.0031359999999999995,1
2025/04/11 11:15:58.827450864,1744362958,826781414,hemisphere,2,1,63.441206476,10.41991985,43.799,0.00019599999999999997,0.0,0.0,0.0,0.00019599999999999997,0.0,0.0,0.0,0.0031359999999999995,1
2025/04/11 11:15:58.877488494,1744362958,876479898,hemisphere,2,1,63.4412064465,10.419920010833334,43.795,0.00019599999999999997,0.0,0.0,0.0,0.00019599999999999997,0.0,0.0,0.0,0.0031359999999999995,1
2025/04/11 11:15:58.941924142,1744362958,927151402,hemisphere,2,1,63.441206439666665,10.4199201695,43.801,0.00019599999999999997,0.0,0.0,0.0,0.00019599999999999997,0.0,0.0,0.0,0.0031359999999999995,1
2025/04/11 11:15:58.989067543,1744362958,976590359,hemisphere,2,1,63.44120639933333,10.419920331666667,43.796,0.00019599999999999997,0.0,0.0,0.0,0.00019599999999999997,0.0,0.0,0.0,0.0031359999999999995,1
2025/04/11 11:15:59.41609492,1744362959,28497576,hemisphere,2,1,63.4412064075,10.419920503,43.802,0.00019599999999999997,0.0,0.0,0.0,0.00019599999999999997,0.0,0.0,0.0,0.0031359999999999995,1
2025/04/11 11:15:59.95401492,1744362959,76986343,hemisphere,2,1,63.441206365333336,10.419920657,43.797000000000004,0.00019599999999999997,0.0,0.0,0.0,0.00019599999999999997,0.0,0.0,0.0,0.0031359999999999995,1
2025/04/11 11:15:59.143288298,1744362959,128076290,hemisphere,2,1,63.44120633266667,10.419920831,43.796,0.00019599999999999997,0.0,0.0,0.0,0.00019599999999999997,0.0,0.0,0.0,0.0031359999999999995,1
2025/04/11 11:15:59.195882973,1744362959,176942144,hemisphere,2,1,63.44120631916667,10.419921017333333,43.798,0.00019599999999999997,0.0,0.0,0.0,0.00019599999999999997,0.0,0.0,0.0,0.0031359999999999995,1
2025/04/11 11:15:59.236532483,1744362959,226731909,hemisphere,2,1,63.44120628016667,10.4199212025,43.797000000000004,0.00019599999999999997,0.0,0.0,0.0,0.00019599999999999997,0.0,0.0,0.0,0.0031359999999999995,1
2025/04/11 11:15:59.280994958,1744362959,277302733,hemisphere,2,1,63.441206244,10.419921387666667,43.798,0.00019599999999999997,0.0,0.0,0.0,0.00019599999999999997,0.0,0.0,0.0,0.0031359999999999995,1
2025/04/11 11:15:59.336941516,1744362959,326273684,hemisphere,2,1,63.441206214666664,10.419921585833333,43.793,0.00019599999999999997,0.0,0.0,0.0,0.00019599999999999997,0.0,0.0,0.0,0.0031359999999999995,1
2025/04/11 11:15:59.394391727,1744362959,380021521,hemisphere,2,1,63.441206197166665,10.419921791,43.801,0.00019599999999999997,0.0,0.0,0.0,0.00019599999999999997,0.0,0.0,0.0,0.0031359999999999995,1
2025/04/11 11:15:59.442876649,1744362959,427849425,hemisphere,2,1,63.44120616116667,10.419921945,43.796,0.00019599999999999997,0.0,0.0,0.0,0.00019599999999999997,0.0,0.0,0.0,0.0031359999999999995,1
2025/04/11 11:15:59.476777726,1744362959,475796383,hemisphere,2,1,63.4412061375,10.419922117833334,43.798,0.00019599999999999997,0.0,0.0,0.0,0.00019599999999999997,0.0,0.0,0.0,0.0031359999999999995,1
2025/04/11 11:15:59.545447771,1744362959,526241260,hemisphere,2,1,63.44120612983333,10.4199222715,43.798,0.00019599999999999997,0.0,0.0,0.0,0.00019599999999999997,0.0,0.0,0.0,0.0031359999999999995,1
2025/04/11 11:15:59.578927480,1744362959,575205229,hemisphere,2,1,63.4412060675,10.419922424,43.797000000000004,0.00019599999999999997,0.0,0.0,0.0,0.00019599999999999997,0.0,0.0,0.0,0.0031359999999999995,1
2025/04/11 11:15:59.636644253,1744362959,629634901,hemisphere,2,1,63.441206058,10.419922665166666,43.799,0.00019599999999999997,0.0,0.0,0.0,0.00019599999999999997,0.0,0.0,0.0,0.0031359999999999995,1
2025/04/11 11:15:59.709271459,1744362959,675731963,hemisphere,2,1,63.44120600683333,10.419922842,43.796,0.00019599999999999997,0.0,0.0,0.0,0.00019599999999999997,0.0,0.0,0.0,0.0031359999999999995,1
2025/04/11 11:15:59.783417400,1744362959,726581419,hemisphere,2,1,63.4412059605,10.419923013833333,43.797000000000004,0.00019599999999999997,0.0,0.0,0.0,0.00019599999999999997,0.0,0.0,0.0,0.0031359999999999995,1
2025/04/11 11:15:59.811850274,1744362959,778814474,hemisphere,2,1,63.4412059355,10.419923245166666,43.797000000000004,0.00019599999999999997,0.0,0.0,0.0,0.00019599999999999997,0.0,0.0,0.0,0.0031359999999999995,1
2025/04/11 11:15:59.846710999,1744362959,832048487,hemisphere,2,1,63.44120587716667,10.419923425666667,43.795,0.00019599999999999997,0.0,0.0,0.0,0.00019599999999999997,0.0,0.0,0.0,0.0031359999999999995,1
2025/04/11 11:15:59.877910570,1744362959,875688132,hemisphere,2,1,63.441205837666665,10.419923625333332,43.796,0.00019599999999999997,0.0,0.0,0.0,0.00019599999999999997,0.0,0.0,0.0,0.0031359999999999995,1
2025/04/11 11:15:59.929418402,1744362959,926145650,hemisphere,2,1,63.441205800666665,10.419923845833333,43.793,0.00019599999999999997,0.0,0.0,0.0,0.00019599999999999997,0.0,0.0,0.0,0.0031359999999999995,1
2025/04/11 11:15:59.977051503,1744362959,976291224,hemisphere,2,1,63.441205756833334,10.419924020833333,43.794000000000004,0.00019599999999999997,0.0,0.0,0.0,0.00019599999999999997,0.0,0.0,0.0,0.0031359999999999995,1
2025/04/11 11:16:00.27416139,1744362960,26841534,hemisphere,2,1,63.441205714666665,10.41992426,43.793,0.00019599999999999997,0.0,0.0,0.0,0.00019599999999999997,0.0,0.0,0.0,0.0031359999999999995,1
2025/04/11 11:16:00.78386061,1744362960,75875928,hemisphere,2,1,63.44120566666667,10.419924462833333,43.797000000000004,0.00019599999999999997,0.0,0.0,0.0,0.00019599999999999997,0.0,0.0,0.0,0.0031359999999999995,1
2025/04/11 11:16:00.127541155,1744362960,126855742,hemisphere,2,1,63.441205634,10.419924684833333,43.794000000000004,0.00019599999999999997,0.0,0.0,0.0,0.00019599999999999997,0.0,0.0,0.0,0.0031359999999999995,1
2025/04/11 11:16:00.182438940,1744362960,176474478,hemisphere,2,1,63.441205575,10.419924873833333,43.796,0.00019599999999999997,0.0,0.0,0.0,0.00019599999999999997,0.0,0.0,0.0,0.0031359999999999995,1
2025/04/11 11:16:00.227633343,1744362960,225832474,hemisphere,2,1,63.44120554516667,10.419925152166666,43.796,0.00019599999999999997,0.0,0.0,0.0,0.00019599999999999997,0.0,0.0,0.0,0.0031359999999999995,1
2025/04/11 11:16:00.278486449,1744362960,277005947,hemisphere,2,1,63.441205495333335,10.419925339333334,43.800000000000004,0.00019599999999999997,0.0,0.0,0.0,0.00019599999999999997,0.0,0.0,0.0,0.0031359999999999995,1
2025/04/11 11:16:00.334055660,1744362960,326580651,hemisphere,2,1,63.4412054495,10.419925596666667,43.800000000000004,0.00019599999999999997,0.0,0.0,0.0,0.00019599999999999997,0.0,0.0,0.0,0.0031359999999999995,1
2025/04/11 11:16:00.384781782,1744362960,378920519,hemisphere,2,1,63.44120540083333,10.419925770833334,43.799,0.00019599999999999997,0.0,0.0,0.0,0.00019599999999999997,0.0,0.0,0.0,0.0031359999999999995,1
2025/04/11 11:16:00.463144502,1744362960,427405995,hemisphere,2,1,63.441205326833334,10.419926019666667,43.792,0.00019599999999999997,0.0,0.0,0.0,0.00019599999999999997,0.0,0.0,0.0,0.0031359999999999995,1
2025/04/11 11:16:00.480782809,1744362960,477433324,hemisphere,2,1,63.441205261,10.419926271,43.798,0.00019599999999999997,0.0,0.0,0.0,0.00019599999999999997,0.0,0.0,0.0,0.0031359999999999995,1
2025/04/11 11:16:00.530489735,1744362960,526804873,hemisphere,2,1,63.441205193,10.419926472166667,43.796,0.00019599999999999997,0.0,0.0,0.0,0.00019599999999999997,0.0,0.0,0.0,0.0031359999999999995,1
2025/04/11 11:16:00.595682847,1744362960,576073186,hemisphere,2,1,63.441205146,10.4199266985,43.797000000000004,0.00019599999999999997,0.0,0.0,0.0,0.00019599999999999997,0.0,0.0,0.0,0.0031359999999999995,1
2025/04/11 11:16:00.637539999,1744362960,626690465,hemisphere,2,1,63.4412050735,10.419926953166666,43.794000000000004,0.00019599999999999997,0.0,0.0,0.0,0.00019599999999999997,0.0,0.0,0.0,0.0031359999999999995,1
2025/04/11 11:16:00.676985286,1744362960,675248106,hemisphere,2,1,63.4412050055,10.41992718,43.794000000000004,0.00019599999999999997,0.0,0.0,0.0,0.00019599999999999997,0.0,0.0,0.0,0.0031359999999999995,1
2025/04/11 11:16:00.726648591,1744362960,726152498,hemisphere,2,1,63.441204960166665,10.419927440666667,43.796,0.00019599999999999997,0.0,0.0,0.0,0.00019599999999999997,0.0,0.0,0.0,0.0031359999999999995,1
2025/04/11 11:16:00.777280194,1744362960,776033873,hemisphere,2,1,63.44120488883333,10.419927653,43.796,0.00019599999999999997,0.0,0.0,0.0,0.00019599999999999997,0.0,0.0,0.0,0.0031359999999999995,1
2025/04/11 11:16:00.827077478,1744362960,826382496,hemisphere,2,1,63.441204801666665,10.419927859666666,43.792,0.00019599999999999997,0.0,0.0,0.0,0.00019599999999999997,0.0,0.0,0.0,0.0031359999999999995,1
2025/04/11 11:16:00.881306557,1744362960,876094524,hemisphere,2,1,63.44120475333333,10.4199280855,43.79,0.00019599999999999997,0.0,0.0,0.0,0.00019599999999999997,0.0,0.0,0.0,0.0031359999999999995,1
2025/04/11 11:16:00.939355372,1744362960,927220343,hemisphere,2,1,63.44120468366667,10.4199283315,43.795,0.00019599999999999997,0.0,0.0,0.0,0.00019599999999999997,0.0,0.0,0.0,0.0031359999999999995,1
2025/04/11 11:16:01.3486116,1744362960,976800393,hemisphere,2,1,63.4412046,10.419928558666667,43.793,0.00019599999999999997,0.0,0.0,0.0,0.00019599999999999997,0.0,0.0,0.0,0.0031359999999999995,1
2025/04/11 11:16:01.38843600,1744362961,26633543,hemisphere,2,1,63.441204527,10.419928803833333,43.793,0.00019599999999999997,0.0,0.0,0.0,0.00019599999999999997,0.0,0.0,0.0,0.0031359999999999995,1
2025/04/11 11:16:01.160976460,1744362961,76328781,hemisphere,2,1,63.4412044595,10.419929076166667,43.795,0.00019599999999999997,0.0,0.0,0.0,0.00019599999999999997,0.0,0.0,0.0,0.0031359999999999995,1
2025/04/11 11:16:01.177436908,1744362961,126498137,hemisphere,2,1,63.441204373666665,10.4199292935,43.795,0.00019599999999999997,0.0,0.0,0.0,0.00019599999999999997,0.0,0.0,0.0,0.0031359999999999995,1
2025/04/11 11:16:01.230616711,1744362961,177011315,hemisphere,2,1,63.441204316333334,10.419929569333334,43.798,0.00019599999999999997,0.0,0.0,0.0,0.00019599999999999997,0.0,0.0,0.0,0.0031359999999999995,1
2025/04/11 11:16:01.266076620,1744362961,230842371,hemisphere,2,1,63.441204233,10.419929822666667,43.796,0.00019599999999999997,0.0,0.0,0.0,0.00019599999999999997,0.0,0.0,0.0,0.0031359999999999995,1
2025/04/11 11:16:01.278465551,1744362961,276375548,hemisphere,2,1,63.441204142833335,10.4199300515,43.796,0.00019599999999999997,0.0,0.0,0.0,0.00019599999999999997,0.0,0.0,0.0,0.0031359999999999995,1
2025/04/11 11:16:01.327998969,1744362961,326229847,hemisphere,2,1,63.441204079,10.419930305666666,43.798,0.00019599999999999997,0.0,0.0,0.0,0.00019599999999999997,0.0,0.0,0.0,0.0031359999999999995,1
2025/04/11 11:16:01.380480470,1744362961,379418364,hemisphere,2,1,63.44120399333333,10.419930549,43.795,0.00019599999999999997,0.0,0.0,0.0,0.00019599999999999997,0.0,0.0,0.0,0.0031359999999999995,1
2025/04/11 11:16:01.427575674,1744362961,426934362,hemisphere,2,1,63.441203922666666,10.419930882833333,43.800000000000004,0.00019599999999999997,0.0,0.0,0.0,0.00019599999999999997,0.0,0.0,0.0,0.0031359999999999995,1
2025/04/11 11:16:01.477309001,1744362961,475934188,hemisphere,2,1,63.441203848166666,10.419931130666667,43.801,0.00019599999999999997,0.0,0.0,0.0,0.00019599999999999997,0.0,0.0,0.0,0.0031359999999999995,1
2025/04/11 11:16:01.530531162,1744362961,529773085,hemisphere,2,1,63.44120374566667,10.419931411166667,43.806000000000004,0.00019599999999999997,0.0,0.0,0.0,0.00019599999999999997,0.0,0.0,0.0,0.0031359999999999995,1
2025/04/11 11:16:01.578907002,1744362961,578329161,hemisphere,2,1,63.441203652166664,10.419931647833334,43.804,0.00019599999999999997,0.0,0.0,0.0,0.00019599999999999997,0.0,0.0,0.0,0.0031359999999999995,1
2025/04/11 11:16:01.626648767,1744362961,625950440,hemisphere,2,1,63.44120357933333,10.419931889666668,43.801,0.00019599999999999997,0.0,0.0,0.0,0.00019599999999999997,0.0,0.0,0.0,0.0031359999999999995,1
2025/04/11 11:16:01.678022730,1744362961,676305093,hemisphere,2,1,63.4412034925,10.419932177333333,43.802,0.00019599999999999997,0.0,0.0,0.0,0.00019599999999999997,0.0,0.0,0.0,0.0031359999999999995,1
2025/04/11 11:16:01.726149766,1744362961,725509979,hemisphere,2,1,63.441203401833334,10.4199324385,43.805,0.00019599999999999997,0.0,0.0,0.0,0.00019599999999999997,0.0,0.0,0.0,0.0031359999999999995,1
2025/04/11 11:16:01.777791707,1744362961,777094926,hemisphere,2,1,63.44120329816667,10.4199327125,43.803000000000004,0.00019599999999999997,0.0,0.0,0.0,0.00019599999999999997,0.0,0.0,0.0,0.0031359999999999995,1
