time,header_stamp_secs,header_stamp_nsecs,header_frame_id,sentence
2025/04/11 11:15:45.294592416,1744362945,284250305,hemisphere,"$GPRMC,091545.25,A,6326.47195547,N,01025.19450939,E,0.12,352.61,110425,4.7,E,D,S*41"
2025/04/11 11:15:45.315695899,1744362945,309169953,hemisphere,"$GPHDT,312.485,T*3C"
2025/04/11 11:15:45.325991934,1744362945,325662724,hemisphere,"$GPGGA,091545.30,6326.47195711,N,01025.19451229,E,4,16,0.7,2.865,M,40.935,M,1.3,0415*47"
2025/04/11 11:15:45.333366681,1744362945,332791594,hemisphere,"$GPRMC,091545.30,A,6326.47195711,N,01025.19451229,E,0.12,21.50,110425,4.7,E,D,S*7A"
2025/04/11 11:15:45.359648592,1744362945,359287059,hemisphere,"$GPHDT,312.458,T*3C"
2025/04/11 11:15:45.379862844,1744362945,379538079,hemisphere,"$GPGGA,091545.35,6326.47195744,N,01025.19450807,E,4,16,0.7,2.865,M,40.935,M,1.3,0415*45"
2025/04/11 11:15:45.386994261,1744362945,386771935,hemisphere,"$GPRMC,091545.35,A,6326.47195744,N,01025.19450807,E,0.11,310.68,110425,4.7,E,D,S*41"
2025/04/11 11:15:45.409357032,1744362945,408993064,hemisphere,"$GPHDT,312.429,T*3A"
2025/04/11 11:15:45.426189626,1744362945,425923198,hemisphere,"$GPGGA,091545.40,6326.47195806,N,01025.19450817,E,4,16,0.7,2.868,M,40.935,M,0.4,0415*44"
2025/04/11 11:15:45.433266434,1744362945,432791620,hemisphere,"$GPRMC,091545.40,A,6326.47195806,N,01025.19450817,E,0.11,7.85,110425,4.7,E,D,S*4D"
2025/04/11 11:15:45.459155246,1744362945,458681675,hemisphere,"$GPHDT,312.402,T*33"
2025/04/11 11:15:45.475919091,1744362945,475678903,hemisphere,"$GPGGA,091545.45,6326.47196050,N,01025.19450894,E,4,16,0.7,2.868,M,40.935,M,0.4,0415*42"
2025/04/11 11:15:45.484862912,1744362945,483172511,hemisphere,"$GPRMC,091545.45,A,6326.47196050,N,01025.19450894,E,0.11,4.72,110425,4.7,E,D,S*40"
2025/04/11 11:15:45.509461782,1744362945,509134895,hemisphere,"$GPHDT,312.374,T*35"
2025/04/11 11:15:45.525786081,1744362945,525500069,hemisphere,"$GPGGA,091545.50,6326.47196073,N,01025.19450629,E,4,16,0.7,2.868,M,40.935,M,0.5,0415*4E"
2025/04/11 11:15:45.533448038,1744362945,533169361,hemisphere,"$GPRMC,091545.50,A,6326.47196073,N,01025.19450629,E,0.10,306.80,110425,4.7,E,D,S*40"
2025/04/11 11:15:45.559156669,1744362945,558866852,hemisphere,"$GPHDT,312.346,T*34"
2025/04/11 11:15:45.575585282,1744362945,575321324,hemisphere,"$GPGGA,091545.55,6326.47196119,N,01025.19450688,E,4,16,0.7,2.865,M,40.935,M,0.5,0415*40"
2025/04/11 11:15:45.583078889,1744362945,582791228,hemisphere,"$GPRMC,091545.55,A,6326.47196119,N,01025.19450688,E,0.10,21.38,110425,4.7,E,D,S*76"
2025/04/11 11:15:45.609456443,1744362945,609214969,hemisphere,"$GPHDT,312.319,T*3E"
2025/04/11 11:15:45.625906686,1744362945,625724101,hemisphere,"$GPGGA,091545.60,6326.47196340,N,01025.19450855,E,4,16,0.7,2.870,M,40.935,M,0.6,0415*41"
2025/04/11 11:15:45.633403991,1744362945,633065714,hemisphere,"$GPRMC,091545.60,A,6326.47196340,N,01025.19450855,E,0.11,5.79,110425,4.7,E,D,S*42"
2025/04/11 11:15:45.659286117,1744362945,658946706,hemisphere,"$GPHDT,312.290,T*3E"
2025/04/11 11:15:45.675571577,1744362945,675291975,hemisphere,"$GPGGA,091545.65,6326.47196453,N,01025.19450851,E,4,16,0.7,2.870,M,40.935,M,0.6,0415*45"
2025/04/11 11:15:45.682376813,1744362945,682130178,hemisphere,"$GPRMC,091545.65,A,6326.47196453,N,01025.19450851,E,0.11,24.01,110425,4.7,E,D,S*7A"
2025/04/11 11:15:45.709676279,1744362945,709379984,hemisphere,"$GPHDT,312.262,T*33"
2025/04/11 11:15:45.725903145,1744362945,725658206,hemisphere,"$GPGGA,091545.70,6326.47196588,N,01025.19451062,E,4,16,0.7,2.870,M,40.935,M,0.7,0415*4E"
2025/04/11 11:15:45.733448219,1744362945,733214164,hemisphere,"$GPRMC,091545.70,A,6326.47196588,N,01025.19451062,E,0.11,15.34,110425,4.7,E,D,S*74"
2025/04/11 11:15:45.759335959,1744362945,759009814,hemisphere,"$GPHDT,312.227,T*32"
2025/04/11 11:15:45.776109860,1744362945,775899549,hemisphere,"$GPGGA,091545.75,6326.47196920,N,01025.19451092,E,4,16,0.7,2.870,M,40.935,M,0.7,0415*4A"
2025/04/11 11:15:45.783138377,1744362945,782877913,hemisphere,"$GPRMC,091545.75,A,6326.47196920,N,01025.19451092,E,0.12,5.02,110425,4.7,E,D,S*47"
2025/04/11 11:15:45.808997830,1744362945,808717441,hemisphere,"$GPHDT,312.200,T*37"
2025/04/11 11:15:45.826941658,1744362945,826706510,hemisphere,"$GPGGA,091545.80,6326.47196964,N,01025.19451456,E,4,16,0.7,2.870,M,40.935,M,0.8,0415*43"
2025/04/11 11:15:45.832889034,1744362945,832634621,hemisphere,"$GPRMC,091545.80,A,6326.47196964,N,01025.19451456,E,0.12,46.07,110425,4.7,E,D,S*73"
2025/04/11 11:15:45.859895793,1744362945,859400220,hemisphere,"$GPHDT,312.167,T*35"
2025/04/11 11:15:45.876453210,1744362945,875979483,hemisphere,"$GPGGA,091545.85,6326.47197339,N,01025.19451626,E,4,16,0.7,2.870,M,40.935,M,0.8,0415*40"
2025/04/11 11:15:45.889206501,1744362945,888823439,hemisphere,"$GPRMC,091545.85,A,6326.47197339,N,01025.19451626,E,0.13,16.32,110425,4.7,E,D,S*72"
2025/04/11 11:15:45.909907870,1744362945,909542215,hemisphere,"$GPHDT,312.139,T*3E"
2025/04/11 11:15:45.926596366,1744362945,925782089,hemisphere,"$GPGGA,091545.90,6326.47197375,N,01025.19451909,E,4,16,0.7,2.867,M,40.935,M,0.9,0415*49"
2025/04/11 11:15:45.934105456,1744362945,933711289,hemisphere,"$GPRMC,091545.90,A,6326.47197375,N,01025.19451909,E,0.13,39.06,110425,4.7,E,D,S*76"
2025/04/11 11:15:45.963281531,1744362945,962054314,hemisphere,"$GPHDT,312.110,T*35"
2025/04/11 11:15:45.977537255,1744362945,977246870,hemisphere,"$GPGGA,091545.95,6326.47197663,N,01025.19452184,E,4,16,0.7,2.870,M,40.935,M,0.9,0415*46"
2025/04/11 11:15:45.983448355,1744362945,983186651,hemisphere,"$GPRMC,091545.95,A,6326.47197663,N,01025.19452184,E,0.13,30.13,110425,4.7,E,D,S*72"
2025/04/11 11:15:46.15964831,1744362946,8980397,hemisphere,"$GPHDT,312.078,T*3A"
2025/04/11 11:15:46.30419738,1744362946,25955412,hemisphere,"$GPGGA,091546.00,6326.47197919,N,01025.19452351,E,4,16,0.7,2.868,M,40.935,M,1.0,0415*40"
2025/04/11 11:15:46.39324790,1744362946,37010763,hemisphere,"$GPRMC,091546.00,A,6326.47197919,N,01025.19452351,E,0.14,22.62,110425,4.7,E,D,S*77"
2025/04/11 11:15:46.60239437,1744362946,58766765,hemisphere,"$GPHDT,312.054,T*34"
2025/04/11 11:15:46.81224093,1744362946,77033631,hemisphere,"$GPGGA,091546.05,6326.47198074,N,01025.19452989,E,4,16,0.7,2.868,M,40.935,M,1.0,0415*47"
2025/04/11 11:15:46.82957139,1744362946,82605444,hemisphere,"$GPRMC,091546.05,A,6326.47198074,N,01025.19452989,E,0.15,47.03,110425,4.7,E,D,S*75"
2025/04/11 11:15:46.266989376,1744362946,112212141,hemisphere,"$GPHDT,312.025,T*32"
2025/04/11 11:15:46.267161021,1744362946,126573340,hemisphere,"$GPGGA,091546.10,6326.47198407,N,01025.19453148,E,4,16,0.7,2.866,M,40.935,M,1.1,0415*48"
2025/04/11 11:15:46.267341213,1744362946,133710925,hemisphere,"$GPRMC,091546.10,A,6326.47198407,N,01025.19453148,E,0.15,19.08,110425,4.7,E,D,S*75"
2025/04/11 11:15:46.267601700,1744362946,158933618,hemisphere,"$GPHDT,311.996,T*30"
2025/04/11 11:15:46.267721557,1744362946,175568921,hemisphere,"$GPGGA,091546.15,6326.47198649,N,01025.19453408,E,4,16,0.7,2.866,M,40.935,M,1.1,0415*44"
2025/04/11 11:15:46.267800914,1744362946,182683243,hemisphere,"$GPRMC,091546.15,A,6326.47198649,N,01025.19453408,E,0.16,27.44,110425,4.7,E,D,S*7F"
2025/04/11 11:15:46.267885399,1744362946,209241230,hemisphere,"$GPHDT,311.967,T*3E"
2025/04/11 11:15:46.270981113,1744362946,227242477,hemisphere,"$GPGGA,091546.20,6326.47198850,N,01025.19453799,E,4,16,0.7,2.864,M,40.935,M,1.2,0415*4E"
2025/04/11 11:15:46.271109180,1744362946,233134300,hemisphere,"$GPRMC,091546.20,A,6326.47198850,N,01025.19453799,E,0.16,33.94,110425,4.7,E,D,S*7C"
2025/04/11 11:15:46.271246629,1744362946,258875037,hemisphere,"$GPHDT,311.937,T*3B"
2025/04/11 11:15:46.276049381,1744362946,275708038,hemisphere,"$GPGGA,091546.25,6326.47199103,N,01025.19454062,E,4,16,0.7,2.862,M,40.935,M,1.2,0415*47"
2025/04/11 11:15:46.283205680,1744362946,282838732,hemisphere,"$GPRMC,091546.25,A,6326.47199103,N,01025.19454062,E,0.17,32.62,110425,4.7,E,D,S*7A"
2025/04/11 11:15:46.309576031,1744362946,309314263,hemisphere,"$GPHDT,311.906,T*39"
2025/04/11 11:15:46.326352765,1744362946,326100985,hemisphere,"$GPGGA,091546.30,6326.47199312,N,01025.19454381,E,4,16,0.7,2.863,M,40.935,M,1.3,0415*4F"
2025/04/11 11:15:46.333625028,1744362946,333445386,hemisphere,"$GPRMC,091546.30,A,6326.47199312,N,01025.19454381,E,0.17,34.51,110425,4.7,E,D,S*74"
2025/04/11 11:15:46.360400063,1744362946,360120290,hemisphere,"$GPHDT,311.880,T*36"
2025/04/11 11:15:46.379436253,1744362946,378863145,hemisphere,"$GPGGA,091546.35,6326.47199576,N,01025.19454670,E,4,16,0.7,2.862,M,40.935,M,1.3,0415*44"
2025/04/11 11:15:46.386156512,1744362946,385889403,hemisphere,"$GPRMC,091546.35,A,6326.47199576,N,01025.19454670,E,0.17,21.91,110425,4.7,E,D,S*76"
2025/04/11 11:15:46.409373115,1744362946,408735960,hemisphere,"$GPHDT,311.852,T*39"
2025/04/11 11:15:46.426494802,1744362946,426209038,hemisphere,"$GPGGA,091546.40,6326.47199821,N,01025.19455142,E,4,16,0.7,2.860,M,40.935,M,0.4,0415*4A"
2025/04/11 11:15:46.433699239,1744362946,433374289,hemisphere,"$GPRMC,091546.40,A,6326.47199821,N,01025.19455142,E,0.18,30.71,110425,4.7,E,D,S*7D"
2025/04/11 11:15:46.459376340,1744362946,459147823,hemisphere,"$GPHDT,311.830,T*3D"
2025/04/11 11:15:46.477037179,1744362946,476627425,hemisphere,"$GPGGA,091546.45,6326.47199917,N,01025.19455533,E,4,16,0.7,2.855,M,40.935,M,0.4,0415*4F"
2025/04/11 11:15:46.483970682,1744362946,483746297,hemisphere,"$GPRMC,091546.45,A,6326.47199917,N,01025.19455533,E,0.18,40.00,110425,4.7,E,D,S*7F"
2025/04/11 11:15:46.509107517,1744362946,508842097,hemisphere,"$GPHDT,311.807,T*39"
2025/04/11 11:15:46.526567958,1744362946,526328087,hemisphere,"$GPGGA,091546.50,6326.47200175,N,01025.19455613,E,4,16,0.7,2.857,M,40.935,M,0.5,0415*46"
2025/04/11 11:15:46.533681677,1744362946,533454298,hemisphere,"$GPRMC,091546.50,A,6326.47200175,N,01025.19455613,E,0.18,21.38,110425,4.7,E,D,S*79"
2025/04/11 11:15:46.560610956,1744362946,560015574,hemisphere,"$GPHDT,311.777,T*31"
2025/04/11 11:15:46.577186432,1744362946,576881021,hemisphere,"$GPGGA,091546.55,6326.47200491,N,01025.19456001,E,4,16,0.7,2.856,M,40.935,M,0.5,0415*4B"
2025/04/11 11:15:46.584116235,1744362946,583872657,hemisphere,"$GPRMC,091546.55,A,6326.47200491,N,01025.19456001,E,0.18,26.47,110425,4.7,E,D,S*7A"
2025/04/11 11:15:46.609394476,1744362946,609102756,hemisphere,"$GPHDT,311.751,T*35"
2025/04/11 11:15:46.625952617,1744362946,625752473,hemisphere,"$GPGGA,091546.60,6326.47200698,N,01025.19456205,E,4,16,0.7,2.853,M,40.935,M,0.6,0415*46"
2025/04/11 11:15:46.633806950,1744362946,633092882,hemisphere,"$GPRMC,091546.60,A,6326.47200698,N,01025.19456205,E,0.18,26.24,110425,4.7,E,D,S*74"
2025/04/11 11:15:46.658935214,1744362946,658679117,hemisphere,"$GPHDT,311.727,T*34"
2025/04/11 11:15:46.676201554,1744362946,675813874,hemisphere,"$GPGGA,091546.65,6326.47200839,N,01025.19456250,E,4,16,0.7,2.849,M,40.935,M,0.6,0415*4D"
2025/04/11 11:15:46.682869527,1744362946,682589309,hemisphere,"$GPRMC,091546.65,A,6326.47200839,N,01025.19456250,E,0.18,21.82,110425,4.7,E,D,S*7F"
2025/04/11 11:15:46.709289981,1744362946,709090749,hemisphere,"$GPHDT,311.699,T*30"
2025/04/11 11:15:46.726151711,1744362946,725875976,hemisphere,"$GPGGA,091546.70,6326.47201196,N,01025.19456607,E,4,16,0.7,2.852,M,40.935,M,0.7,0415*49"
2025/04/11 11:15:46.733469601,1744362946,733008949,hemisphere,"$GPRMC,091546.70,A,6326.47201196,N,01025.19456607,E,0.18,23.08,110425,4.7,E,D,S*70"
2025/04/11 11:15:46.827543745,1744362946,758789773,hemisphere,"$GPHDT,311.670,T*37"
2025/04/11 11:15:46.828255102,1744362946,775642231,hemisphere,"$GPGGA,091546.75,6326.47201368,N,01025.19456772,E,4,16,0.7,2.852,M,40.935,M,0.7,0415*4C"
2025/04/11 11:15:46.828927690,1744362946,782679565,hemisphere,"$GPRMC,091546.75,A,6326.47201368,N,01025.19456772,E,0.18,24.01,110425,4.7,E,D,S*7B"
2025/04/11 11:15:46.829485460,1744362946,809224353,hemisphere,"$GPHDT,311.644,T*30"
2025/04/11 11:15:46.830283722,1744362946,825972985,hemisphere,"$GPGGA,091546.80,6326.47201537,N,01025.19457015,E,4,16,0.7,2.849,M,40.935,M,0.8,0415*48"
2025/04/11 11:15:46.834235713,1744362946,833488796,hemisphere,"$GPRMC,091546.80,A,6326.47201537,N,01025.19457015,E,0.18,20.93,110425,4.7,E,D,S*75"
2025/04/11 11:15:46.859435724,1744362946,858888336,hemisphere,"$GPHDT,311.611,T*30"
2025/04/11 11:15:46.884614632,1744362946,881448044,hemisphere,"$GPGGA,091546.85,6326.47201888,N,01025.19457109,E,4,16,0.7,2.852,M,40.935,M,0.8,0415*42"
2025/04/11 11:15:46.889760248,1744362946,889321038,hemisphere,"$GPRMC,091546.85,A,6326.47201888,N,01025.19457109,E,0.18,17.30,110425,4.7,E,D,S*78"
2025/04/11 11:15:46.912762553,1744362946,910803351,hemisphere,"$GPHDT,311.580,T*3B"
2025/04/11 11:15:46.926990669,1744362946,926328198,hemisphere,"$GPGGA,091546.90,6326.47201935,N,01025.19457166,E,4,16,0.7,2.848,M,40.935,M,0.9,0415*42"
2025/04/11 11:15:46.938186306,1744362946,933418414,hemisphere,"$GPRMC,091546.90,A,6326.47201935,N,01025.19457166,E,0.17,359.84,110425,4.7,E,D,S*4B"
2025/04/11 11:15:46.964898234,1744362946,959234672,hemisphere,"$GPHDT,311.549,T*3E"
2025/04/11 11:15:46.978057488,1744362946,977688680,hemisphere,"$GPGGA,091546.95,6326.47202328,N,01025.19457443,E,4,16,0.7,2.850,M,40.935,M,0.9,0415*49"
2025/04/11 11:15:46.994788353,1744362946,993894507,hemisphere,"$GPRMC,091546.95,A,6326.47202328,N,01025.19457443,E,0.18,20.11,110425,4.7,E,D,S*77"
2025/04/11 11:15:47.19593545,1744362947,17981848,hemisphere,"$GPHDT,311.516,T*34"
2025/04/11 11:15:47.27865523,1744362947,26350791,hemisphere,"$GPGGA,091547.00,6326.47202323,N,01025.19457463,E,4,16,0.7,2.850,M,40.935,M,1.0,0415*45"
2025/04/11 11:15:47.38267437,1744362947,37891440,hemisphere,"$GPRMC,091547.00,A,6326.47202323,N,01025.19457463,E,0.16,26.39,110425,4.7,E,D,S*71"
2025/04/11 11:15:47.68996949,1744362947,59287002,hemisphere,"$GPHDT,311.483,T*39"
2025/04/11 11:15:47.92034746,1744362947,78548588,hemisphere,"$GPGGA,091547.05,6326.47202587,N,01025.19457485,E,4,16,0.7,2.852,M,40.935,M,1.0,0415*42"
2025/04/11 11:15:47.92150892,1744362947,84247046,hemisphere,"$GPRMC,091547.05,A,6326.47202587,N,01025.19457485,E,0.17,357.94,110425,4.7,E,D,S*47"
2025/04/11 11:15:47.109544773,1744362947,108889323,hemisphere,"$GPHDT,311.451,T*36"
2025/04/11 11:15:47.127809447,1744362947,127118053,hemisphere,"$GPGGA,091547.10,6326.47202702,N,01025.19457745,E,4,16,0.7,2.851,M,40.935,M,1.1,0415*44"
2025/04/11 11:15:47.149333554,1744362947,143980068,hemisphere,"$GPRMC,091547.10,A,6326.47202702,N,01025.19457745,E,0.16,26.56,110425,4.7,E,D,S*79"
2025/04/11 11:15:47.161297740,1744362947,160030159,hemisphere,"$GPHDT,311.417,T*34"
2025/04/11 11:15:47.185282370,1744362947,176215292,hemisphere,"$GPGGA,091547.15,6326.47202889,N,01025.19457710,E,4,16,0.7,2.852,M,40.935,M,1.1,0415*4E"
2025/04/11 11:15:47.185390864,1744362947,183117384,hemisphere,"$GPRMC,091547.15,A,6326.47202889,N,01025.19457710,E,0.16,9.52,110425,4.7,E,D,S*49"
2025/04/11 11:15:47.209543922,1744362947,208971463,hemisphere,"$GPHDT,311.389,T*34"
2025/04/11 11:15:47.226292697,1744362947,225977092,hemisphere,"$GPGGA,091547.20,6326.47203058,N,01025.19457891,E,4,16,0.7,2.854,M,40.935,M,1.2,0415*4E"
2025/04/11 11:15:47.233289427,1744362947,232887128,hemisphere,"$GPRMC,091547.20,A,6326.47203058,N,01025.19457891,E,0.15,28.01,110425,4.7,E,D,S*7A"
2025/04/11 11:15:47.258960026,1744362947,258670594,hemisphere,"$GPHDT,311.357,T*37"
2025/04/11 11:15:47.275910225,1744362947,275582029,hemisphere,"$GPGGA,091547.25,6326.47203239,N,01025.19457922,E,4,16,0.7,2.853,M,40.935,M,1.2,0415*40"
2025/04/11 11:15:47.283880330,1744362947,282825030,hemisphere,"$GPRMC,091547.25,A,6326.47203239,N,01025.19457922,E,0.15,359.61,110425,4.7,E,D,S*40"
2025/04/11 11:15:47.311793293,1744362947,310505155,hemisphere,"$GPHDT,311.325,T*32"
2025/04/11 11:15:47.326232523,1744362947,325944477,hemisphere,"$GPGGA,091547.30,6326.47203351,N,01025.19457930,E,4,16,0.7,2.855,M,40.935,M,1.3,0415*4F"
2025/04/11 11:15:47.333443936,1744362947,332995453,hemisphere,"$GPRMC,091547.30,A,6326.47203351,N,01025.19457930,E,0.15,9.02,110425,4.7,E,D,S*4B"
2025/04/11 11:15:47.373843832,1744362947,372739674,hemisphere,"$GPHDT,311.298,T*35"
2025/04/11 11:15:47.405456975,1744362947,402095276,hemisphere,"$GPGGA,091547.35,6326.47203459,N,01025.19458054,E,4,16,0.7,2.854,M,40.935,M,1.3,0415*40"
2025/04/11 11:15:47.418439715,1744362947,414112235,hemisphere,"$GPRMC,091547.35,A,6326.47203459,N,01025.19458054,E,0.14,27.34,110425,4.7,E,D,S*7D"
2025/04/11 11:15:47.419943339,1744362947,419043980,hemisphere,"$GPHDT,311.264,T*36"
2025/04/11 11:15:47.430425938,1744362947,426213724,hemisphere,"$GPGGA,091547.40,6326.47203762,N,01025.19458011,E,4,16,0.7,2.861,M,40.935,M,0.4,0415*48"
2025/04/11 11:15:47.444091801,1744362947,440258983,hemisphere,"$GPRMC,091547.40,A,6326.47203762,N,01025.19458011,E,0.14,4.02,110425,4.7,E,D,S*41"
2025/04/11 11:15:47.472409452,1744362947,464052190,hemisphere,"$GPHDT,311.237,T*30"
2025/04/11 11:15:47.516028743,1744362947,478265865,hemisphere,"$GPGGA,091547.45,6326.47203825,N,01025.19458057,E,4,16,0.7,2.860,M,40.935,M,0.4,0415*42"
2025/04/11 11:15:47.516191489,1744362947,482701895,hemisphere,"$GPRMC,091547.45,A,6326.47203825,N,01025.19458057,E,0.14,7.24,110425,4.7,E,D,S*4D"
2025/04/11 11:15:47.520947015,1744362947,510251413,hemisphere,"$GPHDT,311.204,T*30"
2025/04/11 11:15:47.530949677,1744362947,530577063,hemisphere,"$GPGGA,091547.50,6326.47204209,N,01025.19458050,E,4,16,0.7,2.864,M,40.935,M,0.5,0415*47"
2025/04/11 11:15:47.535386175,1744362947,534953761,hemisphere,"$GPRMC,091547.50,A,6326.47204209,N,01025.19458050,E,0.14,20.11,110425,4.7,E,D,S*7E"
2025/04/11 11:15:47.559574448,1744362947,559045076,hemisphere,"$GPHDT,311.172,T*32"
2025/04/11 11:15:47.576450230,1744362947,575846262,hemisphere,"$GPGGA,091547.55,6326.47204358,N,01025.19458039,E,4,16,0.7,2.864,M,40.935,M,0.5,0415*48"
2025/04/11 11:15:47.583486525,1744362947,583173651,hemisphere,"$GPRMC,091547.55,A,6326.47204358,N,01025.19458039,E,0.13,352.61,110425,4.7,E,D,S*47"
2025/04/11 11:15:47.617488040,1744362947,608860033,hemisphere,"$GPHDT,311.144,T*37"
2025/04/11 11:15:47.628990182,1744362947,625490099,hemisphere,"$GPGGA,091547.60,6326.47204472,N,01025.19458193,E,4,16,0.7,2.866,M,40.935,M,0.6,0415*41"
2025/04/11 11:15:47.638398973,1744362947,632627082,hemisphere,"$GPRMC,091547.60,A,6326.47204472,N,01025.19458193,E,0.13,15.93,110425,4.7,E,D,S*72"
2025/04/11 11:15:47.667674429,1744362947,659153599,hemisphere,"$GPHDT,311.116,T*30"
2025/04/11 11:15:47.685821074,1744362947,675937260,hemisphere,"$GPGGA,091547.65,6326.47204553,N,01025.19458302,E,4,16,0.7,2.865,M,40.935,M,0.6,0415*4F"
2025/04/11 11:15:47.688070836,1744362947,685885357,hemisphere,"$GPRMC,091547.65,A,6326.47204553,N,01025.19458302,E,0.12,28.20,110425,4.7,E,D,S*78"
2025/04/11 11:15:47.709796097,1744362947,708958306,hemisphere,"$GPHDT,311.087,T*39"
2025/04/11 11:15:47.725941583,1744362947,725614918,hemisphere,"$GPGGA,091547.70,6326.47204752,N,01025.19458394,E,4,16,0.7,2.867,M,40.935,M,0.7,0415*44"
2025/04/11 11:15:47.733058205,1744362947,732661196,hemisphere,"$GPRMC,091547.70,A,6326.47204752,N,01025.19458394,E,0.12,9.84,110425,4.7,E,D,S*4D"
2025/04/11 11:15:47.855160517,1744362947,761129917,hemisphere,"$GPHDT,311.058,T*3B"
2025/04/11 11:15:47.857744714,1744362947,776092770,hemisphere,"$GPGGA,091547.75,6326.47204900,N,01025.19458438,E,4,16,0.7,2.863,M,40.935,M,0.7,0415*4D"
2025/04/11 11:15:47.858768637,1744362947,783168198,hemisphere,"$GPRMC,091547.75,A,6326.47204900,N,01025.19458438,E,0.13,13.27,110425,4.7,E,D,S*73"
2025/04/11 11:15:47.870322296,1744362947,859392478,hemisphere,"$GPHDT,311.003,T*35"
2025/04/11 11:15:47.876525735,1744362947,876207857,hemisphere,"$GPGGA,091547.85,6326.47205257,N,01025.19458689,E,4,16,0.7,2.867,M,40.935,M,0.8,0415*49"
2025/04/11 11:15:47.883458047,1744362947,883168830,hemisphere,"$GPRMC,091547.85,A,6326.47205257,N,01025.19458689,E,0.12,5.98,110425,4.7,E,D,S*4E"
2025/04/11 11:15:47.910157856,1744362947,909122924,hemisphere,"$GPHDT,310.974,T*3D"
2025/04/11 11:15:47.927296975,1744362947,925862061,hemisphere,"$GPGGA,091547.90,6326.47205492,N,01025.19458923,E,4,16,0.7,2.869,M,40.935,M,0.9,0415*42"
2025/04/11 11:15:47.933285550,1744362947,932968048,hemisphere,"$GPRMC,091547.90,A,6326.47205492,N,01025.19458923,E,0.13,21.75,110425,4.7,E,D,S*7E"
2025/04/11 11:15:47.959819151,1744362947,958738740,hemisphere,"$GPHDT,310.946,T*3C"
2025/04/11 11:15:47.975871508,1744362947,975554073,hemisphere,"$GPGGA,091547.95,6326.47205676,N,01025.19459227,E,4,16,0.7,2.868,M,40.935,M,0.9,0415*40"
2025/04/11 11:15:47.983150770,1744362947,982703037,hemisphere,"$GPRMC,091547.95,A,6326.47205676,N,01025.19459227,E,0.13,38.29,110425,4.7,E,D,S*7C"
2025/04/11 11:15:48.12778622,1744362948,10091458,hemisphere,"$GPHDT,310.921,T*3D"
2025/04/11 11:15:48.27491148,1744362948,26028781,hemisphere,"$GPGGA,091548.00,6326.47205762,N,01025.19459388,E,4,16,0.7,2.868,M,40.935,M,1.0,0415*4B"
2025/04/11 11:15:48.33590867,1744362948,33055860,hemisphere,"$GPRMC,091548.00,A,6326.47205762,N,01025.19459388,E,0.13,5.12,110425,4.7,E,D,S*49"
2025/04/11 11:15:48.59335230,1744362948,58892941,hemisphere,"$GPHDT,310.896,T*30"
2025/04/11 11:15:48.77867200,1744362948,76859883,hemisphere,"$GPGGA,091548.05,6326.47206028,N,01025.19459552,E,4,16,0.7,2.867,M,40.935,M,1.0,0415*4A"
2025/04/11 11:15:48.88874215,1744362948,86280653,hemisphere,"$GPRMC,091548.05,A,6326.47206028,N,01025.19459552,E,0.13,37.73,110425,4.7,E,D,S*71"
2025/04/11 11:15:48.112861139,1744362948,109296314,hemisphere,"$GPHDT,310.872,T*3A"
2025/04/11 11:15:48.127291258,1744362948,126809947,hemisphere,"$GPGGA,091548.10,6326.47206190,N,01025.19459775,E,4,16,0.7,2.866,M,40.935,M,1.1,0415*4B"
2025/04/11 11:15:48.137383492,1744362948,134215198,hemisphere,"$GPRMC,091548.10,A,6326.47206190,N,01025.19459775,E,0.14,18.84,110425,4.7,E,D,S*72"
2025/04/11 11:15:48.163615671,1744362948,163108094,hemisphere,"$GPHDT,310.848,T*33"
2025/04/11 11:15:48.176294283,1744362948,175799520,hemisphere,"$GPGGA,091548.15,6326.47206388,N,01025.19460000,E,4,16,0.7,2.865,M,40.935,M,1.1,0415*49"
2025/04/11 11:15:48.185454024,1744362948,182902531,hemisphere,"$GPRMC,091548.15,A,6326.47206388,N,01025.19460000,E,0.13,28.19,110425,4.7,E,D,S*73"
2025/04/11 11:15:48.209269866,1744362948,208790375,hemisphere,"$GPHDT,310.826,T*3B"
2025/04/11 11:15:48.237539169,1744362948,225530447,hemisphere,"$GPGGA,091548.20,6326.47206539,N,01025.19460205,E,4,16,0.7,2.865,M,40.935,M,1.2,0415*47"
2025/04/11 11:15:48.238243236,1744362948,232685050,hemisphere,"$GPRMC,091548.20,A,6326.47206539,N,01025.19460205,E,0.14,12.00,110425,4.7,E,D,S*78"
2025/04/11 11:15:48.260602678,1744362948,259200798,hemisphere,"$GPHDT,310.807,T*38"
2025/04/11 11:15:48.276176166,1744362948,275874801,hemisphere,"$GPGGA,091548.25,6326.47206802,N,01025.19460516,E,4,16,0.7,2.866,M,40.935,M,1.2,0415*41"
2025/04/11 11:15:48.283418040,1744362948,283018360,hemisphere,"$GPRMC,091548.25,A,6326.47206802,N,01025.19460516,E,0.14,47.48,110425,4.7,E,D,S*71"
2025/04/11 11:15:48.408536002,1744362948,314114732,hemisphere,"$GPHDT,310.780,T*38"
2025/04/11 11:15:48.414973878,1744362948,327976280,hemisphere,"$GPGGA,091548.30,6326.47207079,N,01025.19460615,E,4,16,0.7,2.864,M,40.935,M,1.3,0415*43"
2025/04/11 11:15:48.420401714,1744362948,332804170,hemisphere,"$GPRMC,091548.30,A,6326.47207079,N,01025.19460615,E,0.15,359.09,110425,4.7,E,D,S*48"
2025/04/11 11:15:48.422050937,1744362948,359356207,hemisphere,"$GPHDT,310.759,T*3C"
2025/04/11 11:15:48.424886283,1744362948,381100652,hemisphere,"$GPGGA,091548.35,6326.47207286,N,01025.19460800,E,4,16,0.7,2.863,M,40.935,M,1.3,0415*49"
2025/04/11 11:15:48.425966729,1744362948,385972136,hemisphere,"$GPRMC,091548.35,A,6326.47207286,N,01025.19460800,E,0.15,26.76,110425,4.7,E,D,S*76"
2025/04/11 11:15:48.450443729,1744362948,409002366,hemisphere,"$GPHDT,310.732,T*31"
2025/04/11 11:15:48.454340150,1744362948,426532505,hemisphere,"$GPGGA,091548.40,6326.47207543,N,01025.19460924,E,4,16,0.7,2.864,M,40.935,M,0.4,0415*43"
2025/04/11 11:15:48.454901857,1744362948,433593954,hemisphere,"$GPRMC,091548.40,A,6326.47207543,N,01025.19460924,E,0.15,21.53,110425,4.7,E,D,S*7D"
2025/04/11 11:15:48.482543073,1744362948,459331088,hemisphere,"$GPHDT,310.712,T*33"
2025/04/11 11:15:48.484013284,1744362948,475717622,hemisphere,"$GPGGA,091548.45,6326.47207725,N,01025.19461092,E,4,16,0.7,2.862,M,40.935,M,0.4,0415*47"
2025/04/11 11:15:48.493881725,1744362948,483361098,hemisphere,"$GPRMC,091548.45,A,6326.47207725,N,01025.19461092,E,0.15,35.10,110425,4.7,E,D,S*7D"
2025/04/11 11:15:48.516809955,1744362948,509119924,hemisphere,"$GPHDT,310.689,T*30"
2025/04/11 11:15:48.535171081,1744362948,526634551,hemisphere,"$GPGGA,091548.50,6326.47207955,N,01025.19461246,E,4,16,0.7,2.862,M,40.935,M,0.5,0415*40"
2025/04/11 11:15:48.537681168,1744362948,533762781,hemisphere,"$GPRMC,091548.50,A,6326.47207955,N,01025.19461246,E,0.15,14.55,110425,4.7,E,D,S*79"
2025/04/11 11:15:48.566086746,1744362948,561770093,hemisphere,"$GPHDT,310.668,T*3F"
2025/04/11 11:15:48.577213426,1744362948,576313750,hemisphere,"$GPGGA,091548.55,6326.47208239,N,01025.19461406,E,4,16,0.7,2.857,M,40.935,M,0.5,0415*4F"
2025/04/11 11:15:48.584955068,1744362948,583393668,hemisphere,"$GPRMC,091548.55,A,6326.47208239,N,01025.19461406,E,0.16,29.71,110425,4.7,E,D,S*7B"
2025/04/11 11:15:48.614010618,1744362948,609494046,hemisphere,"$GPHDT,310.646,T*33"
2025/04/11 11:15:48.630151088,1744362948,626181495,hemisphere,"$GPGGA,091548.60,6326.47208394,N,01025.19461732,E,4,16,0.7,2.858,M,40.935,M,0.6,0415*47"
2025/04/11 11:15:48.634773633,1744362948,633227126,hemisphere,"$GPRMC,091548.60,A,6326.47208394,N,01025.19461732,E,0.16,19.31,110425,4.7,E,D,S*78"
2025/04/11 11:15:48.663793567,1744362948,659054891,hemisphere,"$GPHDT,310.620,T*33"
2025/04/11 11:15:48.682478533,1744362948,677051426,hemisphere,"$GPGGA,091548.65,6326.47208636,N,01025.19461867,E,4,16,0.7,2.858,M,40.935,M,0.6,0415*40"
2025/04/11 11:15:48.687471864,1744362948,682866865,hemisphere,"$GPRMC,091548.65,A,6326.47208636,N,01025.19461867,E,0.16,20.35,110425,4.7,E,D,S*71"
2025/04/11 11:15:48.710478901,1744362948,709305268,hemisphere,"$GPHDT,310.595,T*3E"
2025/04/11 11:15:48.726434759,1744362948,726098255,hemisphere,"$GPGGA,091548.70,6326.47208869,N,01025.19462010,E,4,16,0.7,2.859,M,40.935,M,0.7,0415*4B"
2025/04/11 11:15:48.733642485,1744362948,733354642,hemisphere,"$GPRMC,091548.70,A,6326.47208869,N,01025.19462010,E,0.16,25.62,110425,4.7,E,D,S*7D"
2025/04/11 11:15:48.759678819,1744362948,758960393,hemisphere,"$GPHDT,310.569,T*3D"
2025/04/11 11:15:48.778494827,1744362948,776015021,hemisphere,"$GPGGA,091548.75,6326.47209136,N,01025.19462429,E,4,16,0.7,2.858,M,40.935,M,0.7,0415*43"
2025/04/11 11:15:48.783245502,1744362948,782929521,hemisphere,"$GPRMC,091548.75,A,6326.47209136,N,01025.19462429,E,0.16,36.48,110425,4.7,E,D,S*7E"
2025/04/11 11:15:48.816055629,1744362948,815704871,hemisphere,"$GPHDT,310.543,T*35"
2025/04/11 11:15:48.826283547,1744362948,825482441,hemisphere,"$GPGGA,091548.80,6326.47209290,N,01025.19462333,E,4,16,0.7,2.855,M,40.935,M,0.8,0415*48"
2025/04/11 11:15:48.834401142,1744362948,833904201,hemisphere,"$GPRMC,091548.80,A,6326.47209290,N,01025.19462333,E,0.17,1.57,110425,4.7,E,D,S*4C"
2025/04/11 11:15:48.865609304,1744362948,862594884,hemisphere,"$GPHDT,310.517,T*34"
2025/04/11 11:15:48.885265125,1744362948,883546453,hemisphere,"$GPGGA,091548.85,6326.47209597,N,01025.19462681,E,4,16,0.7,2.857,M,40.935,M,0.8,0415*43"
2025/04/11 11:15:48.892336447,1744362948,892072179,hemisphere,"$GPRMC,091548.85,A,6326.47209597,N,01025.19462681,E,0.17,25.83,110425,4.7,E,D,S*7A"
2025/04/11 11:15:48.918828286,1744362948,914878064,hemisphere,"$GPHDT,310.487,T*3C"
2025/04/11 11:15:48.928869508,1744362948,928607916,hemisphere,"$GPGGA,091548.90,6326.47209879,N,01025.19462991,E,4,16,0.7,2.860,M,40.935,M,0.9,0415*41"
2025/04/11 11:15:48.936981313,1744362948,936646595,hemisphere,"$GPRMC,091548.90,A,6326.47209879,N,01025.19462991,E,0.17,30.87,110425,4.7,E,D,S*7D"
2025/04/11 11:15:48.965302144,1744362948,963364146,hemisphere,"$GPHDT,310.462,T*37"
2025/04/11 11:15:48.980249130,1744362948,976087255,hemisphere,"$GPGGA,091548.95,6326.47210033,N,01025.19463115,E,4,16,0.7,2.859,M,40.935,M,0.9,0415*45"
2025/04/11 11:15:48.986521656,1744362948,985975662,hemisphere,"$GPRMC,091548.95,A,6326.47210033,N,01025.19463115,E,0.17,29.50,110425,4.7,E,D,S*71"
2025/04/11 11:15:49.17877713,1744362949,8949157,hemisphere,"$GPHDT,310.434,T*34"
2025/04/11 11:15:49.29646867,1744362949,26452406,hemisphere,"$GPGGA,091549.00,6326.47210235,N,01025.19463334,E,4,16,0.7,2.857,M,40.935,M,1.0,0415*4B"
2025/04/11 11:15:49.34074485,1744362949,33574876,hemisphere,"$GPRMC,091549.00,A,6326.47210235,N,01025.19463334,E,0.17,11.01,110425,4.7,E,D,S*76"
2025/04/11 11:15:49.60142675,1744362949,59346763,hemisphere,"$GPHDT,310.407,T*34"
2025/04/11 11:15:49.80214926,1744362949,76111979,hemisphere,"$GPGGA,091549.05,6326.47210564,N,01025.19463558,E,4,16,0.7,2.861,M,40.935,M,1.0,0415*44"
2025/04/11 11:15:49.84131449,1744362949,83321382,hemisphere,"$GPRMC,091549.05,A,6326.47210564,N,01025.19463558,E,0.17,32.36,110425,4.7,E,D,S*79"
2025/04/11 11:15:49.109486688,1744362949,109178594,hemisphere,"$GPHDT,310.379,T*3A"
2025/04/11 11:15:49.128511214,1744362949,128192874,hemisphere,"$GPGGA,091549.10,6326.47210643,N,01025.19463683,E,4,16,0.7,2.861,M,40.935,M,1.1,0415*42"
2025/04/11 11:15:49.134188406,1744362949,133610530,hemisphere,"$GPRMC,091549.10,A,6326.47210643,N,01025.19463683,E,0.16,9.98,110425,4.7,E,D,S*43"
2025/04/11 11:15:49.161557600,1744362949,158783440,hemisphere,"$GPHDT,310.352,T*33"
2025/04/11 11:15:49.176562448,1744362949,176306675,hemisphere,"$GPGGA,091549.15,6326.47210931,N,01025.19463907,E,4,16,0.7,2.861,M,40.935,M,1.1,0415*4E"
2025/04/11 11:15:49.183800351,1744362949,183373645,hemisphere,"$GPRMC,091549.15,A,6326.47210931,N,01025.19463907,E,0.17,19.20,110425,4.7,E,D,S*7C"
2025/04/11 11:15:49.229103455,1744362949,209259076,hemisphere,"$GPHDT,310.326,T*30"
2025/04/11 11:15:49.229240468,1744362949,225957870,hemisphere,"$GPGGA,091549.20,6326.47211105,N,01025.19464092,E,4,16,0.7,2.859,M,40.935,M,1.2,0415*4C"
2025/04/11 11:15:49.234108958,1744362949,233082441,hemisphere,"$GPRMC,091549.20,A,6326.47211105,N,01025.19464092,E,0.16,37.48,110425,4.7,E,D,S*75"
2025/04/11 11:15:49.264934055,1744362949,258895530,hemisphere,"$GPHDT,310.301,T*35"
2025/04/11 11:15:49.277644718,1744362949,275880708,hemisphere,"$GPGGA,091549.25,6326.47211303,N,01025.19464149,E,4,16,0.7,2.862,M,40.935,M,1.2,0415*42"
2025/04/11 11:15:49.285278519,1744362949,282732678,hemisphere,"$GPRMC,091549.25,A,6326.47211303,N,01025.19464149,E,0.16,3.86,110425,4.7,E,D,S*46"
2025/04/11 11:15:49.309847449,1744362949,309309788,hemisphere,"$GPHDT,310.275,T*37"
2025/04/11 11:15:49.327954986,1744362949,326809127,hemisphere,"$GPGGA,091549.30,6326.47211494,N,01025.19464321,E,4,16,0.7,2.863,M,40.935,M,1.3,0415*43"
2025/04/11 11:15:49.334780247,1744362949,333810163,hemisphere,"$GPRMC,091549.30,A,6326.47211494,N,01025.19464321,E,0.16,9.39,110425,4.7,E,D,S*49"
2025/04/11 11:15:49.359356601,1744362949,359078191,hemisphere,"$GPHDT,310.249,T*38"
2025/04/11 11:15:49.395415936,1744362949,378685175,hemisphere,"$GPGGA,091549.35,6326.47211599,N,01025.19464427,E,4,16,0.7,2.859,M,40.935,M,1.3,0415*42"
2025/04/11 11:15:49.396345149,1744362949,386132374,hemisphere,"$GPRMC,091549.35,A,6326.47211599,N,01025.19464427,E,0.16,30.35,110425,4.7,E,D,S*77"
2025/04/11 11:15:49.420623077,1744362949,408739014,hemisphere,"$GPHDT,310.223,T*34"
2025/04/11 11:15:49.427131231,1744362949,426725335,hemisphere,"$GPGGA,091549.40,6326.47211860,N,01025.19464685,E,4,16,0.7,2.867,M,40.935,M,0.4,0415*4A"
2025/04/11 11:15:49.436895442,1744362949,432938899,hemisphere,"$GPRMC,091549.40,A,6326.47211860,N,01025.19464685,E,0.16,26.74,110425,4.7,E,D,S*76"
2025/04/11 11:15:49.461420587,1744362949,459101537,hemisphere,"$GPHDT,310.198,T*37"
2025/04/11 11:15:49.488978590,1744362949,476536112,hemisphere,"$GPGGA,091549.45,6326.47212061,N,01025.19464612,E,4,16,0.7,2.868,M,40.935,M,0.4,0415*44"
2025/04/11 11:15:49.489144902,1744362949,483130088,hemisphere,"$GPRMC,091549.45,A,6326.47212061,N,01025.19464612,E,0.15,353.85,110425,4.7,E,D,S*4B"
2025/04/11 11:15:49.523268131,1744362949,509317472,hemisphere,"$GPHDT,310.172,T*33"
2025/04/11 11:15:49.534186881,1744362949,526577681,hemisphere,"$GPGGA,091549.50,6326.47211913,N,01025.19465007,E,4,16,0.7,2.864,M,40.935,M,0.5,0415*41"
2025/04/11 11:15:49.534439600,1744362949,533746564,hemisphere,"$GPRMC,091549.50,A,6326.47211913,N,01025.19465007,E,0.15,16.28,110425,4.7,E,D,S*76"
2025/04/11 11:15:49.560385088,1744362949,559298505,hemisphere,"$GPHDT,310.147,T*35"
2025/04/11 11:15:49.577791474,1744362949,576737227,hemisphere,"$GPGGA,091549.55,6326.47212196,N,01025.19464936,E,4,16,0.7,2.867,M,40.935,M,0.5,0415*4B"
2025/04/11 11:15:49.585050192,1744362949,583782615,hemisphere,"$GPRMC,091549.55,A,6326.47212196,N,01025.19464936,E,0.15,4.70,110425,4.7,E,D,S*41"
2025/04/11 11:15:49.611630125,1744362949,610578363,hemisphere,"$GPHDT,310.123,T*37"
2025/04/11 11:15:49.644786955,1744362949,625491378,hemisphere,"$GPGGA,091549.60,6326.47212334,N,01025.19465192,E,4,16,0.7,2.870,M,40.935,M,0.6,0415*45"
2025/04/11 11:15:49.644955871,1744362949,633530449,hemisphere,"$GPRMC,091549.60,A,6326.47212334,N,01025.19465192,E,0.15,28.21,110425,4.7,E,D,S*70"
2025/04/11 11:15:49.677169965,1744362949,659377195,hemisphere,"$GPHDT,310.097,T*39"
2025/04/11 11:15:49.677315283,1744362949,674943248,hemisphere,"$GPGGA,091549.65,6326.47212543,N,01025.19465132,E,4,16,0.7,2.866,M,40.935,M,0.6,0415*4B"
2025/04/11 11:15:49.686128464,1744362949,682751395,hemisphere,"$GPRMC,091549.65,A,6326.47212543,N,01025.19465132,E,0.15,8.32,110425,4.7,E,D,S*49"
2025/04/11 11:15:49.709357555,1744362949,709001018,hemisphere,"$GPHDT,310.075,T*35"
2025/04/11 11:15:49.727336688,1744362949,726564519,hemisphere,"$GPGGA,091549.70,6326.47212607,N,01025.19465311,E,4,16,0.7,2.866,M,40.935,M,0.7,0415*4E"
2025/04/11 11:15:49.733215382,1744362949,732931373,hemisphere,"$GPRMC,091549.70,A,6326.47212607,N,01025.19465311,E,0.14,24.13,110425,4.7,E,D,S*71"
2025/04/11 11:15:49.759029122,1744362949,758765931,hemisphere,"$GPHDT,310.046,T*35"
2025/04/11 11:15:49.775969727,1744362949,775551692,hemisphere,"$GPGGA,091549.75,6326.47212857,N,01025.19465290,E,4,16,0.7,2.871,M,40.935,M,0.7,0415*4E"
2025/04/11 11:15:49.786663959,1744362949,785734442,hemisphere,"$GPRMC,091549.75,A,6326.47212857,N,01025.19465290,E,0.14,353.15,110425,4.7,E,D,S*42"
2025/04/11 11:15:49.856306465,1744362949,809280358,hemisphere,"$GPHDT,310.019,T*3F"
2025/04/11 11:15:49.856509043,1744362949,826082768,hemisphere,"$GPGGA,091549.80,6326.47213035,N,01025.19465362,E,4,16,0.7,2.870,M,40.935,M,0.8,0415*4B"
2025/04/11 11:15:49.856603219,1744362949,837684640,hemisphere,"$GPRMC,091549.80,A,6326.47213035,N,01025.19465362,E,0.14,12.87,110425,4.7,E,D,S*74"
2025/04/11 11:15:49.861414698,1744362949,858956957,hemisphere,"$GPHDT,309.991,T*3E"
2025/04/11 11:15:49.895111664,1744362949,876003887,hemisphere,"$GPGGA,091549.85,6326.47213226,N,01025.19465510,E,4,16,0.7,2.870,M,40.935,M,0.8,0415*4D"
2025/04/11 11:15:49.912544877,1744362949,886254631,hemisphere,"$GPRMC,091549.85,A,6326.47213226,N,01025.19465510,E,0.14,24.97,110425,4.7,E,D,S*76"
2025/04/11 11:15:49.913948861,1744362949,909465281,hemisphere,"$GPHDT,309.965,T*35"
2025/04/11 11:15:49.927236439,1744362949,926898847,hemisphere,"$GPGGA,091549.90,6326.47213374,N,01025.19465591,E,4,16,0.7,2.871,M,40.935,M,0.9,0415*46"
2025/04/11 11:15:49.935097518,1744362949,934062745,hemisphere,"$GPRMC,091549.90,A,6326.47213374,N,01025.19465591,E,0.14,8.17,110425,4.7,E,D,S*4B"
2025/04/11 11:15:49.959344514,1744362949,958977056,hemisphere,"$GPHDT,309.939,T*3C"
2025/04/11 11:15:49.978821237,1744362949,978213410,hemisphere,"$GPGGA,091549.95,6326.47213503,N,01025.19465537,E,4,16,0.7,2.866,M,40.935,M,0.9,0415*4F"
2025/04/11 11:15:49.986866932,1744362949,986582420,hemisphere,"$GPRMC,091549.95,A,6326.47213503,N,01025.19465537,E,0.14,17.59,110425,4.7,E,D,S*70"
2025/04/11 11:15:50.10879283,1744362950,10367314,hemisphere,"$GPHDT,309.913,T*34"
2025/04/11 11:15:50.27848752,1744362950,27544653,hemisphere,"$GPGGA,091550.00,6326.47213710,N,01025.19465744,E,4,16,0.7,2.871,M,40.935,M,1.0,0415*43"
2025/04/11 11:15:50.35475801,1744362950,33342952,hemisphere,"$GPRMC,091550.00,A,6326.47213710,N,01025.19465744,E,0.14,8.61,110425,4.7,E,D,S*47"
2025/04/11 11:15:50.60440749,1744362950,60078817,hemisphere,"$GPHDT,309.888,T*37"
2025/04/11 11:15:50.87173616,1744362950,76588407,hemisphere,"$GPGGA,091550.05,6326.47213951,N,01025.19465971,E,4,16,0.7,2.871,M,40.935,M,1.0,0415*45"
2025/04/11 11:15:50.90869411,1744362950,90170709,hemisphere,"$GPRMC,091550.05,A,6326.47213951,N,01025.19465971,E,0.14,22.11,110425,4.7,E,D,S*7E"
2025/04/11 11:15:50.112630792,1744362950,109168490,hemisphere,"$GPHDT,309.863,T*32"
2025/04/11 11:15:50.135214855,1744362950,131865698,hemisphere,"$GPGGA,091550.10,6326.47214062,N,01025.19466040,E,4,16,0.7,2.870,M,40.935,M,1.1,0415*47"
2025/04/11 11:15:50.146220763,1744362950,145175572,hemisphere,"$GPRMC,091550.10,A,6326.47214062,N,01025.19466040,E,0.14,14.40,110425,4.7,E,D,S*7D"
2025/04/11 11:15:50.164019863,1744362950,161541403,hemisphere,"$GPHDT,309.833,T*37"
2025/04/11 11:15:50.184848541,1744362950,183673375,hemisphere,"$GPGGA,091550.15,6326.47214255,N,01025.19466148,E,4,16,0.7,2.872,M,40.935,M,1.1,0415*4F"
2025/04/11 11:15:50.194715509,1744362950,192663439,hemisphere,"$GPRMC,091550.15,A,6326.47214255,N,01025.19466148,E,0.14,18.42,110425,4.7,E,D,S*79"
2025/04/11 11:15:50.209304313,1744362950,208941856,hemisphere,"$GPHDT,309.804,T*33"
2025/04/11 11:15:50.244921482,1744362950,227771027,hemisphere,"$GPGGA,091550.20,6326.47214471,N,01025.19466355,E,4,16,0.7,2.869,M,40.935,M,1.2,0415*4E"
2025/04/11 11:15:50.245098767,1744362950,234788545,hemisphere,"$GPRMC,091550.20,A,6326.47214471,N,01025.19466355,E,0.14,22.41,110425,4.7,E,D,S*7B"
2025/04/11 11:15:50.259723296,1744362950,259367617,hemisphere,"$GPHDT,309.776,T*39"
2025/04/11 11:15:50.279945254,1744362950,277778968,hemisphere,"$GPGGA,091550.25,6326.47214599,N,01025.19466487,E,4,16,0.7,2.873,M,40.935,M,1.2,0415*4F"
2025/04/11 11:15:50.290905865,1744362950,290288650,hemisphere,"$GPRMC,091550.25,A,6326.47214599,N,01025.19466487,E,0.14,19.67,110425,4.7,E,D,S*7D"
2025/04/11 11:15:50.311243291,1744362950,309317752,hemisphere,"$GPHDT,309.749,T*35"
2025/04/11 11:15:50.330651078,1744362950,325813578,hemisphere,"$GPGGA,091550.30,6326.47214801,N,01025.19466618,E,4,16,0.7,2.869,M,40.935,M,1.3,0415*49"
2025/04/11 11:15:50.349636976,1744362950,332868971,hemisphere,"$GPRMC,091550.30,A,6326.47214801,N,01025.19466618,E,0.14,8.29,110425,4.7,E,D,S*4B"
2025/04/11 11:15:50.363809747,1744362950,358720998,hemisphere,"$GPHDT,309.721,T*3B"
2025/04/11 11:15:50.378753256,1744362950,378481356,hemisphere,"$GPGGA,091550.35,6326.47214998,N,01025.19466919,E,4,16,0.7,2.875,M,40.935,M,1.3,0415*4E"
2025/04/11 11:15:50.389808497,1744362950,386158186,hemisphere,"$GPRMC,091550.35,A,6326.47214998,N,01025.19466919,E,0.14,37.44,110425,4.7,E,D,S*76"
2025/04/11 11:15:50.409467067,1744362950,409200983,hemisphere,"$GPHDT,309.692,T*32"
2025/04/11 11:15:50.426923132,1744362950,426620814,hemisphere,"$GPGGA,091550.40,6326.47215240,N,01025.19466987,E,4,16,0.7,2.870,M,40.935,M,0.4,0415*47"
2025/04/11 11:15:50.434913366,1744362950,433913644,hemisphere,"$GPRMC,091550.40,A,6326.47215240,N,01025.19466987,E,0.14,5.23,110425,4.7,E,D,S*4C"
2025/04/11 11:15:50.459103825,1744362950,458821610,hemisphere,"$GPHDT,309.665,T*3A"
2025/04/11 11:15:50.476186359,1744362950,475930231,hemisphere,"$GPGGA,091550.45,6326.47215326,N,01025.19467297,E,4,16,0.7,2.868,M,40.935,M,0.4,0415*41"
2025/04/11 11:15:50.483482692,1744362950,482788365,hemisphere,"$GPRMC,091550.45,A,6326.47215326,N,01025.19467297,E,0.14,49.30,110425,4.7,E,D,S*79"
2025/04/11 11:15:50.554086091,1744362950,509429976,hemisphere,"$GPHDT,309.637,T*3D"
2025/04/11 11:15:50.554471742,1744362950,527063276,hemisphere,"$GPGGA,091550.50,6326.47215608,N,01025.19467415,E,4,16,0.7,2.869,M,40.935,M,0.5,0415*40"
2025/04/11 11:15:50.554552438,1744362950,533892569,hemisphere,"$GPRMC,091550.50,A,6326.47215608,N,01025.19467415,E,0.15,16.43,110425,4.7,E,D,S*77"
2025/04/11 11:15:50.564274605,1744362950,558926650,hemisphere,"$GPHDT,309.609,T*30"
2025/04/11 11:15:50.607122073,1744362950,576061487,hemisphere,"$GPGGA,091550.55,6326.47215830,N,01025.19467748,E,4,16,0.7,2.869,M,40.935,M,0.5,0415*4B"
2025/04/11 11:15:50.608972378,1744362950,582912427,hemisphere,"$GPRMC,091550.55,A,6326.47215830,N,01025.19467748,E,0.15,24.91,110425,4.7,E,D,S*72"
2025/04/11 11:15:50.610220509,1744362950,608877134,hemisphere,"$GPHDT,309.579,T*34"
2025/04/11 11:15:50.628932958,1744362950,625459737,hemisphere,"$GPGGA,091550.60,6326.47216053,N,01025.19467958,E,4,16,0.7,2.872,M,40.935,M,0.6,0415*45"
2025/04/11 11:15:50.633235853,1744362950,632646087,hemisphere,"$GPRMC,091550.60,A,6326.47216053,N,01025.19467958,E,0.15,23.36,110425,4.7,E,D,S*7F"
2025/04/11 11:15:50.662750678,1744362950,659056545,hemisphere,"$GPHDT,309.550,T*3F"
2025/04/11 11:15:50.676773896,1744362950,676540036,hemisphere,"$GPGGA,091550.65,6326.47216155,N,01025.19468142,E,4,16,0.7,2.869,M,40.935,M,0.6,0415*41"
2025/04/11 11:15:50.684546910,1744362950,683101673,hemisphere,"$GPRMC,091550.65,A,6326.47216155,N,01025.19468142,E,0.15,22.18,110425,4.7,E,D,S*7C"
2025/04/11 11:15:50.709947961,1744362950,709483507,hemisphere,"$GPHDT,309.524,T*3C"
2025/04/11 11:15:50.777045147,1744362950,725548643,hemisphere,"$GPGGA,091550.70,6326.47216413,N,01025.19468453,E,4,16,0.7,2.865,M,40.935,M,0.7,0415*4A"
2025/04/11 11:15:50.777213211,1744362950,732703140,hemisphere,"$GPRMC,091550.70,A,6326.47216413,N,01025.19468453,E,0.15,37.79,110425,4.7,E,D,S*79"
2025/04/11 11:15:50.777278590,1744362950,759188203,hemisphere,"$GPHDT,309.494,T*36"
2025/04/11 11:15:50.777336989,1744362950,776043533,hemisphere,"$GPGGA,091550.75,6326.47216612,N,01025.19468503,E,4,16,0.7,2.868,M,40.935,M,0.7,0415*45"
2025/04/11 11:15:50.783421852,1744362950,783003104,hemisphere,"$GPRMC,091550.75,A,6326.47216612,N,01025.19468503,E,0.16,7.81,110425,4.7,E,D,S*4C"
2025/04/11 11:15:50.818546736,1744362950,808874871,hemisphere,"$GPHDT,309.465,T*38"
2025/04/11 11:15:50.825935890,1744362950,825683220,hemisphere,"$GPGGA,091550.80,6326.47216891,N,01025.19468845,E,4,16,0.7,2.869,M,40.935,M,0.8,0415*4B"
2025/04/11 11:15:50.837610181,1744362950,832815354,hemisphere,"$GPRMC,091550.80,A,6326.47216891,N,01025.19468845,E,0.16,21.51,110425,4.7,E,D,S*75"
2025/04/11 11:15:50.880208043,1744362950,859285410,hemisphere,"$GPHDT,309.435,T*3D"
2025/04/11 11:15:50.883654370,1744362950,876140788,hemisphere,"$GPGGA,091550.85,6326.47217046,N,01025.19468946,E,4,16,0.7,2.867,M,40.935,M,0.8,0415*41"
2025/04/11 11:15:50.885480363,1744362950,883370988,hemisphere,"$GPRMC,091550.85,A,6326.47217046,N,01025.19468946,E,0.16,38.26,110425,4.7,E,D,S*79"
2025/04/11 11:15:50.911418423,1744362950,910164496,hemisphere,"$GPHDT,309.404,T*3F"
2025/04/11 11:15:50.929312738,1744362950,928820938,hemisphere,"$GPGGA,091550.90,6326.47217333,N,01025.19469204,E,4,16,0.7,2.865,M,40.935,M,0.9,0415*4B"
2025/04/11 11:15:50.936793415,1744362950,936160653,hemisphere,"$GPRMC,091550.90,A,6326.47217333,N,01025.19469204,E,0.17,15.83,110425,4.7,E,D,S*71"
2025/04/11 11:15:50.959087498,1744362950,958690820,hemisphere,"$GPHDT,309.376,T*3D"
2025/04/11 11:15:50.979242299,1744362950,978375850,hemisphere,"$GPGGA,091550.95,6326.47217470,N,01025.19469435,E,4,16,0.7,2.868,M,40.935,M,0.9,0415*47"
2025/04/11 11:15:50.984172190,1744362950,983681431,hemisphere,"$GPRMC,091550.95,A,6326.47217470,N,01025.19469435,E,0.16,32.03,110425,4.7,E,D,S*7C"
2025/04/11 11:15:51.9407096,1744362951,9120628,hemisphere,"$GPHDT,309.346,T*3E"
2025/04/11 11:15:51.66088428,1744362951,26913305,hemisphere,"$GPGGA,091551.00,6326.47217700,N,01025.19469673,E,4,16,0.7,2.865,M,40.935,M,1.0,0415*4B"
2025/04/11 11:15:51.70514760,1744362951,39053864,hemisphere,"$GPRMC,091551.00,A,6326.47217700,N,01025.19469673,E,0.17,29.83,110425,4.7,E,D,S*76"
2025/04/11 11:15:51.70861624,1744362951,63021941,hemisphere,"$GPHDT,309.314,T*39"
2025/04/11 11:15:51.77730746,1744362951,75788352,hemisphere,"$GPGGA,091551.05,6326.47217976,N,01025.19469682,E,4,16,0.7,2.864,M,40.935,M,1.0,0415*4E"
2025/04/11 11:15:51.121938688,1744362951,87503269,hemisphere,"$GPRMC,091551.05,A,6326.47217976,N,01025.19469682,E,0.16,4.91,110425,4.7,E,D,S*4F"
2025/04/11 11:15:51.122897236,1744362951,109275082,hemisphere,"$GPHDT,309.287,T*32"
2025/04/11 11:15:51.128415522,1744362951,126758775,hemisphere,"$GPGGA,091551.10,6326.47218226,N,01025.19470147,E,4,16,0.7,2.866,M,40.935,M,1.1,0415*4E"
2025/04/11 11:15:51.152520965,1744362951,133846712,hemisphere,"$GPRMC,091551.10,A,6326.47218226,N,01025.19470147,E,0.17,27.84,110425,4.7,E,D,S*78"
2025/04/11 11:15:51.164340369,1744362951,158958867,hemisphere,"$GPHDT,309.253,T*3B"
2025/04/11 11:15:51.184946451,1744362951,180058089,hemisphere,"$GPGGA,091551.15,6326.47218452,N,01025.19469968,E,4,16,0.7,2.866,M,40.935,M,1.1,0415*43"
2025/04/11 11:15:51.189499381,1744362951,182841435,hemisphere,"$GPRMC,091551.15,A,6326.47218452,N,01025.19469968,E,0.16,9.71,110425,4.7,E,D,S*42"
2025/04/11 11:15:51.211703927,1744362951,211342660,hemisphere,"$GPHDT,309.226,T*39"
2025/04/11 11:15:51.233670478,1744362951,228138303,hemisphere,"$GPGGA,091551.20,6326.47218656,N,01025.19470190,E,4,16,0.7,2.863,M,40.935,M,1.2,0415*42"
2025/04/11 11:15:51.235275514,1744362951,234026060,hemisphere,"$GPRMC,091551.20,A,6326.47218656,N,01025.19470190,E,0.17,10.19,110425,4.7,E,D,S*72"
2025/04/11 11:15:51.262376923,1744362951,260249294,hemisphere,"$GPHDT,309.202,T*3F"
2025/04/11 11:15:51.294566440,1744362951,287917274,hemisphere,"$GPGGA,091551.25,6326.47218908,N,01025.19470468,E,4,16,0.7,2.867,M,40.935,M,1.2,0415*45"
2025/04/11 11:15:51.294690032,1744362951,289726022,hemisphere,"$GPRMC,091551.25,A,6326.47218908,N,01025.19470468,E,0.16,39.61,110425,4.7,E,D,S*74"
2025/04/11 11:15:51.350173256,1744362951,325628323,hemisphere,"$GPHDT,309.175,T*3C"
2025/04/11 11:15:51.350352204,1744362951,328615741,hemisphere,"$GPGGA,091551.30,6326.47219032,N,01025.19470484,E,4,16,0.7,2.864,M,40.935,M,1.3,0415*40"
2025/04/11 11:15:51.350406708,1744362951,332550280,hemisphere,"$GPRMC,091551.30,A,6326.47219032,N,01025.19470484,E,0.17,3.22,110425,4.7,E,D,S*4C"
2025/04/11 11:15:51.361466502,1744362951,360551463,hemisphere,"$GPHDT,309.150,T*3B"
2025/04/11 11:15:51.395416085,1744362951,379771843,hemisphere,"$GPGGA,091551.35,6326.47219204,N,01025.19470664,E,4,16,0.7,2.866,M,40.935,M,1.3,0415*4C"
2025/04/11 11:15:51.396784709,1744362951,386844763,hemisphere,"$GPRMC,091551.35,A,6326.47219204,N,01025.19470664,E,0.16,37.51,110425,4.7,E,D,S*70"
2025/04/11 11:15:51.411004522,1744362951,409412972,hemisphere,"$GPHDT,309.124,T*38"
2025/04/11 11:15:51.427541293,1744362951,426868241,hemisphere,"$GPGGA,091551.40,6326.47219457,N,01025.19470722,E,4,16,0.7,2.864,M,40.935,M,0.4,0415*49"
2025/04/11 11:15:51.433489052,1744362951,433003444,hemisphere,"$GPRMC,091551.40,A,6326.47219457,N,01025.19470722,E,0.16,359.89,110425,4.7,E,D,S*4F"
2025/04/11 11:15:51.460380209,1744362951,459325699,hemisphere,"$GPHDT,309.096,T*30"
2025/04/11 11:15:51.478182175,1744362951,476161715,hemisphere,"$GPGGA,091551.45,6326.47219579,N,01025.19470806,E,4,16,0.7,2.863,M,40.935,M,0.4,0415*4F"
2025/04/11 11:15:51.483922358,1744362951,483469531,hemisphere,"$GPRMC,091551.45,A,6326.47219579,N,01025.19470806,E,0.16,20.14,110425,4.7,E,D,S*77"
2025/04/11 11:15:51.511186895,1744362951,509289180,hemisphere,"$GPHDT,309.073,T*3B"
2025/04/11 11:15:51.537480841,1744362951,525779564,hemisphere,"$GPGGA,091551.50,6326.47219726,N,01025.19471401,E,4,16,0.7,2.863,M,40.935,M,0.5,0415*48"
2025/04/11 11:15:51.577190217,1744362951,538141993,hemisphere,"$GPRMC,091551.50,A,6326.47219726,N,01025.19471401,E,0.16,21.52,110425,4.7,E,D,S*72"
2025/04/11 11:15:51.597968273,1744362951,558698623,hemisphere,"$GPHDT,309.043,T*38"
2025/04/11 11:15:51.599670312,1744362951,575087160,hemisphere,"$GPGGA,091551.55,6326.47219959,N,01025.19471289,E,4,16,0.7,2.857,M,40.935,M,0.5,0415*4A"
2025/04/11 11:15:51.603468915,1744362951,586827403,hemisphere,"$GPRMC,091551.55,A,6326.47219959,N,01025.19471289,E,0.16,352.21,110425,4.7,E,D,S*44"
2025/04/11 11:15:51.609649458,1744362951,609132138,hemisphere,"$GPHDT,309.024,T*39"
2025/04/11 11:15:51.636763078,1744362951,626636826,hemisphere,"$GPGGA,091551.60,6326.47220038,N,01025.19471634,E,4,16,0.7,2.864,M,40.935,M,0.6,0415*49"
2025/04/11 11:15:51.637495198,1744362951,634977005,hemisphere,"$GPRMC,091551.60,A,6326.47220038,N,01025.19471634,E,0.15,63.72,110425,4.7,E,D,S*70"
2025/04/11 11:15:51.729328060,1744362951,658761294,hemisphere,"$GPHDT,308.992,T*3C"
2025/04/11 11:15:51.733556232,1744362951,675422360,hemisphere,"$GPGGA,091551.65,6326.47220227,N,01025.19471435,E,4,16,0.7,2.860,M,40.935,M,0.6,0415*47"
2025/04/11 11:15:51.733801922,1744362951,683699201,hemisphere,"$GPRMC,091551.65,A,6326.47220227,N,01025.19471435,E,0.15,348.35,110425,4.7,E,D,S*43"
2025/04/11 11:15:51.772345985,1744362951,709237061,hemisphere,"$GPHDT,308.970,T*30"
2025/04/11 11:15:51.793436435,1744362951,725517682,hemisphere,"$GPGGA,091551.70,6326.47220416,N,01025.19471790,E,4,16,0.7,2.860,M,40.935,M,0.7,0415*4A"
2025/04/11 11:15:51.793634614,1744362951,733488683,hemisphere,"$GPRMC,091551.70,A,6326.47220416,N,01025.19471790,E,0.15,30.87,110425,4.7,E,D,S*7A"
2025/04/11 11:15:51.805441324,1744362951,758940843,hemisphere,"$GPHDT,308.946,T*35"
2025/04/11 11:15:51.807621267,1744362951,775049767,hemisphere,"$GPGGA,091551.75,6326.47220565,N,01025.19471774,E,4,16,0.7,2.859,M,40.935,M,0.7,0415*4A"
2025/04/11 11:15:51.810608649,1744362951,782253699,hemisphere,"$GPRMC,091551.75,A,6326.47220565,N,01025.19471774,E,0.15,12.65,110425,4.7,E,D,S*7C"
2025/04/11 11:15:51.829228054,1744362951,809390254,hemisphere,"$GPHDT,308.921,T*34"
2025/04/11 11:15:51.835803406,1744362951,826178189,hemisphere,"$GPGGA,091551.80,6326.47220742,N,01025.19471861,E,4,16,0.7,2.858,M,40.935,M,0.8,0415*42"
2025/04/11 11:15:51.837928734,1744362951,833288645,hemisphere,"$GPRMC,091551.80,A,6326.47220742,N,01025.19471861,E,0.15,6.40,110425,4.7,E,D,S*48"
2025/04/11 11:15:51.860588815,1744362951,859149968,hemisphere,"$GPHDT,308.897,T*38"
2025/04/11 11:15:51.907862352,1744362951,875920281,hemisphere,"$GPGGA,091551.85,6326.47221030,N,01025.19471991,E,4,16,0.7,2.862,M,40.935,M,0.8,0415*43"
2025/04/11 11:15:51.908652077,1744362951,895288042,hemisphere,"$GPRMC,091551.85,A,6326.47221030,N,01025.19471991,E,0.15,16.54,110425,4.7,E,D,S*74"
2025/04/11 11:15:51.910231837,1744362951,909610983,hemisphere,"$GPHDT,308.874,T*35"
2025/04/11 11:15:51.926637843,1744362951,925646572,hemisphere,"$GPGGA,091551.90,6326.47221166,N,01025.19472125,E,4,16,0.7,2.858,M,40.935,M,0.9,0415*49"
2025/04/11 11:15:51.933460151,1744362951,932763016,hemisphere,"$GPRMC,091551.90,A,6326.47221166,N,01025.19472125,E,0.15,25.98,110425,4.7,E,D,S*76"
2025/04/11 11:15:51.961356374,1744362951,959861935,hemisphere,"$GPHDT,308.843,T*31"
2025/04/11 11:15:51.978856787,1744362951,976106020,hemisphere,"$GPGGA,091551.95,6326.47221357,N,01025.19472153,E,4,16,0.7,2.861,M,40.935,M,0.9,0415*47"
2025/04/11 11:15:51.987186383,1744362951,984197446,hemisphere,"$GPRMC,091551.95,A,6326.47221357,N,01025.19472153,E,0.15,355.75,110425,4.7,E,D,S*45"
2025/04/11 11:15:52.63699837,1744362952,8887473,hemisphere,"$GPHDT,308.820,T*34"
2025/04/11 11:15:52.63922908,1744362952,26393738,hemisphere,"$GPGGA,091552.00,6326.47221593,N,01025.19472508,E,4,16,0.7,2.858,M,40.935,M,1.0,0415*4E"
2025/04/11 11:15:52.64500051,1744362952,33531019,hemisphere,"$GPRMC,091552.00,A,6326.47221593,N,01025.19472508,E,0.15,31.81,110425,4.7,E,D,S*74"
2025/04/11 11:15:52.64588881,1744362952,59253842,hemisphere,"$GPHDT,308.795,T*35"
2025/04/11 11:15:52.121840755,1744362952,76042148,hemisphere,"$GPGGA,091552.05,6326.47221680,N,01025.19472536,E,4,16,0.7,2.861,M,40.935,M,1.0,0415*4D"
2025/04/11 11:15:52.122011953,1744362952,83188715,hemisphere,"$GPRMC,091552.05,A,6326.47221680,N,01025.19472536,E,0.14,13.81,110425,4.7,E,D,S*7C"
2025/04/11 11:15:52.122069592,1744362952,108967891,hemisphere,"$GPHDT,308.770,T*3E"
2025/04/11 11:15:52.126889610,1744362952,126477533,hemisphere,"$GPGGA,091552.10,6326.47221922,N,01025.19472664,E,4,16,0.7,2.861,M,40.935,M,1.1,0415*4B"
2025/04/11 11:15:52.134754076,1744362952,133892357,hemisphere,"$GPRMC,091552.10,A,6326.47221922,N,01025.19472664,E,0.15,15.93,110425,4.7,E,D,S*7F"
2025/04/11 11:15:52.159156159,1744362952,158683693,hemisphere,"$GPHDT,308.742,T*3F"
2025/04/11 11:15:52.177244245,1744362952,176170214,hemisphere,"$GPGGA,091552.15,6326.47222122,N,01025.19472819,E,4,16,0.7,2.859,M,40.935,M,1.1,0415*4A"
2025/04/11 11:15:52.186205210,1744362952,183312966,hemisphere,"$GPRMC,091552.15,A,6326.47222122,N,01025.19472819,E,0.15,18.75,110425,4.7,E,D,S*70"
2025/04/11 11:15:52.210114436,1744362952,209112375,hemisphere,"$GPHDT,308.718,T*30"
2025/04/11 11:15:52.231123563,1744362952,227199150,hemisphere,"$GPGGA,091552.20,6326.47222263,N,01025.19473157,E,4,16,0.7,2.858,M,40.935,M,1.2,0415*4A"
2025/04/11 11:15:52.234341672,1744362952,233291536,hemisphere,"$GPRMC,091552.20,A,6326.47222263,N,01025.19473157,E,0.15,41.82,110425,4.7,E,D,S*76"
2025/04/11 11:15:52.260279918,1744362952,259624556,hemisphere,"$GPHDT,308.694,T*35"
2025/04/11 11:15:52.277431653,1744362952,275589755,hemisphere,"$GPGGA,091552.25,6326.47222522,N,01025.19473209,E,4,16,0.7,2.861,M,40.935,M,1.2,0415*4F"
2025/04/11 11:15:52.287944075,1744362952,283021903,hemisphere,"$GPRMC,091552.25,A,6326.47222522,N,01025.19473209,E,0.15,10.70,110425,4.7,E,D,S*70"
2025/04/11 11:15:52.309421157,1744362952,309163098,hemisphere,"$GPHDT,308.670,T*3F"
2025/04/11 11:15:52.326265799,1744362952,325977677,hemisphere,"$GPGGA,091552.30,6326.47222677,N,01025.19473481,E,4,16,0.7,2.859,M,40.935,M,1.3,0415*44"
2025/04/11 11:15:52.334358105,1744362952,333186669,hemisphere,"$GPRMC,091552.30,A,6326.47222677,N,01025.19473481,E,0.15,35.22,110425,4.7,E,D,S*71"
2025/04/11 11:15:52.382325135,1744362952,359617383,hemisphere,"$GPHDT,308.646,T*3A"
2025/04/11 11:15:52.388153077,1744362952,378617120,hemisphere,"$GPGGA,091552.35,6326.47222868,N,01025.19473704,E,4,16,0.7,2.859,M,40.935,M,1.3,0415*4F"
2025/04/11 11:15:52.396607675,1744362952,390903074,hemisphere,"$GPRMC,091552.35,A,6326.47222868,N,01025.19473704,E,0.15,23.42,110425,4.7,E,D,S*7B"
2025/04/11 11:15:52.456202939,1744362952,409879732,hemisphere,"$GPHDT,308.620,T*3A"
2025/04/11 11:15:52.457822818,1744362952,426866369,hemisphere,"$GPGGA,091552.40,6326.47223213,N,01025.19473558,E,4,16,0.7,2.866,M,40.935,M,0.4,0415*4B"
2025/04/11 11:15:52.474426137,1744362952,433979861,hemisphere,"$GPRMC,091552.40,A,6326.47223213,N,01025.19473558,E,0.16,17.52,110425,4.7,E,D,S*70"
2025/04/11 11:15:52.485019248,1744362952,459259691,hemisphere,"$GPHDT,308.595,T*37"
2025/04/11 11:15:52.520621135,1744362952,476877053,hemisphere,"$GPGGA,091552.45,6326.47223453,N,01025.19473829,E,4,16,0.7,2.866,M,40.935,M,0.4,0415*47"
2025/04/11 11:15:52.529257849,1744362952,486093622,hemisphere,"$GPRMC,091552.45,A,6326.47223453,N,01025.19473829,E,0.16,27.88,110425,4.7,E,D,S*78"
2025/04/11 11:15:52.543428992,1744362952,508872510,hemisphere,"$GPHDT,308.570,T*3C"
2025/04/11 11:15:52.566531887,1744362952,537521175,hemisphere,"$GPGGA,091552.50,6326.47223550,N,01025.19474018,E,4,16,0.7,2.865,M,40.935,M,0.5,0415*4E"
2025/04/11 11:15:52.571339073,1744362952,542575322,hemisphere,"$GPRMC,091552.50,A,6326.47223550,N,01025.19474018,E,0.15,36.45,110425,4.7,E,D,S*71"
2025/04/11 11:15:52.572730518,1744362952,562457665,hemisphere,"$GPHDT,308.544,T*3B"
2025/04/11 11:15:52.583822257,1744362952,582956003,hemisphere,"$GPGGA,091552.55,6326.47223863,N,01025.19474200,E,4,16,0.7,2.866,M,40.935,M,0.5,0415*4E"
2025/04/11 11:15:52.602336329,1744362952,587826941,hemisphere,"$GPRMC,091552.55,A,6326.47223863,N,01025.19474200,E,0.16,12.84,110425,4.7,E,D,S*7A"
2025/04/11 11:15:52.617974415,1744362952,609299649,hemisphere,"$GPHDT,308.518,T*32"
2025/04/11 11:15:52.637509096,1744362952,626580020,hemisphere,"$GPGGA,091552.60,6326.47224091,N,01025.19474306,E,4,16,0.7,2.863,M,40.935,M,0.6,0415*4B"
2025/04/11 11:15:52.638066420,1744362952,634005883,hemisphere,"$GPRMC,091552.60,A,6326.47224091,N,01025.19474306,E,0.16,14.78,110425,4.7,E,D,S*7C"
2025/04/11 11:15:52.683449158,1744362952,660704222,hemisphere,"$GPHDT,308.490,T*33"
2025/04/11 11:15:52.707129903,1744362952,679028994,hemisphere,"$GPGGA,091552.65,6326.47224259,N,01025.19474593,E,4,16,0.7,2.865,M,40.935,M,0.6,0415*44"
2025/04/11 11:15:52.715606175,1744362952,692053331,hemisphere,"$GPRMC,091552.65,A,6326.47224259,N,01025.19474593,E,0.16,21.77,110425,4.7,E,D,S*7C"
2025/04/11 11:15:52.868410894,1744362952,714303436,hemisphere,"$GPHDT,308.464,T*38"
2025/04/11 11:15:52.872125600,1744362952,725826867,hemisphere,"$GPGGA,091552.70,6326.47224440,N,01025.19474820,E,4,16,0.7,2.865,M,40.935,M,0.7,0415*4A"
2025/04/11 11:15:52.911016509,1744362952,733028269,hemisphere,"$GPRMC,091552.70,A,6326.47224440,N,01025.19474820,E,0.16,40.19,110425,4.7,E,D,S*7C"
2025/04/11 11:15:52.919636949,1744362952,758939389,hemisphere,"$GPHDT,308.437,T*3E"
2025/04/11 11:15:52.976961759,1744362952,778178350,hemisphere,"$GPGGA,091552.75,6326.47224606,N,01025.19474977,E,4,16,0.7,2.865,M,40.935,M,0.7,0415*4C"
2025/04/11 11:15:52.977129003,1744362952,782553575,hemisphere,"$GPRMC,091552.75,A,6326.47224606,N,01025.19474977,E,0.16,7.61,110425,4.7,E,D,S*46"
2025/04/11 11:15:52.990105261,1744362952,812901730,hemisphere,"$GPHDT,308.412,T*39"
2025/04/11 11:15:53.60934563,1744362952,826304013,hemisphere,"$GPGGA,091552.80,6326.47224872,N,01025.19475233,E,4,16,0.7,2.865,M,40.935,M,0.8,0415*4E"
2025/04/11 11:15:53.64620982,1744362952,836243419,hemisphere,"$GPRMC,091552.80,A,6326.47224872,N,01025.19475233,E,0.16,29.73,110425,4.7,E,D,S*74"
2025/04/11 11:15:53.110721672,1744362952,861717573,hemisphere,"$GPHDT,308.383,T*36"
2025/04/11 11:15:53.149839340,1744362952,875599297,hemisphere,"$GPGGA,091552.85,6326.47225011,N,01025.19475248,E,4,16,0.7,2.864,M,40.935,M,0.8,0415*4A"
2025/04/11 11:15:53.151516160,1744362952,882758150,hemisphere,"$GPRMC,091552.85,A,6326.47225011,N,01025.19475248,E,0.16,15.69,110425,4.7,E,D,S*75"
2025/04/11 11:15:53.198657695,1744362952,910181360,hemisphere,"$GPHDT,308.357,T*3F"
2025/04/11 11:15:53.200447476,1744362952,926240175,hemisphere,"$GPGGA,091552.90,6326.47225085,N,01025.19475370,E,4,16,0.7,2.864,M,40.935,M,0.9,0415*48"
2025/04/11 11:15:53.200800820,1744362952,933025588,hemisphere,"$GPRMC,091552.90,A,6326.47225085,N,01025.19475370,E,0.15,1.47,110425,4.7,E,D,S*4C"
2025/04/11 11:15:53.215300981,1744362952,959302116,hemisphere,"$GPHDT,308.328,T*37"
2025/04/11 11:15:53.219523561,1744362952,977567807,hemisphere,"$GPGGA,091552.95,6326.47225442,N,01025.19475575,E,4,16,0.7,2.863,M,40.935,M,0.9,0415*46"
2025/04/11 11:15:53.256495194,1744362952,982877942,hemisphere,"$GPRMC,091552.95,A,6326.47225442,N,01025.19475575,E,0.16,21.64,110425,4.7,E,D,S*75"
2025/04/11 11:15:53.289748851,1744362953,9668173,hemisphere,"$GPHDT,308.300,T*3D"
2025/04/11 11:15:53.299846280,1744362953,26891442,hemisphere,"$GPGGA,091553.00,6326.47225525,N,01025.19475615,E,4,16,0.7,2.866,M,40.935,M,1.0,0415*43"
2025/04/11 11:15:53.307477215,1744362953,33851510,hemisphere,"$GPRMC,091553.00,A,6326.47225525,N,01025.19475615,E,0.15,8.41,110425,4.7,E,D,S*42"
2025/04/11 11:15:53.388198397,1744362953,59412843,hemisphere,"$GPHDT,308.268,T*32"
2025/04/11 11:15:53.416220332,1744362953,76362090,hemisphere,"$GPGGA,091553.05,6326.47225751,N,01025.19475852,E,4,16,0.7,2.865,M,40.935,M,1.0,0415*49"
2025/04/11 11:15:53.416523007,1744362953,86182683,hemisphere,"$GPRMC,091553.05,A,6326.47225751,N,01025.19475852,E,0.15,19.60,110425,4.7,E,D,S*78"
