time,header_stamp_secs,header_stamp_nsecs,header_frame_id,quaternion_x,quaternion_y,quaternion_z,quaternion_w
2025/04/11 11:15:45.361743291,1744362945,359568213,hemisphere,-0.0,0.0,0.4030821419783103,-0.9151638032714019
2025/04/11 11:15:45.409846960,1744362945,409252585,hemisphere,-0.0,0.0,0.4033137320806284,-0.9150617648635502
2025/04/11 11:15:45.459752029,1744362945,459115271,hemisphere,-0.0,0.0,0.40352932723220075,-0.9149667109045703
2025/04/11 11:15:45.509815522,1744362945,509344845,hemisphere,-0.0,0.0,0.4037528837267334,-0.9148680827760617
2025/04/11 11:15:45.559442366,1744362945,559063924,hemisphere,-0.0,0.0,0.40397641611519525,-0.9147694000253411
2025/04/11 11:15:45.609678814,1744362945,609380400,hemisphere,-0.0,0.0,0.4041919423615312,-0.9146741899332311
2025/04/11 11:15:45.659732749,1744362945,659187535,hemisphere,-0.0,0.0,0.4044234085205214,-0.9145718706808358
2025/04/11 11:15:45.710057849,1744362945,709575726,hemisphere,-0.0,0.0,0.4046468685106983,-0.9144730240988443
2025/04/11 11:15:45.759714181,1744362945,759260117,hemisphere,-0.0,0.0,0.4049261595226338,-0.9143493890927311
2025/04/11 11:15:45.810008992,1744362945,808918424,hemisphere,-0.0,0.0,0.4051415867798629,-0.9142539552342636
2025/04/11 11:15:45.861361262,1744362945,860606055,hemisphere,-0.0,0.0,0.4054048562149547,-0.9141372449240497
2025/04/11 11:15:45.912356599,1744362945,909796445,hemisphere,-0.0,0.0,0.4056282099767266,-0.9140381585421238
2025/04/11 11:15:45.964533136,1744362945,962888877,hemisphere,-0.0,0.0,0.40585951512751717,-0.913935475829917
2025/04/11 11:15:46.15980265,1744362946,9548123,hemisphere,-0.0,0.0,0.40611471823058454,-0.9138221028386723
2025/04/11 11:15:46.60272007,1744362946,59110760,hemisphere,-0.0,0.0,0.40630609977575716,-0.9137370263292456
2025/04/11 11:15:46.266998183,1744362946,112376151,hemisphere,-0.0,0.0,0.40653732869648546,-0.913634172071254
2025/04/11 11:15:46.267449154,1744362946,159657217,hemisphere,-0.0,0.0,0.40676853158020077,-0.9135312592988196
2025/04/11 11:15:46.269813813,1744362946,209450691,hemisphere,-0.0,0.0,0.4069997084120951,-0.9134282880185338
2025/04/11 11:15:46.271275766,1744362946,259050224,hemisphere,-0.0,0.0,0.4072388294283047,-0.9133217044425608
2025/04/11 11:15:46.309917718,1744362946,309467297,hemisphere,-0.0,0.0,0.40748589182206274,-0.9132115023180436
2025/04/11 11:15:46.360709625,1744362946,360306303,hemisphere,-0.0,0.0,0.4076930824488011,-0.9131190231965355
2025/04/11 11:15:46.409892320,1744362946,408981515,hemisphere,-0.0,0.0,0.4079161873437638,-0.9130193777258659
2025/04/11 11:15:46.459851111,1744362946,459350678,hemisphere,-0.0,0.0,0.40809146696208903,-0.9129410466140353
2025/04/11 11:15:46.509459230,1744362946,509049815,hemisphere,-0.0,0.0,0.4082746977528528,-0.9128591190182725
2025/04/11 11:15:46.562278341,1744362946,561163871,hemisphere,-0.0,0.0,0.4085136697172758,-0.9127522016703792
2025/04/11 11:15:46.609730885,1744362946,609320121,hemisphere,-0.0,0.0,0.40872075610554864,-0.9126594893652883
2025/04/11 11:15:46.659547507,1744362946,658851366,hemisphere,-0.0,0.0,0.40891189409636974,-0.9125738670740683
2025/04/11 11:15:46.709653756,1744362946,709262752,hemisphere,-0.0,0.0,0.4091348657481789,-0.9124739238078092
2025/04/11 11:15:46.827576182,1744362946,758983657,hemisphere,-0.0,0.0,0.4093657749215078,-0.9123703537067135
2025/04/11 11:15:46.829659637,1744362946,809396830,hemisphere,-0.0,0.0,0.40957277464929326,-0.912277448074915
2025/04/11 11:15:46.860101083,1744362946,859336575,hemisphere,-0.0,0.0,0.4098354747074484,-0.912159461756178
2025/04/11 11:15:46.912874774,1744362946,911078298,hemisphere,-0.0,0.0,0.4100822225892885,-0.9120485572140494
2025/04/11 11:15:46.964928587,1744362946,959742076,hemisphere,-0.0,0.0,0.4103289404595345,-0.9119375859242539
2025/04/11 11:15:47.20353890,1744362947,19630332,hemisphere,-0.0,0.0,0.410591542613062,-0.911819381859492
2025/04/11 11:15:47.69043029,1744362947,59694096,hemisphere,-0.0,0.0,0.4108541107153744,-0.9117011021756412
2025/04/11 11:15:47.118350662,1744362947,109736925,hemisphere,-0.0,0.0,0.4111086896688729,-0.9115863345173305
2025/04/11 11:15:47.185302220,1744362947,164152751,hemisphere,-0.0,0.0,0.4113791446792545,-0.9114643159899157
2025/04/11 11:15:47.210334727,1744362947,209599393,hemisphere,-0.0,0.0,0.41160184514293746,-0.9113637698937398
2025/04/11 11:15:47.259457739,1744362947,258936433,hemisphere,-0.0,0.0,0.4118563298663387,-0.9112487934417415
2025/04/11 11:15:47.312299465,1744362947,310768506,hemisphere,-0.0,0.0,0.41211078247233535,-0.9111337459286861
2025/04/11 11:15:47.374442506,1744362947,373868523,hemisphere,-0.0,0.0,0.41232545186206826,-0.911036619322594
2025/04/11 11:15:47.430458077,1744362947,419233701,hemisphere,-0.0,0.0,0.4125957437151114,-0.9109142397987717
2025/04/11 11:15:47.479902225,1744362947,470673227,hemisphere,-0.0,0.0,0.4128103613714697,-0.910816998932473
2025/04/11 11:15:47.520957045,1744362947,510528913,hemisphere,-0.0,0.0,0.41307264071622024,-0.9106980803162641
2025/04/11 11:15:47.561506397,1744362947,559300991,hemisphere,-0.0,0.0,0.4133269394866768,-0.9105826931666212
2025/04/11 11:15:47.617513602,1744362947,609131969,hemisphere,-0.0,0.0,0.41354942447112175,-0.9104816711607125
2025/04/11 11:15:47.667984347,1744362947,659379384,hemisphere,-0.0,0.0,0.41377188476459253,-0.9103805947944831
2025/04/11 11:15:47.711825997,1744362947,709239061,hemisphere,-0.0,0.0,0.41400226402492385,-0.9102758512573192
2025/04/11 11:15:47.855172174,1744362947,761345612,hemisphere,-0.0,0.0,0.41423261677014356,-0.9101710494207995
2025/04/11 11:15:47.870646470,1744362947,859609900,hemisphere,-0.0,0.0,0.41466941978376515,-0.9099721272084084
2025/04/11 11:15:47.910673443,1744362947,909348772,hemisphere,-0.0,0.0,0.414899695643344,-0.9098671565426794
2025/04/11 11:15:47.959851064,1744362947,958983182,hemisphere,-0.0,0.0,0.4151220057422595,-0.9097657502613096
2025/04/11 11:15:48.12790753,1744362948,10510294,hemisphere,-0.0,0.0,0.415320475958563,-0.909675163038737
2025/04/11 11:15:48.60013840,1744362948,59253097,hemisphere,-0.0,0.0,0.4155189264070768,-0.9095845325188364
2025/04/11 11:15:48.112904176,1744362948,109560602,hemisphere,-0.0,0.0,0.4157094202313462,-0.9094974864896098
2025/04/11 11:15:48.164599559,1744362948,163419765,hemisphere,-0.0,0.0,0.41589989582056,-0.9094104005653594
2025/04/11 11:15:48.209797050,1744362948,209098598,hemisphere,-0.0,0.0,0.4160744824178805,-0.9093305367580553
2025/04/11 11:15:48.260823969,1744362948,259494327,hemisphere,-0.0,0.0,0.4162252494105136,-0.9092615364971487
2025/04/11 11:15:48.415452772,1744362948,314286476,hemisphere,-0.0,0.0,0.4164394775570859,-0.9091634404946018
2025/04/11 11:15:48.422494882,1744362948,359953710,hemisphere,-0.0,0.0,0.41660608346577793,-0.9090871087081288
2025/04/11 11:15:48.451325251,1744362948,409339365,hemisphere,-0.0,0.0,0.41682027050319936,-0.9089889229785145
2025/04/11 11:15:48.482718368,1744362948,459522588,hemisphere,-0.0,0.0,0.4169789126495599,-0.9089161602730973
2025/04/11 11:15:48.518123313,1744362948,509287797,hemisphere,-0.0,0.0,0.4171613354148461,-0.9088324489337417
2025/04/11 11:15:48.566239143,1744362948,561968840,hemisphere,-0.0,0.0,0.4173278806540463,-0.9087559848654655
2025/04/11 11:15:48.616631348,1744362948,610339740,hemisphere,-0.0,0.0,0.4175023415862552,-0.9086758469168166
2025/04/11 11:15:48.681518675,1744362948,674873168,hemisphere,-0.0,0.0,0.4177085028476109,-0.9085810952517158
2025/04/11 11:15:48.710658879,1744362948,709521104,hemisphere,-0.0,0.0,0.4179067145507318,-0.9084899437712083
2025/04/11 11:15:48.759770405,1744362948,759146108,hemisphere,-0.0,0.0,0.41811283362159346,-0.9083951003615782
2025/04/11 11:15:48.816850654,1744362948,815948372,hemisphere,-0.0,0.0,0.41831893116786273,-0.9083002101874561
2025/04/11 11:15:48.872734001,1744362948,863393960,hemisphere,-0.0,0.0,0.41852500717892965,-0.908205273253727
2025/04/11 11:15:48.918837646,1744362948,915058338,hemisphere,-0.0,0.0,0.41876276041812155,-0.9080956725406167
2025/04/11 11:15:48.966574217,1744362948,963528519,hemisphere,-0.0,0.0,0.41896086619334705,-0.9080042910683409
2025/04/11 11:15:49.29681175,1744362949,9273277,hemisphere,-0.0,0.0,0.4191827209871262,-0.9079018925114261
2025/04/11 11:15:49.65387706,1744362949,59613669,hemisphere,-0.0,0.0,0.4193966286930404,-0.9078030997088036
2025/04/11 11:15:49.113295076,1744362949,109412160,hemisphere,-0.0,0.0,0.41961843431348794,-0.9077005946810308
2025/04/11 11:15:49.161570476,1744362949,158988131,hemisphere,-0.0,0.0,0.41983229457762405,-0.907601699221463
2025/04/11 11:15:49.229113254,1744362949,214321912,hemisphere,-0.0,0.0,0.4200382120626268,-0.9075064189344513
2025/04/11 11:15:49.265117141,1744362949,259188262,hemisphere,-0.0,0.0,0.42023618925230577,-0.9074147592158176
2025/04/11 11:15:49.310362427,1744362949,309546694,hemisphere,-0.0,0.0,0.4204420643115713,-0.9073193872928236
2025/04/11 11:15:49.359918468,1744362949,359356897,hemisphere,-0.0,0.0,0.42064791772633425,-0.9072239686607156
2025/04/11 11:15:49.420636327,1744362949,409017462,hemisphere,-0.0,0.0,0.4208537494859983,-0.9071285033244059
2025/04/11 11:15:49.461433175,1744362949,459355228,hemisphere,-0.0,0.0,0.421051644207873,-0.9070366656921024
2025/04/11 11:15:49.523278198,1744362949,509534206,hemisphere,-0.0,0.0,0.4212574334594495,-0.9069411087579818
2025/04/11 11:15:49.560420918,1744362949,559539650,hemisphere,-0.0,0.0,0.4214552872885653,-0.9068491830599579
2025/04/11 11:15:49.611652159,1744362949,610918256,hemisphere,-0.0,0.0,0.42164520809238887,-0.9067608937822176
2025/04/11 11:15:49.677188483,1744362949,659587841,hemisphere,-0.0,0.0,0.4218509347580263,-0.906665202179823
2025/04/11 11:15:49.709842906,1744362949,709274158,hemisphere,-0.0,0.0,0.42202499420542133,-0.9065841959056612
2025/04/11 11:15:49.759627765,1744362949,759006725,hemisphere,-0.0,0.0,0.42225441243639916,-0.9064773638530591
2025/04/11 11:15:49.856326549,1744362949,809621468,hemisphere,-0.0,0.0,0.4224679844103936,-0.9063778473397391
2025/04/11 11:15:49.861436585,1744362949,859224483,hemisphere,-0.0,0.0,0.42268944168430667,-0.9062745918807441
2025/04/11 11:15:49.913973502,1744362949,910623261,hemisphere,-0.0,0.0,0.4228950579846648,-0.9061786633617827
2025/04/11 11:15:49.960328907,1744362949,959206023,hemisphere,-0.0,0.0,0.42310065251423973,-0.9060826881924323
2025/04/11 11:15:50.11402164,1744362950,10598073,hemisphere,-0.0,0.0,0.423306225262448,-0.9059866663776336
2025/04/11 11:15:50.87191586,1744362950,60353159,hemisphere,-0.0,0.0,0.42350387081578206,-0.9058942937252941
2025/04/11 11:15:50.112639906,1744362950,109417210,hemisphere,-0.0,0.0,0.42370149621182573,-0.9058018779555826
2025/04/11 11:15:50.164032053,1744362950,162193896,hemisphere,-0.0,0.0,0.4239386200662117,-0.9056909221231911
2025/04/11 11:15:50.244942317,1744362950,209223045,hemisphere,-0.0,0.0,0.42416781217266786,-0.9055836058126563
2025/04/11 11:15:50.260591871,1744362950,259557815,hemisphere,-0.0,0.0,0.424389075326022,-0.9054799350310995
2025/04/11 11:15:50.323181021,1744362950,311495697,hemisphere,-0.0,0.0,0.42460241222713463,-0.9053799155773771
2025/04/11 11:15:50.363819746,1744362950,358887834,hemisphere,-0.0,0.0,0.4248236255966025,-0.9052761386090753
2025/04/11 11:15:50.410180976,1744362950,409423418,hemisphere,-0.0,0.0,0.42505271270431794,-0.9051685983410498
2025/04/11 11:15:50.459433917,1744362950,458986733,hemisphere,-0.0,0.0,0.42526597623003,-0.9050684225300978
2025/04/11 11:15:50.554141041,1744362950,509614007,hemisphere,-0.0,0.0,0.42548711346757984,-0.9049644834318233
2025/04/11 11:15:50.564285700,1744362950,559187526,hemisphere,-0.0,0.0,0.42570822530141555,-0.9048604903026318
2025/04/11 11:15:50.614806821,1744362950,609222734,hemisphere,-0.0,0.0,0.42594510263232355,-0.90474900914206
2025/04/11 11:15:50.662779840,1744362950,659280795,hemisphere,-0.0,0.0,0.42617405630202765,-0.9046411850756498
2025/04/11 11:15:50.710561210,1744362950,709719180,hemisphere,-0.0,0.0,0.4263793019044464,-0.9045444659647622
2025/04/11 11:15:50.777120998,1744362950,759408903,hemisphere,-0.0,0.0,0.42661609647737975,-0.9044328091275786
2025/04/11 11:15:50.818572967,1744362950,809084082,hemisphere,-0.0,0.0,0.42684497010399375,-0.9043248152610436
2025/04/11 11:15:50.880219373,1744362950,859985834,hemisphere,-0.0,0.0,0.42708170715654936,-0.9042130365197393
2025/04/11 11:15:50.913673405,1744362950,910500673,hemisphere,-0.0,0.0,0.42732630469243493,-0.9040974667135775
2025/04/11 11:15:50.960901182,1744362950,959006931,hemisphere,-0.0,0.0,0.42754720461921836,-0.903993024211079
2025/04/11 11:15:51.10168027,1744362951,9322917,hemisphere,-0.0,0.0,0.42778385478501635,-0.9038810616365807
2025/04/11 11:15:51.70873686,1744362951,63572856,hemisphere,-0.0,0.0,0.4280362493111543,-0.9037615666068343
2025/04/11 11:15:51.123427019,1744362951,109613633,hemisphere,-0.0,0.0,0.4282491812300105,-0.9036606878556938
2025/04/11 11:15:51.183196339,1744362951,159189372,hemisphere,-0.0,0.0,0.428517283899246,-0.9035335839909954
2025/04/11 11:15:51.212324901,1744362951,211635754,hemisphere,-0.0,0.0,0.4287301620876113,-0.9034325919050799
2025/04/11 11:15:51.262457826,1744362951,260494233,hemisphere,-0.0,0.0,0.4289193671627062,-0.9033427790560701
2025/04/11 11:15:51.350225661,1744362951,325973283,hemisphere,-0.0,0.0,0.42913220038255706,-0.9032416922368148
2025/04/11 11:15:51.367365851,1744362951,361012010,hemisphere,-0.0,0.0,0.42932924693679,-0.903148048619211
2025/04/11 11:15:51.411073816,1744362951,409681567,hemisphere,-0.0,0.0,0.4295341536760806,-0.903050613656717
2025/04/11 11:15:51.460515192,1744362951,459620986,hemisphere,-0.0,0.0,0.42975479774250036,-0.9029456317061968
2025/04/11 11:15:51.511201168,1744362951,509917115,hemisphere,-0.0,0.0,0.4299360218885648,-0.9028593562026345
2025/04/11 11:15:51.597997718,1744362951,558895172,hemisphere,-0.0,0.0,0.4301723751789118,-0.902746768276095
2025/04/11 11:15:51.629659662,1744362951,609951305,hemisphere,-0.0,0.0,0.4303220503476089,-0.9026754305865592
2025/04/11 11:15:51.729378058,1744362951,659001933,hemisphere,-0.0,0.0,0.43057410809908214,-0.9025552268059168
2025/04/11 11:15:51.772565844,1744362951,709537151,hemisphere,-0.0,0.0,0.43074737832709253,-0.902472545878453
2025/04/11 11:15:51.805872151,1744362951,759186012,hemisphere,-0.0,0.0,0.4309363822863767,-0.9023823105657213
2025/04/11 11:15:51.829832858,1744362951,809645167,hemisphere,-0.0,0.0,0.4311332413096786,-0.9022882733571408
2025/04/11 11:15:51.861440151,1744362951,859404615,hemisphere,-0.0,0.0,0.4313222066665535,-0.902197957233497
2025/04/11 11:15:51.910592073,1744362951,909956390,hemisphere,-0.0,0.0,0.43150328071316185,-0.9021113671458632
2025/04/11 11:15:51.961515486,1744362951,960112377,hemisphere,-0.0,0.0,0.43174730953097834,-0.9019946012658621
2025/04/11 11:15:52.63719538,1744362952,9061798,hemisphere,-0.0,0.0,0.4319283427528659,-0.9019079258587114
2025/04/11 11:15:52.63929996,1744362952,59452817,hemisphere,-0.0,0.0,0.4321250982578731,-0.9018136722492199
2025/04/11 11:15:52.121907206,1744362952,109174881,hemisphere,-0.0,0.0,0.43232183319525075,-0.9017193757165796
2025/04/11 11:15:52.159775429,1744362952,159098237,hemisphere,-0.0,0.0,0.4325421518956614,-0.9016137126472016
2025/04/11 11:15:52.211162358,1744362952,209331246,hemisphere,-0.0,0.0,0.4327309759419718,-0.9015231014568116
2025/04/11 11:15:52.260527945,1744362952,259881584,hemisphere,-0.0,0.0,0.4329197810065776,-0.9014324507211935
2025/04/11 11:15:52.309873844,1744362952,309387782,hemisphere,-0.0,0.0,0.4331085670811969,-0.9013417604443236
2025/04/11 11:15:52.386430864,1744362952,361387828,hemisphere,-0.0,0.0,0.43329733415754895,-0.9012510306301799
2025/04/11 11:15:52.456539520,1744362952,410284694,hemisphere,-0.0,0.0,0.43350181037497604,-0.9011526953860918
2025/04/11 11:15:52.485028541,1744362952,459538486,hemisphere,-0.0,0.0,0.4336984010768093,-0.9010580985171928
2025/04/11 11:15:52.544058344,1744362952,509217384,hemisphere,-0.0,0.0,0.4338949711361293,-0.9009634587611073
2025/04/11 11:15:52.572754303,1744362952,563411152,hemisphere,-0.0,0.0,0.4340993820901862,-0.9008649879248934
2025/04/11 11:15:52.619826270,1744362952,610096004,hemisphere,-0.0,0.0,0.4343037706966578,-0.9007664707118405
2025/04/11 11:15:52.685584741,1744362952,666692353,hemisphere,-0.0,0.0,0.434523856499288,-0.9006603233922243
2025/04/11 11:15:52.871121818,1744362952,715408327,hemisphere,-0.0,0.0,0.4347281986579245,-0.9005617098742519
2025/04/11 11:15:52.920032485,1744362952,759407405,hemisphere,-0.0,0.0,0.4349403764425501,-0.9004592544585306
2025/04/11 11:15:52.990634667,1744362952,813545328,hemisphere,-0.0,0.0,0.43513681582480773,-0.9003643437597068
2025/04/11 11:15:53.129055821,1744362952,862014944,hemisphere,-0.0,0.0,0.4353646595608892,-0.9002541936616741
2025/04/11 11:15:53.198683101,1744362952,910644287,hemisphere,-0.0,0.0,0.43556890954997085,-0.900155389381994
2025/04/11 11:15:53.215398053,1744362952,961336343,hemisphere,-0.0,0.0,0.43579670039155954,-0.9000451299395099
2025/04/11 11:15:53.291443135,1744362953,10001396,hemisphere,-0.0,0.0,0.4360166098928227,-0.8999386178498898
2025/04/11 11:15:53.388208388,1744362953,60368404,hemisphere,-0.0,0.0,0.4362679031599773,-0.8998168239549629
2025/04/11 11:15:53.416324541,1744362953,109893325,hemisphere,-0.0,0.0,0.43646420235404904,-0.8997216236500286
2025/04/11 11:15:53.449564021,1744362953,166213054,hemisphere,-0.0,0.0,0.4366840327878882,-0.8996149484685694
2025/04/11 11:15:53.589436280,1744362953,210222719,hemisphere,-0.0,0.0,0.4369273860698935,-0.8994967811516228
2025/04/11 11:15:53.618420382,1744362953,266951415,hemisphere,-0.0,0.0,0.4371236154257637,-0.899401436977454
2025/04/11 11:15:53.630401300,1744362953,311169003,hemisphere,-0.0,0.0,0.43737475864055814,-0.8992793339692142
2025/04/11 11:15:53.688610087,1744362953,359001145,hemisphere,-0.0,0.0,0.4375787873892538,-0.899180073637617
2025/04/11 11:15:53.725181632,1744362953,409822396,hemisphere,-0.0,0.0,0.4377827936112431,-0.8990807670159204
2025/04/11 11:15:53.976955387,1744362953,461631703,hemisphere,-0.0,0.0,0.43799462237214143,-0.8989775919193344
2025/04/11 11:15:54.101373265,1744362953,509474361,hemisphere,-0.0,0.0,0.4381985826417829,-0.8988781909528858
2025/04/11 11:15:54.335294955,1744362953,725404329,hemisphere,-0.0,0.0,0.43896715311815737,-0.898503109890745
2025/04/11 11:15:54.364764273,1744362953,760524109,hemisphere,-0.0,0.0,0.43917100570620893,-0.898403488276285
2025/04/11 11:15:54.399283478,1744362953,809218936,hemisphere,-0.0,0.0,0.4393669964891819,-0.898307654646266
2025/04/11 11:15:54.518495963,1744362954,9777569,hemisphere,-0.0,0.0,0.4401899293065066,-0.8979046865548329
2025/04/11 11:15:54.611962179,1744362954,109510503,hemisphere,-0.0,0.0,0.44057383818335094,-0.8977163767629454
2025/04/11 11:15:54.658865999,1744362954,165872412,hemisphere,-0.0,0.0,0.44079317852026506,-0.8976086974678898
2025/04/11 11:15:54.725027102,1744362954,209521517,hemisphere,-0.0,0.0,0.44097333125263594,-0.8975202065268242
2025/04/11 11:15:54.815120829,1744362954,259182717,hemisphere,-0.0,0.0,0.44120828637864057,-0.8974047292224526
2025/04/11 11:15:54.828374001,1744362954,309991771,hemisphere,-0.0,0.0,0.4414197201373554,-0.8973007470596795
2025/04/11 11:15:54.828657447,1744362954,363778318,hemisphere,-0.0,0.0,0.4416389588915233,-0.8971928610890813
2025/04/11 11:15:55.96352739,1744362954,417943931,hemisphere,-0.0,0.0,0.44185034271803103,-0.8970887774573699
2025/04/11 11:15:55.113770090,1744362954,509367143,hemisphere,-0.0,0.0,0.4422730367693264,-0.8968804607899751
2025/04/11 11:15:55.289031666,1744362954,609415975,hemisphere,-0.0,0.0,0.44267998266160047,-0.8966796713156405
2025/04/11 11:15:55.341708555,1744362954,670739943,hemisphere,-0.0,0.0,0.44289124554172066,-0.8965753424127296
2025/04/11 11:15:55.443830033,1744362954,709400134,hemisphere,-0.0,0.0,0.44307119082418006,-0.8964864303834403
2025/04/11 11:15:55.477986109,1744362954,813650716,hemisphere,-0.0,0.0,0.44343884958392854,-0.8963046282819709
2025/04/11 11:15:55.501512463,1744362954,872348157,hemisphere,-0.0,0.0,0.4436187405195495,-0.8962156063469596
2025/04/11 11:15:55.545742849,1744362955,110024725,hemisphere,-0.0,0.0,0.4444475720019782,-0.8958048647677387
2025/04/11 11:15:55.645048944,1744362955,210449531,hemisphere,-0.0,0.0,0.44471334308860794,-0.8956729550896098
2025/04/11 11:15:55.645280391,1744362955,259350252,hemisphere,-0.0,0.0,0.44485402958038467,-0.8956030886313949
2025/04/11 11:15:55.833775224,1744362955,309471350,hemisphere,-0.0,0.0,0.4449790750251509,-0.8955409665614193
2025/04/11 11:15:55.891967650,1744362955,359617628,hemisphere,-0.0,0.0,0.44506503873634096,-0.8954982475106354
2025/04/11 11:15:55.982186388,1744362955,459252485,hemisphere,-0.0,0.0,0.4452760231838327,-0.8953933566749258
2025/04/11 11:15:56.12343681,1744362955,509314586,hemisphere,-0.0,0.0,0.4453697861152092,-0.8953467225693591
2025/04/11 11:15:56.333632604,1744362955,559268662,hemisphere,-0.0,0.0,0.445393226084964,-0.8953350625087951
2025/04/11 11:15:56.384124314,1744362955,609053415,hemisphere,-0.0,0.0,0.4454479181605465,-0.8953078533143978
2025/04/11 11:15:56.438587185,1744362955,659439519,hemisphere,-0.0,0.0,0.44550260857391144,-0.8952806407791025
2025/04/11 11:15:56.601352202,1744362955,859564008,hemisphere,-0.0,0.0,0.4455572973248551,-0.8952534249030107
2025/04/11 11:15:56.724195822,1744362955,909376927,hemisphere,-0.0,0.0,0.4455729223768965,-0.8952456483248116
2025/04/11 11:15:56.903293246,1744362956,10154871,hemisphere,-0.0,0.0,0.4455651098678415,-0.8952495366479998
2025/04/11 11:15:56.939539671,1744362956,109672406,hemisphere,-0.0,0.0,0.44548698291114713,-0.8952884161300889
2025/04/11 11:15:56.972724200,1744362956,359651643,hemisphere,-0.0,0.0,0.44521351185007507,-0.8954244406236201
2025/04/11 11:15:57.25388265,1744362956,410457462,hemisphere,-0.0,0.0,0.44512755522315306,-0.89546717392714
2025/04/11 11:15:57.86671606,1744362956,609586397,hemisphere,-0.0,0.0,0.4446429957276792,-0.8957078800313834
2025/04/11 11:15:57.178396920,1744362956,659098597,hemisphere,-0.0,0.0,0.4444632066786298,-0.8957971075578162
2025/04/11 11:15:57.181935466,1744362956,725672051,hemisphere,-0.0,0.0,0.4443068538202942,-0.8958746673772575
2025/04/11 11:15:57.231612053,1744362956,763472412,hemisphere,-0.0,0.0,0.4441426687527725,-0.8959560758168701
2025/04/11 11:15:57.405562359,1744362956,909142445,hemisphere,-0.0,0.0,0.44349360089055967,-0.8962775384718312
2025/04/11 11:15:57.533560950,1744362956,960210802,hemisphere,-0.0,0.0,0.44328240816211906,-0.8963820093096428
2025/04/11 11:15:57.555523730,1744362957,9227474,hemisphere,-0.0,0.0,0.4430164267578559,-0.8965134943896279
2025/04/11 11:15:57.570066893,1744362957,61506844,hemisphere,-0.0,0.0,0.44275823103890155,-0.8966410367852359
2025/04/11 11:15:57.662297838,1744362957,109345198,hemisphere,-0.0,0.0,0.4424765211048851,-0.8967800891360814
2025/04/11 11:15:57.671348689,1744362957,159242142,hemisphere,-0.0,0.0,0.4421712860627547,-0.8969306293028517
2025/04/11 11:15:57.699423225,1744362957,209830988,hemisphere,-0.0,0.0,0.4418659998035821,-0.8970810655774544
2025/04/11 11:15:57.775422613,1744362957,559595643,hemisphere,-0.0,0.0,0.4392886026849487,-0.8983459932292821
2025/04/11 11:15:57.843151183,1744362957,610385821,hemisphere,-0.0,0.0,0.4388495355756484,-0.8985605628587523
2025/04/11 11:15:57.849931671,1744362957,661719144,hemisphere,-0.0,0.0,0.4384182069343619,-0.8987710920075584
2025/04/11 11:15:57.881314805,1744362957,710675762,hemisphere,-0.0,0.0,0.43798677729602375,-0.8989814141092369
2025/04/11 11:15:57.905931177,1744362957,759106667,hemisphere,-0.0,0.0,0.4375317058308918,-0.8992029839767604
2025/04/11 11:15:57.919666705,1744362957,809514284,hemisphere,-0.0,0.0,0.4370608242950814,-0.8994319517709519
2025/04/11 11:15:57.940000326,1744362957,859225309,hemisphere,-0.0,0.0,0.43658982293656684,-0.8996606729807729
2025/04/11 11:15:57.959374826,1744362957,909671969,hemisphere,-0.0,0.0,0.4360951426922315,-0.8999005647960459
2025/04/11 11:15:57.993434941,1744362957,960338762,hemisphere,-0.0,0.0,0.43557676487104796,-0.9001515882919232
2025/04/11 11:15:58.42568609,1744362958,8971170,hemisphere,-0.0,0.0,0.4350346699301722,-0.9004137026715809
2025/04/11 11:15:58.84180889,1744362958,59452173,hemisphere,-0.0,0.0,0.4344609774880899,-0.9006906566852425
2025/04/11 11:15:58.109815269,1744362958,109125554,hemisphere,-0.0,0.0,0.4338949711361293,-0.9009634587611073
2025/04/11 11:15:58.162911968,1744362958,159472080,hemisphere,-0.0,0.0,0.4332894692421147,-0.9012548118284233
2025/04/11 11:15:58.209937412,1744362958,209321635,hemisphere,-0.0,0.0,0.43264443394314905,-0.9015646364948062
2025/04/11 11:15:58.259794895,1744362958,258915386,hemisphere,-0.0,0.0,0.4319913067516557,-0.9018777693739861
2025/04/11 11:15:58.310084416,1744362958,309463684,hemisphere,-0.0,0.0,0.431298587031457,-0.9022092489132821
2025/04/11 11:15:58.359619566,1744362958,359029671,hemisphere,-0.0,0.0,0.4305819843628817,-0.9025514693036198
2025/04/11 11:15:58.410088662,1744362958,409502252,hemisphere,-0.0,0.0,0.42982571360103466,-0.9029118760584343
2025/04/11 11:15:58.460427454,1744362958,459067981,hemisphere,-0.0,0.0,0.42906125862245964,-0.9032753934151593
2025/04/11 11:15:58.511962392,1744362958,509838576,hemisphere,-0.0,0.0,0.42823340931046117,-0.9036681620762895
2025/04/11 11:15:58.562774738,1744362958,560332161,hemisphere,-0.0,0.0,0.4274525363469764,-0.9040377918928704
2025/04/11 11:15:58.611497062,1744362958,609065559,hemisphere,-0.0,0.0,0.4266003110820211,-0.9044402548453507
2025/04/11 11:15:58.672726977,1744362958,659837354,hemisphere,-0.0,0.0,0.42577139544324694,-0.9048307680568285
2025/04/11 11:15:58.742393655,1744362958,709767932,hemisphere,-0.0,0.0,0.42491842356262405,-0.9052316462193831
2025/04/11 11:15:58.775698281,1744362958,760881043,hemisphere,-0.0,0.0,0.42405717109831,-0.905635420928366
2025/04/11 11:15:58.811877877,1744362958,809277979,hemisphere,-0.0,0.0,0.42315600116650676,-0.906056840753808
2025/04/11 11:15:58.862125720,1744362958,859566171,hemisphere,-0.0,0.0,0.42223068076980685,-0.9064884181370799
2025/04/11 11:15:58.913290007,1744362958,910865009,hemisphere,-0.0,0.0,0.42131283455308394,-0.9069153739136006
2025/04/11 11:15:58.965033782,1744362958,958991836,hemisphere,-0.0,0.0,0.4203391294868385,-0.907367079093267
2025/04/11 11:15:59.13617355,1744362959,9525614,hemisphere,-0.0,0.0,0.41937286231974313,-0.9078140791757671
2025/04/11 11:15:59.65219376,1744362959,59305749,hemisphere,-0.0,0.0,0.41835856284280104,-0.9082819567161433
2025/04/11 11:15:59.111770830,1744362959,110418100,hemisphere,-0.0,0.0,0.41731995024613927,-0.9087596267036514
2025/04/11 11:15:59.164337427,1744362959,159479835,hemisphere,-0.0,0.0,0.4162490536792332,-0.9092506394340027
2025/04/11 11:15:59.223742475,1744362959,209009485,hemisphere,-0.0,0.0,0.4151220057422595,-0.9097657502613096
2025/04/11 11:15:59.264842704,1744362959,259360234,hemisphere,-0.0,0.0,0.41397843291699143,-0.9102866894992984
2025/04/11 11:15:59.311679701,1744362959,310804292,hemisphere,-0.0,0.0,0.41281830973350847,-0.9108133964477955
2025/04/11 11:15:59.367828980,1744362959,360485505,hemisphere,-0.0,0.0,0.4115859387817799,-0.9113709535623357
2025/04/11 11:15:59.432338520,1744362959,410092927,hemisphere,-0.0,0.0,0.41036077283643496,-0.9119232621866183
2025/04/11 11:15:59.463167408,1744362959,459096991,hemisphere,-0.0,0.0,0.4091109770965098,-0.9124846346208462
2025/04/11 11:15:59.510204424,1744362959,509365790,hemisphere,-0.0,0.0,0.4078205739416326,-0.913062089602847
2025/04/11 11:15:59.571448964,1744362959,559013925,hemisphere,-0.0,0.0,0.40653732869648546,-0.913634172071254
2025/04/11 11:15:59.613315703,1744362959,612416998,hemisphere,-0.0,0.0,0.4051974346199362,-0.9142292048372895
2025/04/11 11:15:59.679696857,1744362959,659311342,hemisphere,-0.0,0.0,0.4038886026954756,-0.9148081747627184
2025/04/11 11:15:59.768171454,1744362959,710154184,hemisphere,-0.0,0.0,0.402539001906855,-0.9154028358836523
2025/04/11 11:15:59.809711830,1744362959,762449036,hemisphere,-0.0,0.0,0.4011805319941052,-0.9159990069584829
2025/04/11 11:15:59.843360221,1744362959,809300108,hemisphere,-0.0,0.0,0.3997971826491056,-0.9166036290272027
2025/04/11 11:15:59.861871539,1744362959,860452153,hemisphere,-0.0,0.0,0.39839691374894304,-0.9172131154291882
2025/04/11 11:15:59.911170571,1744362959,908969157,hemisphere,-0.0,0.0,0.3969716870773048,-0.9178308556912862
2025/04/11 11:15:59.961287808,1744362959,960183625,hemisphere,-0.0,0.0,0.39556153241607644,-0.918439477631839
2025/04/11 11:16:00.14958330,1744362960,10194022,hemisphere,-0.0,0.0,0.39409430258562567,-0.9190700085790795
2025/04/11 11:16:00.60780289,1744362960,59542204,hemisphere,-0.0,0.0,0.3926180417878389,-0.9197016218658544
2025/04/11 11:16:00.109869330,1744362960,109309189,hemisphere,-0.0,0.0,0.39112470584694514,-0.9203376904572259
2025/04/11 11:16:00.159913154,1744362960,158989073,hemisphere,-0.0,0.0,0.3895981912334531,-0.9209849343977468
2025/04/11 11:16:00.213501416,1744362960,209475507,hemisphere,-0.0,0.0,0.3880223486003075,-0.9216499644586884
2025/04/11 11:16:00.261863181,1744362960,259261995,hemisphere,-0.0,0.0,0.3864453707903245,-0.9223122981911976
2025/04/11 11:16:00.310978872,1744362960,309977953,hemisphere,-0.0,0.0,0.384843098936417,-0.9229820091426567
2025/04/11 11:16:00.362020483,1744362960,359319270,hemisphere,-0.0,0.0,0.38326384741864383,-0.9236389030686497
2025/04/11 11:16:00.429181208,1744362960,409409370,hemisphere,-0.0,0.0,0.381635078248786,-0.9243130784804697
2025/04/11 11:16:00.474414255,1744362960,459572819,hemisphere,-0.0,0.0,0.37998897910464835,-0.9249910138801388
2025/04/11 11:16:00.511755684,1744362960,509866699,hemisphere,-0.0,0.0,0.37828512925958413,-0.9256891276130771
2025/04/11 11:16:00.579058669,1744362960,559485985,hemisphere,-0.0,0.0,0.37657999685124366,-0.9263841028275028
2025/04/11 11:16:00.626446953,1744362960,609280391,hemisphere,-0.0,0.0,0.3748412263774016,-0.9270890221590835
2025/04/11 11:16:00.660334244,1744362960,659013512,hemisphere,-0.0,0.0,0.37308494331579645,-0.9277971896223058
2025/04/11 11:16:00.712607116,1744362960,709293157,hemisphere,-0.0,0.0,0.3712624997849011,-0.9285279512505084
2025/04/11 11:16:00.759976126,1744362960,758995662,hemisphere,-0.0,0.0,0.3694548434262656,-0.9292486850509252
2025/04/11 11:16:00.811833990,1744362960,809824836,hemisphere,-0.0,0.0,0.3676133257553154,-0.9299787324058096
2025/04/11 11:16:00.862426395,1744362960,859439467,hemisphere,-0.0,0.0,0.36576224356378056,-0.9307083222917852
2025/04/11 11:16:00.911966738,1744362960,910472012,hemisphere,-0.0,0.0,0.3639015850793562,-0.931437403359309
2025/04/11 11:16:00.990062719,1744362960,959788087,hemisphere,-0.0,0.0,0.3619987996960732,-0.9321785606945713
2025/04/11 11:16:01.10395863,1744362961,8916434,hemisphere,-0.0,0.0,0.360053798336668,-0.9329315421312209
2025/04/11 11:16:01.96965022,1744362961,59719072,hemisphere,-0.0,0.0,0.35808278691902007,-0.9336898402104993
2025/04/11 11:16:01.169536627,1744362961,109044784,hemisphere,-0.0,0.0,0.3560694053382018,-0.9344595114728617
2025/04/11 11:16:01.200639494,1744362961,159414978,hemisphere,-0.0,0.0,0.35404620803374504,-0.9352279308152244
2025/04/11 11:16:01.263393857,1744362961,209101410,hemisphere,-0.0,0.0,0.3519723435417568,-0.9360104002529691
2025/04/11 11:16:01.270298135,1744362961,259671556,hemisphere,-0.0,0.0,0.34989674974898155,-0.9367882709102942
2025/04/11 11:16:01.313250503,1744362961,309506997,hemisphere,-0.0,0.0,0.3478030732643999,-0.9375676094169628
2025/04/11 11:16:01.362216505,1744362961,360966887,hemisphere,-0.0,0.0,0.3457404150605173,-0.9383302006190472
2025/04/11 11:16:01.410054055,1744362961,409361000,hemisphere,-0.0,0.0,0.3436187185417751,-0.9391092461836953
2025/04/11 11:16:01.462625378,1744362961,459068620,hemisphere,-0.0,0.0,0.3414870646002398,-0.9398864743737467
2025/04/11 11:16:01.510211541,1744362961,509549292,hemisphere,-0.0,0.0,0.33933723502630425,-0.940664786693274
2025/04/11 11:16:01.565194836,1744362961,559396464,hemisphere,-0.0,0.0,0.3371281217393402,-0.941458777394159
2025/04/11 11:16:01.609464071,1744362961,608877849,hemisphere,-0.0,0.0,0.33492537332179045,-0.9422446573503398
2025/04/11 11:16:01.667672943,1744362961,664930071,hemisphere,-0.0,0.0,0.3326796453988872,-0.9430399002890975
2025/04/11 11:16:01.710972389,1744362961,709297929,hemisphere,-0.0,0.0,0.33045673857728125,-0.9438211397976136
2025/04/11 11:16:01.760180524,1744362961,759441510,hemisphere,-0.0,0.0,0.32815780767742475,-0.9446229159089601
2025/04/11 11:16:01.809991623,1744362961,809218234,hemisphere,-0.0,0.0,0.3258734321079822,-0.9454134049431309
2025/04/11 11:16:01.860350398,1744362961,859450034,hemisphere,-0.0,0.0,0.32360366660799195,-0.9461927218901357
2025/04/11 11:16:01.911686452,1744362961,909728519,hemisphere,-0.0,0.0,0.3212741899227376,-0.9469862168424041
2025/04/11 11:16:01.962208194,1744362961,960075202,hemisphere,-0.0,0.0,0.31895930929806987,-0.9477684100095858
2025/04/11 11:16:02.12712505,1744362962,11385270,hemisphere,-0.0,0.0,0.3166094136696654,-0.9485559968582512
2025/04/11 11:16:02.60131780,1744362962,59081547,hemisphere,-0.0,0.0,0.31424928878370845,-0.9493404997675667
2025/04/11 11:16:02.110445150,1744362962,109711716,hemisphere,-0.0,0.0,0.31190380272618334,-0.9501136868001356
2025/04/11 11:16:02.171043031,1744362962,161785855,hemisphere,-0.0,0.0,0.30954811631439205,-0.9508837803255514
2025/04/11 11:16:02.214200454,1744362962,209619155,hemisphere,-0.0,0.0,0.30718222385698185,-0.9516507139419794
2025/04/11 11:16:02.262565161,1744362962,261067098,hemisphere,-0.0,0.0,0.30487261023764517,-0.952393139164119
2025/04/11 11:16:02.310022881,1744362962,308928198,hemisphere,-0.0,0.0,0.3025612022874269,-0.9531299590666463
2025/04/11 11:16:02.379755426,1744362962,360483280,hemisphere,-0.0,0.0,0.3002563376077148,-0.953858549118475
2025/04/11 11:16:02.413741563,1744362962,409128902,hemisphere,-0.0,0.0,0.29790806669490427,-0.9545945651417174
2025/04/11 11:16:02.460339105,1744362962,459580480,hemisphere,-0.0,0.0,0.2956246851547194,-0.9553041638803702
2025/04/11 11:16:02.511881080,1744362962,510031124,hemisphere,-0.0,0.0,0.29332292788409997,-0.9560134203961256
2025/04/11 11:16:02.561260104,1744362962,560400973,hemisphere,-0.0,0.0,0.2909777240717724,-0.9567298281615408
2025/04/11 11:16:02.614225004,1744362962,610422792,hemisphere,-0.0,0.0,0.28872267690462156,-0.957412771922868
2025/04/11 11:16:02.662831435,1744362962,659235583,hemisphere,-0.0,0.0,0.28644094400405135,-0.9580978997983808
2025/04/11 11:16:02.712564183,1744362962,709513600,hemisphere,-0.0,0.0,0.2841826859903374,-0.9587701502358724
2025/04/11 11:16:02.760690750,1744362962,759883878,hemisphere,-0.0,0.0,0.2819061049149277,-0.9594419982529918
2025/04/11 11:16:02.812092960,1744362962,809959572,hemisphere,-0.0,0.0,0.27968658468918145,-0.960091357291014
2025/04/11 11:16:02.864461314,1744362962,860552144,hemisphere,-0.0,0.0,0.2774991045463848,-0.9607258958599766
2025/04/11 11:16:02.913797954,1744362962,912731742,hemisphere,-0.0,0.0,0.2753437422871558,-0.9613458397389071
2025/04/11 11:16:02.964179158,1744362962,961728315,hemisphere,-0.0,0.0,0.27322057367698815,-0.9619514115170358
2025/04/11 11:16:03.22919247,1744362963,9137321,hemisphere,-0.0,0.0,0.27112127270338887,-0.9625451965947858
2025/04/11 11:16:03.64613048,1744362963,60712744,hemisphere,-0.0,0.0,0.26903749111414826,-0.9631297048554803
2025/04/11 11:16:03.118170614,1744362963,114226432,hemisphere,-0.0,0.0,0.2669440394444543,-0.9637120315763821
2025/04/11 11:16:03.161732370,1744362963,159108851,hemisphere,-0.0,0.0,0.2648493273599572,-0.96428980799186
2025/04/11 11:16:03.220575152,1744362963,210376138,hemisphere,-0.0,0.0,0.26277020474785034,-0.964858445315567
2025/04/11 11:16:03.280232030,1744362963,261368346,hemisphere,-0.0,0.0,0.2606645864853999,-0.9654294243249454
2025/04/11 11:16:03.312419662,1744362963,310528287,hemisphere,-0.0,0.0,0.25859144700927633,-0.9659867822768843
2025/04/11 11:16:03.368028984,1744362963,363563321,hemisphere,-0.0,0.0,0.2565255504403906,-0.9665374498545075
2025/04/11 11:16:03.418122928,1744362963,408956399,hemisphere,-0.0,0.0,0.2544669206389516,-0.9670814786255238
2025/04/11 11:16:03.459907081,1744362963,459281783,hemisphere,-0.0,0.0,0.2523986930069809,-0.9676233253536046
2025/04/11 11:16:03.511217694,1744362963,509520514,hemisphere,-0.0,0.0,0.2503631066523374,-0.9681520101861021
2025/04/11 11:16:03.560329295,1744362963,559641475,hemisphere,-0.0,0.0,0.24836867915733504,-0.9686655765606832
2025/04/11 11:16:03.610111605,1744362963,609145119,hemisphere,-0.0,0.0,0.246339367467855,-0.9691836338050376
2025/04/11 11:16:03.660507176,1744362963,659624212,hemisphere,-0.0,0.0,0.24435974811768835,-0.9696846464185457
2025/04/11 11:16:03.710412631,1744362963,709670993,hemisphere,-0.0,0.0,0.24240450902247682,-0.9701752697350989
2025/04/11 11:16:03.759478734,1744362963,758846639,hemisphere,-0.0,0.0,0.24038899006210088,-0.9706766369172193
2025/04/11 11:16:03.809951840,1744362963,809392210,hemisphere,-0.0,0.0,0.2384063343553652,-0.971165495546067
2025/04/11 11:16:03.861762896,1744362963,859356237,hemisphere,-0.0,0.0,0.23641420525903015,-0.9716523676458269
2025/04/11 11:16:03.910529453,1744362963,909548804,hemisphere,-0.0,0.0,0.23437018069481075,-0.9721474262688153
2025/04/11 11:16:03.962647651,1744362963,959333967,hemisphere,-0.0,0.0,0.2323590708192548,-0.9726300746985015
2025/04/11 11:16:04.10476292,1744362964,9557519,hemisphere,-0.0,0.0,0.23033847504191257,-0.9731105728103905
2025/04/11 11:16:04.60607834,1744362964,59283144,hemisphere,-0.0,0.0,0.22830838949983737,-0.9735888656327119
2025/04/11 11:16:04.109723197,1744362964,108921181,hemisphere,-0.0,0.0,0.2263538128388088,-0.974045148549765
2025/04/11 11:16:04.160204341,1744362964,159412925,hemisphere,-0.0,0.0,0.2243813160727173,-0.974501423804745
2025/04/11 11:16:04.209977029,1744362964,209057583,hemisphere,-0.0,0.0,0.22244193175207916,-0.9749459405517843
2025/04/11 11:16:04.262653765,1744362964,261321187,hemisphere,-0.0,0.0,0.22051869050085962,-0.9753827490476681
2025/04/11 11:16:04.310097734,1744362964,309192447,hemisphere,-0.0,0.0,0.21859459150722516,-0.9758157636376804
2025/04/11 11:16:04.362829601,1744362964,361360269,hemisphere,-0.0,0.0,0.21667816159164052,-0.9762430918010467
2025/04/11 11:16:04.410365348,1744362964,409359838,hemisphere,-0.0,0.0,0.21470123474230618,-0.9766797734161025
2025/04/11 11:16:04.460745884,1744362964,459753150,hemisphere,-0.0,0.0,0.21278311585363324,-0.9770994553307352
2025/04/11 11:16:04.510927811,1744362964,510230500,hemisphere,-0.0,0.0,0.2108982982143769,-0.9775080090773066
2025/04/11 11:16:04.560334764,1744362964,559210698,hemisphere,-0.0,0.0,0.20899562831645774,-0.9779165748388812
2025/04/11 11:16:04.619996180,1744362964,608833521,hemisphere,-0.0,0.0,0.2071092418343197,-0.9783178225642285
2025/04/11 11:16:04.660719917,1744362964,659334948,hemisphere,-0.0,0.0,0.20521354410777312,-0.9787172223450076
2025/04/11 11:16:04.709416443,1744362964,708931940,hemisphere,-0.0,0.0,0.20327435412049824,-0.9791218192630038
2025/04/11 11:16:04.759982312,1744362964,759314760,hemisphere,-0.0,0.0,0.20135146231619916,-0.9795190598569934
2025/04/11 11:16:04.810126448,1744362964,808996297,hemisphere,-0.0,0.0,0.199419242881436,-0.9799142643969394
2025/04/11 11:16:04.860221943,1744362964,859412256,hemisphere,-0.0,0.0,0.19752046677637886,-0.9802987632372293
2025/04/11 11:16:04.909899491,1744362964,909145905,hemisphere,-0.0,0.0,0.19557815893419742,-0.9806881174705391
2025/04/11 11:16:04.959945129,1744362964,959073559,hemisphere,-0.0,0.0,0.19367789084070547,-0.9810651734719237
2025/04/11 11:16:05.9771540,1744362965,9182825,hemisphere,-0.0,0.0,0.1918111543885508,-0.9814318524748071
2025/04/11 11:16:05.60340535,1744362965,58837786,hemisphere,-0.0,0.0,0.1899522915116844,-0.9817933219112158
2025/04/11 11:16:05.110600518,1744362965,109738227,hemisphere,-0.0,0.0,0.1880841765660722,-0.9821529119874678
2025/04/11 11:16:05.160890180,1744362965,159040127,hemisphere,-0.0,0.0,0.18624110287429665,-0.9825040720527146
2025/04/11 11:16:05.210300256,1744362965,209385459,hemisphere,-0.0,0.0,0.1844059505629854,-0.9828501642656229
2025/04/11 11:16:05.261188556,1744362965,259792193,hemisphere,-0.0,0.0,0.1825358351088451,-0.9831992010275011
2025/04/11 11:16:05.310578596,1744362965,309659598,hemisphere,-0.0,0.0,0.180707974089087,-0.9835367954990896
2025/04/11 11:16:05.362390483,1744362965,359362024,hemisphere,-0.0,0.0,0.17891383218243515,-0.983864747134379
2025/04/11 11:16:05.411444529,1744362965,409367641,hemisphere,-0.0,0.0,0.1770933290397617,-0.9841940625758798
2025/04/11 11:16:05.465051150,1744362965,460146456,hemisphere,-0.0,0.0,0.17528940285225017,-0.9845169502084267
2025/04/11 11:16:05.509972699,1744362965,509268746,hemisphere,-0.0,0.0,0.1734762936450981,-0.9848380453369782
2025/04/11 11:16:05.561945090,1744362965,560278072,hemisphere,-0.0,0.0,0.1716797904585158,-0.9851528051770041
2025/04/11 11:16:05.632735142,1744362965,609565441,hemisphere,-0.0,0.0,0.16985691672660508,-0.9854687350901251
2025/04/11 11:16:05.659484914,1744362965,658875754,hemisphere,-0.0,0.0,0.16807647429192032,-0.9857739592774794
2025/04/11 11:16:05.712924495,1744362965,710474187,hemisphere,-0.0,0.0,0.16632990384393156,-0.9860701613411028
2025/04/11 11:16:05.760325198,1744362965,758998125,hemisphere,-0.0,0.0,0.16454838073853362,-0.9863690132989411
2025/04/11 11:16:05.818149998,1744362965,809467892,hemisphere,-0.0,0.0,0.16280937190099956,-0.9866575436397382
2025/04/11 11:16:05.861040562,1744362965,859668253,hemisphere,-0.0,0.0,0.16107846984575652,-0.9869416024021633
2025/04/11 11:16:05.909490718,1744362965,908807931,hemisphere,-0.0,0.0,0.15939014775998897,-0.9872156708627801
2025/04/11 11:16:05.960422417,1744362965,959727133,hemisphere,-0.0,0.0,0.1577013593711729,-0.9874868511795406
2025/04/11 11:16:06.11090977,1744362966,9067804,hemisphere,-0.0,0.0,0.1560034898242752,-0.9877565039839764
2025/04/11 11:16:06.62960802,1744362966,62039080,hemisphere,-0.0,0.0,0.15433102554816464,-0.9880191974618974
2025/04/11 11:16:06.110019499,1744362966,109068306,hemisphere,-0.0,0.0,0.1526753676372747,-0.988276394596584
2025/04/11 11:16:06.160442284,1744362966,159602691,hemisphere,-0.0,0.0,0.15097614817511548,-0.9885374058083011
2025/04/11 11:16:06.210510393,1744362966,209923417,hemisphere,-0.0,0.0,0.14929374022121783,-0.9887928899070622
2025/04/11 11:16:06.263499526,1744362966,259088353,hemisphere,-0.0,0.0,0.14761953099187386,-0.9890442225046053
2025/04/11 11:16:06.312275328,1744362966,310136782,hemisphere,-0.0,0.0,0.14592763222614177,-0.989295267426703
2025/04/11 11:16:06.360154523,1744362966,359164057,hemisphere,-0.0,0.0,0.1442698480361519,-0.9895383827561343
2025/04/11 11:16:06.410255149,1744362966,408951998,hemisphere,-0.0,0.0,0.1426030213755055,-0.9897799645853502
2025/04/11 11:16:06.462662677,1744362966,461587597,hemisphere,-0.0,0.0,0.14093579019673344,-0.9900187387325668
2025/04/11 11:16:06.510307055,1744362966,509541414,hemisphere,-0.0,0.0,0.13932000865337693,-0.9902474110992783
2025/04/11 11:16:06.564296755,1744362966,560978638,hemisphere,-0.0,0.0,0.1377124996012726,-0.9904722446659319
2025/04/11 11:16:06.614338320,1744362966,611735386,hemisphere,-0.0,0.0,0.13612191858655867,-0.9906920930744902
2025/04/11 11:16:06.662261904,1744362966,660102780,hemisphere,-0.0,0.0,0.13451369195936455,-0.9909117350579018
2025/04/11 11:16:06.710487484,1744362966,709576424,hemisphere,-0.0,0.0,0.13297430445482292,-0.9911194854076657
2025/04/11 11:16:06.761199210,1744362966,759743018,hemisphere,-0.0,0.0,0.1313480861872198,-0.9913363103684616
2025/04/11 11:16:06.811053968,1744362966,809568586,hemisphere,-0.0,0.0,0.12979073734846938,-0.9915414083630298
2025/04/11 11:16:06.862904823,1744362966,859056062,hemisphere,-0.0,0.0,0.12821575904526536,-0.991746297765939
2025/04/11 11:16:06.909933486,1744362966,909513267,hemisphere,-0.0,0.0,0.12660583169486128,-0.9919531054343509
2025/04/11 11:16:06.961303116,1744362966,959366817,hemisphere,-0.0,0.0,0.12507349425073871,-0.9921474794786864
2025/04/11 11:16:07.9861233,1744362967,9392212,hemisphere,-0.0,0.0,0.12347157973500891,-0.9923481087792435
2025/04/11 11:16:07.61471002,1744362967,60242271,hemisphere,-0.0,0.0,0.12192131283304002,-0.9925397692168653
2025/04/11 11:16:07.109595646,1744362967,108869185,hemisphere,-0.0,0.0,0.12038807480704011,-0.9927269067796312
2025/04/11 11:16:07.163019188,1744362967,160570092,hemisphere,-0.0,0.0,0.1188458847609498,-0.9929127130193203
2025/04/11 11:16:07.213225889,1744362967,209615410,hemisphere,-0.0,0.0,0.1173640725258054,-0.9930889559753233
2025/04/11 11:16:07.271224278,1744362967,263655521,hemisphere,-0.0,0.0,0.1158559953370168,-0.9932660209352121
2025/04/11 11:16:07.320404869,1744362967,309769198,hemisphere,-0.0,0.0,0.11433031219476592,-0.9934427913641769
2025/04/11 11:16:07.360744514,1744362967,360081384,hemisphere,-0.0,0.0,0.11282170122702571,-0.9936152493456608
2025/04/11 11:16:07.412229834,1744362967,409637083,hemisphere,-0.0,0.0,0.1113735368208516,-0.9937786148312986
2025/04/11 11:16:07.460224733,1744362967,458997555,hemisphere,-0.0,0.0,0.10992513587193924,-0.9939398696619105
2025/04/11 11:16:07.510424064,1744362967,509436112,hemisphere,-0.0,0.0,0.10847650145650077,-0.9940990134950128
2025/04/11 11:16:07.560323703,1744362967,559159754,hemisphere,-0.0,0.0,0.10710572500831264,-0.9942476369951521
2025/04/11 11:16:07.615001541,1744362967,610090106,hemisphere,-0.0,0.0,0.10574342266349411,-0.9943934475666107
2025/04/11 11:16:07.661270326,1744362967,659198606,hemisphere,-0.0,0.0,0.1043896007967275,-0.9945364806006364
2025/04/11 11:16:07.713602560,1744362967,711039765,hemisphere,-0.0,0.0,0.10311370694922685,-0.994669575004277
2025/04/11 11:16:07.761059043,1744362967,760324839,hemisphere,-0.0,0.0,0.10176819295402986,-0.9948081397449818
2025/04/11 11:16:07.809729761,1744362967,808929149,hemisphere,-0.0,0.0,0.10047458781756648,-0.9949396249033858
2025/04/11 11:16:07.861685806,1744362967,859626686,hemisphere,-0.0,0.0,0.09919818003115288,-0.9950676967314872
2025/04/11 11:16:07.912263291,1744362967,909209917,hemisphere,-0.0,0.0,0.09790423957310952,-0.9951958399599604
2025/04/11 11:16:07.964983767,1744362967,964269946,hemisphere,-0.0,0.0,0.09667961995768105,-0.9953155535230214
2025/04/11 11:16:08.11701803,1744362968,10585800,hemisphere,-0.0,0.0,0.09547222754899638,-0.9954320940008077
2025/04/11 11:16:08.59819148,1744362968,58893328,hemisphere,-0.0,0.0,0.09424731907423689,-0.995548814899259
2025/04/11 11:16:08.109826133,1744362968,109229710,hemisphere,-0.0,0.0,0.0931439105209732,-0.995652656267667
2025/04/11 11:16:08.164412778,1744362968,160866350,hemisphere,-0.0,0.0,0.09197087050306214,-0.9957616978870542
2025/04/11 11:16:08.212610282,1744362968,209846173,hemisphere,-0.0,0.0,0.09080639343373573,-0.9958685650785236
2025/04/11 11:16:08.262557425,1744362968,259186994,hemisphere,-0.0,0.0,0.08972870698578608,-0.995966243977505
2025/04/11 11:16:08.310762766,1744362968,309610137,hemisphere,-0.0,0.0,0.08865091547007496,-0.9960627566505624
2025/04/11 11:16:08.360201060,1744362968,359295844,hemisphere,-0.0,0.0,0.08757302014864111,-0.9961581029846848
2025/04/11 11:16:08.419769186,1744362968,409385491,hemisphere,-0.0,0.0,0.08649502228364477,-0.9962522828682261
2025/04/11 11:16:08.463131033,1744362968,461044144,hemisphere,-0.0,0.0,0.08542561788706757,-0.9963445507496956
2025/04/11 11:16:08.510536173,1744362968,509710135,hemisphere,-0.0,0.0,0.08439959269607385,-0.9964319890252104
2025/04/11 11:16:08.567004675,1744362968,559579316,hemisphere,-0.0,0.0,0.08339087052394538,-0.996516915417525
2025/04/11 11:16:08.620096884,1744362968,609351823,hemisphere,-0.0,0.0,0.08236466892025167,-0.9966022583326095
2025/04/11 11:16:08.660229151,1744362968,658942991,hemisphere,-0.0,0.0,0.08139056625318869,-0.9966822842435724
2025/04/11 11:16:08.715162686,1744362968,709405245,hemisphere,-0.0,0.0,0.0803989890555317,-0.9967627614226208
2025/04/11 11:16:08.760389850,1744362968,759053230,hemisphere,-0.0,0.0,0.0794160313735285,-0.9968415591059989
2025/04/11 11:16:08.819145605,1744362968,814758994,hemisphere,-0.0,0.0,0.07838949757732634,-0.9969228087818908
2025/04/11 11:16:08.860418181,1744362968,859172476,hemisphere,-0.0,0.0,0.0774237839622153,-0.9969982736579699
2025/04/11 11:16:08.910340871,1744362968,908894742,hemisphere,-0.0,0.0,0.0764666987992807,-0.9970721357929627
2025/04/11 11:16:08.960417133,1744362968,959242513,hemisphere,-0.0,0.0,0.07542252556359293,-0.9971516648121334
2025/04/11 11:16:09.13317560,1744362969,12759777,hemisphere,-0.0,0.0,0.07448269890174739,-0.9972223059901497
2025/04/11 11:16:09.61998016,1744362969,59791233,hemisphere,-0.0,0.0,0.0735428060795776,-0.9972920613711621
2025/04/11 11:16:09.113161665,1744362969,109236298,hemisphere,-0.0,0.0,0.07262025515297206,-0.99735966358256
2025/04/11 11:16:09.166228599,1744362969,163021832,hemisphere,-0.0,0.0,0.07168893789717164,-0.9974270380249252
2025/04/11 11:16:09.213900392,1744362969,209345264,hemisphere,-0.0,0.0,0.07078367243205462,-0.997491690049111
2025/04/11 11:16:09.259393951,1744362969,258762247,hemisphere,-0.0,0.0,0.06992187516768189,-0.997552470486157
2025/04/11 11:16:09.309904563,1744362969,309247143,hemisphere,-0.0,0.0,0.06903390825639945,-0.997614314006594
2025/04/11 11:16:09.360163682,1744362969,359040212,hemisphere,-0.0,0.0,0.06818941838404256,-0.997672392732427
2025/04/11 11:16:09.415970581,1744362969,409431494,hemisphere,-0.0,0.0,0.06736229331053295,-0.997728581047945
2025/04/11 11:16:09.477692999,1744362969,459351997,hemisphere,-0.0,0.0,0.06649158533235822,-0.9977869858241236
2025/04/11 11:16:09.515531662,1744362969,509600665,hemisphere,-0.0,0.0,0.0656556580264227,-0.9978423395352181
2025/04/11 11:16:09.561335598,1744362969,559254819,hemisphere,-0.0,0.0,0.06481097634429,-0.9978975585426091
2025/04/11 11:16:09.609680880,1744362969,608861169,hemisphere,-0.0,0.0,0.06401850078283758,-0.9979487118872983
2025/04/11 11:16:09.671506470,1744362969,664319113,hemisphere,-0.0,0.0,0.06317372964468976,-0.9980025450282077
2025/04/11 11:16:09.715983602,1744362969,709094869,hemisphere,-0.0,0.0,0.062416009790023805,-0.9980502200399997
2025/04/11 11:16:09.761005809,1744362969,759666342,hemisphere,-0.0,0.0,0.06159728354730241,-0.9981010843895488
2025/04/11 11:16:09.813012681,1744362969,809174193,hemisphere,-0.0,0.0,0.06079593687273949,-0.9981502161797922
2025/04/11 11:16:09.867639003,1744362969,858913566,hemisphere,-0.0,0.0,0.059985840081636446,-0.9981992281051415
2025/04/11 11:16:09.911904642,1744362969,909381703,hemisphere,-0.0,0.0,0.05914085833014593,-0.9982496475711743
2025/04/11 11:16:09.967232562,1744362969,965512594,hemisphere,-0.0,0.0,0.05831325780381227,-0.9982983341488185
2025/04/11 11:16:10.11789977,1744362970,10100841,hemisphere,-0.0,0.0,0.05744205606794147,-0.9983488419358674
2025/04/11 11:16:10.65394910,1744362970,62119292,hemisphere,-0.0,0.0,0.05659694858200526,-0.9983971080743402
2025/04/11 11:16:10.116221725,1744362970,109812140,hemisphere,-0.0,0.0,0.05571694821495266,-0.9984466043217396
2025/04/11 11:16:10.162508194,1744362970,159178878,hemisphere,-0.0,0.0,0.05484561807756419,-0.9984948463450826
2025/04/11 11:16:10.214184292,1744362970,212965441,hemisphere,-0.0,0.0,0.054035243551812266,-0.99853902900903
2025/04/11 11:16:10.262974103,1744362970,260447234,hemisphere,-0.0,0.0,0.05322483343526149,-0.9985825539762793
2025/04/11 11:16:10.312548912,1744362970,309657908,hemisphere,-0.0,0.0,0.052466676094607485,-0.9986226754383177
2025/04/11 11:16:10.361205937,1744362970,359808048,hemisphere,-0.0,0.0,0.051682343577985006,-0.9986635746648053
2025/04/11 11:16:10.410117659,1744362970,409461583,hemisphere,-0.0,0.0,0.0509415558090604,-0.9987016360714307
2025/04/11 11:16:10.463052833,1744362970,459542721,hemisphere,-0.0,0.0,0.05021817129017296,-0.9987382716569295
2025/04/11 11:16:10.511476575,1744362970,510853805,hemisphere,-0.0,0.0,0.04947732851644995,-0.9987752469714472
2025/04/11 11:16:10.559728790,1744362970,558949974,hemisphere,-0.0,0.0,0.04872774224154495,-0.9988120980124547
2025/04/11 11:16:10.615059146,1744362970,609493844,hemisphere,-0.0,0.0,0.04799556170710795,-0.9988475489565057
2025/04/11 11:16:10.665142828,1744362970,659191994,hemisphere,-0.0,0.0,0.04727207227460279,-0.9988820506860981
2025/04/11 11:16:10.710766097,1744362970,709532038,hemisphere,-0.0,0.0,0.046513689266232644,-0.998917652617494
2025/04/11 11:16:10.760396920,1744362970,759365956,hemisphere,-0.0,0.0,0.04582501938850487,-0.9989494820049927
2025/04/11 11:16:10.809958914,1744362970,808874483,hemisphere,-0.0,0.0,0.045101456694075594,-0.9989824115589185
2025/04/11 11:16:10.860412057,1744362970,859321362,hemisphere,-0.0,0.0,0.04436915228758345,-0.9990152042513073
2025/04/11 11:16:10.909572229,1744362970,908920164,hemisphere,-0.0,0.0,0.04365426070046049,-0.9990466983693486
2025/04/11 11:16:10.960320868,1744362970,959387702,hemisphere,-0.0,0.0,0.04294806535552742,-0.9990773061591467
2025/04/11 11:16:11.10066822,1744362971,9136898,hemisphere,-0.0,0.0,0.04224184855164925,-0.9991074147612656
2025/04/11 11:16:11.69143726,1744362971,61164206,hemisphere,-0.0,0.0,0.04152689152472987,-0.9991373865891984
2025/04/11 11:16:11.117711801,1744362971,109128990,hemisphere,-0.0,0.0,0.040794474476004906,-0.99916755894706
2025/04/11 11:16:11.162041753,1744362971,159587235,hemisphere,-0.0,0.0,0.04005331586458404,-0.9991975439762909
2025/04/11 11:16:11.210416792,1744362971,209486910,hemisphere,-0.0,0.0,0.03931213521521998,-0.9992269792318562
2025/04/11 11:16:11.263707989,1744362971,260694959,hemisphere,-0.0,0.0,0.03855349262493961,-0.9992565377351398
2025/04/11 11:16:11.311603423,1744362971,309406646,hemisphere,-0.0,0.0,0.03782098903274092,-0.9992845304459512
2025/04/11 11:16:11.359975996,1744362971,359278707,hemisphere,-0.0,0.0,0.037044861871292974,-0.9993136035344145
2025/04/11 11:16:11.412682841,1744362971,409303241,hemisphere,-0.0,0.0,0.03631231685301047,-0.9993404903458913
2025/04/11 11:16:11.460030983,1744362971,459228979,hemisphere,-0.0,0.0,0.035536146684136086,-0.9993683916748837
2025/04/11 11:16:11.510082660,1744362971,509084886,hemisphere,-0.0,0.0,0.034768676450534955,-0.9993953867903724
2025/04/11 11:16:11.560272153,1744362971,559389921,hemisphere,-0.0,0.0,0.03406223685213725,-0.9994197136441871
2025/04/11 11:16:11.609586872,1744362971,609003084,hemisphere,-0.0,0.0,0.03330344944744555,-0.9994452862737917
2025/04/11 11:16:11.659940006,1744362971,659459580,hemisphere,-0.0,0.0,0.03257953092082328,-0.9994691461796003
2025/04/11 11:16:11.709817794,1744362971,709162840,hemisphere,-0.0,0.0,0.031890484151984956,-0.9994913691576092
2025/04/11 11:16:11.760271084,1744362971,758792674,hemisphere,-0.0,0.0,0.031210144622476548,-0.999512844776216
2025/04/11 11:16:11.809840889,1744362971,809318508,hemisphere,-0.0,0.0,0.030529790632587893,-0.9995338572974557
2025/04/11 11:16:11.863761331,1744362971,862868877,hemisphere,-0.0,0.0,0.02984069973868093,-0.9995546671588833
2025/04/11 11:16:11.910288349,1744362971,909414065,hemisphere,-0.0,0.0,0.029125425839763016,-0.9995757647970726
2025/04/11 11:16:11.959873721,1744362971,959137874,hemisphere,-0.0,0.0,0.02843630638834905,-0.9995956064724314
2025/04/11 11:16:12.9962283,1744362972,8912504,hemisphere,-0.0,0.0,0.02779078982664994,-0.9996137614102815
2025/04/11 11:16:12.61794195,1744362972,59245832,hemisphere,-0.0,0.0,0.02711909137484316,-0.9996322098066883
2025/04/11 11:16:12.133832715,1744362972,108939726,hemisphere,-0.0,0.0,0.026447380678247208,-0.999650206850006
2025/04/11 11:16:12.160084207,1744362972,159341389,hemisphere,-0.0,0.0,0.025845447952112514,-0.9996659506155817
2025/04/11 11:16:12.220420176,1744362972,215619779,hemisphere,-0.0,0.0,0.025191162628453004,-0.9996826523079346
2025/04/11 11:16:12.260907638,1744362972,259570847,hemisphere,-0.0,0.0,0.024597934600123248,-0.9996974250308981
2025/04/11 11:16:12.309748690,1744362972,309186395,hemisphere,-0.0,0.0,0.023961077228897933,-0.9997128921735634
2025/04/11 11:16:12.359516824,1744362972,358884665,hemisphere,-0.0,0.0,0.023367831472451025,-0.9997269349438751
2025/04/11 11:16:12.409826384,1744362972,409254932,hemisphere,-0.0,0.0,0.022765853103650143,-0.9997408243802306
2025/04/11 11:16:12.460200733,1744362972,458994123,hemisphere,-0.0,0.0,0.02218131548237959,-0.9997539643549663
2025/04/11 11:16:12.510213426,1744362972,509454541,hemisphere,-0.0,0.0,0.021614219496741607,-0.999766385469899
2025/04/11 11:16:12.559590637,1744362972,559077217,hemisphere,-0.0,0.0,0.021029667127125923,-0.9997788520970637
2025/04/11 11:16:12.610003750,1744362972,609501586,hemisphere,-0.0,0.0,0.020497456473461365,-0.9997899050691194
2025/04/11 11:16:12.660075235,1744362972,659268106,hemisphere,-0.0,0.0,0.019912890543168672,-0.9998017187373783
2025/04/11 11:16:12.709617300,1744362972,708919160,hemisphere,-0.0,0.0,0.01936321785789675,-0.9998125153218416
2025/04/11 11:16:12.759959084,1744362972,759342377,hemisphere,-0.0,0.0,0.018830989520554307,-0.9998226811958593
2025/04/11 11:16:12.810306299,1744362972,809330811,hemisphere,-0.0,0.0,0.018281305474075367,-0.9998328829710311
2025/04/11 11:16:12.862223544,1744362972,861227689,hemisphere,-0.0,0.0,0.017766516988256056,-0.9998421629807908
2025/04/11 11:16:12.909640162,1744362972,909129742,hemisphere,-0.0,0.0,0.017295350513928456,-0.9998504242388461
2025/04/11 11:16:12.959888500,1744362972,958935795,hemisphere,-0.0,0.0,0.016745651446994313,-0.9998597817482289
2025/04/11 11:16:13.9982651,1744362973,9258006,hemisphere,-0.0,0.0,0.01626575129222859,-0.9998677039163228
2025/04/11 11:16:13.60456094,1744362973,58985946,hemisphere,-0.0,0.0,0.015768396270203208,-0.9998756711106966
2025/04/11 11:16:13.109900565,1744362973,109381317,hemisphere,-0.0,0.0,0.015297214227399412,-0.9998829907728609
2025/04/11 11:16:13.159792905,1744362973,159099495,hemisphere,-0.0,0.0,0.014887108569604748,-0.9998891808587774
2025/04/11 11:16:13.210384794,1744362973,209595615,hemisphere,-0.0,0.0,0.014415920258334007,-0.9998960852224121
2025/04/11 11:16:13.262397144,1744362973,259264590,hemisphere,-0.0,0.0,0.014058164026505678,-0.9999011791293198
2025/04/11 11:16:13.309505749,1744362973,308927993,hemisphere,-0.0,0.0,0.01368295433848714,-0.9999063839983076
2025/04/11 11:16:13.359806941,1744362973,359283022,hemisphere,-0.0,0.0,0.013246661584498411,-0.9999122591292027
2025/04/11 11:16:13.409834032,1744362973,409034787,hemisphere,-0.0,0.0,0.012897625561496628,-0.9999168221681619
2025/04/11 11:16:13.460615453,1744362973,460120326,hemisphere,-0.0,0.0,0.012539862007327466,-0.9999213728393034
2025/04/11 11:16:13.509834829,1744362973,509158369,hemisphere,-0.0,0.0,0.012173370848694333,-0.9999259017758168
2025/04/11 11:16:13.559519115,1744362973,558854721,hemisphere,-0.0,0.0,0.011824330128899213,-0.9999300901648089
2025/04/11 11:16:13.610264302,1744362973,609276684,hemisphere,-0.0,0.0,0.01150146617941662,-0.9999338559503442
2025/04/11 11:16:13.659919455,1744362973,659062086,hemisphere,-0.0,0.0,0.011178601030845097,-0.9999375174874644
2025/04/11 11:16:13.709849036,1744362973,709297809,hemisphere,-0.0,0.0,0.010908091494182261,-0.9999405050001497
2025/04/11 11:16:13.760937387,1744362973,759841628,hemisphere,-0.0,0.0,0.010655033462598554,-0.9999432335197388
2025/04/11 11:16:13.809943759,1744362973,809447698,hemisphere,-0.0,0.0,0.010454331779106634,-0.9999453519803232
2025/04/11 11:16:13.863586615,1744362973,861936523,hemisphere,-0.0,0.0,0.0102361772978919,-0.9999476089647528
2025/04/11 11:16:13.909381667,1744362973,908843666,hemisphere,-0.0,0.0,0.010035474744629276,-0.9999496433554291
2025/04/11 11:16:13.959922778,1744362973,959240093,hemisphere,-0.0,0.0,0.00987840289879143,-0.999951207387725
2025/04/11 11:16:14.9762167,1744362974,8982058,hemisphere,-0.0,0.0,0.009738783275527067,-0.9999525769256822
2025/04/11 11:16:14.59958333,1744362974,59402593,hemisphere,-0.0,0.0,0.009607889706231283,-0.9999538431624696
