time,header_stamp_secs,header_stamp_nsecs,header_frame_id,twist_linear_x,twist_linear_y,twist_linear_z,twist_angular_x,twist_angular_y,twist_angular_z
2025/04/11 11:15:45.295787074,1744362945,284562403,hemisphere,-0.007940296614140904,0.061220553200026874,0.0,0.0,0.0,0.0
2025/04/11 11:15:45.333832437,1744362945,333358108,hemisphere,0.022625342396427068,0.05743777786337402,0.0,0.0,0.0,0.0
2025/04/11 11:15:45.387284454,1744362945,386973656,hemisphere,-0.042914858161801364,0.03688654625505008,0.0,0.0,0.0,0.0
2025/04/11 11:15:45.433589672,1744362945,433051003,hemisphere,0.007728916739474813,0.0560585960554467,0.0,0.0,0.0,0.0
2025/04/11 11:15:45.484853400,1744362945,483464876,hemisphere,0.004656495703781183,0.056396980357410496,0.0,0.0,0.0,0.0
2025/04/11 11:15:45.533782461,1744362945,533428914,hemisphere,-0.04119318052766037,0.030816436234719618,0.0,0.0,0.0,0.0
2025/04/11 11:15:45.583284406,1744362945,583028128,hemisphere,0.01875416288401199,0.04790419854994867,0.0,0.0,0.0,0.0
2025/04/11 11:15:45.633724711,1744362945,633369258,hemisphere,0.0057088374227570885,0.05630019112715344,0.0,0.0,0.0,0.0
2025/04/11 11:15:45.682712567,1744362945,682389996,hemisphere,0.023025797096701557,0.05169250442506155,0.0,0.0,0.0,0.0
2025/04/11 11:15:45.733912902,1744362945,733427669,hemisphere,0.014970385348243914,0.05457279457933745,0.0,0.0,0.0,0.0
2025/04/11 11:15:45.783535230,1744362945,783167057,hemisphere,0.005401881188774071,0.061496537496514604,0.0,0.0,0.0,0.0
2025/04/11 11:15:45.833258894,1744362945,832879999,hemisphere,0.044459602692118134,0.04282929106227256,0.0,0.0,0.0,0.0
2025/04/11 11:15:45.890459882,1744362945,889948653,hemisphere,0.018792771057825383,0.06418308902237613,0.0,0.0,0.0,0.0
2025/04/11 11:15:45.934720307,1744362945,934192276,hemisphere,0.042141953007349554,0.0519296924428832,0.0,0.0,0.0,0.0
2025/04/11 11:15:45.983832645,1744362945,983417613,hemisphere,0.03357021414725264,0.05784183505555212,0.0,0.0,0.0,0.0
2025/04/11 11:15:46.39277095,1744362946,37483413,hemisphere,0.027701011405687034,0.06648198598808698,0.0,0.0,0.0,0.0
2025/04/11 11:15:46.83827028,1744362946,83310656,hemisphere,0.05646367528639787,0.05259798301823347,0.0,0.0,0.0,0.0
2025/04/11 11:15:46.267147663,1744362946,133980529,hemisphere,0.0252248596216846,0.07292736730131193,0.0,0.0,0.0,0.0
2025/04/11 11:15:46.267590029,1744362946,182926117,hemisphere,0.037930563803193804,0.07305060808717348,0.0,0.0,0.0,0.0
2025/04/11 11:15:46.271103456,1744362946,233472249,hemisphere,0.04595630426796634,0.0682871665129259,0.0,0.0,0.0,0.0
2025/04/11 11:15:46.284101690,1744362946,283134335,hemisphere,0.04714421362306202,0.07366069046228621,0.0,0.0,0.0,0.0
2025/04/11 11:15:46.333947677,1744362946,333665072,hemisphere,0.04954795072406987,0.07206576702264947,0.0,0.0,0.0,0.0
2025/04/11 11:15:46.390384561,1744362946,386153746,hemisphere,0.03263401561928607,0.081138740574881,0.0,0.0,0.0,0.0
2025/04/11 11:15:46.434022895,1744362946,433683269,hemisphere,0.047290170194926276,0.07961406787069787,0.0,0.0,0.0,0.0
2025/04/11 11:15:46.484262584,1744362946,483974288,hemisphere,0.0595221326569221,0.07093571543275606,0.0,0.0,0.0,0.0
2025/04/11 11:15:46.534026626,1744362946,533670991,hemisphere,0.03375749319122158,0.0862275573899076,0.0,0.0,0.0,0.0
2025/04/11 11:15:46.584461072,1744362946,584105852,hemisphere,0.04127452071891322,0.08289254453453088,0.0,0.0,0.0,0.0
2025/04/11 11:15:46.633798472,1744362946,633394050,hemisphere,0.040941437058503095,0.0830575627596296,0.0,0.0,0.0,0.0
2025/04/11 11:15:46.683602554,1744362946,682877383,hemisphere,0.03441867138576872,0.08596577842388008,0.0,0.0,0.0,0.0
2025/04/11 11:15:46.733949825,1744362946,733453096,hemisphere,0.036300682936590396,0.08518814717037997,0.0,0.0,0.0,0.0
2025/04/11 11:15:46.829107950,1744362946,782926730,hemisphere,0.03767857706732982,0.08458773451373708,0.0,0.0,0.0,0.0
2025/04/11 11:15:46.834444013,1744362946,833799540,hemisphere,0.03307922934100956,0.08649002593472886,0.0,0.0,0.0,0.0
2025/04/11 11:15:46.890415528,1744362946,889695904,hemisphere,0.02753691333957919,0.08841085003388265,0.0,0.0,0.0,0.0
2025/04/11 11:15:46.938302373,1744362946,933817912,hemisphere,-0.0002442216655612854,0.08745521455748491,0.0,0.0,0.0,0.0
2025/04/11 11:15:46.996989624,1744362946,995347249,hemisphere,0.03183806463930405,0.08695457227776282,0.0,0.0,0.0,0.0
2025/04/11 11:15:47.39275030,1744362947,38670853,hemisphere,0.03658554728615667,0.07373341672611114,0.0,0.0,0.0,0.0
2025/04/11 11:15:47.92025727,1744362947,84570353,hemisphere,-0.003143680636043032,0.08739903586182296,0.0,0.0,0.0,0.0
2025/04/11 11:15:47.154080913,1744362947,150978126,hemisphere,0.036804157377291286,0.07362454082764487,0.0,0.0,0.0,0.0
2025/04/11 11:15:47.185273597,1744362947,183393740,hemisphere,0.01361358895230111,0.08117751664205894,0.0,0.0,0.0,0.0
2025/04/11 11:15:47.233729506,1744362947,233198586,hemisphere,0.03623944669082918,0.06812779864326092,0.0,0.0,0.0,0.0
2025/04/11 11:15:47.283853828,1744362947,283284817,hemisphere,-0.0005252527823362173,0.07716487901855872,0.0,0.0,0.0,0.0
2025/04/11 11:15:47.334062916,1744362947,333437408,hemisphere,0.012098130101157572,0.07621239854833084,0.0,0.0,0.0,0.0
2025/04/11 11:15:47.418425820,1744362947,414432028,hemisphere,0.03307763264156349,0.0639771108494903,0.0,0.0,0.0,0.0
2025/04/11 11:15:47.444771370,1744362947,440511564,hemisphere,0.0050490952041012055,0.07184502161902466,0.0,0.0,0.0,0.0
2025/04/11 11:15:47.516185035,1744362947,483138123,hemisphere,0.009076660311586666,0.07144798619559732,0.0,0.0,0.0,0.0
2025/04/11 11:15:47.538083779,1744362947,535251492,hemisphere,0.024762939163903156,0.06763133399381553,0.0,0.0,0.0,0.0
2025/04/11 11:15:47.583881341,1744362947,583465017,hemisphere,-0.008601987998652647,0.0663222659666958,0.0,0.0,0.0,0.0
2025/04/11 11:15:47.641226512,1744362947,632936365,hemisphere,0.018355458648127702,0.06430951949986077,0.0,0.0,0.0,0.0
2025/04/11 11:15:47.688516018,1744362947,686186487,hemisphere,0.02917213388455772,0.05440579977409851,0.0,0.0,0.0,0.0
2025/04/11 11:15:47.733459450,1744362947,733019249,hemisphere,0.010550066291067828,0.06082516375392616,0.0,0.0,0.0,0.0
2025/04/11 11:15:47.858897552,1744362947,783444817,hemisphere,0.015351135170214032,0.06509208714945248,0.0,0.0,0.0,0.0
2025/04/11 11:15:47.883910746,1744362947,883423334,hemisphere,0.006431459122190759,0.061397400417260724,0.0,0.0,0.0,0.0
2025/04/11 11:15:47.933704056,1744362947,933285237,hemisphere,0.02478205795966419,0.062116718874792025,0.0,0.0,0.0,0.0
2025/04/11 11:15:47.983648569,1744362947,983120359,hemisphere,0.041440283524971706,0.05249133320707388,0.0,0.0,0.0,0.0
2025/04/11 11:15:48.34266493,1744362948,33579474,hemisphere,0.00596830499691596,0.06661093375677815,0.0,0.0,0.0,0.0
2025/04/11 11:15:48.90201475,1744362948,89385015,hemisphere,0.04092527026262418,0.052893850440455435,0.0,0.0,0.0,0.0
2025/04/11 11:15:48.137373372,1744362948,134546552,hemisphere,0.023257884324527262,0.06816356292452079,0.0,0.0,0.0,0.0
2025/04/11 11:15:48.185598743,1744362948,183383896,hemisphere,0.03159285765664876,0.058945131313559974,0.0,0.0,0.0,0.0
2025/04/11 11:15:48.238325257,1744362948,232973790,hemisphere,0.014974261998661685,0.07044836386612278,0.0,0.0,0.0,0.0
2025/04/11 11:15:48.283743064,1744362948,283367591,hemisphere,0.053083364281956896,0.04867604061884306,0.0,0.0,0.0,0.0
2025/04/11 11:15:48.421012648,1744362948,333039739,hemisphere,-0.0012255477632305389,0.07715693408316711,0.0,0.0,0.0,0.0
2025/04/11 11:15:48.427745023,1744362948,386313403,hemisphere,0.03474462258881722,0.06890214543535496,0.0,0.0,0.0,0.0
2025/04/11 11:15:48.454243035,1744362948,433989269,hemisphere,0.028319267054727846,0.07178240423611597,0.0,0.0,0.0,0.0
2025/04/11 11:15:48.493671720,1744362948,483629959,hemisphere,0.04437123861596799,0.06313388652790976,0.0,0.0,0.0,0.0
2025/04/11 11:15:48.537289905,1744362948,534095514,hemisphere,0.019386178610339748,0.07469183705949506,0.0,0.0,0.0,0.0
2025/04/11 11:15:48.584781890,1744362948,583681351,hemisphere,0.040794231646529434,0.07149090625179728,0.0,0.0,0.0,0.0
2025/04/11 11:15:48.634761300,1744362948,633733082,hemisphere,0.027218565131516565,0.07768055563984698,0.0,0.0,0.0,0.0
2025/04/11 11:15:48.688500737,1744362948,683393082,hemisphere,0.028624016640384897,0.07717373052862572,0.0,0.0,0.0,0.0
2025/04/11 11:15:48.734390475,1744362948,733660585,hemisphere,0.03559136736218161,0.07421841807546294,0.0,0.0,0.0,0.0
2025/04/11 11:15:48.783673482,1744362948,783286382,hemisphere,0.048937425095582104,0.06618343778732155,0.0,0.0,0.0,0.0
2025/04/11 11:15:48.842131817,1744362948,834396915,hemisphere,0.0023961283256064454,0.08742272454324948,0.0,0.0,0.0,0.0
2025/04/11 11:15:48.893261199,1744362948,892604876,hemisphere,0.03810459942778683,0.07871793759979714,0.0,0.0,0.0,0.0
2025/04/11 11:15:48.938572861,1744362948,936906739,hemisphere,0.04487273716110507,0.07506604863177513,0.0,0.0,0.0,0.0
2025/04/11 11:15:48.986964666,1744362948,986489181,hemisphere,0.04306517601745602,0.07611744091930035,0.0,0.0,0.0,0.0
2025/04/11 11:15:49.36496608,1744362949,34036317,hemisphere,0.01670228987498079,0.08584583688478879,0.0,0.0,0.0,0.0
2025/04/11 11:15:49.84655220,1744362949,83697714,hemisphere,0.04680946776077743,0.07387386496908353,0.0,0.0,0.0,0.0
2025/04/11 11:15:49.134913615,1744362949,134471524,hemisphere,0.014264878081569739,0.08106560470169775,0.0,0.0,0.0,0.0
2025/04/11 11:15:49.189840323,1744362949,183681494,hemisphere,0.02876121529419058,0.08259096011258658,0.0,0.0,0.0,0.0
2025/04/11 11:15:49.234100178,1744362949,233437660,hemisphere,0.05008503194438731,0.06531928189641764,0.0,0.0,0.0,0.0
2025/04/11 11:15:49.286118622,1744362949,282997560,hemisphere,0.0055410818621516806,0.08212438994678076,0.0,0.0,0.0,0.0
2025/04/11 11:15:49.334770821,1744362949,334101980,hemisphere,0.013429368126017088,0.08120819591685242,0.0,0.0,0.0,0.0
2025/04/11 11:15:49.396731400,1744362949,386629448,hemisphere,0.04159023117985611,0.07103077982635482,0.0,0.0,0.0,0.0
2025/04/11 11:15:49.439021085,1744362949,433266673,hemisphere,0.03703527369232161,0.07350855402515276,0.0,0.0,0.0,0.0
2025/04/11 11:15:49.488967049,1744362949,483372616,hemisphere,-0.008267000374546758,0.07672255958478835,0.0,0.0,0.0,0.0
2025/04/11 11:15:49.535322321,1744362949,534521997,hemisphere,0.021632259499245483,0.07407253062634932,0.0,0.0,0.0,0.0
2025/04/11 11:15:49.585172212,1744362949,584052971,hemisphere,0.0063229215826126955,0.07690718501605871,0.0,0.0,0.0,0.0
2025/04/11 11:15:49.644777391,1744362949,633849382,hemisphere,0.03647703630446863,0.06800088430951934,0.0,0.0,0.0,0.0
2025/04/11 11:15:49.686101207,1744362949,683078087,hemisphere,0.011166140276879078,0.07635451365670017,0.0,0.0,0.0,0.0
2025/04/11 11:15:49.733790279,1744362949,733247246,hemisphere,0.02944328678383784,0.06572893850643624,0.0,0.0,0.0,0.0
2025/04/11 11:15:49.786637065,1744362949,786057636,hemisphere,-0.008590122781362734,0.07150811341672574,0.0,0.0,0.0,0.0
2025/04/11 11:15:49.856287570,1744362949,837978819,hemisphere,0.016042208290931434,0.07021287664644263,0.0,0.0,0.0,0.0
2025/04/11 11:15:49.912535563,1744362949,886883849,hemisphere,0.030403724647433298,0.0652902291417426,0.0,0.0,0.0,0.0
2025/04/11 11:15:49.935218333,1744362949,934451288,hemisphere,0.010235126150830009,0.07129125252437912,0.0,0.0,0.0,0.0
2025/04/11 11:15:49.987436484,1744362949,986867632,hemisphere,0.02176536928913492,0.06865470991509454,0.0,0.0,0.0,0.0
2025/04/11 11:15:50.35449864,1744362950,33604790,hemisphere,0.010782296485504802,0.07121055101820845,0.0,0.0,0.0,0.0
2025/04/11 11:15:50.92264775,1744362950,90418429,hemisphere,0.027108153768139635,0.06672592069878912,0.0,0.0,0.0,0.0
2025/04/11 11:15:50.149014472,1744362950,145977037,hemisphere,0.017911198317791067,0.06975951167144846,0.0,0.0,0.0,0.0
2025/04/11 11:15:50.194700993,1744362950,192943019,hemisphere,0.022757598913419552,0.0683322192345172,0.0,0.0,0.0,0.0
2025/04/11 11:15:50.244895361,1744362950,235174629,hemisphere,0.027457156683672098,0.06658306872371142,0.0,0.0,0.0,0.0
2025/04/11 11:15:50.291166087,1744362950,290579146,hemisphere,0.024242842727909285,0.06781950361281076,0.0,0.0,0.0,0.0
2025/04/11 11:15:50.349602971,1744362950,333172253,hemisphere,0.010384415643665872,0.0712696597828121,0.0,0.0,0.0,0.0
2025/04/11 11:15:50.393258197,1744362950,386749382,hemisphere,0.04378449099614475,0.0571849529336758,0.0,0.0,0.0,0.0
2025/04/11 11:15:50.435602043,1744362950,434773550,hemisphere,0.006565114480039792,0.07172237981050385,0.0,0.0,0.0,0.0
2025/04/11 11:15:50.483917735,1744362950,483101182,hemisphere,0.05460251963587707,0.046965576151388334,0.0,0.0,0.0,0.0
2025/04/11 11:15:50.554058620,1744362950,534148270,hemisphere,0.021826106576891022,0.07401564372569051,0.0,0.0,0.0,0.0
2025/04/11 11:15:50.608953852,1744362950,583243274,hemisphere,0.032502145951231486,0.06998789147416146,0.0,0.0,0.0,0.0
2025/04/11 11:15:50.633581737,1744362950,633063936,hemisphere,0.030597129696962665,0.07084144336997518,0.0,0.0,0.0,0.0
2025/04/11 11:15:50.684928553,1744362950,683445107,hemisphere,0.02913177279384271,0.07145652005466037,0.0,0.0,0.0,0.0
2025/04/11 11:15:50.777023564,1744362950,732996900,hemisphere,0.047285351680807726,0.06098188223445131,0.0,0.0,0.0,0.0
2025/04/11 11:15:50.785308523,1744362950,783453203,hemisphere,0.011185132474407736,0.08154760464822937,0.0,0.0,0.0,0.0
2025/04/11 11:15:50.837586987,1744362950,833857531,hemisphere,0.030180489113546604,0.07657843749516613,0.0,0.0,0.0,0.0
2025/04/11 11:15:50.885454981,1744362950,883903002,hemisphere,0.0509695919358602,0.06463141426756702,0.0,0.0,0.0,0.0
2025/04/11 11:15:50.941567532,1744362950,936776122,hemisphere,0.023856478528005105,0.08413882950077496,0.0,0.0,0.0,0.0
2025/04/11 11:15:50.985443578,1744362950,984782311,hemisphere,0.04365478663171596,0.06978093304387184,0.0,0.0,0.0,0.0
2025/04/11 11:15:51.70491685,1744362951,39381938,hemisphere,0.04350286428608315,0.07586814217063892,0.0,0.0,0.0,0.0
2025/04/11 11:15:51.121931345,1744362951,87750374,hemisphere,0.007045075239493084,0.0820090600312176,0.0,0.0,0.0,0.0
2025/04/11 11:15:51.152498902,1744362951,134134950,hemisphere,0.04084210132034656,0.07733302630348947,0.0,0.0,0.0,0.0
2025/04/11 11:15:51.184931451,1744362951,183244005,hemisphere,0.013882708446153032,0.0811319260127176,0.0,0.0,0.0,0.0
2025/04/11 11:15:51.242321984,1744362951,237163460,hemisphere,0.015472021471553713,0.08607607535837952,0.0,0.0,0.0,0.0
2025/04/11 11:15:51.294557237,1744362951,290906629,hemisphere,0.052478145238345486,0.06341264294032452,0.0,0.0,0.0,0.0
2025/04/11 11:15:51.350159248,1744362951,332966268,hemisphere,0.004912380580992911,0.08731748229618816,0.0,0.0,0.0,0.0
2025/04/11 11:15:51.396777509,1744362951,388155832,hemisphere,0.05011922617330072,0.06529304848238822,0.0,0.0,0.0,0.0
2025/04/11 11:15:51.434660607,1744362951,434090365,hemisphere,-0.00015802589190767795,0.08231095941702694,0.0,0.0,0.0,0.0
2025/04/11 11:15:51.484391505,1744362951,483868285,hemisphere,0.028340968516007127,0.07727812443317102,0.0,0.0,0.0,0.0
2025/04/11 11:15:51.588229299,1744362951,538642344,hemisphere,0.030193854112506843,0.07657316883978764,0.0,0.0,0.0,0.0
2025/04/11 11:15:51.603461250,1744362951,587126644,hemisphere,-0.011156666309584107,0.08155150402776494,0.0,0.0,0.0,0.0
2025/04/11 11:15:51.638026628,1744362951,636050529,hemisphere,0.06919080000520092,0.03416617682847238,0.0,0.0,0.0,0.0
2025/04/11 11:15:51.733530892,1744362951,684125035,hemisphere,-0.015582472203405667,0.07557698726771427,0.0,0.0,0.0,0.0
2025/04/11 11:15:51.793424267,1744362951,733923768,hemisphere,0.039593591612739766,0.06623474879274276,0.0,0.0,0.0,0.0
2025/04/11 11:15:51.811066995,1744362951,782670401,hemisphere,0.01689909921651524,0.07529352488829652,0.0,0.0,0.0,0.0
2025/04/11 11:15:51.838343642,1744362951,833583470,hemisphere,0.008601685935247351,0.07668575776182643,0.0,0.0,0.0,0.0
2025/04/11 11:15:51.908644824,1744362951,895860656,hemisphere,0.02196816610041516,0.0739736042289324,0.0,0.0,0.0,0.0
2025/04/11 11:15:51.934779753,1744362951,933680974,hemisphere,0.033803427960679824,0.06936874442096587,0.0,0.0,0.0,0.0
2025/04/11 11:15:51.987141815,1744362951,984599648,hemisphere,-0.005718705160073372,0.07695447261677715,0.0,0.0,0.0,0.0
2025/04/11 11:15:52.63683487,1744362952,34053671,hemisphere,0.040674868059955564,0.06557628803721176,0.0,0.0,0.0,0.0
2025/04/11 11:15:52.121819359,1744362952,83447419,hemisphere,0.017191916827251935,0.06994024942494163,0.0,0.0,0.0,0.0
2025/04/11 11:15:52.135515061,1744362952,134230172,hemisphere,0.021179375363224274,0.07420329173060858,0.0,0.0,0.0,0.0
2025/04/11 11:15:52.186175380,1744362952,183573565,hemisphere,0.024804412072539205,0.07307144165930919,0.0,0.0,0.0,0.0
2025/04/11 11:15:52.236599328,1744362952,233885406,hemisphere,0.051454166146750094,0.05750794058716406,0.0,0.0,0.0,0.0
2025/04/11 11:15:52.287549260,1744362952,283362735,hemisphere,0.01432727382057466,0.0758249541332168,0.0,0.0,0.0,0.0
2025/04/11 11:15:52.334335073,1744362952,333545321,hemisphere,0.044503368505057726,0.06304081722294842,0.0,0.0,0.0,0.0
2025/04/11 11:15:52.407238793,1744362952,391212429,hemisphere,0.030671297892671985,0.07080936329337477,0.0,0.0,0.0,0.0
2025/04/11 11:15:52.474400070,1744362952,434319770,hemisphere,0.024778829159749462,0.07849285724068095,0.0,0.0,0.0,0.0
2025/04/11 11:15:52.529249241,1744362952,486624556,hemisphere,0.03849042823545418,0.0727571711007604,0.0,0.0,0.0,0.0
2025/04/11 11:15:52.571136535,1744362952,542766178,hemisphere,0.0458463420205677,0.06207098652162122,0.0,0.0,0.0,0.0
2025/04/11 11:15:52.602310193,1744362952,588078283,hemisphere,0.018291934534099136,0.08025287623091276,0.0,0.0,0.0,0.0
2025/04/11 11:15:52.638058621,1744362952,634893899,hemisphere,0.020998244116217098,0.07958764198272068,0.0,0.0,0.0,0.0
2025/04/11 11:15:52.716331332,1744362952,693172805,hemisphere,0.03052767910733856,0.07644069479441783,0.0,0.0,0.0,0.0
2025/04/11 11:15:52.911004382,1744362952,733371418,hemisphere,0.05311736594960335,0.06287817146601744,0.0,0.0,0.0,0.0
2025/04/11 11:15:52.976951143,1744362952,783013997,hemisphere,0.010900410069179595,0.08158615123081674,0.0,0.0,0.0,0.0
2025/04/11 11:15:53.68473818,1744362952,836624910,hemisphere,0.04081918419468253,0.07147666202345035,0.0,0.0,0.0,0.0
2025/04/11 11:15:53.149814754,1744362952,883252092,hemisphere,0.022259593007577717,0.07924411354460953,0.0,0.0,0.0,0.0
2025/04/11 11:15:53.198605073,1744362952,933504402,hemisphere,0.001979597042758045,0.07714127066611269,0.0,0.0,0.0,0.0
2025/04/11 11:15:53.262438812,1744362952,987116463,hemisphere,0.030354162242544683,0.07650976308215342,0.0,0.0,0.0,0.0
2025/04/11 11:15:53.311576582,1744362953,34318451,hemisphere,0.011286063841472394,0.07633687973319557,0.0,0.0,0.0,0.0
2025/04/11 11:15:53.416192240,1744362953,86576036,hemisphere,0.025885679465705646,0.07269543344002358,0.0,0.0,0.0,0.0
2025/04/11 11:15:53.424532462,1744362953,134296947,hemisphere,0.03811584737138356,0.0670960253934281,0.0,0.0,0.0,0.0
2025/04/11 11:15:53.449478087,1744362953,187169603,hemisphere,0.02183902441120479,0.07401183322416055,0.0,0.0,0.0,0.0
2025/04/11 11:15:53.618370670,1744362953,238208471,hemisphere,0.005893294449991738,0.07694129921543989,0.0,0.0,0.0,0.0
2025/04/11 11:15:53.620977738,1744362953,287859551,hemisphere,0.056720042267120414,0.05232142247349768,0.0,0.0,0.0,0.0
2025/04/11 11:15:53.671906031,1744362953,338808261,hemisphere,-0.006551081627570056,0.07688808603381325,0.0,0.0,0.0,0.0
2025/04/11 11:15:53.693905139,1744362953,386573427,hemisphere,0.034948906133732784,0.06879875292830306,0.0,0.0,0.0,0.0
2025/04/11 11:15:53.757878048,1744362953,433932697,hemisphere,0.0010370143365986489,0.07715969832561453,0.0,0.0,0.0,0.0
2025/04/11 11:15:53.991005470,1744362953,483194540,hemisphere,0.02211014465214266,0.07393129207511176,0.0,0.0,0.0,0.0
2025/04/11 11:15:54.101335304,1744362953,583985985,hemisphere,0.012842428470861613,0.07609051501603178,0.0,0.0,0.0,0.0
2025/04/11 11:15:54.161914739,1744362953,633765737,hemisphere,0.01945135214441013,0.07467489098879426,0.0,0.0,0.0,0.0
2025/04/11 11:15:54.229327743,1744362953,684253378,hemisphere,0.030220581350748066,0.0765626245315349,0.0,0.0,0.0,0.0
2025/04/11 11:15:54.359368656,1744362953,753598107,hemisphere,-0.004121317739358003,0.08220786916363436,0.0,0.0,0.0,0.0
2025/04/11 11:15:54.393862128,1744362953,784329204,hemisphere,0.02716432724449509,0.07769953885119237,0.0,0.0,0.0,0.0
2025/04/11 11:15:54.509291248,1744362953,989325664,hemisphere,0.015832599487314192,0.08077405403846132,0.0,0.0,0.0,0.0
2025/04/11 11:15:54.580383712,1744362954,37911182,hemisphere,0.039880086517468875,0.07200484505707354,0.0,0.0,0.0,0.0
2025/04/11 11:15:54.640658244,1744362954,139542449,hemisphere,0.027137203334495756,0.07770901625626336,0.0,0.0,0.0,0.0
2025/04/11 11:15:54.678200162,1744362954,184055602,hemisphere,0.04585147702258034,0.07447225155966103,0.0,0.0,0.0,0.0
2025/04/11 11:15:54.795398936,1744362954,234718206,hemisphere,0.03290050781155607,0.07544982172328646,0.0,0.0,0.0,0.0
2025/04/11 11:15:54.828349370,1744362954,335004301,hemisphere,0.04513449318992617,0.07490895622024216,0.0,0.0,0.0,0.0
2025/04/11 11:15:55.96322791,1744362954,389483804,hemisphere,0.027719633251383654,0.07750316732071508,0.0,0.0,0.0,0.0
2025/04/11 11:15:55.96464690,1744362954,435777541,hemisphere,0.03244983381414784,0.08121257589161815,0.0,0.0,0.0,0.0
2025/04/11 11:15:55.110103653,1744362954,492792886,hemisphere,0.03295317370198795,0.07542683445101339,0.0,0.0,0.0,0.0
2025/04/11 11:15:55.251668809,1744362954,534747830,hemisphere,0.015437675507672688,0.08085046188645909,0.0,0.0,0.0,0.0
2025/04/11 11:15:55.258022811,1744362954,586506762,hemisphere,0.024663041765644454,0.08390595073285163,0.0,0.0,0.0,0.0
2025/04/11 11:15:55.325002186,1744362954,634573290,hemisphere,0.05349351335828247,0.06918755831871004,0.0,0.0,0.0,0.0
2025/04/11 11:15:55.355300851,1744362954,692755729,hemisphere,0.0164924792728247,0.08588639196609145,0.0,0.0,0.0,0.0
2025/04/11 11:15:55.456497799,1744362954,783909493,hemisphere,0.038680773941847595,0.07265615417563508,0.0,0.0,0.0,0.0
2025/04/11 11:15:55.501480681,1744362954,864594914,hemisphere,0.021414674292331775,0.07947660496830067,0.0,0.0,0.0,0.0
2025/04/11 11:15:55.510799148,1744362955,93392502,hemisphere,0.05251134082543879,0.0633851567565197,0.0,0.0,0.0,0.0
2025/04/11 11:15:55.545646295,1744362955,135380440,hemisphere,0.032795127950445355,0.0754956859366672,0.0,0.0,0.0,0.0
2025/04/11 11:15:55.825563902,1744362955,291830963,hemisphere,0.018642169013848988,0.0748809987840256,0.0,0.0,0.0,0.0
2025/04/11 11:15:55.833740919,1744362955,334980803,hemisphere,0.03774051995204635,0.06730785688300694,0.0,0.0,0.0,0.0
2025/04/11 11:15:55.908229541,1744362955,438473279,hemisphere,0.003460147327270604,0.07708905126480502,0.0,0.0,0.0,0.0
2025/04/11 11:15:55.996881321,1744362955,484011293,hemisphere,0.07073233929061469,0.01356969683874932,0.0,0.0,0.0,0.0
2025/04/11 11:15:56.90039318,1744362955,533668179,hemisphere,0.034608813233153825,0.0631619390171872,0.0,0.0,0.0,0.0
2025/04/11 11:15:56.360794661,1744362955,584649085,hemisphere,0.060086047288354524,0.03970978991482857,0.0,0.0,0.0,0.0
2025/04/11 11:15:56.583334550,1744362955,683492854,hemisphere,0.053159758907358676,0.048592597447859244,0.0,0.0,0.0,0.0
2025/04/11 11:15:56.601319277,1744362955,834046418,hemisphere,0.059375120034793144,0.030777138940129005,0.0,0.0,0.0,0.0
2025/04/11 11:15:56.724168727,1744362955,901417886,hemisphere,0.030413864994996907,0.059562017901949905,0.0,0.0,0.0,0.0
2025/04/11 11:15:56.752031748,1744362955,983392292,hemisphere,0.03673693549216618,0.05588411877385667,0.0,0.0,0.0,0.0
2025/04/11 11:15:56.908444356,1744362956,83262434,hemisphere,0.042593514675431654,0.05155996187042701,0.0,0.0,0.0,0.0
2025/04/11 11:15:56.939425446,1744362956,336395426,hemisphere,0.05540583541665939,0.046015148544802605,0.0,0.0,0.0,0.0
2025/04/11 11:15:56.972700775,1744362956,387633684,hemisphere,0.0468129142264618,0.05473345919493968,0.0,0.0,0.0,0.0
2025/04/11 11:15:57.54259097,1744362956,484039353,hemisphere,0.039415681089111386,0.060279387671903766,0.0,0.0,0.0,0.0
2025/04/11 11:15:57.155708075,1744362956,635061013,hemisphere,0.04631424798463152,0.055156059752635093,0.0,0.0,0.0,0.0
2025/04/11 11:15:57.184333614,1744362956,734974332,hemisphere,0.0569296163538961,0.0520933126824582,0.0,0.0,0.0,0.0
2025/04/11 11:15:57.533513350,1744362956,938639601,hemisphere,0.07190992259357788,0.004020388837393067,0.0,0.0,0.0,0.0
2025/04/11 11:15:57.546382560,1744362956,984337065,hemisphere,0.06178170212627907,0.04623543799742658,0.0,0.0,0.0,0.0
2025/04/11 11:15:57.569865705,1744362957,34036793,hemisphere,0.07597790388952416,0.013492685610670116,0.0,0.0,0.0,0.0
2025/04/11 11:15:57.606106306,1744362957,84177077,hemisphere,0.07207502161227407,0.027566024450841324,0.0,0.0,0.0,0.0
2025/04/11 11:15:57.688888037,1744362957,187705578,hemisphere,0.07282552091235654,0.02551740481079678,0.0,0.0,0.0,0.0
2025/04/11 11:15:57.701910648,1744362957,236467528,hemisphere,0.07263196584196571,0.026063230466802874,0.0,0.0,0.0,0.0
2025/04/11 11:15:57.718712090,1744362957,283478371,hemisphere,0.07715987814354985,0.0010235474130161225,0.0,0.0,0.0,0.0
2025/04/11 11:15:57.744598986,1744362957,534861061,hemisphere,0.06736705649101694,0.03763474650067788,0.0,0.0,0.0,0.0
2025/04/11 11:15:57.827156680,1744362957,595893495,hemisphere,0.07615236611599284,-0.012470428195131913,0.0,0.0,0.0,0.0
2025/04/11 11:15:57.869096407,1744362957,682976944,hemisphere,0.08228689014260059,0.0019966779894496725,0.0,0.0,0.0,0.0
2025/04/11 11:15:57.894536489,1744362957,733950039,hemisphere,0.08182811769170757,0.008903828803724033,0.0,0.0,0.0,0.0
2025/04/11 11:15:57.910746738,1744362957,783723536,hemisphere,0.08732592302126321,0.004759975420320962,0.0,0.0,0.0,0.0
2025/04/11 11:15:57.929739624,1744362957,833609259,hemisphere,0.08728489352943938,0.005460911926783004,0.0,0.0,0.0,0.0
2025/04/11 11:15:57.950160576,1744362957,883271183,hemisphere,0.08658091698130356,-0.012337706926097333,0.0,0.0,0.0,0.0
2025/04/11 11:15:57.964813738,1744362957,933708068,hemisphere,0.0864653792944834,0.01312297149957924,0.0,0.0,0.0,0.0
2025/04/11 11:15:58.24515713,1744362957,983369206,hemisphere,0.09020480491602482,-0.02092494133915512,0.0,0.0,0.0,0.0
2025/04/11 11:15:58.64640496,1744362958,33784423,hemisphere,0.09158525641091918,0.013671167036188508,0.0,0.0,0.0,0.0
2025/04/11 11:15:58.96560823,1744362958,86776543,hemisphere,0.09166934650703275,-0.013095453827903175,0.0,0.0,0.0,0.0
2025/04/11 11:15:58.134518299,1744362958,133756801,hemisphere,0.09247309491819362,-0.004846309548092412,0.0,0.0,0.0,0.0
2025/04/11 11:15:58.185370030,1744362958,184165443,hemisphere,0.10076205780600053,0.020811803465150165,0.0,0.0,0.0,0.0
2025/04/11 11:15:58.234188036,1744362958,233320463,hemisphere,0.09094939927155458,-0.03580758567510416,0.0,0.0,0.0,0.0
2025/04/11 11:15:58.284052431,1744362958,282923929,hemisphere,0.10510531538268161,0.024981468919940904,0.0,0.0,0.0,0.0
2025/04/11 11:15:58.335169609,1744362958,333548632,hemisphere,0.10563713317182638,-0.0226273552658891,0.0,0.0,0.0,0.0
2025/04/11 11:15:58.390661851,1744362958,386639634,hemisphere,0.10797393832881454,-0.0035818644385707046,0.0,0.0,0.0,0.0
2025/04/11 11:15:58.435096878,1744362958,434125433,hemisphere,0.11273321939283985,0.010021508270702011,0.0,0.0,0.0,0.0
2025/04/11 11:15:58.494911369,1744362958,486356342,hemisphere,0.1096515042560281,-0.02803135738925543,0.0,0.0,0.0,0.0
2025/04/11 11:15:58.541766623,1744362958,534376404,hemisphere,0.11788448151972737,-0.010168445722223316,0.0,0.0,0.0,0.0
2025/04/11 11:15:58.593669579,1744362958,583916318,hemisphere,0.1228476034679415,0.012348445243626433,0.0,0.0,0.0,0.0
2025/04/11 11:15:58.645874576,1744362958,642217018,hemisphere,0.11365166590616309,-0.04824226999743398,0.0,0.0,0.0,0.0
2025/04/11 11:15:58.689484800,1744362958,684814945,hemisphere,0.12316289420404224,-0.008655591778459211,0.0,0.0,0.0,0.0
2025/04/11 11:15:58.746676483,1744362958,737491066,hemisphere,0.12393358328755748,-0.034369824478923894,0.0,0.0,0.0,0.0
2025/04/11 11:15:58.793964268,1744362958,784306499,hemisphere,0.12197207962870821,-0.04078761689844171,0.0,0.0,0.0,0.0
2025/04/11 11:15:58.838806864,1744362958,833999809,hemisphere,0.125087798421026,-0.04736656339787764,0.0,0.0,0.0,0.0
2025/04/11 11:15:58.886885042,1744362958,884086678,hemisphere,0.1254883033536123,-0.046295079256614,0.0,0.0,0.0,0.0
2025/04/11 11:15:58.946128600,1744362958,936302335,hemisphere,0.1364487760427805,-0.025979636571626618,0.0,0.0,0.0,0.0
2025/04/11 11:15:59.2654388,1744362958,983787492,hemisphere,0.13333799841908572,-0.054495689305344895,0.0,0.0,0.0,0.0
2025/04/11 11:15:59.47258175,1744362959,36375144,hemisphere,0.14131577045224142,-0.02790439027755662,0.0,0.0,0.0,0.0
2025/04/11 11:15:59.100748731,1744362959,89129182,hemisphere,0.13098087370808192,-0.05994007589201305,0.0,0.0,0.0,0.0
2025/04/11 11:15:59.146810443,1744362959,136003935,hemisphere,0.14241645383426046,-0.04443960221622971,0.0,0.0,0.0,0.0
2025/04/11 11:15:59.201391843,1744362959,184226692,hemisphere,0.15113218046624644,-0.031270462184856455,0.0,0.0,0.0,0.0
2025/04/11 11:15:59.242176028,1744362959,233769606,hemisphere,0.1408917380976491,-0.06299441176453727,0.0,0.0,0.0,0.0
2025/04/11 11:15:59.295702593,1744362959,290250392,hemisphere,0.14665830715961872,-0.06264585018953171,0.0,0.0,0.0,0.0
2025/04/11 11:15:59.346616449,1744362959,333544465,hemisphere,0.15278335946846605,-0.04572096537064606,0.0,0.0,0.0,0.0
2025/04/11 11:15:59.404369953,1744362959,387097362,hemisphere,0.14982366735174715,-0.06821542897767992,0.0,0.0,0.0,0.0
2025/04/11 11:15:59.444032838,1744362959,433956344,hemisphere,0.1488075116399415,-0.07040454906371153,0.0,0.0,0.0,0.0
2025/04/11 11:15:59.484435230,1744362959,483149853,hemisphere,0.15692320359183187,-0.06477522123109876,0.0,0.0,0.0,0.0
2025/04/11 11:15:59.550350713,1744362959,534707287,hemisphere,0.15769187892720263,-0.06288077950749156,0.0,0.0,0.0,0.0
2025/04/11 11:15:59.594273500,1744362959,582432556,hemisphere,0.14742003873866552,-0.09413410098556714,0.0,0.0,0.0,0.0
2025/04/11 11:15:59.661301519,1744362959,641228894,hemisphere,0.17182566741054853,-0.053813967566824966,0.0,0.0,0.0,0.0
2025/04/11 11:15:59.735769988,1744362959,693304118,hemisphere,0.16657722266582778,-0.06835226386377385,0.0,0.0,0.0,0.0
2025/04/11 11:15:59.795326162,1744362959,735196255,hemisphere,0.15030169433462806,-0.09914334958283266,0.0,0.0,0.0,0.0
2025/04/11 11:15:59.820065376,1744362959,783448860,hemisphere,0.1803730202295866,-0.04200730380776499,0.0,0.0,0.0,0.0
2025/04/11 11:15:59.847726717,1744362959,834587752,hemisphere,0.16048478731375537,-0.09243199143586285,0.0,0.0,0.0,0.0
2025/04/11 11:15:59.884339678,1744362959,883518825,hemisphere,0.16986878384026893,-0.08588133561740627,0.0,0.0,0.0,0.0
2025/04/11 11:15:59.945290512,1744362959,933190577,hemisphere,0.1840009801329798,-0.0660268505159006,0.0,0.0,0.0,0.0
2025/04/11 11:15:59.983957022,1744362959,983479257,hemisphere,0.16432143135433658,-0.10589793613006987,0.0,0.0,0.0,0.0
2025/04/11 11:16:00.45989019,1744362960,38922466,hemisphere,0.18317354971583966,-0.08186076672542048,0.0,0.0,0.0,0.0
2025/04/11 11:16:00.84315918,1744362960,83601962,hemisphere,0.1739981644287757,-0.0998918075709496,0.0,0.0,0.0,0.0
2025/04/11 11:16:00.134657097,1744362960,134079449,hemisphere,0.19076691357101502,-0.07715230724791193,0.0,0.0,0.0,0.0
2025/04/11 11:16:00.187277218,1744362960,186700150,hemisphere,0.16796133608122632,-0.1275820261984146,0.0,0.0,0.0,0.0
2025/04/11 11:16:00.235183647,1744362960,233973885,hemisphere,0.20596412974528358,-0.06529610786740475,0.0,0.0,0.0,0.0
2025/04/11 11:16:00.283809618,1744362960,283302760,hemisphere,0.1810442675023062,-0.11793124119128555,0.0,0.0,0.0,0.0
2025/04/11 11:16:00.338363993,1744362960,333713164,hemisphere,0.20364098390429664,-0.08639852633822981,0.0,0.0,0.0,0.0
2025/04/11 11:16:00.395210497,1744362960,386161789,hemisphere,0.1838659421787044,-0.12299459738405225,0.0,0.0,0.0,0.0
2025/04/11 11:16:00.465990283,1744362960,438272294,hemisphere,0.20261676490853575,-0.08877388274107956,0.0,0.0,0.0,0.0
2025/04/11 11:16:00.485165795,1744362960,484616144,hemisphere,0.20132433729638505,-0.10346665522257416,0.0,0.0,0.0,0.0
2025/04/11 11:16:00.539896746,1744362960,533936190,hemisphere,0.18672437318656704,-0.1279486068265665,0.0,0.0,0.0,0.0
2025/04/11 11:16:00.600469634,1744362960,583615791,hemisphere,0.2136765543331544,-0.0890762601831594,0.0,0.0,0.0,0.0
2025/04/11 11:16:00.643259828,1744362960,633800022,hemisphere,0.20944663554358417,-0.1101485358313764,0.0,0.0,0.0,0.0
2025/04/11 11:16:00.687186901,1744362960,682900183,hemisphere,0.19391882384780126,-0.13563216006467052,0.0,0.0,0.0,0.0
2025/04/11 11:16:00.735822912,1744362960,734425739,hemisphere,0.2212611273102731,-0.09749554005906909,0.0,0.0,0.0,0.0
2025/04/11 11:16:00.784523533,1744362960,783942161,hemisphere,0.19610621961123872,-0.14143626628206443,0.0,0.0,0.0,0.0
2025/04/11 11:16:00.836146388,1744362960,835429100,hemisphere,0.18692731240877886,-0.1613513278118173,0.0,0.0,0.0,0.0
2025/04/11 11:16:00.887501296,1744362960,883511542,hemisphere,0.2213914746515529,-0.1093704076184072,0.0,0.0,0.0,0.0
2025/04/11 11:16:00.940713139,1744362960,934320862,hemisphere,0.19573499459240587,-0.1588427459507791,0.0,0.0,0.0,0.0
2025/04/11 11:16:01.3458803,1744362960,983576508,hemisphere,0.20851335937883844,-0.14165233852578735,0.0,0.0,0.0,0.0
2025/04/11 11:16:01.52058844,1744362961,33806873,hemisphere,0.21858762679070584,-0.1355828935331852,0.0,0.0,0.0,0.0
2025/04/11 11:16:01.167077094,1744362961,83614315,hemisphere,0.22489212746068324,-0.13512882292045114,0.0,0.0,0.0,0.0
2025/04/11 11:16:01.181695138,1744362961,133646469,hemisphere,0.21490170021120764,-0.15930930234644125,0.0,0.0,0.0,0.0
2025/04/11 11:16:01.244851535,1744362961,184235039,hemisphere,0.22617466643674713,-0.152269735132778,0.0,0.0,0.0,0.0
2025/04/11 11:16:01.266921528,1744362961,233702712,hemisphere,0.23388281727044027,-0.1401423553420665,0.0,0.0,0.0,0.0
2025/04/11 11:16:01.284680614,1744362961,283598193,hemisphere,0.20999368748100436,-0.17390716832066025,0.0,0.0,0.0,0.0
2025/04/11 11:16:01.337448636,1744362961,333788622,hemisphere,0.22946278001606973,-0.1565875875897047,0.0,0.0,0.0,0.0
2025/04/11 11:16:01.387137908,1744362961,386599406,hemisphere,0.21246393144558587,-0.17897462902476446,0.0,0.0,0.0,0.0
2025/04/11 11:16:01.434953939,1744362961,434196498,hemisphere,0.2273586790481538,-0.1684208707474093,0.0,0.0,0.0,0.0
2025/04/11 11:16:01.493430309,1744362961,483206314,hemisphere,0.2207257884643192,-0.17702453205316368,0.0,0.0,0.0,0.0
2025/04/11 11:16:01.538409338,1744362961,534744369,hemisphere,0.23494571107614207,-0.16672048688753624,0.0,0.0,0.0,0.0
2025/04/11 11:16:01.587333589,1744362961,585260580,hemisphere,0.21968659343703265,-0.19422561221852563,0.0,0.0,0.0,0.0
2025/04/11 11:16:01.638181132,1744362961,633170489,hemisphere,0.23717057116025947,-0.1724410274648857,0.0,0.0,0.0,0.0
2025/04/11 11:16:01.684883298,1744362961,683406023,hemisphere,0.248784251636693,-0.16472915470256533,0.0,0.0,0.0,0.0
2025/04/11 11:16:01.733901394,1744362961,733085024,hemisphere,0.2309297030312187,-0.18894647530283334,0.0,0.0,0.0,0.0
2025/04/11 11:16:01.784498756,1744362961,783886421,hemisphere,0.23124676944026437,-0.1965977390663434,0.0,0.0,0.0,0.0
2025/04/11 11:16:01.833860840,1744362961,833274234,hemisphere,0.23365914051097358,-0.20168915976477164,0.0,0.0,0.0,0.0
2025/04/11 11:16:01.885116356,1744362961,884293909,hemisphere,0.24280085303152363,-0.19058556314188896,0.0,0.0,0.0,0.0
2025/04/11 11:16:01.934041921,1744362961,933288675,hemisphere,0.2180697420058092,-0.2184506780316012,0.0,0.0,0.0,0.0
2025/04/11 11:16:01.983833160,1744362961,983108639,hemisphere,0.24860363561331042,-0.1829517517565515,0.0,0.0,0.0,0.0
2025/04/11 11:16:02.34610068,1744362962,34206213,hemisphere,0.22658773005690447,-0.2096022702610968,0.0,0.0,0.0,0.0
2025/04/11 11:16:02.83516691,1744362962,83164080,hemisphere,0.25186771764619065,-0.18718992030640633,0.0,0.0,0.0,0.0
2025/04/11 11:16:02.136564691,1744362962,134288448,hemisphere,0.24473641617748035,-0.19642174027643453,0.0,0.0,0.0,0.0
2025/04/11 11:16:02.184061593,1744362962,183362897,hemisphere,0.2487962879961943,-0.1912532889545555,0.0,0.0,0.0,0.0
2025/04/11 11:16:02.239094052,1744362962,236792514,hemisphere,0.238070317308321,-0.2122620324888383,0.0,0.0,0.0,0.0
2025/04/11 11:16:02.283790099,1744362962,283401463,hemisphere,0.24706726415372085,-0.20171864912092988,0.0,0.0,0.0,0.0
2025/04/11 11:16:02.344258340,1744362962,334694284,hemisphere,0.22729094372982628,-0.21637060880587478,0.0,0.0,0.0,0.0
2025/04/11 11:16:02.391419573,1744362962,387513115,hemisphere,0.25616263108319154,-0.1900351358462798,0.0,0.0,0.0,0.0
2025/04/11 11:16:02.442068314,1744362962,435060563,hemisphere,0.22176528400495804,-0.22924398624561038,0.0,0.0,0.0,0.0
2025/04/11 11:16:02.486074682,1744362962,484633707,hemisphere,0.26076119739675285,-0.18367428876080888,0.0,0.0,0.0,0.0
2025/04/11 11:16:02.535417936,1744362962,534945067,hemisphere,0.24304113354546125,-0.20655181873930464,0.0,0.0,0.0,0.0
2025/04/11 11:16:02.592409477,1744362962,583765889,hemisphere,0.25158797497347324,-0.2043142208671865,0.0,0.0,0.0,0.0
2025/04/11 11:16:02.643436945,1744362962,634798369,hemisphere,0.24170222172216543,-0.20811699218023133,0.0,0.0,0.0,0.0
2025/04/11 11:16:02.693067244,1744362962,684391673,hemisphere,0.2590185524770673,-0.18612371125749147,0.0,0.0,0.0,0.0
2025/04/11 11:16:02.734827286,1744362962,734280325,hemisphere,0.2220851527176005,-0.2289341201349798,0.0,0.0,0.0,0.0
2025/04/11 11:16:02.785947447,1744362962,785020068,hemisphere,0.24565299290230697,-0.20343857426190443,0.0,0.0,0.0,0.0
2025/04/11 11:16:02.835649779,1744362962,834754749,hemisphere,0.25368522344453337,-0.18471930289635985,0.0,0.0,0.0,0.0
2025/04/11 11:16:02.888103019,1744362962,885771976,hemisphere,0.24653831988281774,-0.20236477768854622,0.0,0.0,0.0,0.0
2025/04/11 11:16:02.955514464,1744362962,938891380,hemisphere,0.25045579321114453,-0.18907487697628253,0.0,0.0,0.0,0.0
2025/04/11 11:16:02.995953700,1744362962,985588288,hemisphere,0.25715322292860604,-0.1798600383466283,0.0,0.0,0.0,0.0
2025/04/11 11:16:03.40491001,1744362963,34759838,hemisphere,0.21503708892983864,-0.2214365857204431,0.0,0.0,0.0,0.0
2025/04/11 11:16:03.97226908,1744362963,95476675,hemisphere,0.23998072973063983,-0.19412460037021598,0.0,0.0,0.0,0.0
2025/04/11 11:16:03.141859837,1744362963,136559787,hemisphere,0.229816105551882,-0.2060574403895979,0.0,0.0,0.0,0.0
2025/04/11 11:16:03.194962042,1744362963,186447337,hemisphere,0.2258547011455915,-0.21039193207293386,0.0,0.0,0.0,0.0
2025/04/11 11:16:03.248793212,1744362963,237146047,hemisphere,0.2384486927883615,-0.19600339797684138,0.0,0.0,0.0,0.0
2025/04/11 11:16:03.291763817,1744362963,286356953,hemisphere,0.24218027744092396,-0.1829602486913317,0.0,0.0,0.0,0.0
2025/04/11 11:16:03.338181896,1744362963,335445854,hemisphere,0.21126303774573918,-0.21793042069660498,0.0,0.0,0.0,0.0
2025/04/11 11:16:03.418091258,1744362963,402240281,hemisphere,0.2553313304724845,-0.16410865626683965,0.0,0.0,0.0,0.0
2025/04/11 11:16:03.435284283,1744362963,433956782,hemisphere,0.2155733622129677,-0.20629450738118965,0.0,0.0,0.0,0.0
2025/04/11 11:16:03.487090090,1744362963,484437713,hemisphere,0.22973796677047573,-0.1903937102312439,0.0,0.0,0.0,0.0
2025/04/11 11:16:03.535238842,1744362963,534017753,hemisphere,0.22577696734339855,-0.18711106005484313,0.0,0.0,0.0,0.0
2025/04/11 11:16:03.583820242,1744362963,583424534,hemisphere,0.23917078438525932,-0.16965589784669724,0.0,0.0,0.0,0.0
2025/04/11 11:16:03.634798481,1744362963,633214736,hemisphere,0.22005907474663147,-0.19380348655090193,0.0,0.0,0.0,0.0
2025/04/11 11:16:03.683961410,1744362963,683563255,hemisphere,0.22732635723973535,-0.17696874075724045,0.0,0.0,0.0,0.0
2025/04/11 11:16:03.734396439,1744362963,733652699,hemisphere,0.19947132740964016,-0.20786148619339587,0.0,0.0,0.0,0.0
2025/04/11 11:16:03.785838178,1744362963,785541974,hemisphere,0.21168662737629482,-0.1954072150437155,0.0,0.0,0.0,0.0
2025/04/11 11:16:03.834359397,1744362963,833461904,hemisphere,0.23131276966624933,-0.171725392678019,0.0,0.0,0.0,0.0
2025/04/11 11:16:03.883866448,1744362963,883261501,hemisphere,0.227418986690076,-0.1768496887018752,0.0,0.0,0.0,0.0
2025/04/11 11:16:03.934737541,1744362963,934290315,hemisphere,0.21368756315059348,-0.1932170625381006,0.0,0.0,0.0,0.0
2025/04/11 11:16:03.983838293,1744362963,983236973,hemisphere,0.21469631152541252,-0.19209555361453368,0.0,0.0,0.0,0.0
2025/04/11 11:16:04.35100161,1744362964,34564821,hemisphere,0.1882812753788923,-0.2180490065163996,0.0,0.0,0.0,0.0
2025/04/11 11:16:04.84031928,1744362964,83312455,hemisphere,0.22423477513738863,-0.18087004594508158,0.0,0.0,0.0,0.0
2025/04/11 11:16:04.134589879,1744362964,134257884,hemisphere,0.20733616314286477,-0.19253382584634923,0.0,0.0,0.0,0.0
2025/04/11 11:16:04.184025761,1744362964,183456395,hemisphere,0.1987445401711011,-0.20855650470140874,0.0,0.0,0.0,0.0
2025/04/11 11:16:04.233545656,1744362964,233107683,hemisphere,0.23120660928984524,-0.16309832145834555,0.0,0.0,0.0,0.0
2025/04/11 11:16:04.284423389,1744362964,283476127,hemisphere,0.22275027554964164,-0.17447026504363342,0.0,0.0,0.0,0.0
2025/04/11 11:16:04.333723228,1744362964,333327609,hemisphere,0.17740950140914333,-0.22041648634255137,0.0,0.0,0.0,0.0
2025/04/11 11:16:04.390135979,1744362964,388096512,hemisphere,0.22599919676632235,-0.1702407756761408,0.0,0.0,0.0,0.0
2025/04/11 11:16:04.434369122,1744362964,434084087,hemisphere,0.19884604016806795,-0.20129036477515774,0.0,0.0,0.0,0.0
2025/04/11 11:16:04.490870189,1744362964,490472987,hemisphere,0.22168034795690492,-0.17582770535823564,0.0,0.0,0.0,0.0
2025/04/11 11:16:04.534630616,1744362964,534243979,hemisphere,0.22207871741454338,-0.17532427645180332,0.0,0.0,0.0,0.0
2025/04/11 11:16:04.584281997,1744362964,583825959,hemisphere,0.19350873312280084,-0.20642657010919307,0.0,0.0,0.0,0.0
2025/04/11 11:16:04.634819405,1744362964,633657876,hemisphere,0.20880858856611556,-0.19093593685543755,0.0,0.0,0.0,0.0
2025/04/11 11:16:04.684245711,1744362964,683862247,hemisphere,0.22890686401933596,-0.1663105716623877,0.0,0.0,0.0,0.0
2025/04/11 11:16:04.733904316,1744362964,733590788,hemisphere,0.1907536443067086,-0.2089751320744807,0.0,0.0,0.0,0.0
2025/04/11 11:16:04.783529400,1744362964,783245722,hemisphere,0.18848119185632922,-0.2110270100206478,0.0,0.0,0.0,0.0
2025/04/11 11:16:04.833441387,1744362964,833114094,hemisphere,0.2141552742571782,-0.18491910974712633,0.0,0.0,0.0,0.0
2025/04/11 11:16:04.883655861,1744362964,883434069,hemisphere,0.1863524138565753,-0.20602334297281544,0.0,0.0,0.0,0.0
2025/04/11 11:16:04.934164671,1744362964,933858170,hemisphere,0.19814219423327087,-0.20198324065689638,0.0,0.0,0.0,0.0
2025/04/11 11:16:04.984088718,1744362964,983678464,hemisphere,0.20728702107192296,-0.18494575122179702,0.0,0.0,0.0,0.0
2025/04/11 11:16:05.34454654,1744362965,34032440,hemisphere,0.2396798699730481,-0.1404507028446971,0.0,0.0,0.0,0.0
2025/04/11 11:16:05.83938648,1744362965,83632549,hemisphere,0.1770032361925608,-0.20739070941713064,0.0,0.0,0.0,0.0
2025/04/11 11:16:05.135464845,1744362965,135014717,hemisphere,0.20489914269793622,-0.1798816091123019,0.0,0.0,0.0,0.0
2025/04/11 11:16:05.185375502,1744362965,184003274,hemisphere,0.17962353467217174,-0.19823617318656228,0.0,0.0,0.0,0.0
2025/04/11 11:16:05.234456127,1744362965,234171252,hemisphere,0.21120266129269688,-0.1724369097324078,0.0,0.0,0.0,0.0
2025/04/11 11:16:05.284266824,1744362965,283874160,hemisphere,0.17258431497174428,-0.21108222616059827,0.0,0.0,0.0,0.0
2025/04/11 11:16:05.334020274,1744362965,333647922,hemisphere,0.21019657428896327,-0.16546780570540578,0.0,0.0,0.0,0.0
2025/04/11 11:16:05.387678780,1744362965,387098593,hemisphere,0.20615061156634226,-0.17048202227390621,0.0,0.0,0.0,0.0
2025/04/11 11:16:05.434369450,1744362965,433858656,hemisphere,0.1794353707138699,-0.1914137286467063,0.0,0.0,0.0,0.0
2025/04/11 11:16:05.486337712,1744362965,485101847,hemisphere,0.1970159718382391,-0.17326561868499185,0.0,0.0,0.0,0.0
2025/04/11 11:16:05.540627651,1744362965,533992538,hemisphere,0.17986921244549534,-0.19100611035225049,0.0,0.0,0.0,0.0
2025/04/11 11:16:05.590453615,1744362965,589869937,hemisphere,0.20390401984508552,-0.15680058129942917,0.0,0.0,0.0,0.0
2025/04/11 11:16:05.634791418,1744362965,633623313,hemisphere,0.18716853419063267,-0.17644039053956412,0.0,0.0,0.0,0.0
2025/04/11 11:16:05.683310851,1744362965,682986934,hemisphere,0.19267779940959423,-0.17040697526656623,0.0,0.0,0.0,0.0
2025/04/11 11:16:05.733712945,1744362965,733404139,hemisphere,0.19157334930407013,-0.17164767240264187,0.0,0.0,0.0,0.0
2025/04/11 11:16:05.783759304,1744362965,783220658,hemisphere,0.1643398162314379,-0.19787798363092637,0.0,0.0,0.0,0.0
2025/04/11 11:16:05.833940208,1744362965,833576814,hemisphere,0.18297185397114069,-0.17339119557704327,0.0,0.0,0.0,0.0
2025/04/11 11:16:05.883547407,1744362965,883234872,hemisphere,0.20681755013687844,-0.14411699068691614,0.0,0.0,0.0,0.0
2025/04/11 11:16:05.933687588,1744362965,933094967,hemisphere,0.16685751456913378,-0.1820292310119917,0.0,0.0,0.0,0.0
2025/04/11 11:16:05.984751166,1744362965,984237828,hemisphere,0.18838639490105916,-0.16749260361417484,0.0,0.0,0.0,0.0
2025/04/11 11:16:06.34087541,1744362966,33754785,hemisphere,0.1882445810356308,-0.15981254275470855,0.0,0.0,0.0,0.0
2025/04/11 11:16:06.84723617,1744362966,83759736,hemisphere,0.1897975477541023,-0.15796506568711635,0.0,0.0,0.0,0.0
2025/04/11 11:16:06.134268154,1744362966,133914072,hemisphere,0.18173085165093167,-0.15948593777587255,0.0,0.0,0.0,0.0
2025/04/11 11:16:06.185404724,1744362966,184316324,hemisphere,0.15720189880214777,-0.19043012924431107,0.0,0.0,0.0,0.0
2025/04/11 11:16:06.233607475,1744362966,233287472,hemisphere,0.1776888406425387,-0.1714722922868771,0.0,0.0,0.0,0.0
2025/04/11 11:16:06.285687543,1744362966,283661936,hemisphere,0.18891234882787086,-0.15902262597298084,0.0,0.0,0.0,0.0
2025/04/11 11:16:06.334452460,1744362966,334137120,hemisphere,0.14503991661976504,-0.1934561691364585,0.0,0.0,0.0,0.0
2025/04/11 11:16:06.400304571,1744362966,394358408,hemisphere,0.15722177120790834,-0.18369317202408628,0.0,0.0,0.0,0.0
2025/04/11 11:16:06.434850373,1744362966,434265566,hemisphere,0.15859593241271933,-0.18250807382733122,0.0,0.0,0.0,0.0
2025/04/11 11:16:06.485754482,1744362966,484403218,hemisphere,0.1685062578924254,-0.1733998495994557,0.0,0.0,0.0,0.0
2025/04/11 11:16:06.537161223,1744362966,533824841,hemisphere,0.12494678569103507,-0.2009698828974171,0.0,0.0,0.0,0.0
2025/04/11 11:16:06.586518278,1744362966,585677269,hemisphere,0.15154185866000683,-0.18175714060304068,0.0,0.0,0.0,0.0
2025/04/11 11:16:06.634951629,1744362966,633889465,hemisphere,0.1693935529010935,-0.16524653497688666,0.0,0.0,0.0,0.0
2025/04/11 11:16:06.695475539,1744362966,694988140,hemisphere,0.15675626051502106,-0.17035176779022354,0.0,0.0,0.0,0.0
2025/04/11 11:16:06.733625869,1744362966,733236395,hemisphere,0.14195182570934017,-0.18287134597222304,0.0,0.0,0.0,0.0
2025/04/11 11:16:06.786983983,1744362966,785383867,hemisphere,0.1611328253992926,-0.16621811748046145,0.0,0.0,0.0,0.0
2025/04/11 11:16:06.836143387,1744362966,835218545,hemisphere,0.18454314557482393,-0.13977151863400758,0.0,0.0,0.0,0.0
2025/04/11 11:16:06.884351340,1744362966,883337478,hemisphere,0.15472349266871038,-0.1722001475501775,0.0,0.0,0.0,0.0
2025/04/11 11:16:06.934579382,1744362966,933855317,hemisphere,0.1759289759837347,-0.15047008144219864,0.0,0.0,0.0,0.0
2025/04/11 11:16:06.989360984,1744362966,984978243,hemisphere,0.19208021164038958,-0.1292185834007266,0.0,0.0,0.0,0.0
2025/04/11 11:16:07.34593792,1744362967,34263091,hemisphere,0.14531688435329299,-0.17355068611972502,0.0,0.0,0.0,0.0
2025/04/11 11:16:07.83582028,1744362967,83161599,hemisphere,0.19417423932025502,-0.12605004872790698,0.0,0.0,0.0,0.0
2025/04/11 11:16:07.134946213,1744362967,134429077,hemisphere,0.15601336506935154,-0.16400203489747586,0.0,0.0,0.0,0.0
2025/04/11 11:16:07.184314010,1744362967,183983212,hemisphere,0.17137584812406476,-0.14787547535184167,0.0,0.0,0.0,0.0
2025/04/11 11:16:07.234649949,1744362967,234083193,hemisphere,0.1718404064872174,-0.13930265746652384,0.0,0.0,0.0,0.0
2025/04/11 11:16:07.294392885,1744362967,286782107,hemisphere,0.1541428214907832,-0.1657613589279365,0.0,0.0,0.0,0.0
2025/04/11 11:16:07.337484508,1744362967,333790778,hemisphere,0.1819574662719978,-0.13464144235208725,0.0,0.0,0.0,0.0
2025/04/11 11:16:07.388681273,1744362967,388345217,hemisphere,0.18401607116791202,-0.12276987102238775,0.0,0.0,0.0,0.0
2025/04/11 11:16:07.434665585,1744362967,434316625,hemisphere,0.15845734136921913,-0.16164191441879924,0.0,0.0,0.0,0.0
2025/04/11 11:16:07.485522281,1744362967,484745845,hemisphere,0.1916457116550388,-0.12045230896503968,0.0,0.0,0.0,0.0
2025/04/11 11:16:07.535245886,1744362967,534492734,hemisphere,0.1669668688999192,-0.15283619407893162,0.0,0.0,0.0,0.0
2025/04/11 11:16:07.583850065,1744362967,583403847,hemisphere,0.18877467782425117,-0.11531902137669203,0.0,0.0,0.0,0.0
2025/04/11 11:16:07.636819726,1744362967,634623266,hemisphere,0.1493626442135014,-0.16317216733401194,0.0,0.0,0.0,0.0
2025/04/11 11:16:07.684274840,1744362967,683829450,hemisphere,0.1600083657712628,-0.15274710655897075,0.0,0.0,0.0,0.0
2025/04/11 11:16:07.735361240,1744362967,734680015,hemisphere,0.18749518895775114,-0.10737950717926101,0.0,0.0,0.0,0.0
2025/04/11 11:16:07.783658648,1744362967,783313924,hemisphere,0.15986037512746645,-0.14535977747805431,0.0,0.0,0.0,0.0
2025/04/11 11:16:07.833718888,1744362967,833263361,hemisphere,0.15646940019445366,-0.14900379608302491,0.0,0.0,0.0,0.0
2025/04/11 11:16:07.883770066,1744362967,883478227,hemisphere,0.1748902259304689,-0.1268787346971639,0.0,0.0,0.0,0.0
2025/04/11 11:16:07.933705392,1744362967,933347863,hemisphere,0.16212386569892967,-0.14283086716532664,0.0,0.0,0.0,0.0
2025/04/11 11:16:07.987179647,1744362967,984392342,hemisphere,0.17415656012477562,-0.12788392005983074,0.0,0.0,0.0,0.0
2025/04/11 11:16:08.34240800,1744362968,33938211,hemisphere,0.19013691653474415,-0.09130244683327686,0.0,0.0,0.0,0.0
2025/04/11 11:16:08.83949634,1744362968,83577789,hemisphere,0.14283086716532667,-0.16212386569892964,0.0,0.0,0.0,0.0
2025/04/11 11:16:08.134644242,1744362968,134254772,hemisphere,0.1703579284554295,-0.1243638212642985,0.0,0.0,0.0,0.0
2025/04/11 11:16:08.185637051,1744362968,184017695,hemisphere,0.16407940044639202,-0.13253729352991983,0.0,0.0,0.0,0.0
2025/04/11 11:16:08.234444284,1744362968,234141840,hemisphere,0.14643942420857112,-0.15180144552851188,0.0,0.0,0.0,0.0
2025/04/11 11:16:08.291390034,1744362968,284870695,hemisphere,0.16462200165886198,-0.1234669607503034,0.0,0.0,0.0,0.0
2025/04/11 11:16:08.333969247,1744362968,333578923,hemisphere,0.14196819933050983,-0.14177011258804698,0.0,0.0,0.0,0.0
2025/04/11 11:16:08.390210984,1744362968,386820689,hemisphere,0.16577832178334861,-0.12190997438185212,0.0,0.0,0.0,0.0
2025/04/11 11:16:08.444198596,1744362968,434536252,hemisphere,0.1289109635564792,-0.15373905788482956,0.0,0.0,0.0,0.0
2025/04/11 11:16:08.484454778,1744362968,484081299,hemisphere,0.16486972111790768,-0.1143315770156182,0.0,0.0,0.0,0.0
2025/04/11 11:16:08.534482904,1744362968,533997682,hemisphere,0.15618548643759553,-0.12593581012018204,0.0,0.0,0.0,0.0
2025/04/11 11:16:08.610318174,1744362968,584338698,hemisphere,0.1745533488884969,-0.09891846559761007,0.0,0.0,0.0,0.0
2025/04/11 11:16:08.634781918,1744362968,634199969,hemisphere,0.16603828206673354,-0.11262780887819278,0.0,0.0,0.0,0.0
2025/04/11 11:16:08.690689948,1744362968,686191919,hemisphere,0.15915180567582132,-0.12216561379742052,0.0,0.0,0.0,0.0
2025/04/11 11:16:08.735560323,1744362968,734302488,hemisphere,0.15352073424337653,-0.121025988268309,0.0,0.0,0.0,0.0
2025/04/11 11:16:08.783515915,1744362968,783099977,hemisphere,0.15917034883437983,-0.11349319684848137,0.0,0.0,0.0,0.0
2025/04/11 11:16:08.849525314,1744362968,835556578,hemisphere,0.1472684029967519,-0.12856097058490412,0.0,0.0,0.0,0.0
2025/04/11 11:16:08.887950744,1744362968,884211526,hemisphere,0.15271468894996593,-0.12204150711074269,0.0,0.0,0.0,0.0
2025/04/11 11:16:08.934650860,1744362968,933633707,hemisphere,0.1610688523940633,-0.11078235630011557,0.0,0.0,0.0,0.0
2025/04/11 11:16:08.985324505,1744362968,984090083,hemisphere,0.13501602158102363,-0.13417034488751284,0.0,0.0,0.0,0.0
2025/04/11 11:16:09.34119773,1744362969,33764419,hemisphere,0.14328362589445096,-0.12530287339618598,0.0,0.0,0.0,0.0
2025/04/11 11:16:09.85542107,1744362969,84519510,hemisphere,0.1626414913221386,-0.09888757672889097,0.0,0.0,0.0,0.0
2025/04/11 11:16:09.135287847,1744362969,134495999,hemisphere,0.13337880807635438,-0.1284878731868177,0.0,0.0,0.0,0.0
2025/04/11 11:16:09.185028849,1744362969,184583095,hemisphere,0.15614935860409088,-0.10885028864606935,0.0,0.0,0.0,0.0
2025/04/11 11:16:09.234405997,1744362969,233962280,hemisphere,0.1458123039451097,-0.12235105046145102,0.0,0.0,0.0,0.0
2025/04/11 11:16:09.284973627,1744362969,283806322,hemisphere,0.1543821114777429,-0.10229957798356007,0.0,0.0,0.0,0.0
2025/04/11 11:16:09.334606176,1744362969,334076462,hemisphere,0.13315435139911722,-0.1287204673057907,0.0,0.0,0.0,0.0
2025/04/11 11:16:09.387058187,1744362969,386599459,hemisphere,0.15753623770270248,-0.09737234623042804,0.0,0.0,0.0,0.0
2025/04/11 11:16:09.435261652,1744362969,434542766,hemisphere,0.12382687394571124,-0.13771690269815706,0.0,0.0,0.0,0.0
2025/04/11 11:16:09.485343043,1744362969,484254135,hemisphere,0.15157706543712662,-0.10641162170275274,0.0,0.0,0.0,0.0
2025/04/11 11:16:09.535601033,1744362969,534358054,hemisphere,0.1320907845024303,-0.12236023756063996,0.0,0.0,0.0,0.0
2025/04/11 11:16:09.583901177,1744362969,583463527,hemisphere,0.1405404770651581,-0.11255388661730657,0.0,0.0,0.0,0.0
2025/04/11 11:16:09.633596115,1744362969,633270573,hemisphere,0.13770810371473155,-0.11600207436790287,0.0,0.0,0.0,0.0
2025/04/11 11:16:09.685827345,1744362969,684571636,hemisphere,0.13742424636461326,-0.11633821211227982,0.0,0.0,0.0,0.0
2025/04/11 11:16:09.740320447,1744362969,733059616,hemisphere,0.16550780148935965,-0.07090254390727072,0.0,0.0,0.0,0.0
2025/04/11 11:16:09.784265293,1744362969,783650126,hemisphere,0.14168426162090317,-0.11926696947973564,0.0,0.0,0.0,0.0
2025/04/11 11:16:09.838399296,1744362969,835060219,hemisphere,0.1425753517036648,-0.11820029224378849,0.0,0.0,0.0,0.0
2025/04/11 11:16:09.887687388,1744362969,883259391,hemisphere,0.14160096304782097,-0.11936585468160633,0.0,0.0,0.0,0.0
2025/04/11 11:16:09.936018367,1744362969,934657820,hemisphere,0.14804335540749336,-0.11127535629972764,0.0,0.0,0.0,0.0
2025/04/11 11:16:09.983401516,1744362969,983041687,hemisphere,0.1454206821020258,-0.1146815818556854,0.0,0.0,0.0,0.0
2025/04/11 11:16:10.35709049,1744362970,34144286,hemisphere,0.14950630064303363,-0.10930190331359999,0.0,0.0,0.0,0.0
2025/04/11 11:16:10.85255804,1744362970,84058878,hemisphere,0.14368301453719282,-0.11685132148780158,0.0,0.0,0.0,0.0
2025/04/11 11:16:10.135341905,1744362970,134980718,hemisphere,0.13705808153239613,-0.11676936829932234,0.0,0.0,0.0,0.0
2025/04/11 11:16:10.184389694,1744362970,183911593,hemisphere,0.14651299041952373,-0.10466110416335322,0.0,0.0,0.0,0.0
2025/04/11 11:16:10.234519835,1744362970,233768265,hemisphere,0.12143757129491266,-0.1258841255602294,0.0,0.0,0.0,0.0
2025/04/11 11:16:10.285017111,1744362970,284205510,hemisphere,0.15503513003881017,-0.08098151174138342,0.0,0.0,0.0,0.0
2025/04/11 11:16:10.335535953,1744362970,334756148,hemisphere,0.14127242847523422,-0.10313097373136951,0.0,0.0,0.0,0.0
2025/04/11 11:16:10.387365695,1744362970,387021266,hemisphere,0.13642956743217155,-0.10945716020590497,0.0,0.0,0.0,0.0
2025/04/11 11:16:10.434399013,1744362970,433977537,hemisphere,0.1263494832303872,-0.12095331693461199,0.0,0.0,0.0,0.0
2025/04/11 11:16:10.485267918,1744362970,484444408,hemisphere,0.14779672844300012,-0.09354156216151552,0.0,0.0,0.0,0.0
2025/04/11 11:16:10.534699096,1744362970,534201906,hemisphere,0.12119566747047844,-0.12611703682078726,0.0,0.0,0.0,0.0
2025/04/11 11:16:10.585887554,1744362970,583935209,hemisphere,0.14836538022001464,-0.09263698366333548,0.0,0.0,0.0,0.0
2025/04/11 11:16:10.635045513,1744362970,634445867,hemisphere,0.14804111290921979,-0.09315431111156496,0.0,0.0,0.0,0.0
2025/04/11 11:16:10.684588342,1744362970,684017228,hemisphere,0.12087828840763373,-0.11920218329670908,0.0,0.0,0.0,0.0
2025/04/11 11:16:10.735365306,1744362970,735010138,hemisphere,0.13477132741962217,-0.1114925382957245,0.0,0.0,0.0,0.0
2025/04/11 11:16:10.784785859,1744362970,784166618,hemisphere,0.14056042900442645,-0.09520234718300227,0.0,0.0,0.0,0.0
2025/04/11 11:16:10.834167329,1744362970,833656947,hemisphere,0.13850157367500845,-0.098173495407913,0.0,0.0,0.0,0.0
2025/04/11 11:16:10.884443621,1744362970,884105642,hemisphere,0.13838152878806464,-0.0983426336912905,0.0,0.0,0.0,0.0
2025/04/11 11:16:10.934121249,1744362970,933758600,hemisphere,0.12773636155699958,-0.10384554870342477,0.0,0.0,0.0,0.0
2025/04/11 11:16:10.987881032,1744362970,986717103,hemisphere,0.13567079529858256,-0.10204977419921818,0.0,0.0,0.0,0.0
2025/04/11 11:16:11.34246273,1744362971,33894662,hemisphere,0.13584869902584043,-0.10181282868110447,0.0,0.0,0.0,0.0
2025/04/11 11:16:11.84855238,1744362971,84440547,hemisphere,0.13441392796443408,-0.10369964840940028,0.0,0.0,0.0,0.0
2025/04/11 11:16:11.136528482,1744362971,135987635,hemisphere,0.11599711097844344,-0.12395721582754263,0.0,0.0,0.0,0.0
2025/04/11 11:16:11.187106880,1744362971,186048558,hemisphere,0.15505339126947804,-0.06913151934461922,0.0,0.0,0.0,0.0
2025/04/11 11:16:11.234904594,1744362971,234444657,hemisphere,0.11769516541615677,-0.1223461039376604,0.0,0.0,0.0,0.0
2025/04/11 11:16:11.284141362,1744362971,283819209,hemisphere,0.14337048171229536,-0.09091548869497262,0.0,0.0,0.0,0.0
2025/04/11 11:16:11.335407338,1744362971,334353486,hemisphere,0.11811952714652683,-0.11466583342921637,0.0,0.0,0.0,0.0
2025/04/11 11:16:11.387232533,1744362971,386738564,hemisphere,0.13233270274327114,-0.09792104898333617,0.0,0.0,0.0,0.0
2025/04/11 11:16:11.434930093,1744362971,434618318,hemisphere,0.14438395070298615,-0.0790806602699645,0.0,0.0,0.0,0.0
2025/04/11 11:16:11.486270186,1744362971,484914398,hemisphere,0.13383772657937842,-0.09585373750354978,0.0,0.0,0.0,0.0
2025/04/11 11:16:11.534266858,1744362971,533966732,hemisphere,0.1256450252476464,-0.1063663653597987,0.0,0.0,0.0,0.0
2025/04/11 11:16:11.583797119,1744362971,583462641,hemisphere,0.1273311066510113,-0.09602057531551825,0.0,0.0,0.0,0.0
2025/04/11 11:16:11.633661430,1744362971,633251483,hemisphere,0.13131736814262027,-0.09927852171256088,0.0,0.0,0.0,0.0
2025/04/11 11:16:11.683936921,1744362971,683592369,hemisphere,0.12601554767893106,-0.10592713435430479,0.0,0.0,0.0,0.0
2025/04/11 11:16:11.735628556,1744362971,734503882,hemisphere,0.13976484904754194,-0.07680461298393565,0.0,0.0,0.0,0.0
2025/04/11 11:16:11.783819622,1744362971,782993708,hemisphere,0.12611445474306943,-0.09761304169911222,0.0,0.0,0.0,0.0
2025/04/11 11:16:11.834171413,1744362971,833601619,hemisphere,0.12852765150114392,-0.09441294616997618,0.0,0.0,0.0,0.0
2025/04/11 11:16:11.884603086,1744362971,883988939,hemisphere,0.11658819529813869,-0.11622249681735011,0.0,0.0,0.0,0.0
2025/04/11 11:16:11.934649186,1744362971,934325531,hemisphere,0.125849002328386,-0.10612494834997932,0.0,0.0,0.0,0.0
2025/04/11 11:16:11.983854586,1744362971,983197266,hemisphere,0.14096701900772327,-0.07457520470619246,0.0,0.0,0.0,0.0
2025/04/11 11:16:12.36028136,1744362972,33864756,hemisphere,0.12759874985596203,-0.09566462585558963,0.0,0.0,0.0,0.0
2025/04/11 11:16:12.85295147,1744362972,84059839,hemisphere,0.12214917217747502,-0.10253166018967938,0.0,0.0,0.0,0.0
2025/04/11 11:16:12.135486626,1744362972,134671645,hemisphere,0.11678641197195526,-0.10860062423214276,0.0,0.0,0.0,0.0
