time,header_stamp_secs,header_stamp_nsecs,header_frame_id,status_status,status_service,latitude,longitude,altitude,position_covariance_0,position_covariance_1,position_covariance_2,position_covariance_3,position_covariance_4,position_covariance_5,position_covariance_6,position_covariance_7,position_covariance_8,position_covariance_type
2025/04/05 15:11:51.744946293,1743858711,648267186,mA1/gps,0,1,63.43621151772072,10.393094937284905,0.0,1.4400000000000002e-10,0.0,0.0,0.0,1.4400000000000002e-10,0.0,0.0,0.0,1.0,2
2025/04/05 15:11:51.745091724,1743858711,698450544,mA1/gps,0,1,63.4362115183652,10.393094890520269,0.0,1.4400000000000002e-10,0.0,0.0,0.0,1.4400000000000002e-10,0.0,0.0,0.0,1.0,2
2025/04/05 15:11:51.753693204,1743858711,753528339,mA1/gps,0,1,63.436211518916515,10.393094839990416,0.0,1.4400000000000002e-10,0.0,0.0,0.0,1.4400000000000002e-10,0.0,0.0,0.0,1.0,2
2025/04/05 15:11:51.798507101,1743858711,797755657,mA1/gps,0,1,63.436211520405564,10.393094788115883,0.0,1.4400000000000002e-10,0.0,0.0,0.0,1.4400000000000002e-10,0.0,0.0,0.0,1.0,2
2025/04/05 15:11:51.848653338,1743858711,846289727,mA1/gps,0,1,63.43621152272614,10.393094734785729,0.0,1.4400000000000002e-10,0.0,0.0,0.0,1.4400000000000002e-10,0.0,0.0,0.0,1.0,2
2025/04/05 15:11:51.899742262,1743858711,897316928,mA1/gps,0,1,63.43621152358872,10.393094680121443,0.0,1.4400000000000002e-10,0.0,0.0,0.0,1.4400000000000002e-10,0.0,0.0,0.0,1.0,2
2025/04/05 15:11:51.954727772,1743858711,952125835,mA1/gps,0,1,63.43621152487806,10.393094624597632,0.0,1.4400000000000002e-10,0.0,0.0,0.0,1.4400000000000002e-10,0.0,0.0,0.0,1.0,2
2025/04/05 15:11:52.4104050,1743858712,2675196,mA1/gps,0,1,63.43621152660099,10.39309456861339,0.0,1.4400000000000002e-10,0.0,0.0,0.0,1.4400000000000002e-10,0.0,0.0,0.0,1.0,2
2025/04/05 15:11:52.51046691,1743858712,46923703,mA1/gps,0,1,63.43621152862328,10.393094511854022,0.0,1.4400000000000002e-10,0.0,0.0,0.0,1.4400000000000002e-10,0.0,0.0,0.0,1.0,2
2025/04/05 15:11:52.104463618,1743858712,100486936,mA1/gps,0,1,63.43621153062599,10.393094454013042,0.0,1.4400000000000002e-10,0.0,0.0,0.0,1.4400000000000002e-10,0.0,0.0,0.0,1.0,2
2025/04/05 15:11:52.149012783,1743858712,146790181,mA1/gps,0,1,63.43621153293583,10.393094396078713,0.0,1.4400000000000002e-10,0.0,0.0,0.0,1.4400000000000002e-10,0.0,0.0,0.0,1.0,2
2025/04/05 15:11:52.199901523,1743858712,199619330,mA1/gps,0,1,63.43621153491589,10.393094337300948,0.0,1.4400000000000002e-10,0.0,0.0,0.0,1.4400000000000002e-10,0.0,0.0,0.0,1.0,2
2025/04/05 15:11:52.256332345,1743858712,254634119,mA1/gps,0,1,63.436211537536835,10.393094278167624,0.0,1.4400000000000002e-10,0.0,0.0,0.0,1.4400000000000002e-10,0.0,0.0,0.0,1.0,2
2025/04/05 15:11:52.301820643,1743858712,301151659,mA1/gps,0,1,63.43621153987697,10.393094217968649,0.0,1.4400000000000002e-10,0.0,0.0,0.0,1.4400000000000002e-10,0.0,0.0,0.0,1.0,2
2025/04/05 15:11:52.353253976,1743858712,351955072,mA1/gps,0,1,63.436211542418334,10.39309415678703,0.0,1.4400000000000002e-10,0.0,0.0,0.0,1.4400000000000002e-10,0.0,0.0,0.0,1.0,2
2025/04/05 15:11:52.398697123,1743858712,396245572,mA1/gps,0,1,63.4362115446708,10.393094094975627,0.0,1.4400000000000002e-10,0.0,0.0,0.0,1.4400000000000002e-10,0.0,0.0,0.0,1.0,2
2025/04/05 15:11:52.450599419,1743858712,450316991,mA1/gps,0,1,63.43621154694793,10.393094031687287,0.0,1.4400000000000002e-10,0.0,0.0,0.0,1.4400000000000002e-10,0.0,0.0,0.0,1.0,2
2025/04/05 15:11:52.493014698,1743858712,492812940,mA1/gps,0,1,63.436211549511846,10.393093966156181,0.0,1.4400000000000002e-10,0.0,0.0,0.0,1.4400000000000002e-10,0.0,0.0,0.0,1.0,2
2025/04/05 15:11:52.554041606,1743858712,550310666,mA1/gps,0,1,63.43621155162793,10.393093899850786,0.0,1.4400000000000002e-10,0.0,0.0,0.0,1.4400000000000002e-10,0.0,0.0,0.0,1.0,2
2025/04/05 15:11:52.593044774,1743858712,592820286,mA1/gps,0,1,63.436211553637875,10.393093831140234,0.0,1.4400000000000002e-10,0.0,0.0,0.0,1.4400000000000002e-10,0.0,0.0,0.0,1.0,2
2025/04/05 15:11:52.651730398,1743858712,650230283,mA1/gps,0,1,63.43621155592359,10.393093760600765,0.0,1.4400000000000002e-10,0.0,0.0,0.0,1.4400000000000002e-10,0.0,0.0,0.0,1.0,2
2025/04/05 15:11:52.698807757,1743858712,697087337,mA1/gps,0,1,63.436211558206026,10.393093687608907,0.0,1.4400000000000002e-10,0.0,0.0,0.0,1.4400000000000002e-10,0.0,0.0,0.0,1.0,2
2025/04/05 15:11:52.747683348,1743858712,744558597,mA1/gps,0,1,63.43621156050634,10.393093612667911,0.0,1.4400000000000002e-10,0.0,0.0,0.0,1.4400000000000002e-10,0.0,0.0,0.0,1.0,2
2025/04/05 15:11:52.801002843,1743858712,800394975,mA1/gps,0,1,63.436211562885475,10.393093535356483,0.0,1.4400000000000002e-10,0.0,0.0,0.0,1.4400000000000002e-10,0.0,0.0,0.0,1.0,2
2025/04/05 15:11:52.848126311,1743858712,846176013,mA1/gps,0,1,63.436211565150195,10.393093452385115,0.0,1.4400000000000002e-10,0.0,0.0,0.0,1.4400000000000002e-10,0.0,0.0,0.0,1.0,2
2025/04/05 15:11:52.897841228,1743858712,897716969,mA1/gps,0,1,63.43621156761917,10.393093366033586,0.0,1.4400000000000002e-10,0.0,0.0,0.0,1.4400000000000002e-10,0.0,0.0,0.0,1.0,2
2025/04/05 15:11:52.951815128,1743858712,950772819,mA1/gps,0,1,63.436211569875134,10.393093274828074,0.0,1.4400000000000002e-10,0.0,0.0,0.0,1.4400000000000002e-10,0.0,0.0,0.0,1.0,2
2025/04/05 15:11:52.994464126,1743858712,994166326,mA1/gps,0,1,63.436211572700564,10.393093179720045,0.0,1.4400000000000002e-10,0.0,0.0,0.0,1.4400000000000002e-10,0.0,0.0,0.0,1.0,2
2025/04/05 15:11:53.49813858,1743858713,49513878,mA1/gps,0,1,63.43621157501402,10.39309308087581,0.0,1.4400000000000002e-10,0.0,0.0,0.0,1.4400000000000002e-10,0.0,0.0,0.0,1.0,2
2025/04/05 15:11:53.96111782,1743858713,95937375,mA1/gps,0,1,63.436211578699215,10.393092981526397,0.0,1.4400000000000002e-10,0.0,0.0,0.0,1.4400000000000002e-10,0.0,0.0,0.0,1.0,2
2025/04/05 15:11:53.148187260,1743858713,147404606,mA1/gps,0,1,63.43621158130505,10.393092885182927,0.0,1.4400000000000002e-10,0.0,0.0,0.0,1.4400000000000002e-10,0.0,0.0,0.0,1.0,2
2025/04/05 15:11:53.201697428,1743858713,201522880,mA1/gps,0,1,63.43621158401095,10.3930927912666,0.0,1.4400000000000002e-10,0.0,0.0,0.0,1.4400000000000002e-10,0.0,0.0,0.0,1.0,2
2025/04/05 15:11:53.254939130,1743858713,251864805,mA1/gps,0,1,63.43621158976618,10.393092701836544,0.0,1.4400000000000002e-10,0.0,0.0,0.0,1.4400000000000002e-10,0.0,0.0,0.0,1.0,2
2025/04/05 15:11:53.302027381,1743858713,301193832,mA1/gps,0,1,63.43621159519308,10.393092618004314,0.0,1.4400000000000002e-10,0.0,0.0,0.0,1.4400000000000002e-10,0.0,0.0,0.0,1.0,2
2025/04/05 15:11:53.343555680,1743858713,343366716,mA1/gps,0,1,63.4362116000442,10.393092540326933,0.0,1.4400000000000002e-10,0.0,0.0,0.0,1.4400000000000002e-10,0.0,0.0,0.0,1.0,2
2025/04/05 15:11:53.398172088,1743858713,396949448,mA1/gps,0,1,63.43621160709742,10.393092469750671,0.0,1.4400000000000002e-10,0.0,0.0,0.0,1.4400000000000002e-10,0.0,0.0,0.0,1.0,2
2025/04/05 15:11:53.451921429,1743858713,451758654,mA1/gps,0,1,63.43621161530702,10.39309240616909,0.0,1.4400000000000002e-10,0.0,0.0,0.0,1.4400000000000002e-10,0.0,0.0,0.0,1.0,2
2025/04/05 15:11:53.502671910,1743858713,502488767,mA1/gps,0,1,63.436211622952925,10.393092350058643,0.0,1.4400000000000002e-10,0.0,0.0,0.0,1.4400000000000002e-10,0.0,0.0,0.0,1.0,2
2025/04/05 15:11:53.555683488,1743858713,553114517,mA1/gps,0,1,63.43621163216207,10.393092301086522,0.0,1.4400000000000002e-10,0.0,0.0,0.0,1.4400000000000002e-10,0.0,0.0,0.0,1.0,2
2025/04/05 15:11:53.596096723,1743858713,595778768,mA1/gps,0,1,63.436211643015625,10.393092256916301,0.0,1.4400000000000002e-10,0.0,0.0,0.0,1.4400000000000002e-10,0.0,0.0,0.0,1.0,2
2025/04/05 15:11:53.641751375,1743858713,641556046,mA1/gps,0,1,63.436211655219154,10.39309221869776,0.0,1.4400000000000002e-10,0.0,0.0,0.0,1.4400000000000002e-10,0.0,0.0,0.0,1.0,2
2025/04/05 15:11:53.696784393,1743858713,694618712,mA1/gps,0,1,63.436211669550175,10.393092182523477,0.0,1.4400000000000002e-10,0.0,0.0,0.0,1.4400000000000002e-10,0.0,0.0,0.0,1.0,2
2025/04/05 15:11:53.752739849,1743858713,752454681,mA1/gps,0,1,63.43621168495588,10.393092148992096,0.0,1.4400000000000002e-10,0.0,0.0,0.0,1.4400000000000002e-10,0.0,0.0,0.0,1.0,2
2025/04/05 15:11:53.794000031,1743858713,793704319,mA1/gps,0,1,63.43621170173436,10.393092114555865,0.0,1.4400000000000002e-10,0.0,0.0,0.0,1.4400000000000002e-10,0.0,0.0,0.0,1.0,2
2025/04/05 15:11:53.848291665,1743858713,848181336,mA1/gps,0,1,63.43621172089215,10.393092078017006,0.0,1.4400000000000002e-10,0.0,0.0,0.0,1.4400000000000002e-10,0.0,0.0,0.0,1.0,2
2025/04/05 15:11:53.898064378,1743858713,897698666,mA1/gps,0,1,63.43621174141909,10.393092042173858,0.0,1.4400000000000002e-10,0.0,0.0,0.0,1.4400000000000002e-10,0.0,0.0,0.0,1.0,2
2025/04/05 15:11:53.946147071,1743858713,944519716,mA1/gps,0,1,63.43621176385046,10.39309200747373,0.0,1.4400000000000002e-10,0.0,0.0,0.0,1.4400000000000002e-10,0.0,0.0,0.0,1.0,2
2025/04/05 15:11:53.991986964,1743858713,991578103,mA1/gps,0,1,63.43621178869071,10.393091973590137,0.0,1.4400000000000002e-10,0.0,0.0,0.0,1.4400000000000002e-10,0.0,0.0,0.0,1.0,2
2025/04/05 15:11:54.43077528,1743858714,42470434,mA1/gps,0,1,63.43621181526194,10.393091938924181,0.0,1.4400000000000002e-10,0.0,0.0,0.0,1.4400000000000002e-10,0.0,0.0,0.0,1.0,2
2025/04/05 15:11:54.93459014,1743858714,92383767,mA1/gps,0,1,63.436211845353874,10.39309190526507,0.0,1.4400000000000002e-10,0.0,0.0,0.0,1.4400000000000002e-10,0.0,0.0,0.0,1.0,2
2025/04/05 15:11:54.144470462,1743858714,143458338,mA1/gps,0,1,63.436211877104675,10.393091871936042,0.0,1.4400000000000002e-10,0.0,0.0,0.0,1.4400000000000002e-10,0.0,0.0,0.0,1.0,2
2025/04/05 15:11:54.193586227,1743858714,193337843,mA1/gps,0,1,63.436211910480516,10.393091839172913,0.0,1.4400000000000002e-10,0.0,0.0,0.0,1.4400000000000002e-10,0.0,0.0,0.0,1.0,2
2025/04/05 15:11:54.246587447,1743858714,246309260,mA1/gps,0,1,63.43621194559698,10.393091805896823,0.0,1.4400000000000002e-10,0.0,0.0,0.0,1.4400000000000002e-10,0.0,0.0,0.0,1.0,2
2025/04/05 15:11:54.296129017,1743858714,295923623,mA1/gps,0,1,63.43621198251042,10.393091773619656,0.0,1.4400000000000002e-10,0.0,0.0,0.0,1.4400000000000002e-10,0.0,0.0,0.0,1.0,2
2025/04/05 15:11:54.347681920,1743858714,346973622,mA1/gps,0,1,63.43621202249851,10.393091740673942,0.0,1.4400000000000002e-10,0.0,0.0,0.0,1.4400000000000002e-10,0.0,0.0,0.0,1.0,2
2025/04/05 15:11:54.397489572,1743858714,397207705,mA1/gps,0,1,63.43621206390796,10.393091708223453,0.0,1.4400000000000002e-10,0.0,0.0,0.0,1.4400000000000002e-10,0.0,0.0,0.0,1.0,2
2025/04/05 15:11:54.448456253,1743858714,448168030,mA1/gps,0,1,63.436212107703206,10.3930916745364,0.0,1.4400000000000002e-10,0.0,0.0,0.0,1.4400000000000002e-10,0.0,0.0,0.0,1.0,2
2025/04/05 15:11:54.498170914,1743858714,497949815,mA1/gps,0,1,63.43621215403346,10.393091641529908,0.0,1.4400000000000002e-10,0.0,0.0,0.0,1.4400000000000002e-10,0.0,0.0,0.0,1.0,2
2025/04/05 15:11:54.550544875,1743858714,549809065,mA1/gps,0,1,63.43621220153195,10.39309160919773,0.0,1.4400000000000002e-10,0.0,0.0,0.0,1.4400000000000002e-10,0.0,0.0,0.0,1.0,2
2025/04/05 15:11:54.599189239,1743858714,598887027,mA1/gps,0,1,63.43621224968863,10.393091578217303,0.0,1.4400000000000002e-10,0.0,0.0,0.0,1.4400000000000002e-10,0.0,0.0,0.0,1.0,2
2025/04/05 15:11:54.650716616,1743858714,650104298,mA1/gps,0,1,63.43621230000068,10.393091548376615,0.0,1.4400000000000002e-10,0.0,0.0,0.0,1.4400000000000002e-10,0.0,0.0,0.0,1.0,2
2025/04/05 15:11:54.700278879,1743858714,700015247,mA1/gps,0,1,63.43621235228578,10.393091520785662,0.0,1.4400000000000002e-10,0.0,0.0,0.0,1.4400000000000002e-10,0.0,0.0,0.0,1.0,2
2025/04/05 15:11:54.741696334,1743858714,740981577,mA1/gps,0,1,63.436212405531606,10.393091496113902,0.0,1.4400000000000002e-10,0.0,0.0,0.0,1.4400000000000002e-10,0.0,0.0,0.0,1.0,2
2025/04/05 15:11:54.791266953,1743858714,790872624,mA1/gps,0,1,63.43621245960964,10.39309147458705,0.0,1.4400000000000002e-10,0.0,0.0,0.0,1.4400000000000002e-10,0.0,0.0,0.0,1.0,2
2025/04/05 15:11:54.842629421,1743858714,842021534,mA1/gps,0,1,63.436212515525554,10.393091455496418,0.0,1.4400000000000002e-10,0.0,0.0,0.0,1.4400000000000002e-10,0.0,0.0,0.0,1.0,2
2025/04/05 15:11:54.893666305,1743858714,892458746,mA1/gps,0,1,63.43621257271169,10.393091438318223,0.0,1.4400000000000002e-10,0.0,0.0,0.0,1.4400000000000002e-10,0.0,0.0,0.0,1.0,2
2025/04/05 15:11:54.948020537,1743858714,946797585,mA1/gps,0,1,63.43621263041663,10.393091424958998,0.0,1.4400000000000002e-10,0.0,0.0,0.0,1.4400000000000002e-10,0.0,0.0,0.0,1.0,2
2025/04/05 15:11:54.997889584,1743858714,997136620,mA1/gps,0,1,63.43621268916871,10.39309141273711,0.0,1.4400000000000002e-10,0.0,0.0,0.0,1.4400000000000002e-10,0.0,0.0,0.0,1.0,2
2025/04/05 15:11:55.58889033,1743858715,52474961,mA1/gps,0,1,63.43621275262983,10.393091403740955,0.0,1.4400000000000002e-10,0.0,0.0,0.0,1.4400000000000002e-10,0.0,0.0,0.0,1.0,2
2025/04/05 15:11:55.96231981,1743858715,94911401,mA1/gps,0,1,63.43621281083641,10.393091395743959,0.0,1.4400000000000002e-10,0.0,0.0,0.0,1.4400000000000002e-10,0.0,0.0,0.0,1.0,2
2025/04/05 15:11:55.157380807,1743858715,151611190,mA1/gps,0,1,63.43621287349447,10.393091387605505,0.0,1.4400000000000002e-10,0.0,0.0,0.0,1.4400000000000002e-10,0.0,0.0,0.0,1.0,2
2025/04/05 15:11:55.193219236,1743858715,192784192,mA1/gps,0,1,63.43621293930542,10.393091379459063,0.0,1.4400000000000002e-10,0.0,0.0,0.0,1.4400000000000002e-10,0.0,0.0,0.0,1.0,2
2025/04/05 15:11:55.281119397,1743858715,253024121,mA1/gps,0,1,63.43621300225146,10.393091370820954,0.0,1.4400000000000002e-10,0.0,0.0,0.0,1.4400000000000002e-10,0.0,0.0,0.0,1.0,2
2025/04/05 15:11:55.299786583,1743858715,290458955,mA1/gps,0,1,63.43621306773384,10.393091361830917,0.0,1.4400000000000002e-10,0.0,0.0,0.0,1.4400000000000002e-10,0.0,0.0,0.0,1.0,2
2025/04/05 15:11:55.344985201,1743858715,343194874,mA1/gps,0,1,63.436213134799345,10.393091350532075,0.0,1.4400000000000002e-10,0.0,0.0,0.0,1.4400000000000002e-10,0.0,0.0,0.0,1.0,2
2025/04/05 15:11:55.439239222,1743858715,402602643,mA1/gps,0,1,63.43621320427569,10.393091336522676,0.0,1.4400000000000002e-10,0.0,0.0,0.0,1.4400000000000002e-10,0.0,0.0,0.0,1.0,2
2025/04/05 15:11:55.489704905,1743858715,452863478,mA1/gps,0,1,63.4362132736085,10.393091319196287,0.0,1.4400000000000002e-10,0.0,0.0,0.0,1.4400000000000002e-10,0.0,0.0,0.0,1.0,2
2025/04/05 15:11:55.510034228,1743858715,492060953,mA1/gps,0,1,63.436213344995636,10.39309129885749,0.0,1.4400000000000002e-10,0.0,0.0,0.0,1.4400000000000002e-10,0.0,0.0,0.0,1.0,2
2025/04/05 15:11:55.567673425,1743858715,546240572,mA1/gps,0,1,63.43621341846785,10.3930912751397,0.0,1.4400000000000002e-10,0.0,0.0,0.0,1.4400000000000002e-10,0.0,0.0,0.0,1.0,2
2025/04/05 15:11:55.603558914,1743858715,597709096,mA1/gps,0,1,63.436213492597325,10.393091247914741,0.0,1.4400000000000002e-10,0.0,0.0,0.0,1.4400000000000002e-10,0.0,0.0,0.0,1.0,2
2025/04/05 15:11:55.652297808,1743858715,646745344,mA1/gps,0,1,63.436213567916965,10.393091217956442,0.0,1.4400000000000002e-10,0.0,0.0,0.0,1.4400000000000002e-10,0.0,0.0,0.0,1.0,2
2025/04/05 15:11:55.705261347,1743858715,697179062,mA1/gps,0,1,63.43621364594624,10.393091185020445,0.0,1.4400000000000002e-10,0.0,0.0,0.0,1.4400000000000002e-10,0.0,0.0,0.0,1.0,2
2025/04/05 15:11:55.772904648,1743858715,753458143,mA1/gps,0,1,63.43621372570319,10.393091148860822,0.0,1.4400000000000002e-10,0.0,0.0,0.0,1.4400000000000002e-10,0.0,0.0,0.0,1.0,2
2025/04/05 15:11:55.801007722,1743858715,791918745,mA1/gps,0,1,63.43621380661451,10.393091111309394,0.0,1.4400000000000002e-10,0.0,0.0,0.0,1.4400000000000002e-10,0.0,0.0,0.0,1.0,2
2025/04/05 15:11:55.883109173,1743858715,849446939,mA1/gps,0,1,63.436213889278584,10.393091073360118,0.0,1.4400000000000002e-10,0.0,0.0,0.0,1.4400000000000002e-10,0.0,0.0,0.0,1.0,2
2025/04/05 15:11:55.891405463,1743858715,890521066,mA1/gps,0,1,63.43621397369133,10.393091034643787,0.0,1.4400000000000002e-10,0.0,0.0,0.0,1.4400000000000002e-10,0.0,0.0,0.0,1.0,2
2025/04/05 15:11:55.952031297,1743858715,946597255,mA1/gps,0,1,63.43621406045759,10.393090995415067,0.0,1.4400000000000002e-10,0.0,0.0,0.0,1.4400000000000002e-10,0.0,0.0,0.0,1.0,2
2025/04/05 15:11:56.3832830,1743858715,996391363,mA1/gps,0,1,63.4362141483558,10.393090957108736,0.0,1.4400000000000002e-10,0.0,0.0,0.0,1.4400000000000002e-10,0.0,0.0,0.0,1.0,2
2025/04/05 15:11:56.97393126,1743858716,52907393,mA1/gps,0,1,63.43621423647419,10.393090920993956,0.0,1.4400000000000002e-10,0.0,0.0,0.0,1.4400000000000002e-10,0.0,0.0,0.0,1.0,2
2025/04/05 15:11:56.100107133,1743858716,96011834,mA1/gps,0,1,63.43621432822553,10.393090885793768,0.0,1.4400000000000002e-10,0.0,0.0,0.0,1.4400000000000002e-10,0.0,0.0,0.0,1.0,2
2025/04/05 15:11:56.170047196,1743858716,150452866,mA1/gps,0,1,63.43621441922739,10.39309085287876,0.0,1.4400000000000002e-10,0.0,0.0,0.0,1.4400000000000002e-10,0.0,0.0,0.0,1.0,2
2025/04/05 15:11:56.211688091,1743858716,195246104,mA1/gps,0,1,63.43621451222503,10.393090822161705,0.0,1.4400000000000002e-10,0.0,0.0,0.0,1.4400000000000002e-10,0.0,0.0,0.0,1.0,2
2025/04/05 15:11:56.251729649,1743858716,249261405,mA1/gps,0,1,63.43621460671029,10.393090793141749,0.0,1.4400000000000002e-10,0.0,0.0,0.0,1.4400000000000002e-10,0.0,0.0,0.0,1.0,2
2025/04/05 15:11:56.300126518,1743858716,296468257,mA1/gps,0,1,63.43621470267996,10.39309076588693,0.0,1.4400000000000002e-10,0.0,0.0,0.0,1.4400000000000002e-10,0.0,0.0,0.0,1.0,2
2025/04/05 15:11:56.415024223,1743858716,351543256,mA1/gps,0,1,63.436214797722926,10.39309074083466,0.0,1.4400000000000002e-10,0.0,0.0,0.0,1.4400000000000002e-10,0.0,0.0,0.0,1.0,2
2025/04/05 15:11:56.446939604,1743858716,392254469,mA1/gps,0,1,63.436214894244095,10.393090716025982,0.0,1.4400000000000002e-10,0.0,0.0,0.0,1.4400000000000002e-10,0.0,0.0,0.0,1.0,2
2025/04/05 15:11:56.480694645,1743858716,442946763,mA1/gps,0,1,63.43621499319581,10.393090691762538,0.0,1.4400000000000002e-10,0.0,0.0,0.0,1.4400000000000002e-10,0.0,0.0,0.0,1.0,2
2025/04/05 15:11:56.506355524,1743858716,493482452,mA1/gps,0,1,63.43621509087755,10.393090668961124,0.0,1.4400000000000002e-10,0.0,0.0,0.0,1.4400000000000002e-10,0.0,0.0,0.0,1.0,2
2025/04/05 15:11:56.554626939,1743858716,547184832,mA1/gps,0,1,63.436215189775304,10.39309064420202,0.0,1.4400000000000002e-10,0.0,0.0,0.0,1.4400000000000002e-10,0.0,0.0,0.0,1.0,2
2025/04/05 15:11:56.625221944,1743858716,598372148,mA1/gps,0,1,63.43621528884638,10.393090619713167,0.0,1.4400000000000002e-10,0.0,0.0,0.0,1.4400000000000002e-10,0.0,0.0,0.0,1.0,2
2025/04/05 15:11:56.725554324,1743858716,658427272,mA1/gps,0,1,63.436215389656034,10.393090592988257,0.0,1.4400000000000002e-10,0.0,0.0,0.0,1.4400000000000002e-10,0.0,0.0,0.0,1.0,2
2025/04/05 15:11:56.759836388,1743858716,693979146,mA1/gps,0,1,63.436215490551795,10.393090565016994,0.0,1.4400000000000002e-10,0.0,0.0,0.0,1.4400000000000002e-10,0.0,0.0,0.0,1.0,2
2025/04/05 15:11:56.830632691,1743858716,751732810,mA1/gps,0,1,63.43621559156495,10.393090534208214,0.0,1.4400000000000002e-10,0.0,0.0,0.0,1.4400000000000002e-10,0.0,0.0,0.0,1.0,2
2025/04/05 15:11:56.859400855,1743858716,791827998,mA1/gps,0,1,63.43621569426212,10.393090501676582,0.0,1.4400000000000002e-10,0.0,0.0,0.0,1.4400000000000002e-10,0.0,0.0,0.0,1.0,2
2025/04/05 15:11:56.914611208,1743858716,851748480,mA1/gps,0,1,63.43621579729455,10.393090466009836,0.0,1.4400000000000002e-10,0.0,0.0,0.0,1.4400000000000002e-10,0.0,0.0,0.0,1.0,2
2025/04/05 15:11:56.963817934,1743858716,893351541,mA1/gps,0,1,63.43621589961244,10.3930904277555,0.0,1.4400000000000002e-10,0.0,0.0,0.0,1.4400000000000002e-10,0.0,0.0,0.0,1.0,2
2025/04/05 15:11:56.996740468,1743858716,949897169,mA1/gps,0,1,63.43621600397214,10.393090387956391,0.0,1.4400000000000002e-10,0.0,0.0,0.0,1.4400000000000002e-10,0.0,0.0,0.0,1.0,2
2025/04/05 15:11:57.41043692,1743858716,992775068,mA1/gps,0,1,63.43621611022755,10.393090345379798,0.0,1.4400000000000002e-10,0.0,0.0,0.0,1.4400000000000002e-10,0.0,0.0,0.0,1.0,2
2025/04/05 15:11:57.174590209,1743858717,52828399,mA1/gps,0,1,63.43621621752122,10.393090300952501,0.0,1.4400000000000002e-10,0.0,0.0,0.0,1.4400000000000002e-10,0.0,0.0,0.0,1.0,2
2025/04/05 15:11:57.251383913,1743858717,91718473,mA1/gps,0,1,63.43621632552959,10.393090255128289,0.0,1.4400000000000002e-10,0.0,0.0,0.0,1.4400000000000002e-10,0.0,0.0,0.0,1.0,2
2025/04/05 15:11:57.319774458,1743858717,150097083,mA1/gps,0,1,63.436216434452696,10.393090209505157,0.0,1.4400000000000002e-10,0.0,0.0,0.0,1.4400000000000002e-10,0.0,0.0,0.0,1.0,2
2025/04/05 15:11:57.350727504,1743858717,199112778,mA1/gps,0,1,63.436216544860045,10.393090161633259,0.0,1.4400000000000002e-10,0.0,0.0,0.0,1.4400000000000002e-10,0.0,0.0,0.0,1.0,2
2025/04/05 15:11:57.382898848,1743858717,247781214,mA1/gps,0,1,63.436216658600365,10.393090115062318,0.0,1.4400000000000002e-10,0.0,0.0,0.0,1.4400000000000002e-10,0.0,0.0,0.0,1.0,2
2025/04/05 15:11:57.413170828,1743858717,293883392,mA1/gps,0,1,63.43621677201572,10.39309006795508,0.0,1.4400000000000002e-10,0.0,0.0,0.0,1.4400000000000002e-10,0.0,0.0,0.0,1.0,2
2025/04/05 15:11:57.466618625,1743858717,351135368,mA1/gps,0,1,63.43621688749758,10.393090021882097,0.0,1.4400000000000002e-10,0.0,0.0,0.0,1.4400000000000002e-10,0.0,0.0,0.0,1.0,2
2025/04/05 15:11:57.558660717,1743858717,399722138,mA1/gps,0,1,63.43621700384757,10.393089976608472,0.0,1.4400000000000002e-10,0.0,0.0,0.0,1.4400000000000002e-10,0.0,0.0,0.0,1.0,2
2025/04/05 15:11:57.681236807,1743858717,442867140,mA1/gps,0,1,63.43621712114095,10.393089933065932,0.0,1.4400000000000002e-10,0.0,0.0,0.0,1.4400000000000002e-10,0.0,0.0,0.0,1.0,2
2025/04/05 15:11:57.742027883,1743858717,495853500,mA1/gps,0,1,63.436217240825066,10.393089890698093,0.0,1.4400000000000002e-10,0.0,0.0,0.0,1.4400000000000002e-10,0.0,0.0,0.0,1.0,2
2025/04/05 15:11:57.785091268,1743858717,548468264,mA1/gps,0,1,63.4362173596805,10.393089850632025,0.0,1.4400000000000002e-10,0.0,0.0,0.0,1.4400000000000002e-10,0.0,0.0,0.0,1.0,2
2025/04/05 15:11:58.708554039,1743858717,951874761,mA1/gps,0,1,63.4362183512823,10.393089538644906,0.0,1.4400000000000002e-10,0.0,0.0,0.0,1.4400000000000002e-10,0.0,0.0,0.0,1.0,2
2025/04/05 15:11:58.708638937,1743858717,992546678,mA1/gps,0,1,63.436218478336066,10.393089496282556,0.0,1.4400000000000002e-10,0.0,0.0,0.0,1.4400000000000002e-10,0.0,0.0,0.0,1.0,2
2025/04/05 15:11:58.738321548,1743858718,44766238,mA1/gps,0,1,63.43621860503,10.393089452830814,0.0,1.4400000000000002e-10,0.0,0.0,0.0,1.4400000000000002e-10,0.0,0.0,0.0,1.0,2
2025/04/05 15:11:58.738399581,1743858718,97374067,mA1/gps,0,1,63.43621873254545,10.393089406628333,0.0,1.4400000000000002e-10,0.0,0.0,0.0,1.4400000000000002e-10,0.0,0.0,0.0,1.0,2
2025/04/05 15:11:58.738457855,1743858718,151666733,mA1/gps,0,1,63.43621885949763,10.393089359894024,0.0,1.4400000000000002e-10,0.0,0.0,0.0,1.4400000000000002e-10,0.0,0.0,0.0,1.0,2
2025/04/05 15:11:58.738497202,1743858718,192966713,mA1/gps,0,1,63.43621898698868,10.393089309620445,0.0,1.4400000000000002e-10,0.0,0.0,0.0,1.4400000000000002e-10,0.0,0.0,0.0,1.0,2
2025/04/05 15:11:58.738535585,1743858718,247822757,mA1/gps,0,1,63.43621911447865,10.393089258315513,0.0,1.4400000000000002e-10,0.0,0.0,0.0,1.4400000000000002e-10,0.0,0.0,0.0,1.0,2
2025/04/05 15:11:58.738569143,1743858718,296668556,mA1/gps,0,1,63.436219242787,10.393089205412378,0.0,1.4400000000000002e-10,0.0,0.0,0.0,1.4400000000000002e-10,0.0,0.0,0.0,1.0,2
2025/04/05 15:11:58.738603345,1743858718,341514285,mA1/gps,0,1,63.43621937205339,10.393089150996163,0.0,1.4400000000000002e-10,0.0,0.0,0.0,1.4400000000000002e-10,0.0,0.0,0.0,1.0,2
2025/04/05 15:11:58.838041059,1743858718,392506849,mA1/gps,0,1,63.436219500981444,10.393089096234984,0.0,1.4400000000000002e-10,0.0,0.0,0.0,1.4400000000000002e-10,0.0,0.0,0.0,1.0,2
2025/04/05 15:11:58.838105087,1743858718,453692717,mA1/gps,0,1,63.43621963263687,10.393089039854566,0.0,1.4400000000000002e-10,0.0,0.0,0.0,1.4400000000000002e-10,0.0,0.0,0.0,1.0,2
2025/04/05 15:11:58.838140033,1743858718,495791554,mA1/gps,0,1,63.436219764698386,10.393088983935998,0.0,1.4400000000000002e-10,0.0,0.0,0.0,1.4400000000000002e-10,0.0,0.0,0.0,1.0,2
2025/04/05 15:11:58.838173319,1743858718,552079885,mA1/gps,0,1,63.436219896830046,10.393088927586728,0.0,1.4400000000000002e-10,0.0,0.0,0.0,1.4400000000000002e-10,0.0,0.0,0.0,1.0,2
2025/04/05 15:11:58.838206653,1743858718,599397139,mA1/gps,0,1,63.43622003063768,10.393088871772125,0.0,1.4400000000000002e-10,0.0,0.0,0.0,1.4400000000000002e-10,0.0,0.0,0.0,1.0,2
2025/04/05 15:11:58.838239746,1743858718,644982702,mA1/gps,0,1,63.436220165921995,10.393088815571732,0.0,1.4400000000000002e-10,0.0,0.0,0.0,1.4400000000000002e-10,0.0,0.0,0.0,1.0,2
2025/04/05 15:11:59.10924349,1743858718,701270541,mA1/gps,0,1,63.436220302043715,10.393088760537115,0.0,1.4400000000000002e-10,0.0,0.0,0.0,1.4400000000000002e-10,0.0,0.0,0.0,1.0,2
2025/04/05 15:11:59.60144189,1743858718,754215160,mA1/gps,0,1,63.43622043929792,10.39308870680573,0.0,1.4400000000000002e-10,0.0,0.0,0.0,1.4400000000000002e-10,0.0,0.0,0.0,1.0,2
2025/04/05 15:12:00.164704195,1743858718,844157952,mA1/gps,0,1,63.43622071677619,10.393088599784644,0.0,1.4400000000000002e-10,0.0,0.0,0.0,1.4400000000000002e-10,0.0,0.0,0.0,1.0,2
2025/04/05 15:12:00.187814912,1743858719,2297514,mA1/gps,0,1,63.43622113722111,10.39308843581375,0.0,1.4400000000000002e-10,0.0,0.0,0.0,1.4400000000000002e-10,0.0,0.0,0.0,1.0,2
2025/04/05 15:12:00.188279846,1743858719,50921037,mA1/gps,0,1,63.43622127819615,10.393088379373925,0.0,1.4400000000000002e-10,0.0,0.0,0.0,1.4400000000000002e-10,0.0,0.0,0.0,1.0,2
2025/04/05 15:12:00.188335422,1743858719,90999978,mA1/gps,0,1,63.43622141864573,10.393088321061084,0.0,1.4400000000000002e-10,0.0,0.0,0.0,1.4400000000000002e-10,0.0,0.0,0.0,1.0,2
2025/04/05 15:12:00.581528967,1743858719,291052897,mA1/gps,0,1,63.43622196359782,10.393088088643687,0.0,1.4400000000000002e-10,0.0,0.0,0.0,1.4400000000000002e-10,0.0,0.0,0.0,1.0,2
2025/04/05 15:12:00.716025700,1743858719,394246124,mA1/gps,0,1,63.43622222517612,10.393087977402358,0.0,1.4400000000000002e-10,0.0,0.0,0.0,1.4400000000000002e-10,0.0,0.0,0.0,1.0,2
2025/04/05 15:12:00.726992438,1743858719,443961778,mA1/gps,0,1,63.43622235379567,10.393087924948277,0.0,1.4400000000000002e-10,0.0,0.0,0.0,1.4400000000000002e-10,0.0,0.0,0.0,1.0,2
2025/04/05 15:12:00.727070238,1743858719,490956101,mA1/gps,0,1,63.43622247988455,10.393087877627583,0.0,1.4400000000000002e-10,0.0,0.0,0.0,1.4400000000000002e-10,0.0,0.0,0.0,1.0,2
2025/04/05 15:12:00.727116406,1743858719,549328541,mA1/gps,0,1,63.436222603339004,10.39308783469858,0.0,1.4400000000000002e-10,0.0,0.0,0.0,1.4400000000000002e-10,0.0,0.0,0.0,1.0,2
2025/04/05 15:12:00.727161689,1743858719,595190068,mA1/gps,0,1,63.4362227244708,10.393087796813345,0.0,1.4400000000000002e-10,0.0,0.0,0.0,1.4400000000000002e-10,0.0,0.0,0.0,1.0,2
2025/04/05 15:12:00.727207826,1743858719,647922155,mA1/gps,0,1,63.436222843542346,10.393087764281704,0.0,1.4400000000000002e-10,0.0,0.0,0.0,1.4400000000000002e-10,0.0,0.0,0.0,1.0,2
2025/04/05 15:12:00.806792677,1743858719,699133024,mA1/gps,0,1,63.43622296155397,10.393087736890966,0.0,1.4400000000000002e-10,0.0,0.0,0.0,1.4400000000000002e-10,0.0,0.0,0.0,1.0,2
2025/04/05 15:12:00.806892311,1743858719,748791083,mA1/gps,0,1,63.43622307848006,10.393087715227578,0.0,1.4400000000000002e-10,0.0,0.0,0.0,1.4400000000000002e-10,0.0,0.0,0.0,1.0,2
2025/04/05 15:12:00.806930182,1743858719,795783796,mA1/gps,0,1,63.43622319422902,10.393087699355284,0.0,1.4400000000000002e-10,0.0,0.0,0.0,1.4400000000000002e-10,0.0,0.0,0.0,1.0,2
2025/04/05 15:12:01.130755788,1743858719,952487332,mA1/gps,0,1,63.436223538259526,10.393087680988284,0.0,1.4400000000000002e-10,0.0,0.0,0.0,1.4400000000000002e-10,0.0,0.0,0.0,1.0,2
2025/04/05 15:12:01.130837607,1743858719,998779009,mA1/gps,0,1,63.43622365326724,10.393087680907806,0.0,1.4400000000000002e-10,0.0,0.0,0.0,1.4400000000000002e-10,0.0,0.0,0.0,1.0,2
2025/04/05 15:12:01.130885221,1743858720,53541735,mA1/gps,0,1,63.436223768222334,10.393087684312098,0.0,1.4400000000000002e-10,0.0,0.0,0.0,1.4400000000000002e-10,0.0,0.0,0.0,1.0,2
2025/04/05 15:12:01.130931509,1743858720,101758138,mA1/gps,0,1,63.436223884719986,10.393087688401241,0.0,1.4400000000000002e-10,0.0,0.0,0.0,1.4400000000000002e-10,0.0,0.0,0.0,1.0,2
2025/04/05 15:12:01.185714610,1743858720,144450834,mA1/gps,0,1,63.436224001586595,10.393087691524753,0.0,1.4400000000000002e-10,0.0,0.0,0.0,1.4400000000000002e-10,0.0,0.0,0.0,1.0,2
2025/04/05 15:12:01.185792668,1743858720,200700772,mA1/gps,0,1,63.436224120007694,10.393087694026288,0.0,1.4400000000000002e-10,0.0,0.0,0.0,1.4400000000000002e-10,0.0,0.0,0.0,1.0,2
2025/04/05 15:12:01.185830578,1743858720,249210586,mA1/gps,0,1,63.43622423709058,10.393087695817941,0.0,1.4400000000000002e-10,0.0,0.0,0.0,1.4400000000000002e-10,0.0,0.0,0.0,1.0,2
2025/04/05 15:12:01.185867104,1743858720,297331554,mA1/gps,0,1,63.43622435535907,10.393087696036995,0.0,1.4400000000000002e-10,0.0,0.0,0.0,1.4400000000000002e-10,0.0,0.0,0.0,1.0,2
2025/04/05 15:12:01.288643014,1743858720,345927178,mA1/gps,0,1,63.43622447697297,10.39308769362039,0.0,1.4400000000000002e-10,0.0,0.0,0.0,1.4400000000000002e-10,0.0,0.0,0.0,1.0,2
2025/04/05 15:12:01.288711461,1743858720,396309042,mA1/gps,0,1,63.43622459858134,10.393087689304217,0.0,1.4400000000000002e-10,0.0,0.0,0.0,1.4400000000000002e-10,0.0,0.0,0.0,1.0,2
2025/04/05 15:12:01.288747840,1743858720,450109053,mA1/gps,0,1,63.43622472139296,10.393087684153155,0.0,1.4400000000000002e-10,0.0,0.0,0.0,1.4400000000000002e-10,0.0,0.0,0.0,1.0,2
2025/04/05 15:12:01.288783792,1743858720,502217517,mA1/gps,0,1,63.43622484298147,10.393087677848635,0.0,1.4400000000000002e-10,0.0,0.0,0.0,1.4400000000000002e-10,0.0,0.0,0.0,1.0,2
2025/04/05 15:12:01.288818892,1743858720,550534199,mA1/gps,0,1,63.43622496465716,10.393087671345963,0.0,1.4400000000000002e-10,0.0,0.0,0.0,1.4400000000000002e-10,0.0,0.0,0.0,1.0,2
2025/04/05 15:12:01.290031849,1743858720,601715490,mA1/gps,0,1,63.436225087598594,10.39308766641159,0.0,1.4400000000000002e-10,0.0,0.0,0.0,1.4400000000000002e-10,0.0,0.0,0.0,1.0,2
2025/04/05 15:12:01.290105051,1743858720,645973920,mA1/gps,0,1,63.43622520944061,10.39308766103732,0.0,1.4400000000000002e-10,0.0,0.0,0.0,1.4400000000000002e-10,0.0,0.0,0.0,1.0,2
2025/04/05 15:12:01.290141033,1743858720,697127011,mA1/gps,0,1,63.436225330635125,10.393087659562257,0.0,1.4400000000000002e-10,0.0,0.0,0.0,1.4400000000000002e-10,0.0,0.0,0.0,1.0,2
2025/04/05 15:12:01.290176207,1743858720,746491965,mA1/gps,0,1,63.43622545187441,10.393087660436871,0.0,1.4400000000000002e-10,0.0,0.0,0.0,1.4400000000000002e-10,0.0,0.0,0.0,1.0,2
2025/04/05 15:12:01.290211760,1743858720,797577779,mA1/gps,0,1,63.43622557169569,10.393087665605115,0.0,1.4400000000000002e-10,0.0,0.0,0.0,1.4400000000000002e-10,0.0,0.0,0.0,1.0,2
2025/04/05 15:12:01.601835365,1743858720,845408296,mA1/gps,0,1,63.43622568876402,10.393087676811527,0.0,1.4400000000000002e-10,0.0,0.0,0.0,1.4400000000000002e-10,0.0,0.0,0.0,1.0,2
2025/04/05 15:12:01.601905118,1743858720,901739385,mA1/gps,0,1,63.4362258052027,10.393087692696191,0.0,1.4400000000000002e-10,0.0,0.0,0.0,1.4400000000000002e-10,0.0,0.0,0.0,1.0,2
2025/04/05 15:12:01.701645054,1743858720,946575696,mA1/gps,0,1,63.43622592276322,10.393087712741016,0.0,1.4400000000000002e-10,0.0,0.0,0.0,1.4400000000000002e-10,0.0,0.0,0.0,1.0,2
2025/04/05 15:12:01.701706431,1743858720,996640483,mA1/gps,0,1,63.43622603759863,10.393087739944225,0.0,1.4400000000000002e-10,0.0,0.0,0.0,1.4400000000000002e-10,0.0,0.0,0.0,1.0,2
2025/04/05 15:12:01.701747290,1743858721,50726309,mA1/gps,0,1,63.436226152188674,10.393087772144698,0.0,1.4400000000000002e-10,0.0,0.0,0.0,1.4400000000000002e-10,0.0,0.0,0.0,1.0,2
2025/04/05 15:12:01.897870995,1743858721,94838666,mA1/gps,0,1,63.436226264885114,10.393087811094006,0.0,1.4400000000000002e-10,0.0,0.0,0.0,1.4400000000000002e-10,0.0,0.0,0.0,1.0,2
2025/04/05 15:12:01.897946019,1743858721,146896486,mA1/gps,0,1,63.43622637664559,10.393087854591885,0.0,1.4400000000000002e-10,0.0,0.0,0.0,1.4400000000000002e-10,0.0,0.0,0.0,1.0,2
2025/04/05 15:12:01.897984919,1743858721,201746728,mA1/gps,0,1,63.436226489012476,10.393087902614589,0.0,1.4400000000000002e-10,0.0,0.0,0.0,1.4400000000000002e-10,0.0,0.0,0.0,1.0,2
2025/04/05 15:12:01.941011401,1743858721,248694273,mA1/gps,0,1,63.43622660123468,10.393087955014485,0.0,1.4400000000000002e-10,0.0,0.0,0.0,1.4400000000000002e-10,0.0,0.0,0.0,1.0,2
2025/04/05 15:12:01.941087976,1743858721,299579244,mA1/gps,0,1,63.436226713062226,10.393088010391143,0.0,1.4400000000000002e-10,0.0,0.0,0.0,1.4400000000000002e-10,0.0,0.0,0.0,1.0,2
2025/04/05 15:12:02.308698898,1743858721,353503524,mA1/gps,0,1,63.43622682531258,10.393088068193329,0.0,1.4400000000000002e-10,0.0,0.0,0.0,1.4400000000000002e-10,0.0,0.0,0.0,1.0,2
2025/04/05 15:12:02.463578109,1743858721,390611370,mA1/gps,0,1,63.436226939513894,10.393088126500679,0.0,1.4400000000000002e-10,0.0,0.0,0.0,1.4400000000000002e-10,0.0,0.0,0.0,1.0,2
2025/04/05 15:12:02.463658632,1743858721,446359156,mA1/gps,0,1,63.436227054763215,10.393088185814333,0.0,1.4400000000000002e-10,0.0,0.0,0.0,1.4400000000000002e-10,0.0,0.0,0.0,1.0,2
2025/04/05 15:12:02.463704529,1743858721,497919353,mA1/gps,0,1,63.4362271701499,10.393088245522335,0.0,1.4400000000000002e-10,0.0,0.0,0.0,1.4400000000000002e-10,0.0,0.0,0.0,1.0,2
2025/04/05 15:12:02.463749012,1743858721,545500028,mA1/gps,0,1,63.436227287776106,10.393088304470831,0.0,1.4400000000000002e-10,0.0,0.0,0.0,1.4400000000000002e-10,0.0,0.0,0.0,1.0,2
2025/04/05 15:12:02.463793960,1743858721,592510594,mA1/gps,0,1,63.43622740571964,10.393088362925575,0.0,1.4400000000000002e-10,0.0,0.0,0.0,1.4400000000000002e-10,0.0,0.0,0.0,1.0,2
2025/04/05 15:12:03.21644514,1743858721,646914574,mA1/gps,0,1,63.436227526925556,10.393088420011956,0.0,1.4400000000000002e-10,0.0,0.0,0.0,1.4400000000000002e-10,0.0,0.0,0.0,1.0,2
2025/04/05 15:12:03.21718750,1743858721,697934257,mA1/gps,0,1,63.43622764953768,10.393088477181909,0.0,1.4400000000000002e-10,0.0,0.0,0.0,1.4400000000000002e-10,0.0,0.0,0.0,1.0,2
2025/04/05 15:12:03.21754714,1743858721,753255620,mA1/gps,0,1,63.436227774322845,10.393088532581782,0.0,1.4400000000000002e-10,0.0,0.0,0.0,1.4400000000000002e-10,0.0,0.0,0.0,1.0,2
2025/04/05 15:12:03.21788749,1743858721,796293801,mA1/gps,0,1,63.43622790053178,10.39308858721545,0.0,1.4400000000000002e-10,0.0,0.0,0.0,1.4400000000000002e-10,0.0,0.0,0.0,1.0,2
2025/04/05 15:12:03.21822482,1743858721,849827513,mA1/gps,0,1,63.436228028580324,10.393088641852131,0.0,1.4400000000000002e-10,0.0,0.0,0.0,1.4400000000000002e-10,0.0,0.0,0.0,1.0,2
2025/04/05 15:12:03.21856212,1743858721,894709003,mA1/gps,0,1,63.43622815784311,10.393088696676417,0.0,1.4400000000000002e-10,0.0,0.0,0.0,1.4400000000000002e-10,0.0,0.0,0.0,1.0,2
2025/04/05 15:12:03.21889939,1743858721,948601338,mA1/gps,0,1,63.43622828931274,10.393088752810806,0.0,1.4400000000000002e-10,0.0,0.0,0.0,1.4400000000000002e-10,0.0,0.0,0.0,1.0,2
2025/04/05 15:12:03.697242260,1743858722,51759649,mA1/gps,0,1,63.43622855474543,10.393088870526263,0.0,1.4400000000000002e-10,0.0,0.0,0.0,1.4400000000000002e-10,0.0,0.0,0.0,1.0,2
2025/04/05 15:12:03.697323039,1743858722,92733035,mA1/gps,0,1,63.43622868900948,10.39308893490308,0.0,1.4400000000000002e-10,0.0,0.0,0.0,1.4400000000000002e-10,0.0,0.0,0.0,1.0,2
2025/04/05 15:12:03.697364434,1743858722,146700409,mA1/gps,0,1,63.43622882207726,10.393089004941887,0.0,1.4400000000000002e-10,0.0,0.0,0.0,1.4400000000000002e-10,0.0,0.0,0.0,1.0,2
2025/04/05 15:12:03.697405141,1743858722,199566092,mA1/gps,0,1,63.4362289573668,10.393089080172553,0.0,1.4400000000000002e-10,0.0,0.0,0.0,1.4400000000000002e-10,0.0,0.0,0.0,1.0,2
2025/04/05 15:12:03.697451129,1743858722,250526140,mA1/gps,0,1,63.43622909158205,10.39308916219765,0.0,1.4400000000000002e-10,0.0,0.0,0.0,1.4400000000000002e-10,0.0,0.0,0.0,1.0,2
2025/04/05 15:12:03.697486684,1743858722,294791658,mA1/gps,0,1,63.43622922665649,10.393089247897526,0.0,1.4400000000000002e-10,0.0,0.0,0.0,1.4400000000000002e-10,0.0,0.0,0.0,1.0,2
2025/04/05 15:12:03.944454968,1743858722,446337256,mA1/gps,0,1,63.43622962650783,10.393089522069479,0.0,1.4400000000000002e-10,0.0,0.0,0.0,1.4400000000000002e-10,0.0,0.0,0.0,1.0,2
2025/04/05 15:12:03.944545093,1743858722,600570948,mA1/gps,0,1,63.43623002371443,10.393089791986217,0.0,1.4400000000000002e-10,0.0,0.0,0.0,1.4400000000000002e-10,0.0,0.0,0.0,1.0,2
2025/04/05 15:12:03.944589810,1743858722,644693842,mA1/gps,0,1,63.43623015581534,10.39308987521466,0.0,1.4400000000000002e-10,0.0,0.0,0.0,1.4400000000000002e-10,0.0,0.0,0.0,1.0,2
2025/04/05 15:12:04.45654628,1743858722,745657470,mA1/gps,0,1,63.436230419064515,10.393090026613526,0.0,1.4400000000000002e-10,0.0,0.0,0.0,1.4400000000000002e-10,0.0,0.0,0.0,1.0,2
2025/04/05 15:12:04.45731215,1743858722,793260146,mA1/gps,0,1,63.436230552759845,10.393090093982435,0.0,1.4400000000000002e-10,0.0,0.0,0.0,1.4400000000000002e-10,0.0,0.0,0.0,1.0,2
2025/04/05 15:12:04.45767584,1743858722,852646632,mA1/gps,0,1,63.436230686341915,10.393090156520987,0.0,1.4400000000000002e-10,0.0,0.0,0.0,1.4400000000000002e-10,0.0,0.0,0.0,1.0,2
2025/04/05 15:12:04.45802736,1743858722,896706967,mA1/gps,0,1,63.43623082227407,10.393090213231238,0.0,1.4400000000000002e-10,0.0,0.0,0.0,1.4400000000000002e-10,0.0,0.0,0.0,1.0,2
2025/04/05 15:12:04.548654788,1743858722,993019061,mA1/gps,0,1,63.43623110075097,10.393090314576277,0.0,1.4400000000000002e-10,0.0,0.0,0.0,1.4400000000000002e-10,0.0,0.0,0.0,1.0,2
2025/04/05 15:12:04.551595481,1743858723,45301860,mA1/gps,0,1,63.43623124294048,10.393090361299551,0.0,1.4400000000000002e-10,0.0,0.0,0.0,1.4400000000000002e-10,0.0,0.0,0.0,1.0,2
2025/04/05 15:12:04.551659597,1743858723,91028614,mA1/gps,0,1,63.43623138722469,10.393090407551622,0.0,1.4400000000000002e-10,0.0,0.0,0.0,1.4400000000000002e-10,0.0,0.0,0.0,1.0,2
2025/04/05 15:12:04.696819154,1743858723,293085928,mA1/gps,0,1,63.436231989494736,10.393090608304545,0.0,1.4400000000000002e-10,0.0,0.0,0.0,1.4400000000000002e-10,0.0,0.0,0.0,1.0,2
2025/04/05 15:12:04.696921791,1743858723,342387677,mA1/gps,0,1,63.43623214616208,10.393090666727641,0.0,1.4400000000000002e-10,0.0,0.0,0.0,1.4400000000000002e-10,0.0,0.0,0.0,1.0,2
2025/04/05 15:12:04.840739787,1743858723,392648619,mA1/gps,0,1,63.43623230406028,10.393090730314823,0.0,1.4400000000000002e-10,0.0,0.0,0.0,1.4400000000000002e-10,0.0,0.0,0.0,1.0,2
2025/04/05 15:12:04.938637742,1743858723,495176014,mA1/gps,0,1,63.43623262420306,10.393090871572191,0.0,1.4400000000000002e-10,0.0,0.0,0.0,1.4400000000000002e-10,0.0,0.0,0.0,1.0,2
2025/04/05 15:12:04.938876492,1743858723,550183749,mA1/gps,0,1,63.43623278566383,10.393090949132578,0.0,1.4400000000000002e-10,0.0,0.0,0.0,1.4400000000000002e-10,0.0,0.0,0.0,1.0,2
2025/04/05 15:12:04.938920663,1743858723,591437750,mA1/gps,0,1,63.43623294760096,10.393091029599649,0.0,1.4400000000000002e-10,0.0,0.0,0.0,1.4400000000000002e-10,0.0,0.0,0.0,1.0,2
2025/04/05 15:12:04.975266731,1743858723,648445683,mA1/gps,0,1,63.436233109917175,10.393091113057503,0.0,1.4400000000000002e-10,0.0,0.0,0.0,1.4400000000000002e-10,0.0,0.0,0.0,1.0,2
2025/04/05 15:12:04.975313161,1743858723,696760557,mA1/gps,0,1,63.436233270631156,10.393091199149165,0.0,1.4400000000000002e-10,0.0,0.0,0.0,1.4400000000000002e-10,0.0,0.0,0.0,1.0,2
2025/04/05 15:12:04.975543168,1743858723,750313813,mA1/gps,0,1,63.43623343127833,10.393091285444786,0.0,1.4400000000000002e-10,0.0,0.0,0.0,1.4400000000000002e-10,0.0,0.0,0.0,1.0,2
2025/04/05 15:12:04.975584875,1743858723,794432885,mA1/gps,0,1,63.436233591616286,10.393091371202688,0.0,1.4400000000000002e-10,0.0,0.0,0.0,1.4400000000000002e-10,0.0,0.0,0.0,1.0,2
2025/04/05 15:12:04.975618697,1743858723,850181951,mA1/gps,0,1,63.43623375300918,10.39309145576321,0.0,1.4400000000000002e-10,0.0,0.0,0.0,1.4400000000000002e-10,0.0,0.0,0.0,1.0,2
2025/04/05 15:12:04.975652627,1743858723,890941824,mA1/gps,0,1,63.436233910451456,10.393091539076247,0.0,1.4400000000000002e-10,0.0,0.0,0.0,1.4400000000000002e-10,0.0,0.0,0.0,1.0,2
2025/04/05 15:12:04.975863731,1743858723,945620683,mA1/gps,0,1,63.4362340685687,10.393091619215548,0.0,1.4400000000000002e-10,0.0,0.0,0.0,1.4400000000000002e-10,0.0,0.0,0.0,1.0,2
2025/04/05 15:12:04.975902170,1743858723,994120006,mA1/gps,0,1,63.43623422647613,10.39309169633057,0.0,1.4400000000000002e-10,0.0,0.0,0.0,1.4400000000000002e-10,0.0,0.0,0.0,1.0,2
2025/04/05 15:12:04.975936274,1743858724,52960858,mA1/gps,0,1,63.436234383383606,10.393091771166212,0.0,1.4400000000000002e-10,0.0,0.0,0.0,1.4400000000000002e-10,0.0,0.0,0.0,1.0,2
2025/04/05 15:12:05.35902713,1743858724,101023322,mA1/gps,0,1,63.436234540313514,10.393091841983319,0.0,1.4400000000000002e-10,0.0,0.0,0.0,1.4400000000000002e-10,0.0,0.0,0.0,1.0,2
2025/04/05 15:12:05.36648166,1743858724,147376921,mA1/gps,0,1,63.43623469708096,10.393091909776773,0.0,1.4400000000000002e-10,0.0,0.0,0.0,1.4400000000000002e-10,0.0,0.0,0.0,1.0,2
2025/04/05 15:12:05.38572101,1743858724,194499467,mA1/gps,0,1,63.436234854058284,10.393091973120224,0.0,1.4400000000000002e-10,0.0,0.0,0.0,1.4400000000000002e-10,0.0,0.0,0.0,1.0,2
2025/04/05 15:12:05.38617749,1743858724,246735372,mA1/gps,0,1,63.43623501164378,10.393092034917144,0.0,1.4400000000000002e-10,0.0,0.0,0.0,1.4400000000000002e-10,0.0,0.0,0.0,1.0,2
2025/04/05 15:12:05.38652970,1743858724,300505934,mA1/gps,0,1,63.436235170738215,10.393092094810578,0.0,1.4400000000000002e-10,0.0,0.0,0.0,1.4400000000000002e-10,0.0,0.0,0.0,1.0,2
2025/04/05 15:12:05.119104420,1743858724,351807712,mA1/gps,0,1,63.43623533004327,10.393092154222279,0.0,1.4400000000000002e-10,0.0,0.0,0.0,1.4400000000000002e-10,0.0,0.0,0.0,1.0,2
2025/04/05 15:12:05.119177085,1743858724,392761081,mA1/gps,0,1,63.43623549086183,10.393092213686149,0.0,1.4400000000000002e-10,0.0,0.0,0.0,1.4400000000000002e-10,0.0,0.0,0.0,1.0,2
2025/04/05 15:12:05.186702274,1743858724,447801238,mA1/gps,0,1,63.43623565544324,10.393092273579553,0.0,1.4400000000000002e-10,0.0,0.0,0.0,1.4400000000000002e-10,0.0,0.0,0.0,1.0,2
2025/04/05 15:12:05.187046641,1743858724,499653102,mA1/gps,0,1,63.4362358212741,10.39309233547887,0.0,1.4400000000000002e-10,0.0,0.0,0.0,1.4400000000000002e-10,0.0,0.0,0.0,1.0,2
2025/04/05 15:12:05.187087312,1743858724,548109840,mA1/gps,0,1,63.43623598901861,10.39309239935986,0.0,1.4400000000000002e-10,0.0,0.0,0.0,1.4400000000000002e-10,0.0,0.0,0.0,1.0,2
2025/04/05 15:12:05.187124478,1743858724,592505172,mA1/gps,0,1,63.436236157915886,10.393092467025136,0.0,1.4400000000000002e-10,0.0,0.0,0.0,1.4400000000000002e-10,0.0,0.0,0.0,1.0,2
2025/04/05 15:12:05.187161852,1743858724,644688197,mA1/gps,0,1,63.43623632943658,10.393092537503172,0.0,1.4400000000000002e-10,0.0,0.0,0.0,1.4400000000000002e-10,0.0,0.0,0.0,1.0,2
2025/04/05 15:12:05.187199618,1743858724,701542150,mA1/gps,0,1,63.43623650315595,10.393092612257686,0.0,1.4400000000000002e-10,0.0,0.0,0.0,1.4400000000000002e-10,0.0,0.0,0.0,1.0,2
2025/04/05 15:12:05.296570215,1743858724,746566354,mA1/gps,0,1,63.43623667886377,10.393092690653575,0.0,1.4400000000000002e-10,0.0,0.0,0.0,1.4400000000000002e-10,0.0,0.0,0.0,1.0,2
2025/04/05 15:12:05.296847014,1743858724,797590354,mA1/gps,0,1,63.43623685580009,10.39309277322866,0.0,1.4400000000000002e-10,0.0,0.0,0.0,1.4400000000000002e-10,0.0,0.0,0.0,1.0,2
2025/04/05 15:12:05.336743702,1743858724,852153952,mA1/gps,0,1,63.4362370348561,10.393092857506396,0.0,1.4400000000000002e-10,0.0,0.0,0.0,1.4400000000000002e-10,0.0,0.0,0.0,1.0,2
2025/04/05 15:12:05.337056092,1743858724,890587505,mA1/gps,0,1,63.43623721468281,10.39309294586517,0.0,1.4400000000000002e-10,0.0,0.0,0.0,1.4400000000000002e-10,0.0,0.0,0.0,1.0,2
2025/04/05 15:12:05.337097176,1743858724,942562087,mA1/gps,0,1,63.43623739442337,10.393093036212843,0.0,1.4400000000000002e-10,0.0,0.0,0.0,1.4400000000000002e-10,0.0,0.0,0.0,1.0,2
2025/04/05 15:12:05.337134285,1743858724,992906438,mA1/gps,0,1,63.43623757516025,10.393093128895153,0.0,1.4400000000000002e-10,0.0,0.0,0.0,1.4400000000000002e-10,0.0,0.0,0.0,1.0,2
2025/04/05 15:12:05.337171309,1743858725,48492199,mA1/gps,0,1,63.436237757181516,10.393093224896608,0.0,1.4400000000000002e-10,0.0,0.0,0.0,1.4400000000000002e-10,0.0,0.0,0.0,1.0,2
2025/04/05 15:12:05.337207430,1743858725,95430369,mA1/gps,0,1,63.43623793718516,10.393093323641219,0.0,1.4400000000000002e-10,0.0,0.0,0.0,1.4400000000000002e-10,0.0,0.0,0.0,1.0,2
2025/04/05 15:12:05.337243342,1743858725,151413244,mA1/gps,0,1,63.4362381171034,10.39309342308613,0.0,1.4400000000000002e-10,0.0,0.0,0.0,1.4400000000000002e-10,0.0,0.0,0.0,1.0,2
2025/04/05 15:12:05.337279341,1743858725,199461264,mA1/gps,0,1,63.43623829745233,10.393093521918127,0.0,1.4400000000000002e-10,0.0,0.0,0.0,1.4400000000000002e-10,0.0,0.0,0.0,1.0,2
2025/04/05 15:12:05.362902099,1743858725,244537296,mA1/gps,0,1,63.43623847657794,10.393093619450367,0.0,1.4400000000000002e-10,0.0,0.0,0.0,1.4400000000000002e-10,0.0,0.0,0.0,1.0,2
2025/04/05 15:12:05.417384541,1743858725,297512094,mA1/gps,0,1,63.436238653744,10.393093714521491,0.0,1.4400000000000002e-10,0.0,0.0,0.0,1.4400000000000002e-10,0.0,0.0,0.0,1.0,2
2025/04/05 15:12:05.458949625,1743858725,342018185,mA1/gps,0,1,63.436238829830714,10.39309380568906,0.0,1.4400000000000002e-10,0.0,0.0,0.0,1.4400000000000002e-10,0.0,0.0,0.0,1.0,2
2025/04/05 15:12:05.502596047,1743858725,394861715,mA1/gps,0,1,63.43623900635099,10.393093890674809,0.0,1.4400000000000002e-10,0.0,0.0,0.0,1.4400000000000002e-10,0.0,0.0,0.0,1.0,2
2025/04/05 15:12:05.550629987,1743858725,447624763,mA1/gps,0,1,63.436239181618085,10.393093971153078,0.0,1.4400000000000002e-10,0.0,0.0,0.0,1.4400000000000002e-10,0.0,0.0,0.0,1.0,2
2025/04/05 15:12:05.586035597,1743858725,497979032,mA1/gps,0,1,63.43623935502906,10.393094045761842,0.0,1.4400000000000002e-10,0.0,0.0,0.0,1.4400000000000002e-10,0.0,0.0,0.0,1.0,2
2025/04/05 15:12:05.641578835,1743858725,554223915,mA1/gps,0,1,63.43623952808574,10.393094114575097,0.0,1.4400000000000002e-10,0.0,0.0,0.0,1.4400000000000002e-10,0.0,0.0,0.0,1.0,2
2025/04/05 15:12:05.673139218,1743858725,595786681,mA1/gps,0,1,63.43623970147442,10.393094178699,0.0,1.4400000000000002e-10,0.0,0.0,0.0,1.4400000000000002e-10,0.0,0.0,0.0,1.0,2
2025/04/05 15:12:05.723635389,1743858725,648120448,mA1/gps,0,1,63.43623987397006,10.393094238338806,0.0,1.4400000000000002e-10,0.0,0.0,0.0,1.4400000000000002e-10,0.0,0.0,0.0,1.0,2
2025/04/05 15:12:05.767516441,1743858725,698187834,mA1/gps,0,1,63.4362400466864,10.393094295127007,0.0,1.4400000000000002e-10,0.0,0.0,0.0,1.4400000000000002e-10,0.0,0.0,0.0,1.0,2
2025/04/05 15:12:05.824232066,1743858725,745320005,mA1/gps,0,1,63.43624022044355,10.393094348282782,0.0,1.4400000000000002e-10,0.0,0.0,0.0,1.4400000000000002e-10,0.0,0.0,0.0,1.0,2
2025/04/05 15:12:05.864712905,1743858725,790965035,mA1/gps,0,1,63.43624039540072,10.393094401180559,0.0,1.4400000000000002e-10,0.0,0.0,0.0,1.4400000000000002e-10,0.0,0.0,0.0,1.0,2
2025/04/05 15:12:05.904450872,1743858725,844681558,mA1/gps,0,1,63.436240569912265,10.393094453801618,0.0,1.4400000000000002e-10,0.0,0.0,0.0,1.4400000000000002e-10,0.0,0.0,0.0,1.0,2
2025/04/05 15:12:05.949598376,1743858725,896310564,mA1/gps,0,1,63.436240748035345,10.393094508156038,0.0,1.4400000000000002e-10,0.0,0.0,0.0,1.4400000000000002e-10,0.0,0.0,0.0,1.0,2
2025/04/05 15:12:05.993345727,1743858725,949952328,mA1/gps,0,1,63.436240926706446,10.393094564621958,0.0,1.4400000000000002e-10,0.0,0.0,0.0,1.4400000000000002e-10,0.0,0.0,0.0,1.0,2
2025/04/05 15:12:06.34800549,1743858726,2717430,mA1/gps,0,1,63.436241106628216,10.393094624358135,0.0,1.4400000000000002e-10,0.0,0.0,0.0,1.4400000000000002e-10,0.0,0.0,0.0,1.0,2
2025/04/05 15:12:06.81594664,1743858726,46840213,mA1/gps,0,1,63.436241288996285,10.393094688289345,0.0,1.4400000000000002e-10,0.0,0.0,0.0,1.4400000000000002e-10,0.0,0.0,0.0,1.0,2
2025/04/05 15:12:06.123081265,1743858726,99482509,mA1/gps,0,1,63.436241473453926,10.39309475600519,0.0,1.4400000000000002e-10,0.0,0.0,0.0,1.4400000000000002e-10,0.0,0.0,0.0,1.0,2
2025/04/05 15:12:06.157571253,1743858726,150493487,mA1/gps,0,1,63.43624166065153,10.393094828551384,0.0,1.4400000000000002e-10,0.0,0.0,0.0,1.4400000000000002e-10,0.0,0.0,0.0,1.0,2
2025/04/05 15:12:06.196016033,1743858726,193441304,mA1/gps,0,1,63.43624184832525,10.3930949062855,0.0,1.4400000000000002e-10,0.0,0.0,0.0,1.4400000000000002e-10,0.0,0.0,0.0,1.0,2
2025/04/05 15:12:06.250248874,1743858726,249529504,mA1/gps,0,1,63.43624203730406,10.393094987310695,0.0,1.4400000000000002e-10,0.0,0.0,0.0,1.4400000000000002e-10,0.0,0.0,0.0,1.0,2
2025/04/05 15:12:06.304726717,1743858726,292766545,mA1/gps,0,1,63.43624222854218,10.393095071580063,0.0,1.4400000000000002e-10,0.0,0.0,0.0,1.4400000000000002e-10,0.0,0.0,0.0,1.0,2
2025/04/05 15:12:06.351924908,1743858726,347312506,mA1/gps,0,1,63.43624242007979,10.393095158886922,0.0,1.4400000000000002e-10,0.0,0.0,0.0,1.4400000000000002e-10,0.0,0.0,0.0,1.0,2
2025/04/05 15:12:06.399988604,1743858726,395537698,mA1/gps,0,1,63.436242612415235,10.3930952479683,0.0,1.4400000000000002e-10,0.0,0.0,0.0,1.4400000000000002e-10,0.0,0.0,0.0,1.0,2
2025/04/05 15:12:06.463480752,1743858726,442616128,mA1/gps,0,1,63.43624280556779,10.393095337561899,0.0,1.4400000000000002e-10,0.0,0.0,0.0,1.4400000000000002e-10,0.0,0.0,0.0,1.0,2
2025/04/05 15:12:06.502860270,1743858726,493276302,mA1/gps,0,1,63.43624299939148,10.39309542623313,0.0,1.4400000000000002e-10,0.0,0.0,0.0,1.4400000000000002e-10,0.0,0.0,0.0,1.0,2
2025/04/05 15:12:06.558349385,1743858726,548808427,mA1/gps,0,1,63.436243192652654,10.393095514313218,0.0,1.4400000000000002e-10,0.0,0.0,0.0,1.4400000000000002e-10,0.0,0.0,0.0,1.0,2
2025/04/05 15:12:06.607878280,1743858726,599967446,mA1/gps,0,1,63.43624338563549,10.393095600507944,0.0,1.4400000000000002e-10,0.0,0.0,0.0,1.4400000000000002e-10,0.0,0.0,0.0,1.0,2
2025/04/05 15:12:06.649607992,1743858726,644220705,mA1/gps,0,1,63.43624357963899,10.393095682977487,0.0,1.4400000000000002e-10,0.0,0.0,0.0,1.4400000000000002e-10,0.0,0.0,0.0,1.0,2
2025/04/05 15:12:06.705003948,1743858726,700821765,mA1/gps,0,1,63.43624377057754,10.393095762274747,0.0,1.4400000000000002e-10,0.0,0.0,0.0,1.4400000000000002e-10,0.0,0.0,0.0,1.0,2
2025/04/05 15:12:06.752575933,1743858726,747613729,mA1/gps,0,1,63.43624396239845,10.39309583950522,0.0,1.4400000000000002e-10,0.0,0.0,0.0,1.4400000000000002e-10,0.0,0.0,0.0,1.0,2
2025/04/05 15:12:06.799609431,1743858726,795528946,mA1/gps,0,1,63.43624415337212,10.393095911308642,0.0,1.4400000000000002e-10,0.0,0.0,0.0,1.4400000000000002e-10,0.0,0.0,0.0,1.0,2
2025/04/05 15:12:06.848843300,1743858726,848240912,mA1/gps,0,1,63.43624434273617,10.393095980325475,0.0,1.4400000000000002e-10,0.0,0.0,0.0,1.4400000000000002e-10,0.0,0.0,0.0,1.0,2
2025/04/05 15:12:06.896270938,1743858726,891848868,mA1/gps,0,1,63.4362445316352,10.393096045838302,0.0,1.4400000000000002e-10,0.0,0.0,0.0,1.4400000000000002e-10,0.0,0.0,0.0,1.0,2
2025/04/05 15:12:06.952492788,1743858726,948474639,mA1/gps,0,1,63.436244719716846,10.393096109599677,0.0,1.4400000000000002e-10,0.0,0.0,0.0,1.4400000000000002e-10,0.0,0.0,0.0,1.0,2
2025/04/05 15:12:06.996378354,1743858726,992004712,mA1/gps,0,1,63.43624490753278,10.393096170953534,0.0,1.4400000000000002e-10,0.0,0.0,0.0,1.4400000000000002e-10,0.0,0.0,0.0,1.0,2
2025/04/05 15:12:07.51572362,1743858727,48499301,mA1/gps,0,1,63.436245095743956,10.393096231420714,0.0,1.4400000000000002e-10,0.0,0.0,0.0,1.4400000000000002e-10,0.0,0.0,0.0,1.0,2
2025/04/05 15:12:07.104558511,1743858727,98011538,mA1/gps,0,1,63.43624528360349,10.393096291816967,0.0,1.4400000000000002e-10,0.0,0.0,0.0,1.4400000000000002e-10,0.0,0.0,0.0,1.0,2
2025/04/05 15:12:07.149575633,1743858727,143266696,mA1/gps,0,1,63.43624547176871,10.393096352442974,0.0,1.4400000000000002e-10,0.0,0.0,0.0,1.4400000000000002e-10,0.0,0.0,0.0,1.0,2
2025/04/05 15:12:07.207553979,1743858727,199943567,mA1/gps,0,1,63.43624565967271,10.393096414977903,0.0,1.4400000000000002e-10,0.0,0.0,0.0,1.4400000000000002e-10,0.0,0.0,0.0,1.0,2
2025/04/05 15:12:07.243958732,1743858727,242381756,mA1/gps,0,1,63.43624584773379,10.393096479950161,0.0,1.4400000000000002e-10,0.0,0.0,0.0,1.4400000000000002e-10,0.0,0.0,0.0,1.0,2
2025/04/05 15:12:07.299815507,1743858727,295721563,mA1/gps,0,1,63.436246037331614,10.393096547794102,0.0,1.4400000000000002e-10,0.0,0.0,0.0,1.4400000000000002e-10,0.0,0.0,0.0,1.0,2
2025/04/05 15:12:07.359745869,1743858727,350518725,mA1/gps,0,1,63.43624623004766,10.393096618610446,0.0,1.4400000000000002e-10,0.0,0.0,0.0,1.4400000000000002e-10,0.0,0.0,0.0,1.0,2
2025/04/05 15:12:07.396143536,1743858727,394672180,mA1/gps,0,1,63.43624642224459,10.39309669522018,0.0,1.4400000000000002e-10,0.0,0.0,0.0,1.4400000000000002e-10,0.0,0.0,0.0,1.0,2
2025/04/05 15:12:07.453197409,1743858727,449562620,mA1/gps,0,1,63.43624661476252,10.39309677739427,0.0,1.4400000000000002e-10,0.0,0.0,0.0,1.4400000000000002e-10,0.0,0.0,0.0,1.0,2
2025/04/05 15:12:07.496580597,1743858727,492514090,mA1/gps,0,1,63.43624680841219,10.393096867815062,0.0,1.4400000000000002e-10,0.0,0.0,0.0,1.4400000000000002e-10,0.0,0.0,0.0,1.0,2
2025/04/05 15:12:07.555055576,1743858727,547930300,mA1/gps,0,1,63.4362470050991,10.393096965153301,0.0,1.4400000000000002e-10,0.0,0.0,0.0,1.4400000000000002e-10,0.0,0.0,0.0,1.0,2
2025/04/05 15:12:07.598546647,1743858727,596919052,mA1/gps,0,1,63.43624720147506,10.3930970679983,0.0,1.4400000000000002e-10,0.0,0.0,0.0,1.4400000000000002e-10,0.0,0.0,0.0,1.0,2
2025/04/05 15:12:07.655808932,1743858727,643616259,mA1/gps,0,1,63.43624739874237,10.393097173389824,0.0,1.4400000000000002e-10,0.0,0.0,0.0,1.4400000000000002e-10,0.0,0.0,0.0,1.0,2
2025/04/05 15:12:07.705514758,1743858727,698357199,mA1/gps,0,1,63.43624759671887,10.393097278896441,0.0,1.4400000000000002e-10,0.0,0.0,0.0,1.4400000000000002e-10,0.0,0.0,0.0,1.0,2
2025/04/05 15:12:07.744145398,1743858727,743226101,mA1/gps,0,1,63.436247795566324,10.393097380878556,0.0,1.4400000000000002e-10,0.0,0.0,0.0,1.4400000000000002e-10,0.0,0.0,0.0,1.0,2
2025/04/05 15:12:07.803238406,1743858727,798541385,mA1/gps,0,1,63.436247993898064,10.393097477542286,0.0,1.4400000000000002e-10,0.0,0.0,0.0,1.4400000000000002e-10,0.0,0.0,0.0,1.0,2
2025/04/05 15:12:07.859364389,1743858727,854150322,mA1/gps,0,1,63.43624819316794,10.393097567363451,0.0,1.4400000000000002e-10,0.0,0.0,0.0,1.4400000000000002e-10,0.0,0.0,0.0,1.0,2
2025/04/05 15:12:07.897462355,1743858727,892173026,mA1/gps,0,1,63.43624839182718,10.393097649315475,0.0,1.4400000000000002e-10,0.0,0.0,0.0,1.4400000000000002e-10,0.0,0.0,0.0,1.0,2
2025/04/05 15:12:07.947045979,1743858727,945595438,mA1/gps,0,1,63.43624858930138,10.393097721329218,0.0,1.4400000000000002e-10,0.0,0.0,0.0,1.4400000000000002e-10,0.0,0.0,0.0,1.0,2
2025/04/05 15:12:08.2259873,1743858727,998175735,mA1/gps,0,1,63.43624878594398,10.393097783245594,0.0,1.4400000000000002e-10,0.0,0.0,0.0,1.4400000000000002e-10,0.0,0.0,0.0,1.0,2
2025/04/05 15:12:08.48412465,1743858728,42729918,mA1/gps,0,1,63.43624898196361,10.393097835716143,0.0,1.4400000000000002e-10,0.0,0.0,0.0,1.4400000000000002e-10,0.0,0.0,0.0,1.0,2
2025/04/05 15:12:08.96272500,1743858728,94922650,mA1/gps,0,1,63.43624917688579,10.393097878537882,0.0,1.4400000000000002e-10,0.0,0.0,0.0,1.4400000000000002e-10,0.0,0.0,0.0,1.0,2
2025/04/05 15:12:08.168662365,1743858728,148042716,mA1/gps,0,1,63.436249371136206,10.393097912734452,0.0,1.4400000000000002e-10,0.0,0.0,0.0,1.4400000000000002e-10,0.0,0.0,0.0,1.0,2
2025/04/05 15:12:08.205025175,1743858728,198390863,mA1/gps,0,1,63.43624956352531,10.393097940435025,0.0,1.4400000000000002e-10,0.0,0.0,0.0,1.4400000000000002e-10,0.0,0.0,0.0,1.0,2
2025/04/05 15:12:08.256772488,1743858728,241151615,mA1/gps,0,1,63.43624975424885,10.393097962268184,0.0,1.4400000000000002e-10,0.0,0.0,0.0,1.4400000000000002e-10,0.0,0.0,0.0,1.0,2
2025/04/05 15:12:08.299258426,1743858728,292761976,mA1/gps,0,1,63.4362499437818,10.393097981493979,0.0,1.4400000000000002e-10,0.0,0.0,0.0,1.4400000000000002e-10,0.0,0.0,0.0,1.0,2
2025/04/05 15:12:08.383936694,1743858728,347387273,mA1/gps,0,1,63.436250133073315,10.39309799954269,0.0,1.4400000000000002e-10,0.0,0.0,0.0,1.4400000000000002e-10,0.0,0.0,0.0,1.0,2
2025/04/05 15:12:08.409803961,1743858728,400563959,mA1/gps,0,1,63.4362503210929,10.39309801783709,0.0,1.4400000000000002e-10,0.0,0.0,0.0,1.4400000000000002e-10,0.0,0.0,0.0,1.0,2
2025/04/05 15:12:08.447788802,1743858728,445246055,mA1/gps,0,1,63.436250507601756,10.39309803918193,0.0,1.4400000000000002e-10,0.0,0.0,0.0,1.4400000000000002e-10,0.0,0.0,0.0,1.0,2
2025/04/05 15:12:08.502118399,1743858728,501144517,mA1/gps,0,1,63.43625069425201,10.393098064499648,0.0,1.4400000000000002e-10,0.0,0.0,0.0,1.4400000000000002e-10,0.0,0.0,0.0,1.0,2
2025/04/05 15:12:08.562631629,1743858728,550570991,mA1/gps,0,1,63.43625088077311,10.393098095383989,0.0,1.4400000000000002e-10,0.0,0.0,0.0,1.4400000000000002e-10,0.0,0.0,0.0,1.0,2
2025/04/05 15:12:08.605650212,1743858728,599183738,mA1/gps,0,1,63.43625106733946,10.39309813337765,0.0,1.4400000000000002e-10,0.0,0.0,0.0,1.4400000000000002e-10,0.0,0.0,0.0,1.0,2
2025/04/05 15:12:08.652654306,1743858728,644126039,mA1/gps,0,1,63.43625125440826,10.393098177671252,0.0,1.4400000000000002e-10,0.0,0.0,0.0,1.4400000000000002e-10,0.0,0.0,0.0,1.0,2
2025/04/05 15:12:08.698238634,1743858728,697494752,mA1/gps,0,1,63.43625144231548,10.393098228889084,0.0,1.4400000000000002e-10,0.0,0.0,0.0,1.4400000000000002e-10,0.0,0.0,0.0,1.0,2
2025/04/05 15:12:08.750617122,1743858728,746438814,mA1/gps,0,1,63.43625163102925,10.39309828599991,0.0,1.4400000000000002e-10,0.0,0.0,0.0,1.4400000000000002e-10,0.0,0.0,0.0,1.0,2
2025/04/05 15:12:08.803775509,1743858728,800296478,mA1/gps,0,1,63.43625182027038,10.393098349715665,0.0,1.4400000000000002e-10,0.0,0.0,0.0,1.4400000000000002e-10,0.0,0.0,0.0,1.0,2
2025/04/05 15:12:08.850043848,1743858728,848595446,mA1/gps,0,1,63.43625201081904,10.393098416978088,0.0,1.4400000000000002e-10,0.0,0.0,0.0,1.4400000000000002e-10,0.0,0.0,0.0,1.0,2
2025/04/05 15:12:08.897099234,1743858728,895646830,mA1/gps,0,1,63.43625220220308,10.393098486685377,0.0,1.4400000000000002e-10,0.0,0.0,0.0,1.4400000000000002e-10,0.0,0.0,0.0,1.0,2
2025/04/05 15:12:08.951615093,1743858728,943145092,mA1/gps,0,1,63.43625239755631,10.393098557898401,0.0,1.4400000000000002e-10,0.0,0.0,0.0,1.4400000000000002e-10,0.0,0.0,0.0,1.0,2
2025/04/05 15:12:09.13130707,1743858728,994489832,mA1/gps,0,1,63.43625259305604,10.39309862888283,0.0,1.4400000000000002e-10,0.0,0.0,0.0,1.4400000000000002e-10,0.0,0.0,0.0,1.0,2
2025/04/05 15:12:09.51766953,1743858729,45414937,mA1/gps,0,1,63.43625279053862,10.393098696737482,0.0,1.4400000000000002e-10,0.0,0.0,0.0,1.4400000000000002e-10,0.0,0.0,0.0,1.0,2
2025/04/05 15:12:09.101040235,1743858729,98431964,mA1/gps,0,1,63.43625298884308,10.393098760979191,0.0,1.4400000000000002e-10,0.0,0.0,0.0,1.4400000000000002e-10,0.0,0.0,0.0,1.0,2
2025/04/05 15:12:09.153516590,1743858729,143566129,mA1/gps,0,1,63.43625318847331,10.393098819453748,0.0,1.4400000000000002e-10,0.0,0.0,0.0,1.4400000000000002e-10,0.0,0.0,0.0,1.0,2
2025/04/05 15:12:09.192558330,1743858729,191904535,mA1/gps,0,1,63.43625338949357,10.393098871652736,0.0,1.4400000000000002e-10,0.0,0.0,0.0,1.4400000000000002e-10,0.0,0.0,0.0,1.0,2
2025/04/05 15:12:09.263850828,1743858729,246671992,mA1/gps,0,1,63.43625359177565,10.393098916396502,0.0,1.4400000000000002e-10,0.0,0.0,0.0,1.4400000000000002e-10,0.0,0.0,0.0,1.0,2
2025/04/05 15:12:09.301209193,1743858729,300730632,mA1/gps,0,1,63.43625379565431,10.393098953606454,0.0,1.4400000000000002e-10,0.0,0.0,0.0,1.4400000000000002e-10,0.0,0.0,0.0,1.0,2
2025/04/05 15:12:09.367301957,1743858729,347932863,mA1/gps,0,1,63.43625399859182,10.3930989831542,0.0,1.4400000000000002e-10,0.0,0.0,0.0,1.4400000000000002e-10,0.0,0.0,0.0,1.0,2
2025/04/05 15:12:09.396620501,1743858729,393508405,mA1/gps,0,1,63.436254202834235,10.393099005783075,0.0,1.4400000000000002e-10,0.0,0.0,0.0,1.4400000000000002e-10,0.0,0.0,0.0,1.0,2
2025/04/05 15:12:09.458844991,1743858729,447519236,mA1/gps,0,1,63.436254408415905,10.39309902267943,0.0,1.4400000000000002e-10,0.0,0.0,0.0,1.4400000000000002e-10,0.0,0.0,0.0,1.0,2
