time,header_stamp_secs,header_stamp_nsecs,header_frame_id,orientation_x,orientation_y,orientation_z,orientation_w,orientation_covariance_0,orientation_covariance_1,orientation_covariance_2,orientation_covariance_3,orientation_covariance_4,orientation_covariance_5,orientation_covariance_6,orientation_covariance_7,orientation_covariance_8,angular_velocity_x,angular_velocity_y,angular_velocity_z,angular_velocity_covariance_0,angular_velocity_covariance_1,angular_velocity_covariance_2,angular_velocity_covariance_3,angular_velocity_covariance_4,angular_velocity_covariance_5,angular_velocity_covariance_6,angular_velocity_covariance_7,angular_velocity_covariance_8,linear_acceleration_x,linear_acceleration_y,linear_acceleration_z,linear_acceleration_covariance_0,linear_acceleration_covariance_1,linear_acceleration_covariance_2,linear_acceleration_covariance_3,linear_acceleration_covariance_4,linear_acceleration_covariance_5,linear_acceleration_covariance_6,linear_acceleration_covariance_7,linear_acceleration_covariance_8
2025/04/05 15:11:51.744868271,1743858711,503721221,mA1/imu,0.6822153424902437,0.7311505988431618,0.0010137624691775387,2.3829839727767198e-05,0.0,0.0,0.0,0.0,0.0,0.0,0.0,0.0,0.0,0.0009256592632703358,-0.002253931387187262,0.020526108489468887,0.0,0.0,0.0,0.0,0.0,0.0,0.0,0.0,0.0,-0.04868505870313176,-0.5994852053969183,9.8055677506386,0.0,0.0,0.0,0.0,0.0,0.0,0.0,0.0,0.0
2025/04/05 15:11:51.745038522,1743858711,550781741,mA1/imu,0.6826048687832167,0.7307870186914364,0.0009607055878172756,5.890928066557775e-05,0.0,0.0,0.0,0.0,0.0,0.0,0.0,0.0,0.0,0.0011919321099584002,-0.0026156873012789217,0.021849601244944696,0.0,0.0,0.0,0.0,0.0,0.0,0.0,0.0,0.0,-0.06367122968892636,0.053576069610671725,9.810235494674943,0.0,0.0,0.0,0.0,0.0,0.0,0.0,0.0,0.0
2025/04/05 15:11:51.745148207,1743858711,592052170,mA1/imu,0.6830184028938906,0.7304005888009186,0.0009107524507162467,0.00010824751179010998,0.0,0.0,0.0,0.0,0.0,0.0,0.0,0.0,0.0,0.0012552604164787588,-0.0030465761554615872,0.023125905340702604,0.0,0.0,0.0,0.0,0.0,0.0,0.0,0.0,0.0,-0.04894557316396088,0.05612895644974074,9.804382816897665,0.0,0.0,0.0,0.0,0.0,0.0,0.0,0.0,0.0
2025/04/05 15:11:51.745203273,1743858711,648174700,mA1/imu,0.683454692761139,0.7299924137435387,0.0008560578897794805,0.0001611972348921574,0.0,0.0,0.0,0.0,0.0,0.0,0.0,0.0,0.0,0.00013687910498832838,-0.003219497511767472,0.02434591305813136,0.0,0.0,0.0,0.0,0.0,0.0,0.0,0.0,0.0,-0.04494806281459135,-0.018484016284870376,9.805393958426835,0.0,0.0,0.0,0.0,0.0,0.0,0.0,0.0,0.0
2025/04/05 15:11:51.745252183,1743858711,695784458,mA1/imu,0.6839107190517815,0.7295652464982626,0.000794089015804384,0.00022111227801311826,0.0,0.0,0.0,0.0,0.0,0.0,0.0,0.0,0.0,0.00036744491464265065,-0.0036070820757358054,0.025415696965729137,0.0,0.0,0.0,0.0,0.0,0.0,0.0,0.0,0.0,-0.04391671952991742,-0.11995194220791049,9.80583910200574,0.0,0.0,0.0,0.0,0.0,0.0,0.0,0.0,0.0
2025/04/05 15:11:51.753672636,1743858711,753442913,mA1/imu,0.6843862055130238,0.7291192698875736,0.0007285822094671622,0.00028486849771343207,0.0,0.0,0.0,0.0,0.0,0.0,0.0,0.0,0.0,0.0011277549206466792,-0.003713000128460356,0.02651764880749254,0.0,0.0,0.0,0.0,0.0,0.0,0.0,0.0,0.0,-0.04790693280484173,-0.5673380060153056,9.80313510440441,0.0,0.0,0.0,0.0,0.0,0.0,0.0,0.0,0.0
2025/04/05 15:11:51.798156382,1743858711,796609259,mA1/imu,0.6848814876574146,0.7286540858881971,0.0006677970009498716,0.0003535954864783269,0.0,0.0,0.0,0.0,0.0,0.0,0.0,0.0,0.0,-0.0007197755252773996,-0.0036227167895627964,0.027610228039213883,0.0,0.0,0.0,0.0,0.0,0.0,0.0,0.0,0.0,-0.047222217507906165,0.5705213275437835,9.808952893618427,0.0,0.0,0.0,0.0,0.0,0.0,0.0,0.0,0.0
2025/04/05 15:11:51.848632066,1743858711,846213206,mA1/imu,0.6853972512789979,0.7281689701645173,0.000616452392558027,0.0004228654491108106,0.0,0.0,0.0,0.0,0.0,0.0,0.0,0.0,0.0,-0.0021145295762480558,-0.0032640857366107463,0.028798569849176458,0.0,0.0,0.0,0.0,0.0,0.0,0.0,0.0,0.0,-0.046290992451961714,0.40955755916638686,9.806048840778905,0.0,0.0,0.0,0.0,0.0,0.0,0.0,0.0,0.0
2025/04/05 15:11:51.897447140,1743858711,897235031,mA1/imu,0.685933486857971,0.727663869213795,0.0005632588718010037,0.00047727048737824005,0.0,0.0,0.0,0.0,0.0,0.0,0.0,0.0,0.0,-0.0006248391411532041,-0.0027447381997525127,0.029941723883763562,0.0,0.0,0.0,0.0,0.0,0.0,0.0,0.0,0.0,-0.06009302154716368,-0.03638801171730667,9.81374064657137,0.0,0.0,0.0,0.0,0.0,0.0,0.0,0.0,0.0
2025/04/05 15:11:51.954457636,1743858711,952035709,mA1/imu,0.6864889533509363,0.7271398541420135,0.0005218508276843983,0.0005264192064175049,0.0,0.0,0.0,0.0,0.0,0.0,0.0,0.0,0.0,-0.00017967584444232343,-0.0024729230954758205,0.030923001030231774,0.0,0.0,0.0,0.0,0.0,0.0,0.0,0.0,0.0,-0.03959019780217541,-0.005997832002766103,9.80964480239073,0.0,0.0,0.0,0.0,0.0,0.0,0.0,0.0,0.0
2025/04/05 15:11:52.4083014,1743858712,2608889,mA1/imu,0.6870609099367295,0.7265994364843532,0.0004877852555110614,0.0005718418296706282,0.0,0.0,0.0,0.0,0.0,0.0,0.0,0.0,0.0,-0.00030078372880591075,-0.002146164468025149,0.031837910772696015,0.0,0.0,0.0,0.0,0.0,0.0,0.0,0.0,0.0,-0.03872605037373934,-0.010216283756002514,9.810789455435822,0.0,0.0,0.0,0.0,0.0,0.0,0.0,0.0,0.0
2025/04/05 15:11:52.51239343,1743858712,46851219,mA1/imu,0.687648875597334,0.7260429980673292,0.00046195524911226945,0.0006127352401124891,0.0,0.0,0.0,0.0,0.0,0.0,0.0,0.0,0.0,-0.000407745331703505,-0.0017722308771421797,0.03273638302001911,0.0,0.0,0.0,0.0,0.0,0.0,0.0,0.0,0.0,-0.037822088605750134,-0.014128967319847922,9.812156860130505,0.0,0.0,0.0,0.0,0.0,0.0,0.0,0.0,0.0
2025/04/05 15:11:52.100628215,1743858712,99575600,mA1/imu,0.6882525092727099,0.725470790007933,0.00044378140711399754,0.0006475979823667767,0.0,0.0,0.0,0.0,0.0,0.0,0.0,0.0,0.0,-0.0004376995242963368,-0.0013778467677014459,0.03362119993876614,0.0,0.0,0.0,0.0,0.0,0.0,0.0,0.0,0.0,-0.03673146708735401,-0.013503586621895946,9.813166360317616,0.0,0.0,0.0,0.0,0.0,0.0,0.0,0.0,0.0
2025/04/05 15:11:52.148985467,1743858712,145550615,mA1/imu,0.6888714648788338,0.7248830671573038,0.0004329028631295336,0.0006755882032255783,0.0,0.0,0.0,0.0,0.0,0.0,0.0,0.0,0.0,-0.00045349932909627595,-0.0009781101653161854,0.03448686865130265,0.0,0.0,0.0,0.0,0.0,0.0,0.0,0.0,0.0,-0.035463455968539455,-0.013107831577983637,9.813053122280046,0.0,0.0,0.0,0.0,0.0,0.0,0.0,0.0,0.0
2025/04/05 15:11:52.199876840,1743858712,199499220,mA1/imu,0.6895054238443914,0.724280057289494,0.000428885700152783,0.0006965335235705474,0.0,0.0,0.0,0.0,0.0,0.0,0.0,0.0,0.0,-0.0004517982936331646,-0.0005937931337115425,0.03533568536780017,0.0,0.0,0.0,0.0,0.0,0.0,0.0,0.0,0.0,-0.034365884823318725,-0.012978680924895757,9.813776878977341,0.0,0.0,0.0,0.0,0.0,0.0,0.0,0.0,0.0
2025/04/05 15:11:52.254424461,1743858712,253581176,mA1/imu,0.6901540707506711,0.7236619846387534,0.00043084893048548646,0.0007106223872476541,0.0,0.0,0.0,0.0,0.0,0.0,0.0,0.0,0.0,-0.0004268364620613294,-0.00024879218881274226,0.03616974684103201,0.0,0.0,0.0,0.0,0.0,0.0,0.0,0.0,0.0,-0.03257251990057587,-0.012961897990812613,9.814119055168343,0.0,0.0,0.0,0.0,0.0,0.0,0.0,0.0,0.0
2025/04/05 15:11:52.301794590,1743858712,301083220,mA1/imu,0.6908170905655577,0.7230290725362869,0.00043755938862373943,0.0007184647774466496,0.0,0.0,0.0,0.0,0.0,0.0,0.0,0.0,0.0,-0.0003837499166660192,3.855668933974988e-05,0.03699175096438532,0.0,0.0,0.0,0.0,0.0,0.0,0.0,0.0,0.0,-0.03128722790410929,-0.012889866570538894,9.814417247751544,0.0,0.0,0.0,0.0,0.0,0.0,0.0,0.0,0.0
2025/04/05 15:11:52.353237312,1743858712,348237242,mA1/imu,0.6914941501433655,0.7223815613524761,0.0004475109578990929,0.0007210196988910272,0.0,0.0,0.0,0.0,0.0,0.0,0.0,0.0,0.0,-0.000325201516217406,0.0002483871763712442,0.037795492969345756,0.0,0.0,0.0,0.0,0.0,0.0,0.0,0.0,0.0,-0.029585686567616485,-0.01270637728192704,9.813120073197389,0.0,0.0,0.0,0.0,0.0,0.0,0.0,0.0,0.0
2025/04/05 15:11:52.398495890,1743858712,396136829,mA1/imu,0.6921849391513047,0.7217196697009132,0.0004590626279131065,0.0007194723155409833,0.0,0.0,0.0,0.0,0.0,0.0,0.0,0.0,0.0,-0.00025377601986535707,0.000376944780682113,0.0385826746594516,0.0,0.0,0.0,0.0,0.0,0.0,0.0,0.0,0.0,-0.028287028364737104,-0.012648777080102083,9.812907602827861,0.0,0.0,0.0,0.0,0.0,0.0,0.0,0.0,0.0
2025/04/05 15:11:52.450579641,1743858712,450232940,mA1/imu,0.6928891700446574,0.7210435945129174,0.00047044396374255394,0.0007152126914147185,0.0,0.0,0.0,0.0,0.0,0.0,0.0,0.0,0.0,-0.00016806123286301354,0.00041274371281737503,0.03935707847701366,0.0,0.0,0.0,0.0,0.0,0.0,0.0,0.0,0.0,-0.02611427441950464,-0.01273724698277952,9.812079593081346,0.0,0.0,0.0,0.0,0.0,0.0,0.0,0.0,0.0
2025/04/05 15:11:52.492993652,1743858712,492739630,mA1/imu,0.6936065734024709,0.7203535155015675,0.00047997927693119104,0.0007096881775244593,0.0,0.0,0.0,0.0,0.0,0.0,0.0,0.0,0.0,-7.743786476920459e-05,0.00036396250695078496,0.0401222065260863,0.0,0.0,0.0,0.0,0.0,0.0,0.0,0.0,0.0,-0.024912073182136053,-0.012726588784237785,9.811825368683795,0.0,0.0,0.0,0.0,0.0,0.0,0.0,0.0,0.0
2025/04/05 15:11:52.554022471,1743858712,550234304,mA1/imu,0.6943369335160781,0.7196495627666293,0.0004851423986083847,0.0007029951222262838,0.0,0.0,0.0,0.0,0.0,0.0,0.0,0.0,0.0,6.510846742149187e-05,0.0002542843045403691,0.04087792980608507,0.0,0.0,0.0,0.0,0.0,0.0,0.0,0.0,0.0,-0.023080199584290213,-0.009358514455008737,9.809865395410965,0.0,0.0,0.0,0.0,0.0,0.0,0.0,0.0,0.0
2025/04/05 15:11:52.593029545,1743858712,592062269,mA1/imu,0.6950799496657404,0.7189319436565157,0.00048652156807075186,0.0006980398987762493,0.0,0.0,0.0,0.0,0.0,0.0,0.0,0.0,0.0,0.00013254777630697528,6.347126735854997e-05,0.04161191207131244,0.0,0.0,0.0,0.0,0.0,0.0,0.0,0.0,0.0,-0.022192414085161056,-0.011208340849368732,9.809253289900603,0.0,0.0,0.0,0.0,0.0,0.0,0.0,0.0,0.0
2025/04/05 15:11:52.650610992,1743858712,647138187,mA1/imu,0.6958353325736345,0.7182008581839735,0.00048262821978790866,0.0006959281175669804,0.0,0.0,0.0,0.0,0.0,0.0,0.0,0.0,0.0,0.00020532520549549493,-0.00018858431083973665,0.042336251369032823,0.0,0.0,0.0,0.0,0.0,0.0,0.0,0.0,0.0,-0.020944138602928004,-0.012202764200044685,9.808176046326743,0.0,0.0,0.0,0.0,0.0,0.0,0.0,0.0,0.0
2025/04/05 15:11:52.698785810,1743858712,696922747,mA1/imu,0.6966028247605902,0.7174564756879538,0.0004726364379662009,0.0006975985841160203,0.0,0.0,0.0,0.0,0.0,0.0,0.0,0.0,0.0,0.00027452577493931093,-0.0004808424016915213,0.04305213642952262,0.0,0.0,0.0,0.0,0.0,0.0,0.0,0.0,0.0,-0.019986351404947336,-0.012356821170061354,9.807800208971514,0.0,0.0,0.0,0.0,0.0,0.0,0.0,0.0,0.0
2025/04/05 15:11:52.744721453,1743858712,744315440,mA1/imu,0.6973821546970187,0.7166989789037825,0.0004564851997830474,0.0007039671024895535,0.0,0.0,0.0,0.0,0.0,0.0,0.0,0.0,0.0,0.0002577379982377031,-0.0007945047156936117,0.043752151580277274,0.0,0.0,0.0,0.0,0.0,0.0,0.0,0.0,0.0,-0.019045709441573848,0.013151545329294596,9.806143090715917,0.0,0.0,0.0,0.0,0.0,0.0,0.0,0.0,0.0
2025/04/05 15:11:52.799986300,1743858712,798704279,mA1/imu,0.6981736404509753,0.715927975871999,0.0004305924343768322,0.0007181458137150063,0.0,0.0,0.0,0.0,0.0,0.0,0.0,0.0,0.0,0.0004126565487534869,-0.0017555119549254078,0.04429866886697227,0.0,0.0,0.0,0.0,0.0,0.0,0.0,0.0,0.0,0.03565864571129566,-0.012843351945480601,9.806296547312849,0.0,0.0,0.0,0.0,0.0,0.0,0.0,0.0,0.0
2025/04/05 15:11:52.845911014,1743858712,845613664,mA1/imu,0.6989648776130758,0.7151554947029356,0.00037254563098559966,0.0007612288028479108,0.0,0.0,0.0,0.0,0.0,0.0,0.0,0.0,0.0,0.0005022102575331206,-0.0036174290502681908,0.04418212944427602,0.0,0.0,0.0,0.0,0.0,0.0,0.0,0.0,0.0,0.03338435726601107,-0.010682370932691912,9.806009663856527,0.0,0.0,0.0,0.0,0.0,0.0,0.0,0.0,0.0
2025/04/05 15:11:52.897526387,1743858712,897364067,mA1/imu,0.6997533041972115,0.7143840280691516,0.0002825841566926408,0.0008329771743606838,0.0,0.0,0.0,0.0,0.0,0.0,0.0,0.0,0.0,0.0006507257638987196,-0.005217410461424122,0.04407832277581967,0.0,0.0,0.0,0.0,0.0,0.0,0.0,0.0,0.0,0.032527939637254616,-0.00383232445451925,9.806310499361341,0.0,0.0,0.0,0.0,0.0,0.0,0.0,0.0,0.0
2025/04/05 15:11:52.951803570,1743858712,950714935,mA1/imu,0.7005375156278134,0.713614949882967,0.00016503100018744668,0.0009301969204023178,0.0,0.0,0.0,0.0,0.0,0.0,0.0,0.0,0.0,0.0006663461400532043,-0.006743295526789909,0.04376426819277543,0.0,0.0,0.0,0.0,0.0,0.0,0.0,0.0,0.0,0.046441572066887184,-0.0023529880867678276,9.80622965967739,0.0,0.0,0.0,0.0,0.0,0.0,0.0,0.0,0.0
2025/04/05 15:11:52.994307955,1743858712,994033205,mA1/imu,0.7013132977474439,0.7128523922114356,1.57567750471711e-05,0.0010606944719547117,0.0,0.0,0.0,0.0,0.0,0.0,0.0,0.0,0.0,0.0005288876277228266,-0.008763910781070751,0.043273484095559485,0.0,0.0,0.0,0.0,0.0,0.0,0.0,0.0,0.0,0.07155532655611986,-0.015682936878633733,9.80667018991254,0.0,0.0,0.0,0.0,0.0,0.0,0.0,0.0,0.0
2025/04/05 15:11:53.49791766,1743858713,46190442,mA1/imu,0.7020781244648417,0.7120988702116066,-0.00017096802274165087,0.0012153029329379976,0.0,0.0,0.0,0.0,0.0,0.0,0.0,0.0,0.0,0.001052696256672737,-0.010077987749737937,0.04278005850944002,0.0,0.0,0.0,0.0,0.0,0.0,0.0,0.0,0.0,0.040546149646886936,0.024555440465179223,9.80772661730915,0.0,0.0,0.0,0.0,0.0,0.0,0.0,0.0,0.0
2025/04/05 15:11:53.96040812,1743858713,95776241,mA1/imu,0.7028431012002698,0.7113434720124518,-0.0003634422124996951,0.0013812422725854047,0.0,0.0,0.0,0.0,0.0,0.0,0.0,0.0,0.0,1.5471129232938263e-05,-0.010047956849945723,0.0431781260651937,0.0,0.0,0.0,0.0,0.0,0.0,0.0,0.0,0.0,0.032388299473483234,0.5778204354595768,9.807609731928142,0.0,0.0,0.0,0.0,0.0,0.0,0.0,0.0,0.0
2025/04/05 15:11:53.148157422,1743858713,147345617,mA1/imu,0.7036159009778141,0.7105786484901102,-0.0005564474478861691,0.0015292375174780475,0.0,0.0,0.0,0.0,0.0,0.0,0.0,0.0,0.0,0.0015938659085534886,-0.00932431156538696,0.04368203368546947,0.0,0.0,0.0,0.0,0.0,0.0,0.0,0.0,0.0,0.029079683422142073,0.04500326201744356,9.810915801744763,0.0,0.0,0.0,0.0,0.0,0.0,0.0,0.0,0.0
2025/04/05 15:11:53.201674241,1743858713,199943196,mA1/imu,0.7043943415232491,0.7098065384447197,-0.0007406752473409664,0.0016555999912725263,0.0,0.0,0.0,0.0,0.0,0.0,0.0,0.0,0.0,0.0018671685395404722,-0.008449169709427275,0.04389579179181818,0.0,0.0,0.0,0.0,0.0,0.0,0.0,0.0,0.0,0.04584291933223997,0.6845910979771,9.81189820203636,0.0,0.0,0.0,0.0,0.0,0.0,0.0,0.0,0.0
2025/04/05 15:11:53.255015050,1743858713,251808514,mA1/imu,0.705173247372144,0.7090322532021835,-0.0008961830910151239,0.0017753775730664475,0.0,0.0,0.0,0.0,0.0,0.0,0.0,0.0,0.0,0.002855851976113545,-0.007342683688102564,0.04392251185214955,0.0,0.0,0.0,0.0,0.0,0.0,0.0,0.0,0.0,0.04451183587310489,-0.11593437023161543,9.811157393660812,0.0,0.0,0.0,0.0,0.0,0.0,0.0,0.0,0.0
2025/04/05 15:11:53.302006380,1743858713,299873289,mA1/imu,0.7059507803848073,0.7082576909601467,-0.0010316180821220108,0.0018640370210452034,0.0,0.0,0.0,0.0,0.0,0.0,0.0,0.0,0.0,4.495884691839658e-05,-0.005690107509322208,0.04388128093661351,0.0,0.0,0.0,0.0,0.0,0.0,0.0,0.0,0.0,0.04703339131484586,0.5500084691789049,9.814167526464022,0.0,0.0,0.0,0.0,0.0,0.0,0.0,0.0,0.0
2025/04/05 15:11:53.343548098,1743858713,341936242,mA1/imu,0.7067262602259486,0.7074835801659621,-0.0011427174041516008,0.0019160113599826672,0.0,0.0,0.0,0.0,0.0,0.0,0.0,0.0,0.0,0.0013664201314165841,-0.003814105458296859,0.043790657620491315,0.0,0.0,0.0,0.0,0.0,0.0,0.0,0.0,0.0,0.039881574842538556,0.4532540435269583,9.811155093649278,0.0,0.0,0.0,0.0,0.0,0.0,0.0,0.0,0.0
2025/04/05 15:11:53.397036080,1743858713,396714905,mA1/imu,0.7075024419253534,0.7067072028181498,-0.0012094257323640902,0.0019394442519295588,0.0,0.0,0.0,0.0,0.0,0.0,0.0,0.0,0.0,0.0024037185620028397,-0.0017341836152382998,0.04400961456511626,0.0,0.0,0.0,0.0,0.0,0.0,0.0,0.0,0.0,0.04089193916418827,-0.5337604989452351,9.814629061488738,0.0,0.0,0.0,0.0,0.0,0.0,0.0,0.0,0.0
2025/04/05 15:11:53.451903604,1743858713,451687544,mA1/imu,0.7082802599045191,0.7059276339155452,-0.001240359367269588,0.0019262950518540182,0.0,0.0,0.0,0.0,0.0,0.0,0.0,0.0,0.0,0.0012438519214355622,0.000214417209061509,0.044056910060463236,0.0,0.0,0.0,0.0,0.0,0.0,0.0,0.0,0.0,0.053393916961635354,-0.6150982824876638,9.815260237289303,0.0,0.0,0.0,0.0,0.0,0.0,0.0,0.0,0.0
2025/04/05 15:11:53.502650133,1743858713,502397368,mA1/imu,0.70905750524956,0.7051470747032448,-0.0012424008061336913,0.0018744937886816765,0.0,0.0,0.0,0.0,0.0,0.0,0.0,0.0,0.0,-0.0009582582641397242,0.0021934216217924245,0.044070544116021945,0.0,0.0,0.0,0.0,0.0,0.0,0.0,0.0,0.0,0.04946507327664129,0.5099075720565199,9.813776036219522,0.0,0.0,0.0,0.0,0.0,0.0,0.0,0.0,0.0
2025/04/05 15:11:53.552703903,1743858713,549390099,mA1/imu,0.7098335260459749,0.7043661551651612,-0.0012066307587517244,0.001796886529039389,0.0,0.0,0.0,0.0,0.0,0.0,0.0,0.0,0.0,-0.00024432933453864564,0.003909779332178182,0.04403335029134182,0.0,0.0,0.0,0.0,0.0,0.0,0.0,0.0,0.0,0.050712359013569304,0.5740770429085355,9.813006011502361,0.0,0.0,0.0,0.0,0.0,0.0,0.0,0.0,0.0
2025/04/05 15:11:53.596077675,1743858713,592447500,mA1/imu,0.7106136673312916,0.7035794432021204,-0.0011431715846563343,0.0016958962511587172,0.0,0.0,0.0,0.0,0.0,0.0,0.0,0.0,0.0,0.0013749297901166433,0.005122363302228079,0.04452078570538741,0.0,0.0,0.0,0.0,0.0,0.0,0.0,0.0,0.0,0.05881360293985789,0.08607215068273263,9.812052589998013,0.0,0.0,0.0,0.0,0.0,0.0,0.0,0.0,0.0
2025/04/05 15:11:53.641730323,1743858713,641433821,mA1/imu,0.7114017846729401,0.7027829641361742,-0.001061986238327171,0.0015742519995367323,0.0,0.0,0.0,0.0,0.0,0.0,0.0,0.0,0.0,0.000857597003405814,0.006056921500949021,0.04498478482019679,0.0,0.0,0.0,0.0,0.0,0.0,0.0,0.0,0.0,0.06663050208789484,0.6765120791423104,9.810858872366321,0.0,0.0,0.0,0.0,0.0,0.0,0.0,0.0,0.0
2025/04/05 15:11:53.696757945,1743858713,694490315,mA1/imu,0.712196843114593,0.7019776520831108,-0.0009687138121515297,0.001447144443818449,0.0,0.0,0.0,0.0,0.0,0.0,0.0,0.0,0.0,9.260522959019111e-05,0.006275608452613548,0.045524611039095365,0.0,0.0,0.0,0.0,0.0,0.0,0.0,0.0,0.0,0.07060456325709613,0.6354933937201561,9.809597074455388,0.0,0.0,0.0,0.0,0.0,0.0,0.0,0.0,0.0
2025/04/05 15:11:53.750614315,1743858713,748708405,mA1/imu,0.713001060892276,0.701161164107789,-0.0008830524119500498,0.0013150406598170707,0.0,0.0,0.0,0.0,0.0,0.0,0.0,0.0,0.0,0.00190684119279399,0.005986112778982351,0.04602905177108229,0.0,0.0,0.0,0.0,0.0,0.0,0.0,0.0,0.0,0.07893827799644929,-0.5093456922195791,9.810362215651068,0.0,0.0,0.0,0.0,0.0,0.0,0.0,0.0,0.0
2025/04/05 15:11:53.793974186,1743858713,793608503,mA1/imu,0.7137991913418837,0.7003488908172657,-0.0008277860204753699,0.0012084456970333829,0.0,0.0,0.0,0.0,0.0,0.0,0.0,0.0,0.0,0.001558906770730104,0.00323325419487803,0.044989953374829174,0.0,0.0,0.0,0.0,0.0,0.0,0.0,0.0,0.0,0.16530797363565064,0.2921376630460347,9.80978318634875,0.0,0.0,0.0,0.0,0.0,0.0,0.0,0.0,0.0
2025/04/05 15:11:53.848101218,1743858713,847913768,mA1/imu,0.7145907345002347,0.6995413970570672,-0.0007940154689246482,0.0011338030237534058,0.0,0.0,0.0,0.0,0.0,0.0,0.0,0.0,0.0,0.0010413335847989484,0.002909547580369717,0.045377564602654116,0.0,0.0,0.0,0.0,0.0,0.0,0.0,0.0,0.0,0.06837048865371897,0.06162694313104253,9.807678679769312,0.0,0.0,0.0,0.0,0.0,0.0,0.0,0.0,0.0
2025/04/05 15:11:53.898041319,1743858713,897598869,mA1/imu,0.7153875444099874,0.6987266585202417,-0.0007722743116256141,0.001059041346400138,0.0,0.0,0.0,0.0,0.0,0.0,0.0,0.0,0.0,0.001025691099051498,0.002627002353226724,0.04572830902608172,0.0,0.0,0.0,0.0,0.0,0.0,0.0,0.0,0.0,0.05882014931056292,0.10758916926894722,9.80638209407662,0.0,0.0,0.0,0.0,0.0,0.0,0.0,0.0,0.0
2025/04/05 15:11:53.946123708,1743858713,943942408,mA1/imu,0.7161891459635483,0.6979051177558351,-0.0007499853664881099,0.000995658659993594,0.0,0.0,0.0,0.0,0.0,0.0,0.0,0.0,0.0,0.0012413777301874026,0.002262379035317272,0.04601845010609704,0.0,0.0,0.0,0.0,0.0,0.0,0.0,0.0,0.0,0.06112097420956723,0.4434536171729249,9.807861292842798,0.0,0.0,0.0,0.0,0.0,0.0,0.0,0.0,0.0
2025/04/05 15:11:53.991966934,1743858713,991488001,mA1/imu,0.7169939490573365,0.6970783709515331,-0.0007315307835848587,0.0009416100228365743,0.0,0.0,0.0,0.0,0.0,0.0,0.0,0.0,0.0,0.001967433566574752,0.0018680658343013198,0.04623343686228083,0.0,0.0,0.0,0.0,0.0,0.0,0.0,0.0,0.0,0.05842800314892781,0.1556170358311203,9.805550549159078,0.0,0.0,0.0,0.0,0.0,0.0,0.0,0.0,0.0
2025/04/05 15:11:54.43058027,1743858714,42389772,mA1/imu,0.7178008211120983,0.6962475582213477,-0.0007143375358632212,0.000899223828394145,0.0,0.0,0.0,0.0,0.0,0.0,0.0,0.0,0.0,0.002577602909012954,0.001525414106388809,0.04637220431626145,0.0,0.0,0.0,0.0,0.0,0.0,0.0,0.0,0.0,0.051637409100474485,-0.4082262235625731,9.803942124062308,0.0,0.0,0.0,0.0,0.0,0.0,0.0,0.0,0.0
2025/04/05 15:11:54.92711816,1743858714,92204204,mA1/imu,0.7186084948441471,0.6954139714507154,-0.0006910610397125027,0.0008728594459754796,0.0,0.0,0.0,0.0,0.0,0.0,0.0,0.0,0.0,0.0005109437545839425,0.0012361109624941975,0.046443475153240515,0.0,0.0,0.0,0.0,0.0,0.0,0.0,0.0,0.0,0.05148104094531722,-0.5338745756619258,9.808394094130913,0.0,0.0,0.0,0.0,0.0,0.0,0.0,0.0,0.0
2025/04/05 15:11:54.144277809,1743858714,143402720,mA1/imu,0.7194162576085921,0.6945783385773745,-0.000669252942882123,0.0008555513078533429,0.0,0.0,0.0,0.0,0.0,0.0,0.0,0.0,0.0,-0.0007666183957495245,0.0009995704649015517,0.04651180132169568,0.0,0.0,0.0,0.0,0.0,0.0,0.0,0.0,0.0,0.04859731167322641,0.034809651291328764,9.80675489194041,0.0,0.0,0.0,0.0,0.0,0.0,0.0,0.0,0.0
2025/04/05 15:11:54.193565265,1743858714,193212569,mA1/imu,0.7202230238909926,0.6937417829332945,-0.0006477256301625218,0.0008455302221353092,0.0,0.0,0.0,0.0,0.0,0.0,0.0,0.0,0.0,-0.0013319240498980219,0.0007702031164120932,0.046433630578726494,0.0,0.0,0.0,0.0,0.0,0.0,0.0,0.0,0.0,0.0548815408564931,0.023436453743971672,9.809811352745523,0.0,0.0,0.0,0.0,0.0,0.0,0.0,0.0,0.0
2025/04/05 15:11:54.246567851,1743858714,246235305,mA1/imu,0.7210268151999808,0.6929063643387956,-0.0006270397537997425,0.0008419278544926499,0.0,0.0,0.0,0.0,0.0,0.0,0.0,0.0,0.0,-0.0011876885252784092,0.0006916540598316856,0.04633663487702579,0.0,0.0,0.0,0.0,0.0,0.0,0.0,0.0,0.0,0.041589096199904106,-0.27983634762855214,9.809150889302531,0.0,0.0,0.0,0.0,0.0,0.0,0.0,0.0,0.0
2025/04/05 15:11:54.296110488,1743858714,295871963,mA1/imu,0.7218248367856063,0.692075004420367,-0.0006061426008655126,0.0008519666245376447,0.0,0.0,0.0,0.0,0.0,0.0,0.0,0.0,0.0,-3.570852903069564e-05,0.00010919668659424195,0.045969581189426706,0.0,0.0,0.0,0.0,0.0,0.0,0.0,0.0,0.0,0.050496420657511476,-0.4747425133420978,9.810122912745774,0.0,0.0,0.0,0.0,0.0,0.0,0.0,0.0,0.0
2025/04/05 15:11:54.347498760,1743858714,346891302,mA1/imu,0.7226164734011536,0.6912483763708002,-0.000582471716190062,0.0008804889051573767,0.0,0.0,0.0,0.0,0.0,0.0,0.0,0.0,0.0,-0.0014550917875495706,-0.0002904643533624892,0.04566922126421475,0.0,0.0,0.0,0.0,0.0,0.0,0.0,0.0,0.0,0.051301015406936185,0.08142909731496623,9.810989850528275,0.0,0.0,0.0,0.0,0.0,0.0,0.0,0.0,0.0
2025/04/05 15:11:54.397469695,1743858714,397137575,mA1/imu,0.7234019495008069,0.6904262857968423,-0.0005654677542151104,0.0009184690674279444,0.0,0.0,0.0,0.0,0.0,0.0,0.0,0.0,0.0,-0.0008046387827026743,-0.000779393685047337,0.045331883413291495,0.0,0.0,0.0,0.0,0.0,0.0,0.0,0.0,0.0,0.05521747633787046,-0.2854563905112446,9.810076183908636,0.0,0.0,0.0,0.0,0.0,0.0,0.0,0.0,0.0
2025/04/05 15:11:54.448437059,1743858714,448120380,mA1/imu,0.7241784252604121,0.6896117460533739,-0.0005500794159289498,0.0009723709182618361,0.0,0.0,0.0,0.0,0.0,0.0,0.0,0.0,0.0,-0.0011223737315618672,-0.0012293495764367688,0.0448019688369814,0.0,0.0,0.0,0.0,0.0,0.0,0.0,0.0,0.0,0.05175608057832361,0.09387961027557852,9.81178743275572,0.0,0.0,0.0,0.0,0.0,0.0,0.0,0.0,0.0
2025/04/05 15:11:54.498153538,1743858714,497885018,mA1/imu,0.7249446160480958,0.6888061698109953,-0.0005334512853199503,0.0010390009198302653,0.0,0.0,0.0,0.0,0.0,0.0,0.0,0.0,0.0,-0.00216880743601685,-0.0014873177666736668,0.04424456848527744,0.0,0.0,0.0,0.0,0.0,0.0,0.0,0.0,0.0,0.052211810942277045,0.0024736130608889904,9.810848450777296,0.0,0.0,0.0,0.0,0.0,0.0,0.0,0.0,0.0
2025/04/05 15:11:54.550515999,1743858714,549749057,mA1/imu,0.7257001163225154,0.6880100612403311,-0.0005207968344073953,0.001107055653792859,0.0,0.0,0.0,0.0,0.0,0.0,0.0,0.0,0.0,-0.00284534901026214,-0.0015374428614278717,0.04366795587540397,0.0,0.0,0.0,0.0,0.0,0.0,0.0,0.0,0.0,0.04747037911273541,0.032223463744612046,9.81171827756737,0.0,0.0,0.0,0.0,0.0,0.0,0.0,0.0,0.0
2025/04/05 15:11:54.599169072,1743858714,598788678,mA1/imu,0.726444498333427,0.6872239538498719,-0.0005123660767278675,0.001168579072234272,0.0,0.0,0.0,0.0,0.0,0.0,0.0,0.0,0.0,-0.0021621607107812873,-0.0013757359737230207,0.04305990156827988,0.0,0.0,0.0,0.0,0.0,0.0,0.0,0.0,0.0,0.041568103264286435,-0.011389168751215373,9.814563573141537,0.0,0.0,0.0,0.0,0.0,0.0,0.0,0.0,0.0
2025/04/05 15:11:54.650353285,1743858714,650035930,mA1/imu,0.727177354937965,0.6864483552161312,-0.0004971070706776899,0.001225957198798114,0.0,0.0,0.0,0.0,0.0,0.0,0.0,0.0,0.0,-0.0012489520048009504,-0.0009891189186222833,0.042428321624191384,0.0,0.0,0.0,0.0,0.0,0.0,0.0,0.0,0.0,0.03764583795238686,-0.3853176994545833,9.813171842184802,0.0,0.0,0.0,0.0,0.0,0.0,0.0,0.0,0.0
2025/04/05 15:11:54.700260521,1743858714,699912340,mA1/imu,0.7278981109735007,0.6856839555113599,-0.00047192940321753217,0.0012769017748861726,0.0,0.0,0.0,0.0,0.0,0.0,0.0,0.0,0.0,-0.002319781647855913,-0.00046791937257244915,0.04175344306532258,0.0,0.0,0.0,0.0,0.0,0.0,0.0,0.0,0.0,0.035258428533023044,0.4790001559115834,9.815211443196267,0.0,0.0,0.0,0.0,0.0,0.0,0.0,0.0,0.0
2025/04/05 15:11:54.741674572,1743858714,740885570,mA1/imu,0.7286064070271411,0.6849312314636841,-0.00044139046546212533,0.0013103354906973683,0.0,0.0,0.0,0.0,0.0,0.0,0.0,0.0,0.0,-0.0018509222078660658,0.0002536094169584307,0.04107106546058455,0.0,0.0,0.0,0.0,0.0,0.0,0.0,0.0,0.0,0.03130067436986343,0.0639301573577505,9.813215228478143,0.0,0.0,0.0,0.0,0.0,0.0,0.0,0.0,0.0
2025/04/05 15:11:54.791069749,1743858714,790774584,mA1/imu,0.7293017892797413,0.6841907502741612,-0.0004039453738157641,0.0013244700008751059,0.0,0.0,0.0,0.0,0.0,0.0,0.0,0.0,0.0,-0.0014968748393939307,0.0009863109385182464,0.04034622250875677,0.0,0.0,0.0,0.0,0.0,0.0,0.0,0.0,0.0,0.02976126212727444,0.6954864548836144,9.814794004202131,0.0,0.0,0.0,0.0,0.0,0.0,0.0,0.0,0.0
2025/04/05 15:11:54.842607337,1743858714,841923751,mA1/imu,0.7299839127969115,0.6834629556300102,-0.00035498853307885405,0.0013226195005028162,0.0,0.0,0.0,0.0,0.0,0.0,0.0,0.0,0.0,-0.0008798269725095479,0.0017668342006542574,0.039601230470744694,0.0,0.0,0.0,0.0,0.0,0.0,0.0,0.0,0.0,0.02536657021637931,0.2054707841651652,9.811539291770659,0.0,0.0,0.0,0.0,0.0,0.0,0.0,0.0,0.0
2025/04/05 15:11:54.893612080,1743858714,892379437,mA1/imu,0.7306521187141142,0.6827486336059186,-0.0002958999494253946,0.0013027551754387183,0.0,0.0,0.0,0.0,0.0,0.0,0.0,0.0,0.0,-0.0008725415999291861,0.002571483866428698,0.038811628552538814,0.0,0.0,0.0,0.0,0.0,0.0,0.0,0.0,0.0,0.022760887802302614,0.6903620150962451,9.811462843129679,0.0,0.0,0.0,0.0,0.0,0.0,0.0,0.0,0.0
2025/04/05 15:11:54.948001901,1743858714,946745499,mA1/imu,0.7313063588685804,0.6820479258281991,-0.00023353138681612442,0.0012577022389369313,0.0,0.0,0.0,0.0,0.0,0.0,0.0,0.0,0.0,-0.000789841389040767,0.0033427260143477993,0.03803404884535327,0.0,0.0,0.0,0.0,0.0,0.0,0.0,0.0,0.0,0.02110012729029351,0.6668979044515949,9.811021938855475,0.0,0.0,0.0,0.0,0.0,0.0,0.0,0.0,0.0
2025/04/05 15:11:54.997869950,1743858714,997082517,mA1/imu,0.7319458432653736,0.6813617448668315,-0.00016481745768976992,0.001194986934452736,0.0,0.0,0.0,0.0,0.0,0.0,0.0,0.0,0.0,0.0025535045349326137,0.003916752430932101,0.037186469545435086,0.0,0.0,0.0,0.0,0.0,0.0,0.0,0.0,0.0,0.01839161567408581,-0.30322007347132096,9.807900613987568,0.0,0.0,0.0,0.0,0.0,0.0,0.0,0.0,0.0
2025/04/05 15:11:55.58877164,1743858715,52429392,mA1/imu,0.7325698974582999,0.6806908659960561,-7.206463341489046e-05,0.0011336199379952494,0.0,0.0,0.0,0.0,0.0,0.0,0.0,0.0,0.0,0.00017289603178542533,0.004486808089263892,0.03629864228710659,0.0,0.0,0.0,0.0,0.0,0.0,0.0,0.0,0.0,0.01865047676081202,-0.5850219326112277,9.810861293833046,0.0,0.0,0.0,0.0,0.0,0.0,0.0,0.0,0.0
2025/04/05 15:11:55.96213332,1743858715,94849435,mA1/imu,0.7331780523708841,0.680035950248459,-1.1242235334422588e-05,0.0010245803653360474,0.0,0.0,0.0,0.0,0.0,0.0,0.0,0.0,0.0,-0.0005086291457289894,0.004960691771503401,0.03538581156462349,0.0,0.0,0.0,0.0,0.0,0.0,0.0,0.0,0.0,0.010379517569560154,0.6099203300906059,9.803106696487479,0.0,0.0,0.0,0.0,0.0,0.0,0.0,0.0,0.0
2025/04/05 15:11:55.156145154,1743858715,151570044,mA1/imu,0.7337700150644596,0.6793973090841176,6.664850107163144e-05,0.0009257210920115606,0.0,0.0,0.0,0.0,0.0,0.0,0.0,0.0,0.0,0.0025719412618065243,0.004974154168678544,0.03446484530333732,0.0,0.0,0.0,0.0,0.0,0.0,0.0,0.0,0.0,0.011278789547378695,0.0986285535697279,9.805596702660743,0.0,0.0,0.0,0.0,0.0,0.0,0.0,0.0,0.0
2025/04/05 15:11:55.193197197,1743858715,192728995,mA1/imu,0.734345823851712,0.6787749950543542,0.00015162529818265095,0.0008331208080863454,0.0,0.0,0.0,0.0,0.0,0.0,0.0,0.0,0.0,-0.00019603838758539325,0.0049272450979535925,0.0335485090143575,0.0,0.0,0.0,0.0,0.0,0.0,0.0,0.0,0.0,0.012663363118840316,-0.0330646965638232,9.804454177983917,0.0,0.0,0.0,0.0,0.0,0.0,0.0,0.0,0.0
2025/04/05 15:11:55.280975321,1743858715,248034185,mA1/imu,0.734905225387507,0.6781694113412569,0.00020846126518390083,0.0007181664790281728,0.0,0.0,0.0,0.0,0.0,0.0,0.0,0.0,0.0,0.0010714843762970325,0.004684714274869996,0.032604053782661145,0.0,0.0,0.0,0.0,0.0,0.0,0.0,0.0,0.0,0.010922397865128226,0.037625166491939546,9.808146463704697,0.0,0.0,0.0,0.0,0.0,0.0,0.0,0.0,0.0
2025/04/05 15:11:55.299779478,1743858715,290381261,mA1/imu,0.7354482843759803,0.6775805297465066,0.0002637473326757221,0.0006141288263733648,0.0,0.0,0.0,0.0,0.0,0.0,0.0,0.0,0.0,0.0020609535604170603,0.004239293275256317,0.03167329323119227,0.0,0.0,0.0,0.0,0.0,0.0,0.0,0.0,0.0,0.0080810772390064,0.10064192488705069,9.808071833340412,0.0,0.0,0.0,0.0,0.0,0.0,0.0,0.0,0.0
2025/04/05 15:11:55.344965640,1743858715,343140229,mA1/imu,0.7359766936971849,0.6770066028505712,0.00030993089753806615,0.0005195903457497102,0.0,0.0,0.0,0.0,0.0,0.0,0.0,0.0,0.0,0.0013066237142699295,0.0036427258556959922,0.03091418647962002,0.0,0.0,0.0,0.0,0.0,0.0,0.0,0.0,0.0,0.009395613339152753,0.6803708021094403,9.807355243122467,0.0,0.0,0.0,0.0,0.0,0.0,0.0,0.0,0.0
2025/04/05 15:11:55.439004178,1743858715,402552512,mA1/imu,0.7364924721496072,0.6764455047038727,0.00034797401845092327,0.00044333617638766414,0.0,0.0,0.0,0.0,0.0,0.0,0.0,0.0,0.0,0.000461152823137385,0.0028402891044451723,0.030205563055750163,0.0,0.0,0.0,0.0,0.0,0.0,0.0,0.0,0.0,0.00875217064592214,0.33599816307891217,9.807234848618663,0.0,0.0,0.0,0.0,0.0,0.0,0.0,0.0,0.0
2025/04/05 15:11:55.489687762,1743858715,452597949,mA1/imu,0.7369961462198349,0.675896743548828,0.0003628385530449447,0.00037532037772828686,0.0,0.0,0.0,0.0,0.0,0.0,0.0,0.0,0.0,0.0017730166154442577,0.001875770854980035,0.029527349148744435,0.0,0.0,0.0,0.0,0.0,0.0,0.0,0.0,0.0,0.009441909655069046,0.008999852012610587,9.808328745368945,0.0,0.0,0.0,0.0,0.0,0.0,0.0,0.0,0.0
2025/04/05 15:11:55.509998155,1743858715,491911383,mA1/imu,0.737487816522499,0.6753602601701291,0.00036257253627406966,0.00032864109387809504,0.0,0.0,0.0,0.0,0.0,0.0,0.0,0.0,0.0,0.0006725204157863878,0.0007985161243082975,0.028826895660018458,0.0,0.0,0.0,0.0,0.0,0.0,0.0,0.0,0.0,0.012282822823888165,0.650412446040147,9.810184700886388,0.0,0.0,0.0,0.0,0.0,0.0,0.0,0.0,0.0
2025/04/05 15:11:55.566772070,1743858715,546196508,mA1/imu,0.7379679964126334,0.6748355496871934,0.000349826599352899,0.0003078481074351589,0.0,0.0,0.0,0.0,0.0,0.0,0.0,0.0,0.0,-0.0001936701684471598,-0.00023832840586687087,0.028202053906048158,0.0,0.0,0.0,0.0,0.0,0.0,0.0,0.0,0.0,0.009133394759306662,0.1710106289637235,9.810898446665806,0.0,0.0,0.0,0.0,0.0,0.0,0.0,0.0,0.0
2025/04/05 15:11:55.603645204,1743858715,597639897,mA1/imu,0.7384380584352506,0.6743211709811618,0.00031782965188104686,0.0003020021266092929,0.0,0.0,0.0,0.0,0.0,0.0,0.0,0.0,0.0,0.0012763892221818894,-0.0011502875909836447,0.027664884195425326,0.0,0.0,0.0,0.0,0.0,0.0,0.0,0.0,0.0,0.00411811987340856,-0.5321068028213957,9.810581422532122,0.0,0.0,0.0,0.0,0.0,0.0,0.0,0.0,0.0
2025/04/05 15:11:55.652278501,1743858715,646663899,mA1/imu,0.7388984049708658,0.6738167197542301,0.000274250772862034,0.00031638216324785174,0.0,0.0,0.0,0.0,0.0,0.0,0.0,0.0,0.0,0.0016901608137022764,-0.002038411085458109,0.02708645408069471,0.0,0.0,0.0,0.0,0.0,0.0,0.0,0.0,0.0,0.006465811755795268,-0.48249710294816783,9.810676052946093,0.0,0.0,0.0,0.0,0.0,0.0,0.0,0.0,0.0
2025/04/05 15:11:55.705254707,1743858715,697095379,mA1/imu,0.73934884629975,0.6733224398780175,0.00022431213004073643,0.00035371741612592617,0.0,0.0,0.0,0.0,0.0,0.0,0.0,0.0,0.0,0.0004529728712913308,-0.0027926708324034436,0.02652885105565552,0.0,0.0,0.0,0.0,0.0,0.0,0.0,0.0,0.0,0.00715291567370609,0.08043823876084197,9.814462733621184,0.0,0.0,0.0,0.0,0.0,0.0,0.0,0.0,0.0
2025/04/05 15:11:55.772897708,1743858715,751320287,mA1/imu,0.7397898222710259,0.6728378873185237,0.00016921438035050743,0.0004094135357953849,0.0,0.0,0.0,0.0,0.0,0.0,0.0,0.0,0.0,5.0138963808911987e-05,-0.0033536665997219387,0.025993932210742657,0.0,0.0,0.0,0.0,0.0,0.0,0.0,0.0,0.0,0.004812096413098285,-0.26890096473264774,9.813615582071577,0.0,0.0,0.0,0.0,0.0,0.0,0.0,0.0,0.0
2025/04/05 15:11:55.801000492,1743858715,791727388,mA1/imu,0.7402216781085734,0.6723627207998083,0.00010956084346121567,0.00047637509176787533,0.0,0.0,0.0,0.0,0.0,0.0,0.0,0.0,0.0,-0.0005453923575703735,-0.0036878463363533443,0.0254763340242531,0.0,0.0,0.0,0.0,0.0,0.0,0.0,0.0,0.0,0.004010857453606969,0.09875996935400466,9.813623115862217,0.0,0.0,0.0,0.0,0.0,0.0,0.0,0.0,0.0
2025/04/05 15:11:55.883095006,1743858715,848899052,mA1/imu,0.7406447801104049,0.6718965712068123,5.126742139738386e-05,0.0005519668379724274,0.0,0.0,0.0,0.0,0.0,0.0,0.0,0.0,0.0,-0.0014837852639170168,-0.0037826649226328883,0.0249822578337923,0.0,0.0,0.0,0.0,0.0,0.0,0.0,0.0,0.0,0.002966431720387056,0.6452112747432052,9.813258471617376,0.0,0.0,0.0,0.0,0.0,0.0,0.0,0.0,0.0
2025/04/05 15:11:55.891380393,1743858715,890456029,mA1/imu,0.7410591202078867,0.6714394810284094,1.0713511637534074e-07,0.0006353526592722115,0.0,0.0,0.0,0.0,0.0,0.0,0.0,0.0,0.0,-0.000541227411007206,-0.003745036971234078,0.02446827887607026,0.0,0.0,0.0,0.0,0.0,0.0,0.0,0.0,0.0,0.005124159987546986,0.04868160136276444,9.813756114406992,0.0,0.0,0.0,0.0,0.0,0.0,0.0,0.0,0.0
2025/04/05 15:11:55.952019345,1743858715,946547192,mA1/imu,0.7414650442006201,0.6709911072694851,-4.1171231825374546e-05,0.000721456008783762,0.0,0.0,0.0,0.0,0.0,0.0,0.0,0.0,0.0,-0.000710074204508422,-0.0034000314905154806,0.024012484954533998,0.0,0.0,0.0,0.0,0.0,0.0,0.0,0.0,0.0,0.0009823721776114208,-0.28722408417111567,9.812449521941495,0.0,0.0,0.0,0.0,0.0,0.0,0.0,0.0,0.0
2025/04/05 15:11:56.3825961,1743858715,996323500,mA1/imu,0.741863373637696,0.6705505858981405,-7.274763538229773e-05,0.0008008210401098667,0.0,0.0,0.0,0.0,0.0,0.0,0.0,0.0,0.0,-0.0011031171471978308,-0.002822834655658471,0.0236056835075952,0.0,0.0,0.0,0.0,0.0,0.0,0.0,0.0,0.0,-0.0032637263383150997,-0.5440607370093209,9.812277077639747,0.0,0.0,0.0,0.0,0.0,0.0,0.0,0.0,0.0
2025/04/05 15:11:56.97380105,1743858716,52831385,mA1/imu,0.7422547589568895,0.670117239563106,-9.513964421764998e-05,0.0008654447531137535,0.0,0.0,0.0,0.0,0.0,0.0,0.0,0.0,0.0,-0.0007964467721706106,-0.002125170341721844,0.023189238511010662,0.0,0.0,0.0,0.0,0.0,0.0,0.0,0.0,0.0,3.094244502257863e-05,0.11283787354934496,9.811662926841633,0.0,0.0,0.0,0.0,0.0,0.0,0.0,0.0,0.0
2025/04/05 15:11:56.99746063,1743858716,95919836,mA1/imu,0.7426388701426953,0.6696914470325879,-9.168637679762739e-05,0.0009305472518276163,0.0,0.0,0.0,0.0,0.0,0.0,0.0,0.0,0.0,-0.002994181549658491,-0.0013263257352699568,0.02277370368750262,0.0,0.0,0.0,0.0,0.0,0.0,0.0,0.0,0.0,0.0005692475877877631,0.5917792793118397,9.811483901281237,0.0,0.0,0.0,0.0,0.0,0.0,0.0,0.0,0.0
2025/04/05 15:11:56.170032894,1743858716,150341702,mA1/imu,0.7430159699163921,0.6692729778926775,-8.302519456466535e-05,0.0009708855174471228,0.0,0.0,0.0,0.0,0.0,0.0,0.0,0.0,0.0,-0.0007960887379982717,-0.0004914638136771297,0.022373677980050643,0.0,0.0,0.0,0.0,0.0,0.0,0.0,0.0,0.0,0.00021911604768707314,-0.3468634869348951,9.808401866502377,0.0,0.0,0.0,0.0,0.0,0.0,0.0,0.0,0.0
2025/04/05 15:11:56.211681171,1743858716,195121665,mA1/imu,0.7433862867490006,0.6688615917189459,-5.715082242559974e-05,0.0009982637498629544,0.0,0.0,0.0,0.0,0.0,0.0,0.0,0.0,0.0,0.0003848379174069321,0.0003479244990737418,0.02198747146398946,0.0,0.0,0.0,0.0,0.0,0.0,0.0,0.0,0.0,0.0007906861291708742,-0.4480568588628357,9.80758932498178,0.0,0.0,0.0,0.0,0.0,0.0,0.0,0.0,0.0
2025/04/05 15:11:56.251711656,1743858716,249193073,mA1/imu,0.7437500052979712,0.6684571084782363,-1.5113275950828136e-05,0.001011689563116125,0.0,0.0,0.0,0.0,0.0,0.0,0.0,0.0,0.0,-8.028030441020655e-05,0.001189911950396044,0.021611665216509927,0.0,0.0,0.0,0.0,0.0,0.0,0.0,0.0,0.0,0.0008322700171856604,-0.49174330042873937,9.806916985630709,0.0,0.0,0.0,0.0,0.0,0.0,0.0,0.0,0.0
2025/04/05 15:11:56.300119105,1743858716,293617173,mA1/imu,0.7441073324540314,0.6680593167933362,4.157553875370877e-05,0.0010125735732324345,0.0,0.0,0.0,0.0,0.0,0.0,0.0,0.0,0.0,-0.0015512104998119062,0.0019255804149864433,0.021247228161397944,0.0,0.0,0.0,0.0,0.0,0.0,0.0,0.0,0.0,0.0018606122343084851,0.018156175538370692,9.80838264458516,0.0,0.0,0.0,0.0,0.0,0.0,0.0,0.0,0.0
2025/04/05 15:11:56.415010740,1743858716,350292399,mA1/imu,0.7444584938751374,0.6676680087919502,9.548220650352606e-05,0.0009858073354341973,0.0,0.0,0.0,0.0,0.0,0.0,0.0,0.0,0.0,-4.17041700546388e-05,0.0025388370116495563,0.02089182458976749,0.0,0.0,0.0,0.0,0.0,0.0,0.0,0.0,0.0,0.0023917344669707238,-0.49954076959174165,9.806591985175297,0.0,0.0,0.0,0.0,0.0,0.0,0.0,0.0,0.0
2025/04/05 15:11:56.446932784,1743858716,390496827,mA1/imu,0.7448032965609135,0.6672833869541509,0.0001586399740617446,0.0009517144273797824,0.0,0.0,0.0,0.0,0.0,0.0,0.0,0.0,0.0,-6.017299870291379e-05,0.002902621389139687,0.02050822801379579,0.0,0.0,0.0,0.0,0.0,0.0,0.0,0.0,0.0,0.005508493045042808,0.18487870252217414,9.8071610117609,0.0,0.0,0.0,0.0,0.0,0.0,0.0,0.0,0.0
2025/04/05 15:11:56.480681041,1743858716,442862988,mA1/imu,0.7451419762745152,0.6669052020262194,0.00022828837510845807,0.000913558151051277,0.0,0.0,0.0,0.0,0.0,0.0,0.0,0.0,0.0,-0.00039705248689221026,0.003157935310441717,0.020176542969282677,0.0,0.0,0.0,0.0,0.0,0.0,0.0,0.0,0.0,0.004162163482151334,0.0348992037715523,9.805984590106382,0.0,0.0,0.0,0.0,0.0,0.0,0.0,0.0,0.0
2025/04/05 15:11:56.506347156,1743858716,493349527,mA1/imu,0.7454757194997609,0.6665321705852753,0.00028843635604944144,0.0008567471410774409,0.0,0.0,0.0,0.0,0.0,0.0,0.0,0.0,0.0,-0.0004974550422644222,0.0033531347564626766,0.01993872842606299,0.0,0.0,0.0,0.0,0.0,0.0,0.0,0.0,0.0,0.0011485027389693302,0.4156425246229636,9.80738393078733,0.0,0.0,0.0,0.0,0.0,0.0,0.0,0.0,0.0
2025/04/05 15:11:56.554587842,1743858716,545719974,mA1/imu,0.7458047112549314,0.6661640794175517,0.00034435575985941656,0.0007958535195975672,0.0,0.0,0.0,0.0,0.0,0.0,0.0,0.0,0.0,0.00030752911673630467,0.003200719792162586,0.019625224002095546,0.0,0.0,0.0,0.0,0.0,0.0,0.0,0.0,0.0,0.005566877473626171,0.03816397408742902,9.806783023110384,0.0,0.0,0.0,0.0,0.0,0.0,0.0,0.0,0.0
2025/04/05 15:11:56.625193607,1743858716,598307519,mA1/imu,0.7461280253350333,0.6658019832033087,0.00038926687035792444,0.0007331053735753397,0.0,0.0,0.0,0.0,0.0,0.0,0.0,0.0,0.0,0.0016576426082690427,0.0028234629343796076,0.01927566514929984,0.0,0.0,0.0,0.0,0.0,0.0,0.0,0.0,0.0,0.007658271326450346,-0.5174483463507898,9.80635145475086,0.0,0.0,0.0,0.0,0.0,0.0,0.0,0.0,0.0
2025/04/05 15:11:56.716846853,1743858716,658304695,mA1/imu,0.7464458173770184,0.665445717449966,0.0004254947325012384,0.0006766107356644428,0.0,0.0,0.0,0.0,0.0,0.0,0.0,0.0,0.0,0.0005304402722260747,0.002373368694945322,0.01898180797652273,0.0,0.0,0.0,0.0,0.0,0.0,0.0,0.0,0.0,0.0064951066328351025,0.25157122501903123,9.809190745655595,0.0,0.0,0.0,0.0,0.0,0.0,0.0,0.0,0.0
2025/04/05 15:11:56.759829954,1743858716,693912759,mA1/imu,0.7467592188903672,0.6650940391436005,0.0004473970328039085,0.0006228433145046092,0.0,0.0,0.0,0.0,0.0,0.0,0.0,0.0,0.0,0.0009436704690776445,0.001862331397346753,0.018763995939970652,0.0,0.0,0.0,0.0,0.0,0.0,0.0,0.0,0.0,0.0026273029656381777,-0.33982725250570295,9.80954538139412,0.0,0.0,0.0,0.0,0.0,0.0,0.0,0.0,0.0
2025/04/05 15:11:56.820410211,1743858716,751644432,mA1/imu,0.7470683725765082,0.6647468055104574,0.00045143939514514055,0.0005722429574022425,0.0,0.0,0.0,0.0,0.0,0.0,0.0,0.0,0.0,0.0017545216102555728,0.0011646755377681896,0.01848851545203157,0.0,0.0,0.0,0.0,0.0,0.0,0.0,0.0,0.0,0.0066363702992572144,-0.5624364720336688,9.810126903754615,0.0,0.0,0.0,0.0,0.0,0.0,0.0,0.0,0.0
2025/04/05 15:11:56.859379002,1743858716,791804245,mA1/imu,0.7473729353034468,0.6644044042140566,0.00044342791106647696,0.0005353583490932716,0.0,0.0,0.0,0.0,0.0,0.0,0.0,0.0,0.0,0.0020442693333102262,0.0004147620969096241,0.018227769917808216,0.0,0.0,0.0,0.0,0.0,0.0,0.0,0.0,0.0,0.0063334886098290535,-0.550297530395978,9.810678619785934,0.0,0.0,0.0,0.0,0.0,0.0,0.0,0.0,0.0
2025/04/05 15:11:56.914598747,1743858716,851622657,mA1/imu,0.7476731317019397,0.6640666032118736,0.00041968820456232,0.0005084205628933963,0.0,0.0,0.0,0.0,0.0,0.0,0.0,0.0,0.0,-0.0006773557701092741,-0.0002978362742240972,0.017975584601201012,0.0,0.0,0.0,0.0,0.0,0.0,0.0,0.0,0.0,0.006828680338050316,0.234323557645769,9.813298585180057,0.0,0.0,0.0,0.0,0.0,0.0,0.0,0.0,0.0
2025/04/05 15:11:56.963809958,1743858716,893028501,mA1/imu,0.7479690865578102,0.6637332857948207,0.00037207514563757793,0.0004821223617185112,0.0,0.0,0.0,0.0,0.0,0.0,0.0,0.0,0.0,0.0004782307305822599,-0.0009790715213020505,0.01773201723366796,0.0,0.0,0.0,0.0,0.0,0.0,0.0,0.0,0.0,0.004447346542151413,0.6009899614498116,9.811966283398474,0.0,0.0,0.0,0.0,0.0,0.0,0.0,0.0,0.0
2025/04/05 15:11:56.996572125,1743858716,949824687,mA1/imu,0.7482609367575416,0.6634042836667532,0.00031920381650940637,0.00047438829246739515,0.0,0.0,0.0,0.0,0.0,0.0,0.0,0.0,0.0,0.0018800561432269292,-0.0016176701614982884,0.01749734785503458,0.0,0.0,0.0,0.0,0.0,0.0,0.0,0.0,0.0,0.003934275090839893,0.7004068519412975,9.814095281034213,0.0,0.0,0.0,0.0,0.0,0.0,0.0,0.0,0.0
2025/04/05 15:11:57.41016581,1743858716,992586075,mA1/imu,0.7485488152525233,0.6630794574315778,0.00026369591404297465,0.00048454179712910194,0.0,0.0,0.0,0.0,0.0,0.0,0.0,0.0,0.0,0.0035644084916597886,-0.002158297353068823,0.017270109240074022,0.0,0.0,0.0,0.0,0.0,0.0,0.0,0.0,0.0,0.004094837801430776,-0.43442822150626303,9.812933852352842,0.0,0.0,0.0,0.0,0.0,0.0,0.0,0.0,0.0
2025/04/05 15:11:57.174568660,1743858717,49016496,mA1/imu,0.7488328678624679,0.6627586605248296,0.00020156068804885808,0.0005032707962964672,0.0,0.0,0.0,0.0,0.0,0.0,0.0,0.0,0.0,0.0016883267818052633,-0.0025153942699230564,0.017051464637391316,0.0,0.0,0.0,0.0,0.0,0.0,0.0,0.0,0.0,0.0029992940022150537,-0.13457980565172162,9.81324559488657,0.0,0.0,0.0,0.0,0.0,0.0,0.0,0.0,0.0
2025/04/05 15:11:57.246570668,1743858717,91610072,mA1/imu,0.7491132588672993,0.6624417172031195,0.00013473101778717196,0.0005277743359218688,0.0,0.0,0.0,0.0,0.0,0.0,0.0,0.0,0.0,0.0005323884118064354,-0.0027360893820626,0.0168425930887169,0.0,0.0,0.0,0.0,0.0,0.0,0.0,0.0,0.0,0.003514973994248589,0.6437582327303666,9.814617479868293,0.0,0.0,0.0,0.0,0.0,0.0,0.0,0.0,0.0
2025/04/05 15:11:57.319766977,1743858717,149173124,mA1/imu,0.7493901169247149,0.66212849045447,6.77893643466319e-05,0.0005569458222620992,0.0,0.0,0.0,0.0,0.0,0.0,0.0,0.0,0.0,6.171567297037024e-05,-0.0027839209441039786,0.01663993951341955,0.0,0.0,0.0,0.0,0.0,0.0,0.0,0.0,0.0,0.0017477940044737898,0.631514688576862,9.813926713164005,0.0,0.0,0.0,0.0,0.0,0.0,0.0,0.0,0.0
2025/04/05 15:11:57.350719331,1743858717,199051138,mA1/imu,0.7496635546635091,0.661818860208449,7.304557264109447e-06,0.0005924764171953891,0.0,0.0,0.0,0.0,0.0,0.0,0.0,0.0,0.0,0.0030118554949684767,-0.002722857479572887,0.01644284388218034,0.0,0.0,0.0,0.0,0.0,0.0,0.0,0.0,0.0,0.0010676170238253903,-0.4019034644401763,9.811581252148686,0.0,0.0,0.0,0.0,0.0,0.0,0.0,0.0,0.0
2025/04/05 15:11:57.382871692,1743858717,242931085,mA1/imu,0.7499336227012162,0.6615127717920273,-3.243211531147195e-05,0.000642842451172361,0.0,0.0,0.0,0.0,0.0,0.0,0.0,0.0,0.0,0.00025348435294161344,-0.0024348710023730925,0.01625205230994015,0.0,0.0,0.0,0.0,0.0,0.0,0.0,0.0,0.0,0.0010093344948756949,-0.5722250225183723,9.813142932812093,0.0,0.0,0.0,0.0,0.0,0.0,0.0,0.0,0.0
2025/04/05 15:11:57.413163865,1743858717,293803384,mA1/imu,0.7502004537629359,0.6612101102287743,-7.207789216486248e-05,0.0006812561298870944,0.0,0.0,0.0,0.0,0.0,0.0,0.0,0.0,0.0,-0.0005722707247422549,-0.0020418887437156363,0.016062527986691194,0.0,0.0,0.0,0.0,0.0,0.0,0.0,0.0,0.0,0.000597868308294414,0.024496318031676973,9.809080275349244,0.0,0.0,0.0,0.0,0.0,0.0,0.0,0.0,0.0
2025/04/05 15:11:57.466604424,1743858717,349646193,mA1/imu,0.7504641075780552,0.6609108039369429,-9.227181928705096e-05,0.000723852476884383,0.0,0.0,0.0,0.0,0.0,0.0,0.0,0.0,0.0,-0.0009870516366116847,-0.0015400433214625916,0.01588200604317696,0.0,0.0,0.0,0.0,0.0,0.0,0.0,0.0,0.0,0.0008470146605714171,-0.6157905838630487,9.809726795533349,0.0,0.0,0.0,0.0,0.0,0.0,0.0,0.0,0.0
2025/04/05 15:11:57.558652645,1743858717,399568844,mA1/imu,0.7507246653919435,0.6606147832727595,-0.00010183421761577547,0.0007579732395218601,0.0,0.0,0.0,0.0,0.0,0.0,0.0,0.0,0.0,-0.0021870848913797918,-0.0009455440406196055,0.015702322657446345,0.0,0.0,0.0,0.0,0.0,0.0,0.0,0.0,0.0,-0.00012795924717997655,-0.046396309982954985,9.80827635038385,0.0,0.0,0.0,0.0,0.0,0.0,0.0,0.0,0.0
2025/04/05 15:11:57.681212799,1743858717,442659079,mA1/imu,0.7509822035236269,0.6603219703088635,-9.697862963973104e-05,0.0007849288908107312,0.0,0.0,0.0,0.0,0.0,0.0,0.0,0.0,0.0,-0.0020038434824717183,-0.00030885647477583365,0.015529516889591321,0.0,0.0,0.0,0.0,0.0,0.0,0.0,0.0,0.0,0.0005204990807906786,-0.02276510892872164,9.807889577254407,0.0,0.0,0.0,0.0,0.0,0.0,0.0,0.0,0.0
2025/04/05 15:11:57.742020519,1743858717,495655382,mA1/imu,0.7512367740768683,0.6600323068516848,-7.085859451187233e-05,0.0008112741111312115,0.0,0.0,0.0,0.0,0.0,0.0,0.0,0.0,0.0,-0.0024990931542328504,0.00034482335215843833,0.015360184268684128,0.0,0.0,0.0,0.0,0.0,0.0,0.0,0.0,0.0,-5.318295147871237e-05,-0.04273631332813911,9.808195062037411,0.0,0.0,0.0,0.0,0.0,0.0,0.0,0.0,0.0
2025/04/05 15:11:57.785055636,1743858717,547484747,mA1/imu,0.7514884947760413,0.6597456881226642,-4.1895423618523036e-05,0.0008169868822275898,0.0,0.0,0.0,0.0,0.0,0.0,0.0,0.0,0.0,-0.0021487956936598503,0.0009654526790772078,0.015191825267497064,0.0,0.0,0.0,0.0,0.0,0.0,0.0,0.0,0.0,0.0010562293549872398,0.10980367295237192,9.80565631903215,0.0,0.0,0.0,0.0,0.0,0.0,0.0,0.0,0.0
2025/04/05 15:11:58.687519117,1743858717,991799841,mA1/imu,0.7536340882280503,0.6572936706372223,0.0004533535853535885,0.0006971882447530551,0.0,0.0,0.0,0.0,0.0,0.0,0.0,0.0,0.0,0.0006897238643317964,0.0012776501489287244,0.013849533347907558,0.0,0.0,0.0,0.0,0.0,0.0,0.0,0.0,0.0,0.004732322148629023,0.07528605962726573,9.811565846790824,0.0,0.0,0.0,0.0,0.0,0.0,0.0,0.0,0.0
2025/04/05 15:11:58.708528729,1743858718,44167927,mA1/imu,0.7538603384813394,0.6570341778657565,0.0004691792608729848,0.0006775336828094418,0.0,0.0,0.0,0.0,0.0,0.0,0.0,0.0,0.0,4.172490259833896e-05,0.0007660922649120141,0.013722923545335079,0.0,0.0,0.0,0.0,0.0,0.0,0.0,0.0,0.0,0.004654425287052856,0.00860251748075614,9.81488045171409,0.0,0.0,0.0,0.0,0.0,0.0,0.0,0.0,0.0
2025/04/05 15:11:58.708633757,1743858718,96539496,mA1/imu,0.7540844705360306,0.6567769397373788,0.0004716521374773322,0.0006635283407901887,0.0,0.0,0.0,0.0,0.0,0.0,0.0,0.0,0.0,-0.00034026893772669254,0.0002123477497437685,0.013598141747546309,0.0,0.0,0.0,0.0,0.0,0.0,0.0,0.0,0.0,0.004071893557076392,-0.03474211820153032,9.812858065186903,0.0,0.0,0.0,0.0,0.0,0.0,0.0,0.0,0.0
2025/04/05 15:11:58.708678794,1743858718,151622548,mA1/imu,0.7543065236523218,0.6565219274048325,0.00045443618532420716,0.0006486138657017137,0.0,0.0,0.0,0.0,0.0,0.0,0.0,0.0,0.0,0.00040291194191270614,-0.00035910854624834876,0.01347658671010902,0.0,0.0,0.0,0.0,0.0,0.0,0.0,0.0,0.0,0.004385802789054051,-0.005795979879453371,9.812964886085265,0.0,0.0,0.0,0.0,0.0,0.0,0.0,0.0,0.0
2025/04/05 15:11:58.708712491,1743858718,192895410,mA1/imu,0.7545265705720813,0.6562690500025345,0.0004242490881421836,0.0006390009515999969,0.0,0.0,0.0,0.0,0.0,0.0,0.0,0.0,0.0,0.001200645864129217,-0.0008676104272991605,0.013361275778259508,0.0,0.0,0.0,0.0,0.0,0.0,0.0,0.0,0.0,0.0033050806876712777,-0.4224608744681206,9.812597424221375,0.0,0.0,0.0,0.0,0.0,0.0,0.0,0.0,0.0
2025/04/05 15:11:58.708745673,1743858718,247743478,mA1/imu,0.754744701990166,0.6560182113727605,0.00037925414702162755,0.0006303422496577786,0.0,0.0,0.0,0.0,0.0,0.0,0.0,0.0,0.0,0.0006269576721243533,-0.0013152077795865037,0.013252369375019252,0.0,0.0,0.0,0.0,0.0,0.0,0.0,0.0,0.0,0.0037184228881899017,-0.022815975962257894,9.814034560480046,0.0,0.0,0.0,0.0,0.0,0.0,0.0,0.0,0.0
2025/04/05 15:11:58.708778864,1743858718,296590880,mA1/imu,0.7549609506178143,0.65576936981763,0.00032418000767257143,0.0006257463999776619,0.0,0.0,0.0,0.0,0.0,0.0,0.0,0.0,0.0,0.0014599388110162598,-0.0016888530289729906,0.013143473885956743,0.0,0.0,0.0,0.0,0.0,0.0,0.0,0.0,0.0,0.0028969240211425724,0.026973488932715617,9.814787458625688,0.0,0.0,0.0,0.0,0.0,0.0,0.0,0.0,0.0
2025/04/05 15:11:58.708812036,1743858718,341461186,mA1/imu,0.7551753719352985,0.6555224582928906,0.00026471992496511097,0.0006278689276208892,0.0,0.0,0.0,0.0,0.0,0.0,0.0,0.0,0.0,0.0008618548980290649,-0.0019516422230447731,0.013038629964853428,0.0,0.0,0.0,0.0,0.0,0.0,0.0,0.0,0.0,0.002349603722679944,0.6093085718999005,9.814995116679471,0.0,0.0,0.0,0.0,0.0,0.0,0.0,0.0,0.0
2025/04/05 15:11:58.738296605,1743858718,391801235,mA1/imu,0.7553880469667696,0.6552773979553326,0.00019565372735880793,0.0006260576946984625,0.0,0.0,0.0,0.0,0.0,0.0,0.0,0.0,0.0,0.002284544210750344,-0.0020856932198884824,0.012935606477275215,0.0,0.0,0.0,0.0,0.0,0.0,0.0,0.0,0.0,0.0014546822232283877,0.0794450498306806,9.810586190636782,0.0,0.0,0.0,0.0,0.0,0.0,0.0,0.0,0.0
2025/04/05 15:11:58.738394605,1743858718,453536848,mA1/imu,0.7555990195897279,0.6550341202912725,0.00013502105328721457,0.0006360963729738892,0.0,0.0,0.0,0.0,0.0,0.0,0.0,0.0,0.0,0.0017967488670839493,-0.0021060255549174706,0.012839424185876363,0.0,0.0,0.0,0.0,0.0,0.0,0.0,0.0,0.0,0.0011374470249183736,0.04939189207506093,9.811104298501986,0.0,0.0,0.0,0.0,0.0,0.0,0.0,0.0,0.0
2025/04/05 15:11:58.738452430,1743858718,495712571,mA1/imu,0.7558083251333891,0.6547926047370527,7.449215240672424e-05,0.0006441208320221923,0.0,0.0,0.0,0.0,0.0,0.0,0.0,0.0,0.0,0.00043083170681765097,-0.0019864890876394787,0.012743590711561226,0.0,0.0,0.0,0.0,0.0,0.0,0.0,0.0,0.0,0.0011425884529224052,0.5023706076145555,9.811212837669368,0.0,0.0,0.0,0.0,0.0,0.0,0.0,0.0,0.0
2025/04/05 15:11:58.738492231,1743858718,548826992,mA1/imu,0.7560160201795684,0.6545527911838921,1.6294356750357205e-05,0.0006484749160850583,0.0,0.0,0.0,0.0,0.0,0.0,0.0,0.0,0.0,0.0013832987330827822,-0.0017893446214307938,0.012651981166932674,0.0,0.0,0.0,0.0,0.0,0.0,0.0,0.0,0.0,0.0005954866582572795,-0.34703169131270983,9.808940612086978,0.0,0.0,0.0,0.0,0.0,0.0,0.0,0.0,0.0
2025/04/05 15:11:58.738530552,1743858718,599037401,mA1/imu,0.756222165671178,0.6543146085760699,-3.177923829516345e-05,0.0006543253149170847,0.0,0.0,0.0,0.0,0.0,0.0,0.0,0.0,0.0,0.001441090045321307,-0.0014840545316502148,0.012563525948089321,0.0,0.0,0.0,0.0,0.0,0.0,0.0,0.0,0.0,0.00032269930101888784,-0.2845745910894279,9.807497730585672,0.0,0.0,0.0,0.0,0.0,0.0,0.0,0.0,0.0
2025/04/05 15:11:58.838021354,1743858718,644891444,mA1/imu,0.7564268129864061,0.6540780025288463,-6.584919811187254e-05,0.0006624703662519605,0.0,0.0,0.0,0.0,0.0,0.0,0.0,0.0,0.0,-7.402721860925624e-05,-0.001085933214461477,0.012477745860849675,0.0,0.0,0.0,0.0,0.0,0.0,0.0,0.0,0.0,8.611280668362371e-05,0.6110785669068837,9.808719521518253,0.0,0.0,0.0,0.0,0.0,0.0,0.0,0.0,0.0
2025/04/05 15:11:59.10913669,1743858718,699817379,mA1/imu,0.756629982526984,0.6538429591837879,-8.729905555358126e-05,0.0006683157027005376,0.0,0.0,0.0,0.0,0.0,0.0,0.0,0.0,0.0,-0.0006763256284960139,-0.0006117915976932321,0.012393501596249294,0.0,0.0,0.0,0.0,0.0,0.0,0.0,0.0,0.0,-0.00036234676145181256,0.08866133284353095,9.807630496524398,0.0,0.0,0.0,0.0,0.0,0.0,0.0,0.0,0.0
2025/04/05 15:11:59.60131477,1743858718,754106462,mA1/imu,0.7568317066497595,0.6536094455355158,-9.525474764154922e-05,0.0006718950074292431,0.0,0.0,0.0,0.0,0.0,0.0,0.0,0.0,0.0,-0.0005648390897444559,-0.00014343319696453113,0.012309812621919665,0.0,0.0,0.0,0.0,0.0,0.0,0.0,0.0,0.0,0.00025262390856960887,0.30199033977112444,9.806478795369872,0.0,0.0,0.0,0.0,0.0,0.0,0.0,0.0,0.0
2025/04/05 15:12:00.164689459,1743858718,843241847,mA1/imu,0.7572031567047638,0.6531790391891225,-4.406567902125538e-05,0.000721317219790916,0.0,0.0,0.0,0.0,0.0,0.0,0.0,0.0,0.0,-0.0021633517240361505,8.917945394345528e-05,0.010562330559876236,0.0,0.0,0.0,0.0,0.0,0.0,0.0,0.0,0.0,0.019406853707426258,-0.17338154573039238,9.806332930696941,0.0,0.0,0.0,0.0,0.0,0.0,0.0,0.0,0.0
2025/04/05 15:12:00.187806708,1743858719,2174558,mA1/imu,0.7576554149464436,0.6526540530111141,0.00012387807297385353,0.0009715681763579975,0.0,0.0,0.0,0.0,0.0,0.0,0.0,0.0,0.0,-0.00452373594157773,-0.0011594371558566955,0.008265695293211717,0.0,0.0,0.0,0.0,0.0,0.0,0.0,0.0,0.0,0.032767276107148836,-0.030060149699841374,9.80669850573467,0.0,0.0,0.0,0.0,0.0,0.0,0.0,0.0,0.0
2025/04/05 15:12:00.188269527,1743858719,49428422,mA1/imu,0.757784816355442,0.652503579454085,0.00018669242290674063,0.0011027450724350404,0.0,0.0,0.0,0.0,0.0,0.0,0.0,0.0,0.0,-0.006125365529445841,-0.0017836092990616656,0.007736679637819977,0.0,0.0,0.0,0.0,0.0,0.0,0.0,0.0,0.0,0.03734992115000165,0.5013516925016528,9.80747700758685,0.0,0.0,0.0,0.0,0.0,0.0,0.0,0.0,0.0
2025/04/05 15:12:00.188330271,1743858719,90935372,mA1/imu,0.7579071369506281,0.6523612113632898,0.00024075406661316624,0.00125048206806333,0.0,0.0,0.0,0.0,0.0,0.0,0.0,0.0,0.0,-0.007727564802815086,-0.0025148042061531152,0.0073665534343671825,0.0,0.0,0.0,0.0,0.0,0.0,0.0,0.0,0.0,0.043748264940320455,0.42049802204989617,9.807814187622267,0.0,0.0,0.0,0.0,0.0,0.0,0.0,0.0,0.0
2025/04/05 15:12:00.287301482,1743858719,145401746,mA1/imu,0.7580240388920454,0.6522250477533825,0.0002729447207747886,0.0014032270194271374,0.0,0.0,0.0,0.0,0.0,0.0,0.0,0.0,0.0,-0.006312654707141823,-0.003311581801838373,0.007060103840524517,0.0,0.0,0.0,0.0,0.0,0.0,0.0,0.0,0.0,0.04748574141342566,0.007893996950894381,9.811062247723315,0.0,0.0,0.0,0.0,0.0,0.0,0.0,0.0,0.0
2025/04/05 15:12:00.570977994,1743858719,291021179,mA1/imu,0.7583515281142466,0.6518430308328296,0.00025861016793483156,0.0018857577359596255,0.0,0.0,0.0,0.0,0.0,0.0,0.0,0.0,0.0,-0.0034693462836130843,-0.005105502578455971,0.006523796804191307,0.0,0.0,0.0,0.0,0.0,0.0,0.0,0.0,0.0,0.057546582214339885,-0.04400657662872747,9.812570113158205,0.0,0.0,0.0,0.0,0.0,0.0,0.0,0.0,0.0
2025/04/05 15:12:00.726971267,1743858719,394177733,mA1/imu,0.7585641762141858,0.6515947335824636,0.00014202090453386738,0.0021618423057001334,0.0,0.0,0.0,0.0,0.0,0.0,0.0,0.0,0.0,-0.0008798039347072176,-0.005394498387810278,0.006541338953703392,0.0,0.0,0.0,0.0,0.0,0.0,0.0,0.0,0.0,0.05124412013016336,-0.023459267641176465,9.816084202316983,0.0,0.0,0.0,0.0,0.0,0.0,0.0,0.0,0.0
2025/04/05 15:12:00.727065130,1743858719,443888930,mA1/imu,0.7586717184352533,0.6514691637913386,6.582312293689028e-05,0.0022689078497043626,0.0,0.0,0.0,0.0,0.0,0.0,0.0,0.0,0.0,-5.654187320553758e-05,-0.004900207830908012,0.006666093771531603,0.0,0.0,0.0,0.0,0.0,0.0,0.0,0.0,0.0,0.049776176828472324,-0.03443069033524912,9.814070198619255,0.0,0.0,0.0,0.0,0.0,0.0,0.0,0.0,0.0
2025/04/05 15:12:00.745947648,1743858719,490232654,mA1/imu,0.7587816386167103,0.6513408802763077,-1.9642626841703164e-05,0.0023414083778812767,0.0,0.0,0.0,0.0,0.0,0.0,0.0,0.0,0.0,0.0011953398265207684,-0.004261693644661801,0.006782314070401006,0.0,0.0,0.0,0.0,0.0,0.0,0.0,0.0,0.0,0.05839502256308196,-0.5753400600149795,9.81194327076178,0.0,0.0,0.0,0.0,0.0,0.0,0.0,0.0,0.0
2025/04/05 15:12:00.746004255,1743858719,549251291,mA1/imu,0.7588924434351358,0.6512116360606411,-0.0001137032961436421,0.0023772731927158616,0.0,0.0,0.0,0.0,0.0,0.0,0.0,0.0,0.0,0.0015799406968153291,-0.0034882883428022254,0.006806130304264713,0.0,0.0,0.0,0.0,0.0,0.0,0.0,0.0,0.0,0.05768923859557412,-0.29513407326862384,9.812330258955209,0.0,0.0,0.0,0.0,0.0,0.0,0.0,0.0,0.0
2025/04/05 15:12:00.746040267,1743858719,595113511,mA1/imu,0.7590042006711668,0.6510813673401009,-0.0002138638693446578,0.002372915572278294,0.0,0.0,0.0,0.0,0.0,0.0,0.0,0.0,0.0,0.001755162920049788,-0.0025389214258679372,0.006887026752193352,0.0,0.0,0.0,0.0,0.0,0.0,0.0,0.0,0.0,0.05719844511574406,0.4747903933877951,9.813745053654578,0.0,0.0,0.0,0.0,0.0,0.0,0.0,0.0,0.0
2025/04/05 15:12:00.746074815,1743858719,647040532,mA1/imu,0.7591168736148554,0.6509500998714253,-0.00031193790670095106,0.002332887766610197,0.0,0.0,0.0,0.0,0.0,0.0,0.0,0.0,0.0,0.003990110874771289,-0.0015125982459009088,0.006924225958586527,0.0,0.0,0.0,0.0,0.0,0.0,0.0,0.0,0.0,0.056904226233334,-0.06915439065599868,9.811420787023962,0.0,0.0,0.0,0.0,0.0,0.0,0.0,0.0,0.0
2025/04/05 15:12:00.746108838,1743858719,699041164,mA1/imu,0.7592300570146667,0.6508182966411193,-0.00040400611464774436,0.002258774383884707,0.0,0.0,0.0,0.0,0.0,0.0,0.0,0.0,0.0,0.004397308327609947,-0.0004479565755968503,0.006857331935698186,0.0,0.0,0.0,0.0,0.0,0.0,0.0,0.0,0.0,0.06274283632505673,0.5265848126744301,9.811405810245699,0.0,0.0,0.0,0.0,0.0,0.0,0.0,0.0,0.0
2025/04/05 15:12:00.875950545,1743858719,745137220,mA1/imu,0.7593414030185102,0.6506886695409421,-0.00048487421027863635,0.0021572876301735313,0.0,0.0,0.0,0.0,0.0,0.0,0.0,0.0,0.0,0.005303055475846625,0.0006302259319419396,0.006826516800055835,0.0,0.0,0.0,0.0,0.0,0.0,0.0,0.0,0.0,0.056364609223251615,0.11431863446421371,9.809482568493982,0.0,0.0,0.0,0.0,0.0,0.0,0.0,0.0,0.0
2025/04/05 15:12:01.24553162,1743858719,851039522,mA1/imu,0.7595676844497556,0.6504252978414092,-0.0006064622800749298,0.0018699922602223944,0.0,0.0,0.0,0.0,0.0,0.0,0.0,0.0,0.0,0.005613952843197926,0.0028779164348656733,0.0070559963062539685,0.0,0.0,0.0,0.0,0.0,0.0,0.0,0.0,0.0,0.05500147649740521,0.19444622084247382,9.807897750907605,0.0,0.0,0.0,0.0,0.0,0.0,0.0,0.0,0.0
2025/04/05 15:12:01.24651802,1743858719,891024424,mA1/imu,0.7596828145750122,0.6502912562645173,-0.0006367226209479352,0.0017023071424900568,0.0,0.0,0.0,0.0,0.0,0.0,0.0,0.0,0.0,0.0048357282517480366,0.003820752368423836,0.007027038667838036,0.0,0.0,0.0,0.0,0.0,0.0,0.0,0.0,0.0,0.052120822009091045,0.49323691666531216,9.805760512382154,0.0,0.0,0.0,0.0,0.0,0.0,0.0,0.0,0.0
2025/04/05 15:12:01.24694223,1743858719,947892019,mA1/imu,0.7597981954861595,0.6501568721617952,-0.0006504200002667225,0.0015233747372886321,0.0,0.0,0.0,0.0,0.0,0.0,0.0,0.0,0.0,0.006020615721772821,0.004469815644490016,0.007106254971015229,0.0,0.0,0.0,0.0,0.0,0.0,0.0,0.0,0.0,0.05607318670991769,-0.6504030289281316,9.806098686308442,0.0,0.0,0.0,0.0,0.0,0.0,0.0,0.0,0.0
2025/04/05 15:12:01.24735362,1743858719,998676746,mA1/imu,0.7599151186625879,0.650020594184779,-0.0006425936777612231,0.001351531374891428,0.0,0.0,0.0,0.0,0.0,0.0,0.0,0.0,0.0,0.0038888605000397818,0.0048290976206898754,0.007215879482166384,0.0,0.0,0.0,0.0,0.0,0.0,0.0,0.0,0.0,0.05892729325293686,0.34514947870068496,9.806470697762775,0.0,0.0,0.0,0.0,0.0,0.0,0.0,0.0,0.0
2025/04/05 15:12:01.24777736,1743858720,49980909,mA1/imu,0.7600334782304198,0.6498825399661484,-0.0006235813331882682,0.001186323075050912,0.0,0.0,0.0,0.0,0.0,0.0,0.0,0.0,0.0,0.00418884219913716,0.004862944246984658,0.0072979361608338615,0.0,0.0,0.0,0.0,0.0,0.0,0.0,0.0,0.0,0.061036265740102534,-0.3216742473287946,9.804948797096902,0.0,0.0,0.0,0.0,0.0,0.0,0.0,0.0,0.0
