time,header_stamp_secs,header_stamp_nsecs,header_frame_id,child_frame_id,pose_pose_position_x,pose_pose_position_y,pose_pose_position_z,pose_pose_orientation_x,pose_pose_orientation_y,pose_pose_orientation_z,pose_pose_orientation_w,pose_covariance_0,pose_covariance_1,pose_covariance_2,pose_covariance_3,pose_covariance_4,pose_covariance_5,pose_covariance_6,pose_covariance_7,pose_covariance_8,pose_covariance_9,pose_covariance_10,pose_covariance_11,pose_covariance_12,pose_covariance_13,pose_covariance_14,pose_covariance_15,pose_covariance_16,pose_covariance_17,pose_covariance_18,pose_covariance_19,pose_covariance_20,pose_covariance_21,pose_covariance_22,pose_covariance_23,pose_covariance_24,pose_covariance_25,pose_covariance_26,pose_covariance_27,pose_covariance_28,pose_covariance_29,pose_covariance_30,pose_covariance_31,pose_covariance_32,pose_covariance_33,pose_covariance_34,pose_covariance_35,twist_twist_linear_x,twist_twist_linear_y,twist_twist_linear_z,twist_twist_angular_x,twist_twist_angular_y,twist_twist_angular_z,twist_covariance_0,twist_covariance_1,twist_covariance_2,twist_covariance_3,twist_covariance_4,twist_covariance_5,twist_covariance_6,twist_covariance_7,twist_covariance_8,twist_covariance_9,twist_covariance_10,twist_covariance_11,twist_covariance_12,twist_covariance_13,twist_covariance_14,twist_covariance_15,twist_covariance_16,twist_covariance_17,twist_covariance_18,twist_covariance_19,twist_covariance_20,twist_covariance_21,twist_covariance_22,twist_covariance_23,twist_covariance_24,twist_covariance_25,twist_covariance_26,twist_covariance_27,twist_covariance_28,twist_covariance_29,twist_covariance_30,twist_covariance_31,twist_covariance_32,twist_covariance_33,twist_covariance_34,twist_covariance_35
2025/04/05 15:11:51.744952577,1743858711,706476700,world_ned,mA1/odom,181.79417063751535,11.516082593710832,0.43353529365232185,0.00036146997302863727,7.894858761669645e-05,0.03255275614198679,0.9994699501106271,0.0,0.0,0.0,0.0,0.0,0.0,0.0,0.0,0.0,0.0,0.0,0.0,0.0,0.0,0.0,0.0,0.0,0.0,0.0,0.0,0.0,0.0,0.0,0.0,0.0,0.0,0.0,0.0,0.0,0.0,0.0,0.0,0.0,0.0,0.0,0.0,-0.0016888292903280827,-0.03639187948921854,0.0003186160453187471,-0.003591408145276677,0.00031656716855396003,-0.02564113793017776,0.0,0.0,0.0,0.0,0.0,0.0,0.0,0.0,0.0,0.0,0.0,0.0,0.0,0.0,0.0,0.0,0.0,0.0,0.0,0.0,0.0,0.0,0.0,0.0,0.0,0.0,0.0,0.0,0.0,0.0,0.0,0.0,0.0,0.0,0.0,0.0
2025/04/05 15:11:51.818495564,1743858711,807228510,world_ned,mA1/odom,181.79436466276613,11.512218672043712,0.4335840065188782,0.00017979890230122685,6.982816074306631e-05,0.03121088139027797,0.9995128031592315,0.0,0.0,0.0,0.0,0.0,0.0,0.0,0.0,0.0,0.0,0.0,0.0,0.0,0.0,0.0,0.0,0.0,0.0,0.0,0.0,0.0,0.0,0.0,0.0,0.0,0.0,0.0,0.0,0.0,0.0,0.0,0.0,0.0,0.0,0.0,0.0,0.0013166873090894897,-0.04061959072382879,0.0006529717978365304,-0.003571544775246978,-0.0006548154247414874,-0.027845141475277318,0.0,0.0,0.0,0.0,0.0,0.0,0.0,0.0,0.0,0.0,0.0,0.0,0.0,0.0,0.0,0.0,0.0,0.0,0.0,0.0,0.0,0.0,0.0,0.0,0.0,0.0,0.0,0.0,0.0,0.0,0.0,0.0,0.0,0.0,0.0,0.0
2025/04/05 15:11:51.909933824,1743858711,909362134,world_ned,mA1/odom,181.7945591668284,11.50789339839236,0.4336577201895161,2.408470396250189e-05,5.92257296804321e-05,0.029755157828902815,0.999557215218227,0.0,0.0,0.0,0.0,0.0,0.0,0.0,0.0,0.0,0.0,0.0,0.0,0.0,0.0,0.0,0.0,0.0,0.0,0.0,0.0,0.0,0.0,0.0,0.0,0.0,0.0,0.0,0.0,0.0,0.0,0.0,0.0,0.0,0.0,0.0,0.0,-0.0006538815384582688,-0.04550613217281895,0.0007665575588942358,-0.002651728152134081,-0.00011667782908647876,-0.03015462358053737,0.0,0.0,0.0,0.0,0.0,0.0,0.0,0.0,0.0,0.0,0.0,0.0,0.0,0.0,0.0,0.0,0.0,0.0,0.0,0.0,0.0,0.0,0.0,0.0,0.0,0.0,0.0,0.0,0.0,0.0,0.0,0.0,0.0,0.0,0.0,0.0
2025/04/05 15:11:52.4111576,1743858712,3451134,world_ned,mA1/odom,181.79478772231346,11.503121127921759,0.43373589854862915,-9.174296429808953e-05,4.489213136615665e-05,0.028195864622839753,0.9996024123550801,0.0,0.0,0.0,0.0,0.0,0.0,0.0,0.0,0.0,0.0,0.0,0.0,0.0,0.0,0.0,0.0,0.0,0.0,0.0,0.0,0.0,0.0,0.0,0.0,0.0,0.0,0.0,0.0,0.0,0.0,0.0,0.0,0.0,0.0,0.0,0.0,-0.00018749196590785982,-0.04960483618436575,0.0007438334476117884,-0.0020205089662479045,-0.00031748590196005146,-0.032021913820053115,0.0,0.0,0.0,0.0,0.0,0.0,0.0,0.0,0.0,0.0,0.0,0.0,0.0,0.0,0.0,0.0,0.0,0.0,0.0,0.0,0.0,0.0,0.0,0.0,0.0,0.0,0.0,0.0,0.0,0.0,0.0,0.0,0.0,0.0,0.0,0.0
2025/04/05 15:11:52.118161514,1743858712,112411047,world_ned,mA1/odom,181.79508374816882,11.497947051893338,0.43380048278181105,-0.00017123463409861794,2.199417325011654e-05,0.026546273125939185,0.999647570685829,0.0,0.0,0.0,0.0,0.0,0.0,0.0,0.0,0.0,0.0,0.0,0.0,0.0,0.0,0.0,0.0,0.0,0.0,0.0,0.0,0.0,0.0,0.0,0.0,0.0,0.0,0.0,0.0,0.0,0.0,0.0,0.0,0.0,0.0,0.0,0.0,0.0002875500618888757,-0.05362797129817686,0.0005147019904575694,-0.0012448398605477823,-0.0004414584319507621,-0.03379725893577625,0.0,0.0,0.0,0.0,0.0,0.0,0.0,0.0,0.0,0.0,0.0,0.0,0.0,0.0,0.0,0.0,0.0,0.0,0.0,0.0,0.0,0.0,0.0,0.0,0.0,0.0,0.0,0.0,0.0,0.0,0.0,0.0,0.0,0.0,0.0,0.0
2025/04/05 15:11:52.213627434,1743858712,211833837,world_ned,mA1/odom,181.79541954414685,11.49237853415109,0.43383491206437624,-0.0002111045101624495,-1.9522785457555025e-06,0.0248097979307337,0.9996921672983692,0.0,0.0,0.0,0.0,0.0,0.0,0.0,0.0,0.0,0.0,0.0,0.0,0.0,0.0,0.0,0.0,0.0,0.0,0.0,0.0,0.0,0.0,0.0,0.0,0.0,0.0,0.0,0.0,0.0,0.0,0.0,0.0,0.0,0.0,0.0,0.0,0.0006989185592420496,-0.057519868509501304,0.00015249767198463927,-0.00046489007158656765,-0.0004470648704814,-0.035503846308794114,0.0,0.0,0.0,0.0,0.0,0.0,0.0,0.0,0.0,0.0,0.0,0.0,0.0,0.0,0.0,0.0,0.0,0.0,0.0,0.0,0.0,0.0,0.0,0.0,0.0,0.0,0.0,0.0,0.0,0.0,0.0,0.0,0.0,0.0,0.0,0.0
2025/04/05 15:11:52.303091666,1743858712,302851409,world_ned,mA1/odom,181.79579992438715,11.48643446378175,0.4338304914261014,-0.0002160089543167887,-2.3119063901750875e-05,0.022989486223667834,0.9997356832327294,0.0,0.0,0.0,0.0,0.0,0.0,0.0,0.0,0.0,0.0,0.0,0.0,0.0,0.0,0.0,0.0,0.0,0.0,0.0,0.0,0.0,0.0,0.0,0.0,0.0,0.0,0.0,0.0,0.0,0.0,0.0,0.0,0.0,0.0,0.0,0.0,0.0012042613026028782,-0.061172606396645374,-0.00024843406795954426,0.00014412994704852953,-0.0003739746575736395,-0.03715349240890308,0.0,0.0,0.0,0.0,0.0,0.0,0.0,0.0,0.0,0.0,0.0,0.0,0.0,0.0,0.0,0.0,0.0,0.0,0.0,0.0,0.0,0.0,0.0,0.0,0.0,0.0,0.0,0.0,0.0,0.0,0.0,0.0,0.0,0.0,0.0,0.0
2025/04/05 15:11:52.408927065,1743858712,407954530,world_ned,mA1/odom,181.79622795360646,11.480144312355337,0.43378881794830126,-0.0001984927455099418,-3.829059288638905e-05,0.021088488204330465,0.9997775926673473,0.0,0.0,0.0,0.0,0.0,0.0,0.0,0.0,0.0,0.0,0.0,0.0,0.0,0.0,0.0,0.0,0.0,0.0,0.0,0.0,0.0,0.0,0.0,0.0,0.0,0.0,0.0,0.0,0.0,0.0,0.0,0.0,0.0,0.0,0.0,0.0,0.0017812000956219155,-0.06449041086325366,-0.0005833439401705887,0.0004516485987816201,-0.00023658620554813692,-0.038737094640714134,0.0,0.0,0.0,0.0,0.0,0.0,0.0,0.0,0.0,0.0,0.0,0.0,0.0,0.0,0.0,0.0,0.0,0.0,0.0,0.0,0.0,0.0,0.0,0.0,0.0,0.0,0.0,0.0,0.0,0.0,0.0,0.0,0.0,0.0,0.0,0.0
2025/04/05 15:11:52.504059621,1743858712,503543748,world_ned,mA1/odom,181.79670164635652,11.473543494952583,0.4337211455259319,-0.00017547034195785212,-4.482710531225376e-05,0.019109572935467906,0.9998173790362487,0.0,0.0,0.0,0.0,0.0,0.0,0.0,0.0,0.0,0.0,0.0,0.0,0.0,0.0,0.0,0.0,0.0,0.0,0.0,0.0,0.0,0.0,0.0,0.0,0.0,0.0,0.0,0.0,0.0,0.0,0.0,0.0,0.0,0.0,0.0,0.0,0.0020992539349830005,-0.06744344525877669,-0.0007680885725729631,0.0004062168026495943,2.728842780929248e-05,-0.04027274985494925,0.0,0.0,0.0,0.0,0.0,0.0,0.0,0.0,0.0,0.0,0.0,0.0,0.0,0.0,0.0,0.0,0.0,0.0,0.0,0.0,0.0,0.0,0.0,0.0,0.0,0.0,0.0,0.0,0.0,0.0,0.0,0.0,0.0,0.0,0.0,0.0
2025/04/05 15:11:52.605726333,1743858712,603330537,world_ned,mA1/odom,181.7972143200954,11.466663376421737,0.43364484826435123,-0.00016259414757291115,-4.062360213819946e-05,0.017055130114948424,0.9998545366450203,0.0,0.0,0.0,0.0,0.0,0.0,0.0,0.0,0.0,0.0,0.0,0.0,0.0,0.0,0.0,0.0,0.0,0.0,0.0,0.0,0.0,0.0,0.0,0.0,0.0,0.0,0.0,0.0,0.0,0.0,0.0,0.0,0.0,0.0,0.0,0.0,0.003035212175032,-0.0701083131039433,-0.0007676925309882211,8.464706939390052e-05,0.0001472719386459909,-0.04175763641729623,0.0,0.0,0.0,0.0,0.0,0.0,0.0,0.0,0.0,0.0,0.0,0.0,0.0,0.0,0.0,0.0,0.0,0.0,0.0,0.0,0.0,0.0,0.0,0.0,0.0,0.0,0.0,0.0,0.0,0.0,0.0,0.0,0.0,0.0,0.0,0.0
2025/04/05 15:11:52.711763686,1743858712,708632741,world_ned,mA1/odom,181.79778469504183,11.459534029497116,0.43358013460745776,-0.0001732134389778789,-2.9813133383466406e-05,0.01492779972531067,0.9998885587422444,0.0,0.0,0.0,0.0,0.0,0.0,0.0,0.0,0.0,0.0,0.0,0.0,0.0,0.0,0.0,0.0,0.0,0.0,0.0,0.0,0.0,0.0,0.0,0.0,0.0,0.0,0.0,0.0,0.0,0.0,0.0,0.0,0.0,0.0,0.0,0.0,0.0037513670140611926,-0.072495138332862,-0.0005621508498009464,-0.00047433477475879746,0.0002865669574174273,-0.04319398613246885,0.0,0.0,0.0,0.0,0.0,0.0,0.0,0.0,0.0,0.0,0.0,0.0,0.0,0.0,0.0,0.0,0.0,0.0,0.0,0.0,0.0,0.0,0.0,0.0,0.0,0.0,0.0,0.0,0.0,0.0,0.0,0.0,0.0,0.0,0.0,0.0
2025/04/05 15:11:52.812274333,1743858712,809373724,world_ned,mA1/odom,181.7984242999172,11.452205401848783,0.43354477707081984,-0.00022371059919396526,-1.3942634221901984e-05,0.01273080439938721,0.9999189349034827,0.0,0.0,0.0,0.0,0.0,0.0,0.0,0.0,0.0,0.0,0.0,0.0,0.0,0.0,0.0,0.0,0.0,0.0,0.0,0.0,0.0,0.0,0.0,0.0,0.0,0.0,0.0,0.0,0.0,0.0,0.0,0.0,0.0,0.0,0.0,0.0,0.004870196815862495,-0.07317927289494515,-0.00022268876326275104,-0.00207047848924762,0.00043411900502440045,-0.044277862158615545,0.0,0.0,0.0,0.0,0.0,0.0,0.0,0.0,0.0,0.0,0.0,0.0,0.0,0.0,0.0,0.0,0.0,0.0,0.0,0.0,0.0,0.0,0.0,0.0,0.0,0.0,0.0,0.0,0.0,0.0,0.0,0.0,0.0,0.0,0.0,0.0
2025/04/05 15:11:52.909832579,1743858712,908187705,world_ned,mA1/odom,181.7991121850181,11.445057505928311,0.4335474484684811,-0.0004245365999311407,1.0503968971445233e-05,0.010522998449982649,0.9999445415431616,0.0,0.0,0.0,0.0,0.0,0.0,0.0,0.0,0.0,0.0,0.0,0.0,0.0,0.0,0.0,0.0,0.0,0.0,0.0,0.0,0.0,0.0,0.0,0.0,0.0,0.0,0.0,0.0,0.0,0.0,0.0,0.0,0.0,0.0,0.0,0.0,0.0054776704794574655,-0.07045777013214259,0.00014615887732813217,-0.005415912805301901,0.0006522699668079225,-0.04406500442732108,0.0,0.0,0.0,0.0,0.0,0.0,0.0,0.0,0.0,0.0,0.0,0.0,0.0,0.0,0.0,0.0,0.0,0.0,0.0,0.0,0.0,0.0,0.0,0.0,0.0,0.0,0.0,0.0,0.0,0.0,0.0,0.0,0.0,0.0,0.0,0.0
2025/04/05 15:11:53.14694809,1743858713,5594381,world_ned,mA1/odom,181.7998945506472,11.438248877505924,0.43358761759944625,-0.0007906382650719152,3.9638360575145915e-05,0.008341098992317397,0.9999648990777299,0.0,0.0,0.0,0.0,0.0,0.0,0.0,0.0,0.0,0.0,0.0,0.0,0.0,0.0,0.0,0.0,0.0,0.0,0.0,0.0,0.0,0.0,0.0,0.0,0.0,0.0,0.0,0.0,0.0,0.0,0.0,0.0,0.0,0.0,0.0,0.0,0.006624936996879089,-0.06582435281647307,0.00043673555343678994,-0.009045167290385007,0.0009511218760984738,-0.04316743270320337,0.0,0.0,0.0,0.0,0.0,0.0,0.0,0.0,0.0,0.0,0.0,0.0,0.0,0.0,0.0,0.0,0.0,0.0,0.0,0.0,0.0,0.0,0.0,0.0,0.0,0.0,0.0,0.0,0.0,0.0,0.0,0.0,0.0,0.0,0.0,0.0
2025/04/05 15:11:53.109701529,1743858713,107957057,world_ned,mA1/odom,181.80082343635377,11.431864076992964,0.4336533685797492,-0.0012878967402149071,8.481345057546256e-05,0.00619134706185224,0.9999800004751219,0.0,0.0,0.0,0.0,0.0,0.0,0.0,0.0,0.0,0.0,0.0,0.0,0.0,0.0,0.0,0.0,0.0,0.0,0.0,0.0,0.0,0.0,0.0,0.0,0.0,0.0,0.0,0.0,0.0,0.0,0.0,0.0,0.0,0.0,0.0,0.0,0.00829866445603465,-0.06334721270197585,0.0005712679975130584,-0.009878867570048848,0.0016573457224326475,-0.043298376083442745,0.0,0.0,0.0,0.0,0.0,0.0,0.0,0.0,0.0,0.0,0.0,0.0,0.0,0.0,0.0,0.0,0.0,0.0,0.0,0.0,0.0,0.0,0.0,0.0,0.0,0.0,0.0,0.0,0.0,0.0,0.0,0.0,0.0,0.0,0.0,0.0
2025/04/05 15:11:53.213786456,1743858713,212825184,world_ned,mA1/odom,181.80205021522386,11.425573316863069,0.4337276049715252,-0.0017382463727916237,0.000151225498028794,0.004004184594343576,0.9999904610225693,0.0,0.0,0.0,0.0,0.0,0.0,0.0,0.0,0.0,0.0,0.0,0.0,0.0,0.0,0.0,0.0,0.0,0.0,0.0,0.0,0.0,0.0,0.0,0.0,0.0,0.0,0.0,0.0,0.0,0.0,0.0,0.0,0.0,0.0,0.0,0.0,0.017763749029649573,-0.06257902691103023,0.0005123393575760124,-0.008159346288751921,0.00034489978458712863,-0.04392619664650247,0.0,0.0,0.0,0.0,0.0,0.0,0.0,0.0,0.0,0.0,0.0,0.0,0.0,0.0,0.0,0.0,0.0,0.0,0.0,0.0,0.0,0.0,0.0,0.0,0.0,0.0,0.0,0.0,0.0,0.0,0.0,0.0,0.0,0.0,0.0,0.0
2025/04/05 15:11:53.316403967,1743858713,312685974,world_ned,mA1/odom,181.8037383988803,11.419376187047153,0.43378733670003194,-0.002075321409731857,0.0002093138626754302,0.0018084335973877635,0.9999961893910781,0.0,0.0,0.0,0.0,0.0,0.0,0.0,0.0,0.0,0.0,0.0,0.0,0.0,0.0,0.0,0.0,0.0,0.0,0.0,0.0,0.0,0.0,0.0,0.0,0.0,0.0,0.0,0.0,0.0,0.0,0.0,0.0,0.0,0.0,0.0,0.0,0.021765386786379525,-0.061758732332650584,0.0002197208600413447,-0.005304077538193695,0.0002572601053880111,-0.04386662724254629,0.0,0.0,0.0,0.0,0.0,0.0,0.0,0.0,0.0,0.0,0.0,0.0,0.0,0.0,0.0,0.0,0.0,0.0,0.0,0.0,0.0,0.0,0.0,0.0,0.0,0.0,0.0,0.0,0.0,0.0,0.0,0.0,0.0,0.0,0.0,0.0
2025/04/05 15:11:53.409066388,1743858713,407414402,world_ned,mA1/odom,181.805542928967,11.413214390275506,0.43381582563898996,-0.002232339754894441,0.0002992127274927072,-0.00038609530311114906,0.9999973890272811,0.0,0.0,0.0,0.0,0.0,0.0,0.0,0.0,0.0,0.0,0.0,0.0,0.0,0.0,0.0,0.0,0.0,0.0,0.0,0.0,0.0,0.0,0.0,0.0,0.0,0.0,0.0,0.0,0.0,0.0,0.0,0.0,0.0,0.0,0.0,0.0,0.013359832154788014,-0.0615899333328859,-0.00014348408123300815,-0.0012507913925216857,0.0037383568061173677,-0.04402530062411817,0.0,0.0,0.0,0.0,0.0,0.0,0.0,0.0,0.0,0.0,0.0,0.0,0.0,0.0,0.0,0.0,0.0,0.0,0.0,0.0,0.0,0.0,0.0,0.0,0.0,0.0,0.0,0.0,0.0,0.0,0.0,0.0,0.0,0.0,0.0,0.0
2025/04/05 15:11:53.503615765,1743858713,503355724,world_ned,mA1/odom,181.8079727395682,11.407088276684085,0.43380658861469734,-0.002188914726397666,0.00035133043517768914,-0.002588930755115708,0.9999941913115251,0.0,0.0,0.0,0.0,0.0,0.0,0.0,0.0,0.0,0.0,0.0,0.0,0.0,0.0,0.0,0.0,0.0,0.0,0.0,0.0,0.0,0.0,0.0,0.0,0.0,0.0,0.0,0.0,0.0,0.0,0.0,0.0,0.0,0.0,0.0,0.0,0.028602668950053867,-0.06080807883902027,-0.0005327353393514563,0.0025588068515873734,0.0003208888703856224,-0.044047778623100275,0.0,0.0,0.0,0.0,0.0,0.0,0.0,0.0,0.0,0.0,0.0,0.0,0.0,0.0,0.0,0.0,0.0,0.0,0.0,0.0,0.0,0.0,0.0,0.0,0.0,0.0,0.0,0.0,0.0,0.0,0.0,0.0,0.0,0.0,0.0,0.0
2025/04/05 15:11:53.603062842,1743858713,600749954,world_ned,mA1/odom,181.81065018776673,11.401062469961243,0.43375857929103906,-0.001976424550187373,0.0004123002749425341,-0.004800484401843062,0.9999864394600501,0.0,0.0,0.0,0.0,0.0,0.0,0.0,0.0,0.0,0.0,0.0,0.0,0.0,0.0,0.0,0.0,0.0,0.0,0.0,0.0,0.0,0.0,0.0,0.0,0.0,0.0,0.0,0.0,0.0,0.0,0.0,0.0,0.0,0.0,0.0,0.0,0.03025042954213962,-0.059176225472582125,-0.0008246749421225227,0.005407435757863509,0.0013186735252179742,-0.044615299902637365,0.0,0.0,0.0,0.0,0.0,0.0,0.0,0.0,0.0,0.0,0.0,0.0,0.0,0.0,0.0,0.0,0.0,0.0,0.0,0.0,0.0,0.0,0.0,0.0,0.0,0.0,0.0,0.0,0.0,0.0,0.0,0.0,0.0,0.0,0.0,0.0
2025/04/05 15:11:53.708351724,1743858713,707294439,world_ned,mA1/odom,181.81405457023658,11.395273029440478,0.43368779530147816,-0.001670839684099437,0.0004667730498554887,-0.0070574310054616765,0.999973591193924,0.0,0.0,0.0,0.0,0.0,0.0,0.0,0.0,0.0,0.0,0.0,0.0,0.0,0.0,0.0,0.0,0.0,0.0,0.0,0.0,0.0,0.0,0.0,0.0,0.0,0.0,0.0,0.0,0.0,0.0,0.0,0.0,0.0,0.0,0.0,0.0,0.036745053054723045,-0.055686147123223,-0.0009031474755410731,0.006307745625937214,0.0017391843492476425,-0.04562864190893139,0.0,0.0,0.0,0.0,0.0,0.0,0.0,0.0,0.0,0.0,0.0,0.0,0.0,0.0,0.0,0.0,0.0,0.0,0.0,0.0,0.0,0.0,0.0,0.0,0.0,0.0,0.0,0.0,0.0,0.0,0.0,0.0,0.0,0.0,0.0,0.0
2025/04/05 15:11:53.806697778,1743858713,804260056,world_ned,mA1/odom,181.81824101521727,11.390029362954886,0.4336145115095401,-0.0014159534273096906,0.0005292795579397184,-0.009339143750040805,0.9999552466650982,0.0,0.0,0.0,0.0,0.0,0.0,0.0,0.0,0.0,0.0,0.0,0.0,0.0,0.0,0.0,0.0,0.0,0.0,0.0,0.0,0.0,0.0,0.0,0.0,0.0,0.0,0.0,0.0,0.0,0.0,0.0,0.0,0.0,0.0,0.0,0.0,0.04989857176560058,-0.04718353439456054,-0.0007668422231277237,0.0032392993313142917,0.00041137179270157333,-0.045069101211425606,0.0,0.0,0.0,0.0,0.0,0.0,0.0,0.0,0.0,0.0,0.0,0.0,0.0,0.0,0.0,0.0,0.0,0.0,0.0,0.0,0.0,0.0,0.0,0.0,0.0,0.0,0.0,0.0,0.0,0.0,0.0,0.0,0.0,0.0,0.0,0.0
2025/04/05 15:11:53.913636848,1743858713,909940043,world_ned,mA1/odom,181.82321991128535,11.385437731084387,0.4335599088767084,-0.0012723347041101517,0.000593882364202658,-0.011612869638139258,0.9999315825229773,0.0,0.0,0.0,0.0,0.0,0.0,0.0,0.0,0.0,0.0,0.0,0.0,0.0,0.0,0.0,0.0,0.0,0.0,0.0,0.0,0.0,0.0,0.0,0.0,0.0,0.0,0.0,0.0,0.0,0.0,0.0,0.0,0.0,0.0,0.0,0.0,0.058777950767243445,-0.043037869983151726,-0.00045971941516348284,0.0026231720943604288,6.365435915206774e-05,-0.04579204810880876,0.0,0.0,0.0,0.0,0.0,0.0,0.0,0.0,0.0,0.0,0.0,0.0,0.0,0.0,0.0,0.0,0.0,0.0,0.0,0.0,0.0,0.0,0.0,0.0,0.0,0.0,0.0,0.0,0.0,0.0,0.0,0.0,0.0,0.0,0.0,0.0
2025/04/05 15:11:54.2503137,1743858714,2108805,world_ned,mA1/odom,181.8289323356775,11.381202224712164,0.4335395688688992,-0.001162275504116816,0.000651022897682581,-0.013916579394276278,0.999902272276047,0.0,0.0,0.0,0.0,0.0,0.0,0.0,0.0,0.0,0.0,0.0,0.0,0.0,0.0,0.0,0.0,0.0,0.0,0.0,0.0,0.0,0.0,0.0,0.0,0.0,0.0,0.0,0.0,0.0,0.0,0.0,0.0,0.0,0.0,0.0,0.0,0.0629926636746833,-0.039139679080096856,-4.068455048703144e-05,0.001889468449367734,0.0006516469524852956,-0.04626767238387536,0.0,0.0,0.0,0.0,0.0,0.0,0.0,0.0,0.0,0.0,0.0,0.0,0.0,0.0,0.0,0.0,0.0,0.0,0.0,0.0,0.0,0.0,0.0,0.0,0.0,0.0,0.0,0.0,0.0,0.0,0.0,0.0,0.0,0.0,0.0,0.0
2025/04/05 15:11:54.104505017,1743858714,103957144,world_ned,mA1/odom,181.835441847769,11.377276771715096,0.43355360799790726,-0.0010862775414850886,0.0006735040897318309,-0.016236037405449953,0.9998673699459908,0.0,0.0,0.0,0.0,0.0,0.0,0.0,0.0,0.0,0.0,0.0,0.0,0.0,0.0,0.0,0.0,0.0,0.0,0.0,0.0,0.0,0.0,0.0,0.0,0.0,0.0,0.0,0.0,0.0,0.0,0.0,0.0,0.0,0.0,0.0,0.0,0.06612952024083124,-0.03578038748191637,0.0002859959558192253,0.0012636510687134071,0.0011512853402961423,-0.04645757318305703,0.0,0.0,0.0,0.0,0.0,0.0,0.0,0.0,0.0,0.0,0.0,0.0,0.0,0.0,0.0,0.0,0.0,0.0,0.0,0.0,0.0,0.0,0.0,0.0,0.0,0.0,0.0,0.0,0.0,0.0,0.0,0.0,0.0,0.0,0.0,0.0
2025/04/05 15:11:54.204102832,1743858714,203900219,world_ned,mA1/odom,181.84270321046282,11.37361066716943,0.43359744046099624,-0.0010370069141886,0.0006572599286939546,-0.01855982181460284,0.9998269978552571,0.0,0.0,0.0,0.0,0.0,0.0,0.0,0.0,0.0,0.0,0.0,0.0,0.0,0.0,0.0,0.0,0.0,0.0,0.0,0.0,0.0,0.0,0.0,0.0,0.0,0.0,0.0,0.0,0.0,0.0,0.0,0.0,0.0,0.0,0.0,0.0,0.0745071533102472,-0.032658696302846825,0.0005777833097759784,0.0007698078774925893,0.00016799815089976825,-0.046410572512926795,0.0,0.0,0.0,0.0,0.0,0.0,0.0,0.0,0.0,0.0,0.0,0.0,0.0,0.0,0.0,0.0,0.0,0.0,0.0,0.0,0.0,0.0,0.0,0.0,0.0,0.0,0.0,0.0,0.0,0.0,0.0,0.0,0.0,0.0,0.0,0.0
2025/04/05 15:11:54.306736087,1743858714,306533293,world_ned,mA1/odom,181.8506211758083,11.370191477156025,0.43366415012108833,-0.001013765600090048,0.0006135180117711441,-0.020868507944816456,0.999781526760279,0.0,0.0,0.0,0.0,0.0,0.0,0.0,0.0,0.0,0.0,0.0,0.0,0.0,0.0,0.0,0.0,0.0,0.0,0.0,0.0,0.0,0.0,0.0,0.0,0.0,0.0,0.0,0.0,0.0,0.0,0.0,0.0,0.0,0.0,0.0,0.0,0.08577643735395431,-0.029487088934980595,0.0007468994129616362,0.0001202981424953218,-0.001793762708986282,-0.0459040684325421,0.0,0.0,0.0,0.0,0.0,0.0,0.0,0.0,0.0,0.0,0.0,0.0,0.0,0.0,0.0,0.0,0.0,0.0,0.0,0.0,0.0,0.0,0.0,0.0,0.0,0.0,0.0,0.0,0.0,0.0,0.0,0.0,0.0,0.0,0.0,0.0
2025/04/05 15:11:54.408493871,1743858714,408173387,world_ned,mA1/odom,181.8592486085207,11.367052754114178,0.43373325040054367,-0.0010348783417782161,0.0005341912634859712,-0.023146157469735938,0.9997314134610845,0.0,0.0,0.0,0.0,0.0,0.0,0.0,0.0,0.0,0.0,0.0,0.0,0.0,0.0,0.0,0.0,0.0,0.0,0.0,0.0,0.0,0.0,0.0,0.0,0.0,0.0,0.0,0.0,0.0,0.0,0.0,0.0,0.0,0.0,0.0,0.0,0.09326005828639636,-0.025861297804097256,0.0006880225590734496,-0.0007903625214180665,-0.002516023285942185,-0.045229167209413036,0.0,0.0,0.0,0.0,0.0,0.0,0.0,0.0,0.0,0.0,0.0,0.0,0.0,0.0,0.0,0.0,0.0,0.0,0.0,0.0,0.0,0.0,0.0,0.0,0.0,0.0,0.0,0.0,0.0,0.0,0.0,0.0,0.0,0.0,0.0,0.0
2025/04/05 15:11:54.510056042,1743858714,508604378,world_ned,mA1/odom,181.8685718457869,11.364210742816855,0.4337918735011803,-0.001098762395553542,0.0004352957126056374,-0.025377177687054445,0.9996772489616238,0.0,0.0,0.0,0.0,0.0,0.0,0.0,0.0,0.0,0.0,0.0,0.0,0.0,0.0,0.0,0.0,0.0,0.0,0.0,0.0,0.0,0.0,0.0,0.0,0.0,0.0,0.0,0.0,0.0,0.0,0.0,0.0,0.0,0.0,0.0,0.0,0.09287964582130223,-0.022313038789781532,0.000529391266367485,-0.0014416203178548841,-0.0007338358493603329,-0.04413456939166822,0.0,0.0,0.0,0.0,0.0,0.0,0.0,0.0,0.0,0.0,0.0,0.0,0.0,0.0,0.0,0.0,0.0,0.0,0.0,0.0,0.0,0.0,0.0,0.0,0.0,0.0,0.0,0.0,0.0,0.0,0.0,0.0,0.0,0.0,0.0,0.0
2025/04/05 15:11:54.609872648,1743858714,609468558,world_ned,mA1/odom,181.87865677549996,11.361594310922916,0.4338228921372263,-0.0011729763723650028,0.0003214658558774916,-0.02755064608287236,0.9996196690174467,0.0,0.0,0.0,0.0,0.0,0.0,0.0,0.0,0.0,0.0,0.0,0.0,0.0,0.0,0.0,0.0,0.0,0.0,0.0,0.0,0.0,0.0,0.0,0.0,0.0,0.0,0.0,0.0,0.0,0.0,0.0,0.0,0.0,0.0,0.0,0.0,0.10512755718062516,-0.01965037624900342,0.00014623448570483805,-0.0012436287634936655,-0.002185894899918775,-0.04294067308353291,0.0,0.0,0.0,0.0,0.0,0.0,0.0,0.0,0.0,0.0,0.0,0.0,0.0,0.0,0.0,0.0,0.0,0.0,0.0,0.0,0.0,0.0,0.0,0.0,0.0,0.0,0.0,0.0,0.0,0.0,0.0,0.0,0.0,0.0,0.0,0.0
2025/04/05 15:11:54.711075278,1743858714,710600566,world_ned,mA1/odom,181.8894631125662,11.359109629179898,0.43381209637465573,-0.0012145722504795864,0.00021444236593888764,-0.02966089598637456,0.9995592579122088,0.0,0.0,0.0,0.0,0.0,0.0,0.0,0.0,0.0,0.0,0.0,0.0,0.0,0.0,0.0,0.0,0.0,0.0,0.0,0.0,0.0,0.0,0.0,0.0,0.0,0.0,0.0,0.0,0.0,0.0,0.0,0.0,0.0,0.0,0.0,0.0,0.11450612141526183,-0.01784422463793274,-0.0003004623082458137,-0.0002810050553592602,-0.002520977504757347,-0.04161996303833325,0.0,0.0,0.0,0.0,0.0,0.0,0.0,0.0,0.0,0.0,0.0,0.0,0.0,0.0,0.0,0.0,0.0,0.0,0.0,0.0,0.0,0.0,0.0,0.0,0.0,0.0,0.0,0.0,0.0,0.0,0.0,0.0,0.0,0.0,0.0,0.0
2025/04/05 15:11:54.801921997,1743858714,801505953,world_ned,mA1/odom,181.90095220645244,11.356679814694697,0.4337657060713089,-0.0011910513872087527,0.000133860519930246,-0.031702209277302884,0.9994966400168098,0.0,0.0,0.0,0.0,0.0,0.0,0.0,0.0,0.0,0.0,0.0,0.0,0.0,0.0,0.0,0.0,0.0,0.0,0.0,0.0,0.0,0.0,0.0,0.0,0.0,0.0,0.0,0.0,0.0,0.0,0.0,0.0,0.0,0.0,0.0,0.0,0.1228865169007874,-0.016680610321395093,-0.0006203686035026608,0.00120964949938794,-0.0022404375859118556,-0.040200123375489415,0.0,0.0,0.0,0.0,0.0,0.0,0.0,0.0,0.0,0.0,0.0,0.0,0.0,0.0,0.0,0.0,0.0,0.0,0.0,0.0,0.0,0.0,0.0,0.0,0.0,0.0,0.0,0.0,0.0,0.0,0.0,0.0,0.0,0.0,0.0,0.0
2025/04/05 15:11:54.914898419,1743858714,903792265,world_ned,mA1/odom,181.91323683250818,11.3542469824553,0.43369563483925905,-0.001089916231809658,7.223655801027585e-05,-0.03366898580073844,0.9994324420688159,0.0,0.0,0.0,0.0,0.0,0.0,0.0,0.0,0.0,0.0,0.0,0.0,0.0,0.0,0.0,0.0,0.0,0.0,0.0,0.0,0.0,0.0,0.0,0.0,0.0,0.0,0.0,0.0,0.0,0.0,0.0,0.0,0.0,0.0,0.0,0.0,0.13275968832006943,-0.015913902852600116,-0.0007867801820879408,0.002780629388038425,-0.0022891241774099253,-0.03865501132414426,0.0,0.0,0.0,0.0,0.0,0.0,0.0,0.0,0.0,0.0,0.0,0.0,0.0,0.0,0.0,0.0,0.0,0.0,0.0,0.0,0.0,0.0,0.0,0.0,0.0,0.0,0.0,0.0,0.0,0.0,0.0,0.0,0.0,0.0,0.0,0.0
2025/04/05 15:11:55.10709859,1743858715,9600241,world_ned,mA1/odom,181.92606172605926,11.351791399732669,0.433619532871296,-0.0009119918014599565,7.061443158284203e-05,-0.035556091692488564,0.9993672636364028,0.0,0.0,0.0,0.0,0.0,0.0,0.0,0.0,0.0,0.0,0.0,0.0,0.0,0.0,0.0,0.0,0.0,0.0,0.0,0.0,0.0,0.0,0.0,0.0,0.0,0.0,0.0,0.0,0.0,0.0,0.0,0.0,0.0,0.0,0.0,0.0,0.13195605742878694,-0.015392467965286677,-0.000729212968094132,0.004183296886862755,0.00075615530831601,-0.03700022359795453,0.0,0.0,0.0,0.0,0.0,0.0,0.0,0.0,0.0,0.0,0.0,0.0,0.0,0.0,0.0,0.0,0.0,0.0,0.0,0.0,0.0,0.0,0.0,0.0,0.0,0.0,0.0,0.0,0.0,0.0,0.0,0.0,0.0,0.0,0.0,0.0
2025/04/05 15:11:55.107573209,1743858715,107069217,world_ned,mA1/odom,181.93983117929076,11.349267991201565,0.43356253726828725,-0.0006777880348610661,6.953417760100789e-05,-0.0373556830013506,0.9993018006167509,0.0,0.0,0.0,0.0,0.0,0.0,0.0,0.0,0.0,0.0,0.0,0.0,0.0,0.0,0.0,0.0,0.0,0.0,0.0,0.0,0.0,0.0,0.0,0.0,0.0,0.0,0.0,0.0,0.0,0.0,0.0,0.0,0.0,0.0,0.0,0.0,0.15036789737916997,-0.014855628626601048,-0.0004159420742086967,0.005011335531619428,-0.0017844616369322578,-0.03519650222762084,0.0,0.0,0.0,0.0,0.0,0.0,0.0,0.0,0.0,0.0,0.0,0.0,0.0,0.0,0.0,0.0,0.0,0.0,0.0,0.0,0.0,0.0,0.0,0.0,0.0,0.0,0.0,0.0,0.0,0.0,0.0,0.0,0.0,0.0,0.0,0.0
2025/04/05 15:11:55.214261497,1743858715,203383662,world_ned,mA1/odom,181.95419602096385,11.34671882770631,0.43353940716314365,-0.00042580280008510383,0.0001060491483650906,-0.03906365362954013,0.9992366278368027,0.0,0.0,0.0,0.0,0.0,0.0,0.0,0.0,0.0,0.0,0.0,0.0,0.0,0.0,0.0,0.0,0.0,0.0,0.0,0.0,0.0,0.0,0.0,0.0,0.0,0.0,0.0,0.0,0.0,0.0,0.0,0.0,0.0,0.0,0.0,0.0,0.14676635088791518,-0.014036654541197513,-3.738709506638532e-05,0.004899838219870741,0.0015025075986748449,-0.033350470156836315,0.0,0.0,0.0,0.0,0.0,0.0,0.0,0.0,0.0,0.0,0.0,0.0,0.0,0.0,0.0,0.0,0.0,0.0,0.0,0.0,0.0,0.0,0.0,0.0,0.0,0.0,0.0,0.0,0.0,0.0,0.0,0.0,0.0,0.0,0.0,0.0
2025/04/05 15:11:55.304911065,1743858715,303302766,world_ned,mA1/odom,181.96908888140746,11.344161416911147,0.4335553258609512,-0.0001940738196875507,0.00017647374323488297,-0.04067842952573434,0.9991722557015333,0.0,0.0,0.0,0.0,0.0,0.0,0.0,0.0,0.0,0.0,0.0,0.0,0.0,0.0,0.0,0.0,0.0,0.0,0.0,0.0,0.0,0.0,0.0,0.0,0.0,0.0,0.0,0.0,0.0,0.0,0.0,0.0,0.0,0.0,0.0,0.0,0.15766007451340613,-0.013206000713177311,0.00037146677812943695,0.004195567960355574,0.0004732702942403055,-0.03150446995444953,0.0,0.0,0.0,0.0,0.0,0.0,0.0,0.0,0.0,0.0,0.0,0.0,0.0,0.0,0.0,0.0,0.0,0.0,0.0,0.0,0.0,0.0,0.0,0.0,0.0,0.0,0.0,0.0,0.0,0.0,0.0,0.0,0.0,0.0,0.0,0.0
2025/04/05 15:11:55.439245930,1743858715,403330931,world_ned,mA1/odom,181.98469081372377,11.341598699055666,0.43360529365916317,-1.967989818358043e-05,0.0002457904787941152,-0.04221203520867499,0.999108644384225,0.0,0.0,0.0,0.0,0.0,0.0,0.0,0.0,0.0,0.0,0.0,0.0,0.0,0.0,0.0,0.0,0.0,0.0,0.0,0.0,0.0,0.0,0.0,0.0,0.0,0.0,0.0,0.0,0.0,0.0,0.0,0.0,0.0,0.0,0.0,0.0,0.15858181633371987,-0.012016606033703022,0.0007022392578303954,0.002692036764519091,0.0020579207764657792,-0.030062952889166855,0.0,0.0,0.0,0.0,0.0,0.0,0.0,0.0,0.0,0.0,0.0,0.0,0.0,0.0,0.0,0.0,0.0,0.0,0.0,0.0,0.0,0.0,0.0,0.0,0.0,0.0,0.0,0.0,0.0,0.0,0.0,0.0,0.0,0.0,0.0,0.0
2025/04/05 15:11:55.510041164,1743858715,502857043,world_ned,mA1/odom,182.0009423320008,11.339073141198961,0.43367545089134013,6.234917072335338e-05,0.0003100981103717453,-0.0436763586294384,0.9990456824633274,0.0,0.0,0.0,0.0,0.0,0.0,0.0,0.0,0.0,0.0,0.0,0.0,0.0,0.0,0.0,0.0,0.0,0.0,0.0,0.0,0.0,0.0,0.0,0.0,0.0,0.0,0.0,0.0,0.0,0.0,0.0,0.0,0.0,0.0,0.0,0.0,0.16872136477274977,-0.01046190940763295,0.0008482640636065581,0.0006294180957522945,0.0006914575829773613,-0.028698690321346407,0.0,0.0,0.0,0.0,0.0,0.0,0.0,0.0,0.0,0.0,0.0,0.0,0.0,0.0,0.0,0.0,0.0,0.0,0.0,0.0,0.0,0.0,0.0,0.0,0.0,0.0,0.0,0.0,0.0,0.0,0.0,0.0,0.0,0.0,0.0,0.0
2025/04/05 15:11:55.610575485,1743858715,609074968,world_ned,mA1/odom,182.0177675869519,11.336595802770859,0.4337471059892294,4.121912792601961e-05,0.0003630504426648133,-0.04507730327842214,0.9989834349099612,0.0,0.0,0.0,0.0,0.0,0.0,0.0,0.0,0.0,0.0,0.0,0.0,0.0,0.0,0.0,0.0,0.0,0.0,0.0,0.0,0.0,0.0,0.0,0.0,0.0,0.0,0.0,0.0,0.0,0.0,0.0,0.0,0.0,0.0,0.0,0.0,0.17124014610532698,-0.009210310185445797,0.0007956831911774181,-0.0012850813307374337,0.0011117907562897102,-0.027548069663835887,0.0,0.0,0.0,0.0,0.0,0.0,0.0,0.0,0.0,0.0,0.0,0.0,0.0,0.0,0.0,0.0,0.0,0.0,0.0,0.0,0.0,0.0,0.0,0.0,0.0,0.0,0.0,0.0,0.0,0.0,0.0,0.0,0.0,0.0,0.0,0.0
2025/04/05 15:11:55.713124448,1743858715,709672203,world_ned,mA1/odom,182.03520211020967,11.33413171449097,0.4338006393957109,-6.867452440917474e-05,0.00038486048094836566,-0.04642202139113766,0.9989218403339576,0.0,0.0,0.0,0.0,0.0,0.0,0.0,0.0,0.0,0.0,0.0,0.0,0.0,0.0,0.0,0.0,0.0,0.0,0.0,0.0,0.0,0.0,0.0,0.0,0.0,0.0,0.0,0.0,0.0,0.0,0.0,0.0,0.0,0.0,0.0,0.0,0.1802861354965839,-0.00811533645517608,0.0005324713965689324,-0.0028700146239387697,-0.0005101498197847359,-0.02642484427166034,0.0,0.0,0.0,0.0,0.0,0.0,0.0,0.0,0.0,0.0,0.0,0.0,0.0,0.0,0.0,0.0,0.0,0.0,0.0,0.0,0.0,0.0,0.0,0.0,0.0,0.0,0.0,0.0,0.0,0.0,0.0,0.0,0.0,0.0,0.0,0.0
2025/04/05 15:11:55.805461646,1743858715,804150243,world_ned,mA1/odom,182.05321478543556,11.331650582762762,0.43382040337369415,-0.0002399700046933222,0.0003714280047419378,-0.0477127728989165,0.9988609992175741,0.0,0.0,0.0,0.0,0.0,0.0,0.0,0.0,0.0,0.0,0.0,0.0,0.0,0.0,0.0,0.0,0.0,0.0,0.0,0.0,0.0,0.0,0.0,0.0,0.0,0.0,0.0,0.0,0.0,0.0,0.0,0.0,0.0,0.0,0.0,0.0,0.18915953567863328,-0.007518177816512599,0.00015608655363091265,-0.003684626317335682,-0.0021221767464798683,-0.025382950384608447,0.0,0.0,0.0,0.0,0.0,0.0,0.0,0.0,0.0,0.0,0.0,0.0,0.0,0.0,0.0,0.0,0.0,0.0,0.0,0.0,0.0,0.0,0.0,0.0,0.0,0.0,0.0,0.0,0.0,0.0,0.0,0.0,0.0,0.0,0.0,0.0
2025/04/05 15:11:55.909712380,1743858715,901385627,world_ned,mA1/odom,182.07166891792303,11.329111783326924,0.43380376632945883,-0.00042826425054963077,0.0003435039452402459,-0.04895291909343069,0.9988009362765953,0.0,0.0,0.0,0.0,0.0,0.0,0.0,0.0,0.0,0.0,0.0,0.0,0.0,0.0,0.0,0.0,0.0,0.0,0.0,0.0,0.0,0.0,0.0,0.0,0.0,0.0,0.0,0.0,0.0,0.0,0.0,0.0,0.0,0.0,0.0,0.0,0.18767709614451622,-0.0073971108488795805,-0.00019776732155062755,-0.0036450201947335497,-0.0007053433925824639,-0.02437921281449121,0.0,0.0,0.0,0.0,0.0,0.0,0.0,0.0,0.0,0.0,0.0,0.0,0.0,0.0,0.0,0.0,0.0,0.0,0.0,0.0,0.0,0.0,0.0,0.0,0.0,0.0,0.0,0.0,0.0,0.0,0.0,0.0,0.0,0.0,0.0,0.0
2025/04/05 15:11:56.46648239,1743858716,10786018,world_ned,mA1/odom,182.09075163058955,11.326443058375814,0.43375710350457886,-0.0005908632468477512,0.0002779596133656405,-0.05014605926650199,0.998741681496831,0.0,0.0,0.0,0.0,0.0,0.0,0.0,0.0,0.0,0.0,0.0,0.0,0.0,0.0,0.0,0.0,0.0,0.0,0.0,0.0,0.0,0.0,0.0,0.0,0.0,0.0,0.0,0.0,0.0,0.0,0.0,0.0,0.0,0.0,0.0,0.0,0.19164692838012812,-0.007959755731936973,-0.0004922657331750284,-0.0026479666435600315,-0.000671372549066957,-0.023528331906661308,0.0,0.0,0.0,0.0,0.0,0.0,0.0,0.0,0.0,0.0,0.0,0.0,0.0,0.0,0.0,0.0,0.0,0.0,0.0,0.0,0.0,0.0,0.0,0.0,0.0,0.0,0.0,0.0,0.0,0.0,0.0,0.0,0.0,0.0,0.0,0.0
2025/04/05 15:11:56.111888168,1743858716,107629062,world_ned,mA1/odom,182.1103740152339,11.323599186291403,0.43369180714575806,-0.0006877336504338046,0.00019593716965891724,-0.05129785898686033,0.9986831420898301,0.0,0.0,0.0,0.0,0.0,0.0,0.0,0.0,0.0,0.0,0.0,0.0,0.0,0.0,0.0,0.0,0.0,0.0,0.0,0.0,0.0,0.0,0.0,0.0,0.0,0.0,0.0,0.0,0.0,0.0,0.0,0.0,0.0,0.0,0.0,0.0,0.19906398500017713,-0.008759572174189897,-0.0006363039913671432,-0.001141105494752482,-0.0013319857253981612,-0.02269485999324368,0.0,0.0,0.0,0.0,0.0,0.0,0.0,0.0,0.0,0.0,0.0,0.0,0.0,0.0,0.0,0.0,0.0,0.0,0.0,0.0,0.0,0.0,0.0,0.0,0.0,0.0,0.0,0.0,0.0,0.0,0.0,0.0,0.0,0.0,0.0,0.0
2025/04/05 15:11:56.211694966,1743858716,207590864,world_ned,mA1/odom,182.13040954181045,11.320580402109293,0.43362580878780294,-0.0007015335903361469,0.00012783209379998948,-0.05240927625359961,0.9986254349214981,0.0,0.0,0.0,0.0,0.0,0.0,0.0,0.0,0.0,0.0,0.0,0.0,0.0,0.0,0.0,0.0,0.0,0.0,0.0,0.0,0.0,0.0,0.0,0.0,0.0,0.0,0.0,0.0,0.0,0.0,0.0,0.0,0.0,0.0,0.0,0.0,0.20184930594488384,-0.009651763149312787,-0.0005769963581060518,0.0005725686817504654,-0.0003953793059452552,-0.021909391483315863,0.0,0.0,0.0,0.0,0.0,0.0,0.0,0.0,0.0,0.0,0.0,0.0,0.0,0.0,0.0,0.0,0.0,0.0,0.0,0.0,0.0,0.0,0.0,0.0,0.0,0.0,0.0,0.0,0.0,0.0,0.0,0.0,0.0,0.0,0.0,0.0
2025/04/05 15:11:56.372394441,1743858716,306105173,world_ned,mA1/odom,182.15115733473482,11.317356950434824,0.43357854653635963,-0.0006335773747068185,4.542323716431932e-05,-0.053482716973934356,0.9985685732595062,0.0,0.0,0.0,0.0,0.0,0.0,0.0,0.0,0.0,0.0,0.0,0.0,0.0,0.0,0.0,0.0,0.0,0.0,0.0,0.0,0.0,0.0,0.0,0.0,0.0,0.0,0.0,0.0,0.0,0.0,0.0,0.0,0.0,0.0,0.0,0.0,0.21010999673445188,-0.010399393664693262,-0.00036866385305394506,0.0020826777065141105,-0.0007986326735724309,-0.021172890420957213,0.0,0.0,0.0,0.0,0.0,0.0,0.0,0.0,0.0,0.0,0.0,0.0,0.0,0.0,0.0,0.0,0.0,0.0,0.0,0.0,0.0,0.0,0.0,0.0,0.0,0.0,0.0,0.0,0.0,0.0,0.0,0.0,0.0,0.0,0.0,0.0
2025/04/05 15:11:56.455781149,1743858716,402292159,world_ned,mA1/odom,182.1722582956263,11.313996277220445,0.4335606104305027,-0.0005021606603383038,8.827491395792106e-06,-0.054519754781642976,0.9985125658174243,0.0,0.0,0.0,0.0,0.0,0.0,0.0,0.0,0.0,0.0,0.0,0.0,0.0,0.0,0.0,0.0,0.0,0.0,0.0,0.0,0.0,0.0,0.0,0.0,0.0,0.0,0.0,0.0,0.0,0.0,0.0,0.0,0.0,0.0,0.0,0.0,0.215072366171315,-0.010715378780826401,-6.214408050657965e-05,0.00300467804266873,-9.979590279029645e-05,-0.020438541617118097,0.0,0.0,0.0,0.0,0.0,0.0,0.0,0.0,0.0,0.0,0.0,0.0,0.0,0.0,0.0,0.0,0.0,0.0,0.0,0.0,0.0,0.0,0.0,0.0,0.0,0.0,0.0,0.0,0.0,0.0,0.0,0.0,0.0,0.0,0.0,0.0
2025/04/05 15:11:56.515393240,1743858716,503260754,world_ned,mA1/odom,182.19396820155865,11.31050727893898,0.4335745214828962,-0.00034037769085714146,-1.1234140840155207e-05,-0.055523474078846856,0.9984573239968934,0.0,0.0,0.0,0.0,0.0,0.0,0.0,0.0,0.0,0.0,0.0,0.0,0.0,0.0,0.0,0.0,0.0,0.0,0.0,0.0,0.0,0.0,0.0,0.0,0.0,0.0,0.0,0.0,0.0,0.0,0.0,0.0,0.0,0.0,0.0,0.0,0.21911290977475278,-0.010857161980828096,0.0002590243997898315,0.0033638882687849255,0.0008559765752891296,-0.01987033333908002,0.0,0.0,0.0,0.0,0.0,0.0,0.0,0.0,0.0,0.0,0.0,0.0,0.0,0.0,0.0,0.0,0.0,0.0,0.0,0.0,0.0,0.0,0.0,0.0,0.0,0.0,0.0,0.0,0.0,0.0,0.0,0.0,0.0,0.0,0.0,0.0
2025/04/05 15:11:56.647635987,1743858716,609046968,world_ned,mA1/odom,182.21617753803875,11.306940330461643,0.4336188856997988,-0.00018399824383253123,9.952156007808365e-07,-0.056497645243169275,0.9984027154538557,0.0,0.0,0.0,0.0,0.0,0.0,0.0,0.0,0.0,0.0,0.0,0.0,0.0,0.0,0.0,0.0,0.0,0.0,0.0,0.0,0.0,0.0,0.0,0.0,0.0,0.0,0.0,0.0,0.0,0.0,0.0,0.0,0.0,0.0,0.0,0.0,0.22931018606717804,-0.010265598765499831,0.0005621321870882166,0.0027810913477130453,6.322570385162914e-05,-0.01921174656483916,0.0,0.0,0.0,0.0,0.0,0.0,0.0,0.0,0.0,0.0,0.0,0.0,0.0,0.0,0.0,0.0,0.0,0.0,0.0,0.0,0.0,0.0,0.0,0.0,0.0,0.0,0.0,0.0,0.0,0.0,0.0,0.0,0.0,0.0,0.0,0.0
2025/04/05 15:11:56.777052197,1743858716,704628641,world_ned,mA1/odom,182.2388483248918,11.303346484302876,0.4336837613940551,-6.85876723295584e-05,5.013803011904326e-05,-0.057441951823242486,0.9983488443187809,0.0,0.0,0.0,0.0,0.0,0.0,0.0,0.0,0.0,0.0,0.0,0.0,0.0,0.0,0.0,0.0,0.0,0.0,0.0,0.0,0.0,0.0,0.0,0.0,0.0,0.0,0.0,0.0,0.0,0.0,0.0,0.0,0.0,0.0,0.0,0.0,0.22730947454254796,-0.00958859843076518,0.0006966239757249358,0.0017555421406584444,0.002482876722866134,-0.018705075896193482,0.0,0.0,0.0,0.0,0.0,0.0,0.0,0.0,0.0,0.0,0.0,0.0,0.0,0.0,0.0,0.0,0.0,0.0,0.0,0.0,0.0,0.0,0.0,0.0,0.0,0.0,0.0,0.0,0.0,0.0,0.0,0.0,0.0,0.0,0.0,0.0
2025/04/05 15:11:56.876767786,1743858716,802770956,world_ned,mA1/odom,182.26200427282495,11.299737380320627,0.4337489754976318,-1.574811791684051e-05,0.00011989152681107983,-0.05836089481136258,0.998295543080723,0.0,0.0,0.0,0.0,0.0,0.0,0.0,0.0,0.0,0.0,0.0,0.0,0.0,0.0,0.0,0.0,0.0,0.0,0.0,0.0,0.0,0.0,0.0,0.0,0.0,0.0,0.0,0.0,0.0,0.0,0.0,0.0,0.0,0.0,0.0,0.0,0.22957419884209776,-0.008613089708970442,0.0006581649518762746,0.0003018579105109954,0.003430857358104523,-0.018177425790656204,0.0,0.0,0.0,0.0,0.0,0.0,0.0,0.0,0.0,0.0,0.0,0.0,0.0,0.0,0.0,0.0,0.0,0.0,0.0,0.0,0.0,0.0,0.0,0.0,0.0,0.0,0.0,0.0,0.0,0.0,0.0,0.0,0.0,0.0,0.0,0.0
2025/04/05 15:11:56.973841017,1743858716,905933015,world_ned,mA1/odom,182.28571999921022,11.296114886924506,0.4337992702583638,-3.604510894277306e-05,0.00018685561259356432,-0.05925456375805072,0.998242886505871,0.0,0.0,0.0,0.0,0.0,0.0,0.0,0.0,0.0,0.0,0.0,0.0,0.0,0.0,0.0,0.0,0.0,0.0,0.0,0.0,0.0,0.0,0.0,0.0,0.0,0.0,0.0,0.0,0.0,0.0,0.0,0.0,0.0,0.0,0.0,0.0,0.2495604681700389,-0.007713565207341246,0.0004865013929184373,-0.001094238464949206,-0.0008778439243345085,-0.01768644712442604,0.0,0.0,0.0,0.0,0.0,0.0,0.0,0.0,0.0,0.0,0.0,0.0,0.0,0.0,0.0,0.0,0.0,0.0,0.0,0.0,0.0,0.0,0.0,0.0,0.0,0.0,0.0,0.0,0.0,0.0,0.0,0.0,0.0,0.0,0.0,0.0
2025/04/05 15:11:57.63128383,1743858717,3878505,world_ned,mA1/odom,182.3097115506968,11.292496805983642,0.4338202608475011,-0.00011836924852468109,0.0002748659871385951,-0.06012461404917842,0.9981908340707439,0.0,0.0,0.0,0.0,0.0,0.0,0.0,0.0,0.0,0.0,0.0,0.0,0.0,0.0,0.0,0.0,0.0,0.0,0.0,0.0,0.0,0.0,0.0,0.0,0.0,0.0,0.0,0.0,0.0,0.0,0.0,0.0,0.0,0.0,0.0,0.0,0.24397868870860273,-0.007035595357321055,0.00018091877667224281,-0.002188329644473888,0.0016806711728550956,-0.01722886736859147,0.0,0.0,0.0,0.0,0.0,0.0,0.0,0.0,0.0,0.0,0.0,0.0,0.0,0.0,0.0,0.0,0.0,0.0,0.0,0.0,0.0,0.0,0.0,0.0,0.0,0.0,0.0,0.0,0.0,0.0,0.0,0.0,0.0,0.0,0.0,0.0
2025/04/05 15:11:57.280186463,1743858717,102576157,world_ned,mA1/odom,182.33429227486693,11.288814112532087,0.43380549349495745,-0.00024286934771261428,0.000323946160409748,-0.0609726858409009,0.998139352823398,0.0,0.0,0.0,0.0,0.0,0.0,0.0,0.0,0.0,0.0,0.0,0.0,0.0,0.0,0.0,0.0,0.0,0.0,0.0,0.0,0.0,0.0,0.0,0.0,0.0,0.0,0.0,0.0,0.0,0.0,0.0,0.0,0.0,0.0,0.0,0.0,0.2548627284506169,-0.006704406414276136,-0.00015926164903741158,-0.0027349094824407373,-0.0006664841974917766,-0.016806047008039934,0.0,0.0,0.0,0.0,0.0,0.0,0.0,0.0,0.0,0.0,0.0,0.0,0.0,0.0,0.0,0.0,0.0,0.0,0.0,0.0,0.0,0.0,0.0,0.0,0.0,0.0,0.0,0.0,0.0,0.0,0.0,0.0,0.0,0.0,0.0,0.0
2025/04/05 15:11:57.363169877,1743858717,213828592,world_ned,mA1/odom,182.3590574921198,11.285077947647933,0.4337573288608027,-0.0003769508189500575,0.00037674934405066514,-0.061800368463953155,0.9980883880828048,0.0,0.0,0.0,0.0,0.0,0.0,0.0,0.0,0.0,0.0,0.0,0.0,0.0,0.0,0.0,0.0,0.0,0.0,0.0,0.0,0.0,0.0,0.0,0.0,0.0,0.0,0.0,0.0,0.0,0.0,0.0,0.0,0.0,0.0,0.0,0.0,0.25075729342639363,-0.006784473381662383,-0.0004262374851003019,-0.0026193280713810952,0.0010311888703371914,-0.01640769967687097,0.0,0.0,0.0,0.0,0.0,0.0,0.0,0.0,0.0,0.0,0.0,0.0,0.0,0.0,0.0,0.0,0.0,0.0,0.0,0.0,0.0,0.0,0.0,0.0,0.0,0.0,0.0,0.0,0.0,0.0,0.0,0.0,0.0,0.0,0.0,0.0
2025/04/05 15:11:57.414707531,1743858717,304476973,world_ned,mA1/odom,182.38440233396872,11.281199255313703,0.43368919692031976,-0.0004917870430654079,0.00036906554618352437,-0.06260869220820926,0.9980379620014985,0.0,0.0,0.0,0.0,0.0,0.0,0.0,0.0,0.0,0.0,0.0,0.0,0.0,0.0,0.0,0.0,0.0,0.0,0.0,0.0,0.0,0.0,0.0,0.0,0.0,0.0,0.0,0.0,0.0,0.0,0.0,0.0,0.0,0.0,0.0,0.0,0.2529613831351572,-0.007211359366888099,-0.0005615122423904531,-0.0019228081868537265,0.0008649918686673976,-0.01603005722604283,0.0,0.0,0.0,0.0,0.0,0.0,0.0,0.0,0.0,0.0,0.0,0.0,0.0,0.0,0.0,0.0,0.0,0.0,0.0,0.0,0.0,0.0,0.0,0.0,0.0,0.0,0.0,0.0,0.0,0.0,0.0,0.0,0.0,0.0,0.0,0.0
2025/04/05 15:11:57.610203754,1743858717,411313996,world_ned,mA1/odom,182.4101215221519,11.277174427514165,0.43361841662502876,-0.0005613607100872251,0.0003283237074683192,-0.0633985981400133,0.9979880734916512,0.0,0.0,0.0,0.0,0.0,0.0,0.0,0.0,0.0,0.0,0.0,0.0,0.0,0.0,0.0,0.0,0.0,0.0,0.0,0.0,0.0,0.0,0.0,0.0,0.0,0.0,0.0,0.0,0.0,0.0,0.0,0.0,0.0,0.0,0.0,0.0,0.25998104702427516,-0.007871660269249785,-0.0005157647515376956,-0.0008115067771230271,-0.0005730584153620848,-0.015669027262445467,0.0,0.0,0.0,0.0,0.0,0.0,0.0,0.0,0.0,0.0,0.0,0.0,0.0,0.0,0.0,0.0,0.0,0.0,0.0,0.0,0.0,0.0,0.0,0.0,0.0,0.0,0.0,0.0,0.0,0.0,0.0,0.0,0.0,0.0,0.0,0.0
2025/04/05 15:11:57.758766079,1743858717,507052961,world_ned,mA1/odom,182.43617020639198,11.272993060922147,0.43356420312683863,-0.0005702133255645844,0.00026670099942678296,-0.06417090464018232,0.9979387249350538,0.0,0.0,0.0,0.0,0.0,0.0,0.0,0.0,0.0,0.0,0.0,0.0,0.0,0.0,0.0,0.0,0.0,0.0,0.0,0.0,0.0,0.0,0.0,0.0,0.0,0.0,0.0,0.0,0.0,0.0,0.0,0.0,0.0,0.0,0.0,0.0,0.2636464998439174,-0.008618628701417747,-0.000307032850372379,0.00047911938317196347,-0.0008909383533914088,-0.0153260653233464,0.0,0.0,0.0,0.0,0.0,0.0,0.0,0.0,0.0,0.0,0.0,0.0,0.0,0.0,0.0,0.0,0.0,0.0,0.0,0.0,0.0,0.0,0.0,0.0,0.0,0.0,0.0,0.0,0.0,0.0,0.0,0.0,0.0,0.0,0.0,0.0
2025/04/05 15:11:58.919657271,1743858717,706902839,world_ned,mA1/odom,182.48935789706178,11.264176341847158,0.4335607092290086,-0.00042091293109647776,0.00011120676921684604,-0.06566608035872012,0.9978415587435117,0.0,0.0,0.0,0.0,0.0,0.0,0.0,0.0,0.0,0.0,0.0,0.0,0.0,0.0,0.0,0.0,0.0,0.0,0.0,0.0,0.0,0.0,0.0,0.0,0.0,0.0,0.0,0.0,0.0,0.0,0.0,0.0,0.0,0.0,0.0,0.0,0.2728034163363578,-0.009604359277432225,0.0003612109751007218,0.00231532672214093,-0.0012692278637922566,-0.014681603653251364,0.0,0.0,0.0,0.0,0.0,0.0,0.0,0.0,0.0,0.0,0.0,0.0,0.0,0.0,0.0,0.0,0.0,0.0,0.0,0.0,0.0,0.0,0.0,0.0,0.0,0.0,0.0,0.0,0.0,0.0,0.0,0.0,0.0,0.0,0.0,0.0
2025/04/05 15:11:58.919715966,1743858717,807383538,world_ned,mA1/odom,182.51651553965317,11.25959251409726,0.4336091506413135,-0.0003036875567871641,4.379929705737242e-05,-0.0663901361931294,0.9977936939426643,0.0,0.0,0.0,0.0,0.0,0.0,0.0,0.0,0.0,0.0,0.0,0.0,0.0,0.0,0.0,0.0,0.0,0.0,0.0,0.0,0.0,0.0,0.0,0.0,0.0,0.0,0.0,0.0,0.0,0.0,0.0,0.0,0.0,0.0,0.0,0.0,0.279910817028369,-0.009608729934248654,0.0006067794896552409,0.002445793449501389,-0.0018137207750607964,-0.014377337314784525,0.0,0.0,0.0,0.0,0.0,0.0,0.0,0.0,0.0,0.0,0.0,0.0,0.0,0.0,0.0,0.0,0.0,0.0,0.0,0.0,0.0,0.0,0.0,0.0,0.0,0.0,0.0,0.0,0.0,0.0,0.0,0.0,0.0,0.0,0.0,0.0
2025/04/05 15:11:58.919757517,1743858717,907382912,world_ned,mA1/odom,182.54410741697254,11.254926594568499,0.433677928819469,-0.00019259164367721817,-4.705194025578774e-06,-0.06709942627568401,0.9977462753023907,0.0,0.0,0.0,0.0,0.0,0.0,0.0,0.0,0.0,0.0,0.0,0.0,0.0,0.0,0.0,0.0,0.0,0.0,0.0,0.0,0.0,0.0,0.0,0.0,0.0,0.0,0.0,0.0,0.0,0.0,0.0,0.0,0.0,0.0,0.0,0.0,0.28621926978902595,-0.009313383172813973,0.0007379444319829947,0.0020677476440969433,-0.0018754421848074857,-0.0140878408658613,0.0,0.0,0.0,0.0,0.0,0.0,0.0,0.0,0.0,0.0,0.0,0.0,0.0,0.0,0.0,0.0,0.0,0.0,0.0,0.0,0.0,0.0,0.0,0.0,0.0,0.0,0.0,0.0,0.0,0.0,0.0,0.0,0.0,0.0,0.0,0.0
2025/04/05 15:11:58.919791785,1743858718,2573648,world_ned,mA1/odom,182.57204516726398,11.250219246734005,0.4337501082406867,-0.00011169065390268639,-1.2726250635154412e-05,-0.06779478023616119,0.9976992809138288,0.0,0.0,0.0,0.0,0.0,0.0,0.0,0.0,0.0,0.0,0.0,0.0,0.0,0.0,0.0,0.0,0.0,0.0,0.0,0.0,0.0,0.0,0.0,0.0,0.0,0.0,0.0,0.0,0.0,0.0,0.0,0.0,0.0,0.0,0.0,0.0,0.2810651584219874,-0.008762714295131268,0.0006675014272460277,0.00120841170480454,0.0013477394967767655,-0.013820784687251246,0.0,0.0,0.0,0.0,0.0,0.0,0.0,0.0,0.0,0.0,0.0,0.0,0.0,0.0,0.0,0.0,0.0,0.0,0.0,0.0,0.0,0.0,0.0,0.0,0.0,0.0,0.0,0.0,0.0,0.0,0.0,0.0,0.0,0.0,0.0,0.0
2025/04/05 15:11:58.919900566,1743858718,110270926,world_ned,mA1/odom,182.60049741495578,11.24546450224149,0.4338060445755669,-7.988299777049679e-05,-1.5898255175525043e-06,-0.06847738769227604,0.9976526655058968,0.0,0.0,0.0,0.0,0.0,0.0,0.0,0.0,0.0,0.0,0.0,0.0,0.0,0.0,0.0,0.0,0.0,0.0,0.0,0.0,0.0,0.0,0.0,0.0,0.0,0.0,0.0,0.0,0.0,0.0,0.0,0.0,0.0,0.0,0.0,0.0,0.2873004927602581,-0.008098076093135826,0.0004097680430647649,0.00010949901172986879,0.001338198582814922,-0.013574078032366143,0.0,0.0,0.0,0.0,0.0,0.0,0.0,0.0,0.0,0.0,0.0,0.0,0.0,0.0,0.0,0.0,0.0,0.0,0.0,0.0,0.0,0.0,0.0,0.0,0.0,0.0,0.0,0.0,0.0,0.0,0.0,0.0,0.0,0.0,0.0,0.0
2025/04/05 15:11:58.920388271,1743858718,205045074,world_ned,mA1/odom,182.62927110265986,11.240691783765898,0.43382838494405407,-0.00010054891960721625,5.246640815924259e-05,-0.06914799365405898,0.9976064064102681,0.0,0.0,0.0,0.0,0.0,0.0,0.0,0.0,0.0,0.0,0.0,0.0,0.0,0.0,0.0,0.0,0.0,0.0,0.0,0.0,0.0,0.0,0.0,0.0,0.0,0.0,0.0,0.0,0.0,0.0,0.0,0.0,0.0,0.0,0.0,0.0,0.29115041722481644,-0.0074866711064855125,9.635269946183561e-05,-0.0009419893704748302,0.001912170615372685,-0.013340230230245212,0.0,0.0,0.0,0.0,0.0,0.0,0.0,0.0,0.0,0.0,0.0,0.0,0.0,0.0,0.0,0.0,0.0,0.0,0.0,0.0,0.0,0.0,0.0,0.0,0.0,0.0,0.0,0.0,0.0,0.0,0.0,0.0,0.0,0.0,0.0,0.0
2025/04/05 15:11:58.920693148,1743858718,307231585,world_ned,mA1/odom,182.6584813110038,11.235870999209912,0.43381269798934696,-0.000165893503367431,0.00012432793891262018,-0.06980745846055429,0.9975604622102798,0.0,0.0,0.0,0.0,0.0,0.0,0.0,0.0,0.0,0.0,0.0,0.0,0.0,0.0,0.0,0.0,0.0,0.0,0.0,0.0,0.0,0.0,0.0,0.0,0.0,0.0,0.0,0.0,0.0,0.0,0.0,0.0,0.0,0.0,0.0,0.0,0.3021326881390935,-0.0070549280641806185,-0.00026402101774500634,-0.0017279507118539111,0.0002018729562173959,-0.013124131235940719,0.0,0.0,0.0,0.0,0.0,0.0,0.0,0.0,0.0,0.0,0.0,0.0,0.0,0.0,0.0,0.0,0.0,0.0,0.0,0.0,0.0,0.0,0.0,0.0,0.0,0.0,0.0,0.0,0.0,0.0,0.0,0.0,0.0,0.0,0.0,0.0
2025/04/05 15:11:58.921077146,1743858718,402027888,world_ned,mA1/odom,182.68797990836367,11.230999345505333,0.43376357693312984,-0.00025797986326007413,0.00021742275612580904,-0.07045641071400702,0.9975148020771594,0.0,0.0,0.0,0.0,0.0,0.0,0.0,0.0,0.0,0.0,0.0,0.0,0.0,0.0,0.0,0.0,0.0,0.0,0.0,0.0,0.0,0.0,0.0,0.0,0.0,0.0,0.0,0.0,0.0,0.0,0.0,0.0,0.0,0.0,0.0,0.0,0.30436087562765957,-0.006905672152833091,-0.0004810726600002618,-0.0020681316095078803,0.0006658280911887637,-0.012920783126189201,0.0,0.0,0.0,0.0,0.0,0.0,0.0,0.0,0.0,0.0,0.0,0.0,0.0,0.0,0.0,0.0,0.0,0.0,0.0,0.0,0.0,0.0,0.0,0.0,0.0,0.0,0.0,0.0,0.0,0.0,0.0,0.0,0.0,0.0,0.0,0.0
2025/04/05 15:11:58.921342817,1743858718,508313837,world_ned,mA1/odom,182.71788958353923,11.226028728690016,0.43369434446559035,-0.00035477245183354226,0.0002969847394774155,-0.07109552696440043,0.9974694040331393,0.0,0.0,0.0,0.0,0.0,0.0,0.0,0.0,0.0,0.0,0.0,0.0,0.0,0.0,0.0,0.0,0.0,0.0,0.0,0.0,0.0,0.0,0.0,0.0,0.0,0.0,0.0,0.0,0.0,0.0,0.0,0.0,0.0,0.0,0.0,0.0,0.3022548854154138,-0.00704405477435748,-0.0005704898602964627,-0.0019398125601663228,0.0020097908116219593,-0.012728028690042794,0.0,0.0,0.0,0.0,0.0,0.0,0.0,0.0,0.0,0.0,0.0,0.0,0.0,0.0,0.0,0.0,0.0,0.0,0.0,0.0,0.0,0.0,0.0,0.0,0.0,0.0,0.0,0.0,0.0,0.0,0.0,0.0,0.0,0.0,0.0,0.0
2025/04/05 15:11:58.923397295,1743858718,609795054,world_ned,mA1/odom,182.7480783442743,11.220950716186673,0.4336214068706656,-0.00043408148827963933,0.0003610913876900318,-0.07172534016121651,0.9974242611672473,0.0,0.0,0.0,0.0,0.0,0.0,0.0,0.0,0.0,0.0,0.0,0.0,0.0,0.0,0.0,0.0,0.0,0.0,0.0,0.0,0.0,0.0,0.0,0.0,0.0,0.0,0.0,0.0,0.0,0.0,0.0,0.0,0.0,0.0,0.0,0.0,0.30617916570945286,-0.007431778275507492,-0.0004910624150761657,-0.0013823898803395627,0.0012838322321272254,-0.012549423138305133,0.0,0.0,0.0,0.0,0.0,0.0,0.0,0.0,0.0,0.0,0.0,0.0,0.0,0.0,0.0,0.0,0.0,0.0,0.0,0.0,0.0,0.0,0.0,0.0,0.0,0.0,0.0,0.0,0.0,0.0,0.0,0.0,0.0,0.0,0.0,0.0
2025/04/05 15:11:59.26526906,1743858718,713347272,world_ned,mA1/odom,182.77861452014847,11.215733373992412,0.4335646515572885,-0.0004787982685419316,0.0003840742423267687,-0.07234641153465707,0.997379376153955,0.0,0.0,0.0,0.0,0.0,0.0,0.0,0.0,0.0,0.0,0.0,0.0,0.0,0.0,0.0,0.0,0.0,0.0,0.0,0.0,0.0,0.0,0.0,0.0,0.0,0.0,0.0,0.0,0.0,0.0,0.0,0.0,0.0,0.0,0.0,0.0,0.31107739874587975,-0.007996395650269746,-0.0002364320109857799,-0.000507455707054914,7.036746567102503e-05,-0.01237734606490886,0.0,0.0,0.0,0.0,0.0,0.0,0.0,0.0,0.0,0.0,0.0,0.0,0.0,0.0,0.0,0.0,0.0,0.0,0.0,0.0,0.0,0.0,0.0,0.0,0.0,0.0,0.0,0.0,0.0,0.0,0.0,0.0,0.0,0.0,0.0,0.0
2025/04/05 15:11:59.171823289,1743858718,813567919,world_ned,mA1/odom,182.80918279618066,11.210418118345538,0.43353885875771153,-0.0004824713836345255,0.0003609869053613105,-0.07294319695888812,0.9973359147886107,0.0,0.0,0.0,0.0,0.0,0.0,0.0,0.0,0.0,0.0,0.0,0.0,0.0,0.0,0.0,0.0,0.0,0.0,0.0,0.0,0.0,0.0,0.0,0.0,0.0,0.0,0.0,0.0,0.0,0.0,0.0,0.0,0.0,0.0,0.0,0.0,0.3058824184615859,-0.008396582158356643,8.697250915269401e-05,0.0002576089797599479,-0.0007416041944097484,-0.011324970596186961,0.0,0.0,0.0,0.0,0.0,0.0,0.0,0.0,0.0,0.0,0.0,0.0,0.0,0.0,0.0,0.0,0.0,0.0,0.0,0.0,0.0,0.0,0.0,0.0,0.0,0.0,0.0,0.0,0.0,0.0,0.0,0.0,0.0,0.0,0.0,0.0
2025/04/05 15:12:00.320732638,1743858719,4161657,world_ned,mA1/odom,182.86913549125146,11.200173335876489,0.4335895373885233,-0.0005488496046934326,-1.0627898525309066e-05,-0.07389120254924864,0.9972661574710059,0.0,0.0,0.0,0.0,0.0,0.0,0.0,0.0,0.0,0.0,0.0,0.0,0.0,0.0,0.0,0.0,0.0,0.0,0.0,0.0,0.0,0.0,0.0,0.0,0.0,0.0,0.0,0.0,0.0,0.0,0.0,0.0,0.0,0.0,0.0,0.0,0.3031083619394434,-0.00479542514316715,0.0005215634787741174,-0.0012618926477586643,-0.006180494463757401,-0.008154437222293672,0.0,0.0,0.0,0.0,0.0,0.0,0.0,0.0,0.0,0.0,0.0,0.0,0.0,0.0,0.0,0.0,0.0,0.0,0.0,0.0,0.0,0.0,0.0,0.0,0.0,0.0,0.0,0.0,0.0,0.0,0.0,0.0,0.0,0.0,0.0,0.0
2025/04/05 15:12:00.320814991,1743858719,101653451,world_ned,mA1/odom,182.89854733132495,11.195454993397002,0.4336566416813271,-0.0006702778134210711,-0.0002886241555802541,-0.07427213390698645,0.9972377437445157,0.0,0.0,0.0,0.0,0.0,0.0,0.0,0.0,0.0,0.0,0.0,0.0,0.0,0.0,0.0,0.0,0.0,0.0,0.0,0.0,0.0,0.0,0.0,0.0,0.0,0.0,0.0,0.0,0.0,0.0,0.0,0.0,0.0,0.0,0.0,0.0,0.29613745423403054,-0.0017362082822962525,0.0005434835405059349,-0.002694194540408927,-0.00591698230822132,-0.0073049598615886014,0.0,0.0,0.0,0.0,0.0,0.0,0.0,0.0,0.0,0.0,0.0,0.0,0.0,0.0,0.0,0.0,0.0,0.0,0.0,0.0,0.0,0.0,0.0,0.0,0.0,0.0,0.0,0.0,0.0,0.0,0.0,0.0,0.0,0.0,0.0,0.0
2025/04/05 15:12:00.458162993,1743858719,303144801,world_ned,mA1/odom,182.9562769390523,11.187192722579642,0.4337981421980426,-0.0011184077808271188,-0.00074377897813253,-0.07494927154708678,0.9971864432749918,0.0,0.0,0.0,0.0,0.0,0.0,0.0,0.0,0.0,0.0,0.0,0.0,0.0,0.0,0.0,0.0,0.0,0.0,0.0,0.0,0.0,0.0,0.0,0.0,0.0,0.0,0.0,0.0,0.0,0.0,0.0,0.0,0.0,0.0,0.0,0.0,0.2931003493358743,0.005719779239827472,6.976428284768504e-05,-0.005165874542951574,-0.004789418037082006,-0.006527202171030018,0.0,0.0,0.0,0.0,0.0,0.0,0.0,0.0,0.0,0.0,0.0,0.0,0.0,0.0,0.0,0.0,0.0,0.0,0.0,0.0,0.0,0.0,0.0,0.0,0.0,0.0,0.0,0.0,0.0,0.0,0.0,0.0,0.0,0.0,0.0,0.0
2025/04/05 15:12:00.458272372,1743858719,409262162,world_ned,mA1/odom,182.9847954789487,11.18365819468657,0.43383065496228,-0.001395522981596262,-0.0008436285246577361,-0.07527562611518836,0.9971614317248169,0.0,0.0,0.0,0.0,0.0,0.0,0.0,0.0,0.0,0.0,0.0,0.0,0.0,0.0,0.0,0.0,0.0,0.0,0.0,0.0,0.0,0.0,0.0,0.0,0.0,0.0,0.0,0.0,0.0,0.0,0.0,0.0,0.0,0.0,0.0,0.0,0.28889369793052255,0.00923247088843873,-0.0003867624373780021,-0.0052921522122001356,-0.0022235402049329807,-0.006561791398530484,0.0,0.0,0.0,0.0,0.0,0.0,0.0,0.0,0.0,0.0,0.0,0.0,0.0,0.0,0.0,0.0,0.0,0.0,0.0,0.0,0.0,0.0,0.0,0.0,0.0,0.0,0.0,0.0,0.0,0.0,0.0,0.0,0.0,0.0,0.0,0.0
2025/04/05 15:12:00.458332999,1743858719,503322844,world_ned,mA1/odom,183.01310537388585,11.180422951137158,0.43382372170415373,-0.0016288292573604232,-0.000833268521140445,-0.07561030067585771,0.9971357655858747,0.0,0.0,0.0,0.0,0.0,0.0,0.0,0.0,0.0,0.0,0.0,0.0,0.0,0.0,0.0,0.0,0.0,0.0,0.0,0.0,0.0,0.0,0.0,0.0,0.0,0.0,0.0,0.0,0.0,0.0,0.0,0.0,0.0,0.0,0.0,0.0,0.2784117670061287,0.011817723161516268,-0.0007454900281545071,-0.004099240665880751,0.002468888525089583,-0.006796913977985268,0.0,0.0,0.0,0.0,0.0,0.0,0.0,0.0,0.0,0.0,0.0,0.0,0.0,0.0,0.0,0.0,0.0,0.0,0.0,0.0,0.0,0.0,0.0,0.0,0.0,0.0,0.0,0.0,0.0,0.0,0.0,0.0,0.0,0.0,0.0,0.0
2025/04/05 15:12:00.458388594,1743858719,605826417,world_ned,mA1/odom,183.04131825989666,11.177452940504114,0.43377916802959404,-0.0017793757130412406,-0.0007188724619574285,-0.07595181804010807,0.9971096421060512,0.0,0.0,0.0,0.0,0.0,0.0,0.0,0.0,0.0,0.0,0.0,0.0,0.0,0.0,0.0,0.0,0.0,0.0,0.0,0.0,0.0,0.0,0.0,0.0,0.0,0.0,0.0,0.0,0.0,0.0,0.0,0.0,0.0,0.0,0.0,0.0,0.2846432580631423,0.014460513049275217,-0.0010191168770439158,-0.002343785981287508,0.002461518725262905,-0.006899052834439868,0.0,0.0,0.0,0.0,0.0,0.0,0.0,0.0,0.0,0.0,0.0,0.0,0.0,0.0,0.0,0.0,0.0,0.0,0.0,0.0,0.0,0.0,0.0,0.0,0.0,0.0,0.0,0.0,0.0,0.0,0.0,0.0,0.0,0.0,0.0,0.0
2025/04/05 15:12:00.458438221,1743858719,712626036,world_ned,mA1/odom,183.06924448516543,11.17476848734253,0.43370829480521783,-0.0018214362054817506,-0.0004936942762610877,-0.0762973079836648,0.9970833262223157,0.0,0.0,0.0,0.0,0.0,0.0,0.0,0.0,0.0,0.0,0.0,0.0,0.0,0.0,0.0,0.0,0.0,0.0,0.0,0.0,0.0,0.0,0.0,0.0,0.0,0.0,0.0,0.0,0.0,0.0,0.0,0.0,0.0,0.0,0.0,0.0,0.2809466070247345,0.01709792786968473,-0.0010575813395444452,-0.00023864847387167933,0.0046313114813451815,-0.006839191864968052,0.0,0.0,0.0,0.0,0.0,0.0,0.0,0.0,0.0,0.0,0.0,0.0,0.0,0.0,0.0,0.0,0.0,0.0,0.0,0.0,0.0,0.0,0.0,0.0,0.0,0.0,0.0,0.0,0.0,0.0,0.0,0.0,0.0,0.0,0.0,0.0
2025/04/05 15:12:00.849715765,1743858719,806298722,world_ned,mA1/odom,183.09700421147448,11.172350353900269,0.43362981835879477,-0.0017505791536866241,-0.0002167824550761915,-0.07663960113058951,0.9970573002674109,0.0,0.0,0.0,0.0,0.0,0.0,0.0,0.0,0.0,0.0,0.0,0.0,0.0,0.0,0.0,0.0,0.0,0.0,0.0,0.0,0.0,0.0,0.0,0.0,0.0,0.0,0.0,0.0,0.0,0.0,0.0,0.0,0.0,0.0,0.0,0.0,0.2758106086814352,0.01945454831202065,-0.0008881288946868199,0.0020294653662052105,0.006270896626742467,-0.0069494280108394636,0.0,0.0,0.0,0.0,0.0,0.0,0.0,0.0,0.0,0.0,0.0,0.0,0.0,0.0,0.0,0.0,0.0,0.0,0.0,0.0,0.0,0.0,0.0,0.0,0.0,0.0,0.0,0.0,0.0,0.0,0.0,0.0,0.0,0.0,0.0,0.0
2025/04/05 15:12:00.849805380,1743858719,901615262,world_ned,mA1/odom,183.1244897056644,11.17018620620803,0.43356386600425884,-0.0015700551740233518,7.097163110877057e-05,-0.07699099018128187,0.9970305498432251,0.0,0.0,0.0,0.0,0.0,0.0,0.0,0.0,0.0,0.0,0.0,0.0,0.0,0.0,0.0,0.0,0.0,0.0,0.0,0.0,0.0,0.0,0.0,0.0,0.0,0.0,0.0,0.0,0.0,0.0,0.0,0.0,0.0,0.0,0.0,0.0,0.27163255571119677,0.0217976381966175,-0.0004982395735896001,0.003981291183939224,0.006312309095583851,-0.007042893905128713,0.0,0.0,0.0,0.0,0.0,0.0,0.0,0.0,0.0,0.0,0.0,0.0,0.0,0.0,0.0,0.0,0.0,0.0,0.0,0.0,0.0,0.0,0.0,0.0,0.0,0.0,0.0,0.0,0.0,0.0,0.0,0.0,0.0,0.0,0.0,0.0
2025/04/05 15:12:00.849856499,1743858720,9502759,world_ned,mA1/odom,183.15166866667528,11.168323414562634,0.43353011579309864,-0.0013218890184947259,0.0003163230627809569,-0.07734737972349916,0.9970032775267349,0.0,0.0,0.0,0.0,0.0,0.0,0.0,0.0,0.0,0.0,0.0,0.0,0.0,0.0,0.0,0.0,0.0,0.0,0.0,0.0,0.0,0.0,0.0,0.0,0.0,0.0,0.0,0.0,0.0,0.0,0.0,0.0,0.0,0.0,0.0,0.0,0.2686465430766197,0.024901791366113667,1.8317296519542e-05,0.004862140638727099,0.005033290482787359,-0.007230095000384237,0.0,0.0,0.0,0.0,0.0,0.0,0.0,0.0,0.0,0.0,0.0,0.0,0.0,0.0,0.0,0.0,0.0,0.0,0.0,0.0,0.0,0.0,0.0,0.0,0.0,0.0,0.0,0.0,0.0,0.0,0.0,0.0,0.0,0.0,0.0,0.0
2025/04/05 15:12:00.849903488,1743858720,102734545,world_ned,mA1/odom,183.1784833920746,11.166881076064321,0.4335345147383879,-0.0010756863585015717,0.0004903856552178353,-0.07770507075161205,0.9969756889715287,0.0,0.0,0.0,0.0,0.0,0.0,0.0,0.0,0.0,0.0,0.0,0.0,0.0,0.0,0.0,0.0,0.0,0.0,0.0,0.0,0.0,0.0,0.0,0.0,0.0,0.0,0.0,0.0,0.0,0.0,0.0,0.0,0.0,0.0,0.0,0.0,0.261226185635231,0.029470662345645784,0.0004895315238608835,0.004118558240964911,0.004125020062284457,-0.00692558489255026,0.0,0.0,0.0,0.0,0.0,0.0,0.0,0.0,0.0,0.0,0.0,0.0,0.0,0.0,0.0,0.0,0.0,0.0,0.0,0.0,0.0,0.0,0.0,0.0,0.0,0.0,0.0,0.0,0.0,0.0,0.0,0.0,0.0,0.0,0.0,0.0
2025/04/05 15:12:00.849944021,1743858720,201926293,world_ned,mA1/odom,183.20511810176623,11.165957471637398,0.43357472978063966,-0.0009085652909743185,0.0005476990686865645,-0.07804121374200934,0.9969495691821709,0.0,0.0,0.0,0.0,0.0,0.0,0.0,0.0,0.0,0.0,0.0,0.0,0.0,0.0,0.0,0.0,0.0,0.0,0.0,0.0,0.0,0.0,0.0,0.0,0.0,0.0,0.0,0.0,0.0,0.0,0.0,0.0,0.0,0.0,0.0,0.0,0.2606308551165346,0.03458884865120658,0.0008536409561891706,0.0024016825888845887,0.0010322370581253547,-0.006565899803931501,0.0,0.0,0.0,0.0,0.0,0.0,0.0,0.0,0.0,0.0,0.0,0.0,0.0,0.0,0.0,0.0,0.0,0.0,0.0,0.0,0.0,0.0,0.0,0.0,0.0,0.0,0.0,0.0,0.0,0.0,0.0,0.0,0.0,0.0,0.0,0.0
2025/04/05 15:12:00.850476994,1743858720,310288210,world_ned,mA1/odom,183.23132657480215,11.165628228643444,0.43363909563123787,-0.0008523674513744001,0.0005237242686422948,-0.07835403059712617,0.9969250950155698,0.0,0.0,0.0,0.0,0.0,0.0,0.0,0.0,0.0,0.0,0.0,0.0,0.0,0.0,0.0,0.0,0.0,0.0,0.0,0.0,0.0,0.0,0.0,0.0,0.0,0.0,0.0,0.0,0.0,0.0,0.0,0.0,0.0,0.0,0.0,0.0,0.26227121785236435,0.040136559007876105,0.001024255644069265,8.927044425595245e-05,-0.002589564264916824,-0.006015166505151967,0.0,0.0,0.0,0.0,0.0,0.0,0.0,0.0,0.0,0.0,0.0,0.0,0.0,0.0,0.0,0.0,0.0,0.0,0.0,0.0,0.0,0.0,0.0,0.0,0.0,0.0,0.0,0.0,0.0,0.0,0.0,0.0,0.0,0.0,0.0,0.0
2025/04/05 15:12:00.850607033,1743858720,405974675,world_ned,mA1/odom,183.257458036614,11.165862538249533,0.43371189200696625,-0.0009266372535648875,0.0003842094332972574,-0.07863542936584474,0.9969029355834804,0.0,0.0,0.0,0.0,0.0,0.0,0.0,0.0,0.0,0.0,0.0,0.0,0.0,0.0,0.0,0.0,0.0,0.0,0.0,0.0,0.0,0.0,0.0,0.0,0.0,0.0,0.0,0.0,0.0,0.0,0.0,0.0,0.0,0.0,0.0,0.0,0.25446325517469515,0.04567394208728397,0.0009500662586296384,-0.0022836148922416423,-0.003136264531390651,-0.005333161454004865,0.0,0.0,0.0,0.0,0.0,0.0,0.0,0.0,0.0,0.0,0.0,0.0,0.0,0.0,0.0,0.0,0.0,0.0,0.0,0.0,0.0,0.0,0.0,0.0,0.0,0.0,0.0,0.0,0.0,0.0,0.0,0.0,0.0,0.0,0.0,0.0
2025/04/05 15:12:01.63169575,1743858720,503064992,world_ned,mA1/odom,183.28339967740072,11.16665362651319,0.4337738625517553,-0.001109765837645668,0.00018192744472349013,-0.07887920839403031,0.9968835467622693,0.0,0.0,0.0,0.0,0.0,0.0,0.0,0.0,0.0,0.0,0.0,0.0,0.0,0.0,0.0,0.0,0.0,0.0,0.0,0.0,0.0,0.0,0.0,0.0,0.0,0.0,0.0,0.0,0.0,0.0,0.0,0.0,0.0,0.0,0.0,0.0,0.2518685371162783,0.05085765045235269,0.000675265590539388,-0.004092048760039085,-0.004120080984373644,-0.004521256375648173,0.0,0.0,0.0,0.0,0.0,0.0,0.0,0.0,0.0,0.0,0.0,0.0,0.0,0.0,0.0,0.0,0.0,0.0,0.0,0.0,0.0,0.0,0.0,0.0,0.0,0.0,0.0,0.0,0.0,0.0,0.0,0.0,0.0,0.0,0.0,0.0
2025/04/05 15:12:01.281851498,1743858720,605887064,world_ned,mA1/odom,183.30925370713732,11.167947369870337,0.43380816460187116,-0.0013634124561203204,-4.384157586046356e-05,-0.07907857382634055,0.9968674527468447,0.0,0.0,0.0,0.0,0.0,0.0,0.0,0.0,0.0,0.0,0.0,0.0,0.0,0.0,0.0,0.0,0.0,0.0,0.0,0.0,0.0,0.0,0.0,0.0,0.0,0.0,0.0,0.0,0.0,0.0,0.0,0.0,0.0,0.0,0.0,0.0,0.25306626233613067,0.05557057448697513,0.00027389553997658923,-0.005048152255315635,-0.00494516479984129,-0.0035599155286130907,0.0,0.0,0.0,0.0,0.0,0.0,0.0,0.0,0.0,0.0,0.0,0.0,0.0,0.0,0.0,0.0,0.0,0.0,0.0,0.0,0.0,0.0,0.0,0.0,0.0,0.0,0.0,0.0,0.0,0.0,0.0,0.0,0.0,0.0,0.0,0.0
2025/04/05 15:12:01.281929229,1743858720,707577145,world_ned,mA1/odom,183.33506401047987,11.169680827468977,0.4338048325057836,-0.0016326426023094594,-0.0002418389763539243,-0.07922611019167493,0.996855305175199,0.0,0.0,0.0,0.0,0.0,0.0,0.0,0.0,0.0,0.0,0.0,0.0,0.0,0.0,0.0,0.0,0.0,0.0,0.0,0.0,0.0,0.0,0.0,0.0,0.0,0.0,0.0,0.0,0.0,0.0,0.0,0.0,0.0,0.0,0.0,0.0,0.25201729069464746,0.059611417885642004,-0.0002129472998494789,-0.004880294389346437,-0.0039044091104623803,-0.0024594533420831863,0.0,0.0,0.0,0.0,0.0,0.0,0.0,0.0,0.0,0.0,0.0,0.0,0.0,0.0,0.0,0.0,0.0,0.0,0.0,0.0,0.0,0.0,0.0,0.0,0.0,0.0,0.0,0.0,0.0,0.0,0.0,0.0,0.0,0.0,0.0,0.0
2025/04/05 15:12:01.281966740,1743858720,807640394,world_ned,mA1/odom,183.36099876740735,11.171760710013631,0.4337652458322527,-0.0018601057251235262,-0.00038637180961900437,-0.07931572143695695,0.996847735141356,0.0,0.0,0.0,0.0,0.0,0.0,0.0,0.0,0.0,0.0,0.0,0.0,0.0,0.0,0.0,0.0,0.0,0.0,0.0,0.0,0.0,0.0,0.0,0.0,0.0,0.0,0.0,0.0,0.0,0.0,0.0,0.0,0.0,0.0,0.0,0.0,0.25087610157302404,0.06303021136507857,-0.0005720627297125844,-0.0037081888175949738,-0.0018300801561784202,-0.0012464026737650808,0.0,0.0,0.0,0.0,0.0,0.0,0.0,0.0,0.0,0.0,0.0,0.0,0.0,0.0,0.0,0.0,0.0,0.0,0.0,0.0,0.0,0.0,0.0,0.0,0.0,0.0,0.0,0.0,0.0,0.0,0.0,0.0,0.0,0.0,0.0,0.0
2025/04/05 15:12:01.282003341,1743858720,902636427,world_ned,mA1/odom,183.38688770733623,11.174170623794843,0.43370017394098337,-0.0019994419948119687,-0.0004142052823432654,-0.0793409352969272,0.9968454477259262,0.0,0.0,0.0,0.0,0.0,0.0,0.0,0.0,0.0,0.0,0.0,0.0,0.0,0.0,0.0,0.0,0.0,0.0,0.0,0.0,0.0,0.0,0.0,0.0,0.0,0.0,0.0,0.0,0.0,0.0,0.0,0.0,0.0,0.0,0.0,0.0,0.25310649654483636,0.06610922194886229,-0.000739196607335534,-0.0018542347251236228,1.8201890396090907e-05,0.00011676355618285611,0.0,0.0,0.0,0.0,0.0,0.0,0.0,0.0,0.0,0.0,0.0,0.0,0.0,0.0,0.0,0.0,0.0,0.0,0.0,0.0,0.0,0.0,0.0,0.0,0.0,0.0,0.0,0.0,0.0,0.0,0.0,0.0,0.0,0.0,0.0,0.0
2025/04/05 15:12:02.609955433,1743858721,202596060,world_ned,mA1/odom,183.46592514242664,11.18299935450738,0.43353882024178186,-0.0017499303622908928,1.245602501029357e-05,-0.07897457210345041,0.9968750947584414,0.0,0.0,0.0,0.0,0.0,0.0,0.0,0.0,0.0,0.0,0.0,0.0,0.0,0.0,0.0,0.0,0.0,0.0,0.0,0.0,0.0,0.0,0.0,0.0,0.0,0.0,0.0,0.0,0.0,0.0,0.0,0.0,0.0,0.0,0.0,0.0,0.26147866226946614,0.07522732833528983,6.800430718643282e-05,0.004014933698702874,0.0038312123112980213,0.004764508410069172,0.0,0.0,0.0,0.0,0.0,0.0,0.0,0.0,0.0,0.0,0.0,0.0,0.0,0.0,0.0,0.0,0.0,0.0,0.0,0.0,0.0,0.0,0.0,0.0,0.0,0.0,0.0,0.0,0.0,0.0,0.0,0.0,0.0,0.0,0.0,0.0
2025/04/05 15:12:03.92717377,1743858721,510770299,world_ned,mA1/odom,183.546098955781,11.195085326113123,0.4336527405412954,-0.0010674383707220832,0.0006804446175373365,-0.07785448239440328,0.9969639297093685,0.0,0.0,0.0,0.0,0.0,0.0,0.0,0.0,0.0,0.0,0.0,0.0,0.0,0.0,0.0,0.0,0.0,0.0,0.0,0.0,0.0,0.0,0.0,0.0,0.0,0.0,0.0,0.0,0.0,0.0,0.0,0.0,0.0,0.0,0.0,0.0,0.2548277042363337,0.0882209151817569,0.0011964740011000024,0.003027217051738066,0.0040406085589048445,0.010152815030822321,0.0,0.0,0.0,0.0,0.0,0.0,0.0,0.0,0.0,0.0,0.0,0.0,0.0,0.0,0.0,0.0,0.0,0.0,0.0,0.0,0.0,0.0,0.0,0.0,0.0,0.0,0.0,0.0,0.0,0.0,0.0,0.0,0.0,0.0,0.0,0.0
