time,header_stamp_secs,header_stamp_nsecs,header_frame_id,name_0,name_1,name_2,name_3,position_0,position_1,position_2,position_3
2025/04/05 15:11:51.745101006,0,0,,mA1/azimuth_1_joint,mA1/azimuth_2_joint,mA1/azimuth_3_joint,mA1/azimuth_4_joint,3.141592653589793,-1.5533430342749532,0.0,1.5707963267948966
2025/04/05 15:11:51.854482423,0,0,,mA1/azimuth_1_joint,mA1/azimuth_2_joint,mA1/azimuth_3_joint,mA1/azimuth_4_joint,3.141592653589793,-1.5533430342749532,0.0,1.5707963267948966
2025/04/05 15:11:51.947361669,0,0,,mA1/azimuth_1_joint,mA1/azimuth_2_joint,mA1/azimuth_3_joint,mA1/azimuth_4_joint,3.141592653589793,-1.5533430342749532,0.0,1.5707963267948966
2025/04/05 15:11:52.51059575,0,0,,mA1/azimuth_1_joint,mA1/azimuth_2_joint,mA1/azimuth_3_joint,mA1/azimuth_4_joint,3.141592653589793,-1.5533430342749532,0.0,1.5707963267948966
2025/04/05 15:11:52.145839528,0,0,,mA1/azimuth_1_joint,mA1/azimuth_2_joint,mA1/azimuth_3_joint,mA1/azimuth_4_joint,3.141592653589793,-1.5533430342749532,0.0,1.5707963267948966
2025/04/05 15:11:52.246568985,0,0,,mA1/azimuth_1_joint,mA1/azimuth_2_joint,mA1/azimuth_3_joint,mA1/azimuth_4_joint,3.141592653589793,-1.5533430342749532,0.0,1.5707963267948966
2025/04/05 15:11:52.344349095,0,0,,mA1/azimuth_1_joint,mA1/azimuth_2_joint,mA1/azimuth_3_joint,mA1/azimuth_4_joint,3.141592653589793,-1.5533430342749532,0.0,1.5707963267948966
2025/04/05 15:11:52.448503874,0,0,,mA1/azimuth_1_joint,mA1/azimuth_2_joint,mA1/azimuth_3_joint,mA1/azimuth_4_joint,3.141592653589793,-1.5533430342749532,0.0,1.5707963267948966
2025/04/05 15:11:52.548846861,0,0,,mA1/azimuth_1_joint,mA1/azimuth_2_joint,mA1/azimuth_3_joint,mA1/azimuth_4_joint,3.141592653589793,-1.5533430342749532,0.0,1.5707963267948966
2025/04/05 15:11:52.646495492,0,0,,mA1/azimuth_1_joint,mA1/azimuth_2_joint,mA1/azimuth_3_joint,mA1/azimuth_4_joint,3.141592653589793,-1.5533430342749532,0.0,1.5707963267948966
2025/04/05 15:11:52.747773062,0,0,,mA1/azimuth_1_joint,mA1/azimuth_2_joint,mA1/azimuth_3_joint,mA1/azimuth_4_joint,0.5759586531581288,-1.5533430342749532,-0.13962634015954636,0.0
2025/04/05 15:11:52.848063867,0,0,,mA1/azimuth_1_joint,mA1/azimuth_2_joint,mA1/azimuth_3_joint,mA1/azimuth_4_joint,0.5759586531581288,-1.5533430342749532,-0.13962634015954636,0.0
2025/04/05 15:11:52.948568731,0,0,,mA1/azimuth_1_joint,mA1/azimuth_2_joint,mA1/azimuth_3_joint,mA1/azimuth_4_joint,2.234021442552742,-1.5533430342749532,-0.17453292519943295,0.0
2025/04/05 15:11:53.44647081,0,0,,mA1/azimuth_1_joint,mA1/azimuth_2_joint,mA1/azimuth_3_joint,mA1/azimuth_4_joint,0.03490658503988659,-1.5533430342749532,-0.12217304763960307,0.0
2025/04/05 15:11:53.148201671,0,0,,mA1/azimuth_1_joint,mA1/azimuth_2_joint,mA1/azimuth_3_joint,mA1/azimuth_4_joint,0.03490658503988659,-1.5533430342749532,-0.12217304763960307,0.0
2025/04/05 15:11:53.246885048,0,0,,mA1/azimuth_1_joint,mA1/azimuth_2_joint,mA1/azimuth_3_joint,mA1/azimuth_4_joint,0.03490658503988659,-1.5533430342749532,-0.12217304763960307,0.0
2025/04/05 15:11:53.344601904,0,0,,mA1/azimuth_1_joint,mA1/azimuth_2_joint,mA1/azimuth_3_joint,mA1/azimuth_4_joint,6.265732014659643,-1.5533430342749532,-0.10471975511965978,0.0
2025/04/05 15:11:53.444849294,0,0,,mA1/azimuth_1_joint,mA1/azimuth_2_joint,mA1/azimuth_3_joint,mA1/azimuth_4_joint,6.265732014659643,-1.5533430342749532,-0.10471975511965978,0.0
2025/04/05 15:11:53.552712905,0,0,,mA1/azimuth_1_joint,mA1/azimuth_2_joint,mA1/azimuth_3_joint,mA1/azimuth_4_joint,6.265732014659643,-1.5533430342749532,-0.06981317007977318,0.0
2025/04/05 15:11:53.647804967,0,0,,mA1/azimuth_1_joint,mA1/azimuth_2_joint,mA1/azimuth_3_joint,mA1/azimuth_4_joint,5.515240436302081,-1.5533430342749532,-0.05235987755982989,0.0
2025/04/05 15:11:53.748851120,0,0,,mA1/azimuth_1_joint,mA1/azimuth_2_joint,mA1/azimuth_3_joint,mA1/azimuth_4_joint,0.9773843811168246,-1.5707963267948966,-0.06981317007977318,0.0
2025/04/05 15:11:53.850674899,0,0,,mA1/azimuth_1_joint,mA1/azimuth_2_joint,mA1/azimuth_3_joint,mA1/azimuth_4_joint,5.567600313861911,-1.5533430342749532,-0.06981317007977318,0.0
2025/04/05 15:11:53.946163499,0,0,,mA1/azimuth_1_joint,mA1/azimuth_2_joint,mA1/azimuth_3_joint,mA1/azimuth_4_joint,5.462880558742252,-1.5533430342749532,-0.06981317007977318,0.0
2025/04/05 15:11:54.44780006,0,0,,mA1/azimuth_1_joint,mA1/azimuth_2_joint,mA1/azimuth_3_joint,mA1/azimuth_4_joint,5.619960191421741,-1.5533430342749532,-0.06981317007977318,0.0
2025/04/05 15:11:54.145614764,0,0,,mA1/azimuth_1_joint,mA1/azimuth_2_joint,mA1/azimuth_3_joint,mA1/azimuth_4_joint,4.71238898038469,-1.5707963267948966,-0.06981317007977318,0.0
2025/04/05 15:11:54.243770032,0,0,,mA1/azimuth_1_joint,mA1/azimuth_2_joint,mA1/azimuth_3_joint,mA1/azimuth_4_joint,4.6774823953448035,-1.5707963267948966,-0.017453292519943295,0.0
2025/04/05 15:11:54.344217949,0,0,,mA1/azimuth_1_joint,mA1/azimuth_2_joint,mA1/azimuth_3_joint,mA1/azimuth_4_joint,5.427973973702365,-1.5533430342749532,-0.017453292519943295,0.0
2025/04/05 15:11:54.444939533,0,0,,mA1/azimuth_1_joint,mA1/azimuth_2_joint,mA1/azimuth_3_joint,mA1/azimuth_4_joint,5.8817595792208905,-1.5533430342749532,-0.017453292519943295,0.0
2025/04/05 15:11:54.543897511,0,0,,mA1/azimuth_1_joint,mA1/azimuth_2_joint,mA1/azimuth_3_joint,mA1/azimuth_4_joint,5.602506898901797,-1.5533430342749532,-0.017453292519943295,0.0
2025/04/05 15:11:54.644182591,0,0,,mA1/azimuth_1_joint,mA1/azimuth_2_joint,mA1/azimuth_3_joint,mA1/azimuth_4_joint,5.602506898901797,-1.5533430342749532,-0.017453292519943295,0.0
2025/04/05 15:11:54.743917677,0,0,,mA1/azimuth_1_joint,mA1/azimuth_2_joint,mA1/azimuth_3_joint,mA1/azimuth_4_joint,5.6374134839416845,-1.5533430342749532,-0.017453292519943295,0.0
2025/04/05 15:11:54.845240825,0,0,,mA1/azimuth_1_joint,mA1/azimuth_2_joint,mA1/azimuth_3_joint,mA1/azimuth_4_joint,5.6374134839416845,-1.5533430342749532,-0.017453292519943295,0.0
2025/04/05 15:11:54.948034429,0,0,,mA1/azimuth_1_joint,mA1/azimuth_2_joint,mA1/azimuth_3_joint,mA1/azimuth_4_joint,5.689773361501515,-1.5533430342749532,-0.017453292519943295,0.0
2025/04/05 15:11:55.49591156,0,0,,mA1/azimuth_1_joint,mA1/azimuth_2_joint,mA1/azimuth_3_joint,mA1/azimuth_4_joint,5.567600313861911,-1.5533430342749532,-0.017453292519943295,0.0
2025/04/05 15:11:55.146834933,0,0,,mA1/azimuth_1_joint,mA1/azimuth_2_joint,mA1/azimuth_3_joint,mA1/azimuth_4_joint,6.2482787221397,-1.5533430342749532,-0.017453292519943295,0.0
2025/04/05 15:11:55.270616516,0,0,,mA1/azimuth_1_joint,mA1/azimuth_2_joint,mA1/azimuth_3_joint,mA1/azimuth_4_joint,5.689773361501515,-1.5533430342749532,-0.017453292519943295,0.0
2025/04/05 15:11:55.350055347,0,0,,mA1/azimuth_1_joint,mA1/azimuth_2_joint,mA1/azimuth_3_joint,mA1/azimuth_4_joint,5.375614096142535,-1.5533430342749532,-0.017453292519943295,0.0
2025/04/05 15:11:55.483220377,0,0,,mA1/azimuth_1_joint,mA1/azimuth_2_joint,mA1/azimuth_3_joint,mA1/azimuth_4_joint,1.0122909661567112,-1.5707963267948966,-0.017453292519943295,0.0
2025/04/05 15:11:55.557079281,0,0,,mA1/azimuth_1_joint,mA1/azimuth_2_joint,mA1/azimuth_3_joint,mA1/azimuth_4_joint,5.270894341022875,-1.5533430342749532,-0.017453292519943295,0.0
2025/04/05 15:11:55.652311867,0,0,,mA1/azimuth_1_joint,mA1/azimuth_2_joint,mA1/azimuth_3_joint,mA1/azimuth_4_joint,5.270894341022875,-1.5533430342749532,-0.017453292519943295,0.0
2025/04/05 15:11:55.749591338,0,0,,mA1/azimuth_1_joint,mA1/azimuth_2_joint,mA1/azimuth_3_joint,mA1/azimuth_4_joint,6.213372137099813,-1.5533430342749532,-0.017453292519943295,0.0
2025/04/05 15:11:55.883123377,0,0,,mA1/azimuth_1_joint,mA1/azimuth_2_joint,mA1/azimuth_3_joint,mA1/azimuth_4_joint,0.9948376736367679,-1.5707963267948966,-0.017453292519943295,0.0
2025/04/05 15:11:55.952043683,0,0,,mA1/azimuth_1_joint,mA1/azimuth_2_joint,mA1/azimuth_3_joint,mA1/azimuth_4_joint,5.567600313861911,-1.5533430342749532,-0.017453292519943295,0.0
2025/04/05 15:11:56.97407416,0,0,,mA1/azimuth_1_joint,mA1/azimuth_2_joint,mA1/azimuth_3_joint,mA1/azimuth_4_joint,5.689773361501515,-1.5533430342749532,-0.017453292519943295,0.0
2025/04/05 15:11:56.170062287,0,0,,mA1/azimuth_1_joint,mA1/azimuth_2_joint,mA1/azimuth_3_joint,mA1/azimuth_4_joint,5.550147021341968,-1.5533430342749532,-0.017453292519943295,0.0
2025/04/05 15:11:56.247442351,0,0,,mA1/azimuth_1_joint,mA1/azimuth_2_joint,mA1/azimuth_3_joint,mA1/azimuth_4_joint,5.550147021341968,-1.5533430342749532,-0.017453292519943295,0.0
2025/04/05 15:11:56.415037899,0,0,,mA1/azimuth_1_joint,mA1/azimuth_2_joint,mA1/azimuth_3_joint,mA1/azimuth_4_joint,3.4033920413889427,-1.5707963267948966,-0.017453292519943295,0.0
2025/04/05 15:11:56.480707932,0,0,,mA1/azimuth_1_joint,mA1/azimuth_2_joint,mA1/azimuth_3_joint,mA1/azimuth_4_joint,5.619960191421741,-1.5533430342749532,-0.017453292519943295,0.0
2025/04/05 15:11:56.554634386,0,0,,mA1/azimuth_1_joint,mA1/azimuth_2_joint,mA1/azimuth_3_joint,mA1/azimuth_4_joint,1.064650843716541,-1.5707963267948966,-0.017453292519943295,0.0
2025/04/05 15:11:56.691370708,0,0,,mA1/azimuth_1_joint,mA1/azimuth_2_joint,mA1/azimuth_3_joint,mA1/azimuth_4_joint,5.253441048502932,-1.5533430342749532,-0.017453292519943295,0.0
2025/04/05 15:11:56.816503546,0,0,,mA1/azimuth_1_joint,mA1/azimuth_2_joint,mA1/azimuth_3_joint,mA1/azimuth_4_joint,6.2482787221397,-1.5533430342749532,-0.017453292519943295,0.0
2025/04/05 15:11:56.914618023,0,0,,mA1/azimuth_1_joint,mA1/azimuth_2_joint,mA1/azimuth_3_joint,mA1/azimuth_4_joint,5.689773361501515,-1.5533430342749532,-0.017453292519943295,0.0
2025/04/05 15:11:56.992169411,0,0,,mA1/azimuth_1_joint,mA1/azimuth_2_joint,mA1/azimuth_3_joint,mA1/azimuth_4_joint,5.654866776461628,-1.5533430342749532,-0.017453292519943295,0.0
2025/04/05 15:11:57.139567142,0,0,,mA1/azimuth_1_joint,mA1/azimuth_2_joint,mA1/azimuth_3_joint,mA1/azimuth_4_joint,5.916666164260777,-1.5533430342749532,-0.017453292519943295,0.0
2025/04/05 15:11:57.319789187,0,0,,mA1/azimuth_1_joint,mA1/azimuth_2_joint,mA1/azimuth_3_joint,mA1/azimuth_4_joint,5.654866776461628,-1.5533430342749532,-0.017453292519943295,0.0
2025/04/05 15:11:57.382907159,0,0,,mA1/azimuth_1_joint,mA1/azimuth_2_joint,mA1/azimuth_3_joint,mA1/azimuth_4_joint,5.113814708343385,-1.5533430342749532,-0.017453292519943295,0.0
2025/04/05 15:11:57.466626151,0,0,,mA1/azimuth_1_joint,mA1/azimuth_2_joint,mA1/azimuth_3_joint,mA1/azimuth_4_joint,5.497787143782138,-1.5533430342749532,-0.017453292519943295,0.0
2025/04/05 15:11:57.682076447,0,0,,mA1/azimuth_1_joint,mA1/azimuth_2_joint,mA1/azimuth_3_joint,mA1/azimuth_4_joint,5.497787143782138,-1.5533430342749532,-0.017453292519943295,0.0
2025/04/05 15:11:57.785106925,0,0,,mA1/azimuth_1_joint,mA1/azimuth_2_joint,mA1/azimuth_3_joint,mA1/azimuth_4_joint,5.6374134839416845,-1.5533430342749532,-0.017453292519943295,0.0
2025/04/05 15:11:57.838277953,0,0,,mA1/azimuth_1_joint,mA1/azimuth_2_joint,mA1/azimuth_3_joint,mA1/azimuth_4_joint,5.3930673886624785,-1.5533430342749532,-0.017453292519943295,0.0
2025/04/05 15:11:57.906691878,0,0,,mA1/azimuth_1_joint,mA1/azimuth_2_joint,mA1/azimuth_3_joint,mA1/azimuth_4_joint,5.3930673886624785,-1.5533430342749532,-0.017453292519943295,0.0
2025/04/05 15:11:58.100529349,0,0,,mA1/azimuth_1_joint,mA1/azimuth_2_joint,mA1/azimuth_3_joint,mA1/azimuth_4_joint,0.017453292519943295,-1.5533430342749532,-0.017453292519943295,0.0
2025/04/05 15:11:58.173434027,0,0,,mA1/azimuth_1_joint,mA1/azimuth_2_joint,mA1/azimuth_3_joint,mA1/azimuth_4_joint,5.8817595792208905,-1.5533430342749532,-0.017453292519943295,0.0
2025/04/05 15:11:58.441572608,0,0,,mA1/azimuth_1_joint,mA1/azimuth_2_joint,mA1/azimuth_3_joint,mA1/azimuth_4_joint,5.759586531581287,-1.5533430342749532,-0.017453292519943295,0.0
2025/04/05 15:11:58.517759214,0,0,,mA1/azimuth_1_joint,mA1/azimuth_2_joint,mA1/azimuth_3_joint,mA1/azimuth_4_joint,5.515240436302081,-1.5533430342749532,-0.017453292519943295,0.0
2025/04/05 15:11:58.578063993,0,0,,mA1/azimuth_1_joint,mA1/azimuth_2_joint,mA1/azimuth_3_joint,mA1/azimuth_4_joint,5.654866776461628,-1.5533430342749532,-0.017453292519943295,0.0
2025/04/05 15:11:58.584227145,0,0,,mA1/azimuth_1_joint,mA1/azimuth_2_joint,mA1/azimuth_3_joint,mA1/azimuth_4_joint,5.742133239061344,-1.5533430342749532,-0.017453292519943295,0.0
2025/04/05 15:11:58.677137639,0,0,,mA1/azimuth_1_joint,mA1/azimuth_2_joint,mA1/azimuth_3_joint,mA1/azimuth_4_joint,5.742133239061344,-1.5533430342749532,-0.017453292519943295,0.0
2025/04/05 15:11:58.911869707,0,0,,mA1/azimuth_1_joint,mA1/azimuth_2_joint,mA1/azimuth_3_joint,mA1/azimuth_4_joint,5.742133239061344,-1.5533430342749532,-0.017453292519943295,0.0
2025/04/05 15:11:59.48179471,0,0,,mA1/azimuth_1_joint,mA1/azimuth_2_joint,mA1/azimuth_3_joint,mA1/azimuth_4_joint,1.5533430342749532,-4.71238898038469,0.0,0.13962634015954636
2025/04/05 15:11:59.296117384,0,0,,mA1/azimuth_1_joint,mA1/azimuth_2_joint,mA1/azimuth_3_joint,mA1/azimuth_4_joint,1.5533430342749532,-4.71238898038469,0.0,0.13962634015954636
2025/04/05 15:11:59.415196767,0,0,,mA1/azimuth_1_joint,mA1/azimuth_2_joint,mA1/azimuth_3_joint,mA1/azimuth_4_joint,1.5533430342749532,-5.497787143782138,0.0,0.29670597283903605
2025/04/05 15:11:59.665803543,0,0,,mA1/azimuth_1_joint,mA1/azimuth_2_joint,mA1/azimuth_3_joint,mA1/azimuth_4_joint,1.5533430342749532,-6.056292504420323,0.0,0.2792526803190927
2025/04/05 15:11:59.729882908,0,0,,mA1/azimuth_1_joint,mA1/azimuth_2_joint,mA1/azimuth_3_joint,mA1/azimuth_4_joint,1.5533430342749532,-5.497787143782138,0.0,0.2792526803190927
2025/04/05 15:11:59.999626552,0,0,,mA1/azimuth_1_joint,mA1/azimuth_2_joint,mA1/azimuth_3_joint,mA1/azimuth_4_joint,1.5533430342749532,-5.497787143782138,0.0,0.2617993877991494
2025/04/05 15:12:00.129687920,0,0,,mA1/azimuth_1_joint,mA1/azimuth_2_joint,mA1/azimuth_3_joint,mA1/azimuth_4_joint,1.5533430342749532,-0.7504915783575618,0.0,0.2617993877991494
2025/04/05 15:12:00.180514712,0,0,,mA1/azimuth_1_joint,mA1/azimuth_2_joint,mA1/azimuth_3_joint,mA1/azimuth_4_joint,1.5707963267948966,-0.3141592653589793,0.0,0.24434609527920614
2025/04/05 15:12:00.259592782,0,0,,mA1/azimuth_1_joint,mA1/azimuth_2_joint,mA1/azimuth_3_joint,mA1/azimuth_4_joint,1.5533430342749532,-5.550147021341968,0.0,0.22689280275926285
2025/04/05 15:12:00.538736945,0,0,,mA1/azimuth_1_joint,mA1/azimuth_2_joint,mA1/azimuth_3_joint,mA1/azimuth_4_joint,1.5533430342749532,-5.550147021341968,0.0,0.22689280275926285
2025/04/05 15:12:00.806817489,0,0,,mA1/azimuth_1_joint,mA1/azimuth_2_joint,mA1/azimuth_3_joint,mA1/azimuth_4_joint,1.5533430342749532,-5.532693728822025,0.0,0.22689280275926285
2025/04/05 15:12:00.857628919,0,0,,mA1/azimuth_1_joint,mA1/azimuth_2_joint,mA1/azimuth_3_joint,mA1/azimuth_4_joint,1.5533430342749532,-5.462880558742252,0.0,0.22689280275926285
2025/04/05 15:12:00.980282462,0,0,,mA1/azimuth_1_joint,mA1/azimuth_2_joint,mA1/azimuth_3_joint,mA1/azimuth_4_joint,1.5533430342749532,-5.567600313861911,0.0,0.22689280275926285
2025/04/05 15:12:01.498724725,0,0,,mA1/azimuth_1_joint,mA1/azimuth_2_joint,mA1/azimuth_3_joint,mA1/azimuth_4_joint,1.5533430342749532,-5.567600313861911,0.0,0.22689280275926285
2025/04/05 15:12:01.807222348,0,0,,mA1/azimuth_1_joint,mA1/azimuth_2_joint,mA1/azimuth_3_joint,mA1/azimuth_4_joint,1.5533430342749532,-0.5235987755982988,0.0,0.22689280275926285
2025/04/05 15:12:02.171477598,0,0,,mA1/azimuth_1_joint,mA1/azimuth_2_joint,mA1/azimuth_3_joint,mA1/azimuth_4_joint,1.5533430342749532,-5.445427266222308,0.0,0.22689280275926285
2025/04/05 15:12:02.371025874,0,0,,mA1/azimuth_1_joint,mA1/azimuth_2_joint,mA1/azimuth_3_joint,mA1/azimuth_4_joint,1.5707963267948966,-0.9250245035569946,0.0,0.22689280275926285
2025/04/05 15:12:02.494540378,0,0,,mA1/azimuth_1_joint,mA1/azimuth_2_joint,mA1/azimuth_3_joint,mA1/azimuth_4_joint,1.5533430342749532,-4.241150082346221,0.0,0.10471975511965978
2025/04/05 15:12:02.871586359,0,0,,mA1/azimuth_1_joint,mA1/azimuth_2_joint,mA1/azimuth_3_joint,mA1/azimuth_4_joint,1.5533430342749532,-5.585053606381854,0.0,0.08726646259971647
2025/04/05 15:12:02.960544401,0,0,,mA1/azimuth_1_joint,mA1/azimuth_2_joint,mA1/azimuth_3_joint,mA1/azimuth_4_joint,1.5533430342749532,-5.585053606381854,0.0,0.08726646259971647
2025/04/05 15:12:03.138308953,0,0,,mA1/azimuth_1_joint,mA1/azimuth_2_joint,mA1/azimuth_3_joint,mA1/azimuth_4_joint,1.5533430342749532,-0.05235987755982989,0.0,0.08726646259971647
2025/04/05 15:12:03.358959348,0,0,,mA1/azimuth_1_joint,mA1/azimuth_2_joint,mA1/azimuth_3_joint,mA1/azimuth_4_joint,1.5533430342749532,-5.567600313861911,0.0,0.08726646259971647
2025/04/05 15:12:03.736623255,0,0,,mA1/azimuth_1_joint,mA1/azimuth_2_joint,mA1/azimuth_3_joint,mA1/azimuth_4_joint,1.5533430342749532,-5.585053606381854,0.0,0.08726646259971647
2025/04/05 15:12:03.868038551,0,0,,mA1/azimuth_1_joint,mA1/azimuth_2_joint,mA1/azimuth_3_joint,mA1/azimuth_4_joint,1.5707963267948966,-4.520402762665314,0.0,0.08726646259971647
2025/04/05 15:12:03.887909461,0,0,,mA1/azimuth_1_joint,mA1/azimuth_2_joint,mA1/azimuth_3_joint,mA1/azimuth_4_joint,1.5533430342749532,-5.602506898901797,0.0,0.08726646259971647
2025/04/05 15:12:03.944462806,0,0,,mA1/azimuth_1_joint,mA1/azimuth_2_joint,mA1/azimuth_3_joint,mA1/azimuth_4_joint,1.5707963267948966,-4.520402762665314,0.0,0.08726646259971647
2025/04/05 15:12:04.287691098,0,0,,mA1/azimuth_1_joint,mA1/azimuth_2_joint,mA1/azimuth_3_joint,mA1/azimuth_4_joint,1.5533430342749532,-5.672320068981571,0.0,0.08726646259971647
2025/04/05 15:12:04.461354391,0,0,,mA1/azimuth_1_joint,mA1/azimuth_2_joint,mA1/azimuth_3_joint,mA1/azimuth_4_joint,1.5707963267948966,-1.361356816555577,0.0,0.10471975511965978
2025/04/05 15:12:04.623249292,0,0,,mA1/azimuth_1_joint,mA1/azimuth_2_joint,mA1/azimuth_3_joint,mA1/azimuth_4_joint,1.5533430342749532,-5.619960191421741,0.0,0.10471975511965978
2025/04/05 15:12:04.696848232,0,0,,mA1/azimuth_1_joint,mA1/azimuth_2_joint,mA1/azimuth_3_joint,mA1/azimuth_4_joint,1.5533430342749532,-0.13962634015954636,0.0,0.10471975511965978
2025/04/05 15:12:04.935709327,0,0,,mA1/azimuth_1_joint,mA1/azimuth_2_joint,mA1/azimuth_3_joint,mA1/azimuth_4_joint,1.5533430342749532,-5.445427266222308,0.0,0.10471975511965978
2025/04/05 15:12:05.1192398,0,0,,mA1/azimuth_1_joint,mA1/azimuth_2_joint,mA1/azimuth_3_joint,mA1/azimuth_4_joint,1.5533430342749532,-5.462880558742252,0.0,0.10471975511965978
2025/04/05 15:12:05.57752765,0,0,,mA1/azimuth_1_joint,mA1/azimuth_2_joint,mA1/azimuth_3_joint,mA1/azimuth_4_joint,1.5533430342749532,-5.340707511102648,0.0,0.10471975511965978
2025/04/05 15:12:05.106030034,0,0,,mA1/azimuth_1_joint,mA1/azimuth_2_joint,mA1/azimuth_3_joint,mA1/azimuth_4_joint,1.5533430342749532,-5.3930673886624785,0.0,0.05235987755982989
2025/04/05 15:12:05.196852525,0,0,,mA1/azimuth_1_joint,mA1/azimuth_2_joint,mA1/azimuth_3_joint,mA1/azimuth_4_joint,1.5707963267948966,-5.1487212933832724,0.0,0.05235987755982989
2025/04/05 15:12:05.279562073,0,0,,mA1/azimuth_1_joint,mA1/azimuth_2_joint,mA1/azimuth_3_joint,mA1/azimuth_4_joint,1.5707963267948966,-3.01941960595019,0.0,0.05235987755982989
2025/04/05 15:12:05.370605446,0,0,,mA1/azimuth_1_joint,mA1/azimuth_2_joint,mA1/azimuth_3_joint,mA1/azimuth_4_joint,1.5533430342749532,-5.619960191421741,0.0,0.05235987755982989
2025/04/05 15:12:05.464763451,0,0,,mA1/azimuth_1_joint,mA1/azimuth_2_joint,mA1/azimuth_3_joint,mA1/azimuth_4_joint,1.5533430342749532,-5.619960191421741,0.0,0.05235987755982989
2025/04/05 15:12:05.550644603,0,0,,mA1/azimuth_1_joint,mA1/azimuth_2_joint,mA1/azimuth_3_joint,mA1/azimuth_4_joint,1.5707963267948966,-3.9793506945470716,0.0,0.05235987755982989
2025/04/05 15:12:05.634780342,0,0,,mA1/azimuth_1_joint,mA1/azimuth_2_joint,mA1/azimuth_3_joint,mA1/azimuth_4_joint,1.5707963267948966,-3.8920842319473548,0.0,0.05235987755982989
2025/04/05 15:12:05.723648901,0,0,,mA1/azimuth_1_joint,mA1/azimuth_2_joint,mA1/azimuth_3_joint,mA1/azimuth_4_joint,1.5533430342749532,-5.427973973702365,0.0,0.05235987755982989
2025/04/05 15:12:05.827711490,0,0,,mA1/azimuth_1_joint,mA1/azimuth_2_joint,mA1/azimuth_3_joint,mA1/azimuth_4_joint,1.5533430342749532,-5.654866776461628,0.0,0.05235987755982989
2025/04/05 15:12:05.907959968,0,0,,mA1/azimuth_1_joint,mA1/azimuth_2_joint,mA1/azimuth_3_joint,mA1/azimuth_4_joint,1.5533430342749532,-5.794493116621174,0.0,0.05235987755982989
2025/04/05 15:12:05.992099122,0,0,,mA1/azimuth_1_joint,mA1/azimuth_2_joint,mA1/azimuth_3_joint,mA1/azimuth_4_joint,1.5533430342749532,-5.532693728822025,0.0,0.05235987755982989
2025/04/05 15:12:06.80443482,0,0,,mA1/azimuth_1_joint,mA1/azimuth_2_joint,mA1/azimuth_3_joint,mA1/azimuth_4_joint,1.5533430342749532,-5.550147021341968,0.0,0.05235987755982989
2025/04/05 15:12:06.157587047,0,0,,mA1/azimuth_1_joint,mA1/azimuth_2_joint,mA1/azimuth_3_joint,mA1/azimuth_4_joint,1.5533430342749532,-5.6374134839416845,0.0,0.05235987755982989
2025/04/05 15:12:06.249430499,0,0,,mA1/azimuth_1_joint,mA1/azimuth_2_joint,mA1/azimuth_3_joint,mA1/azimuth_4_joint,1.5533430342749532,-5.759586531581287,0.0,0.05235987755982989
2025/04/05 15:12:06.351531538,0,0,,mA1/azimuth_1_joint,mA1/azimuth_2_joint,mA1/azimuth_3_joint,mA1/azimuth_4_joint,1.5533430342749532,-5.462880558742252,0.0,0.05235987755982989
2025/04/05 15:12:06.463496614,0,0,,mA1/azimuth_1_joint,mA1/azimuth_2_joint,mA1/azimuth_3_joint,mA1/azimuth_4_joint,1.5533430342749532,-5.323254218582705,0.0,0.05235987755982989
2025/04/05 15:12:06.552537167,0,0,,mA1/azimuth_1_joint,mA1/azimuth_2_joint,mA1/azimuth_3_joint,mA1/azimuth_4_joint,1.5533430342749532,-5.532693728822025,0.0,0.05235987755982989
2025/04/05 15:12:06.655990066,0,0,,mA1/azimuth_1_joint,mA1/azimuth_2_joint,mA1/azimuth_3_joint,mA1/azimuth_4_joint,1.5533430342749532,-5.602506898901797,0.0,0.05235987755982989
2025/04/05 15:12:06.748686707,0,0,,mA1/azimuth_1_joint,mA1/azimuth_2_joint,mA1/azimuth_3_joint,mA1/azimuth_4_joint,1.5533430342749532,-5.427973973702365,0.0,0.05235987755982989
2025/04/05 15:12:06.847359531,0,0,,mA1/azimuth_1_joint,mA1/azimuth_2_joint,mA1/azimuth_3_joint,mA1/azimuth_4_joint,1.5533430342749532,-5.462880558742252,0.0,0.05235987755982989
2025/04/05 15:12:06.952256645,0,0,,mA1/azimuth_1_joint,mA1/azimuth_2_joint,mA1/azimuth_3_joint,mA1/azimuth_4_joint,1.5707963267948966,-4.4331363000655974,0.0,0.05235987755982989
2025/04/05 15:12:07.51587424,0,0,,mA1/azimuth_1_joint,mA1/azimuth_2_joint,mA1/azimuth_3_joint,mA1/azimuth_4_joint,1.5533430342749532,-5.602506898901797,0.0,0.05235987755982989
2025/04/05 15:12:07.149590192,0,0,,mA1/azimuth_1_joint,mA1/azimuth_2_joint,mA1/azimuth_3_joint,mA1/azimuth_4_joint,1.5533430342749532,-5.427973973702365,0.0,0.05235987755982989
2025/04/05 15:12:07.253708752,0,0,,mA1/azimuth_1_joint,mA1/azimuth_2_joint,mA1/azimuth_3_joint,mA1/azimuth_4_joint,1.5533430342749532,-5.707226654021458,0.0,0.05235987755982989
2025/04/05 15:12:07.344122424,0,0,,mA1/azimuth_1_joint,mA1/azimuth_2_joint,mA1/azimuth_3_joint,mA1/azimuth_4_joint,5.480333851262195,-1.5533430342749532,-0.03490658503988659,0.0
2025/04/05 15:12:07.450381811,0,0,,mA1/azimuth_1_joint,mA1/azimuth_2_joint,mA1/azimuth_3_joint,mA1/azimuth_4_joint,5.742133239061344,-1.5533430342749532,-0.017453292519943295,0.0
2025/04/05 15:12:07.545441032,0,0,,mA1/azimuth_1_joint,mA1/azimuth_2_joint,mA1/azimuth_3_joint,mA1/azimuth_4_joint,5.759586531581287,-1.5533430342749532,0.0,0.0
2025/04/05 15:12:07.655838679,0,0,,mA1/azimuth_1_joint,mA1/azimuth_2_joint,mA1/azimuth_3_joint,mA1/azimuth_4_joint,5.270894341022875,-1.5707963267948966,0.0,0.0
2025/04/05 15:12:07.746585529,0,0,,mA1/azimuth_1_joint,mA1/azimuth_2_joint,mA1/azimuth_3_joint,mA1/azimuth_4_joint,3.001966313430247,-1.5707963267948966,0.0,0.0
2025/04/05 15:12:07.849078479,0,0,,mA1/azimuth_1_joint,mA1/azimuth_2_joint,mA1/azimuth_3_joint,mA1/azimuth_4_joint,5.654866776461628,-1.5533430342749532,0.0,0.0
2025/04/05 15:12:07.945654941,0,0,,mA1/azimuth_1_joint,mA1/azimuth_2_joint,mA1/azimuth_3_joint,mA1/azimuth_4_joint,5.602506898901797,-1.5533430342749532,0.0,0.0
2025/04/05 15:12:08.54286659,0,0,,mA1/azimuth_1_joint,mA1/azimuth_2_joint,mA1/azimuth_3_joint,mA1/azimuth_4_joint,5.654866776461628,-1.5533430342749532,0.0,0.0
2025/04/05 15:12:08.168677114,0,0,,mA1/azimuth_1_joint,mA1/azimuth_2_joint,mA1/azimuth_3_joint,mA1/azimuth_4_joint,5.6374134839416845,-1.5533430342749532,0.0,0.0
2025/04/05 15:12:08.258822970,0,0,,mA1/azimuth_1_joint,mA1/azimuth_2_joint,mA1/azimuth_3_joint,mA1/azimuth_4_joint,5.689773361501515,-1.5533430342749532,0.0,0.0
2025/04/05 15:12:08.373053483,0,0,,mA1/azimuth_1_joint,mA1/azimuth_2_joint,mA1/azimuth_3_joint,mA1/azimuth_4_joint,5.689773361501515,-1.5533430342749532,0.0,0.0
2025/04/05 15:12:08.451821304,0,0,,mA1/azimuth_1_joint,mA1/azimuth_2_joint,mA1/azimuth_3_joint,mA1/azimuth_4_joint,5.672320068981571,-1.5533430342749532,0.0,0.0
2025/04/05 15:12:08.554745581,0,0,,mA1/azimuth_1_joint,mA1/azimuth_2_joint,mA1/azimuth_3_joint,mA1/azimuth_4_joint,5.689773361501515,-1.5533430342749532,0.0,0.0
2025/04/05 15:12:08.652669121,0,0,,mA1/azimuth_1_joint,mA1/azimuth_2_joint,mA1/azimuth_3_joint,mA1/azimuth_4_joint,4.590215932745087,-1.5707963267948966,0.0,0.0
2025/04/05 15:12:08.750631371,0,0,,mA1/azimuth_1_joint,mA1/azimuth_2_joint,mA1/azimuth_3_joint,mA1/azimuth_4_joint,5.567600313861911,-1.5533430342749532,0.0,0.0
2025/04/05 15:12:08.847343642,0,0,,mA1/azimuth_1_joint,mA1/azimuth_2_joint,mA1/azimuth_3_joint,mA1/azimuth_4_joint,5.689773361501515,-1.5533430342749532,0.0,0.0
2025/04/05 15:12:08.955915408,0,0,,mA1/azimuth_1_joint,mA1/azimuth_2_joint,mA1/azimuth_3_joint,mA1/azimuth_4_joint,5.689773361501515,-1.5533430342749532,0.0,0.0
2025/04/05 15:12:09.53780656,0,0,,mA1/azimuth_1_joint,mA1/azimuth_2_joint,mA1/azimuth_3_joint,mA1/azimuth_4_joint,5.375614096142535,-1.5707963267948966,0.0,0.0
2025/04/05 15:12:09.153532309,0,0,,mA1/azimuth_1_joint,mA1/azimuth_2_joint,mA1/azimuth_3_joint,mA1/azimuth_4_joint,5.689773361501515,-1.5533430342749532,0.0,0.0
2025/04/05 15:12:09.263866002,0,0,,mA1/azimuth_1_joint,mA1/azimuth_2_joint,mA1/azimuth_3_joint,mA1/azimuth_4_joint,5.619960191421741,-1.5533430342749532,0.0,0.0
2025/04/05 15:12:09.367316288,0,0,,mA1/azimuth_1_joint,mA1/azimuth_2_joint,mA1/azimuth_3_joint,mA1/azimuth_4_joint,5.532693728822025,-1.5533430342749532,0.0,0.0
2025/04/05 15:12:09.458859600,0,0,,mA1/azimuth_1_joint,mA1/azimuth_2_joint,mA1/azimuth_3_joint,mA1/azimuth_4_joint,5.672320068981571,-1.5533430342749532,0.0,0.0
2025/04/05 15:12:09.549619610,0,0,,mA1/azimuth_1_joint,mA1/azimuth_2_joint,mA1/azimuth_3_joint,mA1/azimuth_4_joint,5.672320068981571,-1.5533430342749532,0.0,0.0
2025/04/05 15:12:09.650395266,0,0,,mA1/azimuth_1_joint,mA1/azimuth_2_joint,mA1/azimuth_3_joint,mA1/azimuth_4_joint,5.742133239061344,-1.5533430342749532,-0.15707963267948966,0.0
2025/04/05 15:12:09.750683353,0,0,,mA1/azimuth_1_joint,mA1/azimuth_2_joint,mA1/azimuth_3_joint,mA1/azimuth_4_joint,0.6632251157578453,-1.5533430342749532,-0.17453292519943295,0.0
2025/04/05 15:12:09.852711925,0,0,,mA1/azimuth_1_joint,mA1/azimuth_2_joint,mA1/azimuth_3_joint,mA1/azimuth_4_joint,5.602506898901797,-1.5533430342749532,-0.15707963267948966,0.0
2025/04/05 15:12:09.948827380,0,0,,mA1/azimuth_1_joint,mA1/azimuth_2_joint,mA1/azimuth_3_joint,mA1/azimuth_4_joint,5.934119456780721,-1.5533430342749532,-0.15707963267948966,0.0
2025/04/05 15:12:10.55856062,0,0,,mA1/azimuth_1_joint,mA1/azimuth_2_joint,mA1/azimuth_3_joint,mA1/azimuth_4_joint,5.480333851262195,-1.5707963267948966,-0.13962634015954636,0.0
2025/04/05 15:12:10.146537856,0,0,,mA1/azimuth_1_joint,mA1/azimuth_2_joint,mA1/azimuth_3_joint,mA1/azimuth_4_joint,5.096361415823442,-1.5707963267948966,-0.13962634015954636,0.0
2025/04/05 15:12:10.246528688,0,0,,mA1/azimuth_1_joint,mA1/azimuth_2_joint,mA1/azimuth_3_joint,mA1/azimuth_4_joint,3.036872898470133,-1.5707963267948966,-0.13962634015954636,0.0
2025/04/05 15:12:10.349723677,0,0,,mA1/azimuth_1_joint,mA1/azimuth_2_joint,mA1/azimuth_3_joint,mA1/azimuth_4_joint,3.3161255787892263,-1.5707963267948966,-0.13962634015954636,0.0
2025/04/05 15:12:10.453579468,0,0,,mA1/azimuth_1_joint,mA1/azimuth_2_joint,mA1/azimuth_3_joint,mA1/azimuth_4_joint,4.5553093477052,-1.5533430342749532,-0.13962634015954636,0.0
2025/04/05 15:12:10.548605619,0,0,,mA1/azimuth_1_joint,mA1/azimuth_2_joint,mA1/azimuth_3_joint,mA1/azimuth_4_joint,5.602506898901797,-1.5533430342749532,-0.13962634015954636,0.0
2025/04/05 15:12:10.671100930,0,0,,mA1/azimuth_1_joint,mA1/azimuth_2_joint,mA1/azimuth_3_joint,mA1/azimuth_4_joint,5.6374134839416845,-1.5533430342749532,-0.13962634015954636,0.0
2025/04/05 15:12:10.745665457,0,0,,mA1/azimuth_1_joint,mA1/azimuth_2_joint,mA1/azimuth_3_joint,mA1/azimuth_4_joint,5.6374134839416845,-1.5533430342749532,-0.13962634015954636,0.0
2025/04/05 15:12:10.847075253,0,0,,mA1/azimuth_1_joint,mA1/azimuth_2_joint,mA1/azimuth_3_joint,mA1/azimuth_4_joint,5.6374134839416845,-1.5533430342749532,-0.13962634015954636,0.0
2025/04/05 15:12:10.952718378,0,0,,mA1/azimuth_1_joint,mA1/azimuth_2_joint,mA1/azimuth_3_joint,mA1/azimuth_4_joint,5.480333851262195,-1.5533430342749532,-0.12217304763960307,0.0
2025/04/05 15:12:11.49134446,0,0,,mA1/azimuth_1_joint,mA1/azimuth_2_joint,mA1/azimuth_3_joint,mA1/azimuth_4_joint,4.241150082346221,-1.5707963267948966,-0.12217304763960307,0.0
2025/04/05 15:12:11.152460243,0,0,,mA1/azimuth_1_joint,mA1/azimuth_2_joint,mA1/azimuth_3_joint,mA1/azimuth_4_joint,3.2812189937493397,-1.5707963267948966,-0.12217304763960307,0.0
2025/04/05 15:12:11.246271758,0,0,,mA1/azimuth_1_joint,mA1/azimuth_2_joint,mA1/azimuth_3_joint,mA1/azimuth_4_joint,5.427973973702365,-1.5533430342749532,-0.12217304763960307,0.0
2025/04/05 15:12:11.350361337,0,0,,mA1/azimuth_1_joint,mA1/azimuth_2_joint,mA1/azimuth_3_joint,mA1/azimuth_4_joint,3.036872898470133,-1.5707963267948966,-0.10471975511965978,0.0
2025/04/05 15:12:11.454609303,0,0,,mA1/azimuth_1_joint,mA1/azimuth_2_joint,mA1/azimuth_3_joint,mA1/azimuth_4_joint,5.6374134839416845,-1.5533430342749532,-0.10471975511965978,0.0
2025/04/05 15:12:11.545922144,0,0,,mA1/azimuth_1_joint,mA1/azimuth_2_joint,mA1/azimuth_3_joint,mA1/azimuth_4_joint,3.1066860685499065,-1.5707963267948966,-0.10471975511965978,0.0
2025/04/05 15:12:11.652174105,0,0,,mA1/azimuth_1_joint,mA1/azimuth_2_joint,mA1/azimuth_3_joint,mA1/azimuth_4_joint,5.602506898901797,-1.5533430342749532,-0.10471975511965978,0.0
2025/04/05 15:12:11.750452659,0,0,,mA1/azimuth_1_joint,mA1/azimuth_2_joint,mA1/azimuth_3_joint,mA1/azimuth_4_joint,5.602506898901797,-1.5533430342749532,-0.10471975511965978,0.0
2025/04/05 15:12:11.850431002,0,0,,mA1/azimuth_1_joint,mA1/azimuth_2_joint,mA1/azimuth_3_joint,mA1/azimuth_4_joint,5.6374134839416845,-1.5533430342749532,-0.10471975511965978,0.0
2025/04/05 15:12:11.956045389,0,0,,mA1/azimuth_1_joint,mA1/azimuth_2_joint,mA1/azimuth_3_joint,mA1/azimuth_4_joint,6.178465552059927,-1.5533430342749532,-0.10471975511965978,0.0
2025/04/05 15:12:12.54007190,0,0,,mA1/azimuth_1_joint,mA1/azimuth_2_joint,mA1/azimuth_3_joint,mA1/azimuth_4_joint,5.340707511102648,-1.5533430342749532,-0.10471975511965978,0.0
2025/04/05 15:12:12.149459014,0,0,,mA1/azimuth_1_joint,mA1/azimuth_2_joint,mA1/azimuth_3_joint,mA1/azimuth_4_joint,5.567600313861911,-1.5533430342749532,-0.10471975511965978,0.0
2025/04/05 15:12:12.249579672,0,0,,mA1/azimuth_1_joint,mA1/azimuth_2_joint,mA1/azimuth_3_joint,mA1/azimuth_4_joint,3.7873644768276953,-1.5707963267948966,-0.10471975511965978,0.0
2025/04/05 15:12:12.355528820,0,0,,mA1/azimuth_1_joint,mA1/azimuth_2_joint,mA1/azimuth_3_joint,mA1/azimuth_4_joint,5.585053606381854,-1.5533430342749532,-0.08726646259971647,0.0
2025/04/05 15:12:12.444245450,0,0,,mA1/azimuth_1_joint,mA1/azimuth_2_joint,mA1/azimuth_3_joint,mA1/azimuth_4_joint,3.01941960595019,-1.5707963267948966,-0.08726646259971647,0.0
2025/04/05 15:12:12.557865400,0,0,,mA1/azimuth_1_joint,mA1/azimuth_2_joint,mA1/azimuth_3_joint,mA1/azimuth_4_joint,3.2288591161895095,-1.5707963267948966,-0.08726646259971647,0.0
2025/04/05 15:12:12.650424337,0,0,,mA1/azimuth_1_joint,mA1/azimuth_2_joint,mA1/azimuth_3_joint,mA1/azimuth_4_joint,5.375614096142535,-1.5533430342749532,-0.08726646259971647,0.0
2025/04/05 15:12:12.750817760,0,0,,mA1/azimuth_1_joint,mA1/azimuth_2_joint,mA1/azimuth_3_joint,mA1/azimuth_4_joint,3.4557519189487724,-1.5707963267948966,-0.08726646259971647,0.0
2025/04/05 15:12:12.860737240,0,0,,mA1/azimuth_1_joint,mA1/azimuth_2_joint,mA1/azimuth_3_joint,mA1/azimuth_4_joint,3.6826447217080354,-1.5707963267948966,-0.08726646259971647,0.0
2025/04/05 15:12:12.957588989,0,0,,mA1/azimuth_1_joint,mA1/azimuth_2_joint,mA1/azimuth_3_joint,mA1/azimuth_4_joint,3.6826447217080354,-1.5707963267948966,-0.08726646259971647,0.0
2025/04/05 15:12:13.44985703,0,0,,mA1/azimuth_1_joint,mA1/azimuth_2_joint,mA1/azimuth_3_joint,mA1/azimuth_4_joint,3.490658503988659,-1.5707963267948966,-0.08726646259971647,0.0
2025/04/05 15:12:13.162634524,0,0,,mA1/azimuth_1_joint,mA1/azimuth_2_joint,mA1/azimuth_3_joint,mA1/azimuth_4_joint,5.410520681182422,-1.5533430342749532,-0.08726646259971647,0.0
2025/04/05 15:12:13.273611453,0,0,,mA1/azimuth_1_joint,mA1/azimuth_2_joint,mA1/azimuth_3_joint,mA1/azimuth_4_joint,5.410520681182422,-1.5533430342749532,-0.08726646259971647,0.0
2025/04/05 15:12:13.353293149,0,0,,mA1/azimuth_1_joint,mA1/azimuth_2_joint,mA1/azimuth_3_joint,mA1/azimuth_4_joint,3.1764992386296798,-1.5707963267948966,-0.08726646259971647,0.0
2025/04/05 15:12:13.447861336,0,0,,mA1/azimuth_1_joint,mA1/azimuth_2_joint,mA1/azimuth_3_joint,mA1/azimuth_4_joint,5.654866776461628,-1.5533430342749532,-0.08726646259971647,0.0
2025/04/05 15:12:13.551518228,0,0,,mA1/azimuth_1_joint,mA1/azimuth_2_joint,mA1/azimuth_3_joint,mA1/azimuth_4_joint,5.585053606381854,-1.5533430342749532,0.0,0.0
2025/04/05 15:12:13.649354391,0,0,,mA1/azimuth_1_joint,mA1/azimuth_2_joint,mA1/azimuth_3_joint,mA1/azimuth_4_joint,5.532693728822025,-1.5533430342749532,0.0,0.0
2025/04/05 15:12:13.751658583,0,0,,mA1/azimuth_1_joint,mA1/azimuth_2_joint,mA1/azimuth_3_joint,mA1/azimuth_4_joint,5.602506898901797,-1.5533430342749532,0.0,0.0
2025/04/05 15:12:13.845013558,0,0,,mA1/azimuth_1_joint,mA1/azimuth_2_joint,mA1/azimuth_3_joint,mA1/azimuth_4_joint,5.550147021341968,-1.5533430342749532,0.0,0.0
2025/04/05 15:12:13.945405717,0,0,,mA1/azimuth_1_joint,mA1/azimuth_2_joint,mA1/azimuth_3_joint,mA1/azimuth_4_joint,5.427973973702365,-1.5533430342749532,0.0,0.0
2025/04/05 15:12:14.50843665,0,0,,mA1/azimuth_1_joint,mA1/azimuth_2_joint,mA1/azimuth_3_joint,mA1/azimuth_4_joint,4.276056667386108,-1.5707963267948966,0.0,0.0
2025/04/05 15:12:14.155679259,0,0,,mA1/azimuth_1_joint,mA1/azimuth_2_joint,mA1/azimuth_3_joint,mA1/azimuth_4_joint,3.07177948351002,-1.5707963267948966,0.0,0.0
2025/04/05 15:12:14.257852452,0,0,,mA1/azimuth_1_joint,mA1/azimuth_2_joint,mA1/azimuth_3_joint,mA1/azimuth_4_joint,5.619960191421741,-1.5533430342749532,0.0,0.0
2025/04/05 15:12:14.344053313,0,0,,mA1/azimuth_1_joint,mA1/azimuth_2_joint,mA1/azimuth_3_joint,mA1/azimuth_4_joint,5.6374134839416845,-1.5533430342749532,0.0,0.0
2025/04/05 15:12:14.455525246,0,0,,mA1/azimuth_1_joint,mA1/azimuth_2_joint,mA1/azimuth_3_joint,mA1/azimuth_4_joint,3.12413936106985,-1.5707963267948966,0.0,0.0
2025/04/05 15:12:14.555138852,0,0,,mA1/azimuth_1_joint,mA1/azimuth_2_joint,mA1/azimuth_3_joint,mA1/azimuth_4_joint,0.5235987755982988,-1.5533430342749532,0.0,0.0
2025/04/05 15:12:14.648739966,0,0,,mA1/azimuth_1_joint,mA1/azimuth_2_joint,mA1/azimuth_3_joint,mA1/azimuth_4_joint,4.328416544945937,-1.5707963267948966,0.0,0.0
2025/04/05 15:12:14.747787231,0,0,,mA1/azimuth_1_joint,mA1/azimuth_2_joint,mA1/azimuth_3_joint,mA1/azimuth_4_joint,5.515240436302081,-1.5533430342749532,0.0,0.0
2025/04/05 15:12:14.849702330,0,0,,mA1/azimuth_1_joint,mA1/azimuth_2_joint,mA1/azimuth_3_joint,mA1/azimuth_4_joint,3.385938748868999,-1.5707963267948966,0.0,0.0
2025/04/05 15:12:14.947350254,0,0,,mA1/azimuth_1_joint,mA1/azimuth_2_joint,mA1/azimuth_3_joint,mA1/azimuth_4_joint,3.4033920413889427,-1.5707963267948966,0.0,0.0
2025/04/05 15:12:15.56778852,0,0,,mA1/azimuth_1_joint,mA1/azimuth_2_joint,mA1/azimuth_3_joint,mA1/azimuth_4_joint,3.2986722862692828,-1.5707963267948966,0.0,0.0
2025/04/05 15:12:15.150485329,0,0,,mA1/azimuth_1_joint,mA1/azimuth_2_joint,mA1/azimuth_3_joint,mA1/azimuth_4_joint,3.3335788713091694,-1.5707963267948966,0.0,0.0
2025/04/05 15:12:15.251006083,0,0,,mA1/azimuth_1_joint,mA1/azimuth_2_joint,mA1/azimuth_3_joint,mA1/azimuth_4_joint,3.3335788713091694,-1.5707963267948966,0.0,0.0
2025/04/05 15:12:15.349769075,0,0,,mA1/azimuth_1_joint,mA1/azimuth_2_joint,mA1/azimuth_3_joint,mA1/azimuth_4_joint,3.717551306747922,-1.5707963267948966,0.0,0.0
2025/04/05 15:12:15.450972601,0,0,,mA1/azimuth_1_joint,mA1/azimuth_2_joint,mA1/azimuth_3_joint,mA1/azimuth_4_joint,0.9948376736367679,-1.5707963267948966,0.0,0.0
2025/04/05 15:12:15.556038520,0,0,,mA1/azimuth_1_joint,mA1/azimuth_2_joint,mA1/azimuth_3_joint,mA1/azimuth_4_joint,5.3930673886624785,-1.5533430342749532,0.0,0.0
2025/04/05 15:12:15.654812422,0,0,,mA1/azimuth_1_joint,mA1/azimuth_2_joint,mA1/azimuth_3_joint,mA1/azimuth_4_joint,5.305800926062762,-1.5533430342749532,0.0,0.0
2025/04/05 15:12:15.752032133,0,0,,mA1/azimuth_1_joint,mA1/azimuth_2_joint,mA1/azimuth_3_joint,mA1/azimuth_4_joint,1.5533430342749532,-5.497787143782138,0.0,0.05235987755982989
2025/04/05 15:12:15.858161614,0,0,,mA1/azimuth_1_joint,mA1/azimuth_2_joint,mA1/azimuth_3_joint,mA1/azimuth_4_joint,1.5533430342749532,-5.1312680008633285,0.0,0.03490658503988659
2025/04/05 15:12:15.957720708,0,0,,mA1/azimuth_1_joint,mA1/azimuth_2_joint,mA1/azimuth_3_joint,mA1/azimuth_4_joint,1.5533430342749532,-5.497787143782138,0.0,0.03490658503988659
2025/04/05 15:12:16.48051469,0,0,,mA1/azimuth_1_joint,mA1/azimuth_2_joint,mA1/azimuth_3_joint,mA1/azimuth_4_joint,1.5533430342749532,-5.846852994181004,0.0,0.017453292519943295
2025/04/05 15:12:16.164578635,0,0,,mA1/azimuth_1_joint,mA1/azimuth_2_joint,mA1/azimuth_3_joint,mA1/azimuth_4_joint,1.5533430342749532,-5.619960191421741,0.0,0.0
2025/04/05 15:12:16.246331337,0,0,,mA1/azimuth_1_joint,mA1/azimuth_2_joint,mA1/azimuth_3_joint,mA1/azimuth_4_joint,1.5707963267948966,-3.368485456349056,0.0,0.0
2025/04/05 15:12:16.360654231,0,0,,mA1/azimuth_1_joint,mA1/azimuth_2_joint,mA1/azimuth_3_joint,mA1/azimuth_4_joint,1.5533430342749532,-5.689773361501515,0.0,0.0
2025/04/05 15:12:16.463147158,0,0,,mA1/azimuth_1_joint,mA1/azimuth_2_joint,mA1/azimuth_3_joint,mA1/azimuth_4_joint,1.5533430342749532,-5.689773361501515,0.0,0.0
2025/04/05 15:12:16.574864104,0,0,,mA1/azimuth_1_joint,mA1/azimuth_2_joint,mA1/azimuth_3_joint,mA1/azimuth_4_joint,1.5533430342749532,-5.672320068981571,0.0,0.0
2025/04/05 15:12:16.649287438,0,0,,mA1/azimuth_1_joint,mA1/azimuth_2_joint,mA1/azimuth_3_joint,mA1/azimuth_4_joint,1.5707963267948966,-3.2114058236695664,0.0,0.0
2025/04/05 15:12:16.762306923,0,0,,mA1/azimuth_1_joint,mA1/azimuth_2_joint,mA1/azimuth_3_joint,mA1/azimuth_4_joint,1.5533430342749532,-5.585053606381854,0.0,0.0
2025/04/05 15:12:16.855374929,0,0,,mA1/azimuth_1_joint,mA1/azimuth_2_joint,mA1/azimuth_3_joint,mA1/azimuth_4_joint,1.5533430342749532,-5.707226654021458,0.0,0.0
2025/04/05 15:12:16.958193237,0,0,,mA1/azimuth_1_joint,mA1/azimuth_2_joint,mA1/azimuth_3_joint,mA1/azimuth_4_joint,1.5707963267948966,-4.153883619746504,0.0,0.0
2025/04/05 15:12:17.60958832,0,0,,mA1/azimuth_1_joint,mA1/azimuth_2_joint,mA1/azimuth_3_joint,mA1/azimuth_4_joint,1.5533430342749532,-5.6374134839416845,0.0,0.0
2025/04/05 15:12:17.160662234,0,0,,mA1/azimuth_1_joint,mA1/azimuth_2_joint,mA1/azimuth_3_joint,mA1/azimuth_4_joint,1.5533430342749532,-5.6374134839416845,0.0,0.0
2025/04/05 15:12:17.247492260,0,0,,mA1/azimuth_1_joint,mA1/azimuth_2_joint,mA1/azimuth_3_joint,mA1/azimuth_4_joint,1.5707963267948966,-2.9845130209103035,0.0,0.0
2025/04/05 15:12:17.359918984,0,0,,mA1/azimuth_1_joint,mA1/azimuth_2_joint,mA1/azimuth_3_joint,mA1/azimuth_4_joint,1.5533430342749532,-5.445427266222308,0.0,0.0
2025/04/05 15:12:17.448857682,0,0,,mA1/azimuth_1_joint,mA1/azimuth_2_joint,mA1/azimuth_3_joint,mA1/azimuth_4_joint,1.5707963267948966,-2.9670597283903604,0.0,0.0
2025/04/05 15:12:17.545360109,0,0,,mA1/azimuth_1_joint,mA1/azimuth_2_joint,mA1/azimuth_3_joint,mA1/azimuth_4_joint,1.5707963267948966,-4.066617157146788,0.0,0.0
2025/04/05 15:12:17.646634415,0,0,,mA1/azimuth_1_joint,mA1/azimuth_2_joint,mA1/azimuth_3_joint,mA1/azimuth_4_joint,1.5533430342749532,-5.602506898901797,0.0,0.0
2025/04/05 15:12:17.849789988,0,0,,mA1/azimuth_1_joint,mA1/azimuth_2_joint,mA1/azimuth_3_joint,mA1/azimuth_4_joint,1.5533430342749532,-5.410520681182422,0.0,0.017453292519943295
2025/04/05 15:12:17.922470337,0,0,,mA1/azimuth_1_joint,mA1/azimuth_2_joint,mA1/azimuth_3_joint,mA1/azimuth_4_joint,1.5533430342749532,-5.689773361501515,0.0,0.0
2025/04/05 15:12:18.1700681,0,0,,mA1/azimuth_1_joint,mA1/azimuth_2_joint,mA1/azimuth_3_joint,mA1/azimuth_4_joint,1.5533430342749532,-5.340707511102648,0.0,0.0
2025/04/05 15:12:18.60275697,0,0,,mA1/azimuth_1_joint,mA1/azimuth_2_joint,mA1/azimuth_3_joint,mA1/azimuth_4_joint,1.5533430342749532,-5.3930673886624785,0.0,0.0
2025/04/05 15:12:18.145723395,0,0,,mA1/azimuth_1_joint,mA1/azimuth_2_joint,mA1/azimuth_3_joint,mA1/azimuth_4_joint,1.5707963267948966,-4.869468613064179,0.0,0.0
2025/04/05 15:12:18.245915722,0,0,,mA1/azimuth_1_joint,mA1/azimuth_2_joint,mA1/azimuth_3_joint,mA1/azimuth_4_joint,1.5533430342749532,-5.445427266222308,0.0,0.0
2025/04/05 15:12:18.353947206,0,0,,mA1/azimuth_1_joint,mA1/azimuth_2_joint,mA1/azimuth_3_joint,mA1/azimuth_4_joint,1.5533430342749532,-5.497787143782138,0.0,0.0
2025/04/05 15:12:18.452080350,0,0,,mA1/azimuth_1_joint,mA1/azimuth_2_joint,mA1/azimuth_3_joint,mA1/azimuth_4_joint,1.5533430342749532,-5.480333851262195,0.0,0.0
2025/04/05 15:12:18.546486779,0,0,,mA1/azimuth_1_joint,mA1/azimuth_2_joint,mA1/azimuth_3_joint,mA1/azimuth_4_joint,1.5533430342749532,-5.288347633542818,0.0,0.0
2025/04/05 15:12:18.647413257,0,0,,mA1/azimuth_1_joint,mA1/azimuth_2_joint,mA1/azimuth_3_joint,mA1/azimuth_4_joint,1.5533430342749532,-5.1487212933832724,0.0,0.0
2025/04/05 15:12:18.748234094,0,0,,mA1/azimuth_1_joint,mA1/azimuth_2_joint,mA1/azimuth_3_joint,mA1/azimuth_4_joint,1.5533430342749532,-5.358160803622591,0.0,0.0
2025/04/05 15:12:18.849359610,0,0,,mA1/azimuth_1_joint,mA1/azimuth_2_joint,mA1/azimuth_3_joint,mA1/azimuth_4_joint,1.5533430342749532,-5.340707511102648,0.0,0.0
2025/04/05 15:12:18.964521300,0,0,,mA1/azimuth_1_joint,mA1/azimuth_2_joint,mA1/azimuth_3_joint,mA1/azimuth_4_joint,1.5533430342749532,-5.340707511102648,0.0,0.0
2025/04/05 15:12:19.65579957,0,0,,mA1/azimuth_1_joint,mA1/azimuth_2_joint,mA1/azimuth_3_joint,mA1/azimuth_4_joint,1.5533430342749532,-5.009094953223726,0.0,0.0
2025/04/05 15:12:19.146041006,0,0,,mA1/azimuth_1_joint,mA1/azimuth_2_joint,mA1/azimuth_3_joint,mA1/azimuth_4_joint,1.5533430342749532,-5.009094953223726,0.0,0.0
2025/04/05 15:12:19.248489133,0,0,,mA1/azimuth_1_joint,mA1/azimuth_2_joint,mA1/azimuth_3_joint,mA1/azimuth_4_joint,1.5707963267948966,-4.310963252425994,0.0,0.0
2025/04/05 15:12:19.355833003,0,0,,mA1/azimuth_1_joint,mA1/azimuth_2_joint,mA1/azimuth_3_joint,mA1/azimuth_4_joint,1.5707963267948966,-3.3161255787892263,0.0,0.0
2025/04/05 15:12:19.457280299,0,0,,mA1/azimuth_1_joint,mA1/azimuth_2_joint,mA1/azimuth_3_joint,mA1/azimuth_4_joint,1.5533430342749532,-5.846852994181004,0.0,0.0
2025/04/05 15:12:19.562856710,0,0,,mA1/azimuth_1_joint,mA1/azimuth_2_joint,mA1/azimuth_3_joint,mA1/azimuth_4_joint,1.5533430342749532,-5.602506898901797,0.0,0.0
2025/04/05 15:12:19.659756653,0,0,,mA1/azimuth_1_joint,mA1/azimuth_2_joint,mA1/azimuth_3_joint,mA1/azimuth_4_joint,1.5533430342749532,-5.3930673886624785,0.0,0.0
2025/04/05 15:12:19.756645635,0,0,,mA1/azimuth_1_joint,mA1/azimuth_2_joint,mA1/azimuth_3_joint,mA1/azimuth_4_joint,1.5533430342749532,-5.480333851262195,0.0,0.0
2025/04/05 15:12:19.853663437,0,0,,mA1/azimuth_1_joint,mA1/azimuth_2_joint,mA1/azimuth_3_joint,mA1/azimuth_4_joint,1.5533430342749532,-5.585053606381854,0.0,0.0
2025/04/05 15:12:19.948257716,0,0,,mA1/azimuth_1_joint,mA1/azimuth_2_joint,mA1/azimuth_3_joint,mA1/azimuth_4_joint,1.5707963267948966,-3.7699111843077517,0.0,0.0
2025/04/05 15:12:20.53359757,0,0,,mA1/azimuth_1_joint,mA1/azimuth_2_joint,mA1/azimuth_3_joint,mA1/azimuth_4_joint,1.5533430342749532,-5.567600313861911,0.0,0.0
2025/04/05 15:12:20.152835570,0,0,,mA1/azimuth_1_joint,mA1/azimuth_2_joint,mA1/azimuth_3_joint,mA1/azimuth_4_joint,1.5707963267948966,-5.427973973702365,0.0,0.017453292519943295
2025/04/05 15:12:20.247072297,0,0,,mA1/azimuth_1_joint,mA1/azimuth_2_joint,mA1/azimuth_3_joint,mA1/azimuth_4_joint,1.5533430342749532,-5.619960191421741,0.0,0.017453292519943295
2025/04/05 15:12:20.344403834,0,0,,mA1/azimuth_1_joint,mA1/azimuth_2_joint,mA1/azimuth_3_joint,mA1/azimuth_4_joint,1.5533430342749532,-5.323254218582705,0.0,0.017453292519943295
2025/04/05 15:12:20.446180471,0,0,,mA1/azimuth_1_joint,mA1/azimuth_2_joint,mA1/azimuth_3_joint,mA1/azimuth_4_joint,1.5533430342749532,-5.497787143782138,0.0,0.017453292519943295
2025/04/05 15:12:20.552600131,0,0,,mA1/azimuth_1_joint,mA1/azimuth_2_joint,mA1/azimuth_3_joint,mA1/azimuth_4_joint,1.5533430342749532,-5.567600313861911,0.0,0.017453292519943295
2025/04/05 15:12:20.650319539,0,0,,mA1/azimuth_1_joint,mA1/azimuth_2_joint,mA1/azimuth_3_joint,mA1/azimuth_4_joint,1.5533430342749532,-5.375614096142535,0.0,0.017453292519943295
2025/04/05 15:12:20.753169209,0,0,,mA1/azimuth_1_joint,mA1/azimuth_2_joint,mA1/azimuth_3_joint,mA1/azimuth_4_joint,1.5533430342749532,-4.956735075663896,0.0,0.017453292519943295
2025/04/05 15:12:20.852078000,0,0,,mA1/azimuth_1_joint,mA1/azimuth_2_joint,mA1/azimuth_3_joint,mA1/azimuth_4_joint,1.5533430342749532,-5.427973973702365,0.0,0.017453292519943295
2025/04/05 15:12:20.950000496,0,0,,mA1/azimuth_1_joint,mA1/azimuth_2_joint,mA1/azimuth_3_joint,mA1/azimuth_4_joint,1.5533430342749532,-5.480333851262195,0.0,0.017453292519943295
2025/04/05 15:12:21.46238942,0,0,,mA1/azimuth_1_joint,mA1/azimuth_2_joint,mA1/azimuth_3_joint,mA1/azimuth_4_joint,1.5533430342749532,-5.445427266222308,0.0,0.017453292519943295
2025/04/05 15:12:21.150944202,0,0,,mA1/azimuth_1_joint,mA1/azimuth_2_joint,mA1/azimuth_3_joint,mA1/azimuth_4_joint,1.5533430342749532,-4.747295565424577,0.0,0.017453292519943295
2025/04/05 15:12:21.245373125,0,0,,mA1/azimuth_1_joint,mA1/azimuth_2_joint,mA1/azimuth_3_joint,mA1/azimuth_4_joint,1.5707963267948966,-4.747295565424577,0.0,0.017453292519943295
2025/04/05 15:12:21.352716293,0,0,,mA1/azimuth_1_joint,mA1/azimuth_2_joint,mA1/azimuth_3_joint,mA1/azimuth_4_joint,1.5707963267948966,-3.612831551628262,0.0,0.017453292519943295
2025/04/05 15:12:21.459505334,0,0,,mA1/azimuth_1_joint,mA1/azimuth_2_joint,mA1/azimuth_3_joint,mA1/azimuth_4_joint,1.5533430342749532,-5.567600313861911,0.0,0.017453292519943295
2025/04/05 15:12:21.566879860,0,0,,mA1/azimuth_1_joint,mA1/azimuth_2_joint,mA1/azimuth_3_joint,mA1/azimuth_4_joint,1.5533430342749532,-5.550147021341968,0.0,0.017453292519943295
2025/04/05 15:12:21.645653087,0,0,,mA1/azimuth_1_joint,mA1/azimuth_2_joint,mA1/azimuth_3_joint,mA1/azimuth_4_joint,1.5533430342749532,-5.567600313861911,0.0,0.017453292519943295
2025/04/05 15:12:21.748283719,0,0,,mA1/azimuth_1_joint,mA1/azimuth_2_joint,mA1/azimuth_3_joint,mA1/azimuth_4_joint,1.5533430342749532,-5.654866776461628,0.0,0.017453292519943295
2025/04/05 15:12:21.848930170,0,0,,mA1/azimuth_1_joint,mA1/azimuth_2_joint,mA1/azimuth_3_joint,mA1/azimuth_4_joint,1.5533430342749532,-5.340707511102648,0.0,0.017453292519943295
2025/04/05 15:12:21.947237082,0,0,,mA1/azimuth_1_joint,mA1/azimuth_2_joint,mA1/azimuth_3_joint,mA1/azimuth_4_joint,1.5533430342749532,-5.375614096142535,0.0,0.017453292519943295
2025/04/05 15:12:22.44462225,0,0,,mA1/azimuth_1_joint,mA1/azimuth_2_joint,mA1/azimuth_3_joint,mA1/azimuth_4_joint,1.5533430342749532,-5.672320068981571,0.0,0.017453292519943295
2025/04/05 15:12:22.144754006,0,0,,mA1/azimuth_1_joint,mA1/azimuth_2_joint,mA1/azimuth_3_joint,mA1/azimuth_4_joint,5.288347633542818,-1.5533430342749532,0.0,0.0
2025/04/05 15:12:22.246282885,0,0,,mA1/azimuth_1_joint,mA1/azimuth_2_joint,mA1/azimuth_3_joint,mA1/azimuth_4_joint,0.5061454830783556,-1.5533430342749532,0.0,0.0
2025/04/05 15:12:22.344276521,0,0,,mA1/azimuth_1_joint,mA1/azimuth_2_joint,mA1/azimuth_3_joint,mA1/azimuth_4_joint,5.462880558742252,-1.5533430342749532,0.0,0.0
2025/04/05 15:12:22.449582938,0,0,,mA1/azimuth_1_joint,mA1/azimuth_2_joint,mA1/azimuth_3_joint,mA1/azimuth_4_joint,5.550147021341968,-1.5533430342749532,0.0,0.0
2025/04/05 15:12:22.546052948,0,0,,mA1/azimuth_1_joint,mA1/azimuth_2_joint,mA1/azimuth_3_joint,mA1/azimuth_4_joint,5.672320068981571,-1.5533430342749532,0.0,0.0
2025/04/05 15:12:22.644799848,0,0,,mA1/azimuth_1_joint,mA1/azimuth_2_joint,mA1/azimuth_3_joint,mA1/azimuth_4_joint,5.619960191421741,-1.5533430342749532,0.0,0.0
2025/04/05 15:12:22.751653929,0,0,,mA1/azimuth_1_joint,mA1/azimuth_2_joint,mA1/azimuth_3_joint,mA1/azimuth_4_joint,5.654866776461628,-1.5533430342749532,0.0,0.0
2025/04/05 15:12:22.848227099,0,0,,mA1/azimuth_1_joint,mA1/azimuth_2_joint,mA1/azimuth_3_joint,mA1/azimuth_4_joint,5.672320068981571,-1.5533430342749532,0.0,0.0
2025/04/05 15:12:22.951704992,0,0,,mA1/azimuth_1_joint,mA1/azimuth_2_joint,mA1/azimuth_3_joint,mA1/azimuth_4_joint,5.619960191421741,-1.5533430342749532,0.0,0.0
2025/04/05 15:12:23.45158251,0,0,,mA1/azimuth_1_joint,mA1/azimuth_2_joint,mA1/azimuth_3_joint,mA1/azimuth_4_joint,0.7504915783575618,-1.5707963267948966,0.0,0.0
2025/04/05 15:12:23.145839944,0,0,,mA1/azimuth_1_joint,mA1/azimuth_2_joint,mA1/azimuth_3_joint,mA1/azimuth_4_joint,4.694935687864747,-1.5707963267948966,0.0,0.0
2025/04/05 15:12:23.247392860,0,0,,mA1/azimuth_1_joint,mA1/azimuth_2_joint,mA1/azimuth_3_joint,mA1/azimuth_4_joint,4.694935687864747,-1.5707963267948966,0.0,0.0
2025/04/05 15:12:23.346542953,0,0,,mA1/azimuth_1_joint,mA1/azimuth_2_joint,mA1/azimuth_3_joint,mA1/azimuth_4_joint,5.654866776461628,-1.5533430342749532,0.0,0.0
2025/04/05 15:12:23.446288160,0,0,,mA1/azimuth_1_joint,mA1/azimuth_2_joint,mA1/azimuth_3_joint,mA1/azimuth_4_joint,4.729842272904633,-1.5707963267948966,0.0,0.0
2025/04/05 15:12:23.547345655,0,0,,mA1/azimuth_1_joint,mA1/azimuth_2_joint,mA1/azimuth_3_joint,mA1/azimuth_4_joint,5.515240436302081,-1.5533430342749532,0.0,0.0
2025/04/05 15:12:23.644224310,0,0,,mA1/azimuth_1_joint,mA1/azimuth_2_joint,mA1/azimuth_3_joint,mA1/azimuth_4_joint,6.021385919380437,-1.5533430342749532,-0.017453292519943295,0.0
2025/04/05 15:12:23.753790039,0,0,,mA1/azimuth_1_joint,mA1/azimuth_2_joint,mA1/azimuth_3_joint,mA1/azimuth_4_joint,5.672320068981571,-1.5533430342749532,-0.017453292519943295,0.0
2025/04/05 15:12:23.847018926,0,0,,mA1/azimuth_1_joint,mA1/azimuth_2_joint,mA1/azimuth_3_joint,mA1/azimuth_4_joint,5.3930673886624785,-1.5533430342749532,-0.017453292519943295,0.0
2025/04/05 15:12:23.944553014,0,0,,mA1/azimuth_1_joint,mA1/azimuth_2_joint,mA1/azimuth_3_joint,mA1/azimuth_4_joint,5.6374134839416845,-1.5533430342749532,-0.017453292519943295,0.0
2025/04/05 15:12:24.46799110,0,0,,mA1/azimuth_1_joint,mA1/azimuth_2_joint,mA1/azimuth_3_joint,mA1/azimuth_4_joint,5.6374134839416845,-1.5533430342749532,-0.017453292519943295,0.0
2025/04/05 15:12:24.144551820,0,0,,mA1/azimuth_1_joint,mA1/azimuth_2_joint,mA1/azimuth_3_joint,mA1/azimuth_4_joint,5.602506898901797,-1.5533430342749532,-0.017453292519943295,0.0
2025/04/05 15:12:24.244714744,0,0,,mA1/azimuth_1_joint,mA1/azimuth_2_joint,mA1/azimuth_3_joint,mA1/azimuth_4_joint,5.934119456780721,-1.5533430342749532,-0.017453292519943295,0.0
2025/04/05 15:12:24.347688203,0,0,,mA1/azimuth_1_joint,mA1/azimuth_2_joint,mA1/azimuth_3_joint,mA1/azimuth_4_joint,5.8817595792208905,-1.5533430342749532,-0.017453292519943295,0.0
2025/04/05 15:12:24.446857305,0,0,,mA1/azimuth_1_joint,mA1/azimuth_2_joint,mA1/azimuth_3_joint,mA1/azimuth_4_joint,0.5759586531581288,-1.5533430342749532,-0.017453292519943295,0.0
2025/04/05 15:12:24.545885109,0,0,,mA1/azimuth_1_joint,mA1/azimuth_2_joint,mA1/azimuth_3_joint,mA1/azimuth_4_joint,5.759586531581287,-1.5533430342749532,-0.017453292519943295,0.0
2025/04/05 15:12:24.648636398,0,0,,mA1/azimuth_1_joint,mA1/azimuth_2_joint,mA1/azimuth_3_joint,mA1/azimuth_4_joint,5.742133239061344,-1.5533430342749532,-0.017453292519943295,0.0
2025/04/05 15:12:24.745336285,0,0,,mA1/azimuth_1_joint,mA1/azimuth_2_joint,mA1/azimuth_3_joint,mA1/azimuth_4_joint,5.550147021341968,-1.5533430342749532,-0.017453292519943295,0.0
2025/04/05 15:12:24.844608955,0,0,,mA1/azimuth_1_joint,mA1/azimuth_2_joint,mA1/azimuth_3_joint,mA1/azimuth_4_joint,5.672320068981571,-1.5533430342749532,-0.017453292519943295,0.0
2025/04/05 15:12:24.947565201,0,0,,mA1/azimuth_1_joint,mA1/azimuth_2_joint,mA1/azimuth_3_joint,mA1/azimuth_4_joint,5.672320068981571,-1.5533430342749532,-0.017453292519943295,0.0
2025/04/05 15:12:25.45446419,0,0,,mA1/azimuth_1_joint,mA1/azimuth_2_joint,mA1/azimuth_3_joint,mA1/azimuth_4_joint,5.707226654021458,-1.5533430342749532,-0.05235987755982989,0.0
2025/04/05 15:12:25.146803870,0,0,,mA1/azimuth_1_joint,mA1/azimuth_2_joint,mA1/azimuth_3_joint,mA1/azimuth_4_joint,5.602506898901797,-1.5533430342749532,-0.05235987755982989,0.0
2025/04/05 15:12:25.245447085,0,0,,mA1/azimuth_1_joint,mA1/azimuth_2_joint,mA1/azimuth_3_joint,mA1/azimuth_4_joint,4.886921905584122,-1.5533430342749532,-0.05235987755982989,0.0
2025/04/05 15:12:25.347633556,0,0,,mA1/azimuth_1_joint,mA1/azimuth_2_joint,mA1/azimuth_3_joint,mA1/azimuth_4_joint,5.602506898901797,-1.5533430342749532,-0.05235987755982989,0.0
2025/04/05 15:12:25.445857601,0,0,,mA1/azimuth_1_joint,mA1/azimuth_2_joint,mA1/azimuth_3_joint,mA1/azimuth_4_joint,5.462880558742252,-1.5533430342749532,-0.05235987755982989,0.0
2025/04/05 15:12:25.545098598,0,0,,mA1/azimuth_1_joint,mA1/azimuth_2_joint,mA1/azimuth_3_joint,mA1/azimuth_4_joint,5.532693728822025,-1.5533430342749532,-0.05235987755982989,0.0
2025/04/05 15:12:25.645977973,0,0,,mA1/azimuth_1_joint,mA1/azimuth_2_joint,mA1/azimuth_3_joint,mA1/azimuth_4_joint,5.567600313861911,-1.5533430342749532,-0.05235987755982989,0.0
2025/04/05 15:12:25.745782020,0,0,,mA1/azimuth_1_joint,mA1/azimuth_2_joint,mA1/azimuth_3_joint,mA1/azimuth_4_joint,6.021385919380437,-1.5533430342749532,-0.05235987755982989,0.0
2025/04/05 15:12:25.847594009,0,0,,mA1/azimuth_1_joint,mA1/azimuth_2_joint,mA1/azimuth_3_joint,mA1/azimuth_4_joint,5.585053606381854,-1.5533430342749532,-0.05235987755982989,0.0
2025/04/05 15:12:25.948460936,0,0,,mA1/azimuth_1_joint,mA1/azimuth_2_joint,mA1/azimuth_3_joint,mA1/azimuth_4_joint,5.497787143782138,-1.5533430342749532,-0.05235987755982989,0.0
2025/04/05 15:12:26.45797893,0,0,,mA1/azimuth_1_joint,mA1/azimuth_2_joint,mA1/azimuth_3_joint,mA1/azimuth_4_joint,5.567600313861911,-1.5533430342749532,-0.05235987755982989,0.0
2025/04/05 15:12:26.145037364,0,0,,mA1/azimuth_1_joint,mA1/azimuth_2_joint,mA1/azimuth_3_joint,mA1/azimuth_4_joint,5.567600313861911,-1.5533430342749532,-0.05235987755982989,0.0
2025/04/05 15:12:26.260629909,0,0,,mA1/azimuth_1_joint,mA1/azimuth_2_joint,mA1/azimuth_3_joint,mA1/azimuth_4_joint,5.98647933434055,-1.5533430342749532,-0.05235987755982989,0.0
2025/04/05 15:12:26.382428843,0,0,,mA1/azimuth_1_joint,mA1/azimuth_2_joint,mA1/azimuth_3_joint,mA1/azimuth_4_joint,5.550147021341968,-1.5533430342749532,-0.05235987755982989,0.0
2025/04/05 15:12:26.444625540,0,0,,mA1/azimuth_1_joint,mA1/azimuth_2_joint,mA1/azimuth_3_joint,mA1/azimuth_4_joint,5.1661745859032155,-1.5533430342749532,-0.05235987755982989,0.0
2025/04/05 15:12:26.550989465,0,0,,mA1/azimuth_1_joint,mA1/azimuth_2_joint,mA1/azimuth_3_joint,mA1/azimuth_4_joint,4.9218284906240095,-1.5533430342749532,-0.03490658503988659,0.0
2025/04/05 15:12:26.649488908,0,0,,mA1/azimuth_1_joint,mA1/azimuth_2_joint,mA1/azimuth_3_joint,mA1/azimuth_4_joint,4.974188368183839,-1.5533430342749532,-0.03490658503988659,0.0
2025/04/05 15:12:26.746580718,0,0,,mA1/azimuth_1_joint,mA1/azimuth_2_joint,mA1/azimuth_3_joint,mA1/azimuth_4_joint,4.974188368183839,-1.5533430342749532,-0.03490658503988659,0.0
2025/04/05 15:12:26.844848256,0,0,,mA1/azimuth_1_joint,mA1/azimuth_2_joint,mA1/azimuth_3_joint,mA1/azimuth_4_joint,4.956735075663896,-1.5533430342749532,-0.03490658503988659,0.0
2025/04/05 15:12:26.944341113,0,0,,mA1/azimuth_1_joint,mA1/azimuth_2_joint,mA1/azimuth_3_joint,mA1/azimuth_4_joint,4.6600291028248595,-1.5533430342749532,-0.03490658503988659,0.0
2025/04/05 15:12:27.52194594,0,0,,mA1/azimuth_1_joint,mA1/azimuth_2_joint,mA1/azimuth_3_joint,mA1/azimuth_4_joint,4.729842272904633,-1.5533430342749532,-0.03490658503988659,0.0
2025/04/05 15:12:27.145649379,0,0,,mA1/azimuth_1_joint,mA1/azimuth_2_joint,mA1/azimuth_3_joint,mA1/azimuth_4_joint,4.9218284906240095,-1.5533430342749532,-0.03490658503988659,0.0
2025/04/05 15:12:27.244570075,0,0,,mA1/azimuth_1_joint,mA1/azimuth_2_joint,mA1/azimuth_3_joint,mA1/azimuth_4_joint,4.694935687864747,-1.5533430342749532,-0.03490658503988659,0.0
2025/04/05 15:12:27.349366210,0,0,,mA1/azimuth_1_joint,mA1/azimuth_2_joint,mA1/azimuth_3_joint,mA1/azimuth_4_joint,4.869468613064179,-1.5533430342749532,-0.03490658503988659,0.0
2025/04/05 15:12:27.446126093,0,0,,mA1/azimuth_1_joint,mA1/azimuth_2_joint,mA1/azimuth_3_joint,mA1/azimuth_4_joint,4.799655442984406,-1.5533430342749532,-0.03490658503988659,0.0
2025/04/05 15:12:27.551903312,0,0,,mA1/azimuth_1_joint,mA1/azimuth_2_joint,mA1/azimuth_3_joint,mA1/azimuth_4_joint,4.799655442984406,-1.5533430342749532,-0.03490658503988659,0.0
2025/04/05 15:12:27.645716186,0,0,,mA1/azimuth_1_joint,mA1/azimuth_2_joint,mA1/azimuth_3_joint,mA1/azimuth_4_joint,4.799655442984406,-1.5533430342749532,-0.03490658503988659,0.0
2025/04/05 15:12:27.745304498,0,0,,mA1/azimuth_1_joint,mA1/azimuth_2_joint,mA1/azimuth_3_joint,mA1/azimuth_4_joint,4.886921905584122,-1.5533430342749532,-0.03490658503988659,0.0
2025/04/05 15:12:27.851856481,0,0,,mA1/azimuth_1_joint,mA1/azimuth_2_joint,mA1/azimuth_3_joint,mA1/azimuth_4_joint,4.974188368183839,-1.5533430342749532,-0.03490658503988659,0.0
2025/04/05 15:12:27.946064988,0,0,,mA1/azimuth_1_joint,mA1/azimuth_2_joint,mA1/azimuth_3_joint,mA1/azimuth_4_joint,5.078908123303499,-1.5533430342749532,-0.03490658503988659,0.0
2025/04/05 15:12:28.44155042,0,0,,mA1/azimuth_1_joint,mA1/azimuth_2_joint,mA1/azimuth_3_joint,mA1/azimuth_4_joint,1.5533430342749532,-5.497787143782138,0.0,0.0
2025/04/05 15:12:28.147649911,0,0,,mA1/azimuth_1_joint,mA1/azimuth_2_joint,mA1/azimuth_3_joint,mA1/azimuth_4_joint,1.5533430342749532,-5.201081170943102,0.0,0.0
2025/04/05 15:12:28.246093492,0,0,,mA1/azimuth_1_joint,mA1/azimuth_2_joint,mA1/azimuth_3_joint,mA1/azimuth_4_joint,1.5533430342749532,-5.183627878423159,0.0,0.0
2025/04/05 15:12:28.350126654,0,0,,mA1/azimuth_1_joint,mA1/azimuth_2_joint,mA1/azimuth_3_joint,mA1/azimuth_4_joint,1.5533430342749532,-5.183627878423159,0.0,0.0
2025/04/05 15:12:28.450162467,0,0,,mA1/azimuth_1_joint,mA1/azimuth_2_joint,mA1/azimuth_3_joint,mA1/azimuth_4_joint,1.5533430342749532,-5.1312680008633285,0.0,0.0
2025/04/05 15:12:28.549598987,0,0,,mA1/azimuth_1_joint,mA1/azimuth_2_joint,mA1/azimuth_3_joint,mA1/azimuth_4_joint,1.5533430342749532,-5.113814708343385,0.0,0.0
2025/04/05 15:12:28.653464333,0,0,,mA1/azimuth_1_joint,mA1/azimuth_2_joint,mA1/azimuth_3_joint,mA1/azimuth_4_joint,1.5533430342749532,-5.113814708343385,0.0,0.0
2025/04/05 15:12:28.745225813,0,0,,mA1/azimuth_1_joint,mA1/azimuth_2_joint,mA1/azimuth_3_joint,mA1/azimuth_4_joint,1.5533430342749532,-5.096361415823442,0.0,0.0
2025/04/05 15:12:28.845299592,0,0,,mA1/azimuth_1_joint,mA1/azimuth_2_joint,mA1/azimuth_3_joint,mA1/azimuth_4_joint,1.5533430342749532,-5.078908123303499,0.0,0.0
2025/04/05 15:12:28.948855440,0,0,,mA1/azimuth_1_joint,mA1/azimuth_2_joint,mA1/azimuth_3_joint,mA1/azimuth_4_joint,1.5533430342749532,-5.078908123303499,0.0,0.0
2025/04/05 15:12:29.47470766,0,0,,mA1/azimuth_1_joint,mA1/azimuth_2_joint,mA1/azimuth_3_joint,mA1/azimuth_4_joint,1.5533430342749532,-5.113814708343385,0.0,0.0
