time,header_stamp_secs,header_stamp_nsecs,header_frame_id,status_status,status_service,latitude,longitude,altitude,position_covariance_0,position_covariance_1,position_covariance_2,position_covariance_3,position_covariance_4,position_covariance_5,position_covariance_6,position_covariance_7,position_covariance_8,position_covariance_type
2025/04/09 09:59:46.450128911,1744185586,449762444,mA1/gps,0,1,63.43459657697981,10.39309127894815,0.0,1.4400000000000002e-10,0.0,0.0,0.0,1.4400000000000002e-10,0.0,0.0,0.0,1.0,2
2025/04/09 09:59:46.502016828,1744185586,501078573,mA1/gps,0,1,63.43459657701621,10.393091276334667,0.0,1.4400000000000002e-10,0.0,0.0,0.0,1.4400000000000002e-10,0.0,0.0,0.0,1.0,2
2025/04/09 09:59:46.560863743,1744185586,555136983,mA1/gps,0,1,63.43459657759474,10.393091273279941,0.0,1.4400000000000002e-10,0.0,0.0,0.0,1.4400000000000002e-10,0.0,0.0,0.0,1.0,2
2025/04/09 09:59:46.607888572,1744185586,607025886,mA1/gps,0,1,63.434596576834934,10.393091271533576,0.0,1.4400000000000002e-10,0.0,0.0,0.0,1.4400000000000002e-10,0.0,0.0,0.0,1.0,2
2025/04/09 09:59:46.651453623,1744185586,649150746,mA1/gps,0,1,63.43459657614045,10.393091269997813,0.0,1.4400000000000002e-10,0.0,0.0,0.0,1.4400000000000002e-10,0.0,0.0,0.0,1.0,2
2025/04/09 09:59:46.711825495,1744185586,700437311,mA1/gps,0,1,63.43459657650596,10.3930912689034,0.0,1.4400000000000002e-10,0.0,0.0,0.0,1.4400000000000002e-10,0.0,0.0,0.0,1.0,2
2025/04/09 09:59:46.751848456,1744185586,750543516,mA1/gps,0,1,63.43459657680633,10.393091268789936,0.0,1.4400000000000002e-10,0.0,0.0,0.0,1.4400000000000002e-10,0.0,0.0,0.0,1.0,2
2025/04/09 09:59:46.807442816,1744185586,804833640,mA1/gps,0,1,63.43459657595412,10.393091269230151,0.0,1.4400000000000002e-10,0.0,0.0,0.0,1.4400000000000002e-10,0.0,0.0,0.0,1.0,2
2025/04/09 09:59:46.847456004,1744185586,846052149,mA1/gps,0,1,63.43459657535338,10.393091270260397,0.0,1.4400000000000002e-10,0.0,0.0,0.0,1.4400000000000002e-10,0.0,0.0,0.0,1.0,2
2025/04/09 09:59:46.897403017,1744185586,897232722,mA1/gps,0,1,63.43459657552059,10.393091272343076,0.0,1.4400000000000002e-10,0.0,0.0,0.0,1.4400000000000002e-10,0.0,0.0,0.0,1.0,2
2025/04/09 09:59:46.948275614,1744185586,947831498,mA1/gps,0,1,63.43459657570757,10.393091274808848,0.0,1.4400000000000002e-10,0.0,0.0,0.0,1.4400000000000002e-10,0.0,0.0,0.0,1.0,2
2025/04/09 09:59:46.998994358,1744185586,998742560,mA1/gps,0,1,63.43459657485189,10.393091277806882,0.0,1.4400000000000002e-10,0.0,0.0,0.0,1.4400000000000002e-10,0.0,0.0,0.0,1.0,2
2025/04/09 09:59:47.49631238,1744185587,49428693,mA1/gps,0,1,63.434596574368264,10.39309128114476,0.0,1.4400000000000002e-10,0.0,0.0,0.0,1.4400000000000002e-10,0.0,0.0,0.0,1.0,2
2025/04/09 09:59:47.100544588,1744185587,100350646,mA1/gps,0,1,63.43459657474908,10.393091285199555,0.0,1.4400000000000002e-10,0.0,0.0,0.0,1.4400000000000002e-10,0.0,0.0,0.0,1.0,2
2025/04/09 09:59:47.150447680,1744185587,150242685,mA1/gps,0,1,63.434596574905875,10.393091289189421,0.0,1.4400000000000002e-10,0.0,0.0,0.0,1.4400000000000002e-10,0.0,0.0,0.0,1.0,2
2025/04/09 09:59:47.203781283,1744185587,203370981,mA1/gps,0,1,63.434596574152,10.393091292536612,0.0,1.4400000000000002e-10,0.0,0.0,0.0,1.4400000000000002e-10,0.0,0.0,0.0,1.0,2
2025/04/09 09:59:47.253704311,1744185587,253362618,mA1/gps,0,1,63.4345965736019,10.393091297486825,0.0,1.4400000000000002e-10,0.0,0.0,0.0,1.4400000000000002e-10,0.0,0.0,0.0,1.0,2
2025/04/09 09:59:47.310390871,1744185587,309980622,mA1/gps,0,1,63.4345965740904,10.393091301051284,0.0,1.4400000000000002e-10,0.0,0.0,0.0,1.4400000000000002e-10,0.0,0.0,0.0,1.0,2
2025/04/09 09:59:47.350220465,1744185587,348016635,mA1/gps,0,1,63.43459657436231,10.393091304641187,0.0,1.4400000000000002e-10,0.0,0.0,0.0,1.4400000000000002e-10,0.0,0.0,0.0,1.0,2
2025/04/09 09:59:47.403792197,1744185587,402773178,mA1/gps,0,1,63.434596573681816,10.39309130795593,0.0,1.4400000000000002e-10,0.0,0.0,0.0,1.4400000000000002e-10,0.0,0.0,0.0,1.0,2
2025/04/09 09:59:47.450081182,1744185587,449870219,mA1/gps,0,1,63.434596573196366,10.393091309996242,0.0,1.4400000000000002e-10,0.0,0.0,0.0,1.4400000000000002e-10,0.0,0.0,0.0,1.0,2
2025/04/09 09:59:47.500874226,1744185587,500668993,mA1/gps,0,1,63.43459657356135,10.393091312330428,0.0,1.4400000000000002e-10,0.0,0.0,0.0,1.4400000000000002e-10,0.0,0.0,0.0,1.0,2
2025/04/09 09:59:47.550687339,1744185587,550499982,mA1/gps,0,1,63.434596574226774,10.393091313510672,0.0,1.4400000000000002e-10,0.0,0.0,0.0,1.4400000000000002e-10,0.0,0.0,0.0,1.0,2
2025/04/09 09:59:47.601819641,1744185587,601462154,mA1/gps,0,1,63.43459657372609,10.393091314570553,0.0,1.4400000000000002e-10,0.0,0.0,0.0,1.4400000000000002e-10,0.0,0.0,0.0,1.0,2
2025/04/09 09:59:47.651600351,1744185587,651253909,mA1/gps,0,1,63.43459657312238,10.393091315262804,0.0,1.4400000000000002e-10,0.0,0.0,0.0,1.4400000000000002e-10,0.0,0.0,0.0,1.0,2
2025/04/09 09:59:47.702451038,1744185587,702206699,mA1/gps,0,1,63.43459657376938,10.393091316062206,0.0,1.4400000000000002e-10,0.0,0.0,0.0,1.4400000000000002e-10,0.0,0.0,0.0,1.0,2
2025/04/09 09:59:47.752689714,1744185587,752513122,mA1/gps,0,1,63.4345965740645,10.39309131548588,0.0,1.4400000000000002e-10,0.0,0.0,0.0,1.4400000000000002e-10,0.0,0.0,0.0,1.0,2
2025/04/09 09:59:47.803625242,1744185587,803509976,mA1/gps,0,1,63.43459657335092,10.39309131587171,0.0,1.4400000000000002e-10,0.0,0.0,0.0,1.4400000000000002e-10,0.0,0.0,0.0,1.0,2
2025/04/09 09:59:47.853893095,1744185587,853657188,mA1/gps,0,1,63.43459657285344,10.393091316249533,0.0,1.4400000000000002e-10,0.0,0.0,0.0,1.4400000000000002e-10,0.0,0.0,0.0,1.0,2
2025/04/09 09:59:47.906297091,1744185587,905708663,mA1/gps,0,1,63.434596573454286,10.393091316613457,0.0,1.4400000000000002e-10,0.0,0.0,0.0,1.4400000000000002e-10,0.0,0.0,0.0,1.0,2
2025/04/09 09:59:47.955787481,1744185587,955539692,mA1/gps,0,1,63.434596573666056,10.393091315885673,0.0,1.4400000000000002e-10,0.0,0.0,0.0,1.4400000000000002e-10,0.0,0.0,0.0,1.0,2
2025/04/09 09:59:47.996696319,1744185587,996494141,mA1/gps,0,1,63.434596572884075,10.393091316023277,0.0,1.4400000000000002e-10,0.0,0.0,0.0,1.4400000000000002e-10,0.0,0.0,0.0,1.0,2
2025/04/09 09:59:48.46556757,1744185588,46271422,mA1/gps,0,1,63.43459657203664,10.393091316204636,0.0,1.4400000000000002e-10,0.0,0.0,0.0,1.4400000000000002e-10,0.0,0.0,0.0,1.0,2
2025/04/09 09:59:48.97459211,1744185588,97238976,mA1/gps,0,1,63.43459657243435,10.393091316370507,0.0,1.4400000000000002e-10,0.0,0.0,0.0,1.4400000000000002e-10,0.0,0.0,0.0,1.0,2
2025/04/09 09:59:48.150388498,1744185588,148685664,mA1/gps,0,1,63.43459657266213,10.393091316418069,0.0,1.4400000000000002e-10,0.0,0.0,0.0,1.4400000000000002e-10,0.0,0.0,0.0,1.0,2
2025/04/09 09:59:48.199385790,1744185588,199095587,mA1/gps,0,1,63.43459657204969,10.39309131721133,0.0,1.4400000000000002e-10,0.0,0.0,0.0,1.4400000000000002e-10,0.0,0.0,0.0,1.0,2
2025/04/09 09:59:48.249971122,1744185588,249314880,mA1/gps,0,1,63.434596571206235,10.393091318173314,0.0,1.4400000000000002e-10,0.0,0.0,0.0,1.4400000000000002e-10,0.0,0.0,0.0,1.0,2
2025/04/09 09:59:48.301984476,1744185588,300709062,mA1/gps,0,1,63.43459657150692,10.393091319123513,0.0,1.4400000000000002e-10,0.0,0.0,0.0,1.4400000000000002e-10,0.0,0.0,0.0,1.0,2
2025/04/09 09:59:48.351798303,1744185588,351432167,mA1/gps,0,1,63.43459657166873,10.393091319474504,0.0,1.4400000000000002e-10,0.0,0.0,0.0,1.4400000000000002e-10,0.0,0.0,0.0,1.0,2
2025/04/09 09:59:48.402516917,1744185588,402284030,mA1/gps,0,1,63.434596570659046,10.393091319619238,0.0,1.4400000000000002e-10,0.0,0.0,0.0,1.4400000000000002e-10,0.0,0.0,0.0,1.0,2
2025/04/09 09:59:48.452384755,1744185588,452139023,mA1/gps,0,1,63.43459657002369,10.393091320850463,0.0,1.4400000000000002e-10,0.0,0.0,0.0,1.4400000000000002e-10,0.0,0.0,0.0,1.0,2
2025/04/09 09:59:48.503207420,1744185588,503093547,mA1/gps,0,1,63.43459657027255,10.393091321504311,0.0,1.4400000000000002e-10,0.0,0.0,0.0,1.4400000000000002e-10,0.0,0.0,0.0,1.0,2
2025/04/09 09:59:48.553251381,1744185588,552972338,mA1/gps,0,1,63.434596570611134,10.393091321548646,0.0,1.4400000000000002e-10,0.0,0.0,0.0,1.4400000000000002e-10,0.0,0.0,0.0,1.0,2
2025/04/09 09:59:48.604095244,1744185588,603876461,mA1/gps,0,1,63.43459656966079,10.39309132205791,0.0,1.4400000000000002e-10,0.0,0.0,0.0,1.4400000000000002e-10,0.0,0.0,0.0,1.0,2
2025/04/09 09:59:48.657737512,1744185588,655682642,mA1/gps,0,1,63.43459656901055,10.393091323162066,0.0,1.4400000000000002e-10,0.0,0.0,0.0,1.4400000000000002e-10,0.0,0.0,0.0,1.0,2
2025/04/09 09:59:48.705487200,1744185588,705306563,mA1/gps,0,1,63.43459656937146,10.393091323160757,0.0,1.4400000000000002e-10,0.0,0.0,0.0,1.4400000000000002e-10,0.0,0.0,0.0,1.0,2
2025/04/09 09:59:48.755366814,1744185588,755140084,mA1/gps,0,1,63.434596569721634,10.393091322957634,0.0,1.4400000000000002e-10,0.0,0.0,0.0,1.4400000000000002e-10,0.0,0.0,0.0,1.0,2
2025/04/09 09:59:48.807419264,1744185588,806158728,mA1/gps,0,1,63.43459656891005,10.393091323320228,0.0,1.4400000000000002e-10,0.0,0.0,0.0,1.4400000000000002e-10,0.0,0.0,0.0,1.0,2
2025/04/09 09:59:48.846183145,1744185588,845927024,mA1/gps,0,1,63.434596568542844,10.393091324244121,0.0,1.4400000000000002e-10,0.0,0.0,0.0,1.4400000000000002e-10,0.0,0.0,0.0,1.0,2
2025/04/09 09:59:48.897139273,1744185588,896909480,mA1/gps,0,1,63.434596568923276,10.393091324615966,0.0,1.4400000000000002e-10,0.0,0.0,0.0,1.4400000000000002e-10,0.0,0.0,0.0,1.0,2
2025/04/09 09:59:48.947103957,1744185588,946757260,mA1/gps,0,1,63.434596569290356,10.393091325582716,0.0,1.4400000000000002e-10,0.0,0.0,0.0,1.4400000000000002e-10,0.0,0.0,0.0,1.0,2
2025/04/09 09:59:48.997980118,1744185588,997718398,mA1/gps,0,1,63.434596568727336,10.393091325357382,0.0,1.4400000000000002e-10,0.0,0.0,0.0,1.4400000000000002e-10,0.0,0.0,0.0,1.0,2
2025/04/09 09:59:49.50020763,1744185589,49655499,mA1/gps,0,1,63.43459656825004,10.393091325522272,0.0,1.4400000000000002e-10,0.0,0.0,0.0,1.4400000000000002e-10,0.0,0.0,0.0,1.0,2
2025/04/09 09:59:49.100605339,1744185589,100326454,mA1/gps,0,1,63.434596568718355,10.393091325494666,0.0,1.4400000000000002e-10,0.0,0.0,0.0,1.4400000000000002e-10,0.0,0.0,0.0,1.0,2
2025/04/09 09:59:49.150490213,1744185589,150123825,mA1/gps,0,1,63.43459656913525,10.393091325437593,0.0,1.4400000000000002e-10,0.0,0.0,0.0,1.4400000000000002e-10,0.0,0.0,0.0,1.0,2
2025/04/09 09:59:49.202147471,1744185589,201811480,mA1/gps,0,1,63.43459656865814,10.393091326127147,0.0,1.4400000000000002e-10,0.0,0.0,0.0,1.4400000000000002e-10,0.0,0.0,0.0,1.0,2
2025/04/09 09:59:49.251525838,1744185589,250906709,mA1/gps,0,1,63.43459656790397,10.393091327403797,0.0,1.4400000000000002e-10,0.0,0.0,0.0,1.4400000000000002e-10,0.0,0.0,0.0,1.0,2
2025/04/09 09:59:49.303269161,1744185589,302865306,mA1/gps,0,1,63.43459656857253,10.393091328400809,0.0,1.4400000000000002e-10,0.0,0.0,0.0,1.4400000000000002e-10,0.0,0.0,0.0,1.0,2
2025/04/09 09:59:49.354544266,1744185589,351959975,mA1/gps,0,1,63.43459656896227,10.393091328917505,0.0,1.4400000000000002e-10,0.0,0.0,0.0,1.4400000000000002e-10,0.0,0.0,0.0,1.0,2
2025/04/09 09:59:49.404015084,1744185589,403762573,mA1/gps,0,1,63.43459656832883,10.393091329992329,0.0,1.4400000000000002e-10,0.0,0.0,0.0,1.4400000000000002e-10,0.0,0.0,0.0,1.0,2
2025/04/09 09:59:49.454487387,1744185589,454280179,mA1/gps,0,1,63.434596567718195,10.393091331022996,0.0,1.4400000000000002e-10,0.0,0.0,0.0,1.4400000000000002e-10,0.0,0.0,0.0,1.0,2
2025/04/09 09:59:49.505501676,1744185589,505246147,mA1/gps,0,1,63.43459656820418,10.393091332785676,0.0,1.4400000000000002e-10,0.0,0.0,0.0,1.4400000000000002e-10,0.0,0.0,0.0,1.0,2
2025/04/09 09:59:49.557723551,1744185589,555322060,mA1/gps,0,1,63.43459656862652,10.393091333306835,0.0,1.4400000000000002e-10,0.0,0.0,0.0,1.4400000000000002e-10,0.0,0.0,0.0,1.0,2
2025/04/09 09:59:49.606599321,1744185589,606208157,mA1/gps,0,1,63.43459656770769,10.393091334649604,0.0,1.4400000000000002e-10,0.0,0.0,0.0,1.4400000000000002e-10,0.0,0.0,0.0,1.0,2
2025/04/09 09:59:49.646281268,1744185589,645963336,mA1/gps,0,1,63.43459656719066,10.393091335702483,0.0,1.4400000000000002e-10,0.0,0.0,0.0,1.4400000000000002e-10,0.0,0.0,0.0,1.0,2
2025/04/09 09:59:49.698996031,1744185589,697019771,mA1/gps,0,1,63.434596567307764,10.393091336934564,0.0,1.4400000000000002e-10,0.0,0.0,0.0,1.4400000000000002e-10,0.0,0.0,0.0,1.0,2
2025/04/09 09:59:49.747274868,1744185589,746980590,mA1/gps,0,1,63.43459656781458,10.39309133905577,0.0,1.4400000000000002e-10,0.0,0.0,0.0,1.4400000000000002e-10,0.0,0.0,0.0,1.0,2
2025/04/09 09:59:49.799614931,1744185589,799444889,mA1/gps,0,1,63.43459656691239,10.393091339548818,0.0,1.4400000000000002e-10,0.0,0.0,0.0,1.4400000000000002e-10,0.0,0.0,0.0,1.0,2
2025/04/09 09:59:49.849471436,1744185589,849273910,mA1/gps,0,1,63.43459656629701,10.393091339504224,0.0,1.4400000000000002e-10,0.0,0.0,0.0,1.4400000000000002e-10,0.0,0.0,0.0,1.0,2
2025/04/09 09:59:49.900440312,1744185589,900218776,mA1/gps,0,1,63.434596566494385,10.393091339489173,0.0,1.4400000000000002e-10,0.0,0.0,0.0,1.4400000000000002e-10,0.0,0.0,0.0,1.0,2
2025/04/09 09:59:49.952998455,1744185589,952729093,mA1/gps,0,1,63.43459656632305,10.39309133995764,0.0,1.4400000000000002e-10,0.0,0.0,0.0,1.4400000000000002e-10,0.0,0.0,0.0,1.0,2
2025/04/09 09:59:50.3873202,1744185590,3627862,mA1/gps,0,1,63.43459656589956,10.393091339701943,0.0,1.4400000000000002e-10,0.0,0.0,0.0,1.4400000000000002e-10,0.0,0.0,0.0,1.0,2
2025/04/09 09:59:50.56704637,1744185590,53578298,mA1/gps,0,1,63.43459656530114,10.393091338862533,0.0,1.4400000000000002e-10,0.0,0.0,0.0,1.4400000000000002e-10,0.0,0.0,0.0,1.0,2
2025/04/09 09:59:50.105221415,1744185590,105084277,mA1/gps,0,1,63.43459656569338,10.393091338378868,0.0,1.4400000000000002e-10,0.0,0.0,0.0,1.4400000000000002e-10,0.0,0.0,0.0,1.0,2
2025/04/09 09:59:50.155220742,1744185590,154942160,mA1/gps,0,1,63.43459656592093,10.393091337777493,0.0,1.4400000000000002e-10,0.0,0.0,0.0,1.4400000000000002e-10,0.0,0.0,0.0,1.0,2
2025/04/09 09:59:50.206103627,1744185590,205850498,mA1/gps,0,1,63.43459656530085,10.39309133773026,0.0,1.4400000000000002e-10,0.0,0.0,0.0,1.4400000000000002e-10,0.0,0.0,0.0,1.0,2
2025/04/09 09:59:50.246811184,1744185590,246490617,mA1/gps,0,1,63.43459656478759,10.39309133713197,0.0,1.4400000000000002e-10,0.0,0.0,0.0,1.4400000000000002e-10,0.0,0.0,0.0,1.0,2
2025/04/09 09:59:50.299604821,1744185590,298337620,mA1/gps,0,1,63.434596565242835,10.393091336229018,0.0,1.4400000000000002e-10,0.0,0.0,0.0,1.4400000000000002e-10,0.0,0.0,0.0,1.0,2
2025/04/09 09:59:50.350591916,1744185590,350404821,mA1/gps,0,1,63.43459656589063,10.393091337364497,0.0,1.4400000000000002e-10,0.0,0.0,0.0,1.4400000000000002e-10,0.0,0.0,0.0,1.0,2
2025/04/09 09:59:50.401661480,1744185590,401426486,mA1/gps,0,1,63.43459656518972,10.393091337264387,0.0,1.4400000000000002e-10,0.0,0.0,0.0,1.4400000000000002e-10,0.0,0.0,0.0,1.0,2
2025/04/09 09:59:50.451490030,1744185590,451302380,mA1/gps,0,1,63.43459656490382,10.39309133736035,0.0,1.4400000000000002e-10,0.0,0.0,0.0,1.4400000000000002e-10,0.0,0.0,0.0,1.0,2
2025/04/09 09:59:50.502588268,1744185590,502291846,mA1/gps,0,1,63.43459656538253,10.393091337358625,0.0,1.4400000000000002e-10,0.0,0.0,0.0,1.4400000000000002e-10,0.0,0.0,0.0,1.0,2
2025/04/09 09:59:50.552445513,1744185590,552133541,mA1/gps,0,1,63.434596566093,10.39309133758608,0.0,1.4400000000000002e-10,0.0,0.0,0.0,1.4400000000000002e-10,0.0,0.0,0.0,1.0,2
2025/04/09 09:59:50.605444750,1744185590,603103841,mA1/gps,0,1,63.434596565666055,10.393091338504048,0.0,1.4400000000000002e-10,0.0,0.0,0.0,1.4400000000000002e-10,0.0,0.0,0.0,1.0,2
2025/04/09 09:59:50.653276675,1744185590,652973427,mA1/gps,0,1,63.434596565215536,10.393091339541662,0.0,1.4400000000000002e-10,0.0,0.0,0.0,1.4400000000000002e-10,0.0,0.0,0.0,1.0,2
2025/04/09 09:59:50.704379075,1744185590,703925944,mA1/gps,0,1,63.43459656582383,10.393091340973342,0.0,1.4400000000000002e-10,0.0,0.0,0.0,1.4400000000000002e-10,0.0,0.0,0.0,1.0,2
2025/04/09 09:59:50.754096315,1744185590,753771097,mA1/gps,0,1,63.434596566283844,10.393091342017014,0.0,1.4400000000000002e-10,0.0,0.0,0.0,1.4400000000000002e-10,0.0,0.0,0.0,1.0,2
2025/04/09 09:59:50.805064926,1744185590,804791370,mA1/gps,0,1,63.434596566018655,10.39309134392672,0.0,1.4400000000000002e-10,0.0,0.0,0.0,1.4400000000000002e-10,0.0,0.0,0.0,1.0,2
2025/04/09 09:59:50.849158164,1744185590,848574662,mA1/gps,0,1,63.43459656537547,10.393091345697819,0.0,1.4400000000000002e-10,0.0,0.0,0.0,1.4400000000000002e-10,0.0,0.0,0.0,1.0,2
2025/04/09 09:59:50.900080653,1744185590,899728273,mA1/gps,0,1,63.434596566042025,10.393091347813302,0.0,1.4400000000000002e-10,0.0,0.0,0.0,1.4400000000000002e-10,0.0,0.0,0.0,1.0,2
2025/04/09 09:59:50.950152515,1744185590,949638702,mA1/gps,0,1,63.434596566686345,10.39309135061339,0.0,1.4400000000000002e-10,0.0,0.0,0.0,1.4400000000000002e-10,0.0,0.0,0.0,1.0,2
2025/04/09 09:59:51.2372643,1744185591,578437,mA1/gps,0,1,63.43459656585388,10.393091352566802,0.0,1.4400000000000002e-10,0.0,0.0,0.0,1.4400000000000002e-10,0.0,0.0,0.0,1.0,2
2025/04/09 09:59:51.50638812,1744185591,50370848,mA1/gps,0,1,63.434596565308375,10.393091354401578,0.0,1.4400000000000002e-10,0.0,0.0,0.0,1.4400000000000002e-10,0.0,0.0,0.0,1.0,2
2025/04/09 09:59:51.101556404,1744185591,101305946,mA1/gps,0,1,63.43459656601098,10.39309135620654,0.0,1.4400000000000002e-10,0.0,0.0,0.0,1.4400000000000002e-10,0.0,0.0,0.0,1.0,2
2025/04/09 09:59:51.152385484,1744185591,152062599,mA1/gps,0,1,63.43459656614643,10.393091357271162,0.0,1.4400000000000002e-10,0.0,0.0,0.0,1.4400000000000002e-10,0.0,0.0,0.0,1.0,2
2025/04/09 09:59:51.203771313,1744185591,203002413,mA1/gps,0,1,63.434596565346695,10.393091358499149,0.0,1.4400000000000002e-10,0.0,0.0,0.0,1.4400000000000002e-10,0.0,0.0,0.0,1.0,2
2025/04/09 09:59:51.253375468,1744185591,253232196,mA1/gps,0,1,63.434596564658804,10.393091357657962,0.0,1.4400000000000002e-10,0.0,0.0,0.0,1.4400000000000002e-10,0.0,0.0,0.0,1.0,2
2025/04/09 09:59:51.304389868,1744185591,304203531,mA1/gps,0,1,63.434596565169116,10.39309135717734,0.0,1.4400000000000002e-10,0.0,0.0,0.0,1.4400000000000002e-10,0.0,0.0,0.0,1.0,2
2025/04/09 09:59:51.355686812,1744185591,354065195,mA1/gps,0,1,63.43459656527001,10.393091357331187,0.0,1.4400000000000002e-10,0.0,0.0,0.0,1.4400000000000002e-10,0.0,0.0,0.0,1.0,2
2025/04/09 09:59:51.405727520,1744185591,405569978,mA1/gps,0,1,63.434596564591736,10.393091356544208,0.0,1.4400000000000002e-10,0.0,0.0,0.0,1.4400000000000002e-10,0.0,0.0,0.0,1.0,2
2025/04/09 09:59:51.455568335,1744185591,455394540,mA1/gps,0,1,63.43459656383401,10.393091354803778,0.0,1.4400000000000002e-10,0.0,0.0,0.0,1.4400000000000002e-10,0.0,0.0,0.0,1.0,2
2025/04/09 09:59:51.507354465,1744185591,506322957,mA1/gps,0,1,63.43459656430647,10.393091353167293,0.0,1.4400000000000002e-10,0.0,0.0,0.0,1.4400000000000002e-10,0.0,0.0,0.0,1.0,2
2025/04/09 09:59:51.546339239,1744185591,546080500,mA1/gps,0,1,63.434596564817596,10.393091349475332,0.0,1.4400000000000002e-10,0.0,0.0,0.0,1.4400000000000002e-10,0.0,0.0,0.0,1.0,2
2025/04/09 09:59:51.597667486,1744185591,597396489,mA1/gps,0,1,63.43459656455042,10.393091347717084,0.0,1.4400000000000002e-10,0.0,0.0,0.0,1.4400000000000002e-10,0.0,0.0,0.0,1.0,2
2025/04/09 09:59:51.647997338,1744185591,647767593,mA1/gps,0,1,63.434596564495905,10.393091348579322,0.0,1.4400000000000002e-10,0.0,0.0,0.0,1.4400000000000002e-10,0.0,0.0,0.0,1.0,2
2025/04/09 09:59:51.699061825,1744185591,698742771,mA1/gps,0,1,63.43459656687655,10.393091352144229,0.0,1.4400000000000002e-10,0.0,0.0,0.0,1.4400000000000002e-10,0.0,0.0,0.0,1.0,2
2025/04/09 09:59:51.749193824,1744185591,748592385,mA1/gps,0,1,63.434596569599044,10.39309135505765,0.0,1.4400000000000002e-10,0.0,0.0,0.0,1.4400000000000002e-10,0.0,0.0,0.0,1.0,2
2025/04/09 09:59:51.801773506,1744185591,799559753,mA1/gps,0,1,63.43459657228256,10.393091357520657,0.0,1.4400000000000002e-10,0.0,0.0,0.0,1.4400000000000002e-10,0.0,0.0,0.0,1.0,2
2025/04/09 09:59:51.849757682,1744185591,849395740,mA1/gps,0,1,63.43459657801266,10.393091359881058,0.0,1.4400000000000002e-10,0.0,0.0,0.0,1.4400000000000002e-10,0.0,0.0,0.0,1.0,2
2025/04/09 09:59:51.900706852,1744185591,900364641,mA1/gps,0,1,63.434596584687725,10.393091361539474,0.0,1.4400000000000002e-10,0.0,0.0,0.0,1.4400000000000002e-10,0.0,0.0,0.0,1.0,2
2025/04/09 09:59:51.950410571,1744185591,950250737,mA1/gps,0,1,63.43459659397841,10.393091362538629,0.0,1.4400000000000002e-10,0.0,0.0,0.0,1.4400000000000002e-10,0.0,0.0,0.0,1.0,2
2025/04/09 09:59:52.1485608,1744185592,1244900,mA1/gps,0,1,63.4345966055721,10.393091363403066,0.0,1.4400000000000002e-10,0.0,0.0,0.0,1.4400000000000002e-10,0.0,0.0,0.0,1.0,2
2025/04/09 09:59:52.51220479,1744185592,51012601,mA1/gps,0,1,63.43459661983481,10.393091363563817,0.0,1.4400000000000002e-10,0.0,0.0,0.0,1.4400000000000002e-10,0.0,0.0,0.0,1.0,2
2025/04/09 09:59:52.104805308,1744185592,104427339,mA1/gps,0,1,63.43459663710821,10.39309136292792,0.0,1.4400000000000002e-10,0.0,0.0,0.0,1.4400000000000002e-10,0.0,0.0,0.0,1.0,2
2025/04/09 09:59:52.156005459,1744185592,153210687,mA1/gps,0,1,63.43459665777919,10.393091361375072,0.0,1.4400000000000002e-10,0.0,0.0,0.0,1.4400000000000002e-10,0.0,0.0,0.0,1.0,2
2025/04/09 09:59:52.204695871,1744185592,204337844,mA1/gps,0,1,63.434596683412224,10.393091359007672,0.0,1.4400000000000002e-10,0.0,0.0,0.0,1.4400000000000002e-10,0.0,0.0,0.0,1.0,2
2025/04/09 09:59:52.250520734,1744185592,250211188,mA1/gps,0,1,63.43459671127165,10.393091357027737,0.0,1.4400000000000002e-10,0.0,0.0,0.0,1.4400000000000002e-10,0.0,0.0,0.0,1.0,2
2025/04/09 09:59:52.304018587,1744185592,303936809,mA1/gps,0,1,63.434596743455245,10.3930913542643,0.0,1.4400000000000002e-10,0.0,0.0,0.0,1.4400000000000002e-10,0.0,0.0,0.0,1.0,2
2025/04/09 09:59:52.347044650,1744185592,346312185,mA1/gps,0,1,63.43459677946975,10.39309135110192,0.0,1.4400000000000002e-10,0.0,0.0,0.0,1.4400000000000002e-10,0.0,0.0,0.0,1.0,2
2025/04/09 09:59:52.397661273,1744185592,397415738,mA1/gps,0,1,63.434596820173354,10.393091346915242,0.0,1.4400000000000002e-10,0.0,0.0,0.0,1.4400000000000002e-10,0.0,0.0,0.0,1.0,2
2025/04/09 09:59:52.448088742,1744185592,447801089,mA1/gps,0,1,63.43459686326527,10.393091340893216,0.0,1.4400000000000002e-10,0.0,0.0,0.0,1.4400000000000002e-10,0.0,0.0,0.0,1.0,2
2025/04/09 09:59:52.498967650,1744185592,498688453,mA1/gps,0,1,63.434596910704705,10.39309133452707,0.0,1.4400000000000002e-10,0.0,0.0,0.0,1.4400000000000002e-10,0.0,0.0,0.0,1.0,2
2025/04/09 09:59:52.548868900,1744185592,548585809,mA1/gps,0,1,63.43459696058224,10.393091327376418,0.0,1.4400000000000002e-10,0.0,0.0,0.0,1.4400000000000002e-10,0.0,0.0,0.0,1.0,2
2025/04/09 09:59:52.601394027,1744185592,599477515,mA1/gps,0,1,63.43459701349269,10.393091320190992,0.0,1.4400000000000002e-10,0.0,0.0,0.0,1.4400000000000002e-10,0.0,0.0,0.0,1.0,2
2025/04/09 09:59:52.651727776,1744185592,649760796,mA1/gps,0,1,63.43459706828384,10.393091313914471,0.0,1.4400000000000002e-10,0.0,0.0,0.0,1.4400000000000002e-10,0.0,0.0,0.0,1.0,2
2025/04/09 09:59:52.701692237,1744185592,700713518,mA1/gps,0,1,63.43459712493414,10.393091306557455,0.0,1.4400000000000002e-10,0.0,0.0,0.0,1.4400000000000002e-10,0.0,0.0,0.0,1.0,2
2025/04/09 09:59:52.750650819,1744185592,750542042,mA1/gps,0,1,63.434597182049416,10.393091297136532,0.0,1.4400000000000002e-10,0.0,0.0,0.0,1.4400000000000002e-10,0.0,0.0,0.0,1.0,2
2025/04/09 09:59:52.804330620,1744185592,803476031,mA1/gps,0,1,63.434597241149525,10.393091285730229,0.0,1.4400000000000002e-10,0.0,0.0,0.0,1.4400000000000002e-10,0.0,0.0,0.0,1.0,2
2025/04/09 09:59:52.854298439,1744185592,854097390,mA1/gps,0,1,63.43459730197489,10.393091274738849,0.0,1.4400000000000002e-10,0.0,0.0,0.0,1.4400000000000002e-10,0.0,0.0,0.0,1.0,2
2025/04/09 09:59:52.909337731,1744185592,906599461,mA1/gps,0,1,63.43459736229748,10.393091262764111,0.0,1.4400000000000002e-10,0.0,0.0,0.0,1.4400000000000002e-10,0.0,0.0,0.0,1.0,2
2025/04/09 09:59:52.947037751,1744185592,945864360,mA1/gps,0,1,63.43459742132383,10.393091250629732,0.0,1.4400000000000002e-10,0.0,0.0,0.0,1.4400000000000002e-10,0.0,0.0,0.0,1.0,2
2025/04/09 09:59:52.996990235,1744185592,996835522,mA1/gps,0,1,63.434597480587044,10.393091239709106,0.0,1.4400000000000002e-10,0.0,0.0,0.0,1.4400000000000002e-10,0.0,0.0,0.0,1.0,2
2025/04/09 09:59:53.47095411,1744185593,46657890,mA1/gps,0,1,63.43459754047982,10.393091229225156,0.0,1.4400000000000002e-10,0.0,0.0,0.0,1.4400000000000002e-10,0.0,0.0,0.0,1.0,2
2025/04/09 09:59:53.97741608,1744185593,97628628,mA1/gps,0,1,63.434597599626734,10.393091218997084,0.0,1.4400000000000002e-10,0.0,0.0,0.0,1.4400000000000002e-10,0.0,0.0,0.0,1.0,2
2025/04/09 09:59:53.149404642,1744185593,149078983,mA1/gps,0,1,63.4345976577746,10.393091210003826,0.0,1.4400000000000002e-10,0.0,0.0,0.0,1.4400000000000002e-10,0.0,0.0,0.0,1.0,2
2025/04/09 09:59:53.201577543,1744185593,200059615,mA1/gps,0,1,63.434597716110126,10.393091203535906,0.0,1.4400000000000002e-10,0.0,0.0,0.0,1.4400000000000002e-10,0.0,0.0,0.0,1.0,2
2025/04/09 09:59:53.250114977,1744185593,249861943,mA1/gps,0,1,63.43459777527679,10.393091197658267,0.0,1.4400000000000002e-10,0.0,0.0,0.0,1.4400000000000002e-10,0.0,0.0,0.0,1.0,2
2025/04/09 09:59:53.301144927,1744185593,300844383,mA1/gps,0,1,63.434597833247196,10.393091192701439,0.0,1.4400000000000002e-10,0.0,0.0,0.0,1.4400000000000002e-10,0.0,0.0,0.0,1.0,2
2025/04/09 09:59:53.352298100,1744185593,350713582,mA1/gps,0,1,63.43459789390735,10.393091187899294,0.0,1.4400000000000002e-10,0.0,0.0,0.0,1.4400000000000002e-10,0.0,0.0,0.0,1.0,2
2025/04/09 09:59:53.401902086,1744185593,401647487,mA1/gps,0,1,63.43459795493291,10.393091184092148,0.0,1.4400000000000002e-10,0.0,0.0,0.0,1.4400000000000002e-10,0.0,0.0,0.0,1.0,2
2025/04/09 09:59:53.451792280,1744185593,451544013,mA1/gps,0,1,63.43459801604258,10.393091180740688,0.0,1.4400000000000002e-10,0.0,0.0,0.0,1.4400000000000002e-10,0.0,0.0,0.0,1.0,2
2025/04/09 09:59:53.502599194,1744185593,502452184,mA1/gps,0,1,63.43459808061348,10.393091177897984,0.0,1.4400000000000002e-10,0.0,0.0,0.0,1.4400000000000002e-10,0.0,0.0,0.0,1.0,2
2025/04/09 09:59:53.553714721,1744185593,552346504,mA1/gps,0,1,63.43459814591423,10.393091176829428,0.0,1.4400000000000002e-10,0.0,0.0,0.0,1.4400000000000002e-10,0.0,0.0,0.0,1.0,2
2025/04/09 09:59:53.603475096,1744185593,603198610,mA1/gps,0,1,63.434598214343055,10.39309117425622,0.0,1.4400000000000002e-10,0.0,0.0,0.0,1.4400000000000002e-10,0.0,0.0,0.0,1.0,2
2025/04/09 09:59:53.653354396,1744185593,653068770,mA1/gps,0,1,63.43459828729905,10.393091171033012,0.0,1.4400000000000002e-10,0.0,0.0,0.0,1.4400000000000002e-10,0.0,0.0,0.0,1.0,2
2025/04/09 09:59:53.704404634,1744185593,704096293,mA1/gps,0,1,63.43459835993328,10.393091166023398,0.0,1.4400000000000002e-10,0.0,0.0,0.0,1.4400000000000002e-10,0.0,0.0,0.0,1.0,2
2025/04/09 09:59:53.754402932,1744185593,753909163,mA1/gps,0,1,63.43459843628645,10.393091160085525,0.0,1.4400000000000002e-10,0.0,0.0,0.0,1.4400000000000002e-10,0.0,0.0,0.0,1.0,2
2025/04/09 09:59:53.805551306,1744185593,805060753,mA1/gps,0,1,63.43459851759207,10.393091152659006,0.0,1.4400000000000002e-10,0.0,0.0,0.0,1.4400000000000002e-10,0.0,0.0,0.0,1.0,2
2025/04/09 09:59:53.854905221,1744185593,854758140,mA1/gps,0,1,63.43459860197509,10.393091143808153,0.0,1.4400000000000002e-10,0.0,0.0,0.0,1.4400000000000002e-10,0.0,0.0,0.0,1.0,2
2025/04/09 09:59:53.906846185,1744185593,905903713,mA1/gps,0,1,63.434598687051164,10.393091132561036,0.0,1.4400000000000002e-10,0.0,0.0,0.0,1.4400000000000002e-10,0.0,0.0,0.0,1.0,2
2025/04/09 09:59:53.955826131,1744185593,955671191,mA1/gps,0,1,63.43459877649848,10.393091121675058,0.0,1.4400000000000002e-10,0.0,0.0,0.0,1.4400000000000002e-10,0.0,0.0,0.0,1.0,2
2025/04/09 09:59:53.996729076,1744185593,996520993,mA1/gps,0,1,63.4345988686309,10.393091110076199,0.0,1.4400000000000002e-10,0.0,0.0,0.0,1.4400000000000002e-10,0.0,0.0,0.0,1.0,2
2025/04/09 09:59:54.47230353,1744185594,46982503,mA1/gps,0,1,63.4345989626491,10.3930910978947,0.0,1.4400000000000002e-10,0.0,0.0,0.0,1.4400000000000002e-10,0.0,0.0,0.0,1.0,2
2025/04/09 09:59:54.98290991,1744185594,97986490,mA1/gps,0,1,63.43459905757798,10.393091087475995,0.0,1.4400000000000002e-10,0.0,0.0,0.0,1.4400000000000002e-10,0.0,0.0,0.0,1.0,2
2025/04/09 09:59:54.148109812,1744185594,147912207,mA1/gps,0,1,63.43459915368134,10.393091077690833,0.0,1.4400000000000002e-10,0.0,0.0,0.0,1.4400000000000002e-10,0.0,0.0,0.0,1.0,2
2025/04/09 09:59:54.199074794,1744185594,198894631,mA1/gps,0,1,63.43459925219384,10.393091067845761,0.0,1.4400000000000002e-10,0.0,0.0,0.0,1.4400000000000002e-10,0.0,0.0,0.0,1.0,2
2025/04/09 09:59:54.248889250,1744185594,248682237,mA1/gps,0,1,63.43459935109628,10.393091056730837,0.0,1.4400000000000002e-10,0.0,0.0,0.0,1.4400000000000002e-10,0.0,0.0,0.0,1.0,2
2025/04/09 09:59:54.300746826,1744185594,300401994,mA1/gps,0,1,63.434599449668056,10.39309104722356,0.0,1.4400000000000002e-10,0.0,0.0,0.0,1.4400000000000002e-10,0.0,0.0,0.0,1.0,2
2025/04/09 09:59:54.350452185,1744185594,350194911,mA1/gps,0,1,63.43459954792215,10.393091041243158,0.0,1.4400000000000002e-10,0.0,0.0,0.0,1.4400000000000002e-10,0.0,0.0,0.0,1.0,2
2025/04/09 09:59:54.401439921,1744185594,401137879,mA1/gps,0,1,63.434599646316826,10.393091036280055,0.0,1.4400000000000002e-10,0.0,0.0,0.0,1.4400000000000002e-10,0.0,0.0,0.0,1.0,2
2025/04/09 09:59:54.451227276,1744185594,450963751,mA1/gps,0,1,63.43459974394501,10.39309103272113,0.0,1.4400000000000002e-10,0.0,0.0,0.0,1.4400000000000002e-10,0.0,0.0,0.0,1.0,2
2025/04/09 09:59:54.502133276,1744185594,501901843,mA1/gps,0,1,63.434599840911794,10.393091029472213,0.0,1.4400000000000002e-10,0.0,0.0,0.0,1.4400000000000002e-10,0.0,0.0,0.0,1.0,2
2025/04/09 09:59:54.552566184,1744185594,552272273,mA1/gps,0,1,63.43459993652584,10.393091027129822,0.0,1.4400000000000002e-10,0.0,0.0,0.0,1.4400000000000002e-10,0.0,0.0,0.0,1.0,2
2025/04/09 09:59:54.603397565,1744185594,603193537,mA1/gps,0,1,63.43460002890808,10.393091025630632,0.0,1.4400000000000002e-10,0.0,0.0,0.0,1.4400000000000002e-10,0.0,0.0,0.0,1.0,2
2025/04/09 09:59:54.653349814,1744185594,652988879,mA1/gps,0,1,63.434600123891265,10.39309102529282,0.0,1.4400000000000002e-10,0.0,0.0,0.0,1.4400000000000002e-10,0.0,0.0,0.0,1.0,2
2025/04/09 09:59:54.704093021,1744185594,703916360,mA1/gps,0,1,63.43460021771884,10.393091026632018,0.0,1.4400000000000002e-10,0.0,0.0,0.0,1.4400000000000002e-10,0.0,0.0,0.0,1.0,2
2025/04/09 09:59:54.753922619,1744185594,753694727,mA1/gps,0,1,63.4346003116574,10.393091027228525,0.0,1.4400000000000002e-10,0.0,0.0,0.0,1.4400000000000002e-10,0.0,0.0,0.0,1.0,2
2025/04/09 09:59:54.805474203,1744185594,805234917,mA1/gps,0,1,63.434600403791634,10.393091028735778,0.0,1.4400000000000002e-10,0.0,0.0,0.0,1.4400000000000002e-10,0.0,0.0,0.0,1.0,2
2025/04/09 09:59:54.855202354,1744185594,855006930,mA1/gps,0,1,63.434600496874666,10.393091029558944,0.0,1.4400000000000002e-10,0.0,0.0,0.0,1.4400000000000002e-10,0.0,0.0,0.0,1.0,2
2025/04/09 09:59:54.899018774,1744185594,898599739,mA1/gps,0,1,63.434600590861145,10.393091030110867,0.0,1.4400000000000002e-10,0.0,0.0,0.0,1.4400000000000002e-10,0.0,0.0,0.0,1.0,2
2025/04/09 09:59:54.948770329,1744185594,948375187,mA1/gps,0,1,63.43460068665932,10.393091030179919,0.0,1.4400000000000002e-10,0.0,0.0,0.0,1.4400000000000002e-10,0.0,0.0,0.0,1.0,2
2025/04/09 09:59:55.2321115,1744185595,1793922,mA1/gps,0,1,63.43460078230154,10.393091031493334,0.0,1.4400000000000002e-10,0.0,0.0,0.0,1.4400000000000002e-10,0.0,0.0,0.0,1.0,2
2025/04/09 09:59:55.50182561,1744185595,49803548,mA1/gps,0,1,63.434600878741776,10.393091032227142,0.0,1.4400000000000002e-10,0.0,0.0,0.0,1.4400000000000002e-10,0.0,0.0,0.0,1.0,2
2025/04/09 09:59:55.102535986,1744185595,100729024,mA1/gps,0,1,63.43460097871628,10.393091032593786,0.0,1.4400000000000002e-10,0.0,0.0,0.0,1.4400000000000002e-10,0.0,0.0,0.0,1.0,2
2025/04/09 09:59:55.151148467,1744185595,150577343,mA1/gps,0,1,63.43460108140007,10.393091030394507,0.0,1.4400000000000002e-10,0.0,0.0,0.0,1.4400000000000002e-10,0.0,0.0,0.0,1.0,2
2025/04/09 09:59:55.199878499,1744185595,196648287,mA1/gps,0,1,63.43460118621218,10.393091026737453,0.0,1.4400000000000002e-10,0.0,0.0,0.0,1.4400000000000002e-10,0.0,0.0,0.0,1.0,2
2025/04/09 09:59:55.246502793,1744185595,246268811,mA1/gps,0,1,63.43460129371828,10.393091021601206,0.0,1.4400000000000002e-10,0.0,0.0,0.0,1.4400000000000002e-10,0.0,0.0,0.0,1.0,2
2025/04/09 09:59:55.297720541,1744185595,297466310,mA1/gps,0,1,63.434601403680055,10.393091014361598,0.0,1.4400000000000002e-10,0.0,0.0,0.0,1.4400000000000002e-10,0.0,0.0,0.0,1.0,2
2025/04/09 09:59:55.348000196,1744185595,347726013,mA1/gps,0,1,63.434601515459924,10.393091007791016,0.0,1.4400000000000002e-10,0.0,0.0,0.0,1.4400000000000002e-10,0.0,0.0,0.0,1.0,2
2025/04/09 09:59:55.398897331,1744185595,398639428,mA1/gps,0,1,63.434601630157715,10.393090998692182,0.0,1.4400000000000002e-10,0.0,0.0,0.0,1.4400000000000002e-10,0.0,0.0,0.0,1.0,2
2025/04/09 09:59:55.448618079,1744185595,448407855,mA1/gps,0,1,63.4346017469728,10.393090985958793,0.0,1.4400000000000002e-10,0.0,0.0,0.0,1.4400000000000002e-10,0.0,0.0,0.0,1.0,2
2025/04/09 09:59:55.500636957,1744185595,499364669,mA1/gps,0,1,63.43460186688391,10.393090972895369,0.0,1.4400000000000002e-10,0.0,0.0,0.0,1.4400000000000002e-10,0.0,0.0,0.0,1.0,2
2025/04/09 09:59:55.550833686,1744185595,549124666,mA1/gps,0,1,63.43460198653195,10.39309096003839,0.0,1.4400000000000002e-10,0.0,0.0,0.0,1.4400000000000002e-10,0.0,0.0,0.0,1.0,2
2025/04/09 09:59:55.600418753,1744185595,600110873,mA1/gps,0,1,63.43460210797449,10.393090947779308,0.0,1.4400000000000002e-10,0.0,0.0,0.0,1.4400000000000002e-10,0.0,0.0,0.0,1.0,2
2025/04/09 09:59:55.650556121,1744185595,649924814,mA1/gps,0,1,63.434602229656186,10.393090936461249,0.0,1.4400000000000002e-10,0.0,0.0,0.0,1.4400000000000002e-10,0.0,0.0,0.0,1.0,2
2025/04/09 09:59:55.703782956,1744185595,700826607,mA1/gps,0,1,63.43460235301887,10.393090927038815,0.0,1.4400000000000002e-10,0.0,0.0,0.0,1.4400000000000002e-10,0.0,0.0,0.0,1.0,2
2025/04/09 09:59:55.750954552,1744185595,750723486,mA1/gps,0,1,63.43460247531449,10.393090921165498,0.0,1.4400000000000002e-10,0.0,0.0,0.0,1.4400000000000002e-10,0.0,0.0,0.0,1.0,2
2025/04/09 09:59:55.802094682,1744185595,801827930,mA1/gps,0,1,63.434602598704,10.393090916848411,0.0,1.4400000000000002e-10,0.0,0.0,0.0,1.4400000000000002e-10,0.0,0.0,0.0,1.0,2
2025/04/09 09:59:55.851979970,1744185595,851700860,mA1/gps,0,1,63.43460272115103,10.393090914044489,0.0,1.4400000000000002e-10,0.0,0.0,0.0,1.4400000000000002e-10,0.0,0.0,0.0,1.0,2
2025/04/09 09:59:55.904615048,1744185595,902714278,mA1/gps,0,1,63.43460284165424,10.393090913868871,0.0,1.4400000000000002e-10,0.0,0.0,0.0,1.4400000000000002e-10,0.0,0.0,0.0,1.0,2
2025/04/09 09:59:55.954308852,1744185595,952490082,mA1/gps,0,1,63.43460296085982,10.39309091463471,0.0,1.4400000000000002e-10,0.0,0.0,0.0,1.4400000000000002e-10,0.0,0.0,0.0,1.0,2
2025/04/09 09:59:56.3670366,1744185596,3486694,mA1/gps,0,1,63.434603079308076,10.39309091601335,0.0,1.4400000000000002e-10,0.0,0.0,0.0,1.4400000000000002e-10,0.0,0.0,0.0,1.0,2
2025/04/09 09:59:56.53718945,1744185596,53326900,mA1/gps,0,1,63.434603196689096,10.393090918136672,0.0,1.4400000000000002e-10,0.0,0.0,0.0,1.4400000000000002e-10,0.0,0.0,0.0,1.0,2
2025/04/09 09:59:56.107477887,1744185596,106033839,mA1/gps,0,1,63.43460331284231,10.393090921433325,0.0,1.4400000000000002e-10,0.0,0.0,0.0,1.4400000000000002e-10,0.0,0.0,0.0,1.0,2
2025/04/09 09:59:56.157664565,1744185596,155791304,mA1/gps,0,1,63.4346034285993,10.393090924362394,0.0,1.4400000000000002e-10,0.0,0.0,0.0,1.4400000000000002e-10,0.0,0.0,0.0,1.0,2
2025/04/09 09:59:56.196752718,1744185596,196591042,mA1/gps,0,1,63.434603542177086,10.393090927263586,0.0,1.4400000000000002e-10,0.0,0.0,0.0,1.4400000000000002e-10,0.0,0.0,0.0,1.0,2
2025/04/09 09:59:56.248022058,1744185596,246616141,mA1/gps,0,1,63.43460365725748,10.393090929397843,0.0,1.4400000000000002e-10,0.0,0.0,0.0,1.4400000000000002e-10,0.0,0.0,0.0,1.0,2
2025/04/09 09:59:56.302242483,1744185596,302069943,mA1/gps,0,1,63.43460377041637,10.393090930886684,0.0,1.4400000000000002e-10,0.0,0.0,0.0,1.4400000000000002e-10,0.0,0.0,0.0,1.0,2
2025/04/09 09:59:56.355715953,1744185596,355121614,mA1/gps,0,1,63.434603884379264,10.393090931446263,0.0,1.4400000000000002e-10,0.0,0.0,0.0,1.4400000000000002e-10,0.0,0.0,0.0,1.0,2
2025/04/09 09:59:56.400629554,1744185596,400404302,mA1/gps,0,1,63.434603998353744,10.393090930472932,0.0,1.4400000000000002e-10,0.0,0.0,0.0,1.4400000000000002e-10,0.0,0.0,0.0,1.0,2
2025/04/09 09:59:56.451505334,1744185596,450164298,mA1/gps,0,1,63.434604114099315,10.393090929022135,0.0,1.4400000000000002e-10,0.0,0.0,0.0,1.4400000000000002e-10,0.0,0.0,0.0,1.0,2
2025/04/09 09:59:56.506239359,1744185596,506051086,mA1/gps,0,1,63.43460423045202,10.393090925831652,0.0,1.4400000000000002e-10,0.0,0.0,0.0,1.4400000000000002e-10,0.0,0.0,0.0,1.0,2
2025/04/09 09:59:56.550826038,1744185596,549918305,mA1/gps,0,1,63.43460434841123,10.393090922451446,0.0,1.4400000000000002e-10,0.0,0.0,0.0,1.4400000000000002e-10,0.0,0.0,0.0,1.0,2
2025/04/09 09:59:56.601115262,1744185596,600835498,mA1/gps,0,1,63.43460446848908,10.393090918028712,0.0,1.4400000000000002e-10,0.0,0.0,0.0,1.4400000000000002e-10,0.0,0.0,0.0,1.0,2
2025/04/09 09:59:56.651036198,1744185596,650744786,mA1/gps,0,1,63.434604590901216,10.393090911973452,0.0,1.4400000000000002e-10,0.0,0.0,0.0,1.4400000000000002e-10,0.0,0.0,0.0,1.0,2
2025/04/09 09:59:56.701830850,1744185596,701669077,mA1/gps,0,1,63.43460471435753,10.393090905656399,0.0,1.4400000000000002e-10,0.0,0.0,0.0,1.4400000000000002e-10,0.0,0.0,0.0,1.0,2
2025/04/09 09:59:56.751953244,1744185596,751536086,mA1/gps,0,1,63.43460484015493,10.393090899874226,0.0,1.4400000000000002e-10,0.0,0.0,0.0,1.4400000000000002e-10,0.0,0.0,0.0,1.0,2
2025/04/09 09:59:56.804404059,1744185596,802452698,mA1/gps,0,1,63.434604968786516,10.393090893828786,0.0,1.4400000000000002e-10,0.0,0.0,0.0,1.4400000000000002e-10,0.0,0.0,0.0,1.0,2
2025/04/09 09:59:56.852466155,1744185596,852287916,mA1/gps,0,1,63.43460510016278,10.393090887795125,0.0,1.4400000000000002e-10,0.0,0.0,0.0,1.4400000000000002e-10,0.0,0.0,0.0,1.0,2
2025/04/09 09:59:56.903636020,1744185596,903337215,mA1/gps,0,1,63.434605233088796,10.393090883114688,0.0,1.4400000000000002e-10,0.0,0.0,0.0,1.4400000000000002e-10,0.0,0.0,0.0,1.0,2
2025/04/09 09:59:56.954745478,1744185596,954597213,mA1/gps,0,1,63.43460536792988,10.393090878644973,0.0,1.4400000000000002e-10,0.0,0.0,0.0,1.4400000000000002e-10,0.0,0.0,0.0,1.0,2
2025/04/09 09:59:57.5838063,1744185597,5538411,mA1/gps,0,1,63.43460550357548,10.393090875609737,0.0,1.4400000000000002e-10,0.0,0.0,0.0,1.4400000000000002e-10,0.0,0.0,0.0,1.0,2
2025/04/09 09:59:57.55587757,1744185597,55332393,mA1/gps,0,1,63.43460564007517,10.393090873634984,0.0,1.4400000000000002e-10,0.0,0.0,0.0,1.4400000000000002e-10,0.0,0.0,0.0,1.0,2
2025/04/09 09:59:57.106785248,1744185597,106260812,mA1/gps,0,1,63.434605777224704,10.393090873397847,0.0,1.4400000000000002e-10,0.0,0.0,0.0,1.4400000000000002e-10,0.0,0.0,0.0,1.0,2
2025/04/09 09:59:57.147255148,1744185597,146974126,mA1/gps,0,1,63.43460591470855,10.393090874337458,0.0,1.4400000000000002e-10,0.0,0.0,0.0,1.4400000000000002e-10,0.0,0.0,0.0,1.0,2
2025/04/09 09:59:57.198189762,1744185597,197893226,mA1/gps,0,1,63.43460605206481,10.393090875140171,0.0,1.4400000000000002e-10,0.0,0.0,0.0,1.4400000000000002e-10,0.0,0.0,0.0,1.0,2
2025/04/09 09:59:57.252698659,1744185597,250050071,mA1/gps,0,1,63.43460618967265,10.393090876636998,0.0,1.4400000000000002e-10,0.0,0.0,0.0,1.4400000000000002e-10,0.0,0.0,0.0,1.0,2
2025/04/09 09:59:57.301190446,1744185597,301004017,mA1/gps,0,1,63.4346063253008,10.39309087909138,0.0,1.4400000000000002e-10,0.0,0.0,0.0,1.4400000000000002e-10,0.0,0.0,0.0,1.0,2
2025/04/09 09:59:57.351163654,1744185597,350910892,mA1/gps,0,1,63.434606460485114,10.393090885011661,0.0,1.4400000000000002e-10,0.0,0.0,0.0,1.4400000000000002e-10,0.0,0.0,0.0,1.0,2
2025/04/09 09:59:57.402546588,1744185597,402248574,mA1/gps,0,1,63.43460659475147,10.393090890873939,0.0,1.4400000000000002e-10,0.0,0.0,0.0,1.4400000000000002e-10,0.0,0.0,0.0,1.0,2
2025/04/09 09:59:57.453281575,1744185597,451968587,mA1/gps,0,1,63.43460672642405,10.393090896759903,0.0,1.4400000000000002e-10,0.0,0.0,0.0,1.4400000000000002e-10,0.0,0.0,0.0,1.0,2
2025/04/09 09:59:57.504733093,1744185597,502912201,mA1/gps,0,1,63.43460685862399,10.393090903185351,0.0,1.4400000000000002e-10,0.0,0.0,0.0,1.4400000000000002e-10,0.0,0.0,0.0,1.0,2
2025/04/09 09:59:57.553842738,1744185597,553578629,mA1/gps,0,1,63.434606988724774,10.3930909083909,0.0,1.4400000000000002e-10,0.0,0.0,0.0,1.4400000000000002e-10,0.0,0.0,0.0,1.0,2
2025/04/09 09:59:57.604702713,1744185597,604449354,mA1/gps,0,1,63.43460711772093,10.393090911979733,0.0,1.4400000000000002e-10,0.0,0.0,0.0,1.4400000000000002e-10,0.0,0.0,0.0,1.0,2
2025/04/09 09:59:57.655942084,1744185597,655584457,mA1/gps,0,1,63.434607245448376,10.393090913179591,0.0,1.4400000000000002e-10,0.0,0.0,0.0,1.4400000000000002e-10,0.0,0.0,0.0,1.0,2
2025/04/09 09:59:57.696901758,1744185597,696766876,mA1/gps,0,1,63.43460737380316,10.393090913010166,0.0,1.4400000000000002e-10,0.0,0.0,0.0,1.4400000000000002e-10,0.0,0.0,0.0,1.0,2
2025/04/09 09:59:57.746809957,1744185597,746602568,mA1/gps,0,1,63.434607499674584,10.393090910469066,0.0,1.4400000000000002e-10,0.0,0.0,0.0,1.4400000000000002e-10,0.0,0.0,0.0,1.0,2
2025/04/09 09:59:57.798874499,1744185597,798382109,mA1/gps,0,1,63.434607625778774,10.393090906733542,0.0,1.4400000000000002e-10,0.0,0.0,0.0,1.4400000000000002e-10,0.0,0.0,0.0,1.0,2
2025/04/09 09:59:57.848348391,1744185597,848157499,mA1/gps,0,1,63.43460775184214,10.393090901258573,0.0,1.4400000000000002e-10,0.0,0.0,0.0,1.4400000000000002e-10,0.0,0.0,0.0,1.0,2
2025/04/09 09:59:57.900044224,1744185597,899405862,mA1/gps,0,1,63.4346078825693,10.39309089379241,0.0,1.4400000000000002e-10,0.0,0.0,0.0,1.4400000000000002e-10,0.0,0.0,0.0,1.0,2
2025/04/09 09:59:57.949277669,1744185597,949047666,mA1/gps,0,1,63.4346080104578,10.393090886794688,0.0,1.4400000000000002e-10,0.0,0.0,0.0,1.4400000000000002e-10,0.0,0.0,0.0,1.0,2
2025/04/09 09:59:58.207880,1744185598,2590,mA1/gps,0,1,63.434608139733356,10.393090878973052,0.0,1.4400000000000002e-10,0.0,0.0,0.0,1.4400000000000002e-10,0.0,0.0,0.0,1.0,2
2025/04/09 09:59:58.52041185,1744185598,51355376,mA1/gps,0,1,63.43460827102408,10.393090871698138,0.0,1.4400000000000002e-10,0.0,0.0,0.0,1.4400000000000002e-10,0.0,0.0,0.0,1.0,2
2025/04/09 09:59:58.102521083,1744185598,102304371,mA1/gps,0,1,63.43460840415596,10.393090865240321,0.0,1.4400000000000002e-10,0.0,0.0,0.0,1.4400000000000002e-10,0.0,0.0,0.0,1.0,2
2025/04/09 09:59:58.155076901,1744185598,153194888,mA1/gps,0,1,63.434608539360056,10.393090860605273,0.0,1.4400000000000002e-10,0.0,0.0,0.0,1.4400000000000002e-10,0.0,0.0,0.0,1.0,2
2025/04/09 09:59:58.204386478,1744185598,204125082,mA1/gps,0,1,63.43460867621886,10.39309085703407,0.0,1.4400000000000002e-10,0.0,0.0,0.0,1.4400000000000002e-10,0.0,0.0,0.0,1.0,2
2025/04/09 09:59:58.254125671,1744185598,253887989,mA1/gps,0,1,63.43460881568017,10.393090853941747,0.0,1.4400000000000002e-10,0.0,0.0,0.0,1.4400000000000002e-10,0.0,0.0,0.0,1.0,2
2025/04/09 09:59:58.305290195,1744185598,304909643,mA1/gps,0,1,63.43460895631941,10.393090852767372,0.0,1.4400000000000002e-10,0.0,0.0,0.0,1.4400000000000002e-10,0.0,0.0,0.0,1.0,2
2025/04/09 09:59:58.357143270,1744185598,354820872,mA1/gps,0,1,63.4346091007896,10.393090850534348,0.0,1.4400000000000002e-10,0.0,0.0,0.0,1.4400000000000002e-10,0.0,0.0,0.0,1.0,2
2025/04/09 09:59:58.407755178,1744185598,405703186,mA1/gps,0,1,63.434609244193695,10.393090851981178,0.0,1.4400000000000002e-10,0.0,0.0,0.0,1.4400000000000002e-10,0.0,0.0,0.0,1.0,2
2025/04/09 09:59:58.455671457,1744185598,455503893,mA1/gps,0,1,63.43460938874959,10.393090855531643,0.0,1.4400000000000002e-10,0.0,0.0,0.0,1.4400000000000002e-10,0.0,0.0,0.0,1.0,2
2025/04/09 09:59:58.496593308,1744185598,496449583,mA1/gps,0,1,63.434609533934676,10.39309086162815,0.0,1.4400000000000002e-10,0.0,0.0,0.0,1.4400000000000002e-10,0.0,0.0,0.0,1.0,2
2025/04/09 09:59:58.546664911,1744185598,546345863,mA1/gps,0,1,63.43460968386842,10.393090869471576,0.0,1.4400000000000002e-10,0.0,0.0,0.0,1.4400000000000002e-10,0.0,0.0,0.0,1.0,2
2025/04/09 09:59:58.597370831,1744185598,597203759,mA1/gps,0,1,63.43460983031107,10.393090879875801,0.0,1.4400000000000002e-10,0.0,0.0,0.0,1.4400000000000002e-10,0.0,0.0,0.0,1.0,2
2025/04/09 09:59:58.648153361,1744185598,647875456,mA1/gps,0,1,63.43460997676084,10.39309089074761,0.0,1.4400000000000002e-10,0.0,0.0,0.0,1.4400000000000002e-10,0.0,0.0,0.0,1.0,2
2025/04/09 09:59:58.698929753,1744185598,698805569,mA1/gps,0,1,63.43461012300591,10.39309090264951,0.0,1.4400000000000002e-10,0.0,0.0,0.0,1.4400000000000002e-10,0.0,0.0,0.0,1.0,2
2025/04/09 09:59:58.748996381,1744185598,748660937,mA1/gps,0,1,63.43461026861808,10.393090914449662,0.0,1.4400000000000002e-10,0.0,0.0,0.0,1.4400000000000002e-10,0.0,0.0,0.0,1.0,2
2025/04/09 09:59:58.800541730,1744185598,800297987,mA1/gps,0,1,63.434610413203465,10.393090925234016,0.0,1.4400000000000002e-10,0.0,0.0,0.0,1.4400000000000002e-10,0.0,0.0,0.0,1.0,2
2025/04/09 09:59:58.850298493,1744185598,850142429,mA1/gps,0,1,63.4346105578944,10.393090933953479,0.0,1.4400000000000002e-10,0.0,0.0,0.0,1.4400000000000002e-10,0.0,0.0,0.0,1.0,2
2025/04/09 09:59:58.903768736,1744185598,901233351,mA1/gps,0,1,63.4346107005644,10.393090940417265,0.0,1.4400000000000002e-10,0.0,0.0,0.0,1.4400000000000002e-10,0.0,0.0,0.0,1.0,2
2025/04/09 09:59:58.951452289,1744185598,951298412,mA1/gps,0,1,63.43461084146698,10.393090944619006,0.0,1.4400000000000002e-10,0.0,0.0,0.0,1.4400000000000002e-10,0.0,0.0,0.0,1.0,2
2025/04/09 09:59:59.4422493,1744185599,2537260,mA1/gps,0,1,63.43461098040589,10.393090945297436,0.0,1.4400000000000002e-10,0.0,0.0,0.0,1.4400000000000002e-10,0.0,0.0,0.0,1.0,2
2025/04/09 09:59:59.53261095,1744185599,52936344,mA1/gps,0,1,63.43461111905404,10.393090943274311,0.0,1.4400000000000002e-10,0.0,0.0,0.0,1.4400000000000002e-10,0.0,0.0,0.0,1.0,2
2025/04/09 09:59:59.104201466,1744185599,103816992,mA1/gps,0,1,63.43461125707257,10.39309093856272,0.0,1.4400000000000002e-10,0.0,0.0,0.0,1.4400000000000002e-10,0.0,0.0,0.0,1.0,2
2025/04/09 09:59:59.154116944,1744185599,153693171,mA1/gps,0,1,63.43461139548992,10.393090932195172,0.0,1.4400000000000002e-10,0.0,0.0,0.0,1.4400000000000002e-10,0.0,0.0,0.0,1.0,2
2025/04/09 09:59:59.206221486,1744185599,204952708,mA1/gps,0,1,63.43461153196856,10.393090924598166,0.0,1.4400000000000002e-10,0.0,0.0,0.0,1.4400000000000002e-10,0.0,0.0,0.0,1.0,2
2025/04/09 09:59:59.257429952,1744185599,255274846,mA1/gps,0,1,63.43461166828105,10.393090915246226,0.0,1.4400000000000002e-10,0.0,0.0,0.0,1.4400000000000002e-10,0.0,0.0,0.0,1.0,2
2025/04/09 09:59:59.307672812,1744185599,306291483,mA1/gps,0,1,63.43461180474666,10.393090906695434,0.0,1.4400000000000002e-10,0.0,0.0,0.0,1.4400000000000002e-10,0.0,0.0,0.0,1.0,2
2025/04/09 09:59:59.346209110,1744185599,346007059,mA1/gps,0,1,63.43461194160111,10.393090897799025,0.0,1.4400000000000002e-10,0.0,0.0,0.0,1.4400000000000002e-10,0.0,0.0,0.0,1.0,2
2025/04/09 09:59:59.397217204,1744185599,396992299,mA1/gps,0,1,63.43461207926992,10.393090891551745,0.0,1.4400000000000002e-10,0.0,0.0,0.0,1.4400000000000002e-10,0.0,0.0,0.0,1.0,2
2025/04/09 09:59:59.447298244,1744185599,447063208,mA1/gps,0,1,63.4346122191145,10.393090885246938,0.0,1.4400000000000002e-10,0.0,0.0,0.0,1.4400000000000002e-10,0.0,0.0,0.0,1.0,2
2025/04/09 09:59:59.498234024,1744185599,498011060,mA1/gps,0,1,63.434612359664214,10.393090882539173,0.0,1.4400000000000002e-10,0.0,0.0,0.0,1.4400000000000002e-10,0.0,0.0,0.0,1.0,2
2025/04/09 09:59:59.548370009,1744185599,548023391,mA1/gps,0,1,63.43461250299537,10.393090881255736,0.0,1.4400000000000002e-10,0.0,0.0,0.0,1.4400000000000002e-10,0.0,0.0,0.0,1.0,2
2025/04/09 09:59:59.599363616,1744185599,598991597,mA1/gps,0,1,63.434612646024036,10.393090883632185,0.0,1.4400000000000002e-10,0.0,0.0,0.0,1.4400000000000002e-10,0.0,0.0,0.0,1.0,2
2025/04/09 09:59:59.649009351,1744185599,648740414,mA1/gps,0,1,63.43461279086725,10.393090887474179,0.0,1.4400000000000002e-10,0.0,0.0,0.0,1.4400000000000002e-10,0.0,0.0,0.0,1.0,2
2025/04/09 09:59:59.700162454,1744185599,699949396,mA1/gps,0,1,63.43461293880198,10.393090893258735,0.0,1.4400000000000002e-10,0.0,0.0,0.0,1.4400000000000002e-10,0.0,0.0,0.0,1.0,2
2025/04/09 09:59:59.750407215,1744185599,750169521,mA1/gps,0,1,63.43461308813744,10.393090900442402,0.0,1.4400000000000002e-10,0.0,0.0,0.0,1.4400000000000002e-10,0.0,0.0,0.0,1.0,2
2025/04/09 09:59:59.801763305,1744185599,801374634,mA1/gps,0,1,63.43461323903863,10.393090909514907,0.0,1.4400000000000002e-10,0.0,0.0,0.0,1.4400000000000002e-10,0.0,0.0,0.0,1.0,2
2025/04/09 09:59:59.851736674,1744185599,851271649,mA1/gps,0,1,63.43461339097386,10.39309091927196,0.0,1.4400000000000002e-10,0.0,0.0,0.0,1.4400000000000002e-10,0.0,0.0,0.0,1.0,2
2025/04/09 09:59:59.904103954,1744185599,902218784,mA1/gps,0,1,63.4346135453273,10.39309092904854,0.0,1.4400000000000002e-10,0.0,0.0,0.0,1.4400000000000002e-10,0.0,0.0,0.0,1.0,2
2025/04/09 09:59:59.952813680,1744185599,952375498,mA1/gps,0,1,63.4346136995114,10.393090939856172,0.0,1.4400000000000002e-10,0.0,0.0,0.0,1.4400000000000002e-10,0.0,0.0,0.0,1.0,2
2025/04/09 10:00:00.6123532,1744185600,4185016,mA1/gps,0,1,63.43461385358108,10.393090949113557,0.0,1.4400000000000002e-10,0.0,0.0,0.0,1.4400000000000002e-10,0.0,0.0,0.0,1.0,2
2025/04/09 10:00:00.57448255,1744185600,54412160,mA1/gps,0,1,63.43461401021814,10.393090957165198,0.0,1.4400000000000002e-10,0.0,0.0,0.0,1.4400000000000002e-10,0.0,0.0,0.0,1.0,2
2025/04/09 10:00:00.105702668,1744185600,105420795,mA1/gps,0,1,63.43461416568521,10.393090963616437,0.0,1.4400000000000002e-10,0.0,0.0,0.0,1.4400000000000002e-10,0.0,0.0,0.0,1.0,2
2025/04/09 10:00:00.155617240,1744185600,155214420,mA1/gps,0,1,63.43461432068253,10.39309096833358,0.0,1.4400000000000002e-10,0.0,0.0,0.0,1.4400000000000002e-10,0.0,0.0,0.0,1.0,2
2025/04/09 10:00:00.199141934,1744185600,198963747,mA1/gps,0,1,63.4346144756796,10.393090970759152,0.0,1.4400000000000002e-10,0.0,0.0,0.0,1.4400000000000002e-10,0.0,0.0,0.0,1.0,2
2025/04/09 10:00:00.250486184,1744185600,248632599,mA1/gps,0,1,63.43461462973405,10.39309097094425,0.0,1.4400000000000002e-10,0.0,0.0,0.0,1.4400000000000002e-10,0.0,0.0,0.0,1.0,2
2025/04/09 10:00:00.299738495,1744185600,299574888,mA1/gps,0,1,63.4346147824923,10.393090969174034,0.0,1.4400000000000002e-10,0.0,0.0,0.0,1.4400000000000002e-10,0.0,0.0,0.0,1.0,2
2025/04/09 10:00:00.349567135,1744185600,349384827,mA1/gps,0,1,63.43461493504507,10.393090965049096,0.0,1.4400000000000002e-10,0.0,0.0,0.0,1.4400000000000002e-10,0.0,0.0,0.0,1.0,2
2025/04/09 10:00:00.401033438,1744185600,400360818,mA1/gps,0,1,63.43461508507165,10.393090960355222,0.0,1.4400000000000002e-10,0.0,0.0,0.0,1.4400000000000002e-10,0.0,0.0,0.0,1.0,2
2025/04/09 10:00:00.450525549,1744185600,450185108,mA1/gps,0,1,63.43461523522038,10.393090952536982,0.0,1.4400000000000002e-10,0.0,0.0,0.0,1.4400000000000002e-10,0.0,0.0,0.0,1.0,2
2025/04/09 10:00:00.501298719,1744185600,501129961,mA1/gps,0,1,63.43461538378963,10.393090945872276,0.0,1.4400000000000002e-10,0.0,0.0,0.0,1.4400000000000002e-10,0.0,0.0,0.0,1.0,2
2025/04/09 10:00:00.551200367,1744185600,550952063,mA1/gps,0,1,63.434615531681104,10.393090939605482,0.0,1.4400000000000002e-10,0.0,0.0,0.0,1.4400000000000002e-10,0.0,0.0,0.0,1.0,2
2025/04/09 10:00:00.602578745,1744185600,602277963,mA1/gps,0,1,63.4346156787415,10.393090934122332,0.0,1.4400000000000002e-10,0.0,0.0,0.0,1.4400000000000002e-10,0.0,0.0,0.0,1.0,2
2025/04/09 10:00:00.652319627,1744185600,652031190,mA1/gps,0,1,63.434615826133026,10.393090930628723,0.0,1.4400000000000002e-10,0.0,0.0,0.0,1.4400000000000002e-10,0.0,0.0,0.0,1.0,2
2025/04/09 10:00:00.703320483,1744185600,702996114,mA1/gps,0,1,63.434615973545654,10.39309092837443,0.0,1.4400000000000002e-10,0.0,0.0,0.0,1.4400000000000002e-10,0.0,0.0,0.0,1.0,2
2025/04/09 10:00:00.753119425,1744185600,752838783,mA1/gps,0,1,63.43461611955681,10.393090929658364,0.0,1.4400000000000002e-10,0.0,0.0,0.0,1.4400000000000002e-10,0.0,0.0,0.0,1.0,2
2025/04/09 10:00:00.804140004,1744185600,803948070,mA1/gps,0,1,63.43461626675837,10.393090932053955,0.0,1.4400000000000002e-10,0.0,0.0,0.0,1.4400000000000002e-10,0.0,0.0,0.0,1.0,2
2025/04/09 10:00:00.854365059,1744185600,853930172,mA1/gps,0,1,63.43461641500253,10.393090938577448,0.0,1.4400000000000002e-10,0.0,0.0,0.0,1.4400000000000002e-10,0.0,0.0,0.0,1.0,2
2025/04/09 10:00:00.905621791,1744185600,905442675,mA1/gps,0,1,63.434616564728735,10.39309094732764,0.0,1.4400000000000002e-10,0.0,0.0,0.0,1.4400000000000002e-10,0.0,0.0,0.0,1.0,2
2025/04/09 10:00:00.956399228,1744185600,955345418,mA1/gps,0,1,63.43461671544923,10.393090958148557,0.0,1.4400000000000002e-10,0.0,0.0,0.0,1.4400000000000002e-10,0.0,0.0,0.0,1.0,2
2025/04/09 10:00:01.6548846,1744185601,6310814,mA1/gps,0,1,63.43461686553831,10.393090970335537,0.0,1.4400000000000002e-10,0.0,0.0,0.0,1.4400000000000002e-10,0.0,0.0,0.0,1.0,2
2025/04/09 10:00:01.46227824,1744185601,46068353,mA1/gps,0,1,63.43461701836388,10.39309098116598,0.0,1.4400000000000002e-10,0.0,0.0,0.0,1.4400000000000002e-10,0.0,0.0,0.0,1.0,2
2025/04/09 10:00:01.98034903,1744185601,97684365,mA1/gps,0,1,63.43461717319407,10.393090992549682,0.0,1.4400000000000002e-10,0.0,0.0,0.0,1.4400000000000002e-10,0.0,0.0,0.0,1.0,2
2025/04/09 10:00:01.147823093,1744185601,147546849,mA1/gps,0,1,63.434617330157856,10.393091003782159,0.0,1.4400000000000002e-10,0.0,0.0,0.0,1.4400000000000002e-10,0.0,0.0,0.0,1.0,2
2025/04/09 10:00:01.199088773,1744185601,198762825,mA1/gps,0,1,63.434617488520566,10.393091014218005,0.0,1.4400000000000002e-10,0.0,0.0,0.0,1.4400000000000002e-10,0.0,0.0,0.0,1.0,2
2025/04/09 10:00:01.250867670,1744185601,250550204,mA1/gps,0,1,63.434617648389086,10.393091023875577,0.0,1.4400000000000002e-10,0.0,0.0,0.0,1.4400000000000002e-10,0.0,0.0,0.0,1.0,2
2025/04/09 10:00:01.302545148,1744185601,301024044,mA1/gps,0,1,63.434617808819404,10.393091032425241,0.0,1.4400000000000002e-10,0.0,0.0,0.0,1.4400000000000002e-10,0.0,0.0,0.0,1.0,2
2025/04/09 10:00:01.351260522,1744185601,350885586,mA1/gps,0,1,63.434617969693306,10.393091039816978,0.0,1.4400000000000002e-10,0.0,0.0,0.0,1.4400000000000002e-10,0.0,0.0,0.0,1.0,2
2025/04/09 10:00:01.402451397,1744185601,401865279,mA1/gps,0,1,63.43461813243457,10.393091044475767,0.0,1.4400000000000002e-10,0.0,0.0,0.0,1.4400000000000002e-10,0.0,0.0,0.0,1.0,2
2025/04/09 10:00:01.451905675,1744185601,451653989,mA1/gps,0,1,63.43461829626466,10.393091047963619,0.0,1.4400000000000002e-10,0.0,0.0,0.0,1.4400000000000002e-10,0.0,0.0,0.0,1.0,2
2025/04/09 10:00:01.502820274,1744185601,502617828,mA1/gps,0,1,63.4346184604801,10.393091049669069,0.0,1.4400000000000002e-10,0.0,0.0,0.0,1.4400000000000002e-10,0.0,0.0,0.0,1.0,2
2025/04/09 10:00:01.554239427,1744185601,552672954,mA1/gps,0,1,63.43461862329813,10.39309105088818,0.0,1.4400000000000002e-10,0.0,0.0,0.0,1.4400000000000002e-10,0.0,0.0,0.0,1.0,2
2025/04/09 10:00:01.603872053,1744185601,603590110,mA1/gps,0,1,63.43461878410919,10.393091051433435,0.0,1.4400000000000002e-10,0.0,0.0,0.0,1.4400000000000002e-10,0.0,0.0,0.0,1.0,2
2025/04/09 10:00:01.653798564,1744185601,653593458,mA1/gps,0,1,63.43461894492936,10.393091051891009,0.0,1.4400000000000002e-10,0.0,0.0,0.0,1.4400000000000002e-10,0.0,0.0,0.0,1.0,2
2025/04/09 10:00:01.704744468,1744185601,704580885,mA1/gps,0,1,63.43461910579001,10.39309105187882,0.0,1.4400000000000002e-10,0.0,0.0,0.0,1.4400000000000002e-10,0.0,0.0,0.0,1.0,2
2025/04/09 10:00:01.754630995,1744185601,754484022,mA1/gps,0,1,63.434619264590815,10.393091052306731,0.0,1.4400000000000002e-10,0.0,0.0,0.0,1.4400000000000002e-10,0.0,0.0,0.0,1.0,2
2025/04/09 10:00:01.805658855,1744185601,805412403,mA1/gps,0,1,63.434619421600814,10.393091051611455,0.0,1.4400000000000002e-10,0.0,0.0,0.0,1.4400000000000002e-10,0.0,0.0,0.0,1.0,2
2025/04/09 10:00:01.855544864,1744185601,855242356,mA1/gps,0,1,63.43461957581232,10.3930910523608,0.0,1.4400000000000002e-10,0.0,0.0,0.0,1.4400000000000002e-10,0.0,0.0,0.0,1.0,2
2025/04/09 10:00:01.897937763,1744185601,897778728,mA1/gps,0,1,63.434619728546465,10.393091053331556,0.0,1.4400000000000002e-10,0.0,0.0,0.0,1.4400000000000002e-10,0.0,0.0,0.0,1.0,2
2025/04/09 10:00:01.946720441,1744185601,946191094,mA1/gps,0,1,63.43461987861536,10.393091055014628,0.0,1.4400000000000002e-10,0.0,0.0,0.0,1.4400000000000002e-10,0.0,0.0,0.0,1.0,2
2025/04/09 10:00:02.698537,1744185602,403557,mA1/gps,0,1,63.4346200265558,10.393091057477053,0.0,1.4400000000000002e-10,0.0,0.0,0.0,1.4400000000000002e-10,0.0,0.0,0.0,1.0,2
2025/04/09 10:00:02.48035221,1744185602,47755371,mA1/gps,0,1,63.43462017242575,10.393091060978344,0.0,1.4400000000000002e-10,0.0,0.0,0.0,1.4400000000000002e-10,0.0,0.0,0.0,1.0,2
2025/04/09 10:00:02.99748208,1744185602,99205644,mA1/gps,0,1,63.434620315854666,10.393091065828978,0.0,1.4400000000000002e-10,0.0,0.0,0.0,1.4400000000000002e-10,0.0,0.0,0.0,1.0,2
2025/04/09 10:00:02.149551754,1744185602,149253519,mA1/gps,0,1,63.4346204578385,10.393091072106417,0.0,1.4400000000000002e-10,0.0,0.0,0.0,1.4400000000000002e-10,0.0,0.0,0.0,1.0,2
2025/04/09 10:00:02.200924575,1744185602,200370144,mA1/gps,0,1,63.434620598292156,10.393091079220545,0.0,1.4400000000000002e-10,0.0,0.0,0.0,1.4400000000000002e-10,0.0,0.0,0.0,1.0,2
2025/04/09 10:00:02.250575530,1744185602,250231918,mA1/gps,0,1,63.43462073758401,10.39309108708188,0.0,1.4400000000000002e-10,0.0,0.0,0.0,1.4400000000000002e-10,0.0,0.0,0.0,1.0,2
2025/04/09 10:00:02.301441589,1744185602,301158071,mA1/gps,0,1,63.43462087542245,10.393091096278283,0.0,1.4400000000000002e-10,0.0,0.0,0.0,1.4400000000000002e-10,0.0,0.0,0.0,1.0,2
2025/04/09 10:00:02.351347817,1744185602,351050306,mA1/gps,0,1,63.43462101257093,10.393091103919549,0.0,1.4400000000000002e-10,0.0,0.0,0.0,1.4400000000000002e-10,0.0,0.0,0.0,1.0,2
2025/04/09 10:00:02.402400776,1744185602,402032019,mA1/gps,0,1,63.43462114895719,10.39309111348939,0.0,1.4400000000000002e-10,0.0,0.0,0.0,1.4400000000000002e-10,0.0,0.0,0.0,1.0,2
2025/04/09 10:00:02.452430957,1744185602,451902548,mA1/gps,0,1,63.434621285269394,10.393091122672287,0.0,1.4400000000000002e-10,0.0,0.0,0.0,1.4400000000000002e-10,0.0,0.0,0.0,1.0,2
2025/04/09 10:00:02.504689961,1744185602,503813111,mA1/gps,0,1,63.43462142104767,10.393091130850252,0.0,1.4400000000000002e-10,0.0,0.0,0.0,1.4400000000000002e-10,0.0,0.0,0.0,1.0,2
2025/04/09 10:00:02.553656526,1744185602,553457977,mA1/gps,0,1,63.43462155631732,10.393091138835594,0.0,1.4400000000000002e-10,0.0,0.0,0.0,1.4400000000000002e-10,0.0,0.0,0.0,1.0,2
2025/04/09 10:00:02.605011188,1744185602,604741721,mA1/gps,0,1,63.43462169275728,10.393091145280914,0.0,1.4400000000000002e-10,0.0,0.0,0.0,1.4400000000000002e-10,0.0,0.0,0.0,1.0,2
2025/04/09 10:00:02.654826412,1744185602,654625602,mA1/gps,0,1,63.43462183087988,10.393091150708994,0.0,1.4400000000000002e-10,0.0,0.0,0.0,1.4400000000000002e-10,0.0,0.0,0.0,1.0,2
2025/04/09 10:00:02.705728682,1744185602,705575551,mA1/gps,0,1,63.434621967223904,10.393091155522919,0.0,1.4400000000000002e-10,0.0,0.0,0.0,1.4400000000000002e-10,0.0,0.0,0.0,1.0,2
2025/04/09 10:00:02.757631139,1744185602,755436362,mA1/gps,0,1,63.434622104497315,10.393091158484944,0.0,1.4400000000000002e-10,0.0,0.0,0.0,1.4400000000000002e-10,0.0,0.0,0.0,1.0,2
2025/04/09 10:00:02.806519991,1744185602,806356797,mA1/gps,0,1,63.43462224166517,10.393091161725474,0.0,1.4400000000000002e-10,0.0,0.0,0.0,1.4400000000000002e-10,0.0,0.0,0.0,1.0,2
2025/04/09 10:00:02.846481260,1744185602,846211933,mA1/gps,0,1,63.43462237872408,10.393091163864538,0.0,1.4400000000000002e-10,0.0,0.0,0.0,1.4400000000000002e-10,0.0,0.0,0.0,1.0,2
2025/04/09 10:00:02.898858599,1744185602,897146381,mA1/gps,0,1,63.43462251585175,10.39309116563284,0.0,1.4400000000000002e-10,0.0,0.0,0.0,1.4400000000000002e-10,0.0,0.0,0.0,1.0,2
