time,header_stamp_secs,header_stamp_nsecs,header_frame_id,child_frame_id,pose_pose_position_x,pose_pose_position_y,pose_pose_position_z,pose_pose_orientation_x,pose_pose_orientation_y,pose_pose_orientation_z,pose_pose_orientation_w,pose_covariance_0,pose_covariance_1,pose_covariance_2,pose_covariance_3,pose_covariance_4,pose_covariance_5,pose_covariance_6,pose_covariance_7,pose_covariance_8,pose_covariance_9,pose_covariance_10,pose_covariance_11,pose_covariance_12,pose_covariance_13,pose_covariance_14,pose_covariance_15,pose_covariance_16,pose_covariance_17,pose_covariance_18,pose_covariance_19,pose_covariance_20,pose_covariance_21,pose_covariance_22,pose_covariance_23,pose_covariance_24,pose_covariance_25,pose_covariance_26,pose_covariance_27,pose_covariance_28,pose_covariance_29,pose_covariance_30,pose_covariance_31,pose_covariance_32,pose_covariance_33,pose_covariance_34,pose_covariance_35,twist_twist_linear_x,twist_twist_linear_y,twist_twist_linear_z,twist_twist_angular_x,twist_twist_angular_y,twist_twist_angular_z,twist_covariance_0,twist_covariance_1,twist_covariance_2,twist_covariance_3,twist_covariance_4,twist_covariance_5,twist_covariance_6,twist_covariance_7,twist_covariance_8,twist_covariance_9,twist_covariance_10,twist_covariance_11,twist_covariance_12,twist_covariance_13,twist_covariance_14,twist_covariance_15,twist_covariance_16,twist_covariance_17,twist_covariance_18,twist_covariance_19,twist_covariance_20,twist_covariance_21,twist_covariance_22,twist_covariance_23,twist_covariance_24,twist_covariance_25,twist_covariance_26,twist_covariance_27,twist_covariance_28,twist_covariance_29,twist_covariance_30,twist_covariance_31,twist_covariance_32,twist_covariance_33,twist_covariance_34,twist_covariance_35
2025/04/09 09:59:46.461566214,1744185586,460949249,world_ned,mA1/odom,1.7783277431103555,11.34232266916292,0.43369730126366,-0.0004139799231962115,-1.1401737117603963e-05,0.002922547678944452,0.9999956435933548,0.0,0.0,0.0,0.0,0.0,0.0,0.0,0.0,0.0,0.0,0.0,0.0,0.0,0.0,0.0,0.0,0.0,0.0,0.0,0.0,0.0,0.0,0.0,0.0,0.0,0.0,0.0,0.0,0.0,0.0,0.0,0.0,0.0,0.0,0.0,0.0,0.002729474684661769,0.0012160375359576263,2.7474480755099706e-05,-0.00114332322310799,-0.0009086252075592241,-0.0004738613180904737,0.0,0.0,0.0,0.0,0.0,0.0,0.0,0.0,0.0,0.0,0.0,0.0,0.0,0.0,0.0,0.0,0.0,0.0,0.0,0.0,0.0,0.0,0.0,0.0,0.0,0.0,0.0,0.0,0.0,0.0,0.0,0.0,0.0,0.0,0.0,0.0
2025/04/09 09:59:46.566463328,1744185586,565724636,world_ned,mA1/odom,1.7782873549064862,11.342442847032352,0.4336984117713693,-0.0004676788235314097,-1.1638850927551331e-05,0.002898667210869581,0.9999956894254374,0.0,0.0,0.0,0.0,0.0,0.0,0.0,0.0,0.0,0.0,0.0,0.0,0.0,0.0,0.0,0.0,0.0,0.0,0.0,0.0,0.0,0.0,0.0,0.0,0.0,0.0,0.0,0.0,0.0,0.0,0.0,0.0,0.0,0.0,0.0,0.0,-0.0034280374099098284,0.0011714146085216358,2.848745036833384e-07,-0.0009787694280380288,0.0008705777150772086,-0.0004805498643422693,0.0,0.0,0.0,0.0,0.0,0.0,0.0,0.0,0.0,0.0,0.0,0.0,0.0,0.0,0.0,0.0,0.0,0.0,0.0,0.0,0.0,0.0,0.0,0.0,0.0,0.0,0.0,0.0,0.0,0.0,0.0,0.0,0.0,0.0,0.0,0.0
2025/04/09 09:59:46.659215110,1744185586,659094076,world_ned,mA1/odom,1.7782584323607893,11.342548576272982,0.4336967931690726,-0.0005059594606021713,-1.119978181083357e-05,0.0028744734198649876,0.9999957406320027,0.0,0.0,0.0,0.0,0.0,0.0,0.0,0.0,0.0,0.0,0.0,0.0,0.0,0.0,0.0,0.0,0.0,0.0,0.0,0.0,0.0,0.0,0.0,0.0,0.0,0.0,0.0,0.0,0.0,0.0,0.0,0.0,0.0,0.0,0.0,0.0,0.002763728559074409,0.0009526236600868328,-2.7170228242801194e-05,-0.0005648593845644805,-0.0008265432328650556,-0.00048649035478949294,0.0,0.0,0.0,0.0,0.0,0.0,0.0,0.0,0.0,0.0,0.0,0.0,0.0,0.0,0.0,0.0,0.0,0.0,0.0,0.0,0.0,0.0,0.0,0.0,0.0,0.0,0.0,0.0,0.0,0.0,0.0,0.0,0.0,0.0,0.0,0.0
2025/04/09 09:59:46.765147809,1744185586,762365137,world_ned,mA1/odom,1.7782338272729863,11.342643055245187,0.43369276592795997,-0.0005250471133614523,-6.600271213283656e-06,0.0028460619582817612,0.9999958120978781,0.0,0.0,0.0,0.0,0.0,0.0,0.0,0.0,0.0,0.0,0.0,0.0,0.0,0.0,0.0,0.0,0.0,0.0,0.0,0.0,0.0,0.0,0.0,0.0,0.0,0.0,0.0,0.0,0.0,0.0,0.0,0.0,0.0,0.0,0.0,0.0,-0.0032347218061633855,0.0009395889336722693,-4.8071452238416536e-05,-0.00022072373707514837,0.0009677611330972441,-0.0005934897057242659,0.0,0.0,0.0,0.0,0.0,0.0,0.0,0.0,0.0,0.0,0.0,0.0,0.0,0.0,0.0,0.0,0.0,0.0,0.0,0.0,0.0,0.0,0.0,0.0,0.0,0.0,0.0,0.0,0.0,0.0,0.0,0.0,0.0,0.0,0.0,0.0
2025/04/09 09:59:46.857421422,1744185586,857098589,world_ned,mA1/odom,1.7782237155795801,11.342736079316902,0.4336872910500021,-0.0005258727825024652,-1.842763021260563e-06,0.0028165409332191263,0.9999958952673718,0.0,0.0,0.0,0.0,0.0,0.0,0.0,0.0,0.0,0.0,0.0,0.0,0.0,0.0,0.0,0.0,0.0,0.0,0.0,0.0,0.0,0.0,0.0,0.0,0.0,0.0,0.0,0.0,0.0,0.0,0.0,0.0,0.0,0.0,0.0,0.0,0.0029455785335435756,0.0009235734169398479,-5.614798531686227e-05,0.00015152745099221315,-0.0007553760061953539,-0.00058793251539576,0.0,0.0,0.0,0.0,0.0,0.0,0.0,0.0,0.0,0.0,0.0,0.0,0.0,0.0,0.0,0.0,0.0,0.0,0.0,0.0,0.0,0.0,0.0,0.0,0.0,0.0,0.0,0.0,0.0,0.0,0.0,0.0,0.0,0.0,0.0,0.0
2025/04/09 09:59:46.958776789,1744185586,958509921,world_ned,mA1/odom,1.7781923252322849,11.342820109504892,0.4336819324956825,-0.0005061089053716329,3.3837631203375267e-06,0.002791228536556527,0.9999959764346968,0.0,0.0,0.0,0.0,0.0,0.0,0.0,0.0,0.0,0.0,0.0,0.0,0.0,0.0,0.0,0.0,0.0,0.0,0.0,0.0,0.0,0.0,0.0,0.0,0.0,0.0,0.0,0.0,0.0,0.0,0.0,0.0,0.0,0.0,0.0,0.0,-0.0033840621740872144,0.0007766121269133611,-4.798311677388679e-05,0.0005861472076420916,0.0009451306996535953,-0.00048112070029905586,0.0,0.0,0.0,0.0,0.0,0.0,0.0,0.0,0.0,0.0,0.0,0.0,0.0,0.0,0.0,0.0,0.0,0.0,0.0,0.0,0.0,0.0,0.0,0.0,0.0,0.0,0.0,0.0,0.0,0.0,0.0,0.0,0.0,0.0,0.0,0.0
2025/04/09 09:59:47.60443136,1744185587,60028613,world_ned,mA1/odom,1.7781674999319381,11.342894309622668,0.4336781418052447,-0.00046847969292569273,6.165709686731e-06,0.0027671314300786584,0.99999606172845,0.0,0.0,0.0,0.0,0.0,0.0,0.0,0.0,0.0,0.0,0.0,0.0,0.0,0.0,0.0,0.0,0.0,0.0,0.0,0.0,0.0,0.0,0.0,0.0,0.0,0.0,0.0,0.0,0.0,0.0,0.0,0.0,0.0,0.0,0.0,0.0,0.002796277872126562,0.0007340029256046857,-2.6533591084976326e-05,0.0008605906742265966,-0.0008107437317594829,-0.000482495330312651,0.0,0.0,0.0,0.0,0.0,0.0,0.0,0.0,0.0,0.0,0.0,0.0,0.0,0.0,0.0,0.0,0.0,0.0,0.0,0.0,0.0,0.0,0.0,0.0,0.0,0.0,0.0,0.0,0.0,0.0,0.0,0.0,0.0,0.0,0.0,0.0
2025/04/09 09:59:47.161128836,1744185587,160817219,world_ned,mA1/odom,1.778144199339911,11.342978286357281,0.4336769813729277,-0.00042524806963444587,1.000309044901396e-05,0.002738910223212972,0.9999961587100256,0.0,0.0,0.0,0.0,0.0,0.0,0.0,0.0,0.0,0.0,0.0,0.0,0.0,0.0,0.0,0.0,0.0,0.0,0.0,0.0,0.0,0.0,0.0,0.0,0.0,0.0,0.0,0.0,0.0,0.0,0.0,0.0,0.0,0.0,0.0,0.0,-0.003239053841203829,0.0009508573937223649,2.253971963225485e-06,0.0008364757369530793,0.0009213480611270555,-0.0005903396968284367,0.0,0.0,0.0,0.0,0.0,0.0,0.0,0.0,0.0,0.0,0.0,0.0,0.0,0.0,0.0,0.0,0.0,0.0,0.0,0.0,0.0,0.0,0.0,0.0,0.0,0.0,0.0,0.0,0.0,0.0,0.0,0.0,0.0,0.0,0.0,0.0
2025/04/09 09:59:47.264856196,1744185587,264570397,world_ned,mA1/odom,1.7781174221797627,11.343058166238642,0.4336787788600819,-0.0003777619375287589,9.884440952648797e-06,0.002711208813316908,0.9999962532654745,0.0,0.0,0.0,0.0,0.0,0.0,0.0,0.0,0.0,0.0,0.0,0.0,0.0,0.0,0.0,0.0,0.0,0.0,0.0,0.0,0.0,0.0,0.0,0.0,0.0,0.0,0.0,0.0,0.0,0.0,0.0,0.0,0.0,0.0,0.0,0.0,0.002719226768980226,0.0007457746613075273,3.1980787107739794e-05,0.000975067935565844,-0.0008883530986072355,-0.0005437508483342089,0.0,0.0,0.0,0.0,0.0,0.0,0.0,0.0,0.0,0.0,0.0,0.0,0.0,0.0,0.0,0.0,0.0,0.0,0.0,0.0,0.0,0.0,0.0,0.0,0.0,0.0,0.0,0.0,0.0,0.0,0.0,0.0,0.0,0.0,0.0,0.0
2025/04/09 09:59:47.361824790,1744185587,358870503,world_ned,mA1/odom,1.778080161411195,11.343158600794775,0.4336831968659845,-0.0003406457872376138,9.112541846101907e-06,0.0026862574618928066,0.9999963339424088,0.0,0.0,0.0,0.0,0.0,0.0,0.0,0.0,0.0,0.0,0.0,0.0,0.0,0.0,0.0,0.0,0.0,0.0,0.0,0.0,0.0,0.0,0.0,0.0,0.0,0.0,0.0,0.0,0.0,0.0,0.0,0.0,0.0,0.0,0.0,0.0,-0.0033875835273893653,0.0011770120575484205,5.264841984205268e-05,0.000564707865507416,0.0008257638774953507,-0.00048572595904631166,0.0,0.0,0.0,0.0,0.0,0.0,0.0,0.0,0.0,0.0,0.0,0.0,0.0,0.0,0.0,0.0,0.0,0.0,0.0,0.0,0.0,0.0,0.0,0.0,0.0,0.0,0.0,0.0,0.0,0.0,0.0,0.0,0.0,0.0,0.0,0.0
2025/04/09 09:59:47.460551561,1744185587,460318136,world_ned,mA1/odom,1.7780527747727846,11.343286055235984,0.43368880884512856,-0.00032087418519542753,5.561376016222204e-06,0.002661810018541789,0.9999964058816679,0.0,0.0,0.0,0.0,0.0,0.0,0.0,0.0,0.0,0.0,0.0,0.0,0.0,0.0,0.0,0.0,0.0,0.0,0.0,0.0,0.0,0.0,0.0,0.0,0.0,0.0,0.0,0.0,0.0,0.0,0.0,0.0,0.0,0.0,0.0,0.0,0.0027619541584269526,0.0013618372734273297,5.771559880538188e-05,0.0002460215751035725,-0.0009385536203076903,-0.0004915260310710926,0.0,0.0,0.0,0.0,0.0,0.0,0.0,0.0,0.0,0.0,0.0,0.0,0.0,0.0,0.0,0.0,0.0,0.0,0.0,0.0,0.0,0.0,0.0,0.0,0.0,0.0,0.0,0.0,0.0,0.0,0.0,0.0,0.0,0.0,0.0,0.0
2025/04/09 09:59:47.561421092,1744185587,561094900,world_ned,mA1/odom,1.7780142082012593,11.34343290371779,0.4336940015233736,-0.0003182829397346762,2.3168436173953786e-06,0.0026370858874631025,0.9999964722280897,0.0,0.0,0.0,0.0,0.0,0.0,0.0,0.0,0.0,0.0,0.0,0.0,0.0,0.0,0.0,0.0,0.0,0.0,0.0,0.0,0.0,0.0,0.0,0.0,0.0,0.0,0.0,0.0,0.0,0.0,0.0,0.0,0.0,0.0,0.0,0.0,-0.003421150067631158,0.0015578722872023006,4.787766951668875e-05,-0.00010742090944127164,0.0007822274369103434,-0.0004968770390571989,0.0,0.0,0.0,0.0,0.0,0.0,0.0,0.0,0.0,0.0,0.0,0.0,0.0,0.0,0.0,0.0,0.0,0.0,0.0,0.0,0.0,0.0,0.0,0.0,0.0,0.0,0.0,0.0,0.0,0.0,0.0,0.0,0.0,0.0,0.0,0.0
2025/04/09 09:59:47.662077105,1744185587,661829283,world_ned,mA1/odom,1.7779854806166542,11.343596456443553,0.43369753570845604,-0.00033199682144815265,-2.6458947422003946e-06,0.002612242052876738,0.9999965329752734,0.0,0.0,0.0,0.0,0.0,0.0,0.0,0.0,0.0,0.0,0.0,0.0,0.0,0.0,0.0,0.0,0.0,0.0,0.0,0.0,0.0,0.0,0.0,0.0,0.0,0.0,0.0,0.0,0.0,0.0,0.0,0.0,0.0,0.0,0.0,0.0,0.0027676018427723664,0.0016926241337023198,2.5613057896074708e-05,-0.0003978396993964995,-0.0009501753458291937,-0.0004969741856702926,0.0,0.0,0.0,0.0,0.0,0.0,0.0,0.0,0.0,0.0,0.0,0.0,0.0,0.0,0.0,0.0,0.0,0.0,0.0,0.0,0.0,0.0,0.0,0.0,0.0,0.0,0.0,0.0,0.0,0.0,0.0,0.0,0.0,0.0,0.0,0.0
2025/04/09 09:59:47.763703892,1744185587,763156479,world_ned,mA1/odom,1.7779335835331254,11.343741921830055,0.4336986308671221,-0.00034833301201432214,-7.0031324687391315e-06,0.002589209082670942,0.9999965872998743,0.0,0.0,0.0,0.0,0.0,0.0,0.0,0.0,0.0,0.0,0.0,0.0,0.0,0.0,0.0,0.0,0.0,0.0,0.0,0.0,0.0,0.0,0.0,0.0,0.0,0.0,0.0,0.0,0.0,0.0,0.0,0.0,0.0,0.0,0.0,0.0,-0.0035875404886119605,0.0013044990503861015,-2.759448718798865e-07,-0.00028615561476143665,0.0007669416389059616,-0.0004499246199638958,0.0,0.0,0.0,0.0,0.0,0.0,0.0,0.0,0.0,0.0,0.0,0.0,0.0,0.0,0.0,0.0,0.0,0.0,0.0,0.0,0.0,0.0,0.0,0.0,0.0,0.0,0.0,0.0,0.0,0.0,0.0,0.0,0.0,0.0,0.0,0.0
2025/04/09 09:59:47.864576925,1744185587,864306183,world_ned,mA1/odom,1.777888558866341,11.343859506222596,0.43369697666102913,-0.00036149806501044324,-1.1965054338907493e-05,0.0025665906724880796,0.9999966408885114,0.0,0.0,0.0,0.0,0.0,0.0,0.0,0.0,0.0,0.0,0.0,0.0,0.0,0.0,0.0,0.0,0.0,0.0,0.0,0.0,0.0,0.0,0.0,0.0,0.0,0.0,0.0,0.0,0.0,0.0,0.0,0.0,0.0,0.0,0.0,0.0,0.0026013596344450344,0.0010716122399089872,-2.7695209024233226e-05,-0.0002369949641880629,-0.0009374905028804194,-0.0004543883139337504,0.0,0.0,0.0,0.0,0.0,0.0,0.0,0.0,0.0,0.0,0.0,0.0,0.0,0.0,0.0,0.0,0.0,0.0,0.0,0.0,0.0,0.0,0.0,0.0,0.0,0.0,0.0,0.0,0.0,0.0,0.0,0.0,0.0,0.0,0.0,0.0
2025/04/09 09:59:47.966425692,1744185587,966108531,world_ned,mA1/odom,1.777852223605424,11.343979808719912,0.43369284724221474,-0.00037992137844682197,-1.2167309241133505e-05,0.0025418236338605464,0.9999966973167047,0.0,0.0,0.0,0.0,0.0,0.0,0.0,0.0,0.0,0.0,0.0,0.0,0.0,0.0,0.0,0.0,0.0,0.0,0.0,0.0,0.0,0.0,0.0,0.0,0.0,0.0,0.0,0.0,0.0,0.0,0.0,0.0,0.0,0.0,0.0,0.0,-0.0033271682995391575,0.0012576541080306113,-4.854640261035323e-05,-0.0004299180497820605,0.0008838325931950392,-0.0005097170609318624,0.0,0.0,0.0,0.0,0.0,0.0,0.0,0.0,0.0,0.0,0.0,0.0,0.0,0.0,0.0,0.0,0.0,0.0,0.0,0.0,0.0,0.0,0.0,0.0,0.0,0.0,0.0,0.0,0.0,0.0,0.0,0.0,0.0,0.0,0.0,0.0
2025/04/09 09:59:48.57158781,1744185588,56929747,world_ned,mA1/odom,1.7778204296476845,11.344082010185048,0.4336874706381756,-0.00039428487165491736,-1.1896214757516718e-05,0.002518212291288035,0.9999967514971116,0.0,0.0,0.0,0.0,0.0,0.0,0.0,0.0,0.0,0.0,0.0,0.0,0.0,0.0,0.0,0.0,0.0,0.0,0.0,0.0,0.0,0.0,0.0,0.0,0.0,0.0,0.0,0.0,0.0,0.0,0.0,0.0,0.0,0.0,0.0,0.0,0.0027013336500086595,0.0008755937240192475,-5.365383355720159e-05,-0.00019402877171852996,-0.0008380808480302499,-0.0004610866315165929,0.0,0.0,0.0,0.0,0.0,0.0,0.0,0.0,0.0,0.0,0.0,0.0,0.0,0.0,0.0,0.0,0.0,0.0,0.0,0.0,0.0,0.0,0.0,0.0,0.0,0.0,0.0,0.0,0.0,0.0,0.0,0.0,0.0,0.0,0.0,0.0
2025/04/09 09:59:48.160346073,1744185588,159174881,world_ned,mA1/odom,1.7777872074415149,11.34417731589645,0.43368212610402,-0.00040640243603577594,-7.78277003732975e-06,0.0024941882494566438,0.9999968068956344,0.0,0.0,0.0,0.0,0.0,0.0,0.0,0.0,0.0,0.0,0.0,0.0,0.0,0.0,0.0,0.0,0.0,0.0,0.0,0.0,0.0,0.0,0.0,0.0,0.0,0.0,0.0,0.0,0.0,0.0,0.0,0.0,0.0,0.0,0.0,0.0,-0.0033042077286686267,0.0010395046494617382,-4.7463029929588365e-05,-0.00029207871980041353,0.0009616671886775706,-0.0004927513590832204,0.0,0.0,0.0,0.0,0.0,0.0,0.0,0.0,0.0,0.0,0.0,0.0,0.0,0.0,0.0,0.0,0.0,0.0,0.0,0.0,0.0,0.0,0.0,0.0,0.0,0.0,0.0,0.0,0.0,0.0,0.0,0.0,0.0,0.0,0.0,0.0
2025/04/09 09:59:48.261441977,1744185588,260926053,world_ned,mA1/odom,1.7777459628166425,11.344195989746153,0.43367809907110866,-0.0003930193273980089,-4.988121199127743e-06,0.0024574828073664953,0.999996903139794,0.0,0.0,0.0,0.0,0.0,0.0,0.0,0.0,0.0,0.0,0.0,0.0,0.0,0.0,0.0,0.0,0.0,0.0,0.0,0.0,0.0,0.0,0.0,0.0,0.0,0.0,0.0,0.0,0.0,0.0,0.0,0.0,0.0,0.0,0.0,0.0,0.0025569905323289416,-0.0001149831769567872,-2.4471434502103666e-05,0.00045714741321468554,-0.0008104746284660931,-0.000811876688459105,0.0,0.0,0.0,0.0,0.0,0.0,0.0,0.0,0.0,0.0,0.0,0.0,0.0,0.0,0.0,0.0,0.0,0.0,0.0,0.0,0.0,0.0,0.0,0.0,0.0,0.0,0.0,0.0,0.0,0.0,0.0,0.0,0.0,0.0,0.0,0.0
2025/04/09 09:59:48.364222123,1744185588,361897069,world_ned,mA1/odom,1.777715174414546,11.344272873803888,0.4336774951617909,-0.00039964722218863836,8.987703871646886e-07,0.002429276247950271,0.9999969694445084,0.0,0.0,0.0,0.0,0.0,0.0,0.0,0.0,0.0,0.0,0.0,0.0,0.0,0.0,0.0,0.0,0.0,0.0,0.0,0.0,0.0,0.0,0.0,0.0,0.0,0.0,0.0,0.0,0.0,0.0,0.0,0.0,0.0,0.0,0.0,0.0,-0.0032560573762580925,0.0011070857722297962,3.856734471357301e-06,-0.00035161908863431935,0.0009939147659463524,-0.0004812501043721235,0.0,0.0,0.0,0.0,0.0,0.0,0.0,0.0,0.0,0.0,0.0,0.0,0.0,0.0,0.0,0.0,0.0,0.0,0.0,0.0,0.0,0.0,0.0,0.0,0.0,0.0,0.0,0.0,0.0,0.0,0.0,0.0,0.0,0.0,0.0,0.0
2025/04/09 09:59:48.462886037,1744185588,462710326,world_ned,mA1/odom,1.7776783742091073,11.344297168337384,0.43367900595925934,-0.00038925998754165943,4.520467564980738e-06,0.0023931973141092396,0.9999970605271014,0.0,0.0,0.0,0.0,0.0,0.0,0.0,0.0,0.0,0.0,0.0,0.0,0.0,0.0,0.0,0.0,0.0,0.0,0.0,0.0,0.0,0.0,0.0,0.0,0.0,0.0,0.0,0.0,0.0,0.0,0.0,0.0,0.0,0.0,0.0,0.0,0.0025988547036611518,-6.772533825110563e-05,3.2084457149068566e-05,0.0003978518890393699,-0.0008073109777286549,-0.0007979340703270577,0.0,0.0,0.0,0.0,0.0,0.0,0.0,0.0,0.0,0.0,0.0,0.0,0.0,0.0,0.0,0.0,0.0,0.0,0.0,0.0,0.0,0.0,0.0,0.0,0.0,0.0,0.0,0.0,0.0,0.0,0.0,0.0,0.0,0.0,0.0,0.0
2025/04/09 09:59:48.563900967,1744185588,563481403,world_ned,mA1/odom,1.777650138789829,11.344378908642815,0.4336836643199047,-0.0003990620071490321,9.588030703553414e-06,0.0023656137835704094,0.9999971222603649,0.0,0.0,0.0,0.0,0.0,0.0,0.0,0.0,0.0,0.0,0.0,0.0,0.0,0.0,0.0,0.0,0.0,0.0,0.0,0.0,0.0,0.0,0.0,0.0,0.0,0.0,0.0,0.0,0.0,0.0,0.0,0.0,0.0,0.0,0.0,0.0,-0.003241819189045478,0.0011541362492086071,5.111808911298566e-05,-0.00041600830192765133,0.0009623565765133015,-0.0004699487569914989,0.0,0.0,0.0,0.0,0.0,0.0,0.0,0.0,0.0,0.0,0.0,0.0,0.0,0.0,0.0,0.0,0.0,0.0,0.0,0.0,0.0,0.0,0.0,0.0,0.0,0.0,0.0,0.0,0.0,0.0,0.0,0.0,0.0,0.0,0.0,0.0
2025/04/09 09:59:48.665485946,1744185588,664972654,world_ned,mA1/odom,1.7776136030803913,11.344407941304295,0.4336887703231817,-0.0003918132790386209,1.081028535712651e-05,0.0023301379406003423,0.9999972084074384,0.0,0.0,0.0,0.0,0.0,0.0,0.0,0.0,0.0,0.0,0.0,0.0,0.0,0.0,0.0,0.0,0.0,0.0,0.0,0.0,0.0,0.0,0.0,0.0,0.0,0.0,0.0,0.0,0.0,0.0,0.0,0.0,0.0,0.0,0.0,0.0,0.0025941437036363845,-2.3359056098213224e-05,5.707659056064379e-05,0.00033977147600878615,-0.0008668359537451991,-0.000786011873146693,0.0,0.0,0.0,0.0,0.0,0.0,0.0,0.0,0.0,0.0,0.0,0.0,0.0,0.0,0.0,0.0,0.0,0.0,0.0,0.0,0.0,0.0,0.0,0.0,0.0,0.0,0.0,0.0,0.0,0.0,0.0,0.0,0.0,0.0,0.0,0.0
2025/04/09 09:59:48.765982394,1744185588,765722342,world_ned,mA1/odom,1.7775842857464075,11.34449336841215,0.43369434515801997,-0.0004039639272055884,1.2394313185482251e-05,0.0023031252481866284,0.9999972661330718,0.0,0.0,0.0,0.0,0.0,0.0,0.0,0.0,0.0,0.0,0.0,0.0,0.0,0.0,0.0,0.0,0.0,0.0,0.0,0.0,0.0,0.0,0.0,0.0,0.0,0.0,0.0,0.0,0.0,0.0,0.0,0.0,0.0,0.0,0.0,0.0,-0.0032563842946178104,0.001183835157133994,4.6784535478186767e-05,-0.00045250538327092955,0.0008865511359930356,-0.00045892237548965213,0.0,0.0,0.0,0.0,0.0,0.0,0.0,0.0,0.0,0.0,0.0,0.0,0.0,0.0,0.0,0.0,0.0,0.0,0.0,0.0,0.0,0.0,0.0,0.0,0.0,0.0,0.0,0.0,0.0,0.0,0.0,0.0,0.0,0.0,0.0,0.0
2025/04/09 09:59:48.858234735,1744185588,856500787,world_ned,mA1/odom,1.7775461138354878,11.344524390404844,0.43369742202926487,-0.0003977676776922615,9.701034206891552e-06,0.0022681805256584264,0.9999973485184186,0.0,0.0,0.0,0.0,0.0,0.0,0.0,0.0,0.0,0.0,0.0,0.0,0.0,0.0,0.0,0.0,0.0,0.0,0.0,0.0,0.0,0.0,0.0,0.0,0.0,0.0,0.0,0.0,0.0,0.0,0.0,0.0,0.0,0.0,0.0,0.0,0.002577662759934436,-1.1576301190684839e-05,2.479893140045698e-05,0.0003316000196051873,-0.0009448226512239793,-0.0007758096558211837,0.0,0.0,0.0,0.0,0.0,0.0,0.0,0.0,0.0,0.0,0.0,0.0,0.0,0.0,0.0,0.0,0.0,0.0,0.0,0.0,0.0,0.0,0.0,0.0,0.0,0.0,0.0,0.0,0.0,0.0,0.0,0.0,0.0,0.0,0.0,0.0
2025/04/09 09:59:48.957465453,1744185588,957315051,world_ned,mA1/odom,1.7775046697982921,11.344569210747663,0.43369719523156136,-0.00039619362880499845,7.3921250713732865e-06,0.002235708701215442,0.9999974222879618,0.0,0.0,0.0,0.0,0.0,0.0,0.0,0.0,0.0,0.0,0.0,0.0,0.0,0.0,0.0,0.0,0.0,0.0,0.0,0.0,0.0,0.0,0.0,0.0,0.0,0.0,0.0,0.0,0.0,0.0,0.0,0.0,0.0,0.0,0.0,0.0,-0.003374364305952193,0.0007808700588619129,-1.7538196696042623e-05,-0.00018831033462152758,0.0008133752972256099,-0.0005736495601562518,0.0,0.0,0.0,0.0,0.0,0.0,0.0,0.0,0.0,0.0,0.0,0.0,0.0,0.0,0.0,0.0,0.0,0.0,0.0,0.0,0.0,0.0,0.0,0.0,0.0,0.0,0.0,0.0,0.0,0.0,0.0,0.0,0.0,0.0,0.0,0.0
2025/04/09 09:59:49.60787840,1744185589,60325973,world_ned,mA1/odom,1.7774797430718785,11.344652392689266,0.4336940951847106,-0.00040724821862240114,3.4875821381005886e-06,0.0022071570016197937,0.9999974812941758,0.0,0.0,0.0,0.0,0.0,0.0,0.0,0.0,0.0,0.0,0.0,0.0,0.0,0.0,0.0,0.0,0.0,0.0,0.0,0.0,0.0,0.0,0.0,0.0,0.0,0.0,0.0,0.0,0.0,0.0,0.0,0.0,0.0,0.0,0.0,0.0,0.0027909862807697183,0.0008684361688633169,-3.959846397881986e-05,-0.00023756048485246124,-0.0009384690155699639,-0.0005689859785024009,0.0,0.0,0.0,0.0,0.0,0.0,0.0,0.0,0.0,0.0,0.0,0.0,0.0,0.0,0.0,0.0,0.0,0.0,0.0,0.0,0.0,0.0,0.0,0.0,0.0,0.0,0.0,0.0,0.0,0.0,0.0,0.0,0.0,0.0,0.0,0.0
2025/04/09 09:59:49.161386230,1744185589,160726571,world_ned,mA1/odom,1.7774444242836898,11.34474058245941,0.4336893239311456,-0.0004185416176248401,4.072637543956788e-07,0.002178968066903235,0.9999975384574263,0.0,0.0,0.0,0.0,0.0,0.0,0.0,0.0,0.0,0.0,0.0,0.0,0.0,0.0,0.0,0.0,0.0,0.0,0.0,0.0,0.0,0.0,0.0,0.0,0.0,0.0,0.0,0.0,0.0,0.0,0.0,0.0,0.0,0.0,0.0,0.0,-0.003392454098305312,0.0008911068732359333,-4.977859457488939e-05,-0.00020914659530033808,0.0007891167824551497,-0.0005596435750430629,0.0,0.0,0.0,0.0,0.0,0.0,0.0,0.0,0.0,0.0,0.0,0.0,0.0,0.0,0.0,0.0,0.0,0.0,0.0,0.0,0.0,0.0,0.0,0.0,0.0,0.0,0.0,0.0,0.0,0.0,0.0,0.0,0.0,0.0,0.0,0.0
2025/04/09 09:59:49.261962738,1744185589,261571594,world_ned,mA1/odom,1.7774036633779116,11.344800013998169,0.43368436646136166,-0.0004173239266083838,-5.295465321630335e-06,0.00215292694834257,0.9999975953562356,0.0,0.0,0.0,0.0,0.0,0.0,0.0,0.0,0.0,0.0,0.0,0.0,0.0,0.0,0.0,0.0,0.0,0.0,0.0,0.0,0.0,0.0,0.0,0.0,0.0,0.0,0.0,0.0,0.0,0.0,0.0,0.0,0.0,0.0,0.0,0.0,0.0025876595849928753,0.0004063253307006446,-4.5823286126828534e-05,0.00017869367551537753,-0.0009753584992190893,-0.000509015443904034,0.0,0.0,0.0,0.0,0.0,0.0,0.0,0.0,0.0,0.0,0.0,0.0,0.0,0.0,0.0,0.0,0.0,0.0,0.0,0.0,0.0,0.0,0.0,0.0,0.0,0.0,0.0,0.0,0.0,0.0,0.0,0.0,0.0,0.0,0.0,0.0
2025/04/09 09:59:49.362705208,1744185589,362489062,world_ned,mA1/odom,1.7773659521113176,11.344855335822396,0.4336804472507326,-0.00041212894160573885,-7.9691904272606e-06,0.0021254999367561847,0.9999976561653764,0.0,0.0,0.0,0.0,0.0,0.0,0.0,0.0,0.0,0.0,0.0,0.0,0.0,0.0,0.0,0.0,0.0,0.0,0.0,0.0,0.0,0.0,0.0,0.0,0.0,0.0,0.0,0.0,0.0,0.0,0.0,0.0,0.0,0.0,0.0,0.0,-0.0033480993002165896,0.0006308605265931493,-3.058030183664972e-05,7.08992556419858e-05,0.0008247230271527311,-0.0005618766527516332,0.0,0.0,0.0,0.0,0.0,0.0,0.0,0.0,0.0,0.0,0.0,0.0,0.0,0.0,0.0,0.0,0.0,0.0,0.0,0.0,0.0,0.0,0.0,0.0,0.0,0.0,0.0,0.0,0.0,0.0,0.0,0.0,0.0,0.0,0.0,0.0
2025/04/09 09:59:49.465097632,1744185589,464860360,world_ned,mA1/odom,1.7773310877007904,11.34489595920875,0.4336786529650773,-0.00040036201207471837,-1.0975966694026212e-05,0.002099198901108789,0.9999977164742733,0.0,0.0,0.0,0.0,0.0,0.0,0.0,0.0,0.0,0.0,0.0,0.0,0.0,0.0,0.0,0.0,0.0,0.0,0.0,0.0,0.0,0.0,0.0,0.0,0.0,0.0,0.0,0.0,0.0,0.0,0.0,0.0,0.0,0.0,0.0,0.0,0.002657271485132464,0.00027925603003000677,-5.51533503104394e-06,0.00032738994420621666,-0.0009092028598866538,-0.0005164664404030067,0.0,0.0,0.0,0.0,0.0,0.0,0.0,0.0,0.0,0.0,0.0,0.0,0.0,0.0,0.0,0.0,0.0,0.0,0.0,0.0,0.0,0.0,0.0,0.0,0.0,0.0,0.0,0.0,0.0,0.0,0.0,0.0,0.0,0.0,0.0,0.0
2025/04/09 09:59:49.566304757,1744185589,565884160,world_ned,mA1/odom,1.7772996086842567,11.344943597709102,0.4336794064180244,-0.00039099055282683403,-1.0000742349261614e-05,0.0020715400237621005,0.9999977778716824,0.0,0.0,0.0,0.0,0.0,0.0,0.0,0.0,0.0,0.0,0.0,0.0,0.0,0.0,0.0,0.0,0.0,0.0,0.0,0.0,0.0,0.0,0.0,0.0,0.0,0.0,0.0,0.0,0.0,0.0,0.0,0.0,0.0,0.0,0.0,0.0,-0.0032926865716652286,0.0005949422432791927,1.9184165937764985e-05,9.971931889655655e-05,0.0009006957353613915,-0.0005641594237079717,0.0,0.0,0.0,0.0,0.0,0.0,0.0,0.0,0.0,0.0,0.0,0.0,0.0,0.0,0.0,0.0,0.0,0.0,0.0,0.0,0.0,0.0,0.0,0.0,0.0,0.0,0.0,0.0,0.0,0.0,0.0,0.0,0.0,0.0,0.0,0.0
2025/04/09 09:59:49.659029996,1744185589,656539264,world_ned,mA1/odom,1.7772713453556284,11.344985504483658,0.4336825007187728,-0.0003810895558075063,-9.080346166779768e-06,0.002045270481685607,0.9999978357761353,0.0,0.0,0.0,0.0,0.0,0.0,0.0,0.0,0.0,0.0,0.0,0.0,0.0,0.0,0.0,0.0,0.0,0.0,0.0,0.0,0.0,0.0,0.0,0.0,0.0,0.0,0.0,0.0,0.0,0.0,0.0,0.0,0.0,0.0,0.0,0.0,0.0027301024459875853,0.0003293338548255913,4.050497102312878e-05,0.00023867688631761997,-0.0008305420929144606,-0.0005133196365588264,0.0,0.0,0.0,0.0,0.0,0.0,0.0,0.0,0.0,0.0,0.0,0.0,0.0,0.0,0.0,0.0,0.0,0.0,0.0,0.0,0.0,0.0,0.0,0.0,0.0,0.0,0.0,0.0,0.0,0.0,0.0,0.0,0.0,0.0,0.0,0.0
2025/04/09 09:59:49.759649302,1744185589,757547945,world_ned,mA1/odom,1.7772350772121461,11.344985615508696,0.433686009232931,-0.00036027841427671825,-5.082639142451489e-06,0.0020137537282784285,0.9999979074825871,0.0,0.0,0.0,0.0,0.0,0.0,0.0,0.0,0.0,0.0,0.0,0.0,0.0,0.0,0.0,0.0,0.0,0.0,0.0,0.0,0.0,0.0,0.0,0.0,0.0,0.0,0.0,0.0,0.0,0.0,0.0,0.0,0.0,0.0,0.0,0.0,-0.00338047259334512,-0.0001751284707647683,3.523137039890585e-05,0.00048679248668914227,0.0009474890302021355,-0.0007009867057454135,0.0,0.0,0.0,0.0,0.0,0.0,0.0,0.0,0.0,0.0,0.0,0.0,0.0,0.0,0.0,0.0,0.0,0.0,0.0,0.0,0.0,0.0,0.0,0.0,0.0,0.0,0.0,0.0,0.0,0.0,0.0,0.0,0.0,0.0,0.0,0.0
2025/04/09 09:59:49.860114996,1744185589,859840531,world_ned,mA1/odom,1.7772365616363672,11.345058802371756,0.43368911847429764,-0.000368360126388978,8.862782933062908e-07,0.0019909506811082427,0.9999979502106078,0.0,0.0,0.0,0.0,0.0,0.0,0.0,0.0,0.0,0.0,0.0,0.0,0.0,0.0,0.0,0.0,0.0,0.0,0.0,0.0,0.0,0.0,0.0,0.0,0.0,0.0,0.0,0.0,0.0,0.0,0.0,0.0,0.0,0.0,0.0,0.0,0.0031250682893631723,0.00109372475956751,3.533470334659171e-05,-0.0004465967721170041,-0.0007213250779177872,-0.00037878830927172067,0.0,0.0,0.0,0.0,0.0,0.0,0.0,0.0,0.0,0.0,0.0,0.0,0.0,0.0,0.0,0.0,0.0,0.0,0.0,0.0,0.0,0.0,0.0,0.0,0.0,0.0,0.0,0.0,0.0,0.0,0.0,0.0,0.0,0.0,0.0,0.0
2025/04/09 09:59:49.963531220,1744185589,963269106,world_ned,mA1/odom,1.7772083899140796,11.345091273380925,0.4336926781268214,-0.000368496554117057,6.2874385540031205e-06,0.0019596621573604468,0.9999980119455172,0.0,0.0,0.0,0.0,0.0,0.0,0.0,0.0,0.0,0.0,0.0,0.0,0.0,0.0,0.0,0.0,0.0,0.0,0.0,0.0,0.0,0.0,0.0,0.0,0.0,0.0,0.0,0.0,0.0,0.0,0.0,0.0,0.0,0.0,0.0,0.0,-0.003395791836373675,7.199500924813735e-05,2.778566733180868e-05,0.00012424695617678486,0.0009401507862565208,-0.0007049590748172673,0.0,0.0,0.0,0.0,0.0,0.0,0.0,0.0,0.0,0.0,0.0,0.0,0.0,0.0,0.0,0.0,0.0,0.0,0.0,0.0,0.0,0.0,0.0,0.0,0.0,0.0,0.0,0.0,0.0,0.0,0.0,0.0,0.0,0.0,0.0,0.0
2025/04/09 09:59:50.64410933,1744185590,64184002,world_ned,mA1/odom,1.7772088922213423,11.345184337841406,0.4336940880818374,-0.0003917966615134034,1.0789246751205273e-05,0.0019365392738752351,0.9999980480953995,0.0,0.0,0.0,0.0,0.0,0.0,0.0,0.0,0.0,0.0,0.0,0.0,0.0,0.0,0.0,0.0,0.0,0.0,0.0,0.0,0.0,0.0,0.0,0.0,0.0,0.0,0.0,0.0,0.0,0.0,0.0,0.0,0.0,0.0,0.0,0.0,0.0031176575473390975,0.001247695562011728,1.1438103075537661e-05,-0.0006938123804474841,-0.000766173333667539,-0.00038685556541896026,0.0,0.0,0.0,0.0,0.0,0.0,0.0,0.0,0.0,0.0,0.0,0.0,0.0,0.0,0.0,0.0,0.0,0.0,0.0,0.0,0.0,0.0,0.0,0.0,0.0,0.0,0.0,0.0,0.0,0.0,0.0,0.0,0.0,0.0,0.0,0.0
2025/04/09 09:59:50.165749137,1744185590,165517764,world_ned,mA1/odom,1.777178002967933,11.34522539463573,0.4336946522664811,-0.0003997937023515543,1.294219724228284e-05,0.001904924533876529,0.9999981056282133,0.0,0.0,0.0,0.0,0.0,0.0,0.0,0.0,0.0,0.0,0.0,0.0,0.0,0.0,0.0,0.0,0.0,0.0,0.0,0.0,0.0,0.0,0.0,0.0,0.0,0.0,0.0,0.0,0.0,0.0,0.0,0.0,0.0,0.0,0.0,0.0,-0.0034377603266503285,0.00010339652276190426,-5.9190990076791e-06,4.298703387600707e-05,0.0008613115878069939,-0.0007093658299886676,0.0,0.0,0.0,0.0,0.0,0.0,0.0,0.0,0.0,0.0,0.0,0.0,0.0,0.0,0.0,0.0,0.0,0.0,0.0,0.0,0.0,0.0,0.0,0.0,0.0,0.0,0.0,0.0,0.0,0.0,0.0,0.0,0.0,0.0,0.0,0.0
2025/04/09 09:59:50.258118667,1744185590,257959196,world_ned,mA1/odom,1.7771735295379083,11.345316463441197,0.43369254305846405,-0.0004229039423151194,1.2983250227317253e-05,0.0018815622668033184,0.9999981403518343,0.0,0.0,0.0,0.0,0.0,0.0,0.0,0.0,0.0,0.0,0.0,0.0,0.0,0.0,0.0,0.0,0.0,0.0,0.0,0.0,0.0,0.0,0.0,0.0,0.0,0.0,0.0,0.0,0.0,0.0,0.0,0.0,0.0,0.0,0.0,0.0,0.003063825787109292,0.0011869962755662788,-2.3225647175199755e-05,-0.0006218129873963733,-0.0008611644540864297,-0.0003920009127681484,0.0,0.0,0.0,0.0,0.0,0.0,0.0,0.0,0.0,0.0,0.0,0.0,0.0,0.0,0.0,0.0,0.0,0.0,0.0,0.0,0.0,0.0,0.0,0.0,0.0,0.0,0.0,0.0,0.0,0.0,0.0,0.0,0.0,0.0,0.0,0.0
2025/04/09 09:59:50.361134505,1744185590,360970490,world_ned,mA1/odom,1.7771382278345507,11.345346295503923,0.4336900462464433,-0.00042331176899710373,1.0467597788362671e-05,0.0018499037779671863,0.9999981992751726,0.0,0.0,0.0,0.0,0.0,0.0,0.0,0.0,0.0,0.0,0.0,0.0,0.0,0.0,0.0,0.0,0.0,0.0,0.0,0.0,0.0,0.0,0.0,0.0,0.0,0.0,0.0,0.0,0.0,0.0,0.0,0.0,0.0,0.0,0.0,0.0,-0.0034732042852777785,-4.8624398420510756e-05,-3.1808976508288935e-05,0.00025423284821965805,0.0007715041159515493,-0.0007078100786383292,0.0,0.0,0.0,0.0,0.0,0.0,0.0,0.0,0.0,0.0,0.0,0.0,0.0,0.0,0.0,0.0,0.0,0.0,0.0,0.0,0.0,0.0,0.0,0.0,0.0,0.0,0.0,0.0,0.0,0.0,0.0,0.0,0.0,0.0,0.0,0.0
2025/04/09 09:59:50.462065192,1744185590,461891804,world_ned,mA1/odom,1.7771297487635447,11.345418543966131,0.43368617269695775,-0.0004332299771127198,6.3872535940589745e-06,0.001826755471350621,0.9999982376161659,0.0,0.0,0.0,0.0,0.0,0.0,0.0,0.0,0.0,0.0,0.0,0.0,0.0,0.0,0.0,0.0,0.0,0.0,0.0,0.0,0.0,0.0,0.0,0.0,0.0,0.0,0.0,0.0,0.0,0.0,0.0,0.0,0.0,0.0,0.0,0.0,0.003020406623436897,0.0009767387280234532,-3.3649465283486404e-05,-0.0003259610295692522,-0.0009363237184110043,-0.0003855932976897985,0.0,0.0,0.0,0.0,0.0,0.0,0.0,0.0,0.0,0.0,0.0,0.0,0.0,0.0,0.0,0.0,0.0,0.0,0.0,0.0,0.0,0.0,0.0,0.0,0.0,0.0,0.0,0.0,0.0,0.0,0.0,0.0,0.0,0.0,0.0,0.0
2025/04/09 09:59:50.562928099,1744185590,562688720,world_ned,mA1/odom,1.7771169184559508,11.345508915536126,0.43368314687574405,-0.00044385996576884056,3.189166566774565e-06,0.0018072710732104542,0.9999982683732147,0.0,0.0,0.0,0.0,0.0,0.0,0.0,0.0,0.0,0.0,0.0,0.0,0.0,0.0,0.0,0.0,0.0,0.0,0.0,0.0,0.0,0.0,0.0,0.0,0.0,0.0,0.0,0.0,0.0,0.0,0.0,0.0,0.0,0.0,0.0,0.0,-0.0031704693028421255,0.000842875703337825,-2.3412525150075968e-05,-0.00011523801403513857,0.0007823484625916107,-0.0003930235299850018,0.0,0.0,0.0,0.0,0.0,0.0,0.0,0.0,0.0,0.0,0.0,0.0,0.0,0.0,0.0,0.0,0.0,0.0,0.0,0.0,0.0,0.0,0.0,0.0,0.0,0.0,0.0,0.0,0.0,0.0,0.0,0.0,0.0,0.0,0.0,0.0
2025/04/09 09:59:50.664340128,1744185590,663554838,world_ned,mA1/odom,1.77710843913118,11.345571225903525,0.43368142274501675,-0.00043881180373485644,-2.223330755929269e-06,0.0017852066262270944,0.999998310236852,0.0,0.0,0.0,0.0,0.0,0.0,0.0,0.0,0.0,0.0,0.0,0.0,0.0,0.0,0.0,0.0,0.0,0.0,0.0,0.0,0.0,0.0,0.0,0.0,0.0,0.0,0.0,0.0,0.0,0.0,0.0,0.0,0.0,0.0,0.0,0.0,0.002937673432355277,0.0005038510422806219,-8.285938121936373e-06,0.000234342086859087,-0.0009671033356184334,-0.00045738900006900545,0.0,0.0,0.0,0.0,0.0,0.0,0.0,0.0,0.0,0.0,0.0,0.0,0.0,0.0,0.0,0.0,0.0,0.0,0.0,0.0,0.0,0.0,0.0,0.0,0.0,0.0,0.0,0.0,0.0,0.0,0.0,0.0,0.0,0.0,0.0,0.0
2025/04/09 09:59:50.765040910,1744185590,764320675,world_ned,mA1/odom,1.777092953821601,11.345627588704383,0.4336816876945194,-0.0004262525786724345,-5.844461950717635e-06,0.0017645611362099016,0.9999983522979315,0.0,0.0,0.0,0.0,0.0,0.0,0.0,0.0,0.0,0.0,0.0,0.0,0.0,0.0,0.0,0.0,0.0,0.0,0.0,0.0,0.0,0.0,0.0,0.0,0.0,0.0,0.0,0.0,0.0,0.0,0.0,0.0,0.0,0.0,0.0,0.0,-0.003173958451521173,0.000566012704181113,1.1361938281183254e-05,0.00029061373519724597,0.0007906252577500159,-0.00040005288959997097,0.0,0.0,0.0,0.0,0.0,0.0,0.0,0.0,0.0,0.0,0.0,0.0,0.0,0.0,0.0,0.0,0.0,0.0,0.0,0.0,0.0,0.0,0.0,0.0,0.0,0.0,0.0,0.0,0.0,0.0,0.0,0.0,0.0,0.0,0.0,0.0
2025/04/09 09:59:50.859388056,1744185590,859139840,world_ned,mA1/odom,1.7770896552654916,11.345687380892771,0.43368360442992615,-0.0004112359142132675,-9.605934286470655e-06,0.001744360273946757,0.9999983939987022,0.0,0.0,0.0,0.0,0.0,0.0,0.0,0.0,0.0,0.0,0.0,0.0,0.0,0.0,0.0,0.0,0.0,0.0,0.0,0.0,0.0,0.0,0.0,0.0,0.0,0.0,0.0,0.0,0.0,0.0,0.0,0.0,0.0,0.0,0.0,0.0,0.003015737144298679,0.0006295526965521504,2.5746183965503947e-05,0.00029854765048213303,-0.0009164262014267557,-0.00040723745724002814,0.0,0.0,0.0,0.0,0.0,0.0,0.0,0.0,0.0,0.0,0.0,0.0,0.0,0.0,0.0,0.0,0.0,0.0,0.0,0.0,0.0,0.0,0.0,0.0,0.0,0.0,0.0,0.0,0.0,0.0,0.0,0.0,0.0,0.0,0.0,0.0
2025/04/09 09:59:50.960470394,1744185590,960223251,world_ned,mA1/odom,1.7770520953734217,11.34566721316288,0.43368717127522355,-0.00037003381104641,-1.2654485045525096e-05,0.0017118444361062992,0.9999984662505584,0.0,0.0,0.0,0.0,0.0,0.0,0.0,0.0,0.0,0.0,0.0,0.0,0.0,0.0,0.0,0.0,0.0,0.0,0.0,0.0,0.0,0.0,0.0,0.0,0.0,0.0,0.0,0.0,0.0,0.0,0.0,0.0,0.0,0.0,0.0,0.0,-0.0034801542425521733,-0.0004856559553208511,3.4824657333193015e-05,0.0009845419048927027,0.0007955681641230262,-0.0007258462054743601,0.0,0.0,0.0,0.0,0.0,0.0,0.0,0.0,0.0,0.0,0.0,0.0,0.0,0.0,0.0,0.0,0.0,0.0,0.0,0.0,0.0,0.0,0.0,0.0,0.0,0.0,0.0,0.0,0.0,0.0,0.0,0.0,0.0,0.0,0.0,0.0
2025/04/09 09:59:51.61080045,1744185591,60909281,world_ned,mA1/odom,1.7770462038057373,11.345708030225735,0.4336900756273723,-0.00035291334657440275,-1.3235593411151637e-05,0.001687860759621904,0.9999985132004172,0.0,0.0,0.0,0.0,0.0,0.0,0.0,0.0,0.0,0.0,0.0,0.0,0.0,0.0,0.0,0.0,0.0,0.0,0.0,0.0,0.0,0.0,0.0,0.0,0.0,0.0,0.0,0.0,0.0,0.0,0.0,0.0,0.0,0.0,0.0,0.0,0.0030674562438239026,0.0007715479678098208,3.160238947818797e-05,4.336864934186946e-05,-0.000832684105572065,-0.00040184307760316536,0.0,0.0,0.0,0.0,0.0,0.0,0.0,0.0,0.0,0.0,0.0,0.0,0.0,0.0,0.0,0.0,0.0,0.0,0.0,0.0,0.0,0.0,0.0,0.0,0.0,0.0,0.0,0.0,0.0,0.0,0.0,0.0,0.0,0.0,0.0,0.0
2025/04/09 09:59:51.162849756,1744185591,162589087,world_ned,mA1/odom,1.7770133694015504,11.345709461895128,0.43369319736455225,-0.0003309488917102165,-1.1867711859815757e-05,0.0016555955603303376,0.9999985746666488,0.0,0.0,0.0,0.0,0.0,0.0,0.0,0.0,0.0,0.0,0.0,0.0,0.0,0.0,0.0,0.0,0.0,0.0,0.0,0.0,0.0,0.0,0.0,0.0,0.0,0.0,0.0,0.0,0.0,0.0,0.0,0.0,0.0,0.0,0.0,0.0,-0.0034344289277303012,-0.0002202385688750253,2.259525245879299e-05,0.0005108772892647344,0.0008856328830184893,-0.0007213425094332105,0.0,0.0,0.0,0.0,0.0,0.0,0.0,0.0,0.0,0.0,0.0,0.0,0.0,0.0,0.0,0.0,0.0,0.0,0.0,0.0,0.0,0.0,0.0,0.0,0.0,0.0,0.0,0.0,0.0,0.0,0.0,0.0,0.0,0.0,0.0,0.0
2025/04/09 09:59:51.264049987,1744185591,263806220,world_ned,mA1/odom,1.7770126145621081,11.345781427473007,0.4336940104117736,-0.0003411950803413708,-8.126768963170011e-06,0.001631980972223268,0.9999986100780236,0.0,0.0,0.0,0.0,0.0,0.0,0.0,0.0,0.0,0.0,0.0,0.0,0.0,0.0,0.0,0.0,0.0,0.0,0.0,0.0,0.0,0.0,0.0,0.0,0.0,0.0,0.0,0.0,0.0,0.0,0.0,0.0,0.0,0.0,0.0,0.0,0.0031236847210620194,0.0011072835768878402,4.771577814296816e-06,-0.0005429685064674734,-0.0007500439650696293,-0.0003917543588807018,0.0,0.0,0.0,0.0,0.0,0.0,0.0,0.0,0.0,0.0,0.0,0.0,0.0,0.0,0.0,0.0,0.0,0.0,0.0,0.0,0.0,0.0,0.0,0.0,0.0,0.0,0.0,0.0,0.0,0.0,0.0,0.0,0.0,0.0,0.0,0.0
2025/04/09 09:59:51.364875852,1744185591,364654494,world_ned,mA1/odom,1.7769855883455254,11.345815873509327,0.4336939784630039,-0.0003482520516281904,-3.2292549496762987e-06,0.0016002661475085168,0.9999986589282696,0.0,0.0,0.0,0.0,0.0,0.0,0.0,0.0,0.0,0.0,0.0,0.0,0.0,0.0,0.0,0.0,0.0,0.0,0.0,0.0,0.0,0.0,0.0,0.0,0.0,0.0,0.0,0.0,0.0,0.0,0.0,0.0,0.0,0.0,0.0,0.0,-0.0033748582051409052,9.565560905862869e-05,-1.103558810858607e-05,-4.493278421486999e-05,0.0009459830986905517,-0.0007091042652382236,0.0,0.0,0.0,0.0,0.0,0.0,0.0,0.0,0.0,0.0,0.0,0.0,0.0,0.0,0.0,0.0,0.0,0.0,0.0,0.0,0.0,0.0,0.0,0.0,0.0,0.0,0.0,0.0,0.0,0.0,0.0,0.0,0.0,0.0,0.0,0.0
2025/04/09 09:59:51.466317098,1744185591,466019846,world_ned,mA1/odom,1.7769889860213093,11.345913760607313,0.43369146353207083,-0.00038210618173689474,2.478925292596296e-06,0.0015771941150152131,0.9999986832228552,0.0,0.0,0.0,0.0,0.0,0.0,0.0,0.0,0.0,0.0,0.0,0.0,0.0,0.0,0.0,0.0,0.0,0.0,0.0,0.0,0.0,0.0,0.0,0.0,0.0,0.0,0.0,0.0,0.0,0.0,0.0,0.0,0.0,0.0,0.0,0.0,0.0031530358247286424,0.0013097077658417646,-2.633371299321312e-05,-0.0009303255384028382,-0.0007274140059102416,-0.00038179426351343023,0.0,0.0,0.0,0.0,0.0,0.0,0.0,0.0,0.0,0.0,0.0,0.0,0.0,0.0,0.0,0.0,0.0,0.0,0.0,0.0,0.0,0.0,0.0,0.0,0.0,0.0,0.0,0.0,0.0,0.0,0.0,0.0,0.0,0.0,0.0,0.0
2025/04/09 09:59:51.556904503,1744185591,556645794,world_ned,mA1/odom,1.777181160594198,11.346110965005177,0.4336892092626284,-0.0004496927009215095,3.0306149520679642e-05,0.0015762451825938233,0.9999986561536652,0.0,0.0,0.0,0.0,0.0,0.0,0.0,0.0,0.0,0.0,0.0,0.0,0.0,0.0,0.0,0.0,0.0,0.0,0.0,0.0,0.0,0.0,0.0,0.0,0.0,0.0,0.0,0.0,0.0,0.0,0.0,0.0,0.0,0.0,0.0,0.0,0.0004591147279048052,0.0024336062855872345,-2.537283934918039e-05,-0.0016095188449958776,0.0017121724058260384,0.0002954616404922371,0.0,0.0,0.0,0.0,0.0,0.0,0.0,0.0,0.0,0.0,0.0,0.0,0.0,0.0,0.0,0.0,0.0,0.0,0.0,0.0,0.0,0.0,0.0,0.0,0.0,0.0,0.0,0.0,0.0,0.0,0.0,0.0,0.0,0.0,0.0,0.0
2025/04/09 09:59:51.658511311,1744185591,658329421,world_ned,mA1/odom,1.777951366916237,11.34610951204193,0.4336835587785083,-0.00044558890026421676,0.0001228593801651921,0.0015435714465778766,0.9999987018708044,0.0,0.0,0.0,0.0,0.0,0.0,0.0,0.0,0.0,0.0,0.0,0.0,0.0,0.0,0.0,0.0,0.0,0.0,0.0,0.0,0.0,0.0,0.0,0.0,0.0,0.0,0.0,0.0,0.0,0.0,0.0,0.0,0.0,0.0,0.0,0.0,0.014406523352212644,-0.0018891281325479044,-5.982865521585752e-05,0.0013396597686576167,0.001629654518411594,-0.0014128289819379494,0.0,0.0,0.0,0.0,0.0,0.0,0.0,0.0,0.0,0.0,0.0,0.0,0.0,0.0,0.0,0.0,0.0,0.0,0.0,0.0,0.0,0.0,0.0,0.0,0.0,0.0,0.0,0.0,0.0,0.0,0.0,0.0,0.0,0.0,0.0,0.0
2025/04/09 09:59:51.759409914,1744185591,759164661,world_ned,mA1/odom,1.7796534635194852,11.345904622676683,0.43367668858960295,-0.0003717827408590861,0.0003001691029985651,0.0014702627915593666,0.9999988050009995,0.0,0.0,0.0,0.0,0.0,0.0,0.0,0.0,0.0,0.0,0.0,0.0,0.0,0.0,0.0,0.0,0.0,0.0,0.0,0.0,0.0,0.0,0.0,0.0,0.0,0.0,0.0,0.0,0.0,0.0,0.0,0.0,0.0,0.0,0.0,0.0,0.017919622650458048,-0.0019524633196475027,-4.8381331857654485e-05,0.0013502186598521391,0.0053175419082417685,-0.0013820306991954156,0.0,0.0,0.0,0.0,0.0,0.0,0.0,0.0,0.0,0.0,0.0,0.0,0.0,0.0,0.0,0.0,0.0,0.0,0.0,0.0,0.0,0.0,0.0,0.0,0.0,0.0,0.0,0.0,0.0,0.0,0.0,0.0,0.0,0.0,0.0,0.0
2025/04/09 09:59:51.860121524,1744185591,859946997,world_ned,mA1/odom,1.7825364873213572,11.34573469973346,0.4336723714558407,-0.00031595041673101223,0.0005588047352671637,0.0014057099392322016,0.9999988059453715,0.0,0.0,0.0,0.0,0.0,0.0,0.0,0.0,0.0,0.0,0.0,0.0,0.0,0.0,0.0,0.0,0.0,0.0,0.0,0.0,0.0,0.0,0.0,0.0,0.0,0.0,0.0,0.0,0.0,0.0,0.0,0.0,0.0,0.0,0.0,0.0,0.03277617302916932,-0.0016517571306029074,5.257551944855276e-06,0.0009190974417162857,0.006269734085446247,-0.001201992520420882,0.0,0.0,0.0,0.0,0.0,0.0,0.0,0.0,0.0,0.0,0.0,0.0,0.0,0.0,0.0,0.0,0.0,0.0,0.0,0.0,0.0,0.0,0.0,0.0,0.0,0.0,0.0,0.0,0.0,0.0,0.0,0.0,0.0,0.0,0.0,0.0
2025/04/09 09:59:51.962009372,1744185591,960809813,world_ned,mA1/odom,1.7865742991378932,11.345542213629543,0.4336691716211621,-0.00026772853573980447,0.0008653139912870468,0.0013385359848081281,0.9999986939364196,0.0,0.0,0.0,0.0,0.0,0.0,0.0,0.0,0.0,0.0,0.0,0.0,0.0,0.0,0.0,0.0,0.0,0.0,0.0,0.0,0.0,0.0,0.0,0.0,0.0,0.0,0.0,0.0,0.0,0.0,0.0,0.0,0.0,0.0,0.0,0.0,0.04539854993391438,-0.0022949174420595674,4.440317755563125e-05,0.000963698201533887,0.006168943822447386,-0.0014458631131659338,0.0,0.0,0.0,0.0,0.0,0.0,0.0,0.0,0.0,0.0,0.0,0.0,0.0,0.0,0.0,0.0,0.0,0.0,0.0,0.0,0.0,0.0,0.0,0.0,0.0,0.0,0.0,0.0,0.0,0.0,0.0,0.0,0.0,0.0,0.0,0.0
2025/04/09 09:59:52.61769718,1744185592,61641762,world_ned,mA1/odom,1.7916152994412013,11.345338916598212,0.4336664999235244,-0.00023635869713471057,0.001161955757455215,0.0012688452996947302,0.9999984920113577,0.0,0.0,0.0,0.0,0.0,0.0,0.0,0.0,0.0,0.0,0.0,0.0,0.0,0.0,0.0,0.0,0.0,0.0,0.0,0.0,0.0,0.0,0.0,0.0,0.0,0.0,0.0,0.0,0.0,0.0,0.0,0.0,0.0,0.0,0.0,0.0,0.05244472451895497,-0.0020623426093303943,9.699881398189599e-05,0.00035439870283416865,0.00611728758027751,-0.0013638377732762684,0.0,0.0,0.0,0.0,0.0,0.0,0.0,0.0,0.0,0.0,0.0,0.0,0.0,0.0,0.0,0.0,0.0,0.0,0.0,0.0,0.0,0.0,0.0,0.0,0.0,0.0,0.0,0.0,0.0,0.0,0.0,0.0,0.0,0.0,0.0,0.0
2025/04/09 09:59:52.171736104,1744185592,165492257,world_ned,mA1/odom,1.7975723674849573,11.34510136688434,0.43366453144364625,-0.0002192915979693579,0.0013770541396236776,0.0011881606050488033,0.9999983219523262,0.0,0.0,0.0,0.0,0.0,0.0,0.0,0.0,0.0,0.0,0.0,0.0,0.0,0.0,0.0,0.0,0.0,0.0,0.0,0.0,0.0,0.0,0.0,0.0,0.0,0.0,0.0,0.0,0.0,0.0,0.0,0.0,0.0,0.0,0.0,0.0,0.06460779356054289,-0.002824185142512654,0.00016111766915945542,0.0002908724381108416,0.0028860618564304514,-0.0017743045002778293,0.0,0.0,0.0,0.0,0.0,0.0,0.0,0.0,0.0,0.0,0.0,0.0,0.0,0.0,0.0,0.0,0.0,0.0,0.0,0.0,0.0,0.0,0.0,0.0,0.0,0.0,0.0,0.0,0.0,0.0,0.0,0.0,0.0,0.0,0.0,0.0
2025/04/09 09:59:52.260324253,1744185592,260050857,world_ned,mA1/odom,1.8043189631579573,11.344790460881052,0.43366215930766533,-0.00020622878727435324,0.0014621019988599897,0.001087890636651092,0.9999983181092831,0.0,0.0,0.0,0.0,0.0,0.0,0.0,0.0,0.0,0.0,0.0,0.0,0.0,0.0,0.0,0.0,0.0,0.0,0.0,0.0,0.0,0.0,0.0,0.0,0.0,0.0,0.0,0.0,0.0,0.0,0.0,0.0,0.0,0.0,0.0,0.0,0.07368636467450354,-0.0037902026255191364,0.0001650684690667382,0.0003377262274294257,-0.0004615480830320443,-0.0022614090853811082,0.0,0.0,0.0,0.0,0.0,0.0,0.0,0.0,0.0,0.0,0.0,0.0,0.0,0.0,0.0,0.0,0.0,0.0,0.0,0.0,0.0,0.0,0.0,0.0,0.0,0.0,0.0,0.0,0.0,0.0,0.0,0.0,0.0,0.0,0.0,0.0
2025/04/09 09:59:52.358602282,1744185592,356902586,world_ned,mA1/odom,1.8117101737411119,11.344368850468236,0.43365711534052426,-0.00019087800044248688,0.0014012246971623701,0.0009590270693073219,0.9999985401999432,0.0,0.0,0.0,0.0,0.0,0.0,0.0,0.0,0.0,0.0,0.0,0.0,0.0,0.0,0.0,0.0,0.0,0.0,0.0,0.0,0.0,0.0,0.0,0.0,0.0,0.0,0.0,0.0,0.0,0.0,0.0,0.0,0.0,0.0,0.0,0.0,0.08172024525270966,-0.004770628592340499,0.00014697194368976807,0.00026805386657503084,-0.0038618659294456905,-0.0028144850144243834,0.0,0.0,0.0,0.0,0.0,0.0,0.0,0.0,0.0,0.0,0.0,0.0,0.0,0.0,0.0,0.0,0.0,0.0,0.0,0.0,0.0,0.0,0.0,0.0,0.0,0.0,0.0,0.0,0.0,0.0,0.0,0.0,0.0,0.0,0.0,0.0
2025/04/09 09:59:52.458524442,1744185592,458299267,world_ned,mA1/odom,1.8197694842059833,11.343922624309668,0.4336516132081016,-0.00020077205698501598,0.0012084261366286254,0.000817360528142554,0.9999989156587223,0.0,0.0,0.0,0.0,0.0,0.0,0.0,0.0,0.0,0.0,0.0,0.0,0.0,0.0,0.0,0.0,0.0,0.0,0.0,0.0,0.0,0.0,0.0,0.0,0.0,0.0,0.0,0.0,0.0,0.0,0.0,0.0,0.0,0.0,0.0,0.0,0.08340085432386245,-0.004402612174269953,0.00015581529863572488,-0.0006207150192097504,-0.004804126626893674,-0.0027877700437060715,0.0,0.0,0.0,0.0,0.0,0.0,0.0,0.0,0.0,0.0,0.0,0.0,0.0,0.0,0.0,0.0,0.0,0.0,0.0,0.0,0.0,0.0,0.0,0.0,0.0,0.0,0.0,0.0,0.0,0.0,0.0,0.0,0.0,0.0,0.0,0.0
2025/04/09 09:59:52.559284734,1744185592,559119994,world_ned,mA1/odom,1.8286074348836827,11.343455234757114,0.43365097314902284,-0.0002341038628656925,0.0009021694928191614,0.0006675161365084473,0.9999993428536816,0.0,0.0,0.0,0.0,0.0,0.0,0.0,0.0,0.0,0.0,0.0,0.0,0.0,0.0,0.0,0.0,0.0,0.0,0.0,0.0,0.0,0.0,0.0,0.0,0.0,0.0,0.0,0.0,0.0,0.0,0.0,0.0,0.0,0.0,0.0,0.0,0.09015084463325954,-0.004992229791559871,0.0002039895477081646,-0.0007914392505401291,-0.006336839420120688,-0.003130233549085019,0.0,0.0,0.0,0.0,0.0,0.0,0.0,0.0,0.0,0.0,0.0,0.0,0.0,0.0,0.0,0.0,0.0,0.0,0.0,0.0,0.0,0.0,0.0,0.0,0.0,0.0,0.0,0.0,0.0,0.0,0.0,0.0,0.0,0.0,0.0,0.0
2025/04/09 09:59:52.660549427,1744185592,660335333,world_ned,mA1/odom,1.8381963552650036,11.342827054249357,0.4336568843987514,-0.00024156834955837804,0.0005479784086339165,0.0004690109396230336,0.9999997106965255,0.0,0.0,0.0,0.0,0.0,0.0,0.0,0.0,0.0,0.0,0.0,0.0,0.0,0.0,0.0,0.0,0.0,0.0,0.0,0.0,0.0,0.0,0.0,0.0,0.0,0.0,0.0,0.0,0.0,0.0,0.0,0.0,0.0,0.0,0.0,0.0,0.0980916841932528,-0.0069372976166405115,0.00019073987777076242,-2.4107706592806172e-05,-0.006784948395553393,-0.004488333406964716,0.0,0.0,0.0,0.0,0.0,0.0,0.0,0.0,0.0,0.0,0.0,0.0,0.0,0.0,0.0,0.0,0.0,0.0,0.0,0.0,0.0,0.0,0.0,0.0,0.0,0.0,0.0,0.0,0.0,0.0,0.0,0.0,0.0,0.0,0.0,0.0
2025/04/09 09:59:52.761344797,1744185592,761121293,world_ned,mA1/odom,1.8485564764830333,11.342208784307122,0.4336702401911293,-0.0002787479448453549,0.0002056731520741439,0.00024720009141827024,0.9999999094451222,0.0,0.0,0.0,0.0,0.0,0.0,0.0,0.0,0.0,0.0,0.0,0.0,0.0,0.0,0.0,0.0,0.0,0.0,0.0,0.0,0.0,0.0,0.0,0.0,0.0,0.0,0.0,0.0,0.0,0.0,0.0,0.0,0.0,0.0,0.0,0.0,0.10607059298149416,-0.005368236603469562,0.00019231838329744735,-0.0015178110625882224,-0.006122447431898932,-0.004176694807759133,0.0,0.0,0.0,0.0,0.0,0.0,0.0,0.0,0.0,0.0,0.0,0.0,0.0,0.0,0.0,0.0,0.0,0.0,0.0,0.0,0.0,0.0,0.0,0.0,0.0,0.0,0.0,0.0,0.0,0.0,0.0,0.0,0.0,0.0,0.0,0.0
2025/04/09 09:59:52.865114340,1744185592,864635957,world_ned,mA1/odom,1.859850690363169,11.341686375273538,0.43368726770578825,-0.0003662222886651076,-8.720190372997008e-05,3.860240606980955e-05,0.9999999283934562,0.0,0.0,0.0,0.0,0.0,0.0,0.0,0.0,0.0,0.0,0.0,0.0,0.0,0.0,0.0,0.0,0.0,0.0,0.0,0.0,0.0,0.0,0.0,0.0,0.0,0.0,0.0,0.0,0.0,0.0,0.0,0.0,0.0,0.0,0.0,0.0,0.11235405474365734,-0.005267034725396074,0.0001354361769530331,-0.0018510104215112247,-0.0037379359190273403,-0.00421087646411802,0.0,0.0,0.0,0.0,0.0,0.0,0.0,0.0,0.0,0.0,0.0,0.0,0.0,0.0,0.0,0.0,0.0,0.0,0.0,0.0,0.0,0.0,0.0,0.0,0.0,0.0,0.0,0.0,0.0,0.0,0.0,0.0,0.0,0.0,0.0,0.0
2025/04/09 09:59:52.958528594,1744185592,956433282,world_ned,mA1/odom,1.871961532269801,11.341141354378843,0.43370182162935084,-0.0004548438666692177,-0.0002629557933579725,-0.00017416658845844334,0.9999998468186418,0.0,0.0,0.0,0.0,0.0,0.0,0.0,0.0,0.0,0.0,0.0,0.0,0.0,0.0,0.0,0.0,0.0,0.0,0.0,0.0,0.0,0.0,0.0,0.0,0.0,0.0,0.0,0.0,0.0,0.0,0.0,0.0,0.0,0.0,0.0,0.0,0.12391608683171272,-0.005572927244879264,5.3258704355257385e-05,-0.0016618288455020767,-0.0019968652540625353,-0.004291723120101198,0.0,0.0,0.0,0.0,0.0,0.0,0.0,0.0,0.0,0.0,0.0,0.0,0.0,0.0,0.0,0.0,0.0,0.0,0.0,0.0,0.0,0.0,0.0,0.0,0.0,0.0,0.0,0.0,0.0,0.0,0.0,0.0,0.0,0.0,0.0,0.0
2025/04/09 09:59:53.57627578,1744185593,57263457,world_ned,mA1/odom,1.8849583357716393,11.340560537643832,0.433711397173193,-0.000526787920927976,-0.0003019184336129,-0.0003880934651432225,0.9999997403615704,0.0,0.0,0.0,0.0,0.0,0.0,0.0,0.0,0.0,0.0,0.0,0.0,0.0,0.0,0.0,0.0,0.0,0.0,0.0,0.0,0.0,0.0,0.0,0.0,0.0,0.0,0.0,0.0,0.0,0.0,0.0,0.0,0.0,0.0,0.0,0.0,0.13243868220681312,-0.005723603433163213,-2.5766722982539352e-05,-0.001319605836742827,0.0009009893195624394,-0.004167753134269045,0.0,0.0,0.0,0.0,0.0,0.0,0.0,0.0,0.0,0.0,0.0,0.0,0.0,0.0,0.0,0.0,0.0,0.0,0.0,0.0,0.0,0.0,0.0,0.0,0.0,0.0,0.0,0.0,0.0,0.0,0.0,0.0,0.0,0.0,0.0,0.0
2025/04/09 09:59:53.162164339,1744185593,159648999,world_ned,mA1/odom,1.898802646400211,11.339934016541282,0.43371557691099716,-0.0005676532212061336,-0.00020012866580221145,-0.0005940950398296973,0.9999996423846467,0.0,0.0,0.0,0.0,0.0,0.0,0.0,0.0,0.0,0.0,0.0,0.0,0.0,0.0,0.0,0.0,0.0,0.0,0.0,0.0,0.0,0.0,0.0,0.0,0.0,0.0,0.0,0.0,0.0,0.0,0.0,0.0,0.0,0.0,0.0,0.0,0.14385048934629527,-0.006538014803279497,-3.11832906698059e-05,-0.000331996671653836,0.002761890708191953,-0.004102687656070172,0.0,0.0,0.0,0.0,0.0,0.0,0.0,0.0,0.0,0.0,0.0,0.0,0.0,0.0,0.0,0.0,0.0,0.0,0.0,0.0,0.0,0.0,0.0,0.0,0.0,0.0,0.0,0.0,0.0,0.0,0.0,0.0,0.0,0.0,0.0,0.0
2025/04/09 09:59:53.262226892,1744185593,260396892,world_ned,mA1/odom,1.9134414013909218,11.33921177392185,0.43371500751080216,-0.0005544227776499578,2.336349302259155e-05,-0.0007981238672503327,0.9999995275338001,0.0,0.0,0.0,0.0,0.0,0.0,0.0,0.0,0.0,0.0,0.0,0.0,0.0,0.0,0.0,0.0,0.0,0.0,0.0,0.0,0.0,0.0,0.0,0.0,0.0,0.0,0.0,0.0,0.0,0.0,0.0,0.0,0.0,0.0,0.0,0.0,0.15005103373091902,-0.007325691376290467,-4.775489771135049e-05,0.000676160337684441,0.005228214327840996,-0.004025965388463254,0.0,0.0,0.0,0.0,0.0,0.0,0.0,0.0,0.0,0.0,0.0,0.0,0.0,0.0,0.0,0.0,0.0,0.0,0.0,0.0,0.0,0.0,0.0,0.0,0.0,0.0,0.0,0.0,0.0,0.0,0.0,0.0,0.0,0.0,0.0,0.0
2025/04/09 09:59:53.361437010,1744185593,361255893,world_ned,mA1/odom,1.928820313791121,11.338455433528434,0.4337070124533413,-0.0005103056875058674,0.0003211404925314874,-0.0009951502248823007,0.9999993230662305,0.0,0.0,0.0,0.0,0.0,0.0,0.0,0.0,0.0,0.0,0.0,0.0,0.0,0.0,0.0,0.0,0.0,0.0,0.0,0.0,0.0,0.0,0.0,0.0,0.0,0.0,0.0,0.0,0.0,0.0,0.0,0.0,0.0,0.0,0.0,0.0,0.1587852400098567,-0.007228560418506828,-2.499857185911427e-05,0.0010039613629765892,0.005811727191519333,-0.003893087857637138,0.0,0.0,0.0,0.0,0.0,0.0,0.0,0.0,0.0,0.0,0.0,0.0,0.0,0.0,0.0,0.0,0.0,0.0,0.0,0.0,0.0,0.0,0.0,0.0,0.0,0.0,0.0,0.0,0.0,0.0,0.0,0.0,0.0,0.0,0.0,0.0
2025/04/09 09:59:53.462308648,1744185593,462089433,world_ned,mA1/odom,1.9447469837861584,11.337708319259443,0.4336917100751595,-0.00045568015021732174,0.0006555989419793852,-0.0011874735151923398,0.9999989762256153,0.0,0.0,0.0,0.0,0.0,0.0,0.0,0.0,0.0,0.0,0.0,0.0,0.0,0.0,0.0,0.0,0.0,0.0,0.0,0.0,0.0,0.0,0.0,0.0,0.0,0.0,0.0,0.0,0.0,0.0,0.0,0.0,0.0,0.0,0.0,0.0,0.15986903414573228,-0.0070128915169046045,3.324859291763474e-05,0.0011227931832338608,0.007138620542850622,-0.0038020902115390195,0.0,0.0,0.0,0.0,0.0,0.0,0.0,0.0,0.0,0.0,0.0,0.0,0.0,0.0,0.0,0.0,0.0,0.0,0.0,0.0,0.0,0.0,0.0,0.0,0.0,0.0,0.0,0.0,0.0,0.0,0.0,0.0,0.0,0.0,0.0,0.0
2025/04/09 09:59:53.563144356,1744185593,562857208,world_ned,mA1/odom,1.9613941844393763,11.33684730449011,0.4336704001051566,-0.00036020429188519314,0.0009340472120331624,-0.0014104716550350565,0.9999985041880733,0.0,0.0,0.0,0.0,0.0,0.0,0.0,0.0,0.0,0.0,0.0,0.0,0.0,0.0,0.0,0.0,0.0,0.0,0.0,0.0,0.0,0.0,0.0,0.0,0.0,0.0,0.0,0.0,0.0,0.0,0.0,0.0,0.0,0.0,0.0,0.0,0.17226493236323367,-0.008288234832931831,8.352484724076387e-05,0.001973671315525736,0.003920025466771223,-0.004689549142668506,0.0,0.0,0.0,0.0,0.0,0.0,0.0,0.0,0.0,0.0,0.0,0.0,0.0,0.0,0.0,0.0,0.0,0.0,0.0,0.0,0.0,0.0,0.0,0.0,0.0,0.0,0.0,0.0,0.0,0.0,0.0,0.0,0.0,0.0,0.0,0.0
2025/04/09 09:59:53.663934897,1744185593,663631859,world_ned,mA1/odom,1.9784790449877159,11.336025889724736,0.4336464987417834,-0.0002864256833735344,0.0011235964829656147,-0.0016476320757357924,0.9999979703978475,0.0,0.0,0.0,0.0,0.0,0.0,0.0,0.0,0.0,0.0,0.0,0.0,0.0,0.0,0.0,0.0,0.0,0.0,0.0,0.0,0.0,0.0,0.0,0.0,0.0,0.0,0.0,0.0,0.0,0.0,0.0,0.0,0.0,0.0,0.0,0.0,0.17114318122224295,-0.007169544673348092,0.00014180870353450354,0.0010139004179924593,0.0031425464923542697,-0.00478233991093117,0.0,0.0,0.0,0.0,0.0,0.0,0.0,0.0,0.0,0.0,0.0,0.0,0.0,0.0,0.0,0.0,0.0,0.0,0.0,0.0,0.0,0.0,0.0,0.0,0.0,0.0,0.0,0.0,0.0,0.0,0.0,0.0,0.0,0.0,0.0,0.0
2025/04/09 09:59:53.764749521,1744185593,764444247,world_ned,mA1/odom,1.9958514147924127,11.335312238215714,0.4336273112653174,-0.00026667078907138825,0.0011984204382959915,-0.0018876675367773697,0.9999974646899931,0.0,0.0,0.0,0.0,0.0,0.0,0.0,0.0,0.0,0.0,0.0,0.0,0.0,0.0,0.0,0.0,0.0,0.0,0.0,0.0,0.0,0.0,0.0,0.0,0.0,0.0,0.0,0.0,0.0,0.0,0.0,0.0,0.0,0.0,0.0,0.0,0.17910750574100084,-0.005986889656121704,0.00026795672273152086,-0.00011164821725098691,-0.0008149582964486361,-0.0048140963348771324,0.0,0.0,0.0,0.0,0.0,0.0,0.0,0.0,0.0,0.0,0.0,0.0,0.0,0.0,0.0,0.0,0.0,0.0,0.0,0.0,0.0,0.0,0.0,0.0,0.0,0.0,0.0,0.0,0.0,0.0,0.0,0.0,0.0,0.0,0.0,0.0
2025/04/09 09:59:53.865528249,1744185593,865311947,world_ned,mA1/odom,2.013763777248075,11.334704197015087,0.43361701104746664,-0.0003033550665748937,0.0011070045777439646,-0.0021304639247144725,0.9999970718157298,0.0,0.0,0.0,0.0,0.0,0.0,0.0,0.0,0.0,0.0,0.0,0.0,0.0,0.0,0.0,0.0,0.0,0.0,0.0,0.0,0.0,0.0,0.0,0.0,0.0,0.0,0.0,0.0,0.0,0.0,0.0,0.0,0.0,0.0,0.0,0.0,0.18092868047698749,-0.004868924560212138,0.00033971806528839874,-0.0011863719139082252,-0.0031053506026147135,-0.004892583517176697,0.0,0.0,0.0,0.0,0.0,0.0,0.0,0.0,0.0,0.0,0.0,0.0,0.0,0.0,0.0,0.0,0.0,0.0,0.0,0.0,0.0,0.0,0.0,0.0,0.0,0.0,0.0,0.0,0.0,0.0,0.0,0.0,0.0,0.0,0.0,0.0
2025/04/09 09:59:53.966455026,1744185593,966233344,world_ned,mA1/odom,2.031924444323776,11.334185591175883,0.4336193885262349,-0.0003849662656918008,0.0009050945541450676,-0.002376757999806418,0.9999966918076443,0.0,0.0,0.0,0.0,0.0,0.0,0.0,0.0,0.0,0.0,0.0,0.0,0.0,0.0,0.0,0.0,0.0,0.0,0.0,0.0,0.0,0.0,0.0,0.0,0.0,0.0,0.0,0.0,0.0,0.0,0.0,0.0,0.0,0.0,0.0,0.0,0.18366961126478126,-0.003997536111331124,0.000417776951141835,-0.0018971429528350564,-0.005084292606090892,-0.00495907713319808,0.0,0.0,0.0,0.0,0.0,0.0,0.0,0.0,0.0,0.0,0.0,0.0,0.0,0.0,0.0,0.0,0.0,0.0,0.0,0.0,0.0,0.0,0.0,0.0,0.0,0.0,0.0,0.0,0.0,0.0,0.0,0.0,0.0,0.0,0.0,0.0
2025/04/09 09:59:54.59882140,1744185594,57659357,world_ned,mA1/odom,2.050610743644066,11.333725364611698,0.4336363185512055,-0.0004893894506350473,0.0005949207392961091,-0.0026268829650359015,0.9999962530195639,0.0,0.0,0.0,0.0,0.0,0.0,0.0,0.0,0.0,0.0,0.0,0.0,0.0,0.0,0.0,0.0,0.0,0.0,0.0,0.0,0.0,0.0,0.0,0.0,0.0,0.0,0.0,0.0,0.0,0.0,0.0,0.0,0.0,0.0,0.0,0.0,0.18928684314187885,-0.0034346577028877257,0.000447821816412794,-0.002137459474535629,-0.0068897022390111235,-0.0050458133721938535,0.0,0.0,0.0,0.0,0.0,0.0,0.0,0.0,0.0,0.0,0.0,0.0,0.0,0.0,0.0,0.0,0.0,0.0,0.0,0.0,0.0,0.0,0.0,0.0,0.0,0.0,0.0,0.0,0.0,0.0,0.0,0.0,0.0,0.0,0.0,0.0
2025/04/09 09:59:54.158873787,1744185594,158508529,world_ned,mA1/odom,2.0696736276719143,11.333154287081303,0.43366302362571796,-0.0005475999288406927,0.00026163855671654376,-0.0029167012853911125,0.9999955622567509,0.0,0.0,0.0,0.0,0.0,0.0,0.0,0.0,0.0,0.0,0.0,0.0,0.0,0.0,0.0,0.0,0.0,0.0,0.0,0.0,0.0,0.0,0.0,0.0,0.0,0.0,0.0,0.0,0.0,0.0,0.0,0.0,0.0,0.0,0.0,0.0,0.19606798279984572,-0.004822800068854947,0.0003930992689765062,-0.0008478103219172875,-0.007576504331995236,-0.006105723609792302,0.0,0.0,0.0,0.0,0.0,0.0,0.0,0.0,0.0,0.0,0.0,0.0,0.0,0.0,0.0,0.0,0.0,0.0,0.0,0.0,0.0,0.0,0.0,0.0,0.0,0.0,0.0,0.0,0.0,0.0,0.0,0.0,0.0,0.0,0.0,0.0
2025/04/09 09:59:54.259500387,1744185594,259288212,world_ned,mA1/odom,2.0893008114571776,11.332750235541415,0.43369961821711767,-0.0006428972641180935,-7.716502241763384e-05,-0.003185155077648537,0.9999947177439481,0.0,0.0,0.0,0.0,0.0,0.0,0.0,0.0,0.0,0.0,0.0,0.0,0.0,0.0,0.0,0.0,0.0,0.0,0.0,0.0,0.0,0.0,0.0,0.0,0.0,0.0,0.0,0.0,0.0,0.0,0.0,0.0,0.0,0.0,0.0,0.0,0.19932015332254516,-0.0022728986505834562,0.00033567660394508966,-0.0019478772554562846,-0.006481553446038918,-0.005147872709369958,0.0,0.0,0.0,0.0,0.0,0.0,0.0,0.0,0.0,0.0,0.0,0.0,0.0,0.0,0.0,0.0,0.0,0.0,0.0,0.0,0.0,0.0,0.0,0.0,0.0,0.0,0.0,0.0,0.0,0.0,0.0,0.0,0.0,0.0,0.0,0.0
2025/04/09 09:59:54.360996412,1744185594,360771711,world_ned,mA1/odom,2.109480072318857,11.332241854581184,0.4337322550939328,-0.0006713774144522874,-0.0003337218517794518,-0.003480080099463429,0.9999936634422212,0.0,0.0,0.0,0.0,0.0,0.0,0.0,0.0,0.0,0.0,0.0,0.0,0.0,0.0,0.0,0.0,0.0,0.0,0.0,0.0,0.0,0.0,0.0,0.0,0.0,0.0,0.0,0.0,0.0,0.0,0.0,0.0,0.0,0.0,0.0,0.0,0.2071907053753224,-0.004090401183465118,0.00014285008107541245,3.565504002403578e-05,-0.0049177621004912195,-0.006208524093605997,0.0,0.0,0.0,0.0,0.0,0.0,0.0,0.0,0.0,0.0,0.0,0.0,0.0,0.0,0.0,0.0,0.0,0.0,0.0,0.0,0.0,0.0,0.0,0.0,0.0,0.0,0.0,0.0,0.0,0.0,0.0,0.0,0.0,0.0,0.0,0.0
2025/04/09 09:59:54.461627302,1744185594,461500358,world_ned,mA1/odom,2.130222953053597,11.331690619590843,0.43375390443336714,-0.0006502279556816743,-0.0004701034941290945,-0.0037893917879813256,0.9999924983299563,0.0,0.0,0.0,0.0,0.0,0.0,0.0,0.0,0.0,0.0,0.0,0.0,0.0,0.0,0.0,0.0,0.0,0.0,0.0,0.0,0.0,0.0,0.0,0.0,0.0,0.0,0.0,0.0,0.0,0.0,0.0,0.0,0.0,0.0,0.0,0.0,0.20730914533817066,-0.003920775535849608,-5.861607460582642e-05,0.0007373445357997164,-0.0007139877840942161,-0.006211648911086212,0.0,0.0,0.0,0.0,0.0,0.0,0.0,0.0,0.0,0.0,0.0,0.0,0.0,0.0,0.0,0.0,0.0,0.0,0.0,0.0,0.0,0.0,0.0,0.0,0.0,0.0,0.0,0.0,0.0,0.0,0.0,0.0,0.0,0.0,0.0,0.0
2025/04/09 09:59:54.564918923,1744185594,562843343,world_ned,mA1/odom,2.151613139025064,11.331197975395364,0.4337612761393609,-0.0006161967637108326,-0.00047859245141107444,-0.004090055485996676,0.9999913313108946,0.0,0.0,0.0,0.0,0.0,0.0,0.0,0.0,0.0,0.0,0.0,0.0,0.0,0.0,0.0,0.0,0.0,0.0,0.0,0.0,0.0,0.0,0.0,0.0,0.0,0.0,0.0,0.0,0.0,0.0,0.0,0.0,0.0,0.0,0.0,0.0,0.2136112113183897,-0.0029901743300798844,-0.00021545219619112247,0.0008258972696835863,0.0019228477422624714,-0.005953066810782687,0.0,0.0,0.0,0.0,0.0,0.0,0.0,0.0,0.0,0.0,0.0,0.0,0.0,0.0,0.0,0.0,0.0,0.0,0.0,0.0,0.0,0.0,0.0,0.0,0.0,0.0,0.0,0.0,0.0,0.0,0.0,0.0,0.0,0.0,0.0,0.0
2025/04/09 09:59:54.666106973,1744185594,663592102,world_ned,mA1/odom,2.173516520760148,11.330704441305214,0.43375442086146443,-0.0005529557074572941,-0.0003441853915445191,-0.004380520314509049,0.9999901933610029,0.0,0.0,0.0,0.0,0.0,0.0,0.0,0.0,0.0,0.0,0.0,0.0,0.0,0.0,0.0,0.0,0.0,0.0,0.0,0.0,0.0,0.0,0.0,0.0,0.0,0.0,0.0,0.0,0.0,0.0,0.0,0.0,0.0,0.0,0.0,0.0,0.2243569867430104,-0.0030994789168167364,-0.0003076213841297052,0.0015281838548675234,0.0030186178344911202,-0.0057344766342506594,0.0,0.0,0.0,0.0,0.0,0.0,0.0,0.0,0.0,0.0,0.0,0.0,0.0,0.0,0.0,0.0,0.0,0.0,0.0,0.0,0.0,0.0,0.0,0.0,0.0,0.0,0.0,0.0,0.0,0.0,0.0,0.0,0.0,0.0,0.0,0.0
2025/04/09 09:59:54.764540278,1744185594,764397529,world_ned,mA1/odom,2.195985027654324,11.33019672882952,0.43373054480447326,-0.0004658244876781472,-0.00010343177782690802,-0.00466556263914126,0.999989002356863,0.0,0.0,0.0,0.0,0.0,0.0,0.0,0.0,0.0,0.0,0.0,0.0,0.0,0.0,0.0,0.0,0.0,0.0,0.0,0.0,0.0,0.0,0.0,0.0,0.0,0.0,0.0,0.0,0.0,0.0,0.0,0.0,0.0,0.0,0.0,0.0,0.22428340796672122,-0.002944552448291517,-0.0003611490872381088,0.0018048604584326804,0.006330475315130824,-0.005670249292837968,0.0,0.0,0.0,0.0,0.0,0.0,0.0,0.0,0.0,0.0,0.0,0.0,0.0,0.0,0.0,0.0,0.0,0.0,0.0,0.0,0.0,0.0,0.0,0.0,0.0,0.0,0.0,0.0,0.0,0.0,0.0,0.0,0.0,0.0,0.0,0.0
2025/04/09 09:59:54.865745717,1744185594,865565344,world_ned,mA1/odom,2.2188735034032097,11.329748445614308,0.43369342561645285,-0.0003907886778099998,0.00020749462015108716,-0.0049346055532388635,0.9999877268737981,0.0,0.0,0.0,0.0,0.0,0.0,0.0,0.0,0.0,0.0,0.0,0.0,0.0,0.0,0.0,0.0,0.0,0.0,0.0,0.0,0.0,0.0,0.0,0.0,0.0,0.0,0.0,0.0,0.0,0.0,0.0,0.0,0.0,0.0,0.0,0.0,0.23076685782504885,-0.0020023521715634798,-0.00031445847454629456,0.0013400963899519237,0.006506830342660375,-0.005232081076003798,0.0,0.0,0.0,0.0,0.0,0.0,0.0,0.0,0.0,0.0,0.0,0.0,0.0,0.0,0.0,0.0,0.0,0.0,0.0,0.0,0.0,0.0,0.0,0.0,0.0,0.0,0.0,0.0,0.0,0.0,0.0,0.0,0.0,0.0,0.0,0.0
2025/04/09 09:59:54.959144151,1744185594,958938850,world_ned,mA1/odom,2.242219968344547,11.329327239922392,0.4336535519909033,-0.0003278529652658574,0.0005187361625073989,-0.005192629238504972,0.9999863299199736,0.0,0.0,0.0,0.0,0.0,0.0,0.0,0.0,0.0,0.0,0.0,0.0,0.0,0.0,0.0,0.0,0.0,0.0,0.0,0.0,0.0,0.0,0.0,0.0,0.0,0.0,0.0,0.0,0.0,0.0,0.0,0.0,0.0,0.0,0.0,0.0,0.23267834478589183,-0.0016790306546245956,-0.00013730954323792443,0.0010848202031665673,0.006634782369668055,-0.0050975748043469455,0.0,0.0,0.0,0.0,0.0,0.0,0.0,0.0,0.0,0.0,0.0,0.0,0.0,0.0,0.0,0.0,0.0,0.0,0.0,0.0,0.0,0.0,0.0,0.0,0.0,0.0,0.0,0.0,0.0,0.0,0.0,0.0,0.0,0.0,0.0,0.0
2025/04/09 09:59:55.60586342,1744185595,60379456,world_ned,mA1/odom,2.2657988544141126,11.328782811081144,0.4336160993799055,-0.00023639628534890305,0.0007991030928193543,-0.005482872757917909,0.999984621710436,0.0,0.0,0.0,0.0,0.0,0.0,0.0,0.0,0.0,0.0,0.0,0.0,0.0,0.0,0.0,0.0,0.0,0.0,0.0,0.0,0.0,0.0,0.0,0.0,0.0,0.0,0.0,0.0,0.0,0.0,0.0,0.0,0.0,0.0,0.0,0.0,0.2419988243123046,-0.0029854079715695508,4.7090509773333095e-05,0.0017048405449751128,0.003466168818172204,-0.006049745832311514,0.0,0.0,0.0,0.0,0.0,0.0,0.0,0.0,0.0,0.0,0.0,0.0,0.0,0.0,0.0,0.0,0.0,0.0,0.0,0.0,0.0,0.0,0.0,0.0,0.0,0.0,0.0,0.0,0.0,0.0,0.0,0.0,0.0,0.0,0.0,0.0
2025/04/09 09:59:55.161372238,1744185595,161121898,world_ned,mA1/odom,2.2896411241490786,11.32827987958338,0.43359257467493123,-0.00018462428167234638,0.000974371948526885,-0.005786563492433857,0.999982765949558,0.0,0.0,0.0,0.0,0.0,0.0,0.0,0.0,0.0,0.0,0.0,0.0,0.0,0.0,0.0,0.0,0.0,0.0,0.0,0.0,0.0,0.0,0.0,0.0,0.0,0.0,0.0,0.0,0.0,0.0,0.0,0.0,0.0,0.0,0.0,0.0,0.23991569342517693,-0.001795261827036425,0.00031898373081911953,0.00044120743555186085,0.0022224030447708086,-0.006091429598281555,0.0,0.0,0.0,0.0,0.0,0.0,0.0,0.0,0.0,0.0,0.0,0.0,0.0,0.0,0.0,0.0,0.0,0.0,0.0,0.0,0.0,0.0,0.0,0.0,0.0,0.0,0.0,0.0,0.0,0.0,0.0,0.0,0.0,0.0,0.0,0.0
2025/04/09 09:59:55.257148316,1744185595,256917558,world_ned,mA1/odom,2.3136796477953707,11.32788093993833,0.4335894123265353,-0.00019936290023636852,0.0010161866698897458,-0.006092410055093602,0.9999809048970918,0.0,0.0,0.0,0.0,0.0,0.0,0.0,0.0,0.0,0.0,0.0,0.0,0.0,0.0,0.0,0.0,0.0,0.0,0.0,0.0,0.0,0.0,0.0,0.0,0.0,0.0,0.0,0.0,0.0,0.0,0.0,0.0,0.0,0.0,0.0,0.0,0.2395321309245445,-0.0005927925073856491,0.0005555606702119702,-0.0008812920133141203,2.7865988309362586e-05,-0.006138437965134428,0.0,0.0,0.0,0.0,0.0,0.0,0.0,0.0,0.0,0.0,0.0,0.0,0.0,0.0,0.0,0.0,0.0,0.0,0.0,0.0,0.0,0.0,0.0,0.0,0.0,0.0,0.0,0.0,0.0,0.0,0.0,0.0,0.0,0.0,0.0,0.0
2025/04/09 09:59:55.358444430,1744185595,358299824,world_ned,mA1/odom,2.337859178444243,11.327428233916375,0.4336052735681746,-0.00022901843899720016,0.0009252304893566889,-0.006437840533033207,0.9999788226299432,0.0,0.0,0.0,0.0,0.0,0.0,0.0,0.0,0.0,0.0,0.0,0.0,0.0,0.0,0.0,0.0,0.0,0.0,0.0,0.0,0.0,0.0,0.0,0.0,0.0,0.0,0.0,0.0,0.0,0.0,0.0,0.0,0.0,0.0,0.0,0.0,0.24030412480176236,-0.0013551322962432881,0.0007050244744665043,-0.0008793313920938328,-0.002394188828216301,-0.007224601388550006,0.0,0.0,0.0,0.0,0.0,0.0,0.0,0.0,0.0,0.0,0.0,0.0,0.0,0.0,0.0,0.0,0.0,0.0,0.0,0.0,0.0,0.0,0.0,0.0,0.0,0.0,0.0,0.0,0.0,0.0,0.0,0.0,0.0,0.0,0.0,0.0
2025/04/09 09:59:55.459235960,1744185595,459032246,world_ned,mA1/odom,2.3622683380928864,11.327200880232793,0.43364191524531315,-0.00035794443800024785,0.0006898703521209925,-0.006764645521705627,0.9999768174941068,0.0,0.0,0.0,0.0,0.0,0.0,0.0,0.0,0.0,0.0,0.0,0.0,0.0,0.0,0.0,0.0,0.0,0.0,0.0,0.0,0.0,0.0,0.0,0.0,0.0,0.0,0.0,0.0,0.0,0.0,0.0,0.0,0.0,0.0,0.0,0.0,0.25051825288514734,0.0018435032246929446,0.0007577650781397517,-0.0031783828548315103,-0.007260973857504391,-0.006324338005084704,0.0,0.0,0.0,0.0,0.0,0.0,0.0,0.0,0.0,0.0,0.0,0.0,0.0,0.0,0.0,0.0,0.0,0.0,0.0,0.0,0.0,0.0,0.0,0.0,0.0,0.0,0.0,0.0,0.0,0.0,0.0,0.0,0.0,0.0,0.0,0.0
