time,header_stamp_secs,header_stamp_nsecs,header_frame_id,name_0,name_1,name_2,name_3,position_0,position_1,position_2,position_3
2025/04/09 09:59:47.361004864,0,0,,mA1/azimuth_1_joint,mA1/azimuth_2_joint,mA1/azimuth_3_joint,mA1/azimuth_4_joint,2.356194490192345,-2.356194490192345,-0.7853981633974483,0.7853981633974483
2025/04/09 09:59:47.457722504,0,0,,mA1/azimuth_1_joint,mA1/azimuth_2_joint,mA1/azimuth_3_joint,mA1/azimuth_4_joint,2.356194490192345,-2.356194490192345,-0.7853981633974483,0.7853981633974483
2025/04/09 09:59:47.556770117,0,0,,mA1/azimuth_1_joint,mA1/azimuth_2_joint,mA1/azimuth_3_joint,mA1/azimuth_4_joint,2.356194490192345,-2.356194490192345,-0.7853981633974483,0.7853981633974483
2025/04/09 09:59:47.656730401,0,0,,mA1/azimuth_1_joint,mA1/azimuth_2_joint,mA1/azimuth_3_joint,mA1/azimuth_4_joint,2.3387411976724017,-2.3387411976724017,-0.7853981633974483,0.767944870877505
2025/04/09 09:59:47.757050250,0,0,,mA1/azimuth_1_joint,mA1/azimuth_2_joint,mA1/azimuth_3_joint,mA1/azimuth_4_joint,2.3387411976724017,-2.3387411976724017,-0.7853981633974483,0.767944870877505
2025/04/09 09:59:47.857176852,0,0,,mA1/azimuth_1_joint,mA1/azimuth_2_joint,mA1/azimuth_3_joint,mA1/azimuth_4_joint,2.356194490192345,-2.356194490192345,-0.7853981633974483,0.7853981633974483
2025/04/09 09:59:47.957013326,0,0,,mA1/azimuth_1_joint,mA1/azimuth_2_joint,mA1/azimuth_3_joint,mA1/azimuth_4_joint,2.3387411976724017,-2.3387411976724017,-0.7853981633974483,0.767944870877505
2025/04/09 09:59:48.56721964,0,0,,mA1/azimuth_1_joint,mA1/azimuth_2_joint,mA1/azimuth_3_joint,mA1/azimuth_4_joint,2.356194490192345,-2.356194490192345,-0.7853981633974483,0.7853981633974483
2025/04/09 09:59:48.156874490,0,0,,mA1/azimuth_1_joint,mA1/azimuth_2_joint,mA1/azimuth_3_joint,mA1/azimuth_4_joint,2.3387411976724017,-2.3387411976724017,-0.767944870877505,0.767944870877505
2025/04/09 09:59:48.258112604,0,0,,mA1/azimuth_1_joint,mA1/azimuth_2_joint,mA1/azimuth_3_joint,mA1/azimuth_4_joint,2.3387411976724017,-2.356194490192345,-0.7853981633974483,0.7853981633974483
2025/04/09 09:59:48.356750366,0,0,,mA1/azimuth_1_joint,mA1/azimuth_2_joint,mA1/azimuth_3_joint,mA1/azimuth_4_joint,2.3387411976724017,-2.3387411976724017,-0.767944870877505,0.767944870877505
2025/04/09 09:59:48.456965454,0,0,,mA1/azimuth_1_joint,mA1/azimuth_2_joint,mA1/azimuth_3_joint,mA1/azimuth_4_joint,2.356194490192345,-2.356194490192345,-0.7853981633974483,0.7853981633974483
2025/04/09 09:59:48.556807481,0,0,,mA1/azimuth_1_joint,mA1/azimuth_2_joint,mA1/azimuth_3_joint,mA1/azimuth_4_joint,2.3387411976724017,-2.3387411976724017,-0.767944870877505,0.767944870877505
2025/04/09 09:59:48.657750294,0,0,,mA1/azimuth_1_joint,mA1/azimuth_2_joint,mA1/azimuth_3_joint,mA1/azimuth_4_joint,2.356194490192345,-2.356194490192345,-0.7853981633974483,0.7853981633974483
2025/04/09 09:59:48.756981810,0,0,,mA1/azimuth_1_joint,mA1/azimuth_2_joint,mA1/azimuth_3_joint,mA1/azimuth_4_joint,2.3387411976724017,-2.3387411976724017,-0.767944870877505,0.767944870877505
2025/04/09 09:59:48.858253221,0,0,,mA1/azimuth_1_joint,mA1/azimuth_2_joint,mA1/azimuth_3_joint,mA1/azimuth_4_joint,2.356194490192345,-2.356194490192345,-0.7853981633974483,0.7853981633974483
2025/04/09 09:59:48.956750770,0,0,,mA1/azimuth_1_joint,mA1/azimuth_2_joint,mA1/azimuth_3_joint,mA1/azimuth_4_joint,2.356194490192345,-2.356194490192345,-0.7853981633974483,0.7853981633974483
2025/04/09 09:59:49.57280186,0,0,,mA1/azimuth_1_joint,mA1/azimuth_2_joint,mA1/azimuth_3_joint,mA1/azimuth_4_joint,2.356194490192345,-2.356194490192345,-0.7853981633974483,0.7853981633974483
2025/04/09 09:59:49.156657968,0,0,,mA1/azimuth_1_joint,mA1/azimuth_2_joint,mA1/azimuth_3_joint,mA1/azimuth_4_joint,2.3387411976724017,-2.3387411976724017,-0.7853981633974483,0.767944870877505
2025/04/09 09:59:49.257167291,0,0,,mA1/azimuth_1_joint,mA1/azimuth_2_joint,mA1/azimuth_3_joint,mA1/azimuth_4_joint,2.356194490192345,-2.356194490192345,-0.7853981633974483,0.7853981633974483
2025/04/09 09:59:49.357241658,0,0,,mA1/azimuth_1_joint,mA1/azimuth_2_joint,mA1/azimuth_3_joint,mA1/azimuth_4_joint,2.3387411976724017,-2.3387411976724017,-0.7853981633974483,0.767944870877505
2025/04/09 09:59:49.457253924,0,0,,mA1/azimuth_1_joint,mA1/azimuth_2_joint,mA1/azimuth_3_joint,mA1/azimuth_4_joint,2.356194490192345,-2.356194490192345,-0.7853981633974483,0.7853981633974483
2025/04/09 09:59:49.558017338,0,0,,mA1/azimuth_1_joint,mA1/azimuth_2_joint,mA1/azimuth_3_joint,mA1/azimuth_4_joint,2.3387411976724017,-2.3387411976724017,-0.7853981633974483,0.767944870877505
2025/04/09 09:59:49.659049899,0,0,,mA1/azimuth_1_joint,mA1/azimuth_2_joint,mA1/azimuth_3_joint,mA1/azimuth_4_joint,2.3387411976724017,-2.3387411976724017,-0.767944870877505,0.767944870877505
2025/04/09 09:59:49.757208221,0,0,,mA1/azimuth_1_joint,mA1/azimuth_2_joint,mA1/azimuth_3_joint,mA1/azimuth_4_joint,2.356194490192345,-2.356194490192345,-0.7853981633974483,0.7853981633974483
2025/04/09 09:59:49.857320015,0,0,,mA1/azimuth_1_joint,mA1/azimuth_2_joint,mA1/azimuth_3_joint,mA1/azimuth_4_joint,2.3387411976724017,-2.3387411976724017,-0.767944870877505,0.767944870877505
2025/04/09 09:59:49.956687369,0,0,,mA1/azimuth_1_joint,mA1/azimuth_2_joint,mA1/azimuth_3_joint,mA1/azimuth_4_joint,2.3387411976724017,-2.356194490192345,-0.7853981633974483,0.7853981633974483
2025/04/09 09:59:50.56717224,0,0,,mA1/azimuth_1_joint,mA1/azimuth_2_joint,mA1/azimuth_3_joint,mA1/azimuth_4_joint,2.3387411976724017,-2.3387411976724017,-0.767944870877505,0.767944870877505
2025/04/09 09:59:50.156862871,0,0,,mA1/azimuth_1_joint,mA1/azimuth_2_joint,mA1/azimuth_3_joint,mA1/azimuth_4_joint,2.356194490192345,-2.356194490192345,-0.7853981633974483,0.7853981633974483
2025/04/09 09:59:50.256696395,0,0,,mA1/azimuth_1_joint,mA1/azimuth_2_joint,mA1/azimuth_3_joint,mA1/azimuth_4_joint,2.3387411976724017,-2.3387411976724017,-0.767944870877505,0.767944870877505
2025/04/09 09:59:50.356622436,0,0,,mA1/azimuth_1_joint,mA1/azimuth_2_joint,mA1/azimuth_3_joint,mA1/azimuth_4_joint,2.356194490192345,-2.356194490192345,-0.7853981633974483,0.7853981633974483
2025/04/09 09:59:50.456665539,0,0,,mA1/azimuth_1_joint,mA1/azimuth_2_joint,mA1/azimuth_3_joint,mA1/azimuth_4_joint,2.356194490192345,-2.356194490192345,-0.7853981633974483,0.7853981633974483
2025/04/09 09:59:50.557645028,0,0,,mA1/azimuth_1_joint,mA1/azimuth_2_joint,mA1/azimuth_3_joint,mA1/azimuth_4_joint,2.3387411976724017,-2.3387411976724017,-0.7853981633974483,0.7853981633974483
2025/04/09 09:59:50.657138420,0,0,,mA1/azimuth_1_joint,mA1/azimuth_2_joint,mA1/azimuth_3_joint,mA1/azimuth_4_joint,2.356194490192345,-2.356194490192345,-0.7853981633974483,0.7853981633974483
2025/04/09 09:59:50.756798996,0,0,,mA1/azimuth_1_joint,mA1/azimuth_2_joint,mA1/azimuth_3_joint,mA1/azimuth_4_joint,2.356194490192345,-2.356194490192345,-0.7853981633974483,0.7853981633974483
2025/04/09 09:59:50.856933391,0,0,,mA1/azimuth_1_joint,mA1/azimuth_2_joint,mA1/azimuth_3_joint,mA1/azimuth_4_joint,2.3387411976724017,-2.3387411976724017,-0.767944870877505,0.767944870877505
2025/04/09 09:59:50.956783537,0,0,,mA1/azimuth_1_joint,mA1/azimuth_2_joint,mA1/azimuth_3_joint,mA1/azimuth_4_joint,2.356194490192345,-2.356194490192345,-0.7853981633974483,0.7853981633974483
2025/04/09 09:59:51.56733146,0,0,,mA1/azimuth_1_joint,mA1/azimuth_2_joint,mA1/azimuth_3_joint,mA1/azimuth_4_joint,2.3387411976724017,-2.3387411976724017,-0.767944870877505,0.767944870877505
2025/04/09 09:59:51.156507696,0,0,,mA1/azimuth_1_joint,mA1/azimuth_2_joint,mA1/azimuth_3_joint,mA1/azimuth_4_joint,2.3387411976724017,-2.356194490192345,-0.7853981633974483,0.7853981633974483
2025/04/09 09:59:51.256791487,0,0,,mA1/azimuth_1_joint,mA1/azimuth_2_joint,mA1/azimuth_3_joint,mA1/azimuth_4_joint,2.3387411976724017,-2.3387411976724017,-0.767944870877505,0.767944870877505
2025/04/09 09:59:51.356741043,0,0,,mA1/azimuth_1_joint,mA1/azimuth_2_joint,mA1/azimuth_3_joint,mA1/azimuth_4_joint,2.356194490192345,-2.356194490192345,-0.7853981633974483,0.7853981633974483
2025/04/09 09:59:51.456995195,0,0,,mA1/azimuth_1_joint,mA1/azimuth_2_joint,mA1/azimuth_3_joint,mA1/azimuth_4_joint,2.356194490192345,-2.3911010752322315,-0.7853981633974483,0.7330382858376184
2025/04/09 09:59:51.556821353,0,0,,mA1/azimuth_1_joint,mA1/azimuth_2_joint,mA1/azimuth_3_joint,mA1/azimuth_4_joint,2.4085543677521746,-2.3911010752322315,-0.7330382858376184,0.767944870877505
2025/04/09 09:59:51.656666467,0,0,,mA1/azimuth_1_joint,mA1/azimuth_2_joint,mA1/azimuth_3_joint,mA1/azimuth_4_joint,2.443460952792061,-2.443460952792061,-0.6981317007977318,0.7155849933176751
2025/04/09 09:59:51.756693213,0,0,,mA1/azimuth_1_joint,mA1/azimuth_2_joint,mA1/azimuth_3_joint,mA1/azimuth_4_joint,2.4958208303518914,-2.4958208303518914,-0.6632251157578453,0.6632251157578453
2025/04/09 09:59:51.856686877,0,0,,mA1/azimuth_1_joint,mA1/azimuth_2_joint,mA1/azimuth_3_joint,mA1/azimuth_4_joint,2.548180707911721,-2.4609142453120048,-0.6108652381980153,0.6108652381980153
2025/04/09 09:59:51.959836703,0,0,,mA1/azimuth_1_joint,mA1/azimuth_2_joint,mA1/azimuth_3_joint,mA1/azimuth_4_joint,2.600540585471551,-2.478367537831948,-0.5585053606381855,0.5585053606381855
2025/04/09 09:59:52.57456682,0,0,,mA1/azimuth_1_joint,mA1/azimuth_2_joint,mA1/azimuth_3_joint,mA1/azimuth_4_joint,2.652900463031381,-2.443460952792061,-0.5235987755982988,0.5235987755982988
2025/04/09 09:59:52.159324865,0,0,,mA1/azimuth_1_joint,mA1/azimuth_2_joint,mA1/azimuth_3_joint,mA1/azimuth_4_joint,2.600540585471551,-2.3911010752322315,-0.47123889803846897,0.47123889803846897
2025/04/09 09:59:52.258645619,0,0,,mA1/azimuth_1_joint,mA1/azimuth_2_joint,mA1/azimuth_3_joint,mA1/azimuth_4_joint,2.548180707911721,-2.356194490192345,-0.4188790204786391,0.4363323129985824
2025/04/09 09:59:52.358389788,0,0,,mA1/azimuth_1_joint,mA1/azimuth_2_joint,mA1/azimuth_3_joint,mA1/azimuth_4_joint,2.4958208303518914,-2.4085543677521746,-0.3665191429188092,0.3839724354387525
2025/04/09 09:59:52.456827497,0,0,,mA1/azimuth_1_joint,mA1/azimuth_2_joint,mA1/azimuth_3_joint,mA1/azimuth_4_joint,2.443460952792061,-2.3911010752322315,-0.3141592653589793,0.3490658503988659
2025/04/09 09:59:52.556686849,0,0,,mA1/azimuth_1_joint,mA1/azimuth_2_joint,mA1/azimuth_3_joint,mA1/azimuth_4_joint,2.3911010752322315,-2.3736477827122884,-0.2617993877991494,0.3490658503988659
2025/04/09 09:59:52.657161845,0,0,,mA1/azimuth_1_joint,mA1/azimuth_2_joint,mA1/azimuth_3_joint,mA1/azimuth_4_joint,2.4085543677521746,-2.4085543677521746,-0.2617993877991494,0.29670597283903605
2025/04/09 09:59:52.756586275,0,0,,mA1/azimuth_1_joint,mA1/azimuth_2_joint,mA1/azimuth_3_joint,mA1/azimuth_4_joint,2.4085543677521746,-2.4085543677521746,-0.20943951023931956,0.24434609527920614
2025/04/09 09:59:52.857308413,0,0,,mA1/azimuth_1_joint,mA1/azimuth_2_joint,mA1/azimuth_3_joint,mA1/azimuth_4_joint,2.4085543677521746,-2.4085543677521746,-0.15707963267948966,0.19198621771937624
2025/04/09 09:59:52.958547528,0,0,,mA1/azimuth_1_joint,mA1/azimuth_2_joint,mA1/azimuth_3_joint,mA1/azimuth_4_joint,2.4085543677521746,-2.4085543677521746,-0.13962634015954636,0.13962634015954636
2025/04/09 09:59:53.57645969,0,0,,mA1/azimuth_1_joint,mA1/azimuth_2_joint,mA1/azimuth_3_joint,mA1/azimuth_4_joint,2.4085543677521746,-2.4085543677521746,-0.08726646259971647,0.08726646259971647
2025/04/09 09:59:53.156634011,0,0,,mA1/azimuth_1_joint,mA1/azimuth_2_joint,mA1/azimuth_3_joint,mA1/azimuth_4_joint,2.4085543677521746,-2.4085543677521746,-0.05235987755982989,0.05235987755982989
2025/04/09 09:59:53.256567314,0,0,,mA1/azimuth_1_joint,mA1/azimuth_2_joint,mA1/azimuth_3_joint,mA1/azimuth_4_joint,2.4085543677521746,-2.4085543677521746,-0.05235987755982989,0.05235987755982989
2025/04/09 09:59:53.357110622,0,0,,mA1/azimuth_1_joint,mA1/azimuth_2_joint,mA1/azimuth_3_joint,mA1/azimuth_4_joint,2.4085543677521746,-2.4085543677521746,-0.05235987755982989,0.05235987755982989
2025/04/09 09:59:53.456624808,0,0,,mA1/azimuth_1_joint,mA1/azimuth_2_joint,mA1/azimuth_3_joint,mA1/azimuth_4_joint,2.4085543677521746,-2.4085543677521746,-0.03490658503988659,0.06981317007977318
2025/04/09 09:59:53.558157977,0,0,,mA1/azimuth_1_joint,mA1/azimuth_2_joint,mA1/azimuth_3_joint,mA1/azimuth_4_joint,2.4085543677521746,-2.4085543677521746,-0.03490658503988659,0.06981317007977318
2025/04/09 09:59:53.656639275,0,0,,mA1/azimuth_1_joint,mA1/azimuth_2_joint,mA1/azimuth_3_joint,mA1/azimuth_4_joint,2.4085543677521746,-2.4085543677521746,-0.03490658503988659,0.06981317007977318
2025/04/09 09:59:53.756706089,0,0,,mA1/azimuth_1_joint,mA1/azimuth_2_joint,mA1/azimuth_3_joint,mA1/azimuth_4_joint,2.4085543677521746,-2.4085543677521746,-0.03490658503988659,0.06981317007977318
2025/04/09 09:59:53.856749106,0,0,,mA1/azimuth_1_joint,mA1/azimuth_2_joint,mA1/azimuth_3_joint,mA1/azimuth_4_joint,2.4085543677521746,-2.4085543677521746,-0.03490658503988659,0.06981317007977318
2025/04/09 09:59:53.957931684,0,0,,mA1/azimuth_1_joint,mA1/azimuth_2_joint,mA1/azimuth_3_joint,mA1/azimuth_4_joint,2.4085543677521746,-2.4085543677521746,-0.03490658503988659,0.06981317007977318
2025/04/09 09:59:54.57399522,0,0,,mA1/azimuth_1_joint,mA1/azimuth_2_joint,mA1/azimuth_3_joint,mA1/azimuth_4_joint,2.4085543677521746,-2.4085543677521746,-0.017453292519943295,0.08726646259971647
2025/04/09 09:59:54.157257036,0,0,,mA1/azimuth_1_joint,mA1/azimuth_2_joint,mA1/azimuth_3_joint,mA1/azimuth_4_joint,2.4085543677521746,-2.4085543677521746,-0.03490658503988659,0.06981317007977318
2025/04/09 09:59:54.256579895,0,0,,mA1/azimuth_1_joint,mA1/azimuth_2_joint,mA1/azimuth_3_joint,mA1/azimuth_4_joint,2.4085543677521746,-2.4085543677521746,-0.017453292519943295,0.08726646259971647
2025/04/09 09:59:54.356683988,0,0,,mA1/azimuth_1_joint,mA1/azimuth_2_joint,mA1/azimuth_3_joint,mA1/azimuth_4_joint,2.4085543677521746,-2.4085543677521746,-0.017453292519943295,0.06981317007977318
2025/04/09 09:59:54.456832797,0,0,,mA1/azimuth_1_joint,mA1/azimuth_2_joint,mA1/azimuth_3_joint,mA1/azimuth_4_joint,2.4085543677521746,-2.4085543677521746,-0.03490658503988659,0.06981317007977318
2025/04/09 09:59:54.557208063,0,0,,mA1/azimuth_1_joint,mA1/azimuth_2_joint,mA1/azimuth_3_joint,mA1/azimuth_4_joint,2.4085543677521746,-2.4085543677521746,-0.03490658503988659,0.05235987755982989
2025/04/09 09:59:54.656557062,0,0,,mA1/azimuth_1_joint,mA1/azimuth_2_joint,mA1/azimuth_3_joint,mA1/azimuth_4_joint,2.4085543677521746,-2.4085543677521746,-0.03490658503988659,0.05235987755982989
2025/04/09 09:59:54.756705933,0,0,,mA1/azimuth_1_joint,mA1/azimuth_2_joint,mA1/azimuth_3_joint,mA1/azimuth_4_joint,2.4085543677521746,-2.4085543677521746,-0.05235987755982989,0.05235987755982989
2025/04/09 09:59:54.857277424,0,0,,mA1/azimuth_1_joint,mA1/azimuth_2_joint,mA1/azimuth_3_joint,mA1/azimuth_4_joint,2.4085543677521746,-2.4085543677521746,-0.05235987755982989,0.05235987755982989
2025/04/09 09:59:54.957299079,0,0,,mA1/azimuth_1_joint,mA1/azimuth_2_joint,mA1/azimuth_3_joint,mA1/azimuth_4_joint,2.4085543677521746,-2.4085543677521746,-0.03490658503988659,0.06981317007977318
2025/04/09 09:59:55.58812036,0,0,,mA1/azimuth_1_joint,mA1/azimuth_2_joint,mA1/azimuth_3_joint,mA1/azimuth_4_joint,2.4085543677521746,-2.4085543677521746,-0.03490658503988659,0.06981317007977318
2025/04/09 09:59:55.157292076,0,0,,mA1/azimuth_1_joint,mA1/azimuth_2_joint,mA1/azimuth_3_joint,mA1/azimuth_4_joint,2.4085543677521746,-2.4085543677521746,-0.03490658503988659,0.06981317007977318
2025/04/09 09:59:55.256963780,0,0,,mA1/azimuth_1_joint,mA1/azimuth_2_joint,mA1/azimuth_3_joint,mA1/azimuth_4_joint,2.3911010752322315,-2.4085543677521746,-0.017453292519943295,0.08726646259971647
2025/04/09 09:59:55.356940690,0,0,,mA1/azimuth_1_joint,mA1/azimuth_2_joint,mA1/azimuth_3_joint,mA1/azimuth_4_joint,2.4085543677521746,-2.4085543677521746,-0.03490658503988659,0.06981317007977318
2025/04/09 09:59:55.456599998,0,0,,mA1/azimuth_1_joint,mA1/azimuth_2_joint,mA1/azimuth_3_joint,mA1/azimuth_4_joint,2.4085543677521746,-2.4085543677521746,-0.03490658503988659,0.06981317007977318
2025/04/09 09:59:55.557093167,0,0,,mA1/azimuth_1_joint,mA1/azimuth_2_joint,mA1/azimuth_3_joint,mA1/azimuth_4_joint,2.4085543677521746,-2.4085543677521746,-0.03490658503988659,0.06981317007977318
2025/04/09 09:59:55.657275401,0,0,,mA1/azimuth_1_joint,mA1/azimuth_2_joint,mA1/azimuth_3_joint,mA1/azimuth_4_joint,2.4085543677521746,-2.4085543677521746,-0.017453292519943295,0.08726646259971647
2025/04/09 09:59:55.756631150,0,0,,mA1/azimuth_1_joint,mA1/azimuth_2_joint,mA1/azimuth_3_joint,mA1/azimuth_4_joint,2.4085543677521746,-2.4085543677521746,-0.017453292519943295,0.06981317007977318
2025/04/09 09:59:55.856564623,0,0,,mA1/azimuth_1_joint,mA1/azimuth_2_joint,mA1/azimuth_3_joint,mA1/azimuth_4_joint,2.3911010752322315,-2.4085543677521746,-0.017453292519943295,0.08726646259971647
2025/04/09 09:59:55.957437371,0,0,,mA1/azimuth_1_joint,mA1/azimuth_2_joint,mA1/azimuth_3_joint,mA1/azimuth_4_joint,2.3911010752322315,-2.4085543677521746,-0.017453292519943295,0.08726646259971647
2025/04/09 09:59:56.57158070,0,0,,mA1/azimuth_1_joint,mA1/azimuth_2_joint,mA1/azimuth_3_joint,mA1/azimuth_4_joint,2.4085543677521746,-2.4085543677521746,-0.017453292519943295,0.08726646259971647
2025/04/09 09:59:56.157677790,0,0,,mA1/azimuth_1_joint,mA1/azimuth_2_joint,mA1/azimuth_3_joint,mA1/azimuth_4_joint,2.3911010752322315,-2.4085543677521746,-0.017453292519943295,0.08726646259971647
2025/04/09 09:59:56.257771393,0,0,,mA1/azimuth_1_joint,mA1/azimuth_2_joint,mA1/azimuth_3_joint,mA1/azimuth_4_joint,2.4085543677521746,-2.4085543677521746,-0.017453292519943295,0.08726646259971647
2025/04/09 09:59:56.359201157,0,0,,mA1/azimuth_1_joint,mA1/azimuth_2_joint,mA1/azimuth_3_joint,mA1/azimuth_4_joint,2.3911010752322315,-2.4085543677521746,-0.017453292519943295,0.06981317007977318
2025/04/09 09:59:56.459974678,0,0,,mA1/azimuth_1_joint,mA1/azimuth_2_joint,mA1/azimuth_3_joint,mA1/azimuth_4_joint,2.3911010752322315,-2.4085543677521746,-0.017453292519943295,0.08726646259971647
2025/04/09 09:59:56.556813341,0,0,,mA1/azimuth_1_joint,mA1/azimuth_2_joint,mA1/azimuth_3_joint,mA1/azimuth_4_joint,2.3911010752322315,-2.4085543677521746,-0.017453292519943295,0.08726646259971647
2025/04/09 09:59:56.656698394,0,0,,mA1/azimuth_1_joint,mA1/azimuth_2_joint,mA1/azimuth_3_joint,mA1/azimuth_4_joint,2.3911010752322315,-2.4085543677521746,-0.017453292519943295,0.08726646259971647
2025/04/09 09:59:56.758854379,0,0,,mA1/azimuth_1_joint,mA1/azimuth_2_joint,mA1/azimuth_3_joint,mA1/azimuth_4_joint,2.3911010752322315,-2.4085543677521746,-0.017453292519943295,0.08726646259971647
2025/04/09 09:59:56.856542814,0,0,,mA1/azimuth_1_joint,mA1/azimuth_2_joint,mA1/azimuth_3_joint,mA1/azimuth_4_joint,2.3911010752322315,-2.4085543677521746,-0.017453292519943295,0.08726646259971647
2025/04/09 09:59:56.956553789,0,0,,mA1/azimuth_1_joint,mA1/azimuth_2_joint,mA1/azimuth_3_joint,mA1/azimuth_4_joint,2.3911010752322315,-2.4085543677521746,-0.017453292519943295,0.06981317007977318
2025/04/09 09:59:57.57441555,0,0,,mA1/azimuth_1_joint,mA1/azimuth_2_joint,mA1/azimuth_3_joint,mA1/azimuth_4_joint,2.3911010752322315,-2.4085543677521746,-0.017453292519943295,0.06981317007977318
2025/04/09 09:59:57.157131815,0,0,,mA1/azimuth_1_joint,mA1/azimuth_2_joint,mA1/azimuth_3_joint,mA1/azimuth_4_joint,2.4085543677521746,-2.4085543677521746,-0.03490658503988659,0.05235987755982989
2025/04/09 09:59:57.257315158,0,0,,mA1/azimuth_1_joint,mA1/azimuth_2_joint,mA1/azimuth_3_joint,mA1/azimuth_4_joint,2.3911010752322315,-2.4085543677521746,-0.017453292519943295,0.08726646259971647
2025/04/09 09:59:57.357152455,0,0,,mA1/azimuth_1_joint,mA1/azimuth_2_joint,mA1/azimuth_3_joint,mA1/azimuth_4_joint,2.3911010752322315,-2.4085543677521746,0.0,0.08726646259971647
2025/04/09 09:59:57.456727328,0,0,,mA1/azimuth_1_joint,mA1/azimuth_2_joint,mA1/azimuth_3_joint,mA1/azimuth_4_joint,2.3736477827122884,-2.3911010752322315,0.0,0.10471975511965978
2025/04/09 09:59:57.556728716,0,0,,mA1/azimuth_1_joint,mA1/azimuth_2_joint,mA1/azimuth_3_joint,mA1/azimuth_4_joint,2.3736477827122884,-2.3911010752322315,0.0,0.10471975511965978
2025/04/09 09:59:57.656823543,0,0,,mA1/azimuth_1_joint,mA1/azimuth_2_joint,mA1/azimuth_3_joint,mA1/azimuth_4_joint,2.3736477827122884,-2.3911010752322315,0.0,0.10471975511965978
2025/04/09 09:59:57.758880686,0,0,,mA1/azimuth_1_joint,mA1/azimuth_2_joint,mA1/azimuth_3_joint,mA1/azimuth_4_joint,2.3736477827122884,-2.3911010752322315,0.0,0.10471975511965978
2025/04/09 09:59:57.856696745,0,0,,mA1/azimuth_1_joint,mA1/azimuth_2_joint,mA1/azimuth_3_joint,mA1/azimuth_4_joint,2.3736477827122884,-2.4085543677521746,0.0,0.10471975511965978
2025/04/09 09:59:57.956770663,0,0,,mA1/azimuth_1_joint,mA1/azimuth_2_joint,mA1/azimuth_3_joint,mA1/azimuth_4_joint,2.3736477827122884,-2.4085543677521746,0.0,0.08726646259971647
2025/04/09 09:59:58.56600820,0,0,,mA1/azimuth_1_joint,mA1/azimuth_2_joint,mA1/azimuth_3_joint,mA1/azimuth_4_joint,2.356194490192345,-2.3911010752322315,0.0,0.12217304763960307
2025/04/09 09:59:58.157415741,0,0,,mA1/azimuth_1_joint,mA1/azimuth_2_joint,mA1/azimuth_3_joint,mA1/azimuth_4_joint,2.3911010752322315,-2.4085543677521746,0.0,0.08726646259971647
2025/04/09 09:59:58.256530960,0,0,,mA1/azimuth_1_joint,mA1/azimuth_2_joint,mA1/azimuth_3_joint,mA1/azimuth_4_joint,2.4085543677521746,-2.4085543677521746,-0.017453292519943295,0.06981317007977318
2025/04/09 09:59:58.357155502,0,0,,mA1/azimuth_1_joint,mA1/azimuth_2_joint,mA1/azimuth_3_joint,mA1/azimuth_4_joint,2.3911010752322315,-2.4085543677521746,-0.017453292519943295,0.06981317007977318
2025/04/09 09:59:58.457496733,0,0,,mA1/azimuth_1_joint,mA1/azimuth_2_joint,mA1/azimuth_3_joint,mA1/azimuth_4_joint,2.3911010752322315,-2.4085543677521746,-0.017453292519943295,0.06981317007977318
2025/04/09 09:59:58.557120416,0,0,,mA1/azimuth_1_joint,mA1/azimuth_2_joint,mA1/azimuth_3_joint,mA1/azimuth_4_joint,2.3911010752322315,-2.4085543677521746,0.0,0.06981317007977318
2025/04/09 09:59:58.657419645,0,0,,mA1/azimuth_1_joint,mA1/azimuth_2_joint,mA1/azimuth_3_joint,mA1/azimuth_4_joint,2.3387411976724017,-2.3911010752322315,0.0,0.10471975511965978
2025/04/09 09:59:58.757484603,0,0,,mA1/azimuth_1_joint,mA1/azimuth_2_joint,mA1/azimuth_3_joint,mA1/azimuth_4_joint,2.356194490192345,-2.3911010752322315,0.0,0.10471975511965978
2025/04/09 09:59:58.857462649,0,0,,mA1/azimuth_1_joint,mA1/azimuth_2_joint,mA1/azimuth_3_joint,mA1/azimuth_4_joint,2.303834612632515,-2.3911010752322315,0.0,0.12217304763960307
2025/04/09 09:59:58.957649436,0,0,,mA1/azimuth_1_joint,mA1/azimuth_2_joint,mA1/azimuth_3_joint,mA1/azimuth_4_joint,2.251474735072685,-2.3911010752322315,0.0,0.10471975511965978
2025/04/09 09:59:59.57504097,0,0,,mA1/azimuth_1_joint,mA1/azimuth_2_joint,mA1/azimuth_3_joint,mA1/azimuth_4_joint,2.199114857512855,-2.4085543677521746,0.0,0.10471975511965978
2025/04/09 09:59:59.158805620,0,0,,mA1/azimuth_1_joint,mA1/azimuth_2_joint,mA1/azimuth_3_joint,mA1/azimuth_4_joint,2.1467549799530254,-2.4085543677521746,0.0,0.08726646259971647
2025/04/09 09:59:59.257441372,0,0,,mA1/azimuth_1_joint,mA1/azimuth_2_joint,mA1/azimuth_3_joint,mA1/azimuth_4_joint,2.111848394913139,-2.4085543677521746,0.0,0.06981317007977318
2025/04/09 09:59:59.356831699,0,0,,mA1/azimuth_1_joint,mA1/azimuth_2_joint,mA1/azimuth_3_joint,mA1/azimuth_4_joint,2.059488517353309,-2.426007660272118,0.0,0.06981317007977318
2025/04/09 09:59:59.457274288,0,0,,mA1/azimuth_1_joint,mA1/azimuth_2_joint,mA1/azimuth_3_joint,mA1/azimuth_4_joint,2.007128639793479,-2.426007660272118,0.0,0.06981317007977318
2025/04/09 09:59:59.557599786,0,0,,mA1/azimuth_1_joint,mA1/azimuth_2_joint,mA1/azimuth_3_joint,mA1/azimuth_4_joint,1.9547687622336491,-2.426007660272118,0.0,0.06981317007977318
2025/04/09 09:59:59.656878636,0,0,,mA1/azimuth_1_joint,mA1/azimuth_2_joint,mA1/azimuth_3_joint,mA1/azimuth_4_joint,1.9024088846738192,-2.426007660272118,0.0,0.06981317007977318
2025/04/09 09:59:59.756970606,0,0,,mA1/azimuth_1_joint,mA1/azimuth_2_joint,mA1/azimuth_3_joint,mA1/azimuth_4_joint,1.8500490071139892,-2.426007660272118,0.0,0.05235987755982989
2025/04/09 09:59:59.857568402,0,0,,mA1/azimuth_1_joint,mA1/azimuth_2_joint,mA1/azimuth_3_joint,mA1/azimuth_4_joint,1.7976891295541595,-2.426007660272118,0.0,0.05235987755982989
2025/04/09 09:59:59.957274671,0,0,,mA1/azimuth_1_joint,mA1/azimuth_2_joint,mA1/azimuth_3_joint,mA1/azimuth_4_joint,1.7453292519943295,-2.443460952792061,0.0,0.05235987755982989
2025/04/09 10:00:00.57461175,0,0,,mA1/azimuth_1_joint,mA1/azimuth_2_joint,mA1/azimuth_3_joint,mA1/azimuth_4_joint,1.710422666954443,-2.443460952792061,0.0,0.05235987755982989
2025/04/09 10:00:00.158144014,0,0,,mA1/azimuth_1_joint,mA1/azimuth_2_joint,mA1/azimuth_3_joint,mA1/azimuth_4_joint,1.6580627893946132,-2.443460952792061,0.0,0.05235987755982989
2025/04/09 10:00:00.257622780,0,0,,mA1/azimuth_1_joint,mA1/azimuth_2_joint,mA1/azimuth_3_joint,mA1/azimuth_4_joint,1.6057029118347832,-2.443460952792061,0.0,0.05235987755982989
2025/04/09 10:00:00.357257587,0,0,,mA1/azimuth_1_joint,mA1/azimuth_2_joint,mA1/azimuth_3_joint,mA1/azimuth_4_joint,1.5533430342749532,-2.443460952792061,-0.017453292519943295,0.05235987755982989
2025/04/09 10:00:00.458196359,0,0,,mA1/azimuth_1_joint,mA1/azimuth_2_joint,mA1/azimuth_3_joint,mA1/azimuth_4_joint,1.5533430342749532,-2.443460952792061,-0.017453292519943295,0.05235987755982989
2025/04/09 10:00:00.557385495,0,0,,mA1/azimuth_1_joint,mA1/azimuth_2_joint,mA1/azimuth_3_joint,mA1/azimuth_4_joint,1.5533430342749532,-2.443460952792061,-0.017453292519943295,0.05235987755982989
2025/04/09 10:00:00.656820209,0,0,,mA1/azimuth_1_joint,mA1/azimuth_2_joint,mA1/azimuth_3_joint,mA1/azimuth_4_joint,1.5533430342749532,-2.443460952792061,-0.017453292519943295,0.03490658503988659
2025/04/09 10:00:00.757242112,0,0,,mA1/azimuth_1_joint,mA1/azimuth_2_joint,mA1/azimuth_3_joint,mA1/azimuth_4_joint,1.5533430342749532,-2.443460952792061,-0.017453292519943295,0.03490658503988659
2025/04/09 10:00:00.856808209,0,0,,mA1/azimuth_1_joint,mA1/azimuth_2_joint,mA1/azimuth_3_joint,mA1/azimuth_4_joint,1.5533430342749532,-2.443460952792061,0.0,0.05235987755982989
2025/04/09 10:00:00.957153671,0,0,,mA1/azimuth_1_joint,mA1/azimuth_2_joint,mA1/azimuth_3_joint,mA1/azimuth_4_joint,1.5533430342749532,-2.443460952792061,-0.017453292519943295,0.03490658503988659
2025/04/09 10:00:01.57053792,0,0,,mA1/azimuth_1_joint,mA1/azimuth_2_joint,mA1/azimuth_3_joint,mA1/azimuth_4_joint,1.5533430342749532,-2.443460952792061,-0.017453292519943295,0.05235987755982989
2025/04/09 10:00:01.157583879,0,0,,mA1/azimuth_1_joint,mA1/azimuth_2_joint,mA1/azimuth_3_joint,mA1/azimuth_4_joint,1.5533430342749532,-2.426007660272118,-0.017453292519943295,0.05235987755982989
2025/04/09 10:00:01.257665592,0,0,,mA1/azimuth_1_joint,mA1/azimuth_2_joint,mA1/azimuth_3_joint,mA1/azimuth_4_joint,1.5533430342749532,-2.426007660272118,-0.017453292519943295,0.05235987755982989
2025/04/09 10:00:01.357492966,0,0,,mA1/azimuth_1_joint,mA1/azimuth_2_joint,mA1/azimuth_3_joint,mA1/azimuth_4_joint,1.5533430342749532,-2.426007660272118,-0.03490658503988659,0.05235987755982989
2025/04/09 10:00:01.457272395,0,0,,mA1/azimuth_1_joint,mA1/azimuth_2_joint,mA1/azimuth_3_joint,mA1/azimuth_4_joint,1.5533430342749532,-2.4085543677521746,-0.05235987755982989,0.05235987755982989
2025/04/09 10:00:01.556742535,0,0,,mA1/azimuth_1_joint,mA1/azimuth_2_joint,mA1/azimuth_3_joint,mA1/azimuth_4_joint,1.5533430342749532,-2.4085543677521746,-0.05235987755982989,0.05235987755982989
2025/04/09 10:00:01.657026463,0,0,,mA1/azimuth_1_joint,mA1/azimuth_2_joint,mA1/azimuth_3_joint,mA1/azimuth_4_joint,1.5533430342749532,-2.3911010752322315,-0.05235987755982989,0.06981317007977318
2025/04/09 10:00:01.757600700,0,0,,mA1/azimuth_1_joint,mA1/azimuth_2_joint,mA1/azimuth_3_joint,mA1/azimuth_4_joint,1.5533430342749532,-2.3911010752322315,-0.06981317007977318,0.06981317007977318
2025/04/09 10:00:01.857287817,0,0,,mA1/azimuth_1_joint,mA1/azimuth_2_joint,mA1/azimuth_3_joint,mA1/azimuth_4_joint,1.5533430342749532,-2.3911010752322315,-0.06981317007977318,0.06981317007977318
2025/04/09 10:00:01.958723434,0,0,,mA1/azimuth_1_joint,mA1/azimuth_2_joint,mA1/azimuth_3_joint,mA1/azimuth_4_joint,1.5533430342749532,-2.3911010752322315,-0.08726646259971647,0.08726646259971647
2025/04/09 10:00:02.57385426,0,0,,mA1/azimuth_1_joint,mA1/azimuth_2_joint,mA1/azimuth_3_joint,mA1/azimuth_4_joint,1.5533430342749532,-2.3736477827122884,-0.10471975511965978,0.08726646259971647
2025/04/09 10:00:02.157346319,0,0,,mA1/azimuth_1_joint,mA1/azimuth_2_joint,mA1/azimuth_3_joint,mA1/azimuth_4_joint,1.6057029118347832,-2.3736477827122884,-0.10471975511965978,0.10471975511965978
2025/04/09 10:00:02.256976192,0,0,,mA1/azimuth_1_joint,mA1/azimuth_2_joint,mA1/azimuth_3_joint,mA1/azimuth_4_joint,1.6580627893946132,-2.3736477827122884,-0.12217304763960307,0.10471975511965978
2025/04/09 10:00:02.357721693,0,0,,mA1/azimuth_1_joint,mA1/azimuth_2_joint,mA1/azimuth_3_joint,mA1/azimuth_4_joint,1.710422666954443,-2.3736477827122884,-0.12217304763960307,0.13962634015954636
2025/04/09 10:00:02.457596796,0,0,,mA1/azimuth_1_joint,mA1/azimuth_2_joint,mA1/azimuth_3_joint,mA1/azimuth_4_joint,1.6929693744344996,-2.3736477827122884,-0.12217304763960307,0.13962634015954636
2025/04/09 10:00:02.557063319,0,0,,mA1/azimuth_1_joint,mA1/azimuth_2_joint,mA1/azimuth_3_joint,mA1/azimuth_4_joint,1.7453292519943295,-2.3736477827122884,-0.13962634015954636,0.15707963267948966
2025/04/09 10:00:02.656824767,0,0,,mA1/azimuth_1_joint,mA1/azimuth_2_joint,mA1/azimuth_3_joint,mA1/azimuth_4_joint,1.7976891295541595,-2.3736477827122884,-0.15707963267948966,0.15707963267948966
2025/04/09 10:00:02.757643748,0,0,,mA1/azimuth_1_joint,mA1/azimuth_2_joint,mA1/azimuth_3_joint,mA1/azimuth_4_joint,1.8325957145940461,-2.356194490192345,-0.17453292519943295,0.15707963267948966
2025/04/09 10:00:02.857227804,0,0,,mA1/azimuth_1_joint,mA1/azimuth_2_joint,mA1/azimuth_3_joint,mA1/azimuth_4_joint,1.8849555921538759,-2.356194490192345,-0.19198621771937624,0.19198621771937624
2025/04/09 10:00:02.957322233,0,0,,mA1/azimuth_1_joint,mA1/azimuth_2_joint,mA1/azimuth_3_joint,mA1/azimuth_4_joint,1.9373154697137058,-2.356194490192345,-0.20943951023931956,0.20943951023931956
2025/04/09 10:00:03.56813295,0,0,,mA1/azimuth_1_joint,mA1/azimuth_2_joint,mA1/azimuth_3_joint,mA1/azimuth_4_joint,1.9896753472735358,-2.356194490192345,-0.20943951023931956,0.24434609527920614
2025/04/09 10:00:03.156790359,0,0,,mA1/azimuth_1_joint,mA1/azimuth_2_joint,mA1/azimuth_3_joint,mA1/azimuth_4_joint,2.0420352248333655,-2.356194490192345,-0.22689280275926285,0.2617993877991494
2025/04/09 10:00:03.257403772,0,0,,mA1/azimuth_1_joint,mA1/azimuth_2_joint,mA1/azimuth_3_joint,mA1/azimuth_4_joint,2.0943951023931953,-2.356194490192345,-0.24434609527920614,0.29670597283903605
2025/04/09 10:00:03.356568320,0,0,,mA1/azimuth_1_joint,mA1/azimuth_2_joint,mA1/azimuth_3_joint,mA1/azimuth_4_joint,2.0943951023931953,-2.356194490192345,-0.24434609527920614,0.3490658503988659
2025/04/09 10:00:03.457109418,0,0,,mA1/azimuth_1_joint,mA1/azimuth_2_joint,mA1/azimuth_3_joint,mA1/azimuth_4_joint,2.129301687433082,-2.356194490192345,-0.2792526803190927,0.3665191429188092
2025/04/09 10:00:03.556675898,0,0,,mA1/azimuth_1_joint,mA1/azimuth_2_joint,mA1/azimuth_3_joint,mA1/azimuth_4_joint,2.1642082724729685,-2.356194490192345,-0.29670597283903605,0.4014257279586958
2025/04/09 10:00:03.657657997,0,0,,mA1/azimuth_1_joint,mA1/azimuth_2_joint,mA1/azimuth_3_joint,mA1/azimuth_4_joint,2.199114857512855,-2.356194490192345,-0.33161255787892263,0.4188790204786391
2025/04/09 10:00:03.758731935,0,0,,mA1/azimuth_1_joint,mA1/azimuth_2_joint,mA1/azimuth_3_joint,mA1/azimuth_4_joint,2.234021442552742,-2.356194490192345,-0.3490658503988659,0.4537856055185257
2025/04/09 10:00:03.857392782,0,0,,mA1/azimuth_1_joint,mA1/azimuth_2_joint,mA1/azimuth_3_joint,mA1/azimuth_4_joint,2.181661564992912,-2.356194490192345,-0.3490658503988659,0.4886921905584123
2025/04/09 10:00:03.956855166,0,0,,mA1/azimuth_1_joint,mA1/azimuth_2_joint,mA1/azimuth_3_joint,mA1/azimuth_4_joint,2.199114857512855,-2.356194490192345,-0.3839724354387525,0.5061454830783556
2025/04/09 10:00:04.61517010,0,0,,mA1/azimuth_1_joint,mA1/azimuth_2_joint,mA1/azimuth_3_joint,mA1/azimuth_4_joint,2.199114857512855,-2.356194490192345,-0.4014257279586958,0.5235987755982988
2025/04/09 10:00:04.156746655,0,0,,mA1/azimuth_1_joint,mA1/azimuth_2_joint,mA1/azimuth_3_joint,mA1/azimuth_4_joint,2.181661564992912,-2.356194490192345,-0.4014257279586958,0.5585053606381855
2025/04/09 10:00:04.256691308,0,0,,mA1/azimuth_1_joint,mA1/azimuth_2_joint,mA1/azimuth_3_joint,mA1/azimuth_4_joint,2.2165681500327987,-2.356194490192345,-0.4363323129985824,0.5759586531581288
2025/04/09 10:00:04.357508657,0,0,,mA1/azimuth_1_joint,mA1/azimuth_2_joint,mA1/azimuth_3_joint,mA1/azimuth_4_joint,2.251474735072685,-2.356194490192345,-0.47123889803846897,0.5934119456780721
2025/04/09 10:00:04.456914862,0,0,,mA1/azimuth_1_joint,mA1/azimuth_2_joint,mA1/azimuth_3_joint,mA1/azimuth_4_joint,2.303834612632515,-2.356194490192345,-0.5235987755982988,0.5934119456780721
2025/04/09 10:00:04.556794640,0,0,,mA1/azimuth_1_joint,mA1/azimuth_2_joint,mA1/azimuth_3_joint,mA1/azimuth_4_joint,2.321287905152458,-2.356194490192345,-0.5410520681182421,0.6283185307179586
2025/04/09 10:00:04.656685248,0,0,,mA1/azimuth_1_joint,mA1/azimuth_2_joint,mA1/azimuth_3_joint,mA1/azimuth_4_joint,2.321287905152458,-2.356194490192345,-0.5410520681182421,0.6457718232379019
2025/04/09 10:00:04.756769841,0,0,,mA1/azimuth_1_joint,mA1/azimuth_2_joint,mA1/azimuth_3_joint,mA1/azimuth_4_joint,2.321287905152458,-2.356194490192345,-0.5585053606381855,0.6457718232379019
2025/04/09 10:00:04.857517074,0,0,,mA1/azimuth_1_joint,mA1/azimuth_2_joint,mA1/azimuth_3_joint,mA1/azimuth_4_joint,2.303834612632515,-2.356194490192345,-0.5585053606381855,0.6632251157578453
2025/04/09 10:00:04.957113039,0,0,,mA1/azimuth_1_joint,mA1/azimuth_2_joint,mA1/azimuth_3_joint,mA1/azimuth_4_joint,2.303834612632515,-2.356194490192345,-0.5759586531581288,0.6632251157578453
2025/04/09 10:00:05.57344687,0,0,,mA1/azimuth_1_joint,mA1/azimuth_2_joint,mA1/azimuth_3_joint,mA1/azimuth_4_joint,2.303834612632515,-2.356194490192345,-0.5759586531581288,0.6806784082777885
2025/04/09 10:00:05.156895347,0,0,,mA1/azimuth_1_joint,mA1/azimuth_2_joint,mA1/azimuth_3_joint,mA1/azimuth_4_joint,2.3387411976724017,-2.356194490192345,-0.6108652381980153,0.6981317007977318
2025/04/09 10:00:05.257438367,0,0,,mA1/azimuth_1_joint,mA1/azimuth_2_joint,mA1/azimuth_3_joint,mA1/azimuth_4_joint,2.303834612632515,-2.356194490192345,-0.5934119456780721,0.6981317007977318
2025/04/09 10:00:05.356568351,0,0,,mA1/azimuth_1_joint,mA1/azimuth_2_joint,mA1/azimuth_3_joint,mA1/azimuth_4_joint,2.2863813201125716,-2.356194490192345,-0.5934119456780721,0.6981317007977318
2025/04/09 10:00:05.456787973,0,0,,mA1/azimuth_1_joint,mA1/azimuth_2_joint,mA1/azimuth_3_joint,mA1/azimuth_4_joint,2.2863813201125716,-2.356194490192345,-0.5934119456780721,0.6981317007977318
2025/04/09 10:00:05.557144756,0,0,,mA1/azimuth_1_joint,mA1/azimuth_2_joint,mA1/azimuth_3_joint,mA1/azimuth_4_joint,2.3387411976724017,-2.356194490192345,-0.6283185307179586,0.6981317007977318
2025/04/09 10:00:05.657195310,0,0,,mA1/azimuth_1_joint,mA1/azimuth_2_joint,mA1/azimuth_3_joint,mA1/azimuth_4_joint,2.2863813201125716,-2.356194490192345,-0.5759586531581288,0.6806784082777885
2025/04/09 10:00:05.756795188,0,0,,mA1/azimuth_1_joint,mA1/azimuth_2_joint,mA1/azimuth_3_joint,mA1/azimuth_4_joint,2.2689280275926285,-2.356194490192345,-0.5934119456780721,0.6981317007977318
2025/04/09 10:00:05.857110907,0,0,,mA1/azimuth_1_joint,mA1/azimuth_2_joint,mA1/azimuth_3_joint,mA1/azimuth_4_joint,2.2689280275926285,-2.356194490192345,-0.5759586531581288,0.6806784082777885
2025/04/09 10:00:05.957473678,0,0,,mA1/azimuth_1_joint,mA1/azimuth_2_joint,mA1/azimuth_3_joint,mA1/azimuth_4_joint,2.2863813201125716,-2.356194490192345,-0.5759586531581288,0.6806784082777885
2025/04/09 10:00:06.56827133,0,0,,mA1/azimuth_1_joint,mA1/azimuth_2_joint,mA1/azimuth_3_joint,mA1/azimuth_4_joint,2.3387411976724017,-2.356194490192345,-0.6108652381980153,0.6981317007977318
2025/04/09 10:00:06.157163367,0,0,,mA1/azimuth_1_joint,mA1/azimuth_2_joint,mA1/azimuth_3_joint,mA1/azimuth_4_joint,2.2863813201125716,-2.356194490192345,-0.5759586531581288,0.6806784082777885
2025/04/09 10:00:06.256799340,0,0,,mA1/azimuth_1_joint,mA1/azimuth_2_joint,mA1/azimuth_3_joint,mA1/azimuth_4_joint,2.3387411976724017,-2.356194490192345,-0.5934119456780721,0.6806784082777885
2025/04/09 10:00:06.357047151,0,0,,mA1/azimuth_1_joint,mA1/azimuth_2_joint,mA1/azimuth_3_joint,mA1/azimuth_4_joint,2.356194490192345,-2.356194490192345,-0.6457718232379019,0.6283185307179586
2025/04/09 10:00:06.456969408,0,0,,mA1/azimuth_1_joint,mA1/azimuth_2_joint,mA1/azimuth_3_joint,mA1/azimuth_4_joint,2.356194490192345,-2.321287905152458,-0.6981317007977318,0.5934119456780721
2025/04/09 10:00:06.556701460,0,0,,mA1/azimuth_1_joint,mA1/azimuth_2_joint,mA1/azimuth_3_joint,mA1/azimuth_4_joint,2.303834612632515,-2.356194490192345,-0.6457718232379019,0.6283185307179586
2025/04/09 10:00:06.657092990,0,0,,mA1/azimuth_1_joint,mA1/azimuth_2_joint,mA1/azimuth_3_joint,mA1/azimuth_4_joint,2.3387411976724017,-2.356194490192345,-0.5934119456780721,0.6632251157578453
2025/04/09 10:00:06.756702424,0,0,,mA1/azimuth_1_joint,mA1/azimuth_2_joint,mA1/azimuth_3_joint,mA1/azimuth_4_joint,2.356194490192345,-2.3387411976724017,-0.6457718232379019,0.6108652381980153
2025/04/09 10:00:06.857730305,0,0,,mA1/azimuth_1_joint,mA1/azimuth_2_joint,mA1/azimuth_3_joint,mA1/azimuth_4_joint,2.3387411976724017,-2.356194490192345,-0.5934119456780721,0.6283185307179586
2025/04/09 10:00:06.956875349,0,0,,mA1/azimuth_1_joint,mA1/azimuth_2_joint,mA1/azimuth_3_joint,mA1/azimuth_4_joint,2.303834612632515,-2.356194490192345,-0.5410520681182421,0.6108652381980153
2025/04/09 10:00:07.59070719,0,0,,mA1/azimuth_1_joint,mA1/azimuth_2_joint,mA1/azimuth_3_joint,mA1/azimuth_4_joint,2.303834612632515,-2.356194490192345,-0.5061454830783556,0.6108652381980153
2025/04/09 10:00:07.157319758,0,0,,mA1/azimuth_1_joint,mA1/azimuth_2_joint,mA1/azimuth_3_joint,mA1/azimuth_4_joint,2.2863813201125716,-2.356194490192345,-0.4886921905584123,0.6108652381980153
2025/04/09 10:00:07.257959183,0,0,,mA1/azimuth_1_joint,mA1/azimuth_2_joint,mA1/azimuth_3_joint,mA1/azimuth_4_joint,2.303834612632515,-2.356194490192345,-0.47123889803846897,0.5934119456780721
2025/04/09 10:00:07.358435740,0,0,,mA1/azimuth_1_joint,mA1/azimuth_2_joint,mA1/azimuth_3_joint,mA1/azimuth_4_joint,2.303834612632515,-2.356194490192345,-0.47123889803846897,0.5934119456780721
2025/04/09 10:00:07.457915201,0,0,,mA1/azimuth_1_joint,mA1/azimuth_2_joint,mA1/azimuth_3_joint,mA1/azimuth_4_joint,2.321287905152458,-2.356194490192345,-0.47123889803846897,0.5759586531581288
2025/04/09 10:00:07.556926663,0,0,,mA1/azimuth_1_joint,mA1/azimuth_2_joint,mA1/azimuth_3_joint,mA1/azimuth_4_joint,2.321287905152458,-2.356194490192345,-0.4537856055185257,0.5585053606381855
2025/04/09 10:00:07.657119223,0,0,,mA1/azimuth_1_joint,mA1/azimuth_2_joint,mA1/azimuth_3_joint,mA1/azimuth_4_joint,2.321287905152458,-2.356194490192345,-0.4363323129985824,0.5585053606381855
2025/04/09 10:00:07.757981643,0,0,,mA1/azimuth_1_joint,mA1/azimuth_2_joint,mA1/azimuth_3_joint,mA1/azimuth_4_joint,2.2689280275926285,-2.356194490192345,-0.4014257279586958,0.5585053606381855
2025/04/09 10:00:07.857105078,0,0,,mA1/azimuth_1_joint,mA1/azimuth_2_joint,mA1/azimuth_3_joint,mA1/azimuth_4_joint,2.234021442552742,-2.356194490192345,-0.3839724354387525,0.5410520681182421
2025/04/09 10:00:07.957469777,0,0,,mA1/azimuth_1_joint,mA1/azimuth_2_joint,mA1/azimuth_3_joint,mA1/azimuth_4_joint,2.251474735072685,-2.356194490192345,-0.3839724354387525,0.5235987755982988
2025/04/09 10:00:08.59024431,0,0,,mA1/azimuth_1_joint,mA1/azimuth_2_joint,mA1/azimuth_3_joint,mA1/azimuth_4_joint,2.234021442552742,-2.356194490192345,-0.3665191429188092,0.5235987755982988
2025/04/09 10:00:08.156604381,0,0,,mA1/azimuth_1_joint,mA1/azimuth_2_joint,mA1/azimuth_3_joint,mA1/azimuth_4_joint,2.251474735072685,-2.356194490192345,-0.3665191429188092,0.5061454830783556
2025/04/09 10:00:08.258594022,0,0,,mA1/azimuth_1_joint,mA1/azimuth_2_joint,mA1/azimuth_3_joint,mA1/azimuth_4_joint,2.2689280275926285,-2.356194490192345,-0.3665191429188092,0.4886921905584123
2025/04/09 10:00:08.357226534,0,0,,mA1/azimuth_1_joint,mA1/azimuth_2_joint,mA1/azimuth_3_joint,mA1/azimuth_4_joint,2.321287905152458,-2.356194490192345,-0.3839724354387525,0.47123889803846897
2025/04/09 10:00:08.456607370,0,0,,mA1/azimuth_1_joint,mA1/azimuth_2_joint,mA1/azimuth_3_joint,mA1/azimuth_4_joint,2.2863813201125716,-2.356194490192345,-0.3490658503988659,0.47123889803846897
2025/04/09 10:00:08.556630266,0,0,,mA1/azimuth_1_joint,mA1/azimuth_2_joint,mA1/azimuth_3_joint,mA1/azimuth_4_joint,2.2863813201125716,-2.356194490192345,-0.3490658503988659,0.4537856055185257
2025/04/09 10:00:08.657386566,0,0,,mA1/azimuth_1_joint,mA1/azimuth_2_joint,mA1/azimuth_3_joint,mA1/azimuth_4_joint,2.234021442552742,-2.356194490192345,-0.3141592653589793,0.4537856055185257
2025/04/09 10:00:08.756595826,0,0,,mA1/azimuth_1_joint,mA1/azimuth_2_joint,mA1/azimuth_3_joint,mA1/azimuth_4_joint,2.251474735072685,-2.356194490192345,-0.3141592653589793,0.4363323129985824
2025/04/09 10:00:08.856521051,0,0,,mA1/azimuth_1_joint,mA1/azimuth_2_joint,mA1/azimuth_3_joint,mA1/azimuth_4_joint,2.199114857512855,-2.356194490192345,-0.29670597283903605,0.4363323129985824
2025/04/09 10:00:08.957181898,0,0,,mA1/azimuth_1_joint,mA1/azimuth_2_joint,mA1/azimuth_3_joint,mA1/azimuth_4_joint,2.234021442552742,-2.356194490192345,-0.29670597283903605,0.4188790204786391
2025/04/09 10:00:09.56774276,0,0,,mA1/azimuth_1_joint,mA1/azimuth_2_joint,mA1/azimuth_3_joint,mA1/azimuth_4_joint,2.2863813201125716,-2.356194490192345,-0.29670597283903605,0.4014257279586958
2025/04/09 10:00:09.156690542,0,0,,mA1/azimuth_1_joint,mA1/azimuth_2_joint,mA1/azimuth_3_joint,mA1/azimuth_4_joint,2.321287905152458,-2.356194490192345,-0.3141592653589793,0.3839724354387525
2025/04/09 10:00:09.257489602,0,0,,mA1/azimuth_1_joint,mA1/azimuth_2_joint,mA1/azimuth_3_joint,mA1/azimuth_4_joint,2.356194490192345,-2.356194490192345,-0.33161255787892263,0.3490658503988659
2025/04/09 10:00:09.356683430,0,0,,mA1/azimuth_1_joint,mA1/azimuth_2_joint,mA1/azimuth_3_joint,mA1/azimuth_4_joint,2.356194490192345,-2.356194490192345,-0.3490658503988659,0.3141592653589793
2025/04/09 10:00:09.456897366,0,0,,mA1/azimuth_1_joint,mA1/azimuth_2_joint,mA1/azimuth_3_joint,mA1/azimuth_4_joint,2.356194490192345,-2.356194490192345,-0.29670597283903605,0.3490658503988659
2025/04/09 10:00:09.561594321,0,0,,mA1/azimuth_1_joint,mA1/azimuth_2_joint,mA1/azimuth_3_joint,mA1/azimuth_4_joint,2.303834612632515,-2.356194490192345,-0.2617993877991494,0.3665191429188092
2025/04/09 10:00:09.657193755,0,0,,mA1/azimuth_1_joint,mA1/azimuth_2_joint,mA1/azimuth_3_joint,mA1/azimuth_4_joint,2.251474735072685,-2.356194490192345,-0.24434609527920614,0.3665191429188092
2025/04/09 10:00:09.756745940,0,0,,mA1/azimuth_1_joint,mA1/azimuth_2_joint,mA1/azimuth_3_joint,mA1/azimuth_4_joint,2.2863813201125716,-2.356194490192345,-0.24434609527920614,0.3490658503988659
2025/04/09 10:00:09.856639109,0,0,,mA1/azimuth_1_joint,mA1/azimuth_2_joint,mA1/azimuth_3_joint,mA1/azimuth_4_joint,2.234021442552742,-2.356194490192345,-0.22689280275926285,0.33161255787892263
2025/04/09 10:00:09.956617466,0,0,,mA1/azimuth_1_joint,mA1/azimuth_2_joint,mA1/azimuth_3_joint,mA1/azimuth_4_joint,2.2689280275926285,-2.356194490192345,-0.24434609527920614,0.3141592653589793
2025/04/09 10:00:10.56655967,0,0,,mA1/azimuth_1_joint,mA1/azimuth_2_joint,mA1/azimuth_3_joint,mA1/azimuth_4_joint,2.251474735072685,-2.356194490192345,-0.22689280275926285,0.3141592653589793
2025/04/09 10:00:10.158639250,0,0,,mA1/azimuth_1_joint,mA1/azimuth_2_joint,mA1/azimuth_3_joint,mA1/azimuth_4_joint,2.234021442552742,-2.356194490192345,-0.22689280275926285,0.29670597283903605
2025/04/09 10:00:10.256921359,0,0,,mA1/azimuth_1_joint,mA1/azimuth_2_joint,mA1/azimuth_3_joint,mA1/azimuth_4_joint,2.2863813201125716,-2.356194490192345,-0.24434609527920614,0.2792526803190927
2025/04/09 10:00:10.356899784,0,0,,mA1/azimuth_1_joint,mA1/azimuth_2_joint,mA1/azimuth_3_joint,mA1/azimuth_4_joint,2.321287905152458,-2.356194490192345,-0.24434609527920614,0.2617993877991494
2025/04/09 10:00:10.456808738,0,0,,mA1/azimuth_1_joint,mA1/azimuth_2_joint,mA1/azimuth_3_joint,mA1/azimuth_4_joint,2.2863813201125716,-2.356194490192345,-0.20943951023931956,0.29670597283903605
2025/04/09 10:00:10.560293814,0,0,,mA1/azimuth_1_joint,mA1/azimuth_2_joint,mA1/azimuth_3_joint,mA1/azimuth_4_joint,2.234021442552742,-2.356194490192345,-0.20943951023931956,0.2792526803190927
2025/04/09 10:00:10.657231931,0,0,,mA1/azimuth_1_joint,mA1/azimuth_2_joint,mA1/azimuth_3_joint,mA1/azimuth_4_joint,2.181661564992912,-2.356194490192345,-0.17453292519943295,0.2792526803190927
2025/04/09 10:00:10.757246905,0,0,,mA1/azimuth_1_joint,mA1/azimuth_2_joint,mA1/azimuth_3_joint,mA1/azimuth_4_joint,2.129301687433082,-2.356194490192345,-0.19198621771937624,0.2617993877991494
2025/04/09 10:00:10.857544045,0,0,,mA1/azimuth_1_joint,mA1/azimuth_2_joint,mA1/azimuth_3_joint,mA1/azimuth_4_joint,2.076941809873252,-2.356194490192345,-0.17453292519943295,0.2617993877991494
2025/04/09 10:00:10.958643548,0,0,,mA1/azimuth_1_joint,mA1/azimuth_2_joint,mA1/azimuth_3_joint,mA1/azimuth_4_joint,2.0420352248333655,-2.356194490192345,-0.17453292519943295,0.2617993877991494
2025/04/09 10:00:11.56618734,0,0,,mA1/azimuth_1_joint,mA1/azimuth_2_joint,mA1/azimuth_3_joint,mA1/azimuth_4_joint,2.0943951023931953,-2.356194490192345,-0.19198621771937624,0.24434609527920614
2025/04/09 10:00:11.156545022,0,0,,mA1/azimuth_1_joint,mA1/azimuth_2_joint,mA1/azimuth_3_joint,mA1/azimuth_4_joint,2.0943951023931953,-2.356194490192345,-0.17453292519943295,0.22689280275926285
2025/04/09 10:00:11.257368542,0,0,,mA1/azimuth_1_joint,mA1/azimuth_2_joint,mA1/azimuth_3_joint,mA1/azimuth_4_joint,2.1467549799530254,-2.356194490192345,-0.17453292519943295,0.24434609527920614
2025/04/09 10:00:11.356614029,0,0,,mA1/azimuth_1_joint,mA1/azimuth_2_joint,mA1/azimuth_3_joint,mA1/azimuth_4_joint,2.199114857512855,-2.356194490192345,-0.17453292519943295,0.22689280275926285
2025/04/09 10:00:11.457118651,0,0,,mA1/azimuth_1_joint,mA1/azimuth_2_joint,mA1/azimuth_3_joint,mA1/azimuth_4_joint,2.1467549799530254,-2.356194490192345,-0.15707963267948966,0.22689280275926285
2025/04/09 10:00:11.556966344,0,0,,mA1/azimuth_1_joint,mA1/azimuth_2_joint,mA1/azimuth_3_joint,mA1/azimuth_4_joint,2.111848394913139,-2.356194490192345,-0.15707963267948966,0.22689280275926285
2025/04/09 10:00:11.657158615,0,0,,mA1/azimuth_1_joint,mA1/azimuth_2_joint,mA1/azimuth_3_joint,mA1/azimuth_4_joint,2.1642082724729685,-2.356194490192345,-0.17453292519943295,0.19198621771937624
2025/04/09 10:00:11.757314119,0,0,,mA1/azimuth_1_joint,mA1/azimuth_2_joint,mA1/azimuth_3_joint,mA1/azimuth_4_joint,2.2165681500327987,-2.356194490192345,-0.17453292519943295,0.19198621771937624
2025/04/09 10:00:11.856737045,0,0,,mA1/azimuth_1_joint,mA1/azimuth_2_joint,mA1/azimuth_3_joint,mA1/azimuth_4_joint,2.1642082724729685,-2.356194490192345,-0.15707963267948966,0.20943951023931956
2025/04/09 10:00:11.957259904,0,0,,mA1/azimuth_1_joint,mA1/azimuth_2_joint,mA1/azimuth_3_joint,mA1/azimuth_4_joint,2.199114857512855,-2.356194490192345,-0.15707963267948966,0.20943951023931956
2025/04/09 10:00:12.57353849,0,0,,mA1/azimuth_1_joint,mA1/azimuth_2_joint,mA1/azimuth_3_joint,mA1/azimuth_4_joint,2.1467549799530254,-2.356194490192345,-0.15707963267948966,0.19198621771937624
2025/04/09 10:00:12.157090685,0,0,,mA1/azimuth_1_joint,mA1/azimuth_2_joint,mA1/azimuth_3_joint,mA1/azimuth_4_joint,2.199114857512855,-2.356194490192345,-0.15707963267948966,0.19198621771937624
2025/04/09 10:00:12.256795175,0,0,,mA1/azimuth_1_joint,mA1/azimuth_2_joint,mA1/azimuth_3_joint,mA1/azimuth_4_joint,2.251474735072685,-2.356194490192345,-0.15707963267948966,0.19198621771937624
2025/04/09 10:00:12.356588682,0,0,,mA1/azimuth_1_joint,mA1/azimuth_2_joint,mA1/azimuth_3_joint,mA1/azimuth_4_joint,2.303834612632515,-2.356194490192345,-0.13962634015954636,0.19198621771937624
2025/04/09 10:00:12.457503731,0,0,,mA1/azimuth_1_joint,mA1/azimuth_2_joint,mA1/azimuth_3_joint,mA1/azimuth_4_joint,2.251474735072685,-2.356194490192345,-0.13962634015954636,0.19198621771937624
2025/04/09 10:00:12.562930999,0,0,,mA1/azimuth_1_joint,mA1/azimuth_2_joint,mA1/azimuth_3_joint,mA1/azimuth_4_joint,2.199114857512855,-2.356194490192345,-0.12217304763960307,0.19198621771937624
2025/04/09 10:00:12.657112368,0,0,,mA1/azimuth_1_joint,mA1/azimuth_2_joint,mA1/azimuth_3_joint,mA1/azimuth_4_joint,2.1642082724729685,-2.356194490192345,-0.13962634015954636,0.17453292519943295
2025/04/09 10:00:12.757309972,0,0,,mA1/azimuth_1_joint,mA1/azimuth_2_joint,mA1/azimuth_3_joint,mA1/azimuth_4_joint,2.1642082724729685,-2.356194490192345,-0.13962634015954636,0.17453292519943295
2025/04/09 10:00:12.856735361,0,0,,mA1/azimuth_1_joint,mA1/azimuth_2_joint,mA1/azimuth_3_joint,mA1/azimuth_4_joint,2.181661564992912,-2.356194490192345,-0.13962634015954636,0.17453292519943295
2025/04/09 10:00:12.957459568,0,0,,mA1/azimuth_1_joint,mA1/azimuth_2_joint,mA1/azimuth_3_joint,mA1/azimuth_4_joint,2.129301687433082,-2.3736477827122884,-0.13962634015954636,0.17453292519943295
2025/04/09 10:00:13.57055653,0,0,,mA1/azimuth_1_joint,mA1/azimuth_2_joint,mA1/azimuth_3_joint,mA1/azimuth_4_joint,2.1467549799530254,-2.3736477827122884,-0.12217304763960307,0.17453292519943295
2025/04/09 10:00:13.156558574,0,0,,mA1/azimuth_1_joint,mA1/azimuth_2_joint,mA1/azimuth_3_joint,mA1/azimuth_4_joint,2.0943951023931953,-2.3736477827122884,-0.10471975511965978,0.19198621771937624
2025/04/09 10:00:13.256711213,0,0,,mA1/azimuth_1_joint,mA1/azimuth_2_joint,mA1/azimuth_3_joint,mA1/azimuth_4_joint,2.0420352248333655,-2.3736477827122884,-0.10471975511965978,0.19198621771937624
2025/04/09 10:00:13.357744940,0,0,,mA1/azimuth_1_joint,mA1/azimuth_2_joint,mA1/azimuth_3_joint,mA1/azimuth_4_joint,1.9896753472735358,-2.3736477827122884,-0.10471975511965978,0.17453292519943295
2025/04/09 10:00:13.456857318,0,0,,mA1/azimuth_1_joint,mA1/azimuth_2_joint,mA1/azimuth_3_joint,mA1/azimuth_4_joint,2.007128639793479,-2.3736477827122884,-0.12217304763960307,0.15707963267948966
2025/04/09 10:00:13.557342297,0,0,,mA1/azimuth_1_joint,mA1/azimuth_2_joint,mA1/azimuth_3_joint,mA1/azimuth_4_joint,1.9896753472735358,-2.3736477827122884,-0.12217304763960307,0.15707963267948966
2025/04/09 10:00:13.657432664,0,0,,mA1/azimuth_1_joint,mA1/azimuth_2_joint,mA1/azimuth_3_joint,mA1/azimuth_4_joint,1.9373154697137058,-2.3736477827122884,-0.10471975511965978,0.15707963267948966
2025/04/09 10:00:13.757510004,0,0,,mA1/azimuth_1_joint,mA1/azimuth_2_joint,mA1/azimuth_3_joint,mA1/azimuth_4_joint,1.9722220547535925,-2.3736477827122884,-0.12217304763960307,0.13962634015954636
2025/04/09 10:00:13.856672185,0,0,,mA1/azimuth_1_joint,mA1/azimuth_2_joint,mA1/azimuth_3_joint,mA1/azimuth_4_joint,1.9722220547535925,-2.3736477827122884,-0.12217304763960307,0.13962634015954636
2025/04/09 10:00:13.957656697,0,0,,mA1/azimuth_1_joint,mA1/azimuth_2_joint,mA1/azimuth_3_joint,mA1/azimuth_4_joint,1.9198621771937625,-2.3736477827122884,-0.10471975511965978,0.15707963267948966
2025/04/09 10:00:14.59476275,0,0,,mA1/azimuth_1_joint,mA1/azimuth_2_joint,mA1/azimuth_3_joint,mA1/azimuth_4_joint,1.9373154697137058,-2.3736477827122884,-0.12217304763960307,0.13962634015954636
2025/04/09 10:00:14.157209545,0,0,,mA1/azimuth_1_joint,mA1/azimuth_2_joint,mA1/azimuth_3_joint,mA1/azimuth_4_joint,1.9198621771937625,-2.3736477827122884,-0.12217304763960307,0.13962634015954636
2025/04/09 10:00:14.258787066,0,0,,mA1/azimuth_1_joint,mA1/azimuth_2_joint,mA1/azimuth_3_joint,mA1/azimuth_4_joint,1.8675022996339325,-2.3736477827122884,-0.10471975511965978,0.13962634015954636
2025/04/09 10:00:14.359828628,0,0,,mA1/azimuth_1_joint,mA1/azimuth_2_joint,mA1/azimuth_3_joint,mA1/azimuth_4_joint,1.8500490071139892,-2.3736477827122884,-0.10471975511965978,0.13962634015954636
2025/04/09 10:00:14.458770057,0,0,,mA1/azimuth_1_joint,mA1/azimuth_2_joint,mA1/azimuth_3_joint,mA1/azimuth_4_joint,1.8675022996339325,-2.3736477827122884,-0.10471975511965978,0.13962634015954636
2025/04/09 10:00:14.557012636,0,0,,mA1/azimuth_1_joint,mA1/azimuth_2_joint,mA1/azimuth_3_joint,mA1/azimuth_4_joint,1.8151424220741028,-2.3736477827122884,-0.10471975511965978,0.13962634015954636
2025/04/09 10:00:14.656674194,0,0,,mA1/azimuth_1_joint,mA1/azimuth_2_joint,mA1/azimuth_3_joint,mA1/azimuth_4_joint,1.8151424220741028,-2.3736477827122884,-0.10471975511965978,0.13962634015954636
2025/04/09 10:00:14.757238188,0,0,,mA1/azimuth_1_joint,mA1/azimuth_2_joint,mA1/azimuth_3_joint,mA1/azimuth_4_joint,1.7976891295541595,-2.3736477827122884,-0.10471975511965978,0.12217304763960307
2025/04/09 10:00:14.858075008,0,0,,mA1/azimuth_1_joint,mA1/azimuth_2_joint,mA1/azimuth_3_joint,mA1/azimuth_4_joint,1.7453292519943295,-2.3736477827122884,-0.10471975511965978,0.13962634015954636
2025/04/09 10:00:14.957495360,0,0,,mA1/azimuth_1_joint,mA1/azimuth_2_joint,mA1/azimuth_3_joint,mA1/azimuth_4_joint,1.6929693744344996,-2.3736477827122884,-0.10471975511965978,0.13962634015954636
2025/04/09 10:00:15.57216033,0,0,,mA1/azimuth_1_joint,mA1/azimuth_2_joint,mA1/azimuth_3_joint,mA1/azimuth_4_joint,1.6929693744344996,-2.3736477827122884,-0.10471975511965978,0.12217304763960307
2025/04/09 10:00:15.157901525,0,0,,mA1/azimuth_1_joint,mA1/azimuth_2_joint,mA1/azimuth_3_joint,mA1/azimuth_4_joint,1.7453292519943295,-2.3736477827122884,-0.12217304763960307,0.12217304763960307
2025/04/09 10:00:15.256956414,0,0,,mA1/azimuth_1_joint,mA1/azimuth_2_joint,mA1/azimuth_3_joint,mA1/azimuth_4_joint,1.7976891295541595,-2.3736477827122884,-0.10471975511965978,0.12217304763960307
2025/04/09 10:00:15.356831686,0,0,,mA1/azimuth_1_joint,mA1/azimuth_2_joint,mA1/azimuth_3_joint,mA1/azimuth_4_joint,1.7453292519943295,-2.3736477827122884,-0.10471975511965978,0.13962634015954636
2025/04/09 10:00:15.456727866,0,0,,mA1/azimuth_1_joint,mA1/azimuth_2_joint,mA1/azimuth_3_joint,mA1/azimuth_4_joint,1.6929693744344996,-2.3736477827122884,-0.10471975511965978,0.12217304763960307
2025/04/09 10:00:15.557168128,0,0,,mA1/azimuth_1_joint,mA1/azimuth_2_joint,mA1/azimuth_3_joint,mA1/azimuth_4_joint,1.6406094968746698,-2.3736477827122884,-0.10471975511965978,0.12217304763960307
2025/04/09 10:00:15.657204254,0,0,,mA1/azimuth_1_joint,mA1/azimuth_2_joint,mA1/azimuth_3_joint,mA1/azimuth_4_joint,1.6929693744344996,-2.3736477827122884,-0.10471975511965978,0.12217304763960307
2025/04/09 10:00:15.757086886,0,0,,mA1/azimuth_1_joint,mA1/azimuth_2_joint,mA1/azimuth_3_joint,mA1/azimuth_4_joint,1.710422666954443,-2.3736477827122884,-0.10471975511965978,0.12217304763960307
2025/04/09 10:00:15.857159539,0,0,,mA1/azimuth_1_joint,mA1/azimuth_2_joint,mA1/azimuth_3_joint,mA1/azimuth_4_joint,1.6929693744344996,-2.3736477827122884,-0.10471975511965978,0.12217304763960307
2025/04/09 10:00:15.957195683,0,0,,mA1/azimuth_1_joint,mA1/azimuth_2_joint,mA1/azimuth_3_joint,mA1/azimuth_4_joint,1.7453292519943295,-2.3736477827122884,-0.10471975511965978,0.12217304763960307
2025/04/09 10:00:16.57316113,0,0,,mA1/azimuth_1_joint,mA1/azimuth_2_joint,mA1/azimuth_3_joint,mA1/azimuth_4_joint,1.7976891295541595,-2.3736477827122884,-0.10471975511965978,0.12217304763960307
2025/04/09 10:00:16.159728581,0,0,,mA1/azimuth_1_joint,mA1/azimuth_2_joint,mA1/azimuth_3_joint,mA1/azimuth_4_joint,1.8325957145940461,-2.3736477827122884,-0.10471975511965978,0.12217304763960307
2025/04/09 10:00:16.258013452,0,0,,mA1/azimuth_1_joint,mA1/azimuth_2_joint,mA1/azimuth_3_joint,mA1/azimuth_4_joint,1.8500490071139892,-2.3736477827122884,-0.10471975511965978,0.12217304763960307
2025/04/09 10:00:16.361390685,0,0,,mA1/azimuth_1_joint,mA1/azimuth_2_joint,mA1/azimuth_3_joint,mA1/azimuth_4_joint,1.8151424220741028,-2.3736477827122884,-0.08726646259971647,0.12217304763960307
2025/04/09 10:00:16.457840719,0,0,,mA1/azimuth_1_joint,mA1/azimuth_2_joint,mA1/azimuth_3_joint,mA1/azimuth_4_joint,1.7627825445142729,-2.3736477827122884,-0.10471975511965978,0.12217304763960307
2025/04/09 10:00:16.560000517,0,0,,mA1/azimuth_1_joint,mA1/azimuth_2_joint,mA1/azimuth_3_joint,mA1/azimuth_4_joint,1.710422666954443,-2.3736477827122884,-0.08726646259971647,0.12217304763960307
2025/04/09 10:00:16.657039288,0,0,,mA1/azimuth_1_joint,mA1/azimuth_2_joint,mA1/azimuth_3_joint,mA1/azimuth_4_joint,1.6580627893946132,-2.3736477827122884,-0.10471975511965978,0.12217304763960307
2025/04/09 10:00:16.756618052,0,0,,mA1/azimuth_1_joint,mA1/azimuth_2_joint,mA1/azimuth_3_joint,mA1/azimuth_4_joint,1.6580627893946132,-2.3736477827122884,-0.10471975511965978,0.10471975511965978
2025/04/09 10:00:16.857833414,0,0,,mA1/azimuth_1_joint,mA1/azimuth_2_joint,mA1/azimuth_3_joint,mA1/azimuth_4_joint,1.6231562043547265,-2.3736477827122884,-0.10471975511965978,0.10471975511965978
2025/04/09 10:00:16.957547984,0,0,,mA1/azimuth_1_joint,mA1/azimuth_2_joint,mA1/azimuth_3_joint,mA1/azimuth_4_joint,1.6755160819145565,-2.3736477827122884,-0.10471975511965978,0.10471975511965978
2025/04/09 10:00:17.56512849,0,0,,mA1/azimuth_1_joint,mA1/azimuth_2_joint,mA1/azimuth_3_joint,mA1/azimuth_4_joint,1.7278759594743862,-2.3736477827122884,-0.10471975511965978,0.10471975511965978
2025/04/09 10:00:17.157615246,0,0,,mA1/azimuth_1_joint,mA1/azimuth_2_joint,mA1/azimuth_3_joint,mA1/azimuth_4_joint,1.7802358370342162,-2.3736477827122884,-0.10471975511965978,0.10471975511965978
2025/04/09 10:00:17.258523100,0,0,,mA1/azimuth_1_joint,mA1/azimuth_2_joint,mA1/azimuth_3_joint,mA1/azimuth_4_joint,1.8325957145940461,-2.3736477827122884,-0.08726646259971647,0.12217304763960307
2025/04/09 10:00:17.356960023,0,0,,mA1/azimuth_1_joint,mA1/azimuth_2_joint,mA1/azimuth_3_joint,mA1/azimuth_4_joint,1.8325957145940461,-2.3736477827122884,-0.08726646259971647,0.12217304763960307
2025/04/09 10:00:17.457115079,0,0,,mA1/azimuth_1_joint,mA1/azimuth_2_joint,mA1/azimuth_3_joint,mA1/azimuth_4_joint,1.8849555921538759,-2.3736477827122884,-0.08726646259971647,0.10471975511965978
2025/04/09 10:00:17.557237158,0,0,,mA1/azimuth_1_joint,mA1/azimuth_2_joint,mA1/azimuth_3_joint,mA1/azimuth_4_joint,1.9024088846738192,-2.3736477827122884,-0.08726646259971647,0.12217304763960307
2025/04/09 10:00:17.657700412,0,0,,mA1/azimuth_1_joint,mA1/azimuth_2_joint,mA1/azimuth_3_joint,mA1/azimuth_4_joint,1.8675022996339325,-2.3736477827122884,-0.08726646259971647,0.12217304763960307
2025/04/09 10:00:17.756921742,0,0,,mA1/azimuth_1_joint,mA1/azimuth_2_joint,mA1/azimuth_3_joint,mA1/azimuth_4_joint,1.9198621771937625,-2.3736477827122884,-0.08726646259971647,0.10471975511965978
2025/04/09 10:00:17.856964621,0,0,,mA1/azimuth_1_joint,mA1/azimuth_2_joint,mA1/azimuth_3_joint,mA1/azimuth_4_joint,1.9547687622336491,-2.3736477827122884,-0.10471975511965978,0.10471975511965978
2025/04/09 10:00:17.956566793,0,0,,mA1/azimuth_1_joint,mA1/azimuth_2_joint,mA1/azimuth_3_joint,mA1/azimuth_4_joint,1.9198621771937625,-2.3736477827122884,-0.08726646259971647,0.12217304763960307
2025/04/09 10:00:18.57241648,0,0,,mA1/azimuth_1_joint,mA1/azimuth_2_joint,mA1/azimuth_3_joint,mA1/azimuth_4_joint,1.8675022996339325,-2.3736477827122884,-0.08726646259971647,0.12217304763960307
2025/04/09 10:00:18.157627280,0,0,,mA1/azimuth_1_joint,mA1/azimuth_2_joint,mA1/azimuth_3_joint,mA1/azimuth_4_joint,1.8151424220741028,-2.3736477827122884,-0.08726646259971647,0.12217304763960307
2025/04/09 10:00:18.257408638,0,0,,mA1/azimuth_1_joint,mA1/azimuth_2_joint,mA1/azimuth_3_joint,mA1/azimuth_4_joint,1.7627825445142729,-2.3736477827122884,-0.08726646259971647,0.12217304763960307
