time,header_stamp_secs,header_stamp_nsecs,header_frame_id,status_status,status_service,latitude,longitude,altitude,position_covariance_0,position_covariance_1,position_covariance_2,position_covariance_3,position_covariance_4,position_covariance_5,position_covariance_6,position_covariance_7,position_covariance_8,position_covariance_type
2025/05/06 15:20:05.633539806,1746537605,620659126,mA1/gps,0,1,63.43464161372657,10.392547310901287,0.0,1.4400000000000002e-10,0.0,0.0,0.0,1.4400000000000002e-10,0.0,0.0,0.0,1.0,2
2025/05/06 15:20:05.669439273,1746537605,664781618,mA1/gps,0,1,63.434641613859604,10.392547310577838,0.0,1.4400000000000002e-10,0.0,0.0,0.0,1.4400000000000002e-10,0.0,0.0,0.0,1.0,2
2025/05/06 15:20:05.721915836,1746537605,719527017,mA1/gps,0,1,63.43464161391755,10.39254731051136,0.0,1.4400000000000002e-10,0.0,0.0,0.0,1.4400000000000002e-10,0.0,0.0,0.0,1.0,2
2025/05/06 15:20:05.768911141,1746537605,767609254,mA1/gps,0,1,63.434641613821476,10.39254731088413,0.0,1.4400000000000002e-10,0.0,0.0,0.0,1.4400000000000002e-10,0.0,0.0,0.0,1.0,2
2025/05/06 15:20:05.823272050,1746537605,818225783,mA1/gps,0,1,63.43464161397553,10.392547311136408,0.0,1.4400000000000002e-10,0.0,0.0,0.0,1.4400000000000002e-10,0.0,0.0,0.0,1.0,2
2025/05/06 15:20:05.868292193,1746537605,859272918,mA1/gps,0,1,63.43464161377654,10.39254731102789,0.0,1.4400000000000002e-10,0.0,0.0,0.0,1.4400000000000002e-10,0.0,0.0,0.0,1.0,2
2025/05/06 15:20:05.919255633,1746537605,916296560,mA1/gps,0,1,63.43464161371667,10.39254731092513,0.0,1.4400000000000002e-10,0.0,0.0,0.0,1.4400000000000002e-10,0.0,0.0,0.0,1.0,2
2025/05/06 15:20:05.958681277,1746537605,957086454,mA1/gps,0,1,63.434641613755595,10.392547311053907,0.0,1.4400000000000002e-10,0.0,0.0,0.0,1.4400000000000002e-10,0.0,0.0,0.0,1.0,2
2025/05/06 15:20:06.31280871,1746537606,10776281,mA1/gps,0,1,63.43464161361618,10.392547310817521,0.0,1.4400000000000002e-10,0.0,0.0,0.0,1.4400000000000002e-10,0.0,0.0,0.0,1.0,2
2025/05/06 15:20:06.93986292,1746537606,63548537,mA1/gps,0,1,63.43464161360171,10.392547310984257,0.0,1.4400000000000002e-10,0.0,0.0,0.0,1.4400000000000002e-10,0.0,0.0,0.0,1.0,2
2025/05/06 15:20:06.117267858,1746537606,114052335,mA1/gps,0,1,63.4346416136363,10.39254731114599,0.0,1.4400000000000002e-10,0.0,0.0,0.0,1.4400000000000002e-10,0.0,0.0,0.0,1.0,2
2025/05/06 15:20:06.167087809,1746537606,160872290,mA1/gps,0,1,63.434641613630596,10.392547310895104,0.0,1.4400000000000002e-10,0.0,0.0,0.0,1.4400000000000002e-10,0.0,0.0,0.0,1.0,2
2025/05/06 15:20:06.218871980,1746537606,215808696,mA1/gps,0,1,63.43464161383582,10.392547310678975,0.0,1.4400000000000002e-10,0.0,0.0,0.0,1.4400000000000002e-10,0.0,0.0,0.0,1.0,2
2025/05/06 15:20:06.290336879,1746537606,270249546,mA1/gps,0,1,63.4346416136054,10.392547311290885,0.0,1.4400000000000002e-10,0.0,0.0,0.0,1.4400000000000002e-10,0.0,0.0,0.0,1.0,2
2025/05/06 15:20:06.328459080,1746537606,311207811,mA1/gps,0,1,63.43464161369353,10.392547310701705,0.0,1.4400000000000002e-10,0.0,0.0,0.0,1.4400000000000002e-10,0.0,0.0,0.0,1.0,2
2025/05/06 15:20:06.383971757,1746537606,366310716,mA1/gps,0,1,63.43464161358578,10.39254731128485,0.0,1.4400000000000002e-10,0.0,0.0,0.0,1.4400000000000002e-10,0.0,0.0,0.0,1.0,2
2025/05/06 15:20:06.455090652,1746537606,414267183,mA1/gps,0,1,63.43464161358039,10.392547311136735,0.0,1.4400000000000002e-10,0.0,0.0,0.0,1.4400000000000002e-10,0.0,0.0,0.0,1.0,2
2025/05/06 15:20:06.481211836,1746537606,457409743,mA1/gps,0,1,63.4346416136298,10.392547310573214,0.0,1.4400000000000002e-10,0.0,0.0,0.0,1.4400000000000002e-10,0.0,0.0,0.0,1.0,2
2025/05/06 15:20:06.515461667,1746537606,514439318,mA1/gps,0,1,63.434641613569504,10.392547310783122,0.0,1.4400000000000002e-10,0.0,0.0,0.0,1.4400000000000002e-10,0.0,0.0,0.0,1.0,2
2025/05/06 15:20:06.562981545,1746537606,562201458,mA1/gps,0,1,63.43464161342836,10.3925473111065,0.0,1.4400000000000002e-10,0.0,0.0,0.0,1.4400000000000002e-10,0.0,0.0,0.0,1.0,2
2025/05/06 15:20:06.625319049,1746537606,612172304,mA1/gps,0,1,63.434641613453536,10.392547310365485,0.0,1.4400000000000002e-10,0.0,0.0,0.0,1.4400000000000002e-10,0.0,0.0,0.0,1.0,2
2025/05/06 15:20:06.766515476,1746537606,665928243,mA1/gps,0,1,63.43464161342232,10.392547311125332,0.0,1.4400000000000002e-10,0.0,0.0,0.0,1.4400000000000002e-10,0.0,0.0,0.0,1.0,2
2025/05/06 15:20:06.827019190,1746537606,712153789,mA1/gps,0,1,63.43464161349532,10.392547310611885,0.0,1.4400000000000002e-10,0.0,0.0,0.0,1.4400000000000002e-10,0.0,0.0,0.0,1.0,2
2025/05/06 15:20:06.848819728,1746537606,769105937,mA1/gps,0,1,63.4346416136851,10.392547310675335,0.0,1.4400000000000002e-10,0.0,0.0,0.0,1.4400000000000002e-10,0.0,0.0,0.0,1.0,2
2025/05/06 15:20:06.870342361,1746537606,810017708,mA1/gps,0,1,63.43464161376705,10.392547310608045,0.0,1.4400000000000002e-10,0.0,0.0,0.0,1.4400000000000002e-10,0.0,0.0,0.0,1.0,2
2025/05/06 15:20:06.919346979,1746537606,870623264,mA1/gps,0,1,63.43464161363074,10.392547310716115,0.0,1.4400000000000002e-10,0.0,0.0,0.0,1.4400000000000002e-10,0.0,0.0,0.0,1.0,2
2025/05/06 15:20:06.948875405,1746537606,909420276,mA1/gps,0,1,63.43464161351785,10.39254731067897,0.0,1.4400000000000002e-10,0.0,0.0,0.0,1.4400000000000002e-10,0.0,0.0,0.0,1.0,2
2025/05/06 15:20:06.985966729,1746537606,975219475,mA1/gps,0,1,63.434641613844654,10.392547311155372,0.0,1.4400000000000002e-10,0.0,0.0,0.0,1.4400000000000002e-10,0.0,0.0,0.0,1.0,2
2025/05/06 15:20:07.101707386,1746537607,9994679,mA1/gps,0,1,63.434641613709225,10.392547310559761,0.0,1.4400000000000002e-10,0.0,0.0,0.0,1.4400000000000002e-10,0.0,0.0,0.0,1.0,2
2025/05/06 15:20:07.131063368,1746537607,60501154,mA1/gps,0,1,63.43464161379153,10.392547310716216,0.0,1.4400000000000002e-10,0.0,0.0,0.0,1.4400000000000002e-10,0.0,0.0,0.0,1.0,2
2025/05/06 15:20:07.160463675,1746537607,105614607,mA1/gps,0,1,63.43464161383894,10.392547310332295,0.0,1.4400000000000002e-10,0.0,0.0,0.0,1.4400000000000002e-10,0.0,0.0,0.0,1.0,2
2025/05/06 15:20:07.199356043,1746537607,165127916,mA1/gps,0,1,63.43464161385059,10.392547311262309,0.0,1.4400000000000002e-10,0.0,0.0,0.0,1.4400000000000002e-10,0.0,0.0,0.0,1.0,2
2025/05/06 15:20:07.222500755,1746537607,207466767,mA1/gps,0,1,63.43464161368035,10.392547311028336,0.0,1.4400000000000002e-10,0.0,0.0,0.0,1.4400000000000002e-10,0.0,0.0,0.0,1.0,2
2025/05/06 15:20:07.262984983,1746537607,261271426,mA1/gps,0,1,63.434641613772534,10.392547311157772,0.0,1.4400000000000002e-10,0.0,0.0,0.0,1.4400000000000002e-10,0.0,0.0,0.0,1.0,2
2025/05/06 15:20:07.361408452,1746537607,314517779,mA1/gps,0,1,63.43464161377838,10.392547310941726,0.0,1.4400000000000002e-10,0.0,0.0,0.0,1.4400000000000002e-10,0.0,0.0,0.0,1.0,2
2025/05/06 15:20:07.468802262,1746537607,366162546,mA1/gps,0,1,63.434641613896396,10.392547311177573,0.0,1.4400000000000002e-10,0.0,0.0,0.0,1.4400000000000002e-10,0.0,0.0,0.0,1.0,2
2025/05/06 15:20:07.502871360,1746537607,408226485,mA1/gps,0,1,63.434641613583636,10.39254731092119,0.0,1.4400000000000002e-10,0.0,0.0,0.0,1.4400000000000002e-10,0.0,0.0,0.0,1.0,2
2025/05/06 15:20:07.567157298,1746537607,469677997,mA1/gps,0,1,63.43464161386855,10.392547311356516,0.0,1.4400000000000002e-10,0.0,0.0,0.0,1.4400000000000002e-10,0.0,0.0,0.0,1.0,2
2025/05/06 15:20:07.599400225,1746537607,513320251,mA1/gps,0,1,63.43464161361175,10.39254731103216,0.0,1.4400000000000002e-10,0.0,0.0,0.0,1.4400000000000002e-10,0.0,0.0,0.0,1.0,2
2025/05/06 15:20:07.623425924,1746537607,563056117,mA1/gps,0,1,63.43464161367436,10.392547310843728,0.0,1.4400000000000002e-10,0.0,0.0,0.0,1.4400000000000002e-10,0.0,0.0,0.0,1.0,2
2025/05/06 15:20:07.638819750,1746537607,607271381,mA1/gps,0,1,63.43464161363411,10.392547310881143,0.0,1.4400000000000002e-10,0.0,0.0,0.0,1.4400000000000002e-10,0.0,0.0,0.0,1.0,2
2025/05/06 15:20:07.670346844,1746537607,658205356,mA1/gps,0,1,63.434641613629395,10.39254731040848,0.0,1.4400000000000002e-10,0.0,0.0,0.0,1.4400000000000002e-10,0.0,0.0,0.0,1.0,2
2025/05/06 15:20:07.724662312,1746537607,712884963,mA1/gps,0,1,63.43464161336336,10.392547310485373,0.0,1.4400000000000002e-10,0.0,0.0,0.0,1.4400000000000002e-10,0.0,0.0,0.0,1.0,2
2025/05/06 15:20:07.787143990,1746537607,763534092,mA1/gps,0,1,63.43464161355563,10.39254731036063,0.0,1.4400000000000002e-10,0.0,0.0,0.0,1.4400000000000002e-10,0.0,0.0,0.0,1.0,2
2025/05/06 15:20:07.828243071,1746537607,813099852,mA1/gps,0,1,63.43464161353381,10.392547309522604,0.0,1.4400000000000002e-10,0.0,0.0,0.0,1.4400000000000002e-10,0.0,0.0,0.0,1.0,2
2025/05/06 15:20:07.868479674,1746537607,867934852,mA1/gps,0,1,63.43464161357346,10.392547309445971,0.0,1.4400000000000002e-10,0.0,0.0,0.0,1.4400000000000002e-10,0.0,0.0,0.0,1.0,2
2025/05/06 15:20:07.925720771,1746537607,918955723,mA1/gps,0,1,63.43464161376487,10.39254730926729,0.0,1.4400000000000002e-10,0.0,0.0,0.0,1.4400000000000002e-10,0.0,0.0,0.0,1.0,2
2025/05/06 15:20:07.961495262,1746537607,960071799,mA1/gps,0,1,63.4346416138275,10.392547308953098,0.0,1.4400000000000002e-10,0.0,0.0,0.0,1.4400000000000002e-10,0.0,0.0,0.0,1.0,2
2025/05/06 15:20:08.107029873,1746537608,13694941,mA1/gps,0,1,63.434641613672056,10.392547309489958,0.0,1.4400000000000002e-10,0.0,0.0,0.0,1.4400000000000002e-10,0.0,0.0,0.0,1.0,2
2025/05/06 15:20:08.176876797,1746537608,65390562,mA1/gps,0,1,63.43464161344935,10.392547309754674,0.0,1.4400000000000002e-10,0.0,0.0,0.0,1.4400000000000002e-10,0.0,0.0,0.0,1.0,2
2025/05/06 15:20:08.216645602,1746537608,113871197,mA1/gps,0,1,63.43464161359094,10.392547309786664,0.0,1.4400000000000002e-10,0.0,0.0,0.0,1.4400000000000002e-10,0.0,0.0,0.0,1.0,2
2025/05/06 15:20:08.245543251,1746537608,159048237,mA1/gps,0,1,63.43464161361222,10.39254731085757,0.0,1.4400000000000002e-10,0.0,0.0,0.0,1.4400000000000002e-10,0.0,0.0,0.0,1.0,2
2025/05/06 15:20:08.282305562,1746537608,209248764,mA1/gps,0,1,63.434641613324494,10.392547311160417,0.0,1.4400000000000002e-10,0.0,0.0,0.0,1.4400000000000002e-10,0.0,0.0,0.0,1.0,2
2025/05/06 15:20:08.335844014,1746537608,257602524,mA1/gps,0,1,63.43464161336323,10.392547311467768,0.0,1.4400000000000002e-10,0.0,0.0,0.0,1.4400000000000002e-10,0.0,0.0,0.0,1.0,2
2025/05/06 15:20:08.359444727,1746537608,310920533,mA1/gps,0,1,63.43464161374187,10.392547312157623,0.0,1.4400000000000002e-10,0.0,0.0,0.0,1.4400000000000002e-10,0.0,0.0,0.0,1.0,2
2025/05/06 15:20:08.403335203,1746537608,370877254,mA1/gps,0,1,63.43464161349161,10.392547312536598,0.0,1.4400000000000002e-10,0.0,0.0,0.0,1.4400000000000002e-10,0.0,0.0,0.0,1.0,2
2025/05/06 15:20:08.428902474,1746537608,416472152,mA1/gps,0,1,63.43464161346276,10.392547312449077,0.0,1.4400000000000002e-10,0.0,0.0,0.0,1.4400000000000002e-10,0.0,0.0,0.0,1.0,2
2025/05/06 15:20:08.500871427,1746537608,463658344,mA1/gps,0,1,63.43464161367657,10.39254731221902,0.0,1.4400000000000002e-10,0.0,0.0,0.0,1.4400000000000002e-10,0.0,0.0,0.0,1.0,2
2025/05/06 15:20:08.620116463,1746537608,511741644,mA1/gps,0,1,63.434641613604725,10.392547311757841,0.0,1.4400000000000002e-10,0.0,0.0,0.0,1.4400000000000002e-10,0.0,0.0,0.0,1.0,2
2025/05/06 15:20:08.695427674,1746537608,563785289,mA1/gps,0,1,63.43464161366281,10.392547311099227,0.0,1.4400000000000002e-10,0.0,0.0,0.0,1.4400000000000002e-10,0.0,0.0,0.0,1.0,2
2025/05/06 15:20:08.733129507,1746537608,613545496,mA1/gps,0,1,63.43464161351261,10.392547310450826,0.0,1.4400000000000002e-10,0.0,0.0,0.0,1.4400000000000002e-10,0.0,0.0,0.0,1.0,2
2025/05/06 15:20:08.757446105,1746537608,655582146,mA1/gps,0,1,63.43464161381258,10.392547310129459,0.0,1.4400000000000002e-10,0.0,0.0,0.0,1.4400000000000002e-10,0.0,0.0,0.0,1.0,2
2025/05/06 15:20:08.782638985,1746537608,707062175,mA1/gps,0,1,63.43464161357167,10.392547310050958,0.0,1.4400000000000002e-10,0.0,0.0,0.0,1.4400000000000002e-10,0.0,0.0,0.0,1.0,2
2025/05/06 15:20:08.825128362,1746537608,766185045,mA1/gps,0,1,63.43464161381241,10.392547309577086,0.0,1.4400000000000002e-10,0.0,0.0,0.0,1.4400000000000002e-10,0.0,0.0,0.0,1.0,2
2025/05/06 15:20:08.841466571,1746537608,809833845,mA1/gps,0,1,63.43464161364095,10.392547311218834,0.0,1.4400000000000002e-10,0.0,0.0,0.0,1.4400000000000002e-10,0.0,0.0,0.0,1.0,2
2025/05/06 15:20:08.860393756,1746537608,856125183,mA1/gps,0,1,63.43464161334838,10.392547312910848,0.0,1.4400000000000002e-10,0.0,0.0,0.0,1.4400000000000002e-10,0.0,0.0,0.0,1.0,2
2025/05/06 15:20:08.912261077,1746537608,911525049,mA1/gps,0,1,63.43464161297106,10.392547314942432,0.0,1.4400000000000002e-10,0.0,0.0,0.0,1.4400000000000002e-10,0.0,0.0,0.0,1.0,2
2025/05/06 15:20:08.960797290,1746537608,960322110,mA1/gps,0,1,63.434641612694925,10.392547317671456,0.0,1.4400000000000002e-10,0.0,0.0,0.0,1.4400000000000002e-10,0.0,0.0,0.0,1.0,2
2025/05/06 15:20:09.8383418,1746537609,6524725,mA1/gps,0,1,63.4346416123523,10.39254732115261,0.0,1.4400000000000002e-10,0.0,0.0,0.0,1.4400000000000002e-10,0.0,0.0,0.0,1.0,2
2025/05/06 15:20:09.63267980,1746537609,59105596,mA1/gps,0,1,63.43464161186357,10.392547326047607,0.0,1.4400000000000002e-10,0.0,0.0,0.0,1.4400000000000002e-10,0.0,0.0,0.0,1.0,2
2025/05/06 15:20:09.112513511,1746537609,111591438,mA1/gps,0,1,63.43464161144633,10.392547331044131,0.0,1.4400000000000002e-10,0.0,0.0,0.0,1.4400000000000002e-10,0.0,0.0,0.0,1.0,2
2025/05/06 15:20:09.166309105,1746537609,164313411,mA1/gps,0,1,63.43464161081525,10.39254733676229,0.0,1.4400000000000002e-10,0.0,0.0,0.0,1.4400000000000002e-10,0.0,0.0,0.0,1.0,2
2025/05/06 15:20:09.209435321,1746537609,209268626,mA1/gps,0,1,63.434641610159964,10.3925473426738,0.0,1.4400000000000002e-10,0.0,0.0,0.0,1.4400000000000002e-10,0.0,0.0,0.0,1.0,2
2025/05/06 15:20:09.259752205,1746537609,258512167,mA1/gps,0,1,63.4346416095762,10.392547349111405,0.0,1.4400000000000002e-10,0.0,0.0,0.0,1.4400000000000002e-10,0.0,0.0,0.0,1.0,2
2025/05/06 15:20:09.310905989,1746537609,310403742,mA1/gps,0,1,63.43464160882956,10.392547355782296,0.0,1.4400000000000002e-10,0.0,0.0,0.0,1.4400000000000002e-10,0.0,0.0,0.0,1.0,2
2025/05/06 15:20:09.368409336,1746537609,366839280,mA1/gps,0,1,63.4346416081673,10.392547361523834,0.0,1.4400000000000002e-10,0.0,0.0,0.0,1.4400000000000002e-10,0.0,0.0,0.0,1.0,2
2025/05/06 15:20:09.406483167,1746537609,405412889,mA1/gps,0,1,63.43464160742407,10.392547368616265,0.0,1.4400000000000002e-10,0.0,0.0,0.0,1.4400000000000002e-10,0.0,0.0,0.0,1.0,2
2025/05/06 15:20:09.463148305,1746537609,460409716,mA1/gps,0,1,63.43464160689506,10.39254737459497,0.0,1.4400000000000002e-10,0.0,0.0,0.0,1.4400000000000002e-10,0.0,0.0,0.0,1.0,2
2025/05/06 15:20:09.513944283,1746537609,513176530,mA1/gps,0,1,63.434641606166046,10.392547380408718,0.0,1.4400000000000002e-10,0.0,0.0,0.0,1.4400000000000002e-10,0.0,0.0,0.0,1.0,2
2025/05/06 15:20:09.568409804,1746537609,567643989,mA1/gps,0,1,63.43464160573928,10.392547386512543,0.0,1.4400000000000002e-10,0.0,0.0,0.0,1.4400000000000002e-10,0.0,0.0,0.0,1.0,2
2025/05/06 15:20:09.617183601,1746537609,614504065,mA1/gps,0,1,63.43464160519982,10.392547392230613,0.0,1.4400000000000002e-10,0.0,0.0,0.0,1.4400000000000002e-10,0.0,0.0,0.0,1.0,2
2025/05/06 15:20:09.662387639,1746537609,660830028,mA1/gps,0,1,63.43464160459873,10.392547397478213,0.0,1.4400000000000002e-10,0.0,0.0,0.0,1.4400000000000002e-10,0.0,0.0,0.0,1.0,2
2025/05/06 15:20:09.712879623,1746537609,710476884,mA1/gps,0,1,63.43464160427146,10.392547402333237,0.0,1.4400000000000002e-10,0.0,0.0,0.0,1.4400000000000002e-10,0.0,0.0,0.0,1.0,2
2025/05/06 15:20:09.761861881,1746537609,760960846,mA1/gps,0,1,63.43464160361291,10.392547406560066,0.0,1.4400000000000002e-10,0.0,0.0,0.0,1.4400000000000002e-10,0.0,0.0,0.0,1.0,2
2025/05/06 15:20:09.812522279,1746537609,812112854,mA1/gps,0,1,63.43464160333205,10.392547410583576,0.0,1.4400000000000002e-10,0.0,0.0,0.0,1.4400000000000002e-10,0.0,0.0,0.0,1.0,2
2025/05/06 15:20:09.863432282,1746537609,860023569,mA1/gps,0,1,63.43464160297735,10.392547414317022,0.0,1.4400000000000002e-10,0.0,0.0,0.0,1.4400000000000002e-10,0.0,0.0,0.0,1.0,2
2025/05/06 15:20:09.917754745,1746537609,911739057,mA1/gps,0,1,63.434641602577486,10.39254741907859,0.0,1.4400000000000002e-10,0.0,0.0,0.0,1.4400000000000002e-10,0.0,0.0,0.0,1.0,2
2025/05/06 15:20:09.963387451,1746537609,962698506,mA1/gps,0,1,63.434641602030176,10.392547422444235,0.0,1.4400000000000002e-10,0.0,0.0,0.0,1.4400000000000002e-10,0.0,0.0,0.0,1.0,2
2025/05/06 15:20:10.11085315,1746537610,7521902,mA1/gps,0,1,63.43464160175011,10.392547426274966,0.0,1.4400000000000002e-10,0.0,0.0,0.0,1.4400000000000002e-10,0.0,0.0,0.0,1.0,2
2025/05/06 15:20:10.59326018,1746537610,57046599,mA1/gps,0,1,63.434641601482376,10.392547430647037,0.0,1.4400000000000002e-10,0.0,0.0,0.0,1.4400000000000002e-10,0.0,0.0,0.0,1.0,2
2025/05/06 15:20:10.109178464,1746537610,108019549,mA1/gps,0,1,63.43464160087482,10.392547434525085,0.0,1.4400000000000002e-10,0.0,0.0,0.0,1.4400000000000002e-10,0.0,0.0,0.0,1.0,2
2025/05/06 15:20:10.179824591,1746537610,173065097,mA1/gps,0,1,63.4346416004495,10.392547439030526,0.0,1.4400000000000002e-10,0.0,0.0,0.0,1.4400000000000002e-10,0.0,0.0,0.0,1.0,2
2025/05/06 15:20:10.216810096,1746537610,209181844,mA1/gps,0,1,63.43464159979154,10.392547444548592,0.0,1.4400000000000002e-10,0.0,0.0,0.0,1.4400000000000002e-10,0.0,0.0,0.0,1.0,2
2025/05/06 15:20:10.267173360,1746537610,265002249,mA1/gps,0,1,63.434641599292306,10.392547450243265,0.0,1.4400000000000002e-10,0.0,0.0,0.0,1.4400000000000002e-10,0.0,0.0,0.0,1.0,2
2025/05/06 15:20:10.311204348,1746537610,308221999,mA1/gps,0,1,63.434641598872474,10.392547456242946,0.0,1.4400000000000002e-10,0.0,0.0,0.0,1.4400000000000002e-10,0.0,0.0,0.0,1.0,2
2025/05/06 15:20:10.361408884,1746537610,360946691,mA1/gps,0,1,63.434641598167204,10.392547462997742,0.0,1.4400000000000002e-10,0.0,0.0,0.0,1.4400000000000002e-10,0.0,0.0,0.0,1.0,2
2025/05/06 15:20:10.413273852,1746537610,410807885,mA1/gps,0,1,63.43464159722673,10.392547470256957,0.0,1.4400000000000002e-10,0.0,0.0,0.0,1.4400000000000002e-10,0.0,0.0,0.0,1.0,2
2025/05/06 15:20:10.465943292,1746537610,464456335,mA1/gps,0,1,63.434641596507106,10.39254747800626,0.0,1.4400000000000002e-10,0.0,0.0,0.0,1.4400000000000002e-10,0.0,0.0,0.0,1.0,2
2025/05/06 15:20:10.513348759,1746537610,512396965,mA1/gps,0,1,63.43464159546093,10.392547486557525,0.0,1.4400000000000002e-10,0.0,0.0,0.0,1.4400000000000002e-10,0.0,0.0,0.0,1.0,2
2025/05/06 15:20:10.565832141,1746537610,563810024,mA1/gps,0,1,63.434641594639,10.392547495264747,0.0,1.4400000000000002e-10,0.0,0.0,0.0,1.4400000000000002e-10,0.0,0.0,0.0,1.0,2
2025/05/06 15:20:10.614937579,1746537610,612215108,mA1/gps,0,1,63.43464159371641,10.392547504765897,0.0,1.4400000000000002e-10,0.0,0.0,0.0,1.4400000000000002e-10,0.0,0.0,0.0,1.0,2
2025/05/06 15:20:10.666232981,1746537610,664228502,mA1/gps,0,1,63.4346415925867,10.392547513908292,0.0,1.4400000000000002e-10,0.0,0.0,0.0,1.4400000000000002e-10,0.0,0.0,0.0,1.0,2
2025/05/06 15:20:10.707748226,1746537610,707054547,mA1/gps,0,1,63.434641591756034,10.392547523198289,0.0,1.4400000000000002e-10,0.0,0.0,0.0,1.4400000000000002e-10,0.0,0.0,0.0,1.0,2
2025/05/06 15:20:10.770393702,1746537610,768761255,mA1/gps,0,1,63.43464159088514,10.392547531752074,0.0,1.4400000000000002e-10,0.0,0.0,0.0,1.4400000000000002e-10,0.0,0.0,0.0,1.0,2
2025/05/06 15:20:10.811808667,1746537610,809147694,mA1/gps,0,1,63.43464158999038,10.392547540397441,0.0,1.4400000000000002e-10,0.0,0.0,0.0,1.4400000000000002e-10,0.0,0.0,0.0,1.0,2
2025/05/06 15:20:10.866887011,1746537610,863548559,mA1/gps,0,1,63.43464158894691,10.392547548317824,0.0,1.4400000000000002e-10,0.0,0.0,0.0,1.4400000000000002e-10,0.0,0.0,0.0,1.0,2
2025/05/06 15:20:10.916375340,1746537610,915090575,mA1/gps,0,1,63.43464158822876,10.392547555649502,0.0,1.4400000000000002e-10,0.0,0.0,0.0,1.4400000000000002e-10,0.0,0.0,0.0,1.0,2
2025/05/06 15:20:10.961897824,1746537610,960387588,mA1/gps,0,1,63.43464158768084,10.392547561914968,0.0,1.4400000000000002e-10,0.0,0.0,0.0,1.4400000000000002e-10,0.0,0.0,0.0,1.0,2
2025/05/06 15:20:11.13287296,1746537611,10397149,mA1/gps,0,1,63.434641587009324,10.392547567647787,0.0,1.4400000000000002e-10,0.0,0.0,0.0,1.4400000000000002e-10,0.0,0.0,0.0,1.0,2
2025/05/06 15:20:11.61435453,1746537611,59756276,mA1/gps,0,1,63.43464158651624,10.392547572961004,0.0,1.4400000000000002e-10,0.0,0.0,0.0,1.4400000000000002e-10,0.0,0.0,0.0,1.0,2
2025/05/06 15:20:11.109712492,1746537611,109351507,mA1/gps,0,1,63.434641585917866,10.392547576764425,0.0,1.4400000000000002e-10,0.0,0.0,0.0,1.4400000000000002e-10,0.0,0.0,0.0,1.0,2
2025/05/06 15:20:11.162562998,1746537611,160346112,mA1/gps,0,1,63.43464158571951,10.392547580570275,0.0,1.4400000000000002e-10,0.0,0.0,0.0,1.4400000000000002e-10,0.0,0.0,0.0,1.0,2
2025/05/06 15:20:11.212699714,1746537611,211590776,mA1/gps,0,1,63.434641585520424,10.39254758397705,0.0,1.4400000000000002e-10,0.0,0.0,0.0,1.4400000000000002e-10,0.0,0.0,0.0,1.0,2
2025/05/06 15:20:11.264271817,1746537611,262484557,mA1/gps,0,1,63.43464158452098,10.392547586799086,0.0,1.4400000000000002e-10,0.0,0.0,0.0,1.4400000000000002e-10,0.0,0.0,0.0,1.0,2
2025/05/06 15:20:11.312802166,1746537611,312583390,mA1/gps,0,1,63.434641583869315,10.392547590277532,0.0,1.4400000000000002e-10,0.0,0.0,0.0,1.4400000000000002e-10,0.0,0.0,0.0,1.0,2
2025/05/06 15:20:11.366777791,1746537611,365627756,mA1/gps,0,1,63.43464158317714,10.392547592728992,0.0,1.4400000000000002e-10,0.0,0.0,0.0,1.4400000000000002e-10,0.0,0.0,0.0,1.0,2
2025/05/06 15:20:11.408635475,1746537611,405574364,mA1/gps,0,1,63.434641582883465,10.392547595745734,0.0,1.4400000000000002e-10,0.0,0.0,0.0,1.4400000000000002e-10,0.0,0.0,0.0,1.0,2
2025/05/06 15:20:11.462557234,1746537611,460887808,mA1/gps,0,1,63.434641581425986,10.392547598141189,0.0,1.4400000000000002e-10,0.0,0.0,0.0,1.4400000000000002e-10,0.0,0.0,0.0,1.0,2
2025/05/06 15:20:11.510395086,1746537611,509520074,mA1/gps,0,1,63.434641579189595,10.392547599994364,0.0,1.4400000000000002e-10,0.0,0.0,0.0,1.4400000000000002e-10,0.0,0.0,0.0,1.0,2
2025/05/06 15:20:11.564885897,1746537611,560394160,mA1/gps,0,1,63.43464157530806,10.392547602344099,0.0,1.4400000000000002e-10,0.0,0.0,0.0,1.4400000000000002e-10,0.0,0.0,0.0,1.0,2
2025/05/06 15:20:11.612533168,1746537611,611419946,mA1/gps,0,1,63.43464157361665,10.392547605077803,0.0,1.4400000000000002e-10,0.0,0.0,0.0,1.4400000000000002e-10,0.0,0.0,0.0,1.0,2
2025/05/06 15:20:11.662488670,1746537611,661955006,mA1/gps,0,1,63.43464157003138,10.392547607605724,0.0,1.4400000000000002e-10,0.0,0.0,0.0,1.4400000000000002e-10,0.0,0.0,0.0,1.0,2
2025/05/06 15:20:11.713934793,1746537611,712938064,mA1/gps,0,1,63.4346415654192,10.392547610459953,0.0,1.4400000000000002e-10,0.0,0.0,0.0,1.4400000000000002e-10,0.0,0.0,0.0,1.0,2
2025/05/06 15:20:11.764596357,1746537611,764080877,mA1/gps,0,1,63.43464156211729,10.392547614736872,0.0,1.4400000000000002e-10,0.0,0.0,0.0,1.4400000000000002e-10,0.0,0.0,0.0,1.0,2
2025/05/06 15:20:11.814586858,1746537611,813820805,mA1/gps,0,1,63.43464155545919,10.392547617852403,0.0,1.4400000000000002e-10,0.0,0.0,0.0,1.4400000000000002e-10,0.0,0.0,0.0,1.0,2
2025/05/06 15:20:11.856935696,1746537611,856533272,mA1/gps,0,1,63.43464154978503,10.392547622843963,0.0,1.4400000000000002e-10,0.0,0.0,0.0,1.4400000000000002e-10,0.0,0.0,0.0,1.0,2
2025/05/06 15:20:11.907428406,1746537611,906335859,mA1/gps,0,1,63.434641543439504,10.392547627532089,0.0,1.4400000000000002e-10,0.0,0.0,0.0,1.4400000000000002e-10,0.0,0.0,0.0,1.0,2
2025/05/06 15:20:11.957892580,1746537611,956612362,mA1/gps,0,1,63.434641537395926,10.392547633361852,0.0,1.4400000000000002e-10,0.0,0.0,0.0,1.4400000000000002e-10,0.0,0.0,0.0,1.0,2
2025/05/06 15:20:12.7524165,1746537612,6826281,mA1/gps,0,1,63.43464153002151,10.392547639212582,0.0,1.4400000000000002e-10,0.0,0.0,0.0,1.4400000000000002e-10,0.0,0.0,0.0,1.0,2
2025/05/06 15:20:12.60209314,1746537612,60061573,mA1/gps,0,1,63.43464152157259,10.392547644349214,0.0,1.4400000000000002e-10,0.0,0.0,0.0,1.4400000000000002e-10,0.0,0.0,0.0,1.0,2
2025/05/06 15:20:12.110524429,1746537612,108906607,mA1/gps,0,1,63.434641512393135,10.392547649828208,0.0,1.4400000000000002e-10,0.0,0.0,0.0,1.4400000000000002e-10,0.0,0.0,0.0,1.0,2
2025/05/06 15:20:12.161802398,1746537612,159937398,mA1/gps,0,1,63.43464150336331,10.392547654837966,0.0,1.4400000000000002e-10,0.0,0.0,0.0,1.4400000000000002e-10,0.0,0.0,0.0,1.0,2
2025/05/06 15:20:12.210317194,1746537612,209780436,mA1/gps,0,1,63.43464149414271,10.392547660102753,0.0,1.4400000000000002e-10,0.0,0.0,0.0,1.4400000000000002e-10,0.0,0.0,0.0,1.0,2
2025/05/06 15:20:12.262019902,1746537612,261591988,mA1/gps,0,1,63.434641485537604,10.392547665586152,0.0,1.4400000000000002e-10,0.0,0.0,0.0,1.4400000000000002e-10,0.0,0.0,0.0,1.0,2
2025/05/06 15:20:12.314523054,1746537612,313882143,mA1/gps,0,1,63.434641475981365,10.39254766977765,0.0,1.4400000000000002e-10,0.0,0.0,0.0,1.4400000000000002e-10,0.0,0.0,0.0,1.0,2
2025/05/06 15:20:12.366884666,1746537612,364915491,mA1/gps,0,1,63.43464146562483,10.392547673446078,0.0,1.4400000000000002e-10,0.0,0.0,0.0,1.4400000000000002e-10,0.0,0.0,0.0,1.0,2
2025/05/06 15:20:12.406201539,1746537612,404641313,mA1/gps,0,1,63.43464145695258,10.392547677585025,0.0,1.4400000000000002e-10,0.0,0.0,0.0,1.4400000000000002e-10,0.0,0.0,0.0,1.0,2
2025/05/06 15:20:12.455924535,1746537612,455558196,mA1/gps,0,1,63.4346414477097,10.392547681314882,0.0,1.4400000000000002e-10,0.0,0.0,0.0,1.4400000000000002e-10,0.0,0.0,0.0,1.0,2
2025/05/06 15:20:12.507655380,1746537612,506025391,mA1/gps,0,1,63.43464143876995,10.392547683724034,0.0,1.4400000000000002e-10,0.0,0.0,0.0,1.4400000000000002e-10,0.0,0.0,0.0,1.0,2
2025/05/06 15:20:12.560150934,1746537612,559269623,mA1/gps,0,1,63.43464142867113,10.392547686123715,0.0,1.4400000000000002e-10,0.0,0.0,0.0,1.4400000000000002e-10,0.0,0.0,0.0,1.0,2
2025/05/06 15:20:12.609246994,1746537612,608761779,mA1/gps,0,1,63.43464141934348,10.392547688673204,0.0,1.4400000000000002e-10,0.0,0.0,0.0,1.4400000000000002e-10,0.0,0.0,0.0,1.0,2
2025/05/06 15:20:12.660679483,1746537612,659683112,mA1/gps,0,1,63.4346414112021,10.392547691055114,0.0,1.4400000000000002e-10,0.0,0.0,0.0,1.4400000000000002e-10,0.0,0.0,0.0,1.0,2
2025/05/06 15:20:12.713357983,1746537612,712255399,mA1/gps,0,1,63.434641401423875,10.392547692337123,0.0,1.4400000000000002e-10,0.0,0.0,0.0,1.4400000000000002e-10,0.0,0.0,0.0,1.0,2
2025/05/06 15:20:12.765848845,1746537612,763702106,mA1/gps,0,1,63.43464139166095,10.3925476936777,0.0,1.4400000000000002e-10,0.0,0.0,0.0,1.4400000000000002e-10,0.0,0.0,0.0,1.0,2
2025/05/06 15:20:12.812582267,1746537612,812241023,mA1/gps,0,1,63.434641383668705,10.392547695548522,0.0,1.4400000000000002e-10,0.0,0.0,0.0,1.4400000000000002e-10,0.0,0.0,0.0,1.0,2
2025/05/06 15:20:12.864426393,1746537612,863391403,mA1/gps,0,1,63.434641374907095,10.392547696764074,0.0,1.4400000000000002e-10,0.0,0.0,0.0,1.4400000000000002e-10,0.0,0.0,0.0,1.0,2
2025/05/06 15:20:12.913571741,1746537612,913202459,mA1/gps,0,1,63.43464136534763,10.392547698057886,0.0,1.4400000000000002e-10,0.0,0.0,0.0,1.4400000000000002e-10,0.0,0.0,0.0,1.0,2
2025/05/06 15:20:12.966845353,1746537612,965390055,mA1/gps,0,1,63.4346413555615,10.392547699568484,0.0,1.4400000000000002e-10,0.0,0.0,0.0,1.4400000000000002e-10,0.0,0.0,0.0,1.0,2
2025/05/06 15:20:13.5361658,1746537613,5117638,mA1/gps,0,1,63.43464134542901,10.392547700693969,0.0,1.4400000000000002e-10,0.0,0.0,0.0,1.4400000000000002e-10,0.0,0.0,0.0,1.0,2
2025/05/06 15:20:13.58388062,1746537613,57934508,mA1/gps,0,1,63.434641335443686,10.392547702231404,0.0,1.4400000000000002e-10,0.0,0.0,0.0,1.4400000000000002e-10,0.0,0.0,0.0,1.0,2
2025/05/06 15:20:13.109917258,1746537613,109026938,mA1/gps,0,1,63.434641324113066,10.392547703211392,0.0,1.4400000000000002e-10,0.0,0.0,0.0,1.4400000000000002e-10,0.0,0.0,0.0,1.0,2
2025/05/06 15:20:13.163190736,1746537613,162738513,mA1/gps,0,1,63.43464131309467,10.392547704831902,0.0,1.4400000000000002e-10,0.0,0.0,0.0,1.4400000000000002e-10,0.0,0.0,0.0,1.0,2
2025/05/06 15:20:13.211086874,1746537613,210675380,mA1/gps,0,1,63.43464130198647,10.392547707061699,0.0,1.4400000000000002e-10,0.0,0.0,0.0,1.4400000000000002e-10,0.0,0.0,0.0,1.0,2
2025/05/06 15:20:13.263905279,1746537613,262081760,mA1/gps,0,1,63.43464128938034,10.392547709129015,0.0,1.4400000000000002e-10,0.0,0.0,0.0,1.4400000000000002e-10,0.0,0.0,0.0,1.0,2
2025/05/06 15:20:13.313214954,1746537613,312636232,mA1/gps,0,1,63.4346412772666,10.39254771119788,0.0,1.4400000000000002e-10,0.0,0.0,0.0,1.4400000000000002e-10,0.0,0.0,0.0,1.0,2
2025/05/06 15:20:13.357580073,1746537613,357166726,mA1/gps,0,1,63.43464126392592,10.392547713102587,0.0,1.4400000000000002e-10,0.0,0.0,0.0,1.4400000000000002e-10,0.0,0.0,0.0,1.0,2
2025/05/06 15:20:13.405403940,1746537613,405112912,mA1/gps,0,1,63.43464125005592,10.392547714676503,0.0,1.4400000000000002e-10,0.0,0.0,0.0,1.4400000000000002e-10,0.0,0.0,0.0,1.0,2
2025/05/06 15:20:13.457505209,1746537613,457097694,mA1/gps,0,1,63.43464123593273,10.392547717258852,0.0,1.4400000000000002e-10,0.0,0.0,0.0,1.4400000000000002e-10,0.0,0.0,0.0,1.0,2
2025/05/06 15:20:13.506640049,1746537613,506344341,mA1/gps,0,1,63.43464122234745,10.392547720074141,0.0,1.4400000000000002e-10,0.0,0.0,0.0,1.4400000000000002e-10,0.0,0.0,0.0,1.0,2
2025/05/06 15:20:13.560102452,1746537613,558544236,mA1/gps,0,1,63.43464120646345,10.392547721973589,0.0,1.4400000000000002e-10,0.0,0.0,0.0,1.4400000000000002e-10,0.0,0.0,0.0,1.0,2
2025/05/06 15:20:13.608328260,1746537613,608230187,mA1/gps,0,1,63.43464119155947,10.39254772450267,0.0,1.4400000000000002e-10,0.0,0.0,0.0,1.4400000000000002e-10,0.0,0.0,0.0,1.0,2
2025/05/06 15:20:13.659864662,1746537613,657940236,mA1/gps,0,1,63.434641175714376,10.392547726150067,0.0,1.4400000000000002e-10,0.0,0.0,0.0,1.4400000000000002e-10,0.0,0.0,0.0,1.0,2
2025/05/06 15:20:13.711743973,1746537613,709666524,mA1/gps,0,1,63.43464115972958,10.39254772771394,0.0,1.4400000000000002e-10,0.0,0.0,0.0,1.4400000000000002e-10,0.0,0.0,0.0,1.0,2
2025/05/06 15:20:13.760479248,1746537613,758695925,mA1/gps,0,1,63.434641144549865,10.392547728929054,0.0,1.4400000000000002e-10,0.0,0.0,0.0,1.4400000000000002e-10,0.0,0.0,0.0,1.0,2
2025/05/06 15:20:13.808786243,1746537613,808539551,mA1/gps,0,1,63.434641128204255,10.392547729111449,0.0,1.4400000000000002e-10,0.0,0.0,0.0,1.4400000000000002e-10,0.0,0.0,0.0,1.0,2
2025/05/06 15:20:13.861213272,1746537613,859692989,mA1/gps,0,1,63.43464111159374,10.39254772858997,0.0,1.4400000000000002e-10,0.0,0.0,0.0,1.4400000000000002e-10,0.0,0.0,0.0,1.0,2
2025/05/06 15:20:13.912980934,1746537613,911970398,mA1/gps,0,1,63.434641095902684,10.392547727088424,0.0,1.4400000000000002e-10,0.0,0.0,0.0,1.4400000000000002e-10,0.0,0.0,0.0,1.0,2
2025/05/06 15:20:13.964161839,1746537613,962858965,mA1/gps,0,1,63.43464108046228,10.39254772557691,0.0,1.4400000000000002e-10,0.0,0.0,0.0,1.4400000000000002e-10,0.0,0.0,0.0,1.0,2
2025/05/06 15:20:14.4647214,1746537614,4380005,mA1/gps,0,1,63.43464106554029,10.392547722904165,0.0,1.4400000000000002e-10,0.0,0.0,0.0,1.4400000000000002e-10,0.0,0.0,0.0,1.0,2
2025/05/06 15:20:14.55952574,1746537614,55449704,mA1/gps,0,1,63.43464104932969,10.39254771892358,0.0,1.4400000000000002e-10,0.0,0.0,0.0,1.4400000000000002e-10,0.0,0.0,0.0,1.0,2
2025/05/06 15:20:14.106985669,1746537614,106528101,mA1/gps,0,1,63.434641034108665,10.392547715032563,0.0,1.4400000000000002e-10,0.0,0.0,0.0,1.4400000000000002e-10,0.0,0.0,0.0,1.0,2
2025/05/06 15:20:14.159160438,1746537614,157358968,mA1/gps,0,1,63.43464101849213,10.392547710464497,0.0,1.4400000000000002e-10,0.0,0.0,0.0,1.4400000000000002e-10,0.0,0.0,0.0,1.0,2
2025/05/06 15:20:14.210073439,1746537614,208410698,mA1/gps,0,1,63.43464100262369,10.392547704928099,0.0,1.4400000000000002e-10,0.0,0.0,0.0,1.4400000000000002e-10,0.0,0.0,0.0,1.0,2
2025/05/06 15:20:14.259768120,1746537614,259242014,mA1/gps,0,1,63.43464098596222,10.392547698387144,0.0,1.4400000000000002e-10,0.0,0.0,0.0,1.4400000000000002e-10,0.0,0.0,0.0,1.0,2
2025/05/06 15:20:14.309080303,1746537614,307991000,mA1/gps,0,1,63.43464096998121,10.392547692612892,0.0,1.4400000000000002e-10,0.0,0.0,0.0,1.4400000000000002e-10,0.0,0.0,0.0,1.0,2
2025/05/06 15:20:14.359857212,1746537614,359325576,mA1/gps,0,1,63.434640953552915,10.392547687118757,0.0,1.4400000000000002e-10,0.0,0.0,0.0,1.4400000000000002e-10,0.0,0.0,0.0,1.0,2
2025/05/06 15:20:14.409767683,1746537614,409101436,mA1/gps,0,1,63.43464093715508,10.392547681164581,0.0,1.4400000000000002e-10,0.0,0.0,0.0,1.4400000000000002e-10,0.0,0.0,0.0,1.0,2
2025/05/06 15:20:14.460837062,1746537614,460051786,mA1/gps,0,1,63.43464092078845,10.392547676379069,0.0,1.4400000000000002e-10,0.0,0.0,0.0,1.4400000000000002e-10,0.0,0.0,0.0,1.0,2
2025/05/06 15:20:14.513023390,1746537614,510578171,mA1/gps,0,1,63.434640903595785,10.392547671852167,0.0,1.4400000000000002e-10,0.0,0.0,0.0,1.4400000000000002e-10,0.0,0.0,0.0,1.0,2
2025/05/06 15:20:14.563836353,1746537614,561561124,mA1/gps,0,1,63.43464088612504,10.392547666916924,0.0,1.4400000000000002e-10,0.0,0.0,0.0,1.4400000000000002e-10,0.0,0.0,0.0,1.0,2
2025/05/06 15:20:14.611570394,1746537614,611364471,mA1/gps,0,1,63.43464086712374,10.392547662397154,0.0,1.4400000000000002e-10,0.0,0.0,0.0,1.4400000000000002e-10,0.0,0.0,0.0,1.0,2
2025/05/06 15:20:14.663668890,1746537614,662498554,mA1/gps,0,1,63.43464084729697,10.392547658099076,0.0,1.4400000000000002e-10,0.0,0.0,0.0,1.4400000000000002e-10,0.0,0.0,0.0,1.0,2
2025/05/06 15:20:14.715916897,1746537614,714023342,mA1/gps,0,1,63.43464082785993,10.39254765443986,0.0,1.4400000000000002e-10,0.0,0.0,0.0,1.4400000000000002e-10,0.0,0.0,0.0,1.0,2
2025/05/06 15:20:14.757478439,1746537614,756227574,mA1/gps,0,1,63.4346408092685,10.392547651598901,0.0,1.4400000000000002e-10,0.0,0.0,0.0,1.4400000000000002e-10,0.0,0.0,0.0,1.0,2
2025/05/06 15:20:14.806978222,1746537614,806316855,mA1/gps,0,1,63.43464078925276,10.392547647840582,0.0,1.4400000000000002e-10,0.0,0.0,0.0,1.4400000000000002e-10,0.0,0.0,0.0,1.0,2
2025/05/06 15:20:14.858685439,1746537614,857210917,mA1/gps,0,1,63.43464076756284,10.39254764365496,0.0,1.4400000000000002e-10,0.0,0.0,0.0,1.4400000000000002e-10,0.0,0.0,0.0,1.0,2
2025/05/06 15:20:14.911338022,1746537614,909267520,mA1/gps,0,1,63.4346407455836,10.392547639032225,0.0,1.4400000000000002e-10,0.0,0.0,0.0,1.4400000000000002e-10,0.0,0.0,0.0,1.0,2
2025/05/06 15:20:14.961540905,1746537614,960217241,mA1/gps,0,1,63.43464072404146,10.392547634712098,0.0,1.4400000000000002e-10,0.0,0.0,0.0,1.4400000000000002e-10,0.0,0.0,0.0,1.0,2
2025/05/06 15:20:15.10998828,1746537615,10603839,mA1/gps,0,1,63.434640702079335,10.392547629302237,0.0,1.4400000000000002e-10,0.0,0.0,0.0,1.4400000000000002e-10,0.0,0.0,0.0,1.0,2
2025/05/06 15:20:15.62635530,1746537615,62340729,mA1/gps,0,1,63.43464067937691,10.392547622783551,0.0,1.4400000000000002e-10,0.0,0.0,0.0,1.4400000000000002e-10,0.0,0.0,0.0,1.0,2
2025/05/06 15:20:15.113761251,1746537615,112144795,mA1/gps,0,1,63.434640656536324,10.392547615811635,0.0,1.4400000000000002e-10,0.0,0.0,0.0,1.4400000000000002e-10,0.0,0.0,0.0,1.0,2
2025/05/06 15:20:15.164585976,1746537615,163587904,mA1/gps,0,1,63.434640634522765,10.392547607821188,0.0,1.4400000000000002e-10,0.0,0.0,0.0,1.4400000000000002e-10,0.0,0.0,0.0,1.0,2
2025/05/06 15:20:15.208940069,1746537615,208673322,mA1/gps,0,1,63.43464060985893,10.392547598535364,0.0,1.4400000000000002e-10,0.0,0.0,0.0,1.4400000000000002e-10,0.0,0.0,0.0,1.0,2
2025/05/06 15:20:15.259825187,1746537615,258635097,mA1/gps,0,1,63.43464058691177,10.392547589177216,0.0,1.4400000000000002e-10,0.0,0.0,0.0,1.4400000000000002e-10,0.0,0.0,0.0,1.0,2
2025/05/06 15:20:15.312649465,1746537615,308611206,mA1/gps,0,1,63.434640564294895,10.392547579613474,0.0,1.4400000000000002e-10,0.0,0.0,0.0,1.4400000000000002e-10,0.0,0.0,0.0,1.0,2
2025/05/06 15:20:15.361591476,1746537615,360077359,mA1/gps,0,1,63.434640539023874,10.392547567705487,0.0,1.4400000000000002e-10,0.0,0.0,0.0,1.4400000000000002e-10,0.0,0.0,0.0,1.0,2
2025/05/06 15:20:15.414836763,1746537615,412482249,mA1/gps,0,1,63.43464051535216,10.392547555415078,0.0,1.4400000000000002e-10,0.0,0.0,0.0,1.4400000000000002e-10,0.0,0.0,0.0,1.0,2
2025/05/06 15:20:15.463609397,1746537615,462661560,mA1/gps,0,1,63.43464049237969,10.392547544328165,0.0,1.4400000000000002e-10,0.0,0.0,0.0,1.4400000000000002e-10,0.0,0.0,0.0,1.0,2
2025/05/06 15:20:15.514495544,1746537615,512589180,mA1/gps,0,1,63.43464046902731,10.392547532437044,0.0,1.4400000000000002e-10,0.0,0.0,0.0,1.4400000000000002e-10,0.0,0.0,0.0,1.0,2
2025/05/06 15:20:15.566689336,1746537615,564428260,mA1/gps,0,1,63.43464044526075,10.39254752028997,0.0,1.4400000000000002e-10,0.0,0.0,0.0,1.4400000000000002e-10,0.0,0.0,0.0,1.0,2
2025/05/06 15:20:15.614179430,1746537615,613853197,mA1/gps,0,1,63.434640421372954,10.392547508119003,0.0,1.4400000000000002e-10,0.0,0.0,0.0,1.4400000000000002e-10,0.0,0.0,0.0,1.0,2
2025/05/06 15:20:15.669709978,1746537615,667995213,mA1/gps,0,1,63.43464039925254,10.392547488687404,0.0,1.4400000000000002e-10,0.0,0.0,0.0,1.4400000000000002e-10,0.0,0.0,0.0,1.0,2
2025/05/06 15:20:15.708459782,1746537615,707916142,mA1/gps,0,1,63.43464037789693,10.392547467849615,0.0,1.4400000000000002e-10,0.0,0.0,0.0,1.4400000000000002e-10,0.0,0.0,0.0,1.0,2
2025/05/06 15:20:15.761593620,1746537615,760819422,mA1/gps,0,1,63.43464035557972,10.392547449695483,0.0,1.4400000000000002e-10,0.0,0.0,0.0,1.4400000000000002e-10,0.0,0.0,0.0,1.0,2
2025/05/06 15:20:15.810219183,1746537615,809171674,mA1/gps,0,1,63.434640334048794,10.392547431081798,0.0,1.4400000000000002e-10,0.0,0.0,0.0,1.4400000000000002e-10,0.0,0.0,0.0,1.0,2
2025/05/06 15:20:15.861392316,1746537615,859911087,mA1/gps,0,1,63.4346403134764,10.392547417724373,0.0,1.4400000000000002e-10,0.0,0.0,0.0,1.4400000000000002e-10,0.0,0.0,0.0,1.0,2
2025/05/06 15:20:15.909994006,1746537615,909551596,mA1/gps,0,1,63.434640293093366,10.392547407391785,0.0,1.4400000000000002e-10,0.0,0.0,0.0,1.4400000000000002e-10,0.0,0.0,0.0,1.0,2
2025/05/06 15:20:15.963886661,1746537615,961296783,mA1/gps,0,1,63.4346402717405,10.39254740073872,0.0,1.4400000000000002e-10,0.0,0.0,0.0,1.4400000000000002e-10,0.0,0.0,0.0,1.0,2
2025/05/06 15:20:16.16031522,1746537616,14510025,mA1/gps,0,1,63.43464025140811,10.392547398879188,0.0,1.4400000000000002e-10,0.0,0.0,0.0,1.4400000000000002e-10,0.0,0.0,0.0,1.0,2
2025/05/06 15:20:16.65651082,1746537616,63800351,mA1/gps,0,1,63.43464023031368,10.392547399927489,0.0,1.4400000000000002e-10,0.0,0.0,0.0,1.4400000000000002e-10,0.0,0.0,0.0,1.0,2
2025/05/06 15:20:16.115690421,1746537616,113937065,mA1/gps,0,1,63.434640211340124,10.392547402267006,0.0,1.4400000000000002e-10,0.0,0.0,0.0,1.4400000000000002e-10,0.0,0.0,0.0,1.0,2
2025/05/06 15:20:16.166973443,1746537616,165206175,mA1/gps,0,1,63.434640191027114,10.392547405722617,0.0,1.4400000000000002e-10,0.0,0.0,0.0,1.4400000000000002e-10,0.0,0.0,0.0,1.0,2
2025/05/06 15:20:16.215460154,1746537616,205768364,mA1/gps,0,1,63.43464017253947,10.392547412799617,0.0,1.4400000000000002e-10,0.0,0.0,0.0,1.4400000000000002e-10,0.0,0.0,0.0,1.0,2
2025/05/06 15:20:16.258214106,1746537616,256907863,mA1/gps,0,1,63.434640154307196,10.392547426306354,0.0,1.4400000000000002e-10,0.0,0.0,0.0,1.4400000000000002e-10,0.0,0.0,0.0,1.0,2
2025/05/06 15:20:16.307527371,1746537616,307351913,mA1/gps,0,1,63.4346401366465,10.39254743909974,0.0,1.4400000000000002e-10,0.0,0.0,0.0,1.4400000000000002e-10,0.0,0.0,0.0,1.0,2
2025/05/06 15:20:16.359662917,1746537616,358332061,mA1/gps,0,1,63.43464012081235,10.392547454978597,0.0,1.4400000000000002e-10,0.0,0.0,0.0,1.4400000000000002e-10,0.0,0.0,0.0,1.0,2
2025/05/06 15:20:16.410859344,1746537616,408298475,mA1/gps,0,1,63.434640105340485,10.39254747194614,0.0,1.4400000000000002e-10,0.0,0.0,0.0,1.4400000000000002e-10,0.0,0.0,0.0,1.0,2
2025/05/06 15:20:16.459320898,1746537616,459048486,mA1/gps,0,1,63.43464009040661,10.392547491748559,0.0,1.4400000000000002e-10,0.0,0.0,0.0,1.4400000000000002e-10,0.0,0.0,0.0,1.0,2
2025/05/06 15:20:16.509914965,1746537616,509346616,mA1/gps,0,1,63.43464007798088,10.392547516322855,0.0,1.4400000000000002e-10,0.0,0.0,0.0,1.4400000000000002e-10,0.0,0.0,0.0,1.0,2
2025/05/06 15:20:16.561549550,1746537616,560183538,mA1/gps,0,1,63.434640064360835,10.392547535918673,0.0,1.4400000000000002e-10,0.0,0.0,0.0,1.4400000000000002e-10,0.0,0.0,0.0,1.0,2
2025/05/06 15:20:16.614174906,1746537616,611457019,mA1/gps,0,1,63.43464005314337,10.392547553236206,0.0,1.4400000000000002e-10,0.0,0.0,0.0,1.4400000000000002e-10,0.0,0.0,0.0,1.0,2
2025/05/06 15:20:16.664244373,1746537616,663459487,mA1/gps,0,1,63.43464004337116,10.392547571512333,0.0,1.4400000000000002e-10,0.0,0.0,0.0,1.4400000000000002e-10,0.0,0.0,0.0,1.0,2
2025/05/06 15:20:16.713817649,1746537616,713326111,mA1/gps,0,1,63.43464003551479,10.392547592111185,0.0,1.4400000000000002e-10,0.0,0.0,0.0,1.4400000000000002e-10,0.0,0.0,0.0,1.0,2
2025/05/06 15:20:16.765878057,1746537616,764562084,mA1/gps,0,1,63.43464002910411,10.392547613196404,0.0,1.4400000000000002e-10,0.0,0.0,0.0,1.4400000000000002e-10,0.0,0.0,0.0,1.0,2
2025/05/06 15:20:16.806000575,1746537616,805416454,mA1/gps,0,1,63.43464002329931,10.392547632221333,0.0,1.4400000000000002e-10,0.0,0.0,0.0,1.4400000000000002e-10,0.0,0.0,0.0,1.0,2
2025/05/06 15:20:16.858056058,1746537616,856364183,mA1/gps,0,1,63.434640016549736,10.39254764551657,0.0,1.4400000000000002e-10,0.0,0.0,0.0,1.4400000000000002e-10,0.0,0.0,0.0,1.0,2
2025/05/06 15:20:16.907683081,1746537616,906101503,mA1/gps,0,1,63.4346400135099,10.392547663525635,0.0,1.4400000000000002e-10,0.0,0.0,0.0,1.4400000000000002e-10,0.0,0.0,0.0,1.0,2
2025/05/06 15:20:16.960743527,1746537616,958570905,mA1/gps,0,1,63.43464001166327,10.392547679345952,0.0,1.4400000000000002e-10,0.0,0.0,0.0,1.4400000000000002e-10,0.0,0.0,0.0,1.0,2
2025/05/06 15:20:17.8509878,1746537617,8231354,mA1/gps,0,1,63.43464000650821,10.3925476931912,0.0,1.4400000000000002e-10,0.0,0.0,0.0,1.4400000000000002e-10,0.0,0.0,0.0,1.0,2
2025/05/06 15:20:17.60109985,1746537617,59449113,mA1/gps,0,1,63.434640007776494,10.392547713527328,0.0,1.4400000000000002e-10,0.0,0.0,0.0,1.4400000000000002e-10,0.0,0.0,0.0,1.0,2
2025/05/06 15:20:17.109318946,1746537617,109029879,mA1/gps,0,1,63.434640005628296,10.392547730640118,0.0,1.4400000000000002e-10,0.0,0.0,0.0,1.4400000000000002e-10,0.0,0.0,0.0,1.0,2
2025/05/06 15:20:17.161967563,1746537617,160319528,mA1/gps,0,1,63.43464000272061,10.392547744828502,0.0,1.4400000000000002e-10,0.0,0.0,0.0,1.4400000000000002e-10,0.0,0.0,0.0,1.0,2
2025/05/06 15:20:17.215455816,1746537617,212520871,mA1/gps,0,1,63.43464000069764,10.39254775583292,0.0,1.4400000000000002e-10,0.0,0.0,0.0,1.4400000000000002e-10,0.0,0.0,0.0,1.0,2
2025/05/06 15:20:17.265451110,1746537617,263645682,mA1/gps,0,1,63.434639998261126,10.392547764851212,0.0,1.4400000000000002e-10,0.0,0.0,0.0,1.4400000000000002e-10,0.0,0.0,0.0,1.0,2
2025/05/06 15:20:17.313451305,1746537617,313159253,mA1/gps,0,1,63.43463999432844,10.392547775868154,0.0,1.4400000000000002e-10,0.0,0.0,0.0,1.4400000000000002e-10,0.0,0.0,0.0,1.0,2
2025/05/06 15:20:17.365419844,1746537617,364775252,mA1/gps,0,1,63.43463999105613,10.392547790869555,0.0,1.4400000000000002e-10,0.0,0.0,0.0,1.4400000000000002e-10,0.0,0.0,0.0,1.0,2
2025/05/06 15:20:17.405232003,1746537617,404539450,mA1/gps,0,1,63.43463998706902,10.392547804271588,0.0,1.4400000000000002e-10,0.0,0.0,0.0,1.4400000000000002e-10,0.0,0.0,0.0,1.0,2
2025/05/06 15:20:17.459020804,1746537617,457002576,mA1/gps,0,1,63.43463998341731,10.392547822468865,0.0,1.4400000000000002e-10,0.0,0.0,0.0,1.4400000000000002e-10,0.0,0.0,0.0,1.0,2
2025/05/06 15:20:17.506204730,1746537617,505969130,mA1/gps,0,1,63.434639979062815,10.392547839680688,0.0,1.4400000000000002e-10,0.0,0.0,0.0,1.4400000000000002e-10,0.0,0.0,0.0,1.0,2
2025/05/06 15:20:17.558053220,1746537617,557109343,mA1/gps,0,1,63.43463997357982,10.39254785826401,0.0,1.4400000000000002e-10,0.0,0.0,0.0,1.4400000000000002e-10,0.0,0.0,0.0,1.0,2
2025/05/06 15:20:17.610033285,1746537617,609552490,mA1/gps,0,1,63.434639966716844,10.392547877450715,0.0,1.4400000000000002e-10,0.0,0.0,0.0,1.4400000000000002e-10,0.0,0.0,0.0,1.0,2
2025/05/06 15:20:17.661252538,1746537617,660825309,mA1/gps,0,1,63.434639959107386,10.392547899744162,0.0,1.4400000000000002e-10,0.0,0.0,0.0,1.4400000000000002e-10,0.0,0.0,0.0,1.0,2
2025/05/06 15:20:17.711693229,1746537617,710504657,mA1/gps,0,1,63.434639952210915,10.392547923176563,0.0,1.4400000000000002e-10,0.0,0.0,0.0,1.4400000000000002e-10,0.0,0.0,0.0,1.0,2
2025/05/06 15:20:17.762978390,1746537617,762402754,mA1/gps,0,1,63.434639945106476,10.392547947850408,0.0,1.4400000000000002e-10,0.0,0.0,0.0,1.4400000000000002e-10,0.0,0.0,0.0,1.0,2
2025/05/06 15:20:17.814649457,1746537617,813653922,mA1/gps,0,1,63.434639937118675,10.392547974163882,0.0,1.4400000000000002e-10,0.0,0.0,0.0,1.4400000000000002e-10,0.0,0.0,0.0,1.0,2
2025/05/06 15:20:17.866286033,1746537617,865316803,mA1/gps,0,1,63.43463992781358,10.392547999086927,0.0,1.4400000000000002e-10,0.0,0.0,0.0,1.4400000000000002e-10,0.0,0.0,0.0,1.0,2
2025/05/06 15:20:17.906254483,1746537617,905086983,mA1/gps,0,1,63.43463991843188,10.392548020487531,0.0,1.4400000000000002e-10,0.0,0.0,0.0,1.4400000000000002e-10,0.0,0.0,0.0,1.0,2
2025/05/06 15:20:17.957430895,1746537617,956264776,mA1/gps,0,1,63.434639907293544,10.392548043629864,0.0,1.4400000000000002e-10,0.0,0.0,0.0,1.4400000000000002e-10,0.0,0.0,0.0,1.0,2
2025/05/06 15:20:18.9145500,1746537618,6872515,mA1/gps,0,1,63.43463989726295,10.392548064824519,0.0,1.4400000000000002e-10,0.0,0.0,0.0,1.4400000000000002e-10,0.0,0.0,0.0,1.0,2
2025/05/06 15:20:18.59299343,1746537618,57803795,mA1/gps,0,1,63.4346398864551,10.392548086675708,0.0,1.4400000000000002e-10,0.0,0.0,0.0,1.4400000000000002e-10,0.0,0.0,0.0,1.0,2
2025/05/06 15:20:18.109734405,1746537618,107560547,mA1/gps,0,1,63.434639876127804,10.392548110380899,0.0,1.4400000000000002e-10,0.0,0.0,0.0,1.4400000000000002e-10,0.0,0.0,0.0,1.0,2
2025/05/06 15:20:18.159114648,1746537618,158513960,mA1/gps,0,1,63.434639866727814,10.392548130233358,0.0,1.4400000000000002e-10,0.0,0.0,0.0,1.4400000000000002e-10,0.0,0.0,0.0,1.0,2
2025/05/06 15:20:18.209613415,1746537618,209080540,mA1/gps,0,1,63.434639856024305,10.39254815060919,0.0,1.4400000000000002e-10,0.0,0.0,0.0,1.4400000000000002e-10,0.0,0.0,0.0,1.0,2
2025/05/06 15:20:18.259767467,1746537618,259427069,mA1/gps,0,1,63.434639846415244,10.392548171657934,0.0,1.4400000000000002e-10,0.0,0.0,0.0,1.4400000000000002e-10,0.0,0.0,0.0,1.0,2
2025/05/06 15:20:18.309871143,1746537618,309270801,mA1/gps,0,1,63.434639837646934,10.392548194058278,0.0,1.4400000000000002e-10,0.0,0.0,0.0,1.4400000000000002e-10,0.0,0.0,0.0,1.0,2
2025/05/06 15:20:18.362048090,1746537618,360384725,mA1/gps,0,1,63.43463982834707,10.392548214630423,0.0,1.4400000000000002e-10,0.0,0.0,0.0,1.4400000000000002e-10,0.0,0.0,0.0,1.0,2
2025/05/06 15:20:18.411891957,1746537618,411177413,mA1/gps,0,1,63.43463981964914,10.392548232438886,0.0,1.4400000000000002e-10,0.0,0.0,0.0,1.4400000000000002e-10,0.0,0.0,0.0,1.0,2
2025/05/06 15:20:18.465623323,1746537618,462193338,mA1/gps,0,1,63.43463981010201,10.392548249277066,0.0,1.4400000000000002e-10,0.0,0.0,0.0,1.4400000000000002e-10,0.0,0.0,0.0,1.0,2
2025/05/06 15:20:18.512433307,1746537618,512001986,mA1/gps,0,1,63.43463980232901,10.392548267495176,0.0,1.4400000000000002e-10,0.0,0.0,0.0,1.4400000000000002e-10,0.0,0.0,0.0,1.0,2
2025/05/06 15:20:18.566292858,1746537618,562918848,mA1/gps,0,1,63.4346397936816,10.39254828475708,0.0,1.4400000000000002e-10,0.0,0.0,0.0,1.4400000000000002e-10,0.0,0.0,0.0,1.0,2
2025/05/06 15:20:18.613844527,1746537618,613284084,mA1/gps,0,1,63.4346397846944,10.392548298680731,0.0,1.4400000000000002e-10,0.0,0.0,0.0,1.4400000000000002e-10,0.0,0.0,0.0,1.0,2
2025/05/06 15:20:18.665847802,1746537618,664040527,mA1/gps,0,1,63.43463977739908,10.392548313696311,0.0,1.4400000000000002e-10,0.0,0.0,0.0,1.4400000000000002e-10,0.0,0.0,0.0,1.0,2
2025/05/06 15:20:18.714615563,1746537618,714055766,mA1/gps,0,1,63.43463976939384,10.39254832934469,0.0,1.4400000000000002e-10,0.0,0.0,0.0,1.4400000000000002e-10,0.0,0.0,0.0,1.0,2
2025/05/06 15:20:18.765996184,1746537618,765329923,mA1/gps,0,1,63.43463976252024,10.39254834688224,0.0,1.4400000000000002e-10,0.0,0.0,0.0,1.4400000000000002e-10,0.0,0.0,0.0,1.0,2
2025/05/06 15:20:18.808145091,1746537618,806544125,mA1/gps,0,1,63.43463975441539,10.39254836157691,0.0,1.4400000000000002e-10,0.0,0.0,0.0,1.4400000000000002e-10,0.0,0.0,0.0,1.0,2
2025/05/06 15:20:18.857658872,1746537618,856104058,mA1/gps,0,1,63.434639746404244,10.39254837639031,0.0,1.4400000000000002e-10,0.0,0.0,0.0,1.4400000000000002e-10,0.0,0.0,0.0,1.0,2
2025/05/06 15:20:18.906233756,1746537618,905966451,mA1/gps,0,1,63.43463974010479,10.392548392182007,0.0,1.4400000000000002e-10,0.0,0.0,0.0,1.4400000000000002e-10,0.0,0.0,0.0,1.0,2
2025/05/06 15:20:18.959823963,1746537618,959130073,mA1/gps,0,1,63.434639733377004,10.392548407430336,0.0,1.4400000000000002e-10,0.0,0.0,0.0,1.4400000000000002e-10,0.0,0.0,0.0,1.0,2
2025/05/06 15:20:19.9881043,1746537619,8751978,mA1/gps,0,1,63.4346397251778,10.392548422357628,0.0,1.4400000000000002e-10,0.0,0.0,0.0,1.4400000000000002e-10,0.0,0.0,0.0,1.0,2
2025/05/06 15:20:19.59028435,1746537619,58661384,mA1/gps,0,1,63.4346397174612,10.392548436025786,0.0,1.4400000000000002e-10,0.0,0.0,0.0,1.4400000000000002e-10,0.0,0.0,0.0,1.0,2
2025/05/06 15:20:19.109329021,1746537619,108662424,mA1/gps,0,1,63.43463971043996,10.392548452686622,0.0,1.4400000000000002e-10,0.0,0.0,0.0,1.4400000000000002e-10,0.0,0.0,0.0,1.0,2
2025/05/06 15:20:19.160481727,1746537619,159638106,mA1/gps,0,1,63.434639703006475,10.392548470011842,0.0,1.4400000000000002e-10,0.0,0.0,0.0,1.4400000000000002e-10,0.0,0.0,0.0,1.0,2
2025/05/06 15:20:19.216118057,1746537619,212668314,mA1/gps,0,1,63.434639695586505,10.392548485898152,0.0,1.4400000000000002e-10,0.0,0.0,0.0,1.4400000000000002e-10,0.0,0.0,0.0,1.0,2
2025/05/06 15:20:19.259070178,1746537619,258769890,mA1/gps,0,1,63.434639688895096,10.39254850179618,0.0,1.4400000000000002e-10,0.0,0.0,0.0,1.4400000000000002e-10,0.0,0.0,0.0,1.0,2
2025/05/06 15:20:19.311315504,1746537619,308632041,mA1/gps,0,1,63.43463968192566,10.392548519390466,0.0,1.4400000000000002e-10,0.0,0.0,0.0,1.4400000000000002e-10,0.0,0.0,0.0,1.0,2
2025/05/06 15:20:19.360550207,1746537619,359553622,mA1/gps,0,1,63.43463967404322,10.392548535995369,0.0,1.4400000000000002e-10,0.0,0.0,0.0,1.4400000000000002e-10,0.0,0.0,0.0,1.0,2
2025/05/06 15:20:19.412106082,1746537619,410952026,mA1/gps,0,1,63.43463966585034,10.39254855391536,0.0,1.4400000000000002e-10,0.0,0.0,0.0,1.4400000000000002e-10,0.0,0.0,0.0,1.0,2
2025/05/06 15:20:19.465537302,1746537619,463355387,mA1/gps,0,1,63.434639658957785,10.39254857340355,0.0,1.4400000000000002e-10,0.0,0.0,0.0,1.4400000000000002e-10,0.0,0.0,0.0,1.0,2
2025/05/06 15:20:19.513462423,1746537619,513082526,mA1/gps,0,1,63.43463965181096,10.392548592092792,0.0,1.4400000000000002e-10,0.0,0.0,0.0,1.4400000000000002e-10,0.0,0.0,0.0,1.0,2
2025/05/06 15:20:19.565453969,1746537619,565059198,mA1/gps,0,1,63.43463964356151,10.392548611390467,0.0,1.4400000000000002e-10,0.0,0.0,0.0,1.4400000000000002e-10,0.0,0.0,0.0,1.0,2
2025/05/06 15:20:19.616428423,1746537619,613766910,mA1/gps,0,1,63.43463963457759,10.392548630496602,0.0,1.4400000000000002e-10,0.0,0.0,0.0,1.4400000000000002e-10,0.0,0.0,0.0,1.0,2
2025/05/06 15:20:19.657754440,1746537619,657506194,mA1/gps,0,1,63.4346396272275,10.3925486501066,0.0,1.4400000000000002e-10,0.0,0.0,0.0,1.4400000000000002e-10,0.0,0.0,0.0,1.0,2
2025/05/06 15:20:19.705191937,1746537619,704889045,mA1/gps,0,1,63.434639618606404,10.392548667279932,0.0,1.4400000000000002e-10,0.0,0.0,0.0,1.4400000000000002e-10,0.0,0.0,0.0,1.0,2
2025/05/06 15:20:19.758225023,1746537619,756171538,mA1/gps,0,1,63.4346396103543,10.392548682006732,0.0,1.4400000000000002e-10,0.0,0.0,0.0,1.4400000000000002e-10,0.0,0.0,0.0,1.0,2
2025/05/06 15:20:19.810019071,1746537619,807948159,mA1/gps,0,1,63.43463960078498,10.392548695712156,0.0,1.4400000000000002e-10,0.0,0.0,0.0,1.4400000000000002e-10,0.0,0.0,0.0,1.0,2
2025/05/06 15:20:19.857453659,1746537619,856958944,mA1/gps,0,1,63.4346395919193,10.392548709620018,0.0,1.4400000000000002e-10,0.0,0.0,0.0,1.4400000000000002e-10,0.0,0.0,0.0,1.0,2
2025/05/06 15:20:19.907232522,1746537619,906849648,mA1/gps,0,1,63.434639583339404,10.392548724001175,0.0,1.4400000000000002e-10,0.0,0.0,0.0,1.4400000000000002e-10,0.0,0.0,0.0,1.0,2
2025/05/06 15:20:19.958814472,1746537619,957854500,mA1/gps,0,1,63.43463957336949,10.392548737738442,0.0,1.4400000000000002e-10,0.0,0.0,0.0,1.4400000000000002e-10,0.0,0.0,0.0,1.0,2
2025/05/06 15:20:20.9250843,1746537620,8437987,mA1/gps,0,1,63.43463956286068,10.392548750409338,0.0,1.4400000000000002e-10,0.0,0.0,0.0,1.4400000000000002e-10,0.0,0.0,0.0,1.0,2
2025/05/06 15:20:20.60376131,1746537620,59972142,mA1/gps,0,1,63.434639553120796,10.392548762951556,0.0,1.4400000000000002e-10,0.0,0.0,0.0,1.4400000000000002e-10,0.0,0.0,0.0,1.0,2
2025/05/06 15:20:20.111427144,1746537620,111171347,mA1/gps,0,1,63.434639543729205,10.392548774661803,0.0,1.4400000000000002e-10,0.0,0.0,0.0,1.4400000000000002e-10,0.0,0.0,0.0,1.0,2
2025/05/06 15:20:20.165607296,1746537620,161434501,mA1/gps,0,1,63.43463953359468,10.39254878450908,0.0,1.4400000000000002e-10,0.0,0.0,0.0,1.4400000000000002e-10,0.0,0.0,0.0,1.0,2
2025/05/06 15:20:20.212485471,1746537620,211593066,mA1/gps,0,1,63.43463952680715,10.392548803168188,0.0,1.4400000000000002e-10,0.0,0.0,0.0,1.4400000000000002e-10,0.0,0.0,0.0,1.0,2
2025/05/06 15:20:20.263275649,1746537620,262645299,mA1/gps,0,1,63.434639519411846,10.392548820488582,0.0,1.4400000000000002e-10,0.0,0.0,0.0,1.4400000000000002e-10,0.0,0.0,0.0,1.0,2
2025/05/06 15:20:20.312529967,1746537620,312344082,mA1/gps,0,1,63.43463951246508,10.392548837273184,0.0,1.4400000000000002e-10,0.0,0.0,0.0,1.4400000000000002e-10,0.0,0.0,0.0,1.0,2
2025/05/06 15:20:20.356895630,1746537620,355852560,mA1/gps,0,1,63.43463950519538,10.392548852528224,0.0,1.4400000000000002e-10,0.0,0.0,0.0,1.4400000000000002e-10,0.0,0.0,0.0,1.0,2
2025/05/06 15:20:20.407255908,1746537620,406382068,mA1/gps,0,1,63.43463949775192,10.392548866514701,0.0,1.4400000000000002e-10,0.0,0.0,0.0,1.4400000000000002e-10,0.0,0.0,0.0,1.0,2
2025/05/06 15:20:20.462075177,1746537620,458512119,mA1/gps,0,1,63.43463948995617,10.39254887940092,0.0,1.4400000000000002e-10,0.0,0.0,0.0,1.4400000000000002e-10,0.0,0.0,0.0,1.0,2
2025/05/06 15:20:20.509522594,1746537620,507441245,mA1/gps,0,1,63.43463948169122,10.392548890866108,0.0,1.4400000000000002e-10,0.0,0.0,0.0,1.4400000000000002e-10,0.0,0.0,0.0,1.0,2
2025/05/06 15:20:20.559630804,1746537620,558300392,mA1/gps,0,1,63.43463947284988,10.392548903122256,0.0,1.4400000000000002e-10,0.0,0.0,0.0,1.4400000000000002e-10,0.0,0.0,0.0,1.0,2
2025/05/06 15:20:20.609673449,1746537620,608111066,mA1/gps,0,1,63.434639464511164,10.39254891410374,0.0,1.4400000000000002e-10,0.0,0.0,0.0,1.4400000000000002e-10,0.0,0.0,0.0,1.0,2
2025/05/06 15:20:20.660598196,1746537620,660316169,mA1/gps,0,1,63.43463945525172,10.39254892459382,0.0,1.4400000000000002e-10,0.0,0.0,0.0,1.4400000000000002e-10,0.0,0.0,0.0,1.0,2
2025/05/06 15:20:20.714637864,1746537620,710879711,mA1/gps,0,1,63.434639444483985,10.39254893473272,0.0,1.4400000000000002e-10,0.0,0.0,0.0,1.4400000000000002e-10,0.0,0.0,0.0,1.0,2
2025/05/06 15:20:20.763314356,1746537620,762094326,mA1/gps,0,1,63.43463943401331,10.392548945668159,0.0,1.4400000000000002e-10,0.0,0.0,0.0,1.4400000000000002e-10,0.0,0.0,0.0,1.0,2
2025/05/06 15:20:20.813215334,1746537620,812315718,mA1/gps,0,1,63.43463942254545,10.392548955590222,0.0,1.4400000000000002e-10,0.0,0.0,0.0,1.4400000000000002e-10,0.0,0.0,0.0,1.0,2
2025/05/06 15:20:20.863869897,1746537620,863085453,mA1/gps,0,1,63.434639410814086,10.392548965971605,0.0,1.4400000000000002e-10,0.0,0.0,0.0,1.4400000000000002e-10,0.0,0.0,0.0,1.0,2
2025/05/06 15:20:20.913076840,1746537620,912867479,mA1/gps,0,1,63.434639396501225,10.392548975444006,0.0,1.4400000000000002e-10,0.0,0.0,0.0,1.4400000000000002e-10,0.0,0.0,0.0,1.0,2
2025/05/06 15:20:20.966717107,1746537620,966439108,mA1/gps,0,1,63.434639384531124,10.392548986486347,0.0,1.4400000000000002e-10,0.0,0.0,0.0,1.4400000000000002e-10,0.0,0.0,0.0,1.0,2
2025/05/06 15:20:21.6137748,1746537621,5836527,mA1/gps,0,1,63.43463936941631,10.392548995603498,0.0,1.4400000000000002e-10,0.0,0.0,0.0,1.4400000000000002e-10,0.0,0.0,0.0,1.0,2
2025/05/06 15:20:21.60392091,1746537621,60061246,mA1/gps,0,1,63.434639353313095,10.392549004437551,0.0,1.4400000000000002e-10,0.0,0.0,0.0,1.4400000000000002e-10,0.0,0.0,0.0,1.0,2
2025/05/06 15:20:21.110588682,1746537621,110105057,mA1/gps,0,1,63.43463933603026,10.392549012713314,0.0,1.4400000000000002e-10,0.0,0.0,0.0,1.4400000000000002e-10,0.0,0.0,0.0,1.0,2
2025/05/06 15:20:21.163251522,1746537621,161140039,mA1/gps,0,1,63.43463931979515,10.39254902106212,0.0,1.4400000000000002e-10,0.0,0.0,0.0,1.4400000000000002e-10,0.0,0.0,0.0,1.0,2
2025/05/06 15:20:21.212735511,1746537621,211912235,mA1/gps,0,1,63.43463930219823,10.392549026028915,0.0,1.4400000000000002e-10,0.0,0.0,0.0,1.4400000000000002e-10,0.0,0.0,0.0,1.0,2
2025/05/06 15:20:21.264339360,1746537621,262776935,mA1/gps,0,1,63.43463928494027,10.392549025532528,0.0,1.4400000000000002e-10,0.0,0.0,0.0,1.4400000000000002e-10,0.0,0.0,0.0,1.0,2
2025/05/06 15:20:21.312950969,1746537621,312660593,mA1/gps,0,1,63.434639268681465,10.392549025385291,0.0,1.4400000000000002e-10,0.0,0.0,0.0,1.4400000000000002e-10,0.0,0.0,0.0,1.0,2
2025/05/06 15:20:21.364785041,1746537621,363706741,mA1/gps,0,1,63.43463925186071,10.392549024916896,0.0,1.4400000000000002e-10,0.0,0.0,0.0,1.4400000000000002e-10,0.0,0.0,0.0,1.0,2
2025/05/06 15:20:21.415433118,1746537621,413924976,mA1/gps,0,1,63.43463923513792,10.392549024863369,0.0,1.4400000000000002e-10,0.0,0.0,0.0,1.4400000000000002e-10,0.0,0.0,0.0,1.0,2
2025/05/06 15:20:21.455998386,1746537621,455477988,mA1/gps,0,1,63.4346392188133,10.392549026622248,0.0,1.4400000000000002e-10,0.0,0.0,0.0,1.4400000000000002e-10,0.0,0.0,0.0,1.0,2
2025/05/06 15:20:21.505646701,1746537621,505227526,mA1/gps,0,1,63.43463920377657,10.392549031329926,0.0,1.4400000000000002e-10,0.0,0.0,0.0,1.4400000000000002e-10,0.0,0.0,0.0,1.0,2
2025/05/06 15:20:21.557479691,1746537621,556174620,mA1/gps,0,1,63.434639189262434,10.392549038844125,0.0,1.4400000000000002e-10,0.0,0.0,0.0,1.4400000000000002e-10,0.0,0.0,0.0,1.0,2
2025/05/06 15:20:21.609458242,1746537621,608640283,mA1/gps,0,1,63.43463917616353,10.392549049977545,0.0,1.4400000000000002e-10,0.0,0.0,0.0,1.4400000000000002e-10,0.0,0.0,0.0,1.0,2
2025/05/06 15:20:21.660365863,1746537621,659771587,mA1/gps,0,1,63.43463916440836,10.39254906417247,0.0,1.4400000000000002e-10,0.0,0.0,0.0,1.4400000000000002e-10,0.0,0.0,0.0,1.0,2
2025/05/06 15:20:21.709736801,1746537621,709488364,mA1/gps,0,1,63.43463915392889,10.392549080362429,0.0,1.4400000000000002e-10,0.0,0.0,0.0,1.4400000000000002e-10,0.0,0.0,0.0,1.0,2
2025/05/06 15:20:21.763651865,1746537621,760574924,mA1/gps,0,1,63.43463914505426,10.392549098005611,0.0,1.4400000000000002e-10,0.0,0.0,0.0,1.4400000000000002e-10,0.0,0.0,0.0,1.0,2
2025/05/06 15:20:21.810799597,1746537621,807794284,mA1/gps,0,1,63.43463913738323,10.39254911767346,0.0,1.4400000000000002e-10,0.0,0.0,0.0,1.4400000000000002e-10,0.0,0.0,0.0,1.0,2
2025/05/06 15:20:21.859249838,1746537621,857386744,mA1/gps,0,1,63.43463913202176,10.392549137652596,0.0,1.4400000000000002e-10,0.0,0.0,0.0,1.4400000000000002e-10,0.0,0.0,0.0,1.0,2
2025/05/06 15:20:21.907616316,1746537621,907190936,mA1/gps,0,1,63.43463912636226,10.392549154414032,0.0,1.4400000000000002e-10,0.0,0.0,0.0,1.4400000000000002e-10,0.0,0.0,0.0,1.0,2
2025/05/06 15:20:21.959257997,1746537621,958094480,mA1/gps,0,1,63.434639121385494,10.392549172542983,0.0,1.4400000000000002e-10,0.0,0.0,0.0,1.4400000000000002e-10,0.0,0.0,0.0,1.0,2
2025/05/06 15:20:22.13653422,1746537622,12754173,mA1/gps,0,1,63.43463911853829,10.392549189771144,0.0,1.4400000000000002e-10,0.0,0.0,0.0,1.4400000000000002e-10,0.0,0.0,0.0,1.0,2
2025/05/06 15:20:22.62949989,1746537622,62155875,mA1/gps,0,1,63.434639116330004,10.392549206551367,0.0,1.4400000000000002e-10,0.0,0.0,0.0,1.4400000000000002e-10,0.0,0.0,0.0,1.0,2
