time,header_stamp_secs,header_stamp_nsecs,header_frame_id,orientation_x,orientation_y,orientation_z,orientation_w,orientation_covariance_0,orientation_covariance_1,orientation_covariance_2,orientation_covariance_3,orientation_covariance_4,orientation_covariance_5,orientation_covariance_6,orientation_covariance_7,orientation_covariance_8,angular_velocity_x,angular_velocity_y,angular_velocity_z,angular_velocity_covariance_0,angular_velocity_covariance_1,angular_velocity_covariance_2,angular_velocity_covariance_3,angular_velocity_covariance_4,angular_velocity_covariance_5,angular_velocity_covariance_6,angular_velocity_covariance_7,angular_velocity_covariance_8,linear_acceleration_x,linear_acceleration_y,linear_acceleration_z,linear_acceleration_covariance_0,linear_acceleration_covariance_1,linear_acceleration_covariance_2,linear_acceleration_covariance_3,linear_acceleration_covariance_4,linear_acceleration_covariance_5,linear_acceleration_covariance_6,linear_acceleration_covariance_7,linear_acceleration_covariance_8
2025/05/06 15:20:05.569538196,1746537605,568577945,mA1/imu,0.7767231629436091,-0.6298415160676841,-0.0008125763313461135,0.00036401118456817126,0.0,0.0,0.0,0.0,0.0,0.0,0.0,0.0,0.0,2.0133164035166362e-05,6.183526421588103e-06,-2.7076439250936927e-08,0.0,0.0,0.0,0.0,0.0,0.0,0.0,0.0,0.0,0.007898352011713593,-0.015322778684666517,9.809055726860187,0.0,0.0,0.0,0.0,0.0,0.0,0.0,0.0,0.0
2025/05/06 15:20:05.633531103,1746537605,620599735,mA1/imu,0.7767231636485727,-0.6298415158566041,-0.0008121828711162564,0.0003637501773014614,0.0,0.0,0.0,0.0,0.0,0.0,0.0,0.0,0.0,1.749017255530789e-05,5.271832467009329e-06,-2.76287386129697e-08,0.0,0.0,0.0,0.0,0.0,0.0,0.0,0.0,0.0,0.007895211965629341,-0.015331068116387056,9.80870439095922,0.0,0.0,0.0,0.0,0.0,0.0,0.0,0.0,0.0
2025/05/06 15:20:05.669424000,1746537605,664708615,mA1/imu,0.7767231642724721,-0.6298415155773516,-0.0008118867406325502,0.00036356251644476987,0.0,0.0,0.0,0.0,0.0,0.0,0.0,0.0,0.0,1.130032340605925e-05,3.851531862585271e-06,-2.571469502841711e-08,0.0,0.0,0.0,0.0,0.0,0.0,0.0,0.0,0.0,0.007899923643600029,-0.015939009862042948,9.811201884317677,0.0,0.0,0.0,0.0,0.0,0.0,0.0,0.0,0.0
2025/05/06 15:20:05.721886426,1746537605,719351430,mA1/imu,0.7767231648105135,-0.6298415153032344,-0.0008116573141145508,0.0003634001513611679,0.0,0.0,0.0,0.0,0.0,0.0,0.0,0.0,0.0,8.68277388290026e-06,2.569616277060685e-06,-2.216180594639298e-08,0.0,0.0,0.0,0.0,0.0,0.0,0.0,0.0,0.0,0.007892324636601908,-0.01565984768869447,9.810852317027601,0.0,0.0,0.0,0.0,0.0,0.0,0.0,0.0,0.0
2025/05/06 15:20:05.768891940,1746537605,767202783,mA1/imu,0.7767231652296452,-0.6298415149786769,-0.0008115423494181359,0.000363323576553307,0.0,0.0,0.0,0.0,0.0,0.0,0.0,0.0,0.0,2.309749007576402e-06,9.689341997406967e-07,-2.074174354857453e-08,0.0,0.0,0.0,0.0,0.0,0.0,0.0,0.0,0.0,0.007900007768865252,-0.015217367215032734,9.809037805781484,0.0,0.0,0.0,0.0,0.0,0.0,0.0,0.0,0.0
2025/05/06 15:20:05.823258133,1746537605,818123395,mA1/imu,0.7767231655237815,-0.6298415145641653,-0.0008115697057038561,0.0003633522361935643,0.0,0.0,0.0,0.0,0.0,0.0,0.0,0.0,0.0,-3.1044149075205486e-06,-8.700480016549159e-07,-1.9371438321204584e-08,0.0,0.0,0.0,0.0,0.0,0.0,0.0,0.0,0.0,0.007900494253754836,-0.01529331264173267,9.808693138762127,0.0,0.0,0.0,0.0,0.0,0.0,0.0,0.0,0.0
2025/05/06 15:20:05.861321245,1746537605,859107460,mA1/imu,0.776723165691045,-0.6298415140711597,-0.0008117347786662725,0.00036348050801645254,0.0,0.0,0.0,0.0,0.0,0.0,0.0,0.0,0.0,-1.0546353550741826e-05,-2.5499686715057804e-06,-1.691121902390023e-08,0.0,0.0,0.0,0.0,0.0,0.0,0.0,0.0,0.0,0.007896894564332686,-0.015922597115820204,9.811220875751232,0.0,0.0,0.0,0.0,0.0,0.0,0.0,0.0,0.0
2025/05/06 15:20:05.919241266,1746537605,915394707,mA1/imu,0.7767231657366862,-0.6298415135160953,-0.0008120254984991264,0.00036369537278266203,0.0,0.0,0.0,0.0,0.0,0.0,0.0,0.0,0.0,-1.7161929152964587e-05,-4.33102929644533e-06,-1.4264366818348053e-08,0.0,0.0,0.0,0.0,0.0,0.0,0.0,0.0,0.0,0.007900384596739484,-0.015924585715488417,9.810877786084905,0.0,0.0,0.0,0.0,0.0,0.0,0.0,0.0,0.0
2025/05/06 15:20:05.957219664,1746537605,956909115,mA1/imu,0.7767231656708732,-0.6298415129320782,-0.0008124168167899656,0.0003639733006943919,0.0,0.0,0.0,0.0,0.0,0.0,0.0,0.0,0.0,-2.0138162780048066e-05,-5.683453315116728e-06,-1.1969322858525889e-08,0.0,0.0,0.0,0.0,0.0,0.0,0.0,0.0,0.0,0.007900366603129826,-0.015324143642131745,9.809062504813406,0.0,0.0,0.0,0.0,0.0,0.0,0.0,0.0,0.0
2025/05/06 15:20:06.28585544,1746537606,10702432,mA1/imu,0.7767231654989074,-0.6298415123467928,-0.0008128876340828331,0.0003643017380039587,0.0,0.0,0.0,0.0,0.0,0.0,0.0,0.0,0.0,-2.222846820898523e-05,-6.6820717533194876e-06,-9.039416971968875e-09,0.0,0.0,0.0,0.0,0.0,0.0,0.0,0.0,0.0,0.007894486956191953,-0.01533572483709001,9.80872325705177,0.0,0.0,0.0,0.0,0.0,0.0,0.0,0.0,0.0
2025/05/06 15:20:06.93971022,1746537606,63425093,mA1/imu,0.7767231652175316,-0.6298415117904598,-0.000813417421407208,0.0003646807724455387,0.0,0.0,0.0,0.0,0.0,0.0,0.0,0.0,0.0,-2.6024960918436107e-05,-7.054528310210537e-06,-4.054173968369664e-09,0.0,0.0,0.0,0.0,0.0,0.0,0.0,0.0,0.0,0.007889664810708992,-0.015937084911793277,9.811262675715215,0.0,0.0,0.0,0.0,0.0,0.0,0.0,0.0,0.0
2025/05/06 15:20:06.117246549,1746537606,113995813,mA1/imu,0.7767231649101273,-0.6298415113967959,-0.0008138817264907678,0.0003649793563659453,0.0,0.0,0.0,0.0,0.0,0.0,0.0,0.0,0.0,-2.431948645006663e-05,-6.804957533191419e-06,-2.5682840772739404e-11,0.0,0.0,0.0,0.0,0.0,0.0,0.0,0.0,0.0,0.007890610528590445,-0.015639627239704537,9.810916223622081,0.0,0.0,0.0,0.0,0.0,0.0,0.0,0.0,0.0
2025/05/06 15:20:06.164195112,1746537606,160800528,mA1/imu,0.7767231645348283,-0.629841510975316,-0.0008143969717288755,0.0003653558615613597,0.0,0.0,0.0,0.0,0.0,0.0,0.0,0.0,0.0,-2.5393926708664744e-05,-6.319475985891524e-06,1.9539116394518057e-09,0.0,0.0,0.0,0.0,0.0,0.0,0.0,0.0,0.0,0.007891418664704913,-0.01520737683291269,9.809109265407596,0.0,0.0,0.0,0.0,0.0,0.0,0.0,0.0,0.0
2025/05/06 15:20:06.217234560,1746537606,213500965,mA1/imu,0.7767231641395297,-0.6298415105641466,-0.0008149119895028553,0.0003657564775876415,0.0,0.0,0.0,0.0,0.0,0.0,0.0,0.0,0.0,-2.4255038861544866e-05,-5.497481851260844e-06,2.8290032503350597e-09,0.0,0.0,0.0,0.0,0.0,0.0,0.0,0.0,0.0,0.00788452979013925,-0.015287296409470992,9.808764249402666,0.0,0.0,0.0,0.0,0.0,0.0,0.0,0.0,0.0
2025/05/06 15:20:06.290322928,1746537606,268970089,mA1/imu,0.7767231637449444,-0.629841510189346,-0.0008153964764566312,0.000366159848320091,0.0,0.0,0.0,0.0,0.0,0.0,0.0,0.0,0.0,-2.402645338629088e-05,-4.439552747008202e-06,4.825467339827359e-09,0.0,0.0,0.0,0.0,0.0,0.0,0.0,0.0,0.0,0.00788816670554057,-0.0159106566682958,9.811262915493359,0.0,0.0,0.0,0.0,0.0,0.0,0.0,0.0,0.0
2025/05/06 15:20:06.328445490,1746537606,309865685,mA1/imu,0.7767231633789489,-0.6298415098660612,-0.0008158238796220304,0.0003665400886189816,0.0,0.0,0.0,0.0,0.0,0.0,0.0,0.0,0.0,-2.238280640653877e-05,-3.2090470765320017e-06,6.11965909009079e-09,0.0,0.0,0.0,0.0,0.0,0.0,0.0,0.0,0.0,0.007888857154284334,-0.015913138775987632,9.810913965645055,0.0,0.0,0.0,0.0,0.0,0.0,0.0,0.0,0.0
2025/05/06 15:20:06.383952698,1746537606,366205844,mA1/imu,0.7767231630775945,-0.629841509608043,-0.0008161623602630794,0.0003668683684718758,0.0,0.0,0.0,0.0,0.0,0.0,0.0,0.0,0.0,-1.7021446775326182e-05,-1.5958939106672675e-06,5.149710748002922e-09,0.0,0.0,0.0,0.0,0.0,0.0,0.0,0.0,0.0,0.007887592567633401,-0.015319999510725876,9.809114615753774,0.0,0.0,0.0,0.0,0.0,0.0,0.0,0.0,0.0
2025/05/06 15:20:06.455075777,1746537606,413615352,mA1/imu,0.7767231628702463,-0.6298415094079484,-0.0008163963224125351,0.0003671302262045415,0.0,0.0,0.0,0.0,0.0,0.0,0.0,0.0,0.0,-1.1024175649948232e-05,-1.1994442806617836e-07,3.0397017826975326e-09,0.0,0.0,0.0,0.0,0.0,0.0,0.0,0.0,0.0,0.007890233397666707,-0.01533109462416734,9.808765545611813,0.0,0.0,0.0,0.0,0.0,0.0,0.0,0.0,0.0
2025/05/06 15:20:06.481181996,1746537606,457320881,mA1/imu,0.7767231627648273,-0.6298415092576439,-0.0008165261394752746,0.00036732236567581846,0.0,0.0,0.0,0.0,0.0,0.0,0.0,0.0,0.0,-7.145029490194405e-06,1.480061978440331e-06,1.6621639668096009e-09,0.0,0.0,0.0,0.0,0.0,0.0,0.0,0.0,0.0,0.007882021802201121,-0.015926631669929546,9.811248617938132,0.0,0.0,0.0,0.0,0.0,0.0,0.0,0.0,0.0
2025/05/06 15:20:06.515435522,1746537606,514205628,mA1/imu,0.7767231627710571,-0.6298415091601797,-0.0008165438067758151,0.0003674370218518397,0.0,0.0,0.0,0.0,0.0,0.0,0.0,0.0,0.0,-2.8303318886711566e-06,2.846113884128925e-06,-4.676646793429892e-10,0.0,0.0,0.0,0.0,0.0,0.0,0.0,0.0,0.0,0.007887342364929018,-0.015916183261561342,9.810899499666926,0.0,0.0,0.0,0.0,0.0,0.0,0.0,0.0,0.0
2025/05/06 15:20:06.562963734,1746537606,562118671,mA1/imu,0.7767231629029534,-0.629841509117394,-0.0008164425221894619,0.0003674566149311562,0.0,0.0,0.0,0.0,0.0,0.0,0.0,0.0,0.0,4.285216463888833e-06,4.1859659415934044e-06,-3.622444375071662e-09,0.0,0.0,0.0,0.0,0.0,0.0,0.0,0.0,0.0,0.00788536697367965,-0.015317287022454081,9.809097020096072,0.0,0.0,0.0,0.0,0.0,0.0,0.0,0.0,0.0
2025/05/06 15:20:06.625301600,1746537606,610835051,mA1/imu,0.7767231631616354,-0.6298415091251806,-0.0008162246239099636,0.0003673805409118043,0.0,0.0,0.0,0.0,0.0,0.0,0.0,0.0,0.0,1.1139458595594282e-05,5.123852977637978e-06,-7.408791561355796e-09,0.0,0.0,0.0,0.0,0.0,0.0,0.0,0.0,0.0,0.007893812636139363,-0.015324270286045017,9.808742160134955,0.0,0.0,0.0,0.0,0.0,0.0,0.0,0.0,0.0
2025/05/06 15:20:06.764175837,1746537606,665853634,mA1/imu,0.7767231635406766,-0.6298415091514429,-0.0008159188808872847,0.00036721325678355945,0.0,0.0,0.0,0.0,0.0,0.0,0.0,0.0,0.0,1.4849693245681788e-05,5.406884874877077e-06,-1.1347811847010523e-08,0.0,0.0,0.0,0.0,0.0,0.0,0.0,0.0,0.0,0.007888641830895604,-0.01592400062323001,9.811222100648932,0.0,0.0,0.0,0.0,0.0,0.0,0.0,0.0,0.0
2025/05/06 15:20:06.826906328,1746537606,711230002,mA1/imu,0.7767231640365307,-0.6298415091806769,-0.000815536295362291,0.00036696408390467564,0.0,0.0,0.0,0.0,0.0,0.0,0.0,0.0,0.0,1.8018571625094097e-05,5.66208570149483e-06,-1.553366788943655e-08,0.0,0.0,0.0,0.0,0.0,0.0,0.0,0.0,0.0,0.007892640701594785,-0.015914024287736726,9.810868704078041,0.0,0.0,0.0,0.0,0.0,0.0,0.0,0.0,0.0
2025/05/06 15:20:06.848196434,1746537606,768882945,mA1/imu,0.7767231646470585,-0.6298415092007955,-0.0008150885082496643,0.00036663203137348604,0.0,0.0,0.0,0.0,0.0,0.0,0.0,0.0,0.0,2.2959767324829176e-05,5.471428947680368e-06,-2.0762279550394e-08,0.0,0.0,0.0,0.0,0.0,0.0,0.0,0.0,0.0,0.007896308308368839,-0.015318590226415447,9.809060248363108,0.0,0.0,0.0,0.0,0.0,0.0,0.0,0.0,0.0
2025/05/06 15:20:06.861482837,1746537606,809433878,mA1/imu,0.7767231653553275,-0.629841509222235,-0.0008145845301601137,0.00036621455636541,0.0,0.0,0.0,0.0,0.0,0.0,0.0,0.0,0.0,2.737667652365231e-05,4.918086686549594e-06,-2.5567291532436023e-08,0.0,0.0,0.0,0.0,0.0,0.0,0.0,0.0,0.0,0.007895015562262632,-0.015283438606727838,9.80870568476929,0.0,0.0,0.0,0.0,0.0,0.0,0.0,0.0,0.0
2025/05/06 15:20:06.919332368,1746537606,870551654,mA1/imu,0.7767231661018312,-0.6298415092139593,-0.0008140797544982604,0.00036576766187683017,0.0,0.0,0.0,0.0,0.0,0.0,0.0,0.0,0.0,2.6836691231552633e-05,4.083127688242529e-06,-2.7173107099786472e-08,0.0,0.0,0.0,0.0,0.0,0.0,0.0,0.0,0.0,0.007899547443644345,-0.01591556655870921,9.811199560453261,0.0,0.0,0.0,0.0,0.0,0.0,0.0,0.0,0.0
2025/05/06 15:20:06.946551040,1746537606,909322199,mA1/imu,0.7767231668562682,-0.6298415091822919,-0.000813591645740468,0.0003653058674200816,0.0,0.0,0.0,0.0,0.0,0.0,0.0,0.0,0.0,2.5409052878515355e-05,3.2456793386305655e-06,-2.766009409085961e-08,0.0,0.0,0.0,0.0,0.0,0.0,0.0,0.0,0.0,0.007892091704863265,-0.015915308723440207,9.81085096981198,0.0,0.0,0.0,0.0,0.0,0.0,0.0,0.0,0.0
2025/05/06 15:20:06.984606657,1746537606,969660644,mA1/imu,0.7767231675993312,-0.6298415091348931,-0.0008131278597194593,0.0003648399993134916,0.0,0.0,0.0,0.0,0.0,0.0,0.0,0.0,0.0,2.563194147656146e-05,2.2865652512783415e-06,-2.8617815523011527e-08,0.0,0.0,0.0,0.0,0.0,0.0,0.0,0.0,0.0,0.007898225214113154,-0.015319348707594344,9.809057275324033,0.0,0.0,0.0,0.0,0.0,0.0,0.0,0.0,0.0
2025/05/06 15:20:07.101693578,1746537607,8744895,mA1/imu,0.7767231683026368,-0.6298415090670402,-0.0008127107732091638,0.00036438889444046857,0.0,0.0,0.0,0.0,0.0,0.0,0.0,0.0,0.0,2.4605268900502785e-05,1.0801943339647245e-06,-2.8662473731037262e-08,0.0,0.0,0.0,0.0,0.0,0.0,0.0,0.0,0.0,0.007899451388471267,-0.015328959861149285,9.808707061203886,0.0,0.0,0.0,0.0,0.0,0.0,0.0,0.0,0.0
2025/05/06 15:20:07.125534557,1746537607,60450374,mA1/imu,0.7767231689613742,-0.6298415090098138,-0.0008123291877229021,0.0003639342413792212,0.0,0.0,0.0,0.0,0.0,0.0,0.0,0.0,0.0,2.5456271490905107e-05,-5.48179819151329e-08,-2.7105098986863768e-08,0.0,0.0,0.0,0.0,0.0,0.0,0.0,0.0,0.0,0.007892522919742814,-0.015547190981224082,9.811195750677468,0.0,0.0,0.0,0.0,0.0,0.0,0.0,0.0,0.0
2025/05/06 15:20:07.160449140,1746537607,105551579,mA1/imu,0.7767231695448438,-0.629841508929384,-0.0008120165684370847,0.00036352559913226443,0.0,0.0,0.0,0.0,0.0,0.0,0.0,0.0,0.0,1.6617477273573284e-05,-1.0019490089303878e-06,-2.4921364357751537e-08,0.0,0.0,0.0,0.0,0.0,0.0,0.0,0.0,0.0,0.007896324332265904,-0.01576031714985361,9.81086969169144,0.0,0.0,0.0,0.0,0.0,0.0,0.0,0.0,0.0
2025/05/06 15:20:07.198839091,1746537607,165067434,mA1/imu,0.7767231700161575,-0.6298415087623948,-0.0008118277756675733,0.00036322943738512423,0.0,0.0,0.0,0.0,0.0,0.0,0.0,0.0,0.0,1.1394178156090967e-05,-1.9942298975293315e-06,-2.3006510589543426e-08,0.0,0.0,0.0,0.0,0.0,0.0,0.0,0.0,0.0,0.007892624460310627,-0.015262542265135568,9.809068006562848,0.0,0.0,0.0,0.0,0.0,0.0,0.0,0.0,0.0
2025/05/06 15:20:07.222486114,1746537607,207407721,mA1/imu,0.7767231703709191,-0.62984150853201,-0.0008117520596168705,0.00036303947987963294,0.0,0.0,0.0,0.0,0.0,0.0,0.0,0.0,0.0,6.340505286631437e-06,-2.6489139901992106e-06,-1.9970976126833833e-08,0.0,0.0,0.0,0.0,0.0,0.0,0.0,0.0,0.0,0.007889435815856145,-0.015311686790490022,9.808724353946591,0.0,0.0,0.0,0.0,0.0,0.0,0.0,0.0,0.0
2025/05/06 15:20:07.261952407,1746537607,261212849,mA1/imu,0.7767231705922477,-0.629841508245331,-0.0008117972524962274,0.0003629622478314593,0.0,0.0,0.0,0.0,0.0,0.0,0.0,0.0,0.0,-1.2783198090063562e-06,-3.831821414726122e-06,-1.6356683994573084e-08,0.0,0.0,0.0,0.0,0.0,0.0,0.0,0.0,0.0,0.007900309570722493,-0.015925403324024468,9.81124852832129,0.0,0.0,0.0,0.0,0.0,0.0,0.0,0.0,0.0
2025/05/06 15:20:07.361204804,1746537607,313379314,mA1/imu,0.7767231706787194,-0.6298415079041632,-0.0008119663723309997,0.00036299093239940377,0.0,0.0,0.0,0.0,0.0,0.0,0.0,0.0,0.0,-8.610659087336825e-06,-4.954427285176506e-06,-1.2610967800983985e-08,0.0,0.0,0.0,0.0,0.0,0.0,0.0,0.0,0.0,0.00789994530035605,-0.015923578346589477,9.81090759840185,0.0,0.0,0.0,0.0,0.0,0.0,0.0,0.0,0.0
2025/05/06 15:20:07.468787540,1746537607,366070862,mA1/imu,0.7767231706348742,-0.6298415075392919,-0.000812233830365307,0.0003631194635079422,0.0,0.0,0.0,0.0,0.0,0.0,0.0,0.0,0.0,-1.2906171535276287e-05,-5.070721524178374e-06,-7.759501443143093e-09,0.0,0.0,0.0,0.0,0.0,0.0,0.0,0.0,0.0,0.007889468636942466,-0.015331345891464655,9.809100170240086,0.0,0.0,0.0,0.0,0.0,0.0,0.0,0.0,0.0
2025/05/06 15:20:07.502844378,1746537607,408155867,mA1/imu,0.7767231704578444,-0.6298415071810635,-0.0008125783670392167,0.0003633485901351166,0.0,0.0,0.0,0.0,0.0,0.0,0.0,0.0,0.0,-1.6681892359377636e-05,-4.888958033625481e-06,-2.783767697284577e-09,0.0,0.0,0.0,0.0,0.0,0.0,0.0,0.0,0.0,0.007893505444401417,-0.015341829038356458,9.808755070119748,0.0,0.0,0.0,0.0,0.0,0.0,0.0,0.0,0.0
2025/05/06 15:20:07.567142430,1746537607,469611916,mA1/imu,0.7767231701522587,-0.6298415068350017,-0.0008129920021490394,0.0003636762904853866,0.0,0.0,0.0,0.0,0.0,0.0,0.0,0.0,0.0,-2.224246990094521e-05,-4.387714504862792e-06,3.664253158809319e-09,0.0,0.0,0.0,0.0,0.0,0.0,0.0,0.0,0.0,0.007889977992336702,-0.01593910431330282,9.811280551294809,0.0,0.0,0.0,0.0,0.0,0.0,0.0,0.0,0.0
2025/05/06 15:20:07.599385768,1746537607,513245603,mA1/imu,0.7767231688304151,-0.6298415077702467,-0.0008132849465400623,0.0003642242941423267,0.0,0.0,0.0,0.0,0.0,0.0,0.0,0.0,0.0,-2.6624083384784762e-05,1.80554398821995e-05,1.8035628481142535e-07,0.0,0.0,0.0,0.0,0.0,0.0,0.0,0.0,0.0,0.006838960325017225,-0.015912886078689494,9.810934227824122,0.0,0.0,0.0,0.0,0.0,0.0,0.0,0.0,0.0
2025/05/06 15:20:07.623411762,1746537607,562979586,mA1/imu,0.7767231637447299,-0.6298415138402735,-0.0008129325091311548,0.00036535805113177805,0.0,0.0,0.0,0.0,0.0,0.0,0.0,0.0,0.0,-2.687832419698949e-05,5.318877826090748e-05,4.732215193091114e-07,0.0,0.0,0.0,0.0,0.0,0.0,0.0,0.0,0.0,0.006901535920906352,-0.015302459049235028,9.809107571881999,0.0,0.0,0.0,0.0,0.0,0.0,0.0,0.0,0.0
2025/05/06 15:20:07.638800046,1746537607,607174093,mA1/imu,0.7767231549138753,-0.6298415250192424,-0.0008119611823646329,0.00036701649743679153,0.0,0.0,0.0,0.0,0.0,0.0,0.0,0.0,0.0,-2.601448901480147e-05,8.378972283891963e-05,7.456565334833786e-07,0.0,0.0,0.0,0.0,0.0,0.0,0.0,0.0,0.0,0.006925865722248707,-0.015313053178293857,9.808760059247248,0.0,0.0,0.0,0.0,0.0,0.0,0.0,0.0,0.0
2025/05/06 15:20:07.670313335,1746537607,658141283,mA1/imu,0.7767231424721271,-0.6298415410700373,-0.0008104667466899869,0.0003690994400016304,0.0,0.0,0.0,0.0,0.0,0.0,0.0,0.0,0.0,-2.6696445570464076e-05,0.00010817247110093924,1.0034784688060226e-06,0.0,0.0,0.0,0.0,0.0,0.0,0.0,0.0,0.0,0.00697470018512049,-0.01591827615316991,9.811268879499428,0.0,0.0,0.0,0.0,0.0,0.0,0.0,0.0,0.0
2025/05/06 15:20:07.716789192,1746537607,712811383,mA1/imu,0.776723126543174,-0.6298415617704192,-0.000808555642692235,0.00037147997055165345,0.0,0.0,0.0,0.0,0.0,0.0,0.0,0.0,0.0,-2.6055719227767767e-05,0.00012572763912251358,1.2454218557617994e-06,0.0,0.0,0.0,0.0,0.0,0.0,0.0,0.0,0.0,0.00700523358095684,-0.0159088247295175,9.810917667862753,0.0,0.0,0.0,0.0,0.0,0.0,0.0,0.0,0.0
2025/05/06 15:20:07.787116865,1746537607,761426779,mA1/imu,0.7767231072576368,-0.6298415868840708,-0.0008063551983704833,0.00037399825020621827,0.0,0.0,0.0,0.0,0.0,0.0,0.0,0.0,0.0,-2.1403590801286807e-05,0.00013482674933297238,1.4682762174449015e-06,0.0,0.0,0.0,0.0,0.0,0.0,0.0,0.0,0.0,0.007077059893316821,-0.015299082246113803,9.80908872937537,0.0,0.0,0.0,0.0,0.0,0.0,0.0,0.0,0.0
2025/05/06 15:20:07.828228578,1746537607,813018726,mA1/imu,0.7767230847238681,-0.6298416161776085,-0.0008040081813573712,0.0003765085143095845,0.0,0.0,0.0,0.0,0.0,0.0,0.0,0.0,0.0,-1.6029368195712396e-05,0.0001357813760202108,1.6747764005297016e-06,0.0,0.0,0.0,0.0,0.0,0.0,0.0,0.0,0.0,0.007106672954612017,-0.01530905281555995,9.808729681246861,0.0,0.0,0.0,0.0,0.0,0.0,0.0,0.0,0.0
2025/05/06 15:20:07.868457739,1746537607,867566211,mA1/imu,0.7767230590764383,-0.6298416494890087,-0.0008016144998827892,0.0003787903086984487,0.0,0.0,0.0,0.0,0.0,0.0,0.0,0.0,0.0,-8.854315299890768e-06,0.00012823464949287338,1.8652214453702886e-06,0.0,0.0,0.0,0.0,0.0,0.0,0.0,0.0,0.0,0.007152140677448904,-0.015654532750086766,9.811236027616207,0.0,0.0,0.0,0.0,0.0,0.0,0.0,0.0,0.0
2025/05/06 15:20:07.925706021,1746537607,918728801,mA1/imu,0.7767230303554173,-0.6298416864938693,-0.0007994022319837292,0.00038082296050047647,0.0,0.0,0.0,0.0,0.0,0.0,0.0,0.0,0.0,-7.128028004999287e-06,0.00011337246223256685,2.0417641826718254e-06,0.0,0.0,0.0,0.0,0.0,0.0,0.0,0.0,0.0,0.007170738422424152,-0.01579439783714172,9.810876961408946,0.0,0.0,0.0,0.0,0.0,0.0,0.0,0.0,0.0
2025/05/06 15:20:07.961470485,1746537607,960016270,mA1/imu,0.7767229986374408,-0.6298417270224194,-0.0007975015741485425,0.0003824660998880819,0.0,0.0,0.0,0.0,0.0,0.0,0.0,0.0,0.0,-1.271903687766279e-06,9.097627323199965e-05,2.203850815490451e-06,0.0,0.0,0.0,0.0,0.0,0.0,0.0,0.0,0.0,0.007226978167327788,-0.015258804449123106,9.809058779842195,0.0,0.0,0.0,0.0,0.0,0.0,0.0,0.0,0.0
2025/05/06 15:20:08.107014236,1746537608,12595643,mA1/imu,0.776722963991176,-0.6298417709262861,-0.0007960234663201371,0.00038360375779889237,0.0,0.0,0.0,0.0,0.0,0.0,0.0,0.0,0.0,4.983062582651075e-06,6.30646732754321e-05,2.3555309426171274e-06,0.0,0.0,0.0,0.0,0.0,0.0,0.0,0.0,0.0,0.007239574715718422,-0.015294600594032716,9.808700337182902,0.0,0.0,0.0,0.0,0.0,0.0,0.0,0.0,0.0
2025/05/06 15:20:08.176854476,1746537608,65343510,mA1/imu,0.7767229264735538,-0.6298418180601227,-0.0007950655531744387,0.00038416642728528514,0.0,0.0,0.0,0.0,0.0,0.0,0.0,0.0,0.0,8.594442677708515e-06,3.082559367142819e-05,2.4989706602427495e-06,0.0,0.0,0.0,0.0,0.0,0.0,0.0,0.0,0.0,0.007269689377354302,-0.015907992731224285,9.811196632549875,0.0,0.0,0.0,0.0,0.0,0.0,0.0,0.0,0.0
2025/05/06 15:20:08.216618381,1746537608,113768033,mA1/imu,0.7767228861330394,-0.6298418683213398,-0.0007946845170603909,0.000384113477697438,0.0,0.0,0.0,0.0,0.0,0.0,0.0,0.0,0.0,1.1994652529866652e-05,-3.198891829594321e-06,2.637246949297042e-06,0.0,0.0,0.0,0.0,0.0,0.0,0.0,0.0,0.0,0.0072817335754828865,-0.015903073888612812,9.81085110553341,0.0,0.0,0.0,0.0,0.0,0.0,0.0,0.0,0.0
2025/05/06 15:20:08.245521579,1746537608,158964765,mA1/imu,0.7767228430120956,-0.6298419216484138,-0.0007948936499653662,0.0003834338609303336,0.0,0.0,0.0,0.0,0.0,0.0,0.0,0.0,0.0,1.7451049059574836e-05,-3.70084339083733e-05,2.772722369647014e-06,0.0,0.0,0.0,0.0,0.0,0.0,0.0,0.0,0.0,0.007276105351365219,-0.015306679314165388,9.80904866337156,0.0,0.0,0.0,0.0,0.0,0.0,0.0,0.0,0.0
2025/05/06 15:20:08.282297508,1746537608,208818242,mA1/imu,0.7767227971313694,-0.629841978009501,-0.0007956789746591426,0.0003821628842305943,0.0,0.0,0.0,0.0,0.0,0.0,0.0,0.0,0.0,2.204885865357324e-05,-6.904255191491855e-05,2.909129262588046e-06,0.0,0.0,0.0,0.0,0.0,0.0,0.0,0.0,0.0,0.007285649362170906,-0.015315622949760839,9.80870308810803,0.0,0.0,0.0,0.0,0.0,0.0,0.0,0.0,0.0
2025/05/06 15:20:08.335823318,1746537608,257529857,mA1/imu,0.7767227485000979,-0.6298420373843489,-0.0007970085462978855,0.00038037266350277017,0.0,0.0,0.0,0.0,0.0,0.0,0.0,0.0,0.0,2.292479516394284e-05,-9.72855454430222e-05,3.0494153340612798e-06,0.0,0.0,0.0,0.0,0.0,0.0,0.0,0.0,0.0,0.007270047985816342,-0.0159241630802649,9.811202009380237,0.0,0.0,0.0,0.0,0.0,0.0,0.0,0.0,0.0
2025/05/06 15:20:08.359410379,1746537608,310855867,mA1/imu,0.7767226990045352,-0.629842097910371,-0.0007982568467217815,0.00037859870498470403,0.0,0.0,0.0,0.0,0.0,0.0,0.0,0.0,0.0,2.3189075629193847e-05,-2.688122295102617e-05,2.9127818909895586e-06,0.0,0.0,0.0,0.0,0.0,0.0,0.0,0.0,0.0,0.0005792855023863536,-0.015834386711372342,9.81086295844665,0.0,0.0,0.0,0.0,0.0,0.0,0.0,0.0,0.0
2025/05/06 15:20:08.403319838,1746537608,370807993,mA1/imu,0.7767226606451082,-0.6298421475271475,-0.0007959379066136208,0.0003796335387796904,0.0,0.0,0.0,0.0,0.0,0.0,0.0,0.0,0.0,2.6608318973336395e-05,0.00017984745003538663,2.350341600416957e-06,0.0,0.0,0.0,0.0,0.0,0.0,0.0,0.0,0.0,0.0007978852930088463,-0.015175291574085216,9.809073581582693,0.0,0.0,0.0,0.0,0.0,0.0,0.0,0.0,0.0
2025/05/06 15:20:08.428887037,1746537608,413672241,mA1/imu,0.7767226352063153,-0.6298421841711099,-0.0007897407307955857,0.0003838050296672825,0.0,0.0,0.0,0.0,0.0,0.0,0.0,0.0,0.0,2.7338590279025567e-05,0.00037462650844221284,1.774692709255979e-06,0.0,0.0,0.0,0.0,0.0,0.0,0.0,0.0,0.0,0.0007420670394860922,-0.015222887235554493,9.80872748307683,0.0,0.0,0.0,0.0,0.0,0.0,0.0,0.0,0.0
2025/05/06 15:20:08.500857211,1746537608,463313828,mA1/imu,0.776722622611667,-0.6298422074387008,-0.0007800570700780146,0.00039084903201585375,0.0,0.0,0.0,0.0,0.0,0.0,0.0,0.0,0.0,2.4379397415275074e-05,0.0005429462065853799,1.162321757970774e-06,0.0,0.0,0.0,0.0,0.0,0.0,0.0,0.0,0.0,0.0011043019845045736,-0.015850517811719943,9.811243967394057,0.0,0.0,0.0,0.0,0.0,0.0,0.0,0.0,0.0
2025/05/06 15:20:08.620101980,1746537608,511672113,mA1/imu,0.7767226228473101,-0.6298422166003689,-0.0007675561845162101,0.00040025321090570354,0.0,0.0,0.0,0.0,0.0,0.0,0.0,0.0,0.0,2.0568558440029554e-05,0.0006746851750767684,4.96597124574178e-07,0.0,0.0,0.0,0.0,0.0,0.0,0.0,0.0,0.0,0.001271808580129658,-0.01584759861945805,9.810909675169412,0.0,0.0,0.0,0.0,0.0,0.0,0.0,0.0,0.0
2025/05/06 15:20:08.695006007,1746537608,563660764,mA1/imu,0.7767226359468594,-0.6298422107741324,-0.0007530772676379269,0.00041135087814000797,0.0,0.0,0.0,0.0,0.0,0.0,0.0,0.0,0.0,1.8568238804286613e-05,0.0007595254743917384,-2.3746450813316084e-07,0.0,0.0,0.0,0.0,0.0,0.0,0.0,0.0,0.0,0.0016883740149408136,-0.015248282835656992,9.809118271938585,0.0,0.0,0.0,0.0,0.0,0.0,0.0,0.0,0.0
2025/05/06 15:20:08.732793097,1746537608,613375714,mA1/imu,0.776722662034277,-0.6298421891496144,-0.0007374677485223597,0.00042330949361159937,0.0,0.0,0.0,0.0,0.0,0.0,0.0,0.0,0.0,1.9386457858205238e-05,0.0007973111288783967,-1.0383035713113342e-06,0.0,0.0,0.0,0.0,0.0,0.0,0.0,0.0,0.0,0.001841069043656501,-0.015001660596715349,9.80877363413132,0.0,0.0,0.0,0.0,0.0,0.0,0.0,0.0,0.0
2025/05/06 15:20:08.755953170,1746537608,655522927,mA1/imu,0.7767227011422966,-0.6298421506668399,-0.0007218683579340414,0.0004355222818836615,0.0,0.0,0.0,0.0,0.0,0.0,0.0,0.0,0.0,1.0719681922960825e-05,0.0007821774036740861,-1.9116114708158595e-06,0.0,0.0,0.0,0.0,0.0,0.0,0.0,0.0,0.0,0.0022736018612070147,-0.015760879220918587,9.811291996320914,0.0,0.0,0.0,0.0,0.0,0.0,0.0,0.0,0.0
2025/05/06 15:20:08.782611733,1746537608,706971933,mA1/imu,0.7767227534519549,-0.6298420945920328,-0.0007072358734439763,0.0004471770943479461,0.0,0.0,0.0,0.0,0.0,0.0,0.0,0.0,0.0,2.877457254125956e-06,0.0007192998090574604,-2.848121691134037e-06,0.0,0.0,0.0,0.0,0.0,0.0,0.0,0.0,0.0,0.0024060788470590196,-0.015813425509470347,9.8109504490759,0.0,0.0,0.0,0.0,0.0,0.0,0.0,0.0,0.0
2025/05/06 15:20:08.812099948,1746537608,761961123,mA1/imu,0.776722819159483,-0.6298420203395808,-0.0006944745829218952,0.0004575112606512205,0.0,0.0,0.0,0.0,0.0,0.0,0.0,0.0,0.0,-1.989113483940189e-06,0.0006094592619861883,-3.844209473137441e-06,0.0,0.0,0.0,0.0,0.0,0.0,0.0,0.0,0.0,0.0027597589966558006,-0.015241719071194279,9.80911621830125,0.0,0.0,0.0,0.0,0.0,0.0,0.0,0.0,0.0
2025/05/06 15:20:08.841157272,1746537608,809745841,mA1/imu,0.7767228984315485,-0.629841927503863,-0.000684378475624626,0.0004658716724119656,0.0,0.0,0.0,0.0,0.0,0.0,0.0,0.0,0.0,-6.656011985537686e-06,0.00046309298033399954,-4.882697074840545e-06,0.0,0.0,0.0,0.0,0.0,0.0,0.0,0.0,0.0,0.002853425779590301,-0.015261769179284726,9.808760992953724,0.0,0.0,0.0,0.0,0.0,0.0,0.0,0.0,0.0
2025/05/06 15:20:08.860366869,1746537608,856037652,mA1/imu,0.7767229913492978,-0.6298418158904912,-0.0006775834435731409,0.00047174764871397903,0.0,0.0,0.0,0.0,0.0,0.0,0.0,0.0,0.0,-1.3580848498922064e-05,0.0002867610071728376,-5.949588147195392e-06,0.0,0.0,0.0,0.0,0.0,0.0,0.0,0.0,0.0,0.0030652307619681036,-0.015869582063669004,9.81128681702398,0.0,0.0,0.0,0.0,0.0,0.0,0.0,0.0,0.0
2025/05/06 15:20:08.912239875,1746537608,911445935,mA1/imu,0.7767230978909272,-0.62984168552083,-0.0006745153813003772,0.00047477573792369446,0.0,0.0,0.0,0.0,0.0,0.0,0.0,0.0,0.0,-1.978703322985719e-05,9.307560948636781e-05,-7.025053738707521e-06,0.0,0.0,0.0,0.0,0.0,0.0,0.0,0.0,0.0,0.003129833888193042,-0.0158630428177801,9.810922447804563,0.0,0.0,0.0,0.0,0.0,0.0,0.0,0.0,0.0
2025/05/06 15:20:08.960776149,1746537608,959600065,mA1/imu,0.776723217902915,-0.6298415366328102,-0.0006753652790602396,0.00047474656497382246,0.0,0.0,0.0,0.0,0.0,0.0,0.0,0.0,0.0,-2.151293736651022e-05,-0.0001071324728330928,-8.090564641637002e-06,0.0,0.0,0.0,0.0,0.0,0.0,0.0,0.0,0.0,0.0031890740316202833,-0.01519977615343851,9.809078048863295,0.0,0.0,0.0,0.0,0.0,0.0,0.0,0.0,0.0
2025/05/06 15:20:09.7296728,1746537609,6448722,mA1/imu,0.7767233510713506,-0.6298413696292727,-0.0006801016233465397,0.00047166279828761437,0.0,0.0,0.0,0.0,0.0,0.0,0.0,0.0,0.0,-2.367513065536591e-05,-0.0003018124473774474,-9.129271579563266e-06,0.0,0.0,0.0,0.0,0.0,0.0,0.0,0.0,0.0,0.0032137815274117794,-0.015244925514368832,9.808721069245085,0.0,0.0,0.0,0.0,0.0,0.0,0.0,0.0,0.0
2025/05/06 15:20:09.63253020,1746537609,59027782,mA1/imu,0.7767234969253559,-0.6298411850829396,-0.0006884764298912467,0.00046572263251021457,0.0,0.0,0.0,0.0,0.0,0.0,0.0,0.0,0.0,-2.7213752783974853e-05,-0.0004787961299387824,-1.0119965501654459e-05,0.0,0.0,0.0,0.0,0.0,0.0,0.0,0.0,0.0,0.003129156982250355,-0.015863975331150026,9.811240019132839,0.0,0.0,0.0,0.0,0.0,0.0,0.0,0.0,0.0
2025/05/06 15:20:09.111784323,1746537609,111521979,mA1/imu,0.7767236549498137,-0.6298409838020779,-0.0006999564908503693,0.00045719311499090075,0.0,0.0,0.0,0.0,0.0,0.0,0.0,0.0,0.0,-2.6690336972896876e-05,-0.000629127495729955,-1.1050675126277975e-05,0.0,0.0,0.0,0.0,0.0,0.0,0.0,0.0,0.0,0.0031219400902975287,-0.01568041052906636,9.810872008187088,0.0,0.0,0.0,0.0,0.0,0.0,0.0,0.0,0.0
2025/05/06 15:20:09.164854147,1746537609,164230196,mA1/imu,0.7767238244653081,-0.6298407665792146,-0.0007139644385771184,0.00044667401217211904,0.0,0.0,0.0,0.0,0.0,0.0,0.0,0.0,0.0,-2.6266208325575153e-05,-0.0007422058210062006,-1.1905702274825299e-05,0.0,0.0,0.0,0.0,0.0,0.0,0.0,0.0,0.0,0.0029507556053918037,-0.015184655139974686,9.809045203649488,0.0,0.0,0.0,0.0,0.0,0.0,0.0,0.0,0.0
2025/05/06 15:20:09.208729164,1746537609,208493101,mA1/imu,0.7767240048648985,-0.6298405344307554,-0.0007296918335725064,0.00043474641083371103,0.0,0.0,0.0,0.0,0.0,0.0,0.0,0.0,0.0,-2.4094913013145353e-05,-0.0008144833954788165,-1.2683329276297142e-05,0.0,0.0,0.0,0.0,0.0,0.0,0.0,0.0,0.0,0.002946641946311834,-0.015241116279937756,9.80869242109215,0.0,0.0,0.0,0.0,0.0,0.0,0.0,0.0,0.0
2025/05/06 15:20:09.259731783,1746537609,258446580,mA1/imu,0.7767241955733692,-0.6298402884549811,-0.0007462467067203491,0.0004220967914079681,0.0,0.0,0.0,0.0,0.0,0.0,0.0,0.0,0.0,-2.3040491277265928e-05,-0.0008389573970138547,-1.3373198671086996e-05,0.0,0.0,0.0,0.0,0.0,0.0,0.0,0.0,0.0,0.002731459085997343,-0.015859664701126007,9.811189526721078,0.0,0.0,0.0,0.0,0.0,0.0,0.0,0.0,0.0
2025/05/06 15:20:09.310879028,1746537609,310303954,mA1/imu,0.7767243961149104,-0.6298400297891603,-0.0007627055949739099,0.0004094328919030018,0.0,0.0,0.0,0.0,0.0,0.0,0.0,0.0,0.0,-2.0790849505124136e-05,-0.0008185067099392444,-1.3982041798406585e-05,0.0,0.0,0.0,0.0,0.0,0.0,0.0,0.0,0.0,0.0027421462674064646,-0.015857977072134127,9.810843197287252,0.0,0.0,0.0,0.0,0.0,0.0,0.0,0.0,0.0
2025/05/06 15:20:09.368114399,1746537609,366587537,mA1/imu,0.7767246061337687,-0.6298397595797051,-0.0007781462916986343,0.0003974509654938156,0.0,0.0,0.0,0.0,0.0,0.0,0.0,0.0,0.0,-1.481325453957092e-05,-0.0007511169916946252,-1.4509445455424905e-05,0.0,0.0,0.0,0.0,0.0,0.0,0.0,0.0,0.0,0.002568805881279025,-0.015257754022915926,9.809029819337063,0.0,0.0,0.0,0.0,0.0,0.0,0.0,0.0,0.0
2025/05/06 15:20:09.405753255,1746537609,405303886,mA1/imu,0.7767248245340972,-0.6298394797539583,-0.0007919813439424359,0.0003866022372846669,0.0,0.0,0.0,0.0,0.0,0.0,0.0,0.0,0.0,-8.221463701816473e-06,-0.0006768070707114239,-1.4875595769271792e-05,0.0,0.0,0.0,0.0,0.0,0.0,0.0,0.0,0.0,0.004152212432854816,-0.015251930210779488,9.808678483013068,0.0,0.0,0.0,0.0,0.0,0.0,0.0,0.0,0.0
2025/05/06 15:20:09.463126309,1746537609,460346561,mA1/imu,0.7767250485668511,-0.6298391938649336,-0.0008042148819488723,0.00037688037521223656,0.0,0.0,0.0,0.0,0.0,0.0,0.0,0.0,0.0,-3.877936948986584e-06,-0.000585782105809101,-1.5115172465011395e-05,0.0,0.0,0.0,0.0,0.0,0.0,0.0,0.0,0.0,0.004017964139777654,-0.015860565990917706,9.811199372944905,0.0,0.0,0.0,0.0,0.0,0.0,0.0,0.0,0.0
2025/05/06 15:20:09.513292390,1746537609,512980719,mA1/imu,0.776725277986075,-0.6298389028740953,-0.0008142273298634016,0.0003687786132456998,0.0,0.0,0.0,0.0,0.0,0.0,0.0,0.0,0.0,7.12856519529754e-07,-0.0004644067460876627,-1.5305073275093495e-05,0.0,0.0,0.0,0.0,0.0,0.0,0.0,0.0,0.0,0.0040487710774044835,-0.015851262781260565,9.810863845783983,0.0,0.0,0.0,0.0,0.0,0.0,0.0,0.0,0.0
2025/05/06 15:20:09.568389164,1746537609,567471390,mA1/imu,0.7767255127668166,-0.6298386074383872,-0.0008214846223376978,0.0003627123024851379,0.0,0.0,0.0,0.0,0.0,0.0,0.0,0.0,0.0,7.970552117526374e-06,-0.0003182902573907899,-1.545648420788072e-05,0.0,0.0,0.0,0.0,0.0,0.0,0.0,0.0,0.0,0.004001617824860507,-0.01524862426249504,9.809073525209639,0.0,0.0,0.0,0.0,0.0,0.0,0.0,0.0,0.0
2025/05/06 15:20:09.614546631,1746537609,614249511,mA1/imu,0.7767257529293999,-0.6298383079828324,-0.000825631364888906,0.00035897970578860827,0.0,0.0,0.0,0.0,0.0,0.0,0.0,0.0,0.0,1.4781473727813313e-05,-0.00015786715158970082,-1.5588466505089702e-05,0.0,0.0,0.0,0.0,0.0,0.0,0.0,0.0,0.0,0.004064611692950094,-0.015257162701421037,9.808736972979283,0.0,0.0,0.0,0.0,0.0,0.0,0.0,0.0,0.0
2025/05/06 15:20:09.662357977,1746537609,660734999,mA1/imu,0.7767259985090098,-0.6298380046844445,-0.0008265059708188741,0.000357747368490826,0.0,0.0,0.0,0.0,0.0,0.0,0.0,0.0,0.0,1.803096407487001e-05,8.2632568095878e-06,-1.571411322935009e-05,0.0,0.0,0.0,0.0,0.0,0.0,0.0,0.0,0.0,0.004157381769330251,-0.015870969408133626,9.811253155650245,0.0,0.0,0.0,0.0,0.0,0.0,0.0,0.0,0.0
2025/05/06 15:20:09.712857583,1746537609,709709364,mA1/imu,0.776726249542321,-0.6298376974995157,-0.0008241235765461786,0.0003590275186405933,0.0,0.0,0.0,0.0,0.0,0.0,0.0,0.0,0.0,2.057737334616194e-05,0.00017044775891509318,-1.584664283843965e-05,0.0,0.0,0.0,0.0,0.0,0.0,0.0,0.0,0.0,0.004235904713008417,-0.015861218558618176,9.810924597718852,0.0,0.0,0.0,0.0,0.0,0.0,0.0,0.0,0.0
2025/05/06 15:20:09.761832391,1746537609,760890479,mA1/imu,0.7767265061000389,-0.6298373862082268,-0.0008186381446975114,0.00036261219412354645,0.0,0.0,0.0,0.0,0.0,0.0,0.0,0.0,0.0,2.7800996618099734e-05,0.00031839620310005585,-1.6003192316289744e-05,0.0,0.0,0.0,0.0,0.0,0.0,0.0,0.0,0.0,0.004425019196270263,-0.015063432407456575,9.809126133172434,0.0,0.0,0.0,0.0,0.0,0.0,0.0,0.0,0.0
2025/05/06 15:20:09.811980860,1746537609,811601951,mA1/imu,0.7767267681917249,-0.6298370702061101,-0.0008105073651054931,0.000368302094742927,0.0,0.0,0.0,0.0,0.0,0.0,0.0,0.0,0.0,2.9198866534033385e-05,0.0004441443753701395,-1.6197206173886426e-05,0.0,0.0,0.0,0.0,0.0,0.0,0.0,0.0,0.0,0.004533555295651111,-0.015187633594844867,9.808778428422459,0.0,0.0,0.0,0.0,0.0,0.0,0.0,0.0,0.0
2025/05/06 15:20:09.863410514,1746537609,859799865,mA1/imu,0.7767270358551187,-0.6298367488157964,-0.0008002895521713463,0.0003756986834786653,0.0,0.0,0.0,0.0,0.0,0.0,0.0,0.0,0.0,2.7342675918906352e-05,0.0005392874742545558,-1.6439492467339213e-05,0.0,0.0,0.0,0.0,0.0,0.0,0.0,0.0,0.0,0.004803402567840494,-0.015846666431391813,9.81129960130353,0.0,0.0,0.0,0.0,0.0,0.0,0.0,0.0,0.0
2025/05/06 15:20:09.917739167,1746537609,911673755,mA1/imu,0.7767273091452158,-0.6298364213088039,-0.0007886261269904333,0.0003843042842451409,0.0,0.0,0.0,0.0,0.0,0.0,0.0,0.0,0.0,2.476787987439562e-05,0.0006008337882280065,-1.6731458127653282e-05,0.0,0.0,0.0,0.0,0.0,0.0,0.0,0.0,0.0,0.004910858047290745,-0.015855685953723414,9.810959062858048,0.0,0.0,0.0,0.0,0.0,0.0,0.0,0.0,0.0
2025/05/06 15:20:09.962803793,1746537609,962620846,mA1/imu,0.7767275881513361,-0.6298360869081007,-0.0007762461639227294,0.00039354134820941,0.0,0.0,0.0,0.0,0.0,0.0,0.0,0.0,0.0,2.3949992803111176e-05,0.0006231894320481391,-1.7081219876782364e-05,0.0,0.0,0.0,0.0,0.0,0.0,0.0,0.0,0.0,0.005213992897292427,-0.01526271043141217,9.809133591817274,0.0,0.0,0.0,0.0,0.0,0.0,0.0,0.0,0.0
2025/05/06 15:20:10.11070320,1746537610,7440625,mA1/imu,0.7767278729857656,-0.6298357448566947,-0.0007639089789913673,0.0004028286145291729,0.0,0.0,0.0,0.0,0.0,0.0,0.0,0.0,0.0,2.1998539609940287e-05,0.000608347275229139,-1.748658220251546e-05,0.0,0.0,0.0,0.0,0.0,0.0,0.0,0.0,0.0,0.005294643165695375,-0.015274827514200473,9.808785716991151,0.0,0.0,0.0,0.0,0.0,0.0,0.0,0.0,0.0
2025/05/06 15:20:10.59318883,1746537610,56968565,mA1/imu,0.7767281637897071,-0.6298353944927838,-0.0007523554414009465,0.0004115595690266455,0.0,0.0,0.0,0.0,0.0,0.0,0.0,0.0,0.0,1.7910223380510056e-05,0.0005546727488399515,-1.7947228432201106e-05,0.0,0.0,0.0,0.0,0.0,0.0,0.0,0.0,0.0,0.005547585421916439,-0.01577691376625236,9.811297362937532,0.0,0.0,0.0,0.0,0.0,0.0,0.0,0.0,0.0
2025/05/06 15:20:10.108272380,1746537610,107930147,mA1/imu,0.7767284606588813,-0.6298350352333596,-0.0007423106194289991,0.00041924935447442346,0.0,0.0,0.0,0.0,0.0,0.0,0.0,0.0,0.0,1.0658089876715206e-05,0.0004690049110402503,-1.8448647685885803e-05,0.0,0.0,0.0,0.0,0.0,0.0,0.0,0.0,0.0,0.005618416622536329,-0.015831099379472753,9.810939551739878,0.0,0.0,0.0,0.0,0.0,0.0,0.0,0.0,0.0
2025/05/06 15:20:10.179808194,1746537610,172989489,mA1/imu,0.7767287636992025,-0.629834666689309,-0.0007343733322986884,0.00042541095940381115,0.0,0.0,0.0,0.0,0.0,0.0,0.0,0.0,0.0,6.185685420330046e-06,0.00035379873438096327,-1.8985829463768848e-05,0.0,0.0,0.0,0.0,0.0,0.0,0.0,0.0,0.0,0.0058114745486242715,-0.015254831303471304,9.809101294301964,0.0,0.0,0.0,0.0,0.0,0.0,0.0,0.0,0.0
2025/05/06 15:20:10.216780031,1746537610,209074666,mA1/imu,0.7767290729734161,-0.6298342886212366,-0.0007290136175582793,0.00042966729450102584,0.0,0.0,0.0,0.0,0.0,0.0,0.0,0.0,0.0,1.5252099399410313e-06,0.00021814748672731717,-1.954681399572035e-05,0.0,0.0,0.0,0.0,0.0,0.0,0.0,0.0,0.0,0.005844239549698758,-0.015275062402995901,9.808739061913933,0.0,0.0,0.0,0.0,0.0,0.0,0.0,0.0,0.0
2025/05/06 15:20:10.267153298,1746537610,264925444,mA1/imu,0.77672938845888,-0.6298339009603566,-0.0007265494343188429,0.0004317768794579454,0.0,0.0,0.0,0.0,0.0,0.0,0.0,0.0,0.0,-5.859989909459446e-06,6.96945023549195e-05,-2.0116955097973375e-05,0.0,0.0,0.0,0.0,0.0,0.0,0.0,0.0,0.0,0.005899745056410981,-0.015889592690443956,9.811227536774265,0.0,0.0,0.0,0.0,0.0,0.0,0.0,0.0,0.0
2025/05/06 15:20:10.311182074,1746537610,308016799,mA1/imu,0.7767297100441156,-0.6298335038255337,-0.0007271141317082997,0.00043162330240747765,0.0,0.0,0.0,0.0,0.0,0.0,0.0,0.0,0.0,-1.283461285297939e-05,-8.201936857298064e-05,-2.0679016752776717e-05,0.0,0.0,0.0,0.0,0.0,0.0,0.0,0.0,0.0,0.00590333987220743,-0.015882847620353042,9.810864659742856,0.0,0.0,0.0,0.0,0.0,0.0,0.0,0.0,0.0
2025/05/06 15:20:10.361394880,1746537610,359436760,mA1/imu,0.7767300375326734,-0.6298330975025428,-0.0007306555556437619,0.00042921708149576366,0.0,0.0,0.0,0.0,0.0,0.0,0.0,0.0,0.0,-1.6385570601962564e-05,-0.0002284483282210697,-2.1219736641525605e-05,0.0,0.0,0.0,0.0,0.0,0.0,0.0,0.0,0.0,0.005868799913623135,-0.01527111520100744,9.809031597392487,0.0,0.0,0.0,0.0,0.0,0.0,0.0,0.0,0.0
2025/05/06 15:20:10.413248539,1746537610,410750673,mA1/imu,0.7767303692524619,-0.6298326840616769,-0.0007372226484969407,0.00042434816429830024,0.0,0.0,0.0,0.0,0.0,0.0,0.0,0.0,0.0,-1.3086900394818225e-05,-0.00041834020905296625,-2.1489620557421974e-05,0.0,0.0,0.0,0.0,0.0,0.0,0.0,0.0,0.0,0.009960797599271223,-0.014920160741488917,9.808679246680015,0.0,0.0,0.0,0.0,0.0,0.0,0.0,0.0,0.0
2025/05/06 15:20:10.465276488,1746537610,464357440,mA1/imu,0.776730695564349,-0.6298322739906353,-0.0007485749026515604,0.0004157445404527996,0.0,0.0,0.0,0.0,0.0,0.0,0.0,0.0,0.0,-2.0227335931441547e-05,-0.0006651324152805782,-2.1345070710704534e-05,0.0,0.0,0.0,0.0,0.0,0.0,0.0,0.0,0.0,0.009657498608718531,-0.015598863722188742,9.811159618909548,0.0,0.0,0.0,0.0,0.0,0.0,0.0,0.0,0.0
2025/05/06 15:20:10.513328333,1746537610,512287418,mA1/imu,0.7767310144730182,-0.6298318695571649,-0.000764349679513507,0.0004037516687178725,0.0,0.0,0.0,0.0,0.0,0.0,0.0,0.0,0.0,-2.8298322704030496e-05,-0.0008705412327173468,-2.1128842372507894e-05,0.0,0.0,0.0,0.0,0.0,0.0,0.0,0.0,0.0,0.009548334365027533,-0.015805195150499024,9.810805350725628,0.0,0.0,0.0,0.0,0.0,0.0,0.0,0.0,0.0
2025/05/06 15:20:10.565817666,1746537610,563412719,mA1/imu,0.7767313254145024,-0.6298314717047658,-0.0007835474243038148,0.0003891316911496254,0.0,0.0,0.0,0.0,0.0,0.0,0.0,0.0,0.0,-3.071580050535374e-05,-0.0010194756907517236,-2.0820212312045305e-05,0.0,0.0,0.0,0.0,0.0,0.0,0.0,0.0,0.0,0.009124528940409429,-0.01529761658797053,9.809003937937215,0.0,0.0,0.0,0.0,0.0,0.0,0.0,0.0,0.0
2025/05/06 15:20:10.614923249,1746537610,612127393,mA1/imu,0.7767316278832086,-0.6298310815640561,-0.0008049694618066931,0.0003727813270317188,0.0,0.0,0.0,0.0,0.0,0.0,0.0,0.0,0.0,-3.1181839450329234e-05,-0.0011074218842308432,-2.0418050255613154e-05,0.0,0.0,0.0,0.0,0.0,0.0,0.0,0.0,0.0,0.009001320767446936,-0.015344720444716162,9.808663320661129,0.0,0.0,0.0,0.0,0.0,0.0,0.0,0.0,0.0
2025/05/06 15:20:10.666218050,1746537610,664165289,mA1/imu,0.7767319214901004,-0.6298307004006244,-0.0008273072306027951,0.0003557160407339705,0.0,0.0,0.0,0.0,0.0,0.0,0.0,0.0,0.0,-3.244638763922082e-05,-0.0011258020162013352,-1.991133636023057e-05,0.0,0.0,0.0,0.0,0.0,0.0,0.0,0.0,0.0,0.00855388448779384,-0.01595353410829057,9.811168663711593,0.0,0.0,0.0,0.0,0.0,0.0,0.0,0.0,0.0
2025/05/06 15:20:10.707719753,1746537610,706811428,mA1/imu,0.7767322060288425,-0.6298303295568571,-0.0008492308833902044,0.00033896131798328216,0.0,0.0,0.0,0.0,0.0,0.0,0.0,0.0,0.0,-3.203089711310701e-05,-0.0010793323660990154,-1.9308340850905455e-05,0.0,0.0,0.0,0.0,0.0,0.0,0.0,0.0,0.0,0.00845368254292242,-0.015950024726617,9.810838876216774,0.0,0.0,0.0,0.0,0.0,0.0,0.0,0.0,0.0
2025/05/06 15:20:10.769737636,1746537610,768685260,mA1/imu,0.7767324815066199,-0.6298299704006128,-0.0008694215437336809,0.0003235180227734792,0.0,0.0,0.0,0.0,0.0,0.0,0.0,0.0,0.0,-2.740180896083673e-05,-0.0009663146807679487,-1.8611893915274365e-05,0.0,0.0,0.0,0.0,0.0,0.0,0.0,0.0,0.0,0.00806206733976241,-0.015350825494315252,9.809067608830027,0.0,0.0,0.0,0.0,0.0,0.0,0.0,0.0,0.0
2025/05/06 15:20:10.811763724,1746537610,809094662,mA1/imu,0.776732748118902,-0.6298296241642924,-0.0008867014959649862,0.0003102985357039396,0.0,0.0,0.0,0.0,0.0,0.0,0.0,0.0,0.0,-2.168801106114003e-05,-0.0007986091478678862,-1.784487446743067e-05,0.0,0.0,0.0,0.0,0.0,0.0,0.0,0.0,0.0,0.007997779803987377,-0.015361014453389318,9.8087338466108,0.0,0.0,0.0,0.0,0.0,0.0,0.0,0.0,0.0
2025/05/06 15:20:10.866858799,1746537610,863437366,mA1/imu,0.7767330061958332,-0.6298292918690088,-0.000900075348159153,0.00030009021045850043,0.0,0.0,0.0,0.0,0.0,0.0,0.0,0.0,0.0,-1.7530480659042553e-05,-0.0005835914777778717,-1.702146387667687e-05,0.0,0.0,0.0,0.0,0.0,0.0,0.0,0.0,0.0,0.007787251481016664,-0.015958101184909455,9.811254588331758,0.0,0.0,0.0,0.0,0.0,0.0,0.0,0.0,0.0
2025/05/06 15:20:10.916351078,1746537610,912521326,mA1/imu,0.7767332561381677,-0.6298289742192509,-0.0009088021195843142,0.00029346487551758867,0.0,0.0,0.0,0.0,0.0,0.0,0.0,0.0,0.0,-1.251837225734977e-05,-0.0003375714414471927,-1.6165672876797766e-05,0.0,0.0,0.0,0.0,0.0,0.0,0.0,0.0,0.0,0.0077791845404533025,-0.0159479595464091,9.810929294342609,0.0,0.0,0.0,0.0,0.0,0.0,0.0,0.0,0.0
2025/05/06 15:20:10.961870308,1746537610,960315787,mA1/imu,0.7767334983644437,-0.6298286715389972,-0.0009124015323276411,0.0002907737929955204,0.0,0.0,0.0,0.0,0.0,0.0,0.0,0.0,0.0,-4.256062026321497e-06,-7.313421846446078e-05,-1.530100159289063e-05,0.0,0.0,0.0,0.0,0.0,0.0,0.0,0.0,0.0,0.007744327633275987,-0.015347791696184053,9.809153441992402,0.0,0.0,0.0,0.0,0.0,0.0,0.0,0.0,0.0
2025/05/06 15:20:11.13267948,1746537611,10243102,mA1/imu,0.7767337332430406,-0.6298283836879837,-0.0009107136538384338,0.00029213687153616065,0.0,0.0,0.0,0.0,0.0,0.0,0.0,0.0,0.0,4.0699162327765465e-06,0.00019261111579757504,-1.4454775216327977e-05,0.0,0.0,0.0,0.0,0.0,0.0,0.0,0.0,0.0,0.007790100325349571,-0.015355211161851522,9.808804523971142,0.0,0.0,0.0,0.0,0.0,0.0,0.0,0.0,0.0
2025/05/06 15:20:11.61421371,1746537611,59687521,mA1/imu,0.7767339610637726,-0.629828110058195,-0.0009039035832415026,0.0002974374155074324,0.0,0.0,0.0,0.0,0.0,0.0,0.0,0.0,0.0,9.556202633239872e-06,0.0004437685928756916,-1.3651638790319067e-05,0.0,0.0,0.0,0.0,0.0,0.0,0.0,0.0,0.0,0.00795945875441011,-0.015956682424840943,9.811302870962004,0.0,0.0,0.0,0.0,0.0,0.0,0.0,0.0,0.0
2025/05/06 15:20:11.109690205,1746537611,109274886,mA1/imu,0.7767341894665554,-0.6298278411020203,-0.0008921982354297402,0.00030572669179780766,0.0,0.0,0.0,0.0,0.0,0.0,0.0,0.0,0.0,9.530764970302411e-05,0.0006407572301426738,-1.4480420626274671e-05,0.0,0.0,0.0,0.0,0.0,0.0,0.0,0.0,0.0,0.009915759784689272,0.006180002510311398,9.81098649037142,0.0,0.0,0.0,0.0,0.0,0.0,0.0,0.0,0.0
2025/05/06 15:20:11.162533426,1746537611,160281425,mA1/imu,0.7767344655972878,-0.6298275235221109,-0.0008738942368231222,0.00031124935890709923,0.0,0.0,0.0,0.0,0.0,0.0,0.0,0.0,0.0,0.0003713896067610647,0.0007454901171460857,-1.768217437384521e-05,0.0,0.0,0.0,0.0,0.0,0.0,0.0,0.0,0.0,0.010758186746988037,0.00910465436635448,9.809092386100073,0.0,0.0,0.0,0.0,0.0,0.0,0.0,0.0,0.0
2025/05/06 15:20:11.211910189,1746537611,211515945,mA1/imu,0.7767347955150798,-0.6298271491837398,-0.0008497129146833658,0.00031237028121966053,0.0,0.0,0.0,0.0,0.0,0.0,0.0,0.0,0.0,0.0006822297784758802,0.0007967417474301152,-2.0881843523819765e-05,0.0,0.0,0.0,0.0,0.0,0.0,0.0,0.0,0.0,0.010851422425195911,0.015803930579925657,9.808856074250373,0.0,0.0,0.0,0.0,0.0,0.0,0.0,0.0,0.0
2025/05/06 15:20:11.263947369,1746537611,262435857,mA1/imu,0.7767351812446373,-0.6298267046656328,-0.0008255345087114726,0.0003143241401439729,0.0,0.0,0.0,0.0,0.0,0.0,0.0,0.0,0.0,0.0016212993910145485,0.0007890576550246494,-2.4688177961526844e-05,0.0,0.0,0.0,0.0,0.0,0.0,0.0,0.0,0.0,0.011368037139889361,-0.5623154140419928,9.810090234390717,0.0,0.0,0.0,0.0,0.0,0.0,0.0,0.0,0.0
2025/05/06 15:20:11.312785395,1746537611,312522449,mA1/imu,0.7767356273017699,-0.6298261918945258,-0.0007978325619695974,0.00031104174773972123,0.0,0.0,0.0,0.0,0.0,0.0,0.0,0.0,0.0,7.49436788687578e-05,0.0007954845216980889,-2.826521360007431e-05,0.0,0.0,0.0,0.0,0.0,0.0,0.0,0.0,0.0,0.005480730513053847,0.5792427793760119,9.81116989242614,0.0,0.0,0.0,0.0,0.0,0.0,0.0,0.0,0.0
2025/05/06 15:20:11.366764621,1746537611,365441821,mA1/imu,0.776736122720961,-0.6298256259235075,-0.000764289615561345,0.000304058963881918,0.0,0.0,0.0,0.0,0.0,0.0,0.0,0.0,0.0,0.0011312383945936704,0.0009144789987234984,-3.097139032913537e-05,0.0,0.0,0.0,0.0,0.0,0.0,0.0,0.0,0.0,0.0052800434714918056,0.0177776436929898,9.809779122704857,0.0,0.0,0.0,0.0,0.0,0.0,0.0,0.0,0.0
2025/05/06 15:20:11.408615468,1746537611,405482897,mA1/imu,0.7767366656499599,-0.6298250034089448,-0.0007275459911672243,0.00029663569596250785,0.0,0.0,0.0,0.0,0.0,0.0,0.0,0.0,0.0,0.0011095981120817042,0.0009821561433188083,-3.393039778577811e-05,0.0,0.0,0.0,0.0,0.0,0.0,0.0,0.0,0.0,0.005425710428264007,0.6408891819962328,9.810742659861617,0.0,0.0,0.0,0.0,0.0,0.0,0.0,0.0,0.0
2025/05/06 15:20:11.461955325,1746537611,459256905,mA1/imu,0.7767372515283801,-0.6298243218085701,-0.0006927733089787088,0.00029293626451195584,0.0,0.0,0.0,0.0,0.0,0.0,0.0,0.0,0.0,0.0016686228322753333,0.0009860583800016813,-3.679474981859755e-05,0.0,0.0,0.0,0.0,0.0,0.0,0.0,0.0,0.0,0.004963430202232397,0.2608795759111933,9.810326939931608,0.0,0.0,0.0,0.0,0.0,0.0,0.0,0.0,0.0
2025/05/06 15:20:11.510381076,1746537611,509190667,mA1/imu,0.7767378796929972,-0.6298235851398719,-0.0006588457857454303,0.0002894370672274782,0.0,0.0,0.0,0.0,0.0,0.0,0.0,0.0,0.0,0.0021682179499735743,0.0009378519606562521,-3.939506219261184e-05,0.0,0.0,0.0,0.0,0.0,0.0,0.0,0.0,0.0,0.005917558511968688,0.08622597290943118,9.810389059000547,0.0,0.0,0.0,0.0,0.0,0.0,0.0,0.0,0.0
2025/05/06 15:20:11.561592616,1746537611,560333950,mA1/imu,0.7767385440728058,-0.6298227870152655,-0.0006352453666561937,0.00029592449262483094,0.0,0.0,0.0,0.0,0.0,0.0,0.0,0.0,0.0,0.00023648468114789034,0.000846665204851213,-4.2211874644200456e-05,0.0,0.0,0.0,0.0,0.0,0.0,0.0,0.0,0.0,0.006382149224142914,-0.039911982102731815,9.80926819487489,0.0,0.0,0.0,0.0,0.0,0.0,0.0,0.0,0.0
2025/05/06 15:20:11.612501023,1746537611,611164004,mA1/imu,0.7767392550484835,-0.6298219458906638,-0.000603250525629958,0.0002867577863541786,0.0,0.0,0.0,0.0,0.0,0.0,0.0,0.0,0.0,0.0004922152795190175,0.0007014713609384208,-4.498289021735756e-05,0.0,0.0,0.0,0.0,0.0,0.0,0.0,0.0,0.0,0.006268648712377758,-0.01342555660078416,9.810450624608212,0.0,0.0,0.0,0.0,0.0,0.0,0.0,0.0,0.0
2025/05/06 15:20:11.662466664,1746537611,661866283,mA1/imu,0.776739998360479,-0.6298210499769031,-0.0005823382286266302,0.00028431521549495754,0.0,0.0,0.0,0.0,0.0,0.0,0.0,0.0,0.0,-1.9209106796658714e-05,0.0005148972021084147,-4.7320605386548774e-05,0.0,0.0,0.0,0.0,0.0,0.0,0.0,0.0,0.0,0.006430732089855643,0.5434205568493339,9.809885538257838,0.0,0.0,0.0,0.0,0.0,0.0,0.0,0.0,0.0
2025/05/06 15:20:11.713908809,1746537611,712875766,mA1/imu,0.7767407721792642,-0.6298201052463965,-0.0005710710159600466,0.0002859015093436718,0.0,0.0,0.0,0.0,0.0,0.0,0.0,0.0,0.0,-0.00044924855346128523,0.0003025585572131066,-4.9533549288794796e-05,0.0,0.0,0.0,0.0,0.0,0.0,0.0,0.0,0.0,0.006197081968142693,-0.05089685924784808,9.809818248368787,0.0,0.0,0.0,0.0,0.0,0.0,0.0,0.0,0.0
2025/05/06 15:20:11.764589702,1746537611,764017744,mA1/imu,0.7767415774959333,-0.6298191268932669,-0.000558879724060333,0.0002772038707641695,0.0,0.0,0.0,0.0,0.0,0.0,0.0,0.0,0.0,0.0003123958879889107,7.676129148221549e-05,-5.160288088169838e-05,0.0,0.0,0.0,0.0,0.0,0.0,0.0,0.0,0.0,0.006197463245216925,0.2985247990550766,9.810395846284923,0.0,0.0,0.0,0.0,0.0,0.0,0.0,0.0,0.0
2025/05/06 15:20:11.814073927,1746537611,813728702,mA1/imu,0.7767424032008551,-0.6298180984137273,-0.0005666761614511399,0.0002843561233820608,0.0,0.0,0.0,0.0,0.0,0.0,0.0,0.0,0.0,-0.0019357526666662842,-0.0001445566490993904,-5.3256423248216964e-05,0.0,0.0,0.0,0.0,0.0,0.0,0.0,0.0,0.0,0.0061358781322221854,0.506856566846395,9.810111664282623,0.0,0.0,0.0,0.0,0.0,0.0,0.0,0.0,0.0
2025/05/06 15:20:11.856923153,1746537611,855933683,mA1/imu,0.7767432433112634,-0.6298170571843369,-0.0005737951791906742,0.000281441030425421,0.0,0.0,0.0,0.0,0.0,0.0,0.0,0.0,0.0,-0.0009822426612053976,-0.00037507267951814,-5.4137190494331796e-05,0.0,0.0,0.0,0.0,0.0,0.0,0.0,0.0,0.0,0.006244610770734447,-0.0453235558194135,9.810404674010393,0.0,0.0,0.0,0.0,0.0,0.0,0.0,0.0,0.0
2025/05/06 15:20:11.906582202,1746537611,905526089,mA1/imu,0.7767440932838806,-0.6298159932224705,-0.0005903516083201569,0.00028233804861655455,0.0,0.0,0.0,0.0,0.0,0.0,0.0,0.0,0.0,-0.00011017935076004837,-0.0005704010493180867,-5.500170360096667e-05,0.0,0.0,0.0,0.0,0.0,0.0,0.0,0.0,0.0,0.005759020154235291,-0.5987897695777148,9.809676644411333,0.0,0.0,0.0,0.0,0.0,0.0,0.0,0.0,0.0
2025/05/06 15:20:11.957871515,1746537611,956531465,mA1/imu,0.7767449495173072,-0.6298149232165877,-0.0006074759243218331,0.0002772472558215828,0.0,0.0,0.0,0.0,0.0,0.0,0.0,0.0,0.0,0.0008865007565975851,-0.0007183237315027396,-5.5039181130564065e-05,0.0,0.0,0.0,0.0,0.0,0.0,0.0,0.0,0.0,0.005186984521134052,-0.5169795984360315,9.809265529533393,0.0,0.0,0.0,0.0,0.0,0.0,0.0,0.0,0.0
2025/05/06 15:20:12.7502129,1746537612,6758901,mA1/imu,0.7767457968163309,-0.629813850550995,-0.000634609110499233,0.0002793806882513054,0.0,0.0,0.0,0.0,0.0,0.0,0.0,0.0,0.0,0.0008925491370511994,-0.0008368335917523512,-5.462593761707719e-05,0.0,0.0,0.0,0.0,0.0,0.0,0.0,0.0,0.0,0.005475165641174054,-0.2971925480565893,9.809561270940227,0.0,0.0,0.0,0.0,0.0,0.0,0.0,0.0,0.0
2025/05/06 15:20:12.59975721,1746537612,59393541,mA1/imu,0.7767466292086039,-0.6298127859756216,-0.0006681655791059722,0.00028668703528429815,0.0,0.0,0.0,0.0,0.0,0.0,0.0,0.0,0.0,-0.00019318851340068046,-0.000882000222978598,-5.378653637906439e-05,0.0,0.0,0.0,0.0,0.0,0.0,0.0,0.0,0.0,0.004926513144908119,0.009110588177204521,9.81005380231936,0.0,0.0,0.0,0.0,0.0,0.0,0.0,0.0,0.0
2025/05/06 15:20:12.110517779,1746537612,108626511,mA1/imu,0.7767474424979962,-0.6298117380083467,-0.0007050060642759314,0.0002969952473092744,0.0,0.0,0.0,0.0,0.0,0.0,0.0,0.0,0.0,-0.0020949368828764186,-0.0008748763101798673,-5.2733411544459953e-05,0.0,0.0,0.0,0.0,0.0,0.0,0.0,0.0,0.0,0.005195662415889026,0.4245119040342257,9.810856054306235,0.0,0.0,0.0,0.0,0.0,0.0,0.0,0.0,0.0
2025/05/06 15:20:12.161788790,1746537612,159883215,mA1/imu,0.7767482322359867,-0.6298107200481545,-0.0007397731917245728,0.0003055590281406433,0.0,0.0,0.0,0.0,0.0,0.0,0.0,0.0,0.0,-0.002417260338226526,-0.0008399441474323575,-5.110644077948914e-05,0.0,0.0,0.0,0.0,0.0,0.0,0.0,0.0,0.0,0.005304074166032887,0.5384568624419601,9.810487952922966,0.0,0.0,0.0,0.0,0.0,0.0,0.0,0.0,0.0
2025/05/06 15:20:12.210296560,1746537612,209689764,mA1/imu,0.776748998665375,-0.6298097291443095,-0.0007735165820343222,0.0003159424088385608,0.0,0.0,0.0,0.0,0.0,0.0,0.0,0.0,0.0,-0.0010061954691990998,-0.0007498252418541219,-4.9614923567241323e-05,0.0,0.0,0.0,0.0,0.0,0.0,0.0,0.0,0.0,0.00459148991439607,-0.6223115595962635,9.809678906148708,0.0,0.0,0.0,0.0,0.0,0.0,0.0,0.0,0.0
2025/05/06 15:20:12.262001453,1746537612,261510967,mA1/imu,0.776749739140149,-0.6298087815456506,-0.000799024862731352,0.0003209251658907004,0.0,0.0,0.0,0.0,0.0,0.0,0.0,0.0,0.0,-0.0006798371675572311,-0.0006052028395620811,-4.735034723885178e-05,0.0,0.0,0.0,0.0,0.0,0.0,0.0,0.0,0.0,0.00458089140581321,0.023188720759435393,9.809793520503442,0.0,0.0,0.0,0.0,0.0,0.0,0.0,0.0,0.0
2025/05/06 15:20:12.314495179,1746537612,313819957,mA1/imu,0.7767504450824562,-0.6298078718748858,-0.0008246322608481053,0.00033252107929818294,0.0,0.0,0.0,0.0,0.0,0.0,0.0,0.0,0.0,-0.0015845116166132616,-0.0004459277662455883,-4.5119627863771844e-05,0.0,0.0,0.0,0.0,0.0,0.0,0.0,0.0,0.0,0.008219154225142657,0.5800562131067475,9.810839465721712,0.0,0.0,0.0,0.0,0.0,0.0,0.0,0.0,0.0
2025/05/06 15:20:12.366871351,1746537612,364871478,mA1/imu,0.7767511166734713,-0.6298070015503872,-0.0008500108344267296,0.0003478882111080797,0.0,0.0,0.0,0.0,0.0,0.0,0.0,0.0,0.0,-0.002704183880707805,-0.0003631419133814597,-4.2935461638206186e-05,0.0,0.0,0.0,0.0,0.0,0.0,0.0,0.0,0.0,0.008407522770951843,0.4070364754204249,9.81172784364421,0.0,0.0,0.0,0.0,0.0,0.0,0.0,0.0,0.0
2025/05/06 15:20:12.404839896,1746537612,404559932,mA1/imu,0.776751760424917,-0.629806189621326,-0.0008621106618801383,0.00035065177270571484,0.0,0.0,0.0,0.0,0.0,0.0,0.0,0.0,0.0,-0.001029111304587652,-0.0002505985078900531,-4.0419672261498436e-05,0.0,0.0,0.0,0.0,0.0,0.0,0.0,0.0,0.0,0.007340923475624098,-0.02969132145034426,9.808765918449113,0.0,0.0,0.0,0.0,0.0,0.0,0.0,0.0,0.0
2025/05/06 15:20:12.455905389,1746537612,455476041,mA1/imu,0.7767523686805078,-0.6298054228470373,-0.0008721456373931877,0.00035561731150262694,0.0,0.0,0.0,0.0,0.0,0.0,0.0,0.0,0.0,-0.00023385317164883182,-0.00013753948913265674,-3.817223443955133e-05,0.0,0.0,0.0,0.0,0.0,0.0,0.0,0.0,0.0,0.007692011630755999,0.008300747864598997,9.809073472531095,0.0,0.0,0.0,0.0,0.0,0.0,0.0,0.0,0.0
2025/05/06 15:20:12.506386838,1746537612,505951863,mA1/imu,0.7767529447749035,-0.6298047057770637,-0.0008759452770504968,0.00035788888437612837,0.0,0.0,0.0,0.0,0.0,0.0,0.0,0.0,0.0,-0.0001109079316934224,-9.878834989975887e-06,-3.5834520075624645e-05,0.0,0.0,0.0,0.0,0.0,0.0,0.0,0.0,0.0,0.007735358273812372,0.0010587495359977786,9.8104391757171,0.0,0.0,0.0,0.0,0.0,0.0,0.0,0.0,0.0
2025/05/06 15:20:12.560143870,1746537612,558646714,mA1/imu,0.7767534704667964,-0.6298040519931958,-0.0008778259187922935,0.00036281179134695963,0.0,0.0,0.0,0.0,0.0,0.0,0.0,0.0,0.0,0.0008991647683397451,0.0001101690246714901,-3.1760874609015454e-05,0.0,0.0,0.0,0.0,0.0,0.0,0.0,0.0,0.0,0.0075716792222557915,-0.5733987552215642,9.808957260830775,0.0,0.0,0.0,0.0,0.0,0.0,0.0,0.0,0.0
2025/05/06 15:20:12.609189739,1746537612,608674697,mA1/imu,0.776753938194578,-0.6298034832452819,-0.0008718762822073492,0.0003630744720406567,0.0,0.0,0.0,0.0,0.0,0.0,0.0,0.0,0.0,-0.00020187842637447477,0.00024265555894892278,-2.7624117279716864e-05,0.0,0.0,0.0,0.0,0.0,0.0,0.0,0.0,0.0,0.007704822464296633,-0.035266392684476434,9.810847409860033,0.0,0.0,0.0,0.0,0.0,0.0,0.0,0.0,0.0
2025/05/06 15:20:12.660651377,1746537612,659603494,mA1/imu,0.7767543357415735,-0.6298030192673923,-0.0008558395814359273,0.0003554812995296546,0.0,0.0,0.0,0.0,0.0,0.0,0.0,0.0,0.0,-0.0007321707885543992,0.0003561456476568999,-2.24738230852103e-05,0.0,0.0,0.0,0.0,0.0,0.0,0.0,0.0,0.0,0.008060134373048353,0.5427263882177965,9.811488631837037,0.0,0.0,0.0,0.0,0.0,0.0,0.0,0.0,0.0
2025/05/06 15:20:12.713338074,1746537612,712167898,mA1/imu,0.7767546480689408,-0.6298026547610707,-0.0008412887711007921,0.00035354265246349007,0.0,0.0,0.0,0.0,0.0,0.0,0.0,0.0,0.0,0.00014536828657933483,0.000439818779790238,-1.6483544867039695e-05,0.0,0.0,0.0,0.0,0.0,0.0,0.0,0.0,0.0,0.007387282555160985,-0.03499039545674942,9.810365255469895,0.0,0.0,0.0,0.0,0.0,0.0,0.0,0.0,0.0
2025/05/06 15:20:12.765834552,1746537612,763651896,mA1/imu,0.7767548587431764,-0.6298024186277219,-0.000824281366056981,0.00035138265398504013,0.0,0.0,0.0,0.0,0.0,0.0,0.0,0.0,0.0,0.0004924099589265461,0.00048542335265546876,-9.754501914213667e-06,0.0,0.0,0.0,0.0,0.0,0.0,0.0,0.0,0.0,0.008513462420877067,-0.6538833738380307,9.810704685475864,0.0,0.0,0.0,0.0,0.0,0.0,0.0,0.0,0.0
2025/05/06 15:20:12.812561353,1746537612,812149192,mA1/imu,0.7767549704345083,-0.6298023285233976,-0.0007944409303855459,0.00033429837057816366,0.0,0.0,0.0,0.0,0.0,0.0,0.0,0.0,0.0,0.0019318128740804864,0.0005063065313034646,-3.1891756551294823e-06,0.0,0.0,0.0,0.0,0.0,0.0,0.0,0.0,0.0,0.007717945381320016,-0.560302042133206,9.808612668118492,0.0,0.0,0.0,0.0,0.0,0.0,0.0,0.0,0.0
2025/05/06 15:20:12.864419180,1746537612,863328575,mA1/imu,0.7767549828364808,-0.6298023531437222,-0.0007675451483192173,0.0003216951570694133,0.0,0.0,0.0,0.0,0.0,0.0,0.0,0.0,0.0,0.0009290648902667528,0.0005190158738609788,2.8888623015610335e-06,0.0,0.0,0.0,0.0,0.0,0.0,0.0,0.0,0.0,0.007762029095203912,0.6253801793750323,9.810678709822469,0.0,0.0,0.0,0.0,0.0,0.0,0.0,0.0,0.0
2025/05/06 15:20:12.913552201,1746537612,913120939,mA1/imu,0.7767548953104959,-0.6298024929176996,-0.0007444978722127361,0.00031344656580027555,0.0,0.0,0.0,0.0,0.0,0.0,0.0,0.0,0.0,0.00029549579085143057,0.0005008966706980747,9.082577226788818e-06,0.0,0.0,0.0,0.0,0.0,0.0,0.0,0.0,0.0,0.00804308221967183,0.5385124967072282,9.810836600228356,0.0,0.0,0.0,0.0,0.0,0.0,0.0,0.0,0.0
2025/05/06 15:20:12.966823426,1746537612,965341386,mA1/imu,0.776754705486998,-0.6298027612636636,-0.0007200309462687816,0.00030160223466671747,0.0,0.0,0.0,0.0,0.0,0.0,0.0,0.0,0.0,0.0010785677293603283,0.0004392747404552748,1.5717570908815325e-05,0.0,0.0,0.0,0.0,0.0,0.0,0.0,0.0,0.0,0.008143290295540288,0.00562928603283294,9.8090066868711,0.0,0.0,0.0,0.0,0.0,0.0,0.0,0.0,0.0
2025/05/06 15:20:13.5344492,1746537613,5058797,mA1/imu,0.7767544099114788,-0.6298031552237631,-0.0006984588909316981,0.00029070335528300946,0.0,0.0,0.0,0.0,0.0,0.0,0.0,0.0,0.0,0.0007825251125387546,0.0003614556010752545,2.223008610777732e-05,0.0,0.0,0.0,0.0,0.0,0.0,0.0,0.0,0.0,0.00825070510876051,-0.010531137678428858,9.808915639488324,0.0,0.0,0.0,0.0,0.0,0.0,0.0,0.0,0.0
2025/05/06 15:20:13.58368535,1746537613,57851124,mA1/imu,0.7767540163651868,-0.6298036674972195,-0.00067889157658457,0.0002785207901373711,0.0,0.0,0.0,0.0,0.0,0.0,0.0,0.0,0.0,-0.00018270052403051955,0.0002635302332943297,2.8026391542170203e-05,0.0,0.0,0.0,0.0,0.0,0.0,0.0,0.0,0.0,0.008505021811079976,0.5594407018530931,9.81099133156894,0.0,0.0,0.0,0.0,0.0,0.0,0.0,0.0,0.0
2025/05/06 15:20:13.109902722,1746537613,107669600,mA1/imu,0.7767535264442841,-0.6298042867810046,-0.0006674335162373695,0.0002721050170042254,0.0,0.0,0.0,0.0,0.0,0.0,0.0,0.0,0.0,-0.0001372690836316211,0.00015195649068423998,3.385111523225916e-05,0.0,0.0,0.0,0.0,0.0,0.0,0.0,0.0,0.0,0.00797122061471329,-0.0538006033917493,9.81009687256036,0.0,0.0,0.0,0.0,0.0,0.0,0.0,0.0,0.0
2025/05/06 15:20:13.162365294,1746537613,160518777,mA1/imu,0.7767529450106667,-0.6298050190593557,-0.0006569833468651753,0.0002622170525250218,0.0,0.0,0.0,0.0,0.0,0.0,0.0,0.0,0.0,0.0004764275399993157,2.3757744162826704e-05,3.955184007361554e-05,0.0,0.0,0.0,0.0,0.0,0.0,0.0,0.0,0.0,0.00868754177275072,-0.6329717215207749,9.80972737826027,0.0,0.0,0.0,0.0,0.0,0.0,0.0,0.0,0.0
2025/05/06 15:20:13.211058006,1746537613,210608693,mA1/imu,0.7767522705523896,-0.6298058646305016,-0.0006486204155531354,0.0002497204237993305,0.0,0.0,0.0,0.0,0.0,0.0,0.0,0.0,0.0,0.0006164785299611308,-0.00011101639111600324,4.54317899611145e-05,0.0,0.0,0.0,0.0,0.0,0.0,0.0,0.0,0.0,0.008898474185373652,0.018091112084210784,9.809796501348062,0.0,0.0,0.0,0.0,0.0,0.0,0.0,0.0,0.0
