time,header_stamp_secs,header_stamp_nsecs,header_frame_id,orientation_x,orientation_y,orientation_z,orientation_w,orientation_covariance_0,orientation_covariance_1,orientation_covariance_2,orientation_covariance_3,orientation_covariance_4,orientation_covariance_5,orientation_covariance_6,orientation_covariance_7,orientation_covariance_8,angular_velocity_x,angular_velocity_y,angular_velocity_z,angular_velocity_covariance_0,angular_velocity_covariance_1,angular_velocity_covariance_2,angular_velocity_covariance_3,angular_velocity_covariance_4,angular_velocity_covariance_5,angular_velocity_covariance_6,angular_velocity_covariance_7,angular_velocity_covariance_8,linear_acceleration_x,linear_acceleration_y,linear_acceleration_z,linear_acceleration_covariance_0,linear_acceleration_covariance_1,linear_acceleration_covariance_2,linear_acceleration_covariance_3,linear_acceleration_covariance_4,linear_acceleration_covariance_5,linear_acceleration_covariance_6,linear_acceleration_covariance_7,linear_acceleration_covariance_8
2025/04/11 12:08:16.139597959,1744366096,137530245,mti/imu_base_body,0.7720896715010237,0.635454414442582,0.006225198731380648,-0.006039306883339809,0.017453292519943295,0.0,0.0,0.0,0.017453292519943295,0.0,0.0,0.0,0.15707963267948966,0.01240255031734705,0.006943030282855034,0.11665299534797668,0.0004363323129985824,0.0,0.0,0.0,0.0004363323129985824,0.0,0.0,0.0,0.0004363323129985824,-0.17276409268379211,0.05967916175723076,9.767260551452637,0.0004,0.0,0.0,0.0,0.0004,0.0,0.0,0.0,0.0004
2025/04/11 12:08:16.259957762,1744366096,189959266,mti/imu_base_body,0.7724649289726442,0.6349983837713469,0.0062296025749818094,-0.006014828910533268,0.017453292519943295,0.0,0.0,0.0,0.017453292519943295,0.0,0.0,0.0,0.15707963267948966,0.0044435616582632065,-0.0006078488077037036,0.11591354012489319,0.0004363323129985824,0.0,0.0,0.0,0.0004363323129985824,0.0,0.0,0.0,0.0004363323129985824,-0.14329461753368378,0.06927970796823502,9.870715141296387,0.0004,0.0,0.0,0.0,0.0004,0.0,0.0,0.0,0.0004
2025/04/11 12:08:16.276845172,1744366096,237430717,mti/imu_base_body,0.7728417532611443,0.6345398312430929,0.006219379968459674,-0.00601217889251417,0.017453292519943295,0.0,0.0,0.0,0.017453292519943295,0.0,0.0,0.0,0.15707963267948966,0.009964347817003727,0.004705574829131365,0.12132294476032257,0.0004363323129985824,0.0,0.0,0.0,0.0004363323129985824,0.0,0.0,0.0,0.0004363323129985824,-0.1584802269935608,0.060233794152736664,9.84791374206543,0.0004,0.0,0.0,0.0,0.0004,0.0,0.0,0.0,0.0004
2025/04/11 12:08:16.287619696,1744366096,287374086,mti/imu_base_body,0.7732007540031041,0.634102282256116,0.006225974022337327,-0.006010565205507953,0.017453292519943295,0.0,0.0,0.0,0.017453292519943295,0.0,0.0,0.0,0.15707963267948966,0.008424816653132439,0.005509587470442057,0.11439283192157745,0.0004363323129985824,0.0,0.0,0.0,0.0004363323129985824,0.0,0.0,0.0,0.0004363323129985824,-0.16318275034427643,0.055275846272706985,9.777336120605469,0.0004,0.0,0.0,0.0,0.0004,0.0,0.0,0.0,0.0004
2025/04/11 12:08:16.338132481,1744366096,337733460,mti/imu_base_body,0.7735776308867276,0.6336423525699512,0.006232248829837572,-0.006014739879520332,0.017453292519943295,0.0,0.0,0.0,0.017453292519943295,0.0,0.0,0.0,0.15707963267948966,0.009899308905005455,0.004489552695304155,0.11371932178735733,0.0004363323129985824,0.0,0.0,0.0,0.0004363323129985824,0.0,0.0,0.0,0.0004363323129985824,-0.20271478593349457,0.08709670603275299,9.746654510498047,0.0004,0.0,0.0,0.0,0.0004,0.0,0.0,0.0,0.0004
2025/04/11 12:08:16.388428993,1744366096,387422724,mti/imu_base_body,0.7739358716804599,0.6332050924601886,0.006208640795117233,-0.0060025151535032855,0.017453292519943295,0.0,0.0,0.0,0.017453292519943295,0.0,0.0,0.0,0.15707963267948966,0.009005457162857056,-0.0013935643946751952,0.1161164939403534,0.0004363323129985824,0.0,0.0,0.0,0.0004363323129985824,0.0,0.0,0.0,0.0004363323129985824,-0.1589222401380539,0.08102592825889587,9.830994606018066,0.0004,0.0,0.0,0.0,0.0004,0.0,0.0,0.0,0.0004
2025/04/11 12:08:16.437639913,1744366096,437366322,mti/imu_base_body,0.7742940409920306,0.6327671490064429,0.0062046885813587145,-0.0059979214814900525,0.017453292519943295,0.0,0.0,0.0,0.017453292519943295,0.0,0.0,0.0,0.15707963267948966,0.013847291469573975,0.004792115651071072,0.11067353934049606,0.0004363323129985824,0.0,0.0,0.0,0.0004363323129985824,0.0,0.0,0.0,0.0004363323129985824,-0.15069083869457245,0.08218800276517868,9.86326789855957,0.0004,0.0,0.0,0.0,0.0004,0.0,0.0,0.0,0.0004
2025/04/11 12:08:16.488351694,1744366096,488064841,mti/imu_base_body,0.7746359840384842,0.632348466254405,0.006218295709982367,-0.005986840309705104,0.017453292519943295,0.0,0.0,0.0,0.017453292519943295,0.0,0.0,0.0,0.15707963267948966,0.000459596369182691,0.005738148465752602,0.11889375001192093,0.0004363323129985824,0.0,0.0,0.0,0.0004363323129985824,0.0,0.0,0.0,0.0004363323129985824,-0.19527703523635864,0.06030387058854103,9.80882453918457,0.0004,0.0,0.0,0.0,0.0004,0.0,0.0,0.0,0.0004
2025/04/11 12:08:16.538767483,1744366096,537550020,mti/imu_base_body,0.7750269173005221,0.6318693275096453,0.006228941975191004,-0.005969145167270954,0.017453292519943295,0.0,0.0,0.0,0.017453292519943295,0.0,0.0,0.0,0.15707963267948966,0.0009450680809095502,0.001827443833462894,0.1165272518992424,0.0004363323129985824,0.0,0.0,0.0,0.0004363323129985824,0.0,0.0,0.0,0.0004363323129985824,-0.18669001758098602,0.07203684747219086,9.734034538269043,0.0004,0.0,0.0,0.0,0.0004,0.0,0.0,0.0,0.0004
2025/04/11 12:08:16.590966138,1744366096,587682679,mti/imu_base_body,0.7753642887560189,0.6314554423082094,0.00624386316785184,-0.005937867795568797,0.017453292519943295,0.0,0.0,0.0,0.017453292519943295,0.0,0.0,0.0,0.15707963267948966,0.006162821315228939,-0.000521020672749728,0.1111295223236084,0.0004363323129985824,0.0,0.0,0.0,0.0004363323129985824,0.0,0.0,0.0,0.0004363323129985824,-0.16029810905456543,0.061730947345495224,9.834233283996582,0.0004,0.0,0.0,0.0,0.0004,0.0,0.0,0.0,0.0004
2025/04/11 12:08:16.637810797,1744366096,637447580,mti/imu_base_body,0.7757611746350527,0.630968272292025,0.006250568773531408,-0.005879598597480463,0.017453292519943295,0.0,0.0,0.0,0.017453292519943295,0.0,0.0,0.0,0.15707963267948966,0.003923868294805288,-0.0014389626448974013,0.12629923224449158,0.0004363323129985824,0.0,0.0,0.0,0.0004363323129985824,0.0,0.0,0.0,0.0004363323129985824,-0.12433319538831711,0.06079820543527603,9.872846603393555,0.0004,0.0,0.0,0.0,0.0004,0.0,0.0,0.0,0.0004
2025/04/11 12:08:16.687825754,1744366096,687465539,mti/imu_base_body,0.7761379899399561,0.6305047208586758,0.0062659579187591755,-0.005861340994022092,0.017453292519943295,0.0,0.0,0.0,0.017453292519943295,0.0,0.0,0.0,0.15707963267948966,0.00524393655359745,0.0064898389391601086,0.12396275997161865,0.0004363323129985824,0.0,0.0,0.0,0.0004363323129985824,0.0,0.0,0.0,0.0004363323129985824,-0.16146248579025269,0.052404794842004776,9.818391799926758,0.0004,0.0,0.0,0.0,0.0004,0.0,0.0,0.0,0.0004
2025/04/11 12:08:16.737852198,1744366096,737475939,mti/imu_base_body,0.7765312233798161,0.6300197878240668,0.0063172152277778245,-0.005866758741409495,0.017453292519943295,0.0,0.0,0.0,0.017453292519943295,0.0,0.0,0.0,0.15707963267948966,0.004106827545911074,0.013471227139234543,0.12068943679332733,0.0004363323129985824,0.0,0.0,0.0,0.0004363323129985824,0.0,0.0,0.0,0.0004363323129985824,-0.1932900995016098,0.05214770883321762,9.726706504821777,0.0004,0.0,0.0,0.0,0.0004,0.0,0.0,0.0,0.0004
2025/04/11 12:08:16.788113216,1744366096,787554078,mti/imu_base_body,0.7769089492484476,0.6295542376798167,0.006305017219188796,-0.00584749133592414,0.017453292519943295,0.0,0.0,0.0,0.017453292519943295,0.0,0.0,0.0,0.15707963267948966,0.005516224540770054,-0.0035881183575838804,0.1175328940153122,0.0004363323129985824,0.0,0.0,0.0,0.0004363323129985824,0.0,0.0,0.0,0.0004363323129985824,-0.1704138070344925,0.06719256937503815,9.809646606445312,0.0004,0.0,0.0,0.0,0.0004,0.0,0.0,0.0,0.0004
2025/04/11 12:08:16.891494043,1744366096,837818500,mti/imu_base_body,0.7772807308224019,0.6290949715456255,0.006337190814934019,-0.005832862142768423,0.017453292519943295,0.0,0.0,0.0,0.017453292519943295,0.0,0.0,0.0,0.15707963267948966,0.0021975357085466385,0.006145840510725975,0.12108909338712692,0.0004363323129985824,0.0,0.0,0.0,0.0004363323129985824,0.0,0.0,0.0,0.0004363323129985824,-0.15018382668495178,0.06712473928928375,9.891239166259766,0.0004,0.0,0.0,0.0,0.0004,0.0,0.0,0.0,0.0004
2025/04/11 12:08:16.937646754,1744366096,937403079,mti/imu_base_body,0.7780107315803726,0.6281925060449363,0.006369859864614245,-0.00573600732752442,0.017453292519943295,0.0,0.0,0.0,0.017453292519943295,0.0,0.0,0.0,0.15707963267948966,-0.0035275169648230076,0.001985216746106744,0.11476657539606094,0.0004363323129985824,0.0,0.0,0.0,0.0004363323129985824,0.0,0.0,0.0,0.0004363323129985824,-0.17536257207393646,0.04687190055847168,9.761031150817871,0.0004,0.0,0.0,0.0,0.0004,0.0,0.0,0.0,0.0004
2025/04/11 12:08:16.988267833,1744366096,987527710,mti/imu_base_body,0.7783923415318115,0.6277193871426943,0.006409155645854969,-0.005714575551264899,0.017453292519943295,0.0,0.0,0.0,0.017453292519943295,0.0,0.0,0.0,0.15707963267948966,-0.0008096221718005836,0.006039280444383621,0.12370721250772476,0.0004363323129985824,0.0,0.0,0.0,0.0004363323129985824,0.0,0.0,0.0,0.0004363323129985824,-0.16872552037239075,0.05943514406681061,9.81479549407959,0.0004,0.0,0.0,0.0,0.0004,0.0,0.0,0.0,0.0004
2025/04/11 12:08:17.40934767,1744366097,37719684,mti/imu_base_body,0.7787669506264415,0.6272548043443477,0.006415696958264641,-0.005682065774658151,0.017453292519943295,0.0,0.0,0.0,0.017453292519943295,0.0,0.0,0.0,0.15707963267948966,0.010347636416554451,-0.002500539179891348,0.1161176934838295,0.0004363323129985824,0.0,0.0,0.0,0.0004363323129985824,0.0,0.0,0.0,0.0004363323129985824,-0.1589430570602417,0.07308215647935867,9.864242553710938,0.0004,0.0,0.0,0.0,0.0004,0.0,0.0,0.0,0.0004
2025/04/11 12:08:17.100105072,1744366097,87479356,mti/imu_base_body,0.7791190262734884,0.62681797330148,0.00638047654481094,-0.005662222526295447,0.017453292519943295,0.0,0.0,0.0,0.017453292519943295,0.0,0.0,0.0,0.15707963267948966,0.006542546674609184,-0.0030684068333357573,0.11576789617538452,0.0004363323129985824,0.0,0.0,0.0,0.0004363323129985824,0.0,0.0,0.0,0.0004363323129985824,-0.19318294525146484,0.08401722460985184,9.827556610107422,0.0004,0.0,0.0,0.0,0.0004,0.0,0.0,0.0,0.0004
2025/04/11 12:08:17.146784914,1744366097,142792962,mti/imu_base_body,0.7794859760432293,0.626362032204909,0.006350652574045607,-0.005646855404042688,0.017453292519943295,0.0,0.0,0.0,0.017453292519943295,0.0,0.0,0.0,0.15707963267948966,0.012138904072344303,0.00046845671022310853,0.11968143284320831,0.0004363323129985824,0.0,0.0,0.0,0.0004363323129985824,0.0,0.0,0.0,0.0004363323129985824,-0.17588728666305542,0.07058391720056534,9.755990982055664,0.0004,0.0,0.0,0.0,0.0004,0.0,0.0,0.0,0.0004
2025/04/11 12:08:17.188293660,1744366097,187933698,mti/imu_base_body,0.7798695502332686,0.6258844541080681,0.006329601391408746,-0.005663114958261524,0.017453292519943295,0.0,0.0,0.0,0.017453292519943295,0.0,0.0,0.0,0.15707963267948966,0.013067774474620819,0.0031769073102623224,0.12322816252708435,0.0004363323129985824,0.0,0.0,0.0,0.0004363323129985824,0.0,0.0,0.0,0.0004363323129985824,-0.16216696798801422,0.06237364187836647,9.822351455688477,0.0004,0.0,0.0,0.0,0.0004,0.0,0.0,0.0,0.0004
2025/04/11 12:08:17.240363009,1744366097,238154536,mti/imu_base_body,0.7802658333131585,0.625390629493991,0.006348732927654956,-0.005611015544910128,0.017453292519943295,0.0,0.0,0.0,0.017453292519943295,0.0,0.0,0.0,0.15707963267948966,-0.0024911945220083,-0.0021003081928938627,0.1250959038734436,0.0004363323129985824,0.0,0.0,0.0,0.0004363323129985824,0.0,0.0,0.0,0.0004363323129985824,-0.14626941084861755,0.03943314775824547,9.875393867492676,0.0004,0.0,0.0,0.0,0.0004,0.0,0.0,0.0,0.0004
2025/04/11 12:08:17.299958134,1744366097,287408391,mti/imu_base_body,0.7806594253321403,0.6248995076274794,0.006357869712368056,-0.005571759124987121,0.017453292519943295,0.0,0.0,0.0,0.017453292519943295,0.0,0.0,0.0,0.15707963267948966,0.005530715454369783,0.0038281194865703583,0.1255187839269638,0.0004363323129985824,0.0,0.0,0.0,0.0004363323129985824,0.0,0.0,0.0,0.0004363323129985824,-0.19641117751598358,0.06745500862598419,9.825871467590332,0.0004,0.0,0.0,0.0,0.0004,0.0,0.0,0.0,0.0004
2025/04/11 12:08:17.338642432,1744366097,337558809,mti/imu_base_body,0.7810043444330252,0.6244682986835812,0.006356203211839589,-0.005581809447102768,0.017453292519943295,0.0,0.0,0.0,0.017453292519943295,0.0,0.0,0.0,0.15707963267948966,0.010829652659595013,0.0057014767080545425,0.11867275834083557,0.0004363323129985824,0.0,0.0,0.0,0.0004363323129985824,0.0,0.0,0.0,0.0004363323129985824,-0.19151288270950317,0.06540940701961517,9.731396675109863,0.0004,0.0,0.0,0.0,0.0004,0.0,0.0,0.0,0.0004
2025/04/11 12:08:17.391238085,1744366097,389853593,mti/imu_base_body,0.7813925760008883,0.6239825976733008,0.006338596518891393,-0.005584099367505258,0.017453292519943295,0.0,0.0,0.0,0.017453292519943295,0.0,0.0,0.0,0.15707963267948966,0.011797021143138409,0.0002791081788018346,0.11340247839689255,0.0004363323129985824,0.0,0.0,0.0,0.0004363323129985824,0.0,0.0,0.0,0.0004363323129985824,-0.15752920508384705,0.06755978614091873,9.810108184814453,0.0004,0.0,0.0,0.0,0.0004,0.0,0.0,0.0,0.0004
2025/04/11 12:08:17.438593244,1744366097,438245402,mti/imu_base_body,0.7817590973956532,0.6235234996806167,0.0063449074483500935,-0.005558878901485046,0.017453292519943295,0.0,0.0,0.0,0.017453292519943295,0.0,0.0,0.0,0.15707963267948966,0.005153454840183258,0.0018607203382998705,0.11684221774339676,0.0004363323129985824,0.0,0.0,0.0,0.0004363323129985824,0.0,0.0,0.0,0.0004363323129985824,-0.14438292384147644,0.05581967905163765,9.876466751098633,0.0004,0.0,0.0,0.0,0.0004,0.0,0.0,0.0,0.0004
2025/04/11 12:08:17.489418452,1744366097,487424555,mti/imu_base_body,0.7821169165869435,0.6230742170640802,0.006361517301084652,-0.0055838979345462095,0.017453292519943295,0.0,0.0,0.0,0.017453292519943295,0.0,0.0,0.0,0.15707963267948966,0.011074049398303032,0.011914745904505253,0.11757048964500427,0.0004363323129985824,0.0,0.0,0.0,0.0004363323129985824,0.0,0.0,0.0,0.0004363323129985824,-0.14990070462226868,0.042678672820329666,9.854864120483398,0.0004,0.0,0.0,0.0,0.0004,0.0,0.0,0.0,0.0004
2025/04/11 12:08:17.541900516,1744366097,541511751,mti/imu_base_body,0.7824813086539653,0.6226162522798462,0.006381558080356176,-0.005592827607194637,0.017453292519943295,0.0,0.0,0.0,0.017453292519943295,0.0,0.0,0.0,0.15707963267948966,0.00851362943649292,0.006631708238273859,0.12073131650686264,0.0004363323129985824,0.0,0.0,0.0,0.0004363323129985824,0.0,0.0,0.0,0.0004363323129985824,-0.17818784713745117,0.06190583109855652,9.748062133789062,0.0004,0.0,0.0,0.0,0.0004,0.0,0.0,0.0,0.0004
2025/04/11 12:08:17.623719106,1744366097,587513566,mti/imu_base_body,0.7828538758216366,0.622147866793257,0.006388758542420829,-0.005569983835503685,0.017453292519943295,0.0,0.0,0.0,0.017453292519943295,0.0,0.0,0.0,0.15707963267948966,0.004819405730813742,-0.0017435946501791477,0.11458402127027512,0.0004363323129985824,0.0,0.0,0.0,0.0004363323129985824,0.0,0.0,0.0,0.0004363323129985824,-0.1795957237482071,0.04814612865447998,9.79812240600586,0.0004,0.0,0.0,0.0,0.0004,0.0,0.0,0.0,0.0004
2025/04/11 12:08:17.666934758,1744366097,637385818,mti/imu_base_body,0.7831946262306514,0.6217186868528907,0.006398165487845118,-0.005578112560516276,0.017453292519943295,0.0,0.0,0.0,0.017453292519943295,0.0,0.0,0.0,0.15707963267948966,0.004069926682859659,0.010390565730631351,0.11501285433769226,0.0004363323129985824,0.0,0.0,0.0,0.0004363323129985824,0.0,0.0,0.0,0.0004363323129985824,-0.15556256473064423,0.0669037327170372,9.85631275177002,0.0004,0.0,0.0,0.0,0.0004,0.0,0.0,0.0,0.0004
2025/04/11 12:08:17.691682130,1744366097,687551119,mti/imu_base_body,0.7835395387879867,0.6212835301649777,0.006442390878506205,-0.005573320502254112,0.017453292519943295,0.0,0.0,0.0,0.017453292519943295,0.0,0.0,0.0,0.15707963267948966,0.008848738856613636,0.007154450751841068,0.10652779787778854,0.0004363323129985824,0.0,0.0,0.0,0.0004363323129985824,0.0,0.0,0.0,0.0004363323129985824,-0.1461981236934662,0.05457127094268799,9.854613304138184,0.0004,0.0,0.0,0.0,0.0004,0.0,0.0,0.0,0.0004
2025/04/11 12:08:17.747970358,1744366097,737885000,mti/imu_base_body,0.783880321174559,0.6208529660091312,0.006480492787378509,-0.005589265261865794,0.017453292519943295,0.0,0.0,0.0,0.017453292519943295,0.0,0.0,0.0,0.15707963267948966,0.009539992548525333,0.014512667432427406,0.11767418682575226,0.0004363323129985824,0.0,0.0,0.0,0.0004363323129985824,0.0,0.0,0.0,0.0004363323129985824,-0.16980278491973877,0.07292316854000092,9.779975891113281,0.0004,0.0,0.0,0.0,0.0004,0.0,0.0,0.0,0.0004
2025/04/11 12:08:17.852393810,1744366097,787532414,mti/imu_base_body,0.7842364016527998,0.6204029822604307,0.0064990612702980465,-0.005582842254349371,0.017453292519943295,0.0,0.0,0.0,0.017453292519943295,0.0,0.0,0.0,0.15707963267948966,0.006188815459609032,0.006052040960639715,0.10873311758041382,0.0004363323129985824,0.0,0.0,0.0,0.0004363323129985824,0.0,0.0,0.0,0.0004363323129985824,-0.17236287891864777,0.04377119988203049,9.784067153930664,0.0004,0.0,0.0,0.0,0.0004,0.0,0.0,0.0,0.0004
2025/04/11 12:08:17.905535866,1744366097,838155903,mti/imu_base_body,0.7846011785586784,0.6199410949446102,0.006525926582836873,-0.005607288600203315,0.017453292519943295,0.0,0.0,0.0,0.017453292519943295,0.0,0.0,0.0,0.15707963267948966,0.009263831190764904,0.015546451322734356,0.11696575582027435,0.0004363323129985824,0.0,0.0,0.0,0.0004363323129985824,0.0,0.0,0.0,0.0004363323129985824,-0.1544153094291687,0.04858427494764328,9.842138290405273,0.0004,0.0,0.0,0.0,0.0004,0.0,0.0,0.0,0.0004
2025/04/11 12:08:17.921944521,1744366097,890448102,mti/imu_base_body,0.784947422143361,0.6195024325517897,0.006573791004234631,-0.005573670670235266,0.017453292519943295,0.0,0.0,0.0,0.017453292519943295,0.0,0.0,0.0,0.15707963267948966,-0.005270504858344793,0.004080296494066715,0.11477585881948471,0.0004363323129985824,0.0,0.0,0.0,0.0004363323129985824,0.0,0.0,0.0,0.0004363323129985824,-0.15745887160301208,0.05502638965845108,9.855117797851562,0.0004,0.0,0.0,0.0,0.0004,0.0,0.0,0.0,0.0004
2025/04/11 12:08:17.959856468,1744366097,938590555,mti/imu_base_body,0.7852895727998096,0.6190681724837218,0.006636433720735841,-0.005553594964292027,0.017453292519943295,0.0,0.0,0.0,0.017453292519943295,0.0,0.0,0.0,0.15707963267948966,-0.003660239279270172,0.01052174624055624,0.11507218331098557,0.0004363323129985824,0.0,0.0,0.0,0.0004363323129985824,0.0,0.0,0.0,0.0004363323129985824,-0.16154950857162476,0.058143049478530884,9.78825569152832,0.0004,0.0,0.0,0.0,0.0004,0.0,0.0,0.0,0.0004
2025/04/11 12:08:17.988313861,1744366097,988030424,mti/imu_base_body,0.785653917044518,0.6186057503580853,0.00666141912706063,-0.005520303590333032,0.017453292519943295,0.0,0.0,0.0,0.017453292519943295,0.0,0.0,0.0,0.15707963267948966,0.0021663245279341936,0.003100687637925148,0.11643727868795395,0.0004363323129985824,0.0,0.0,0.0,0.0004363323129985824,0.0,0.0,0.0,0.0004363323129985824,-0.16806761920452118,0.06748029589653015,9.771709442138672,0.0004,0.0,0.0,0.0,0.0004,0.0,0.0,0.0,0.0004
2025/04/11 12:08:18.55383715,1744366098,38121792,mti/imu_base_body,0.7860016757678321,0.6181635380797084,0.006681144086844472,-0.005528850931908943,0.017453292519943295,0.0,0.0,0.0,0.017453292519943295,0.0,0.0,0.0,0.15707963267948966,0.006865381263196468,0.0058500682935118675,0.11157352477312088,0.0004363323129985824,0.0,0.0,0.0,0.0004363323129985824,0.0,0.0,0.0,0.0004363323129985824,-0.15167804062366486,0.05447249859571457,9.863749504089355,0.0004,0.0,0.0,0.0,0.0004,0.0,0.0,0.0,0.0004
2025/04/11 12:08:18.121538096,1744366098,88382020,mti/imu_base_body,0.7863554471332701,0.6177132275178212,0.006711371937631307,-0.005516955688237842,0.017453292519943295,0.0,0.0,0.0,0.017453292519943295,0.0,0.0,0.0,0.15707963267948966,0.010231957770884037,0.010207979008555412,0.11157242208719254,0.0004363323129985824,0.0,0.0,0.0,0.0004363323129985824,0.0,0.0,0.0,0.0004363323129985824,-0.14756247401237488,0.062357187271118164,9.85737419128418,0.0004,0.0,0.0,0.0,0.0004,0.0,0.0,0.0,0.0004
2025/04/11 12:08:18.179225985,1744366098,137959503,mti/imu_base_body,0.7867077550860488,0.6172642807841549,0.0067297613148638545,-0.00551598297083878,0.017453292519943295,0.0,0.0,0.0,0.017453292519943295,0.0,0.0,0.0,0.15707963267948966,0.005053841508924961,0.005583235528320074,0.11467265337705612,0.0004363323129985824,0.0,0.0,0.0,0.0004363323129985824,0.0,0.0,0.0,0.0004363323129985824,-0.1649685949087143,0.06157432124018669,9.766053199768066,0.0004,0.0,0.0,0.0,0.0004,0.0,0.0,0.0,0.0004
2025/04/11 12:08:18.213029477,1744366098,188616797,mti/imu_base_body,0.7870450152180944,0.6168338560965391,0.006758226160580771,-0.005519454011570187,0.017453292519943295,0.0,0.0,0.0,0.017453292519943295,0.0,0.0,0.0,0.15707963267948966,0.010285529308021069,0.010810868814587593,0.10865902155637741,0.0004363323129985824,0.0,0.0,0.0,0.0004363323129985824,0.0,0.0,0.0,0.0004363323129985824,-0.18368370831012726,0.06691170483827591,9.798360824584961,0.0004,0.0,0.0,0.0,0.0004,0.0,0.0,0.0,0.0004
2025/04/11 12:08:18.244401679,1744366098,238649023,mti/imu_base_body,0.7873703351745708,0.6164178880594439,0.006781549864335884,-0.005563555415054589,0.017453292519943295,0.0,0.0,0.0,0.017453292519943295,0.0,0.0,0.0,0.15707963267948966,0.013382051140069962,0.010583627969026566,0.10783510655164719,0.0004363323129985824,0.0,0.0,0.0,0.0004363323129985824,0.0,0.0,0.0,0.0004363323129985824,-0.15917302668094635,0.058241408318281174,9.842860221862793,0.0004,0.0,0.0,0.0,0.0004,0.0,0.0,0.0,0.0004
2025/04/11 12:08:18.310782383,1744366098,288567546,mti/imu_base_body,0.7876944724529699,0.6160034848156565,0.006791069364324328,-0.005568315624465641,0.017453292519943295,0.0,0.0,0.0,0.017453292519943295,0.0,0.0,0.0,0.15707963267948966,0.004533519968390465,0.007439146284013987,0.10601724684238434,0.0004363323129985824,0.0,0.0,0.0,0.0004363323129985824,0.0,0.0,0.0,0.0004363323129985824,-0.156712606549263,0.056710995733737946,9.838189125061035,0.0004,0.0,0.0,0.0,0.0004,0.0,0.0,0.0,0.0004
2025/04/11 12:08:18.338921637,1744366098,338401007,mti/imu_base_body,0.788030778285816,0.6155731146224668,0.006815382068557219,-0.00554829663102655,0.017453292519943295,0.0,0.0,0.0,0.017453292519943295,0.0,0.0,0.0,0.15707963267948966,0.006743827369064093,0.004651959054172039,0.11107569932937622,0.0004363323129985824,0.0,0.0,0.0,0.0004363323129985824,0.0,0.0,0.0,0.0004363323129985824,-0.15561190247535706,0.05199906975030899,9.776724815368652,0.0004,0.0,0.0,0.0,0.0004,0.0,0.0,0.0,0.0004
2025/04/11 12:08:18.459758757,1744366098,387439414,mti/imu_base_body,0.788387792969391,0.6151160413190779,0.0068088419753789195,-0.005530215163396943,0.017453292519943295,0.0,0.0,0.0,0.017453292519943295,0.0,0.0,0.0,0.15707963267948966,0.005771483760327101,-0.00011460263340268284,0.11434919387102127,0.0004363323129985824,0.0,0.0,0.0,0.0004363323129985824,0.0,0.0,0.0,0.0004363323129985824,-0.17769594490528107,0.0595235750079155,9.80256462097168,0.0004,0.0,0.0,0.0,0.0004,0.0,0.0,0.0,0.0004
2025/04/11 12:08:18.555662392,1744366098,439242249,mti/imu_base_body,0.7887204066224622,0.6146894218883168,0.006832080239983789,-0.005509761836887825,0.017453292519943295,0.0,0.0,0.0,0.017453292519943295,0.0,0.0,0.0,0.15707963267948966,0.001106396084651351,0.005676129832863808,0.1098758652806282,0.0004363323129985824,0.0,0.0,0.0,0.0004363323129985824,0.0,0.0,0.0,0.0004363323129985824,-0.1482236683368683,0.04452725499868393,9.825568199157715,0.0004,0.0,0.0,0.0,0.0004,0.0,0.0,0.0,0.0004
2025/04/11 12:08:18.638401717,1744366098,590028459,mti/imu_base_body,0.7897498830764162,0.613366055402708,0.00687116771747825,-0.005476432662523453,0.017453292519943295,0.0,0.0,0.0,0.017453292519943295,0.0,0.0,0.0,0.15707963267948966,0.0008035199134610593,0.0034008678048849106,0.1097913607954979,0.0004363323129985824,0.0,0.0,0.0,0.0004363323129985824,0.0,0.0,0.0,0.0004363323129985824,-0.1662210077047348,0.059703242033720016,9.799676895141602,0.0004,0.0,0.0,0.0,0.0004,0.0,0.0,0.0,0.0004
2025/04/11 12:08:18.793689346,1744366098,638709165,mti/imu_base_body,0.7900794470459495,0.6129414142217314,0.006861662098179079,-0.0054961514426887965,0.017453292519943295,0.0,0.0,0.0,0.017453292519943295,0.0,0.0,0.0,0.15707963267948966,0.01716872677206993,0.000425506557803601,0.10456708818674088,0.0004363323129985824,0.0,0.0,0.0,0.0004363323129985824,0.0,0.0,0.0,0.0004363323129985824,-0.1692141443490982,0.052809227257966995,9.833037376403809,0.0004,0.0,0.0,0.0,0.0004,0.0,0.0,0.0,0.0004
2025/04/11 12:08:18.861744161,1744366098,688214539,mti/imu_base_body,0.7904189661091423,0.6125038350462857,0.006846752293328897,-0.00548015068961012,0.017453292519943295,0.0,0.0,0.0,0.017453292519943295,0.0,0.0,0.0,0.15707963267948966,0.0062629892490804195,0.0013311714865267277,0.11371710151433945,0.0004363323129985824,0.0,0.0,0.0,0.0004363323129985824,0.0,0.0,0.0,0.0004363323129985824,-0.17274193465709686,0.05014272779226303,9.820682525634766,0.0004,0.0,0.0,0.0,0.0004,0.0,0.0,0.0,0.0004
2025/04/11 12:08:18.956816460,1744366098,890683345,mti/imu_base_body,0.7917376890178491,0.610797494486671,0.006912941855383491,-0.005483042256332495,0.017453292519943295,0.0,0.0,0.0,0.017453292519943295,0.0,0.0,0.0,0.15707963267948966,0.008074487559497356,0.004738559015095234,0.11491561681032181,0.0004363323129985824,0.0,0.0,0.0,0.0004363323129985824,0.0,0.0,0.0,0.0004363323129985824,-0.17875725030899048,0.052235815674066544,9.833885192871094,0.0004,0.0,0.0,0.0,0.0004,0.0,0.0,0.0,0.0004
2025/04/11 12:08:19.49352155,1744366098,937677867,mti/imu_base_body,0.7920850184837918,0.6103467620739758,0.006926423502859096,-0.0054934667382202425,0.017453292519943295,0.0,0.0,0.0,0.017453292519943295,0.0,0.0,0.0,0.15707963267948966,0.008669150993227959,0.011011217720806599,0.10949636250734329,0.0004363323129985824,0.0,0.0,0.0,0.0004363323129985824,0.0,0.0,0.0,0.0004363323129985824,-0.1679694801568985,0.051889434456825256,9.785262107849121,0.0004,0.0,0.0,0.0,0.0004,0.0,0.0,0.0,0.0004
2025/04/11 12:08:19.52130695,1744366098,988372596,mti/imu_base_body,0.7924246331329456,0.6099055105975268,0.006931582581305741,-0.005515624153738004,0.017453292519943295,0.0,0.0,0.0,0.017453292519943295,0.0,0.0,0.0,0.15707963267948966,0.012839918956160545,0.009152463637292385,0.11718779802322388,0.0004363323129985824,0.0,0.0,0.0,0.0004363323129985824,0.0,0.0,0.0,0.0004363323129985824,-0.1601226031780243,0.07458730041980743,9.793649673461914,0.0004,0.0,0.0,0.0,0.0004,0.0,0.0,0.0,0.0004
2025/04/11 12:08:19.137439912,1744366099,90142124,mti/imu_base_body,0.7931116851738008,0.6090114658154248,0.006971828773701531,-0.005502994609470268,0.017453292519943295,0.0,0.0,0.0,0.017453292519943295,0.0,0.0,0.0,0.15707963267948966,-0.00041171928751282394,0.004826890304684639,0.11070366948843002,0.0004363323129985824,0.0,0.0,0.0,0.0004363323129985824,0.0,0.0,0.0,0.0004363323129985824,-0.16729073226451874,0.06946691125631332,9.827641487121582,0.0004,0.0,0.0,0.0,0.0004,0.0,0.0,0.0,0.0004
2025/04/11 12:08:19.168340911,1744366099,137667022,mti/imu_base_body,0.7934455920248144,0.6085760460231263,0.007001893635421845,-0.005501107958168427,0.017453292519943295,0.0,0.0,0.0,0.017453292519943295,0.0,0.0,0.0,0.15707963267948966,0.009763278067111969,0.010286456905305386,0.11537899821996689,0.0004363323129985824,0.0,0.0,0.0,0.0004363323129985824,0.0,0.0,0.0,0.0004363323129985824,-0.17541101574897766,0.06616898626089096,9.79475212097168,0.0004,0.0,0.0,0.0,0.0004,0.0,0.0,0.0,0.0004
2025/04/11 12:08:19.221467145,1744366099,188504186,mti/imu_base_body,0.7937457399829785,0.608183874065083,0.007054433725732112,-0.005505501872698564,0.017453292519943295,0.0,0.0,0.0,0.017453292519943295,0.0,0.0,0.0,0.15707963267948966,0.005567292682826519,0.010915291495621204,0.0939788669347763,0.0004363323129985824,0.0,0.0,0.0,0.0004363323129985824,0.0,0.0,0.0,0.0004363323129985824,-0.18316666781902313,0.04494772478938103,9.779995918273926,0.0004,0.0,0.0,0.0,0.0004,0.0,0.0,0.0,0.0004
2025/04/11 12:08:19.245576080,1744366099,239554083,mti/imu_base_body,0.7940861564120725,0.6077391309104543,0.007086148132496254,-0.005487390960351285,0.017453292519943295,0.0,0.0,0.0,0.017453292519943295,0.0,0.0,0.0,0.15707963267948966,0.0003043775795958936,0.0038117538206279278,0.1120932474732399,0.0004363323129985824,0.0,0.0,0.0,0.0004363323129985824,0.0,0.0,0.0,0.0004363323129985824,-0.17153851687908173,0.04504024609923363,9.827281951904297,0.0004,0.0,0.0,0.0,0.0004,0.0,0.0,0.0,0.0004
2025/04/11 12:08:19.300652697,1744366099,287644090,mti/imu_base_body,0.7944363520275736,0.6072815237729537,0.0070737140069508765,-0.005476863269107517,0.017453292519943295,0.0,0.0,0.0,0.017453292519943295,0.0,0.0,0.0,0.15707963267948966,0.010435945354402065,0.006438473239541054,0.12077901512384415,0.0004363323129985824,0.0,0.0,0.0,0.0004363323129985824,0.0,0.0,0.0,0.0004363323129985824,-0.16944123804569244,0.05211871862411499,9.861855506896973,0.0004,0.0,0.0,0.0,0.0004,0.0,0.0,0.0,0.0004
2025/04/11 12:08:19.338237560,1744366099,337798513,mti/imu_base_body,0.7947763005639141,0.6068360958024202,0.007092810257708047,-0.005502448169930474,0.017453292519943295,0.0,0.0,0.0,0.017453292519943295,0.0,0.0,0.0,0.15707963267948966,0.005206494592130184,0.008600794710218906,0.1088772639632225,0.0004363323129985824,0.0,0.0,0.0,0.0004363323129985824,0.0,0.0,0.0,0.0004363323129985824,-0.16238141059875488,0.056428276002407074,9.785974502563477,0.0004,0.0,0.0,0.0,0.0004,0.0,0.0,0.0,0.0004
2025/04/11 12:08:19.407754729,1744366099,390595240,mti/imu_base_body,0.7951109528884759,0.6063973925747321,0.007105728286605186,-0.005503044690251941,0.017453292519943295,0.0,0.0,0.0,0.017453292519943295,0.0,0.0,0.0,0.15707963267948966,0.01727226749062538,0.007683295290917158,0.1111956536769867,0.0004363323129985824,0.0,0.0,0.0,0.0004363323129985824,0.0,0.0,0.0,0.0004363323129985824,-0.17314253747463226,0.053209200501441956,9.781900405883789,0.0004,0.0,0.0,0.0,0.0004,0.0,0.0,0.0,0.0004
2025/04/11 12:08:19.475408879,1744366099,437555373,mti/imu_base_body,0.7954273977755018,0.6059820305381538,0.007118739527745057,-0.005509725990072489,0.017453292519943295,0.0,0.0,0.0,0.017453292519943295,0.0,0.0,0.0,0.15707963267948966,0.004154770635068417,0.005381328985095024,0.10331908613443375,0.0004363323129985824,0.0,0.0,0.0,0.0004363323129985824,0.0,0.0,0.0,0.0004363323129985824,-0.15584024786949158,0.032846882939338684,9.83542537689209,0.0004,0.0,0.0,0.0,0.0004,0.0,0.0,0.0,0.0004
2025/04/11 12:08:19.491280752,1744366099,490877741,mti/imu_base_body,0.7957613238716261,0.6055430110561939,0.00715372149378481,-0.005513751886353422,0.017453292519943295,0.0,0.0,0.0,0.017453292519943295,0.0,0.0,0.0,0.15707963267948966,0.007222193758934736,0.009336231276392937,0.1068369671702385,0.0004363323129985824,0.0,0.0,0.0,0.0004363323129985824,0.0,0.0,0.0,0.0004363323129985824,-0.15869681537151337,0.04528583213686943,9.843828201293945,0.0004,0.0,0.0,0.0,0.0004,0.0,0.0,0.0,0.0004
2025/04/11 12:08:19.593403544,1744366099,537668600,mti/imu_base_body,0.7960780278000071,0.6051262169816577,0.007193865426670598,-0.005503042407758168,0.017453292519943295,0.0,0.0,0.0,0.017453292519943295,0.0,0.0,0.0,0.15707963267948966,-0.0015326963039115071,0.010044004768133163,0.10652416944503784,0.0004363323129985824,0.0,0.0,0.0,0.0004363323129985824,0.0,0.0,0.0,0.0004363323129985824,-0.18542933464050293,0.06339475512504578,9.747346878051758,0.0004,0.0,0.0,0.0,0.0004,0.0,0.0,0.0,0.0004
2025/04/11 12:08:19.643594501,1744366099,590261575,mti/imu_base_body,0.7963849412864258,0.6047220860888985,0.0072155971377973515,-0.005491725270965237,0.017453292519943295,0.0,0.0,0.0,0.017453292519943295,0.0,0.0,0.0,0.15707963267948966,0.01180950179696083,0.009507170878350735,0.10409551858901978,0.0004363323129985824,0.0,0.0,0.0,0.0004363323129985824,0.0,0.0,0.0,0.0004363323129985824,-0.1927340179681778,0.06409074366092682,9.788174629211426,0.0004,0.0,0.0,0.0,0.0004,0.0,0.0,0.0,0.0004
2025/04/11 12:08:19.672479053,1744366099,637501468,mti/imu_base_body,0.7967011367606793,0.6043046524705871,0.007241107987795975,-0.005545452348840357,0.017453292519943295,0.0,0.0,0.0,0.017453292519943295,0.0,0.0,0.0,0.15707963267948966,0.012619725428521633,0.010717191733419895,0.10629498958587646,0.0004363323129985824,0.0,0.0,0.0,0.0004363323129985824,0.0,0.0,0.0,0.0004363323129985824,-0.1527635157108307,0.05551547929644585,9.842854499816895,0.0004,0.0,0.0,0.0,0.0004,0.0,0.0,0.0,0.0004
2025/04/11 12:08:19.697225728,1744366099,694074412,mti/imu_base_body,0.7970269478016581,0.6038749351564638,0.007267199861707873,-0.005504087019625423,0.017453292519943295,0.0,0.0,0.0,0.017453292519943295,0.0,0.0,0.0,0.15707963267948966,0.0009854324162006378,0.0028507697861641645,0.11008167266845703,0.0004363323129985824,0.0,0.0,0.0,0.0004363323129985824,0.0,0.0,0.0,0.0004363323129985824,-0.14306138455867767,0.05266599357128143,9.84382152557373,0.0004,0.0,0.0,0.0,0.0004,0.0,0.0,0.0,0.0004
2025/04/11 12:08:19.751423334,1744366099,739834247,mti/imu_base_body,0.797351424437916,0.6034459470759183,0.007299850261612048,-0.005514262474039043,0.017453292519943295,0.0,0.0,0.0,0.017453292519943295,0.0,0.0,0.0,0.15707963267948966,0.006060675252228975,0.007658647373318672,0.10449668765068054,0.0004363323129985824,0.0,0.0,0.0,0.0004363323129985824,0.0,0.0,0.0,0.0004363323129985824,-0.17304690182209015,0.06444797664880753,9.777582168579102,0.0004,0.0,0.0,0.0,0.0004,0.0,0.0,0.0,0.0004
2025/04/11 12:08:19.788420110,1744366099,787558617,mti/imu_base_body,0.7976571072105418,0.6030419593983858,0.00730556266558743,-0.005492110305230019,0.017453292519943295,0.0,0.0,0.0,0.017453292519943295,0.0,0.0,0.0,0.15707963267948966,0.00045637344010174274,0.006263402756303549,0.10147495567798615,0.0004363323129985824,0.0,0.0,0.0,0.0004363323129985824,0.0,0.0,0.0,0.0004363323129985824,-0.16546377539634705,0.06984306871891022,9.78250503540039,0.0004,0.0,0.0,0.0,0.0004,0.0,0.0,0.0,0.0004
2025/04/11 12:08:19.839069727,1744366099,838069654,mti/imu_base_body,0.7979730264634235,0.6026232302221866,0.00737113337289655,-0.0054733742956880075,0.017453292519943295,0.0,0.0,0.0,0.017453292519943295,0.0,0.0,0.0,0.15707963267948966,-0.00024073275562841445,0.010704427026212215,0.10853181779384613,0.0004363323129985824,0.0,0.0,0.0,0.0004363323129985824,0.0,0.0,0.0,0.0004363323129985824,-0.1809704750776291,0.04858032241463661,9.849369049072266,0.0004,0.0,0.0,0.0,0.0004,0.0,0.0,0.0,0.0004
2025/04/11 12:08:19.888793218,1744366099,887679616,mti/imu_base_body,0.7982984216128433,0.6021918748634836,0.0073992398865755935,-0.005461423619016022,0.017453292519943295,0.0,0.0,0.0,0.017453292519943295,0.0,0.0,0.0,0.15707963267948966,0.005826151464134455,0.008657407015562057,0.10894166678190231,0.0004363323129985824,0.0,0.0,0.0,0.0004363323129985824,0.0,0.0,0.0,0.0004363323129985824,-0.17162036895751953,0.06187247857451439,9.82176399230957,0.0004,0.0,0.0,0.0,0.0004,0.0,0.0,0.0,0.0004
2025/04/11 12:08:19.941978048,1744366099,937662830,mti/imu_base_body,0.7986265728533711,0.601756420500105,0.007401224547014681,-0.005479908264229521,0.017453292519943295,0.0,0.0,0.0,0.017453292519943295,0.0,0.0,0.0,0.15707963267948966,0.014925433322787285,0.002595288911834359,0.10885707288980484,0.0004363323129985824,0.0,0.0,0.0,0.0004363323129985824,0.0,0.0,0.0,0.0004363323129985824,-0.1796625852584839,0.06553715467453003,9.784198760986328,0.0004,0.0,0.0,0.0,0.0004,0.0,0.0,0.0,0.0004
2025/04/11 12:08:19.989855818,1744366099,989487449,mti/imu_base_body,0.7989286597802221,0.6013554870822584,0.007378764393241526,-0.005488950160730267,0.017453292519943295,0.0,0.0,0.0,0.017453292519943295,0.0,0.0,0.0,0.15707963267948966,0.011923686601221561,0.0004626887966878712,0.10052933543920517,0.0004363323129985824,0.0,0.0,0.0,0.0004363323129985824,0.0,0.0,0.0,0.0004363323129985824,-0.15769170224666595,0.07089158147573471,9.80733871459961,0.0004,0.0,0.0,0.0,0.0004,0.0,0.0,0.0,0.0004
2025/04/11 12:08:20.37657593,1744366100,37362182,mti/imu_base_body,0.7992529500866628,0.6009246665996402,0.007383323915270605,-0.005454665694607728,0.017453292519943295,0.0,0.0,0.0,0.017453292519943295,0.0,0.0,0.0,0.15707963267948966,0.0025418084114789963,0.0025089625269174576,0.10397695749998093,0.0004363323129985824,0.0,0.0,0.0,0.0004363323129985824,0.0,0.0,0.0,0.0004363323129985824,-0.14762215316295624,0.049247074872255325,9.861226081848145,0.0004,0.0,0.0,0.0,0.0004,0.0,0.0,0.0,0.0004
2025/04/11 12:08:20.101675679,1744366100,87481987,mti/imu_base_body,0.7995659508049647,0.6005082212644287,0.007392451513877315,-0.005433062469674619,0.017453292519943295,0.0,0.0,0.0,0.017453292519943295,0.0,0.0,0.0,0.15707963267948966,0.005656241439282894,0.0058006527833640575,0.11222994327545166,0.0004363323129985824,0.0,0.0,0.0,0.0004363323129985824,0.0,0.0,0.0,0.0004363323129985824,-0.1806262880563736,0.054955996572971344,9.781201362609863,0.0004,0.0,0.0,0.0,0.0004,0.0,0.0,0.0,0.0004
2025/04/11 12:08:20.148046015,1744366100,137541404,mti/imu_base_body,0.7998787029731507,0.6000906984166312,0.007430528710237373,-0.00547735765821768,0.017453292519943295,0.0,0.0,0.0,0.017453292519943295,0.0,0.0,0.0,0.15707963267948966,0.010560930706560612,0.009463127702474594,0.10133737325668335,0.0004363323129985824,0.0,0.0,0.0,0.0004363323129985824,0.0,0.0,0.0,0.0004363323129985824,-0.1733764410018921,0.04785401374101639,9.761855125427246,0.0004,0.0,0.0,0.0,0.0004,0.0,0.0,0.0,0.0004
2025/04/11 12:08:20.212893266,1744366100,188405846,mti/imu_base_body,0.800221351519563,0.5996337863556876,0.007434220344730869,-0.0054628930807452975,0.017453292519943295,0.0,0.0,0.0,0.017453292519943295,0.0,0.0,0.0,0.15707963267948966,0.00726791238412261,0.008171476423740387,0.11204498261213303,0.0004363323129985824,0.0,0.0,0.0,0.0004363323129985824,0.0,0.0,0.0,0.0004363323129985824,-0.15455564856529236,0.05424198508262634,9.807697296142578,0.0004,0.0,0.0,0.0,0.0004,0.0,0.0,0.0,0.0004
2025/04/11 12:08:20.268463370,1744366100,237499312,mti/imu_base_body,0.8005214149810967,0.5992328658835798,0.007457703060228802,-0.005460702031755586,0.017453292519943295,0.0,0.0,0.0,0.017453292519943295,0.0,0.0,0.0,0.15707963267948966,0.006449897773563862,0.004997755400836468,0.10140921920537949,0.0004363323129985824,0.0,0.0,0.0,0.0004363323129985824,0.0,0.0,0.0,0.0004363323129985824,-0.1604125201702118,0.05981963872909546,9.845632553100586,0.0004,0.0,0.0,0.0,0.0004,0.0,0.0,0.0,0.0004
2025/04/11 12:08:20.293840398,1744366100,287565396,mti/imu_base_body,0.8008345908616994,0.5988144832248306,0.00744209446029479,-0.0054578374469918065,0.017453292519943295,0.0,0.0,0.0,0.017453292519943295,0.0,0.0,0.0,0.15707963267948966,0.00981236808001995,-0.0009930391097441316,0.10683660209178925,0.0004363323129985824,0.0,0.0,0.0,0.0004363323129985824,0.0,0.0,0.0,0.0004363323129985824,-0.17132768034934998,0.030687222257256508,9.835204124450684,0.0004,0.0,0.0,0.0,0.0004,0.0,0.0,0.0,0.0004
2025/04/11 12:08:20.337663259,1744366100,337322773,mti/imu_base_body,0.801139397811544,0.5984067831206132,0.007446667305140955,-0.005434550160098589,0.017453292519943295,0.0,0.0,0.0,0.017453292519943295,0.0,0.0,0.0,0.15707963267948966,0.005583297461271286,0.0035845565143972635,0.10162407904863358,0.0004363323129985824,0.0,0.0,0.0,0.0004363323129985824,0.0,0.0,0.0,0.0004363323129985824,-0.17404253780841827,0.05130964517593384,9.765704154968262,0.0004,0.0,0.0,0.0,0.0004,0.0,0.0,0.0,0.0004
2025/04/11 12:08:20.387607410,1744366100,387337339,mti/imu_base_body,0.8014532840312183,0.5979858388650161,0.007496981935863612,-0.005418975395012097,0.017453292519943295,0.0,0.0,0.0,0.017453292519943295,0.0,0.0,0.0,0.15707963267948966,0.003954780288040638,0.01274061482399702,0.1055002361536026,0.0004363323129985824,0.0,0.0,0.0,0.0004363323129985824,0.0,0.0,0.0,0.0004363323129985824,-0.17301128804683685,0.06256899237632751,9.821510314941406,0.0004,0.0,0.0,0.0,0.0004,0.0,0.0,0.0,0.0004
2025/04/11 12:08:20.437927484,1744366100,437501179,mti/imu_base_body,0.801750925281983,0.5975866334770823,0.007531924835865145,-0.0053795359723953235,0.017453292519943295,0.0,0.0,0.0,0.017453292519943295,0.0,0.0,0.0,0.15707963267948966,0.0005774337914772332,0.002030543750151992,0.09705355763435364,0.0004363323129985824,0.0,0.0,0.0,0.0004363323129985824,0.0,0.0,0.0,0.0004363323129985824,-0.1300724297761917,0.07522844523191452,9.778024673461914,0.0004,0.0,0.0,0.0,0.0004,0.0,0.0,0.0,0.0004
2025/04/11 12:08:20.488072233,1744366100,487755533,mti/imu_base_body,0.8020677021147109,0.5971613569700167,0.007522762152612054,-0.005396574445961932,0.017453292519943295,0.0,0.0,0.0,0.017453292519943295,0.0,0.0,0.0,0.15707963267948966,0.011476333253085613,0.0036636493168771267,0.1104225441813469,0.0004363323129985824,0.0,0.0,0.0,0.0004363323129985824,0.0,0.0,0.0,0.0004363323129985824,-0.17638714611530304,0.05107387527823448,9.914909362792969,0.0004,0.0,0.0,0.0,0.0004,0.0,0.0,0.0,0.0004
2025/04/11 12:08:20.537852016,1744366100,537491061,mti/imu_base_body,0.8023626022369321,0.5967650620155263,0.007525501810567941,-0.005392783296480774,0.017453292519943295,0.0,0.0,0.0,0.017453292519943295,0.0,0.0,0.0,0.15707963267948966,0.006387726403772831,0.00747988885268569,0.09814638644456863,0.0004363323129985824,0.0,0.0,0.0,0.0004363323129985824,0.0,0.0,0.0,0.0004363323129985824,-0.17371144890785217,0.06127987429499626,9.69692325592041,0.0004,0.0,0.0,0.0,0.0004,0.0,0.0,0.0,0.0004
2025/04/11 12:08:20.587772526,1744366100,587442211,mti/imu_base_body,0.8026564940350739,0.596369463114674,0.0075466098153399025,-0.005391171295160882,0.017453292519943295,0.0,0.0,0.0,0.017453292519943295,0.0,0.0,0.0,0.15707963267948966,0.0103943832218647,0.005713794846087694,0.1015952080488205,0.0004363323129985824,0.0,0.0,0.0,0.0004363323129985824,0.0,0.0,0.0,0.0004363323129985824,-0.16849756240844727,0.07226460427045822,9.853682518005371,0.0004,0.0,0.0,0.0,0.0004,0.0,0.0,0.0,0.0004
2025/04/11 12:08:20.639874725,1744366100,637497439,mti/imu_base_body,0.8029760348280109,0.5959387126561128,0.007589083129163907,-0.005379969044424808,0.017453292519943295,0.0,0.0,0.0,0.017453292519943295,0.0,0.0,0.0,0.15707963267948966,-0.0021101629827171564,0.008873810060322285,0.10243570804595947,0.0004363323129985824,0.0,0.0,0.0,0.0004363323129985824,0.0,0.0,0.0,0.0004363323129985824,-0.16510263085365295,0.08139394968748093,9.7803373336792,0.0004,0.0,0.0,0.0,0.0004,0.0,0.0,0.0,0.0004
2025/04/11 12:08:20.688341535,1744366100,687448598,mti/imu_base_body,0.8032693303649745,0.5955428900049478,0.007595640200398013,-0.005418054033133092,0.017453292519943295,0.0,0.0,0.0,0.017453292519943295,0.0,0.0,0.0,0.15707963267948966,0.017896123230457306,0.011979485861957073,0.10075230896472931,0.0004363323129985824,0.0,0.0,0.0,0.0004363323129985824,0.0,0.0,0.0,0.0004363323129985824,-0.18007883429527283,0.04990716278553009,9.846132278442383,0.0004,0.0,0.0,0.0,0.0004,0.0,0.0,0.0,0.0004
2025/04/11 12:08:20.737747982,1744366100,737426739,mti/imu_base_body,0.8035670188714372,0.595140488955409,0.007630564224673142,-0.005442341187472492,0.017453292519943295,0.0,0.0,0.0,0.017453292519943295,0.0,0.0,0.0,0.15707963267948966,0.009443342685699463,0.010554942302405834,0.1040370985865593,0.0004363323129985824,0.0,0.0,0.0,0.0004363323129985824,0.0,0.0,0.0,0.0004363323129985824,-0.18095923960208893,0.05928974226117134,9.78299331665039,0.0004,0.0,0.0,0.0,0.0004,0.0,0.0,0.0,0.0004
2025/04/11 12:08:20.788774245,1744366100,788180274,mti/imu_base_body,0.8038979228014095,0.5946935288851766,0.0076399864520625025,-0.005419135049701947,0.017453292519943295,0.0,0.0,0.0,0.017453292519943295,0.0,0.0,0.0,0.15707963267948966,0.0018865913152694702,0.00028227033908478916,0.11143988370895386,0.0004363323129985824,0.0,0.0,0.0,0.0004363323129985824,0.0,0.0,0.0,0.0004363323129985824,-0.1620638370513916,0.07214117050170898,9.81142807006836,0.0004,0.0,0.0,0.0,0.0004,0.0,0.0,0.0,0.0004
2025/04/11 12:08:20.839279522,1744366100,838482429,mti/imu_base_body,0.8042101674109032,0.5942714790947587,0.007625862561029377,-0.005409435058765171,0.017453292519943295,0.0,0.0,0.0,0.017453292519943295,0.0,0.0,0.0,0.15707963267948966,0.009737531654536724,0.00604837154969573,0.10514754056930542,0.0004363323129985824,0.0,0.0,0.0,0.0004363323129985824,0.0,0.0,0.0,0.0004363323129985824,-0.1583898514509201,0.07935920357704163,9.823906898498535,0.0004,0.0,0.0,0.0,0.0004,0.0,0.0,0.0,0.0004
2025/04/11 12:08:20.888121530,1744366100,887494933,mti/imu_base_body,0.8045381569169826,0.5938268203759166,0.007675023102202869,-0.005399582135142389,0.017453292519943295,0.0,0.0,0.0,0.017453292519943295,0.0,0.0,0.0,0.15707963267948966,7.347543578362092e-05,0.005247201770544052,0.110193632543087,0.0004363323129985824,0.0,0.0,0.0,0.0004363323129985824,0.0,0.0,0.0,0.0004363323129985824,-0.14490632712841034,0.04708428308367729,9.805763244628906,0.0004,0.0,0.0,0.0,0.0004,0.0,0.0,0.0,0.0004
2025/04/11 12:08:20.940379959,1744366100,939230887,mti/imu_base_body,0.804842955761196,0.5934136225059727,0.0077156803118532844,-0.005343918341953417,0.017453292519943295,0.0,0.0,0.0,0.017453292519943295,0.0,0.0,0.0,0.15707963267948966,-0.0015135913854464889,0.002293412573635578,0.09997960925102234,0.0004363323129985824,0.0,0.0,0.0,0.0004363323129985824,0.0,0.0,0.0,0.0004363323129985824,-0.17566485702991486,0.039781469851732254,9.815875053405762,0.0004,0.0,0.0,0.0,0.0004,0.0,0.0,0.0,0.0004
2025/04/11 12:08:20.987863982,1744366100,987529863,mti/imu_base_body,0.8051380978132883,0.5930133268156943,0.007704620554175994,-0.005336336823920547,0.017453292519943295,0.0,0.0,0.0,0.017453292519943295,0.0,0.0,0.0,0.15707963267948966,0.012293636798858643,0.006296883802860975,0.10361276566982269,0.0004363323129985824,0.0,0.0,0.0,0.0004363323129985824,0.0,0.0,0.0,0.0004363323129985824,-0.173272505402565,0.07667115330696106,9.765466690063477,0.0004,0.0,0.0,0.0,0.0004,0.0,0.0,0.0,0.0004
2025/04/11 12:08:21.38024213,1744366101,37555525,mti/imu_base_body,0.8054543700328233,0.5925837243316262,0.007713971688711265,-0.005318091111750037,0.017453292519943295,0.0,0.0,0.0,0.017453292519943295,0.0,0.0,0.0,0.15707963267948966,0.005437064915895462,0.0018612782005220652,0.10311572998762131,0.0004363323129985824,0.0,0.0,0.0,0.0004363323129985824,0.0,0.0,0.0,0.0004363323129985824,-0.18076466023921967,0.054265085607767105,9.794885635375977,0.0004,0.0,0.0,0.0,0.0004,0.0,0.0,0.0,0.0004
2025/04/11 12:08:21.88124208,1744366101,87818971,mti/imu_base_body,0.805771404156788,0.5921525577104787,0.007704246386783575,-0.005332656725112623,0.017453292519943295,0.0,0.0,0.0,0.017453292519943295,0.0,0.0,0.0,0.15707963267948966,0.010949487797915936,0.008750498294830322,0.10768889635801315,0.0004363323129985824,0.0,0.0,0.0,0.0004363323129985824,0.0,0.0,0.0,0.0004363323129985824,-0.16715675592422485,0.07173186540603638,9.869413375854492,0.0004,0.0,0.0,0.0,0.0004,0.0,0.0,0.0,0.0004
2025/04/11 12:08:21.138632592,1744366101,138337720,mti/imu_base_body,0.8060728073578332,0.5917417277328085,0.007754500005100414,-0.005312685547188452,0.017453292519943295,0.0,0.0,0.0,0.017453292519943295,0.0,0.0,0.0,0.15707963267948966,-8.998812700156122e-05,0.005795812699943781,0.1066778227686882,0.0004363323129985824,0.0,0.0,0.0,0.0004363323129985824,0.0,0.0,0.0,0.0004363323129985824,-0.1437414437532425,0.027957895770668983,9.798552513122559,0.0004,0.0,0.0,0.0,0.0004,0.0,0.0,0.0,0.0004
2025/04/11 12:08:21.187923082,1744366101,187449182,mti/imu_base_body,0.8063993552413962,0.5912967911798339,0.007765728067406963,-0.005279969154780299,0.017453292519943295,0.0,0.0,0.0,0.017453292519943295,0.0,0.0,0.0,0.15707963267948966,0.0021811993792653084,0.006237796973437071,0.10454016923904419,0.0004363323129985824,0.0,0.0,0.0,0.0004363323129985824,0.0,0.0,0.0,0.0004363323129985824,-0.17470629513263702,0.05017269775271416,9.791754722595215,0.0004,0.0,0.0,0.0,0.0004,0.0,0.0,0.0,0.0004
2025/04/11 12:08:21.237608761,1744366101,237268315,mti/imu_base_body,0.806698928109923,0.5908873802889238,0.007821827772660857,-0.005268985850113826,0.017453292519943295,0.0,0.0,0.0,0.017453292519943295,0.0,0.0,0.0,0.15707963267948966,0.000915451324544847,0.005451669916510582,0.10150077193975449,0.0004363323129985824,0.0,0.0,0.0,0.0004363323129985824,0.0,0.0,0.0,0.0004363323129985824,-0.15867681801319122,0.05172409117221832,9.823307037353516,0.0004,0.0,0.0,0.0,0.0004,0.0,0.0,0.0,0.0004
2025/04/11 12:08:21.290285295,1744366101,289610857,mti/imu_base_body,0.8069924358875437,0.5904862836479493,0.007835890363981171,-0.005268402616155143,0.017453292519943295,0.0,0.0,0.0,0.017453292519943295,0.0,0.0,0.0,0.15707963267948966,0.010013909079134464,0.010967964306473732,0.10189244896173477,0.0004363323129985824,0.0,0.0,0.0,0.0004363323129985824,0.0,0.0,0.0,0.0004363323129985824,-0.19647914171218872,0.07123714685440063,9.826934814453125,0.0004,0.0,0.0,0.0,0.0004,0.0,0.0,0.0,0.0004
2025/04/11 12:08:21.342425098,1744366101,337354300,mti/imu_base_body,0.8072940290841031,0.5900734099269993,0.007851675602331892,-0.005298366966771006,0.017453292519943295,0.0,0.0,0.0,0.017453292519943295,0.0,0.0,0.0,0.15707963267948966,0.006781859323382378,0.0025370686780661345,0.10308501869440079,0.0004363323129985824,0.0,0.0,0.0,0.0004363323129985824,0.0,0.0,0.0,0.0004363323129985824,-0.18176503479480743,0.04890540614724159,9.766550064086914,0.0004,0.0,0.0,0.0,0.0004,0.0,0.0,0.0,0.0004
2025/04/11 12:08:21.389261476,1744366101,387691296,mti/imu_base_body,0.8075959948124668,0.5896603797018364,0.007847911774049815,-0.005268401421192786,0.017453292519943295,0.0,0.0,0.0,0.017453292519943295,0.0,0.0,0.0,0.15707963267948966,0.011035636067390442,0.005683333147317171,0.10398641228675842,0.0004363323129985824,0.0,0.0,0.0,0.0004363323129985824,0.0,0.0,0.0,0.0004363323129985824,-0.15725143253803253,0.041627902537584305,9.821619033813477,0.0004,0.0,0.0,0.0,0.0004,0.0,0.0,0.0,0.0004
2025/04/11 12:08:21.439867467,1744366101,438053998,mti/imu_base_body,0.8079016816219423,0.5892415324139372,0.007847686380133737,-0.005263376235035914,0.017453292519943295,0.0,0.0,0.0,0.017453292519943295,0.0,0.0,0.0,0.15707963267948966,0.009282039478421211,0.00011364468082319945,0.10430844873189926,0.0004363323129985824,0.0,0.0,0.0,0.0004363323129985824,0.0,0.0,0.0,0.0004363323129985824,-0.18062642216682434,0.07347710430622101,9.801365852355957,0.0004,0.0,0.0,0.0,0.0004,0.0,0.0,0.0,0.0004
2025/04/11 12:08:21.489820205,1744366101,489280329,mti/imu_base_body,0.8082141793984422,0.5888129296845465,0.00782898373953775,-0.005280252760057504,0.017453292519943295,0.0,0.0,0.0,0.017453292519943295,0.0,0.0,0.0,0.15707963267948966,0.012701675295829773,0.004833498504012823,0.10422667860984802,0.0004363323129985824,0.0,0.0,0.0,0.0004363323129985824,0.0,0.0,0.0,0.0004363323129985824,-0.17410652339458466,0.08539934456348419,9.841202735900879,0.0004,0.0,0.0,0.0,0.0004,0.0,0.0,0.0,0.0004
2025/04/11 12:08:21.539874665,1744366101,538058545,mti/imu_base_body,0.8085404331313114,0.5883643838197624,0.00785092903818655,-0.005299316697439854,0.017453292519943295,0.0,0.0,0.0,0.017453292519943295,0.0,0.0,0.0,0.15707963267948966,0.009825282730162144,0.009345421567559242,0.1119631677865982,0.0004363323129985824,0.0,0.0,0.0,0.0004363323129985824,0.0,0.0,0.0,0.0004363323129985824,-0.18146905303001404,0.06322602927684784,9.792475700378418,0.0004,0.0,0.0,0.0,0.0004,0.0,0.0,0.0,0.0004
2025/04/11 12:08:21.589645234,1744366101,589289216,mti/imu_base_body,0.8088135180846829,0.5879884752662563,0.007870225201550816,-0.005320288790849683,0.017453292519943295,0.0,0.0,0.0,0.017453292519943295,0.0,0.0,0.0,0.15707963267948966,0.011363798752427101,0.013565757311880589,0.09071303904056549,0.0004363323129985824,0.0,0.0,0.0,0.0004363323129985824,0.0,0.0,0.0,0.0004363323129985824,-0.18034911155700684,0.029224896803498268,9.791155815124512,0.0004,0.0,0.0,0.0,0.0004,0.0,0.0,0.0,0.0004
2025/04/11 12:08:21.638298491,1744366101,637994942,mti/imu_base_body,0.8090966261479989,0.5875985684826331,0.007904193302215779,-0.0053005284007265185,0.017453292519943295,0.0,0.0,0.0,0.017453292519943295,0.0,0.0,0.0,0.15707963267948966,-0.0016081823268905282,0.0038837820757180452,0.09833239018917084,0.0004363323129985824,0.0,0.0,0.0,0.0004363323129985824,0.0,0.0,0.0,0.0004363323129985824,-0.17187245190143585,0.06337883323431015,9.791275024414062,0.0004,0.0,0.0,0.0,0.0004,0.0,0.0,0.0,0.0004
2025/04/11 12:08:21.688409437,1744366101,687837687,mti/imu_base_body,0.8093944667528802,0.5871881010777019,0.007940618685319464,-0.005260961649482199,0.017453292519943295,0.0,0.0,0.0,0.017453292519943295,0.0,0.0,0.0,0.15707963267948966,0.005313873291015625,0.0032594746444374323,0.10139873623847961,0.0004363323129985824,0.0,0.0,0.0,0.0004363323129985824,0.0,0.0,0.0,0.0004363323129985824,-0.15609613060951233,0.06546632200479507,9.877685546875,0.0004,0.0,0.0,0.0,0.0004,0.0,0.0,0.0,0.0004
2025/04/11 12:08:21.738111070,1744366101,737727745,mti/imu_base_body,0.809666924131244,0.586812040162048,0.007955574060029027,-0.005273550045342177,0.017453292519943295,0.0,0.0,0.0,0.017453292519943295,0.0,0.0,0.0,0.15707963267948966,0.00821577850729227,0.008780090138316154,0.09255273640155792,0.0004363323129985824,0.0,0.0,0.0,0.0004363323129985824,0.0,0.0,0.0,0.0004363323129985824,-0.18294180929660797,0.06458063423633575,9.806764602661133,0.0004,0.0,0.0,0.0,0.0004,0.0,0.0,0.0,0.0004
2025/04/11 12:08:21.788070825,1744366101,787746078,mti/imu_base_body,0.8099547066668464,0.5864143447701351,0.007984012221523753,-0.005276830950709264,0.017453292519943295,0.0,0.0,0.0,0.017453292519943295,0.0,0.0,0.0,0.15707963267948966,0.006401028484106064,0.012111646123230457,0.09758657217025757,0.0004363323129985824,0.0,0.0,0.0,0.0004363323129985824,0.0,0.0,0.0,0.0004363323129985824,-0.18746452033519745,0.05477989837527275,9.778680801391602,0.0004,0.0,0.0,0.0,0.0004,0.0,0.0,0.0,0.0004
2025/04/11 12:08:21.837750076,1744366101,837446679,mti/imu_base_body,0.8102240748645264,0.5860415906078533,0.007998545899244387,-0.005312800696159403,0.017453292519943295,0.0,0.0,0.0,0.017453292519943295,0.0,0.0,0.0,0.15707963267948966,0.011819103732705116,0.008809011429548264,0.09299721568822861,0.0004363323129985824,0.0,0.0,0.0,0.0004363323129985824,0.0,0.0,0.0,0.0004363323129985824,-0.1717381477355957,0.05003415420651436,9.830638885498047,0.0004,0.0,0.0,0.0,0.0004,0.0,0.0,0.0,0.0004
2025/04/11 12:08:21.888499426,1744366101,887675660,mti/imu_base_body,0.8105074013351403,0.5856494829048033,0.008004974895282395,-0.005325028752965631,0.017453292519943295,0.0,0.0,0.0,0.017453292519943295,0.0,0.0,0.0,0.15707963267948966,0.009116050787270069,0.003050500527024269,0.0975627526640892,0.0004363323129985824,0.0,0.0,0.0,0.0004363323129985824,0.0,0.0,0.0,0.0004363323129985824,-0.15362152457237244,0.062176480889320374,9.86267375946045,0.0004,0.0,0.0,0.0,0.0004,0.0,0.0,0.0,0.0004
2025/04/11 12:08:21.939816316,1744366101,939469491,mti/imu_base_body,0.8107863790232288,0.5852632298666691,0.008011710477512977,-0.005311483000081442,0.017453292519943295,0.0,0.0,0.0,0.017453292519943295,0.0,0.0,0.0,0.15707963267948966,0.0032356400042772293,0.0031851602252572775,0.1001868024468422,0.0004363323129985824,0.0,0.0,0.0,0.0004363323129985824,0.0,0.0,0.0,0.0004363323129985824,-0.16945993900299072,0.059106986969709396,9.790061950683594,0.0004,0.0,0.0,0.0,0.0004,0.0,0.0,0.0,0.0004
2025/04/11 12:08:21.992765744,1744366101,989941917,mti/imu_base_body,0.8110835013317815,0.5848516425708022,0.008032315355228452,-0.005252804931330722,0.017453292519943295,0.0,0.0,0.0,0.017453292519943295,0.0,0.0,0.0,0.15707963267948966,0.001573065179400146,0.003672733437269926,0.09876341372728348,0.0004363323129985824,0.0,0.0,0.0,0.0004363323129985824,0.0,0.0,0.0,0.0004363323129985824,-0.1734880805015564,0.04731972515583038,9.76618480682373,0.0004,0.0,0.0,0.0,0.0004,0.0,0.0,0.0,0.0004
2025/04/11 12:08:22.38029765,1744366102,37530594,mti/imu_base_body,0.8113677479836975,0.5844569519616912,0.008067966653333909,-0.005230368016975661,0.017453292519943295,0.0,0.0,0.0,0.017453292519943295,0.0,0.0,0.0,0.15707963267948966,0.003170725889503956,0.007404115051031113,0.09545765072107315,0.0004363323129985824,0.0,0.0,0.0,0.0004363323129985824,0.0,0.0,0.0,0.0004363323129985824,-0.15878455340862274,0.03592928871512413,9.828950881958008,0.0004,0.0,0.0,0.0,0.0004,0.0,0.0,0.0,0.0004
2025/04/11 12:08:22.87698320,1744366102,87411391,mti/imu_base_body,0.8116419920296404,0.5840756723208439,0.008085632770595094,-0.005244837443671417,0.017453292519943295,0.0,0.0,0.0,0.017453292519943295,0.0,0.0,0.0,0.15707963267948966,0.009221083484590054,0.006878812797367573,0.09590590745210648,0.0004363323129985824,0.0,0.0,0.0,0.0004363323129985824,0.0,0.0,0.0,0.0004363323129985824,-0.17627844214439392,0.06008226051926613,9.802911758422852,0.0004,0.0,0.0,0.0,0.0004,0.0,0.0,0.0,0.0004
2025/04/11 12:08:22.138240674,1744366102,137512987,mti/imu_base_body,0.8119144400704386,0.5836967773846695,0.008084725509161932,-0.0052584493245785855,0.017453292519943295,0.0,0.0,0.0,0.017453292519943295,0.0,0.0,0.0,0.15707963267948966,0.011386128142476082,0.0032427094411104918,0.09434028714895248,0.0004363323129985824,0.0,0.0,0.0,0.0004363323129985824,0.0,0.0,0.0,0.0004363323129985824,-0.15402647852897644,0.06378352642059326,9.84287166595459,0.0004,0.0,0.0,0.0,0.0004,0.0,0.0,0.0,0.0004
2025/04/11 12:08:22.188506575,1744366102,188216293,mti/imu_base_body,0.8122189656663792,0.58327280716666,0.008093315758477208,-0.005261413478822898,0.017453292519943295,0.0,0.0,0.0,0.017453292519943295,0.0,0.0,0.0,0.15707963267948966,0.01011669635772705,0.008756891824305058,0.10493862628936768,0.0004363323129985824,0.0,0.0,0.0,0.0004363323129985824,0.0,0.0,0.0,0.0004363323129985824,-0.1727612316608429,0.055631641298532486,9.773981094360352,0.0004,0.0,0.0,0.0,0.0004,0.0,0.0,0.0,0.0004
2025/04/11 12:08:22.237636636,1744366102,237326787,mti/imu_base_body,0.812491873197805,0.5828924799490134,0.008095275085929528,-0.005270609802863811,0.017453292519943295,0.0,0.0,0.0,0.017453292519943295,0.0,0.0,0.0,0.15707963267948966,0.011017708107829094,0.0012963446788489819,0.09037791937589645,0.0004363323129985824,0.0,0.0,0.0,0.0004363323129985824,0.0,0.0,0.0,0.0004363323129985824,-0.1834281086921692,0.04070362448692322,9.802690505981445,0.0004,0.0,0.0,0.0,0.0004,0.0,0.0,0.0,0.0004
2025/04/11 12:08:22.289124873,1744366102,287556711,mti/imu_base_body,0.8127678731690505,0.5825079153772496,0.008074865042847197,-0.005263973940740022,0.017453292519943295,0.0,0.0,0.0,0.017453292519943295,0.0,0.0,0.0,0.15707963267948966,0.011562635190784931,0.001689855009317398,0.09766233712434769,0.0004363323129985824,0.0,0.0,0.0,0.0004363323129985824,0.0,0.0,0.0,0.0004363323129985824,-0.15943138301372528,0.055320270359516144,9.850921630859375,0.0004,0.0,0.0,0.0,0.0004,0.0,0.0,0.0,0.0004
2025/04/11 12:08:22.337785895,1744366102,337491871,mti/imu_base_body,0.8130706140064834,0.5820851965869873,0.008098396940454338,-0.005236078723923561,0.017453292519943295,0.0,0.0,0.0,0.017453292519943295,0.0,0.0,0.0,0.15707963267948966,-0.0010769062209874392,0.0067214095033705235,0.10331804305315018,0.0004363323129985824,0.0,0.0,0.0,0.0004363323129985824,0.0,0.0,0.0,0.0004363323129985824,-0.1691123992204666,0.07673808187246323,9.793303489685059,0.0004,0.0,0.0,0.0,0.0004,0.0,0.0,0.0,0.0004
2025/04/11 12:08:22.387635046,1744366102,387367680,mti/imu_base_body,0.813349293084283,0.581696046102217,0.008105568433766315,-0.005190101030797105,0.017453292519943295,0.0,0.0,0.0,0.017453292519943295,0.0,0.0,0.0,0.15707963267948966,-0.0032612073700875044,-0.0039130765944719315,0.09729573875665665,0.0004363323129985824,0.0,0.0,0.0,0.0004363323129985824,0.0,0.0,0.0,0.0004363323129985824,-0.17378486692905426,0.08763843029737473,9.766669273376465,0.0004,0.0,0.0,0.0,0.0004,0.0,0.0,0.0,0.0004
