time,header_stamp_secs,header_stamp_nsecs,header_frame_id,child_frame_id,pose_position_x,pose_position_y,pose_position_z,pose_orientation_x,pose_orientation_y,pose_orientation_z,pose_orientation_w,twist_linear_x,twist_linear_y,twist_linear_z,twist_angular_x,twist_angular_y,twist_angular_z,gps_status
2025/04/11 11:51:09.595010049,1744365069,591296340,piren,vessel_center,252.08886617580686,1035.0856763387087,-41.529154106674675,0.0026148949563978923,-0.00685044382269767,0.06386047732994532,0.9979318980666921,-0.0013415458665349306,-0.002795215936384919,0.001023966678314993,0.016088023781776428,0.010065369307994843,0.0021184591347106494,2
2025/04/11 11:51:09.656231736,1744365069,641666159,piren,vessel_center,252.0892579454424,1035.0846657038076,-41.52961303431024,0.001758905736938509,-0.008202136725155061,0.06395694534219674,0.9979174015650021,-0.0003586418127497254,-0.004659457625166395,-6.867168855819567e-05,0.01312081329524517,0.006438122596591711,0.0045531504488862656,2
2025/04/11 11:51:09.699091489,1744365069,693901428,piren,vessel_center,252.08693012674675,1035.0856269120914,-41.52891220988406,0.0015164810249015813,-0.006833103838687351,0.06400947702061045,0.9979247445718433,-0.00531160641626228,-0.0020985157307222817,0.0014414424820756737,0.012177294120192528,0.005618299823254347,0.004647382965675633,2
2025/04/11 11:51:09.744777963,1744365069,741805785,piren,vessel_center,252.08749503110405,1035.087040906079,-41.52976094613282,0.002236302422336112,-0.005769171412685219,0.06408863717407326,0.9979250283452445,-0.003537650440921411,0.001148647376794544,-0.0005270121339435703,0.013771447353065014,0.00528655294328928,0.00593757925456758,2
2025/04/11 11:51:09.796904049,1744365069,791131044,piren,vessel_center,252.0903557807363,1035.086324581586,-41.53017207030345,0.0025924538907054736,-0.00794593612089891,0.06392067759173756,0.9979199808893499,0.002969128221957376,-0.0005086765320811524,-0.0013516392270560102,0.01023928727954626,0.014631102792918682,-0.0011470090976404728,2
2025/04/11 11:51:09.846183007,1744365069,841302366,piren,vessel_center,252.08826733714707,1035.0851393220382,-41.530675858820096,0.002087941604257155,-0.007160961072085078,0.06415068067181265,0.9979123465043032,-0.0018111947622401064,-0.0029865520227758662,-0.0022831592438365064,0.012547394260764122,0.005143740680068731,0.007978434340809245,2
2025/04/11 11:51:09.899569436,1744365069,891440122,piren,vessel_center,252.08828524433875,1035.085587292874,-41.52992094704183,0.0013781161950469425,-0.006544798228648672,0.06405256289257058,0.9979241131462816,-0.001579059066989416,-0.0017089224284063658,-0.00042440770482130453,0.012210017070174217,0.001983062131330371,0.0011232667080354364,2
2025/04/11 11:51:09.946576158,1744365069,941841833,piren,vessel_center,252.0886986175497,1035.0872214504057,-41.529993750263465,0.0016021987482249802,-0.006381545177255028,0.06419865143701728,0.99791544831914,-0.0005251767925073952,0.0019713371089892474,-0.0005347098465676924,0.019107019528746605,-0.003155254293233156,0.006973287944773187,2
2025/04/11 11:51:09.998095537,1744365069,993105848,piren,vessel_center,252.08966095291188,1035.0876410209153,-41.52946307097534,0.0027864563598439143,-0.007919938129700802,0.064117434293735,0.9979070421940939,0.0015892466906734762,0.0026536559747910374,0.0006579725371921097,0.00613319082185626,-0.00039368573925457895,0.0011084188515173257,2
2025/04/11 11:51:10.49522989,1744365070,41903668,piren,vessel_center,252.08757781301043,1035.0857881338177,-41.531043830126094,0.002456599891216838,-0.007956795105411665,0.06427047896899413,0.9978977703461017,-0.0030395836182606074,-0.0015939689230435742,-0.0027969080163870773,0.012462369166314602,0.0041783712804317474,0.007259941946736283,2
2025/04/11 11:51:10.94454145,1744365070,91685977,piren,vessel_center,252.0864606620838,1035.0852029224443,-41.53005120260765,0.0014079479024625228,-0.006742182206183546,0.06413424075763188,0.9979175115330149,-0.005106121166045327,-0.0026763275052871884,-0.00037375549548528293,0.01504938118159771,-0.003422784386202693,0.0,2
2025/04/11 11:51:10.149720094,1744365070,143714879,piren,vessel_center,252.08753809231965,1035.0863587052665,-41.53046507992389,0.0016504792344109837,-0.006325100083888732,0.06419270112036334,0.997916111779992,-0.002237022592271373,9.060203319677558e-05,-0.0012167583495511268,0.0032734216656535864,0.006415721960365772,0.0034304385243224345,2
2025/04/11 11:51:10.303165662,1744365070,202366066,piren,vessel_center,252.08922363857837,1035.0867371995291,-41.53019563698101,0.0019980339665546724,-0.007222429289637948,0.06417319286395844,0.9979106401342106,0.0015862298463162144,0.0008830614595353853,-0.000509867201083124,0.012844673357903957,0.007752785924822092,0.0013445077714014334,2
2025/04/11 11:51:10.381012349,1744365070,241620094,piren,vessel_center,252.08831257729332,1035.0862465347984,-41.530979445604686,0.002615936545911611,-0.007216595587696861,0.06428200077385851,0.9979022507242987,-0.0005198182162757664,-0.00025399477599421334,-0.0021383883718954153,0.011330824345350266,-0.0009144353098236024,0.005203242208373747,2
2025/04/11 11:51:10.386751239,1744365070,294810723,piren,vessel_center,252.08799661636147,1035.0847208953285,-41.53124265468416,0.0020393043110396095,-0.006305335130580416,0.0645332591603516,0.9978935526642915,-0.0011377791914810448,-0.0034844842932216106,-0.0024667486922510294,0.008397098630666733,-0.002743951277807355,0.01043838794090198,2
2025/04/11 11:51:10.392562041,1744365070,342023373,piren,vessel_center,252.08937622151444,1035.0848734174526,-41.53176072297109,0.0018717338213449742,-0.005919879282048535,0.06445632865861704,0.9979012142179406,0.0019288433602241777,-0.002793500097868671,-0.003315064854041337,0.012582269497215748,0.01338893361389637,0.004893752126989906,2
2025/04/11 11:51:10.403213483,1744365070,397062121,piren,vessel_center,252.09070023567605,1035.0851174224942,-41.53201195772662,0.0027097040748208646,-0.007651729239068918,0.0645798972889218,0.9978795244966355,0.004538806658251828,-0.0019553195608750665,-0.003475801323861559,0.008435122668743134,0.00012267334386706352,0.008029566931070214,2
2025/04/11 11:51:10.449413987,1744365070,442164440,piren,vessel_center,252.09025156772356,1035.0832905859831,-41.53273696718825,0.003552713054868312,-0.008648043972797573,0.06460588262592341,0.9978670600313049,0.003128144557786086,-0.005665190804757001,-0.004679422967660683,0.01409623771905899,0.0029090496245771646,0.007665865355890465,2
2025/04/11 11:51:10.500720297,1744365070,493842027,piren,vessel_center,252.08708772100246,1035.0808784409958,-41.534968987114624,0.0026285192460906224,-0.006903738008979351,0.06454144336359899,0.9978876847504531,-0.003974251890394939,-0.010218197564427097,-0.008952688182250767,0.016217553988099098,-0.0006329527823254466,0.003359130653870023,2
2025/04/11 11:51:10.561226083,1744365070,548200774,piren,vessel_center,252.087511323996,1035.0805308276006,-41.53479065910905,0.0016299246956275931,-0.005762989367452828,0.06469088871820673,0.9978873785231908,-0.002618381085926544,-0.009778475472558053,-0.007543540220484601,0.006520462688058615,0.008596060797572136,0.007853948998496781,2
2025/04/11 11:51:10.608492628,1744365070,593772650,piren,vessel_center,252.08959527721183,1035.082713813418,-41.534239317343086,0.001970958937215592,-0.00730733070991142,0.06476091883416438,0.9978721068506318,0.002122242265181753,-0.004118816405571121,-0.005613809454945339,0.021173052489757538,0.0020974306389689445,0.009139127918795512,2
2025/04/11 11:51:10.648641424,1744365070,643149615,piren,vessel_center,252.08854989855496,1035.0840112011008,-41.53368203539857,0.003312502333689041,-0.008603130723793744,0.06459015995749641,0.9978692923959048,-0.0003440433424202502,-0.000898282215348442,-0.0038169842953152504,0.0073336269706487656,0.004014346282929182,0.0,2
2025/04/11 11:51:10.701780895,1744365070,695090019,piren,vessel_center,252.08527911455812,1035.0818789479108,-41.53348530766896,0.0026228118582352243,-0.007142924674949059,0.06472481036192679,0.9978741395630298,-0.007285103061553841,-0.005349094073062584,-0.0029774299520852303,0.015359366312623024,-0.0012144494103267789,0.006267859007041337,2
2025/04/11 11:51:10.745167319,1744365070,742204619,piren,vessel_center,252.0857146847214,1035.0816329350712,-41.53396375728746,0.0019457260555311349,-0.006973124004250264,0.0646804458508862,0.9978797671143899,-0.005607343318820299,-0.005326678667006486,-0.003694948440380585,0.011922737583518028,-0.0010812774999067187,0.0026455761417295194,2
2025/04/11 11:51:10.795053744,1744365070,791733995,piren,vessel_center,252.08617160309197,1035.0832574349372,-41.53155630638172,0.002472154846225673,-0.007849693706445393,0.06486621134450514,0.997860032963011,-0.004029414882006663,-0.0012804168196453207,0.001851998867238081,0.013726526871323586,0.006727549247443676,0.00818632025060211,2
2025/04/11 11:51:10.852453255,1744365070,842939560,piren,vessel_center,252.0853411229371,1035.0831735412369,-41.53132791303939,0.003308331356085392,-0.008028306189605733,0.06478701785474164,0.9978613348360852,-0.005375058935146612,-0.0013230474958618248,0.0021426018503177607,0.01638863980770111,0.008503762073814869,0.002186250586241986,2
2025/04/11 11:51:10.903730412,1744365070,891820853,piren,vessel_center,252.08426531058447,1035.0818176551618,-41.532537730905666,0.0029044469973666253,-0.007320122453821254,0.06482632315114532,0.9978654858354425,-0.007094724685975948,-0.004074808456425667,-0.0006689647904011046,0.009579485282301903,0.0071068559773266315,0.004448155957375803,2
2025/04/11 11:51:10.944907366,1744365070,941812636,piren,vessel_center,252.08451956610244,1035.0815449850656,-41.53199289936642,0.0016912575748721519,-0.006789861976106073,0.06479697840248687,0.9978739344286274,-0.005797512378558154,-0.004224135015465431,0.0005659374377444243,0.009782967157661915,0.004806817509233952,0.0023820644820334268,2
2025/04/11 11:51:11.1663903,1744365070,991710057,piren,vessel_center,252.08618954716798,1035.0840420144657,-41.532595513602175,0.0024952786118959433,-0.006680662870241856,0.0648377517162217,0.9978703364068143,-0.0016059346067322493,0.0015679103569709732,-0.0007833668677335473,0.002658799523487687,-0.004797098692506552,0.003334951768941947,2
2025/04/11 11:51:11.48496511,1744365071,41533367,piren,vessel_center,252.08691909453765,1035.084415630547,-41.531000165713756,0.0024387018506174165,-0.009077422370659985,0.06491397730885907,0.9978465957682742,0.00012705449505575781,0.002200500657636443,0.002715308096861691,0.006471610628068447,-0.0022151402663439512,0.004697107130547395,2
2025/04/11 11:51:11.97215807,1744365071,91672764,piren,vessel_center,252.08359696520344,1035.0847905437297,-41.531274525137974,0.003869620426507635,-0.006644893266431007,0.06477974319396358,0.9978699596154584,-0.007015920228036508,0.0027690319213434155,0.0018352679819201973,0.008826296776533127,-0.0026058421935886145,-0.0011201214100054141,2
2025/04/11 11:51:11.146684923,1744365071,141837307,piren,vessel_center,252.08552456935945,1035.0828872455443,-41.53295744603806,0.0018520513212642404,-0.007450252837393155,0.06482477049036303,0.9978671318213834,-0.0021327445813312685,-0.0016053896524681442,-0.0019667169528986496,0.009780727326869965,0.002152790082618594,0.0022931199470523807,2
2025/04/11 11:51:11.202451158,1744365071,192600427,piren,vessel_center,252.08555890027745,1035.0850530788334,-41.53152978847431,0.0006724276485970321,-0.0030420408113056422,0.06452677252244302,0.997911113003857,-0.0018307104368432072,0.0032059220475275686,0.0013020996736770492,0.010011374950408936,0.007039520889520645,-0.007958978976256085,2
2025/04/11 11:51:11.248724595,1744365071,241959289,piren,vessel_center,252.09280240751661,1035.0888312025702,-41.53014845396503,0.002334222454366997,-0.01023186062278685,0.06477307230613444,0.9978448323951744,0.013848158801556577,0.010939399089147631,0.004115683798789861,0.0153836440294981,0.0018638708861544728,0.003469677603107897,2
2025/04/11 11:51:11.297754465,1744365071,292765326,piren,vessel_center,252.08542288941237,1035.0883204724337,-41.52872301006493,0.002714264611128895,-0.010965597195282784,0.06481478330792377,0.9978333690103365,-0.0033975501346730982,0.008675785348168577,0.006718885259613217,0.011620059609413147,0.0028684616554528475,0.0011567053996791416,2
2025/04/11 11:51:11.346294309,1744365071,341521967,piren,vessel_center,252.07953296417867,1035.0870767074423,-41.53025298209469,0.0027535167152480293,-0.0010750030081141044,0.06464713026449755,0.9979038085220422,-0.015635539199683975,0.005093427532847276,0.002732240269494924,0.008478695526719093,-0.004243971314281225,-0.003228134878049682,2
2025/04/11 11:51:11.395540325,1744365071,391510735,piren,vessel_center,252.09233547403198,1035.0877264451092,-41.53127071049239,0.0023101978323137513,-0.010739455494728803,0.06470403071672524,0.9978440336498793,0.013620666592100872,0.005943308770110893,0.0002459163456535419,0.010507545433938503,0.0005270682158879936,0.0,2
2025/04/11 11:51:11.445603128,1744365071,441971124,piren,vessel_center,252.08430529904695,1035.0873577505288,-41.53030229536424,0.001521047074511705,-0.00881093210425838,0.06472091053020608,0.9978633461709036,-0.005040095916842791,0.004516645679541402,0.002293970487050957,0.015414026565849781,-0.0022962098009884357,0.0,2
2025/04/11 11:51:11.499805271,1744365071,491600677,piren,vessel_center,252.08230244082668,1035.088706034413,-41.530184589010325,0.0016427611132975998,-0.0033345064912245117,0.0646068532591011,0.9979038715799943,-0.00878383873050551,0.006916111478130919,0.002299328495445253,0.005151616875082254,0.005843178369104862,-0.0034729148568613056,2
2025/04/11 11:51:11.546044230,1744365071,542006646,piren,vessel_center,252.09056841975382,1035.0903177561552,-41.52959550492487,0.003963061957600937,-0.009222510346043104,0.06461644630034313,0.9978596866846322,0.00983608718979668,0.00962749648078898,0.0033146811095321038,0.005787544883787632,0.005396046210080385,-0.002388593347898741,2
2025/04/11 11:51:11.597783300,1744365071,592782474,piren,vessel_center,252.08529415263968,1035.086838087538,-41.530376050559475,0.002576579549737729,-0.009424251247994389,0.06463267519849845,0.9978612939797414,-0.002508872722546575,0.001146885703019511,0.001288638007770261,0.005875529255717993,0.0018113245023414493,-0.001101016944856369,2
2025/04/11 11:51:11.651173916,1744365071,642622297,piren,vessel_center,252.08230826712838,1035.0867366405387,-41.531035698902585,0.0017794078773867574,-0.004264226465084986,0.0643973244397653,0.9979136408954735,-0.008630452883630815,0.0008072510769125117,-0.0002606662939797376,0.010522430762648582,-0.0015203695511445403,-0.008115017616425524,2
2025/04/11 11:51:11.696409577,1744365071,691819806,piren,vessel_center,252.08815137790023,1035.0885865520804,-41.531042155038385,0.002670048572894345,-0.01017309367588276,0.06463235168139182,0.9978537157929579,0.004807537798797066,0.004681508656176451,-0.0002464932971008681,0.007934735156595707,0.009318197146058083,0.00227746055531874,2
2025/04/11 11:51:11.750195959,1744365071,741902118,piren,vessel_center,252.0826038940747,1035.0878904032213,-41.53119625912149,0.0033724137095116615,-0.008629136639118205,0.06454469835667705,0.9978718087713877,-0.007559105260384048,0.002694586849065676,-0.0005494865241303147,0.012236524373292923,-0.0005848029977642,-0.003518484449572187,2
2025/04/11 11:51:11.797874634,1744365071,792671806,piren,vessel_center,252.0817545267148,1035.0862550025824,-41.5314713901096,0.0017851798793760555,-0.0041820555222418995,0.06446101237107979,0.997909866384987,-0.008565943464759574,-0.0010918874144408577,-0.0010790731446434151,0.008271344937384129,0.003465882269665599,-0.003409137737132913,2
2025/04/11 11:51:11.853716137,1744365071,842872056,piren,vessel_center,252.08847763991895,1035.088768032388,-41.53097877681243,0.0008759387683265363,-0.008131699940700947,0.06435950972211714,0.9978932616746529,0.006741385909435857,0.004404556989356937,9.071770476225672e-05,0.008776834234595299,0.003295643487945199,-0.005553108994400723,2
2025/04/11 11:51:11.897383367,1744365071,892471609,piren,vessel_center,252.08611601931588,1035.091431803539,-41.530232327146955,0.0020480485172378973,-0.006840878652913086,0.06430772817956068,0.9979045665658169,0.0009752096014381184,0.009619945335543893,0.0016748924543662736,0.005658258218318224,0.014593848958611488,-0.0055661137357310006,2
2025/04/11 11:51:11.949728572,1744365071,942591771,piren,vessel_center,252.08695069060232,1035.0915565021644,-41.53096633802755,0.002984282462107518,-0.00855987728970282,0.06434480504019734,0.9978865509782716,0.0026587045218320867,0.008862916376165235,-7.516052529581304e-05,0.016081620007753372,0.0020445554982870817,-0.0034890812940056547,2
2025/04/11 11:51:12.6190236,1744365071,992737561,piren,vessel_center,252.08476569663256,1035.0899717715977,-41.530651276187676,0.002627575845991645,-0.006427590451165257,0.06429054441021625,0.9979070637216694,-0.00230182432435412,0.004522367537538234,0.0006071025757819383,0.005304513033479452,0.004481432493776083,-0.004639724588715771,2
2025/04/11 11:51:12.49522015,1744365072,41828202,piren,vessel_center,252.08670819566407,1035.0897528540436,-41.52983677327269,0.001325167726105095,-0.00637928285237282,0.06424096062884922,0.9979131463500568,0.0021050902759725517,0.0035689544629349296,0.0022864887510365872,0.013369733467698097,0.008202939294278622,-0.004504956361147221,2
2025/04/11 11:51:12.97394474,1744365072,91825381,piren,vessel_center,252.08732367840787,1035.0914435577765,-41.52868355919258,0.0029153835238369514,-0.008600287721642116,0.06436952710386783,0.9978848127767245,0.003199179329271837,0.006810671828316121,0.00451341981921587,0.014047298580408096,0.008690266869962215,0.0,2
2025/04/11 11:51:12.145388354,1744365072,141424162,piren,vessel_center,252.08563361474572,1035.0900981164532,-41.52937013770873,0.0025403831812475007,-0.006851278522688132,0.06421171881399176,0.997909545802048,-0.0007657845441826705,0.0031960374302798344,0.0025573413889048886,0.0022194618359208107,0.002750418847426772,-0.005695246050098059,2
2025/04/11 11:51:12.198006971,1744365072,193650015,piren,vessel_center,252.08665398710085,1035.09009464108,-41.52926016407794,0.003880585470037801,-0.008103132329410997,0.0642490203577474,0.9978934530729879,0.001500392309503704,0.0028461250190957845,0.0025187077365274044,0.010036641731858253,0.005850713700056076,-0.0023086320801560586,2
2025/04/11 11:51:12.249292874,1744365072,242030347,piren,vessel_center,252.08552981232071,1035.0876373489002,-41.53053190900335,0.002499121717616081,-0.0071553952023718555,0.06417015543665473,0.9979101892762565,-0.001061437876251139,-0.002707367306538794,-0.0004671667704315031,0.019852077588438988,0.008839720860123634,-0.004609704645917562,2
2025/04/11 11:51:12.304327086,1744365072,291701839,piren,vessel_center,252.08597114253342,1035.0880818130877,-41.52969163196009,0.0016843269457648817,-0.006759703966682055,0.06418639613407634,0.997913611489663,-2.831880897238414e-06,-0.0014661572624390775,0.0013823375297988614,0.00795385055243969,0.004676980432122946,-0.0023010125928750445,2
2025/04/11 11:51:12.345454421,1744365072,341831123,piren,vessel_center,252.087471001741,1035.090410644885,-41.53037506826673,0.0025017768761451072,-0.008306579163864599,0.0639369148379427,0.9979162353504738,0.003203200024927364,0.0036678801368907497,-0.00022596066801270254,0.010472065769135952,0.005860417149960995,-0.010143954974920984,2
2025/04/11 11:51:12.398199519,1744365072,391319883,piren,vessel_center,252.08510397082833,1035.0904420247048,-41.530312229649674,0.002948149139638589,-0.006852196677186607,0.06430183912955592,0.9979026151393253,-0.002248115904444594,0.003338982420245889,-6.600534642870926e-05,0.00935429334640503,0.0014421252999454737,0.005306359609555726,2
2025/04/11 11:51:12.443950932,1744365072,441215588,piren,vessel_center,252.08618005093962,1035.089716518999,-41.529128122001836,0.002731352452069409,-0.007126251550883149,0.06421630552371198,0.9979068204784961,0.00029575672945157715,0.0014290407832959371,0.0024759518165069503,0.013608305715024471,0.006947814486920834,-0.0023202667077530984,2
2025/04/11 11:51:12.499399776,1744365072,492251923,piren,vessel_center,252.0868952549991,1035.0894763443857,-41.527373271025574,0.002368609386918044,-0.008707877746453459,0.06413976822533649,0.9979001215987126,0.0017920011836622593,0.0007629159783391569,0.005959761448991685,0.011750372126698494,0.010404289700090885,-0.0023569089853220514,2
2025/04/11 11:51:12.547905750,1744365072,541660909,piren,vessel_center,252.08425547898375,1035.0902762514054,-41.524731019221775,0.0013807241043531997,-0.005839033807419552,0.06415187945907508,0.9979221090080187,-0.004052397103009743,0.0023944904831296352,0.010982010214439696,0.015308110043406487,0.011206028051674366,-0.001145053489379078,2
2025/04/11 11:51:12.598501259,1744365072,591862683,piren,vessel_center,252.08744844321384,1035.0925356833955,-41.524834885156835,0.002802777928242595,-0.008934973717161355,0.06412756177499222,0.9978977735727008,0.0032038910971778113,0.006966587679562513,0.009585789104835384,0.009880267083644867,0.012535186484456062,-0.0023249460762369786,2
2025/04/11 11:51:12.645295411,1744365072,641189020,piren,vessel_center,252.0845442930788,1035.0913183354837,-41.52556058622491,0.00278706985702533,-0.007388588834987372,0.06402421396269437,0.9979171012780064,-0.0033486725121065226,0.0036189336769894046,0.007009553564301996,0.010592411272227764,-0.006552305072546005,-0.004550320251718304,2
2025/04/11 11:51:12.697883715,1744365072,692678878,piren,vessel_center,252.08496381780023,1035.0908658534024,-41.52575465784099,0.0018437276049405717,-0.006218040761237504,0.0640392772981815,0.99792630369218,-0.002093712561008933,0.0022646155726761255,0.005844512056035001,0.01205134205520153,0.011702247895300388,-0.00231417869407481,2
2025/04/11 11:51:12.749167799,1744365072,741527083,piren,vessel_center,252.08747696523866,1035.0924652845597,-41.52488161698058,0.0020248388511470653,-0.007547339792603301,0.06400485341663983,0.997918992919163,0.003507159420496473,0.005446279416901238,0.007090692446308822,0.013146926648914814,0.003246692009270191,-0.0034081325287656033,2
2025/04/11 11:51:12.796032710,1744365072,791719572,piren,vessel_center,252.08690097672994,1035.0929783950169,-41.52401309347317,0.0028393226162639488,-0.0073050285051797035,0.0640118906220358,0.9979183597191765,0.001899390607877658,0.005958340643701381,0.008185919285881483,0.009718193672597408,-0.001956065883859992,-0.0022730760636389953,2
2025/04/11 11:51:12.850679249,1744365072,841059809,piren,vessel_center,252.08703767453852,1035.0924316581977,-41.52403518535041,0.002469225926480871,-0.006745733861305047,0.06384748942918626,0.9979338134824306,0.001989490473715714,0.004155903391256293,0.007267837066541462,0.007469910196959972,0.006419174838811159,-0.007079958860338204,2
2025/04/11 11:51:12.899330159,1744365072,891063531,piren,vessel_center,252.08786830339594,1035.0933253403045,-41.52419687076232,0.0028849013789188,-0.0073529493540121565,0.06391609382389117,0.9979240173631091,0.0035519158639545,0.005621050848276359,0.006143714968965243,0.01282901968806982,0.009116334840655327,-0.0022655839137629653,2
2025/04/11 11:51:12.947852830,1744365072,942639676,piren,vessel_center,252.08725369637315,1035.0922089363748,-41.52500793926217,0.0015403604472665384,-0.006197385930612773,0.06407463887999694,0.9979246766914412,0.0018581977434223608,0.0026334556010624557,0.003752646979211251,0.020212696865200996,0.00014420851948671043,0.0023277923756535247,2
2025/04/11 11:51:12.998216443,1744365072,991218610,piren,vessel_center,252.08886329740486,1035.094847871091,-41.52352176727573,0.0016752314205181577,-0.00790442252558951,0.0639479053374142,0.9979205274505489,0.005102948167677832,0.007997287321450134,0.006531223003196375,0.011402017436921597,0.008976210840046406,-0.003208609012909605,2
2025/04/11 11:51:13.48846743,1744365073,41967866,piren,vessel_center,252.08723013320176,1035.0964101312745,-41.523668949375796,0.002971837684118875,-0.006298804861378891,0.0638424614819733,0.9979356859788211,0.0010631128007844472,0.01048021661845269,0.005515867993301528,0.011285410262644291,0.005230985581874847,-0.00460948695030814,2
2025/04/11 11:51:13.97330513,1744365073,91056871,piren,vessel_center,252.08873539071507,1035.0953372428978,-41.524043442639254,0.0021056493363559863,-0.006909742190773578,0.06394305138054143,0.9979274061192401,0.004174730399631708,0.007063886922333044,0.0041252720886404875,0.013656902126967907,0.0062037985771894455,0.0,2
2025/04/11 11:51:13.146376216,1744365073,141798304,piren,vessel_center,252.0885754230182,1035.0966940446872,-41.52330603410093,0.001981052686227052,-0.008322233054085264,0.0637541139771077,0.9979289698261304,0.003383800106803401,0.009217260701188938,0.005264924399813254,0.015226314775645733,0.003538860008120537,-0.0068199693768542635,2
2025/04/11 11:51:13.197555556,1744365073,191232230,piren,vessel_center,252.08587903976024,1035.0968001650658,-41.52267869138539,0.0027155658891799073,-0.00756055171024409,0.06380235326808927,0.9979302197434409,-0.0027469163147088595,0.008457279521644528,0.006043218798782847,0.013211339712142944,-0.0022717760875821114,-0.0023166687119685384,2
2025/04/11 11:51:13.247688096,1744365073,241932786,piren,vessel_center,252.0851576371701,1035.0962349311058,-41.52318449596395,0.002411140213134579,-0.006322159987185529,0.06396403760294832,0.9979292653236991,-0.003994038360633558,0.006344636416906729,0.004315900333131141,0.009766261093318462,-0.0013837353326380253,0.0022650231169880053,2
2025/04/11 11:51:13.304894019,1744365073,292377454,piren,vessel_center,252.08753125334928,1035.0966699685803,-41.5233691927331,0.0027707304881910205,-0.007770327376889858,0.063871488727617,0.9979240341793235,0.001505289072451896,0.006595054362878732,0.0034592684856534117,0.008961167186498642,0.00324218044988811,-0.002326460771292628,2
2025/04/11 11:51:13.353904926,1744365073,348339352,piren,vessel_center,252.0862126673712,1035.0958607495304,-41.52524905236264,0.0027683149149109556,-0.008049047097946781,0.06382167732614943,0.9979250186144367,-0.0014730069698089122,0.004164129514538222,-0.0009264412423362939,0.017681781202554703,-0.003733937395736575,-0.0022148590723432234,2
2025/04/11 11:51:13.399881608,1744365073,391315965,piren,vessel_center,252.08497458640431,1035.0953528237192,-41.52583043672966,0.0021836543568802117,-0.007284830801694547,0.06380539314384227,0.9979333818946033,-0.003981186864530164,0.002620375037622584,-0.002078904310297956,0.015513235703110695,0.005353980697691441,-0.0018764348511259737,2
2025/04/11 11:51:13.448558359,1744365073,442562710,piren,vessel_center,252.08509002000963,1035.0961120535576,-41.526202031574705,0.001701566375198814,-0.006134419440267505,0.06393115726791931,0.9979340061849713,-0.003308415771834907,0.003963053696679712,-0.002650843396304479,0.012873110361397266,0.0041663870215415955,0.0023492318805414477,2
2025/04/11 11:51:13.501181788,1744365073,492871462,piren,vessel_center,252.08716311727932,1035.0974310976405,-41.52724876958136,0.0028910693256786655,-0.007676179274363683,0.06395137443119452,0.997919305203714,0.0014844046759662976,0.006362041634747588,-0.004607546040381293,0.005761179607361555,0.002805504947900772,0.0011458779780776996,2
2025/04/11 11:51:13.546822066,1744365073,541211809,piren,vessel_center,252.08682134057065,1035.0964853891417,-41.526948414610615,0.002616315006481287,-0.008074917165684897,0.06372191865701238,0.9979315946953595,0.0005945628595782272,0.003659703885568893,-0.0034737833031499563,0.010813050903379917,-0.0031765042804181576,-0.005865456358631829,2
2025/04/11 11:51:13.596121319,1744365073,592067894,piren,vessel_center,252.08585267121836,1035.0964664411972,-41.52650975562647,0.0026519798687499327,-0.006965321545420898,0.06363328038565144,0.9979455180148392,-0.0015427533767478872,0.003226939626438257,-0.0021624823641616317,0.013124127872288227,0.005273323971778154,-0.005378485491423133,2
2025/04/11 11:51:13.645336682,1744365073,641954686,piren,vessel_center,252.0860731850078,1035.0965918994914,-41.52810253669539,0.002197886189931048,-0.006755016245995794,0.06377084158599404,0.9979392861368003,-0.0009054781385202569,0.0031503223002801,-0.005341865842297009,0.01030818559229374,0.004969919566065073,0.0,2
2025/04/11 11:51:13.695693338,1744365073,690999759,piren,vessel_center,252.08701195139275,1035.09700644172,-41.52627319063962,0.002563052766338247,-0.007403547418412966,0.06389091130686352,0.9979261343899752,0.0011984504709289558,0.0036999284422563556,-0.0008596426783071803,0.021118327975273132,0.004041882697492838,0.002341342500783402,2
2025/04/11 11:51:13.747652320,1744365073,741985644,piren,vessel_center,252.08709676289146,1035.0967314003674,-41.527082605176325,0.0026949381212847835,-0.007458687586927895,0.0637775207013286,0.9979326295603299,0.0012517196533963306,0.0027156019597896425,-0.0024996268252834835,0.010463112965226173,0.0035620781127363443,-0.0022680406682723912,2
2025/04/11 11:51:13.794190027,1744365073,791093083,piren,vessel_center,252.08669426828564,1035.0961631486875,-41.52737467418765,0.0023088883984819226,-0.00711066373183084,0.06368196498080997,0.9979422402282805,0.0002575456586555538,0.0012106782924092892,-0.002856948918361011,0.0072755394503474236,-0.004768669605255127,-0.00348752987706771,2
2025/04/11 11:51:13.846713112,1744365073,841059889,piren,vessel_center,252.08747022232987,1035.0968248923116,-41.52804128903275,0.001910149503880124,-0.006688846947694253,0.06364645124342755,0.9979482651417864,0.0018913774246129922,0.0024978803641715836,-0.003978248110740877,0.01899336278438568,0.00912152137607336,-0.0033669070153266954,2
2025/04/11 11:51:13.898372845,1744365073,891790564,piren,vessel_center,252.0887559809447,1035.0982020716326,-41.527096283953405,0.002838464980901972,-0.007643561605670965,0.0636657252979213,0.9979379712711718,0.004436540104757122,0.005173478155302296,-0.0015328948888281941,0.0173494853079319,0.010430370457470417,-0.002298628273604856,2
2025/04/11 11:51:13.944861353,1744365073,941877977,piren,vessel_center,252.08735170997207,1035.0970324350415,-41.528194809613886,0.0028892045912297395,-0.008110377126372203,0.06380507554920799,0.9979252409944634,0.0009531137514613959,0.0021139706466783586,-0.0037227076300950994,0.011415298096835613,0.0066179437562823296,0.002248465472763383,2
2025/04/11 11:51:13.998318932,1744365073,991185473,piren,vessel_center,252.0857424627441,1035.0957762676612,-41.528993596109935,0.0023573699311153435,-0.006941652190877163,0.0638154352252277,0.9979347907047251,-0.0025957850277791208,-0.0008029248123420933,-0.005035143515374327,0.015010322444140911,0.008481438271701336,0.0011149861340315754,2
2025/04/11 11:51:14.54661028,1744365074,42259727,piren,vessel_center,252.0871966438744,1035.0962935959396,-41.527681252587925,0.0026261907541657516,-0.006869503351148537,0.06374140577837673,0.997939349978358,0.0007921934960450103,0.0003894114446666259,-0.0016884463006306282,0.012919658794999123,-0.00145697349216789,-0.001162380746131079,2
2025/04/11 11:51:14.101469927,1744365074,92109383,piren,vessel_center,252.0886772460944,1035.0961019905446,-41.526933215908116,0.0024109883962445374,-0.00710675195793485,0.06371511478709987,0.9979399106956431,0.003879581153614717,-6.259795063669513e-05,9.415662232754797e-05,0.00621581356972456,0.0019305023597553372,-0.0011381991204305346,2
2025/04/11 11:51:14.145456046,1744365074,141834610,piren,vessel_center,252.08830513227872,1035.0968822482082,-41.527726898455995,0.0023645048403767737,-0.007572558334029519,0.06378140514243051,0.9979323613528097,0.002665133478126344,0.001618165159561618,-0.0016187942740998528,0.008504845201969147,0.0011301621561869979,0.0011567236771104234,2
2025/04/11 11:51:14.198178422,1744365074,191182694,piren,vessel_center,252.08796891463723,1035.097061520601,-41.52712511419389,0.002267683035202814,-0.00779170767141965,0.06369637756261091,0.9979363298280188,0.001659603447251365,0.0018287793096533327,-0.0001565882136844699,0.0049271914176642895,0.006529767531901598,-0.002250262503404203,2
2025/04/11 11:51:14.244904657,1744365074,241429451,piren,vessel_center,252.08675796085913,1035.0970860811178,-41.52699145263962,0.0026083055267807666,-0.007099860758231633,0.06387892595534873,0.9979289912304803,-0.0011078972274617541,0.0016850271844305147,0.0001460263128933569,0.012071476317942142,0.010229991748929024,0.004593146123483682,2
2025/04/11 11:51:14.302498045,1744365074,293638722,piren,vessel_center,252.0873988670469,1035.096875964981,-41.52641199441148,0.0027262250087052146,-0.006632782849123732,0.06373875724477103,0.9979408523122854,0.00038185329124190443,0.001053946339197869,0.0013690603979910085,0.005281144753098488,0.004957546014338732,-0.0023361495629433153,2
2025/04/11 11:51:14.345283871,1744365074,341421133,piren,vessel_center,252.0886029709512,1035.0963682306824,-41.52610232333186,0.0020187347275680335,-0.007475378225916575,0.0637039139991155,0.9979388031195463,0.002918148813273555,-0.00014369676300702368,0.001887284290910431,0.0019740837160497904,0.006986826658248901,-0.0011869767098991496,2
2025/04/11 11:51:14.396096722,1744365074,391475350,piren,vessel_center,252.08820875651443,1035.0971943052532,-41.52609822476372,0.0024790845063734084,-0.0077470394335945915,0.06378160249653132,0.9979307314152618,0.0017539722254923701,0.0016498699978910784,0.0016919433442808458,0.012656770646572113,0.00444440171122551,0.0011237840166655449,2
2025/04/11 11:51:14.445222611,1744365074,442295700,piren,vessel_center,252.08724288322307,1035.096548412476,-41.52606101731505,0.0021179381789429535,-0.006276620474996624,0.06384152895944005,0.9979380629845742,-0.0005019857850356772,9.027761516336376e-05,0.0015907018258417356,0.007937903515994549,0.0009498983854427934,0.0023004341219788277,2
2025/04/11 11:51:14.493907389,1744365074,491338722,piren,vessel_center,252.08924317959105,1035.09690723132,-41.52618168541297,0.001868102631765741,-0.007023426548607506,0.06379205043487969,0.9979367494853506,0.003828308307606684,0.0008478029318212114,0.0011628547079226355,0.019755147397518158,0.0072626895271241665,0.0,2
2025/04/11 11:51:14.545495920,1744365074,542105726,piren,vessel_center,252.08920577914193,1035.0976220610942,-41.526446518214,0.0025634016931759184,-0.0077602983536801465,0.06385431437408991,0.9979257654139592,0.0033382260922962892,0.002286998728595795,0.0004714669646318744,0.017700817435979843,0.00023828395933378488,0.0022673733082293826,2
2025/04/11 11:51:14.594831713,1744365074,592146060,piren,vessel_center,252.08902513192163,1035.0963186035715,-41.5271355074933,0.0026976227773607545,-0.007380301035645767,0.06374074237073658,0.9979355549082325,0.0025944826732711666,-0.0007408561670672448,-0.0010499080251520335,0.01307986956089735,0.005971857812255621,-0.0023035105847950357,2
2025/04/11 11:51:14.644928296,1744365074,642296710,piren,vessel_center,252.08865242869317,1035.0953918238415,-41.52998066671647,0.0022562393135609855,-0.006382534562167725,0.06372200552674617,0.99794472725115,0.0015244986024299655,-0.00264053185255761,-0.007011356276200329,0.01194439921528101,0.005121059715747833,-0.001201746936376548,2
2025/04/11 11:51:14.695917996,1744365074,692720017,piren,vessel_center,252.0908911485053,1035.0954779614085,-41.52943628051194,0.002056188047927286,-0.007187934762397272,0.06357275408289012,0.9979492024260952,0.006142055928216913,-0.0021730972843215517,-0.005096018645286902,0.008883005008101463,0.009350481443107128,-0.005679427640509797,2
2025/04/11 11:51:14.746874101,1744365074,742069553,piren,vessel_center,252.09056014690123,1035.0955524949586,-41.5307272383472,0.0023939484016842934,-0.008223512542232879,0.0634955381412267,0.9979453689900434,0.0047810764090400045,-0.0017825846291088913,-0.007313350112377746,0.007680309470742941,0.000978600000962615,-0.0058829913552234095,2
2025/04/11 11:51:14.797368062,1744365074,791894965,piren,vessel_center,252.08900504573435,1035.0944779041786,-41.530724966868476,0.0021887427925951367,-0.007451016549796183,0.06334153863409539,0.9979616932732579,0.0009428021067833547,-0.0038912044419703255,-0.006526786009413852,0.004963246639817953,0.007418373133987188,-0.009035490504306862,2
2025/04/11 11:51:14.847667539,1744365074,842270568,piren,vessel_center,252.0897570003342,1035.0944856483052,-41.530559305795414,0.002439433345411551,-0.006343406367117856,0.06309479763616045,0.9979843971084252,0.0024495401507920256,-0.00345821362570859,-0.005474119423007549,0.010854782536625862,0.003422731766477227,-0.013812805251112063,2
2025/04/11 11:51:14.896650441,1744365074,891372133,piren,vessel_center,252.09241556131292,1035.094476691987,-41.53099969951692,0.0021508276173603557,-0.00743464089937402,0.0627372894810216,0.9980000664147435,0.007874238083377356,-0.0031065647199284233,-0.0058292704060193025,0.014673610217869282,-0.0017190005164593458,-0.020208877863471572,2
2025/04/11 11:51:14.950570069,1744365074,942299380,piren,vessel_center,252.09194246494533,1035.0945709479156,-41.531053348851664,0.0021320819689019635,-0.008143994135301248,0.06256175045461514,0.9980055896466996,0.006018913788989272,-0.002572396290815954,-0.0053204421557154526,0.017590384930372238,0.0027136311400681734,-0.019551539625501442,2
2025/04/11 11:51:14.995030908,1744365074,991672865,piren,vessel_center,252.09109208095435,1035.094724950094,-41.52991997717451,0.002450573395193357,-0.007257119212448231,0.062144025102927124,0.9980377994118148,0.00355996096275249,-0.001968299617692532,-0.0023325731440763755,0.007921854965388775,0.002592032542452216,-0.02818806878304451,2
2025/04/11 11:51:15.45059869,1744365075,41993192,piren,vessel_center,252.09199553515785,1035.0943947226406,-41.53047245766853,0.0026115635274517202,-0.006454085706261595,0.06188805199618229,0.998058812662739,0.005114737174562839,-0.0024656833895278342,-0.003266810904517568,0.011402755975723267,0.002217276720330119,-0.027636039688383407,2
2025/04/11 11:51:15.95852629,1744365075,92615701,piren,vessel_center,252.09476196192594,1035.0937190033587,-41.5313647303147,0.0018906645957324781,-0.007588138463483443,0.06152219678330951,0.9980750797635423,0.010488215068608048,-0.003647901164731587,-0.004826733100793488,0.014415125362575054,0.006347093731164932,-0.032362694354364646,2
2025/04/11 11:51:15.145391703,1744365075,142213895,piren,vessel_center,252.09480505501134,1035.0943790683548,-41.531802206063894,0.0025265965975399813,-0.007759976237411726,0.06109166521538195,0.9980987964723933,0.009456866372670453,-0.001841114256785653,-0.005247999965024517,0.008678171783685684,-0.0006467127823270857,-0.036472894325810634,2
2025/04/11 11:51:15.197259048,1744365075,192700680,piren,vessel_center,252.09538727914278,1035.0943957207865,-41.532189105238736,0.0023471211066703386,-0.007384806436802121,0.060632581208385224,0.9981300745656401,0.009687402234953886,-0.001607991614037013,-0.0055123651943972595,0.014621778391301632,0.0031332990620285273,-0.04115240598173609,2
2025/04/11 11:51:15.245328922,1744365075,242221752,piren,vessel_center,252.09687325133183,1035.0948325832835,-41.53194436502894,0.0031475673758771232,-0.007507467985915253,0.06000033685356111,0.99816516184523,0.011826354858726525,-0.0005031878607041963,-0.004400845223165104,0.015439155511558056,0.0021522920578718185,-0.05084625297330426,2
2025/04/11 11:51:15.295967834,1744365075,292345199,piren,vessel_center,252.09790222725377,1035.0940598305672,-41.53346249466245,0.002376682727869655,-0.007432172890362882,0.05957511088275854,0.998193328142723,0.012763853549449785,-0.0021018788091168913,-0.007177226054523087,0.0031038622837513685,0.006287945434451103,-0.04943913662747754,2
2025/04/11 11:51:15.346946704,1744365075,342199399,piren,vessel_center,252.09988391434456,1035.0953358227614,-41.533580411998315,0.001760695631543772,-0.007066383116913462,0.058965989342039254,0.9982334287537422,0.01563203414627879,0.0008471657529298738,-0.006662463214530587,0.017279518768191338,0.009925231337547302,-0.057101727480163705,2
2025/04/11 11:51:15.395521778,1744365075,392067550,piren,vessel_center,252.10205702632504,1035.0981742536871,-41.532815217682696,0.0026330604262478677,-0.007057831296123276,0.05850317668528138,0.998258800275719,0.01863218512901313,0.006872747418128716,-0.004296226166241011,-0.000761830888222903,0.0009727549622766674,-0.0552686366605013,2
2025/04/11 11:51:15.446224909,1744365075,441815161,piren,vessel_center,252.10470439926465,1035.098651929479,-41.53401469156859,0.002142504982276044,-0.007442025063593063,0.05784192716818532,0.9982957164071297,0.022298180208622405,0.007158515036462637,-0.006400849877314838,0.008123800158500671,0.003196561010554433,-0.06369427964035683,2
2025/04/11 11:51:15.495612099,1744365075,492119198,piren,vessel_center,252.106434165014,1035.1010352714457,-41.53261061885282,0.002295357626751629,-0.007389832707617621,0.0571526503984112,0.9983354627871114,0.02360182795202946,0.01148590995890118,-0.002710976367546889,0.014789779670536518,-0.003853986505419016,-0.06873320137462982,2
2025/04/11 11:51:15.545549096,1744365075,542552944,piren,vessel_center,252.10864221431015,1035.1030926379551,-41.533950447898825,0.0013889636049935457,-0.006648439770609315,0.05671299335610492,0.9983674200480057,0.025813619446512358,0.014666547003434977,-0.005290663753629585,0.018653864040970802,0.007333491928875446,-0.06535379054084732,2
2025/04/11 11:51:15.594462360,1744365075,591277316,piren,vessel_center,252.11279588672056,1035.1072210828722,-41.53236869560307,0.0026757719079689686,-0.007736508562867822,0.05594035744198015,0.9984005524283411,0.03195210593119101,0.02194180117858196,-0.0013377927015540058,0.010617406107485294,-0.002480205846950412,-0.07547697930327993,2
2025/04/11 11:51:15.644061957,1744365075,641327796,piren,vessel_center,252.1152304750126,1035.1088933582812,-41.53216096475262,0.0021435279680395306,-0.007833583886343174,0.055458129600723036,0.9984279824366579,0.033737712114316316,0.02316889468347654,-0.0007502712950383716,0.00923608336597681,-0.0003049241495318711,-0.06918274242251338,2
2025/04/11 11:51:15.696899813,1744365075,692474685,piren,vessel_center,252.1177827697566,1035.1123226526345,-41.53273969867986,0.0015716107819748475,-0.0074439107846611475,0.05475209233864627,0.9984709943790658,0.035586864970309766,0.028027203031342655,-0.0019086158108791527,0.017391061410307884,0.002452258486300707,-0.07674028122351821,2
2025/04/11 11:51:15.747019877,1744365075,741693152,piren,vessel_center,252.12148237398463,1035.1168041467895,-41.53123780363739,0.00439422513611066,-0.008452510438979589,0.05408441177995691,0.9984909224700784,0.03970459421968826,0.03462028677367926,0.0015037946636596209,0.013434412889182568,0.004259276203811169,-0.07777990190234696,2
2025/04/11 11:51:15.796836218,1744365075,792438501,piren,vessel_center,252.1238180079648,1035.116764124544,-41.53262122413503,0.0032159958897041672,-0.008375083687437512,0.053541233602505726,0.99852533851074,0.04043938842567059,0.030822041327337506,-0.0016147190497747465,0.011514266952872276,0.008660035207867622,-0.07563505010334265,2
2025/04/11 11:51:15.847399034,1744365075,841478520,piren,vessel_center,252.12738503270302,1035.1202183625353,-41.53310951300338,0.0024833446085304237,-0.007139183235610409,0.05275008482986506,0.998579137381072,0.04375204309346828,0.03491924098798336,-0.0024863486731078388,0.01847238466143608,0.006397614721208811,-0.08405319617535863,2
2025/04/11 11:51:15.897508536,1744365075,892595454,piren,vessel_center,252.1331379315529,1035.1255434833788,-41.53255253721934,0.0010757443710790618,-0.0044512960866371154,0.05199717602589048,0.9986367319613924,0.05137855148659583,0.04257717052278167,-0.0010268666578383523,0.006458957679569721,0.012456647120416164,-0.08409206418273955,2
2025/04/11 11:51:15.956903160,1744365075,949462205,piren,vessel_center,252.14360330394948,1035.1336835937527,-41.52926085968292,-0.0004986970777271693,-0.007660339640001301,0.05116340494788451,0.9986607915062868,0.06740366649801217,0.054732107966265174,0.006049065904181817,0.015698794275522232,0.004140885081142187,-0.08301278431424858,2
2025/04/11 11:51:16.288520,1744365075,992473201,piren,vessel_center,252.14622860045245,1035.1429967694023,-41.52729176637195,0.002643281633136111,-0.009775242272664245,0.05017665600882459,0.9986890211134248,0.0666639080168352,0.06951109922429168,0.00969510406957852,0.009193908423185349,-0.003816625103354454,-0.13242542065142923,2
2025/04/11 11:51:16.47763056,1744365076,43449339,piren,vessel_center,252.146635729693,1035.1463974286328,-41.52781788538699,0.004877257146047178,-0.007993641845487707,0.049425662660060196,0.998733907466544,0.06037871861401527,0.06935766984006476,0.007522281937383468,0.013222424313426018,0.0012570478720590472,-0.0954136982757873,2
2025/04/11 11:51:16.105240122,1744365076,96141053,piren,vessel_center,252.15168060899038,1035.1464306520306,-41.52989317148689,0.002452615869863108,-0.006774027223201358,0.04931836297558452,0.9987571257838328,0.0647547704157887,0.062013514664067765,0.002262310122853251,0.017650427296757698,0.006649729795753956,-0.06663142092962748,2
2025/04/11 11:51:16.147537216,1744365076,142560062,piren,vessel_center,252.15939927012235,1035.1526541341802,-41.52886574725621,0.002286963604486092,-0.006366815431680598,0.04866663262550399,0.9987921667332122,0.074342929804493,0.06869043555252574,0.0042220814441918724,0.012455126270651817,0.004880174528807402,-0.08129522513066932,2
2025/04/11 11:51:16.202950092,1744365076,193134922,piren,vessel_center,252.16758222841088,1035.1597815367822,-41.52840541596882,-0.0005158203107512317,-0.004601085068715045,0.04732510209680375,0.9988688095326256,0.08386954436864472,0.07656567431567965,0.004753715320885022,0.01442032866179943,0.013014236465096474,-0.10341764440131054,2
2025/04/11 11:51:16.248978811,1744365076,242893549,piren,vessel_center,252.1771963531982,1035.171005864125,-41.52645930652571,0.0029474933588048233,-0.009376684196813019,0.04669758984958323,0.998860713602559,0.09551649344159614,0.09244194041693846,0.008415851540036101,0.006936183664947748,0.010897217318415642,-0.09225093881938447,2
2025/04/11 11:51:16.305651813,1744365076,293949993,piren,vessel_center,252.17898847728026,1035.1745988674757,-41.52683887766413,0.00312569297949782,-0.007864043207434019,0.04572001439693604,0.9989184486990785,0.08899549190537073,0.09010272295145115,0.006692676422545674,0.014104669913649559,-0.0040003159083426,-0.10363619288695844,2
2025/04/11 11:51:16.352746928,1744365076,342678389,piren,vessel_center,252.18491877397574,1035.1783636364148,-41.52766633918368,0.0032594009387670133,-0.00962859363872546,0.045025339651942206,0.998934124594454,0.09229498634729226,0.08864336994829501,0.004211235030487615,0.007113436236977577,0.009731383062899113,-0.10147777459570388,2
2025/04/11 11:51:16.397051788,1744365076,393020536,piren,vessel_center,252.18809679629172,1035.1825621252153,-41.52725875458095,0.002349407816101613,-0.006117314173847845,0.04429023626562304,0.9989972140710641,0.08920337066665525,0.08814299262085115,0.004635762723739845,0.017451373860239983,0.00782970990985632,-0.09788641889818304,2
2025/04/11 11:51:16.445231277,1744365076,442162200,piren,vessel_center,252.19875190002261,1035.188990896096,-41.52857281720295,0.0029641579025332845,-0.005579679889566234,0.043592211385912745,0.9990294290193582,0.1024960505879335,0.09247747536228418,0.0013172401274403004,0.010088556446135044,-0.00047962652752175927,-0.0989869903717518,2
2025/04/11 11:51:16.497004765,1744365076,493156533,piren,vessel_center,252.21029790705757,1035.1938555377221,-41.52849047705837,0.0005795721982320831,-0.007751723745461656,0.042723272618364526,0.9990567035217861,0.11622387320148846,0.09299036677366532,0.0013524466310798292,0.00576487323269248,0.01677708700299263,-0.10159102501777442,2
2025/04/11 11:51:16.553131069,1744365076,541556387,piren,vessel_center,252.2167659689592,1035.2027654893998,-41.52891588307222,0.0011937509803858581,-0.009806270684132323,0.04184436553120179,0.9990753030113184,0.11768221507500129,0.10215292429984403,0.0002975616587320932,0.012946062721312046,0.0017040949314832687,-0.10576974340441801,2
2025/04/11 11:51:16.599042273,1744365076,592751969,piren,vessel_center,252.2206722609398,1035.2084326932513,-41.52743561167195,0.0017866457079553444,-0.005462253064778458,0.04105233011272495,0.9991404695441409,0.11340630323595632,0.10331996175136739,0.003438069855280901,0.02178286761045456,0.010991865769028664,-0.1024987957177904,2
2025/04/11 11:51:16.647754730,1744365076,642930322,piren,vessel_center,252.23313172426953,1035.2135693681348,-41.52759020868715,0.003884346565047748,-0.007505714656758429,0.03995106591027586,0.9991658963514952,0.12790957598078875,0.10324987163985498,0.002739947290785949,0.012216527946293354,0.004390556365251541,-0.1149424600454756,2
2025/04/11 11:51:16.697110696,1744365076,692330173,piren,vessel_center,252.24098835023142,1035.2142749673255,-41.52925418027902,0.003309389027953321,-0.00841520193838587,0.03915050868712101,0.999192408893371,0.13101158821004902,0.09369989137885569,-0.001112114020668286,0.01951218582689762,0.012058364227414131,-0.10870765548963798,2
2025/04/11 11:51:16.749397369,1744365076,743548588,piren,vessel_center,252.24729036788307,1035.2172277602901,-41.530020389368175,0.0006880212136319475,-0.00934073211344273,0.03819754368394062,0.9992263132078278,0.13051452225156482,0.0900247191939343,-0.0026299787445338996,0.0044964081607759,-7.484636444132775e-05,-0.11438009261733637,2
2025/04/11 11:51:16.797751242,1744365076,791906395,piren,vessel_center,252.25133374159682,1035.2241112166257,-41.52826055267271,0.0012616683776956422,-0.006045545535607731,0.037075962504821834,0.9992933666228465,0.1252007278154224,0.09510620853579896,0.0014105917385336406,0.01669670082628727,-0.006302990484982729,-0.12137713030857754,2
2025/04/11 11:51:16.847097714,1744365076,843305746,piren,vessel_center,252.2622221439968,1035.2296500418392,-41.52556247208565,0.002697848678722027,-0.0056048884603261025,0.03607390582774236,0.9993297654709307,0.13509643354234413,0.09678638362947824,0.007023752144607443,0.012203074060380459,0.006315731443464756,-0.12159824213493164,2
2025/04/11 11:51:16.896338408,1744365076,893281623,piren,vessel_center,252.2726505562276,1035.232123538205,-41.5254753666238,0.003876199804005346,-0.009494683790424832,0.03498129208794998,0.9993353467473554,0.1429350782054371,0.09172251898344258,0.006458827452684091,0.014198570512235165,0.007958007976412773,-0.12846567769459383,2
2025/04/11 11:51:16.950140667,1744365076,943156711,piren,vessel_center,252.27540022530792,1035.231579545634,-41.52632332193473,0.001917386775441101,-0.007890822421377626,0.0338188572331808,0.99939498870312,0.13353219919306414,0.08074868017465633,0.003953503046528795,0.014866368845105171,0.0037123963702470064,-0.13119888542842456,2
2025/04/11 11:51:17.1784716,1744365076,994554523,piren,vessel_center,252.28176259855036,1035.2355969528849,-41.52587379432133,0.0015908593334415257,-0.005627431328933823,0.032438133294048856,0.9994566367239835,0.1328549320463253,0.08070246897132166,0.004491632377994393,0.0128440847620368,0.0025136687327176332,-0.14225587547510657,2
2025/04/11 11:51:17.46872023,1744365077,42333450,piren,vessel_center,252.29202470060557,1035.2394811930799,-41.52421933609387,0.0021497367615127593,-0.006937573409974257,0.031316243456071355,0.9994831372278561,0.14060155158451837,0.08038204484419112,0.007550641744853693,0.021859489381313324,0.0007385911303572357,-0.14015389649152332,2
2025/04/11 11:51:17.97820768,1744365077,93862645,piren,vessel_center,252.29934165375522,1035.241242927715,-41.52423106492562,0.0022713172139679893,-0.00926683661704439,0.02979428077916485,0.9995105140467903,0.14117806832546195,0.07552312302832434,0.006714482772378006,0.008010770194232464,0.011935867369174957,-0.15505516466348188,2
2025/04/11 11:51:17.148933592,1744365077,144242005,piren,vessel_center,252.30165904882418,1035.2422460612513,-41.524012423344125,0.003201199914852242,-0.007388162916769124,0.028194415073081642,0.9995700287256053,0.13104900553075824,0.06959657494917337,0.0064655882965439565,0.017378121614456177,0.0009534803102724254,-0.1672920623364295,2
2025/04/11 11:51:17.196763393,1744365077,192058725,piren,vessel_center,252.30842310118675,1035.2414322739478,-41.52456212656854,0.0025629364844321607,-0.006639105915914606,0.02675719209221313,0.99961662966387,0.13149825288421654,0.060396161898643184,0.004595189057414474,0.0020076350774616003,-0.0011436877539381385,-0.16718270154810067,2
2025/04/11 11:51:17.254778601,1744365077,248490907,piren,vessel_center,252.31600280570385,1035.242102542738,-41.52450785615966,0.001748288428337755,-0.007346601127086947,0.02501525607893195,0.9996585456558436,0.13356785066878277,0.05533838233859569,0.004217369347725253,0.015432441607117653,0.0027580636087805033,-0.18193046233109358,2
2025/04/11 11:51:17.310806372,1744365077,298266592,piren,vessel_center,252.32106977495596,1035.2440869159675,-41.52390590694512,0.0016605068606287963,-0.00860253031297548,0.023452008549446433,0.9996865721235716,0.13010287001161489,0.05365618595587875,0.005056443132014011,0.012975933961570263,0.0013056730385869741,-0.18303080842050828,2
2025/04/11 11:51:17.347498757,1744365077,343557428,piren,vessel_center,252.3229778306276,1035.2458282920913,-41.523075898393216,0.0014102335870046698,-0.0069796609000265745,0.022634690533352927,0.9997184435426857,0.12032433588660753,0.051662775578915895,0.006291412029986532,0.007551286835223436,0.008796101436018944,-0.13502769271618434,2
2025/04/11 11:51:17.399327138,1744365077,393464945,piren,vessel_center,252.32791707702464,1035.2469586325803,-41.522696586287516,0.0022886327766113877,-0.006392516983498774,0.021496854402597295,0.9997458592749575,0.11803730051958611,0.04854889241833007,0.006432409553696061,0.010780270211398602,0.0019173052860423923,-0.1462444124640589,2
2025/04/11 11:51:17.447895646,1744365077,443271178,piren,vessel_center,252.33401838057682,1035.2453903531643,-41.52346742433748,0.002062557822219262,-0.0078087551255891004,0.018716107466825664,0.999792216672999,0.11846172647892673,0.039991608125637866,0.004092941949795659,0.009758803062140942,0.0029324721544981003,-0.204411428595606,2
2025/04/11 11:51:17.505143874,1744365077,496442954,piren,vessel_center,252.33637803705884,1035.2443510005387,-41.524648025851434,0.0030023198201860717,-0.008407505249264813,0.016499084428939454,0.9998240245884211,0.11078098500433954,0.033470798886264676,0.0011273489268944564,0.016665497794747353,-0.0049798134714365005,-0.21259978717338102,2
2025/04/11 11:51:17.546023630,1744365077,542074549,piren,vessel_center,252.3361392991115,1035.241983743099,-41.52472027976449,0.0022852462602321417,-0.007779511182405499,0.014920269719085315,0.9998558108081398,0.0985185459000377,0.02485431458662788,0.0008531373654193436,0.011368838138878345,0.005967551842331886,-0.20597506510953636,2
2025/04/11 11:51:17.599022125,1744365077,592290456,piren,vessel_center,252.3380926341559,1035.2416471557824,-41.52574011215017,0.0016273636944212715,-0.007559936619012745,0.012912431841249442,0.9998867276595224,0.09211562864140889,0.021463530591609017,-0.001421684905824349,0.01788332872092724,0.004126777406781912,-0.22109215566572288,2
2025/04/11 11:51:17.647108457,1744365077,642484643,piren,vessel_center,252.33885845007774,1035.2426301504186,-41.52524083027091,0.002214199377743008,-0.007407658401581501,0.010900711651325352,0.9999106952141356,0.08390967588356946,0.021272577094168812,-0.00020169988217162357,0.01389903761446476,0.0017149188788607717,-0.22995056711015624,2
2025/04/11 11:51:17.697003164,1744365077,693637146,piren,vessel_center,252.3391465997052,1035.2424742895867,-41.52719274498343,0.0018873256692219299,-0.006982864855299767,0.008858487796927042,0.9999346002585282,0.07555108364956598,0.018663972434296742,-0.004354523979367285,0.010267812758684158,0.0077927433885633945,-0.2366497145592695,2
2025/04/11 11:51:17.747807122,1744365077,743133596,piren,vessel_center,252.33987487132168,1035.2435672310703,-41.526838034746376,0.0022217994620936277,-0.007874808808948697,0.007034678796403502,0.999941780449044,0.06903652470646196,0.019005679579640857,-0.003131371047885522,0.008385537192225456,0.00202019396238029,-0.2381070030892372,2
2025/04/11 11:51:17.795679447,1744365077,792403424,piren,vessel_center,252.33756692802461,1035.2439435062538,-41.527218020197004,0.00246112083700647,-0.008158264746450369,0.005070864961371837,0.9999508347559374,0.056709195801931886,0.017775317993437057,-0.003608656351747185,0.01054701954126358,0.001471441239118576,-0.24011148139779706,2
2025/04/11 11:51:17.850520328,1744365077,845393069,piren,vessel_center,252.33402602575424,1035.2441494921884,-41.52766866832458,0.002530319382319723,-0.006262583336153789,0.0032045629023158624,0.9999720537646971,0.04307067108968571,0.016313989081209002,-0.00418615376312914,0.006583521608263254,0.0001344808260910213,-0.24365937883775562,2
2025/04/11 11:51:17.897166003,1744365077,893468332,piren,vessel_center,252.33417825966384,1035.2447636377494,-41.52836374043231,0.002825793668775442,-0.008272651552677495,0.0014033130458004084,0.9999608036512857,0.03880203379799244,0.015888472309598,-0.005227615904249205,0.022538011893630028,0.002486931625753641,-0.23602287123383695,2
2025/04/11 11:51:17.951691704,1744365077,943520870,piren,vessel_center,252.3286938841991,1035.2451334244006,-41.52836691352134,0.0013060964897468647,-0.008738588281536385,-0.0005226411718549808,0.9999608282492923,0.022892768389351694,0.01497404150723014,-0.004673044627764965,0.008781087584793568,0.009879529476165771,-0.2424858346192789,2
2025/04/11 11:51:18.5412613,1744365077,992457049,piren,vessel_center,252.32206947661388,1035.2492326598701,-41.52650655190456,0.0017823483889633299,-0.007203790107269684,-0.002363657333152954,0.9999696704232195,0.006273476380556569,0.02214417241884803,-0.00019343049281701427,0.018147382885217667,-0.0035342383198440075,-0.2446184211507598,2
2025/04/11 11:51:18.46903795,1744365078,42176093,piren,vessel_center,252.31803792081882,1035.2514575116907,-41.52623694572681,0.0020121372901559676,-0.00619216510825852,-0.00409770573237024,0.999970408163426,-0.003032088792656356,0.02453955390792544,0.0004046757821640774,0.010813049040734768,-0.004669982939958572,-0.2389073060368123,2
2025/04/11 11:51:18.95485415,1744365078,92195511,piren,vessel_center,252.31503022308962,1035.2534475711261,-41.525448211979416,0.0027636967921145653,-0.008192826828702865,-0.005572418876702931,0.9999470924586255,-0.009137171409543003,0.026172131562088908,0.002047368762322322,0.007894810289144516,0.014506335370242596,-0.23157484081714388,2
2025/04/11 11:51:18.149968787,1744365078,143773711,piren,vessel_center,252.30660467859357,1035.2542684785117,-41.5240217733191,0.0019245506416818406,-0.008280494397830108,-0.006797556348219114,0.9999407596178126,-0.026238809262485986,0.025118955456673576,0.004888833567366646,0.009499365463852882,0.009164771996438503,-0.2139718588482765,2
2025/04/11 11:51:18.202911031,1744365078,193389717,piren,vessel_center,252.29816808113068,1035.2567316358752,-41.52353003821357,0.0010466221002196352,-0.007547250619481616,-0.008066076818862481,0.9999384391026371,-0.0414911668105105,0.027702056657653885,0.005417990279920559,0.010234111919999123,0.004444452002644539,-0.2079246614036701,2
2025/04/11 11:51:18.261529247,1744365078,248742627,piren,vessel_center,252.29143590618344,1035.2608908704435,-41.5221661712551,0.001962736076153965,-0.0057510148115261,-0.009464357493590673,0.9999367477160576,-0.05146203350461742,0.03364128705998155,0.007757107628725634,0.015404025092720985,0.005846770014613867,-0.20599202146912163,2
2025/04/11 11:51:18.305042024,1744365078,294422784,piren,vessel_center,252.28710005154724,1035.2622621134324,-41.52259726103889,0.0015761844939115915,-0.006577364486357438,-0.010595578802083299,0.9999209906931166,-0.05521460702609597,0.03296282682367746,0.006001286828421826,0.009798938408493996,0.0038514218758791685,-0.19000327000739925,2
