time,header_stamp_secs,header_stamp_nsecs,header_frame_id,pose_position_x,pose_position_y,pose_position_z,pose_orientation_x,pose_orientation_y,pose_orientation_z,pose_orientation_w
2025/04/11 11:51:09.593726394,1744365069,591296340,piren,252.08886617580686,1035.0856763387087,-41.529154106674675,0.0026148949563978923,-0.00685044382269767,0.06386047732994532,0.9979318980666921
2025/04/11 11:51:09.648992854,1744365069,641666159,piren,252.0892579454424,1035.0846657038076,-41.52961303431024,0.001758905736938509,-0.008202136725155061,0.06395694534219674,0.9979174015650021
2025/04/11 11:51:09.697198046,1744365069,693901428,piren,252.08693012674675,1035.0856269120914,-41.52891220988406,0.0015164810249015813,-0.006833103838687351,0.06400947702061045,0.9979247445718433
2025/04/11 11:51:09.742521199,1744365069,741805785,piren,252.08749503110405,1035.087040906079,-41.52976094613282,0.002236302422336112,-0.005769171412685219,0.06408863717407326,0.9979250283452445
2025/04/11 11:51:09.792895413,1744365069,791131044,piren,252.0903557807363,1035.086324581586,-41.53017207030345,0.0025924538907054736,-0.00794593612089891,0.06392067759173756,0.9979199808893499
2025/04/11 11:51:09.844675203,1744365069,841302366,piren,252.08826733714707,1035.0851393220382,-41.530675858820096,0.002087941604257155,-0.007160961072085078,0.06415068067181265,0.9979123465043032
2025/04/11 11:51:09.894898241,1744365069,891440122,piren,252.08828524433875,1035.085587292874,-41.52992094704183,0.0013781161950469425,-0.006544798228648672,0.06405256289257058,0.9979241131462816
2025/04/11 11:51:09.944323861,1744365069,941841833,piren,252.0886986175497,1035.0872214504057,-41.529993750263465,0.0016021987482249802,-0.006381545177255028,0.06419865143701728,0.99791544831914
2025/04/11 11:51:09.995117111,1744365069,993105848,piren,252.08966095291188,1035.0876410209153,-41.52946307097534,0.0027864563598439143,-0.007919938129700802,0.064117434293735,0.9979070421940939
2025/04/11 11:51:10.42580397,1744365070,41903668,piren,252.08757781301043,1035.0857881338177,-41.531043830126094,0.002456599891216838,-0.007956795105411665,0.06427047896899413,0.9978977703461017
2025/04/11 11:51:10.93740448,1744365070,91685977,piren,252.0864606620838,1035.0852029224443,-41.53005120260765,0.0014079479024625228,-0.006742182206183546,0.06413424075763188,0.9979175115330149
2025/04/11 11:51:10.144836432,1744365070,143714879,piren,252.08753809231965,1035.0863587052665,-41.53046507992389,0.0016504792344109837,-0.006325100083888732,0.06419270112036334,0.997916111779992
2025/04/11 11:51:10.205130386,1744365070,202366066,piren,252.08922363857837,1035.0867371995291,-41.53019563698101,0.0019980339665546724,-0.007222429289637948,0.06417319286395844,0.9979106401342106
2025/04/11 11:51:10.381023212,1744365070,241620094,piren,252.08831257729332,1035.0862465347984,-41.530979445604686,0.002615936545911611,-0.007216595587696861,0.06428200077385851,0.9979022507242987
2025/04/11 11:51:10.381332299,1744365070,294810723,piren,252.08799661636147,1035.0847208953285,-41.53124265468416,0.0020393043110396095,-0.006305335130580416,0.0645332591603516,0.9978935526642915
2025/04/11 11:51:10.391421802,1744365070,342023373,piren,252.08937622151444,1035.0848734174526,-41.53176072297109,0.0018717338213449742,-0.005919879282048535,0.06445632865861704,0.9979012142179406
2025/04/11 11:51:10.400464108,1744365070,397062121,piren,252.09070023567605,1035.0851174224942,-41.53201195772662,0.0027097040748208646,-0.007651729239068918,0.0645798972889218,0.9978795244966355
2025/04/11 11:51:10.445653725,1744365070,442164440,piren,252.09025156772356,1035.0832905859831,-41.53273696718825,0.003552713054868312,-0.008648043972797573,0.06460588262592341,0.9978670600313049
2025/04/11 11:51:10.496387346,1744365070,493842027,piren,252.08708772100246,1035.0808784409958,-41.534968987114624,0.0026285192460906224,-0.006903738008979351,0.06454144336359899,0.9978876847504531
2025/04/11 11:51:10.555393218,1744365070,548200774,piren,252.087511323996,1035.0805308276006,-41.53479065910905,0.0016299246956275931,-0.005762989367452828,0.06469088871820673,0.9978873785231908
2025/04/11 11:51:10.594293208,1744365070,593772650,piren,252.08959527721183,1035.082713813418,-41.534239317343086,0.001970958937215592,-0.00730733070991142,0.06476091883416438,0.9978721068506318
2025/04/11 11:51:10.644571582,1744365070,643149615,piren,252.08854989855496,1035.0840112011008,-41.53368203539857,0.003312502333689041,-0.008603130723793744,0.06459015995749641,0.9978692923959048
2025/04/11 11:51:10.700207716,1744365070,695090019,piren,252.08527911455812,1035.0818789479108,-41.53348530766896,0.0026228118582352243,-0.007142924674949059,0.06472481036192679,0.9978741395630298
2025/04/11 11:51:10.742783649,1744365070,742204619,piren,252.0857146847214,1035.0816329350712,-41.53396375728746,0.0019457260555311349,-0.006973124004250264,0.0646804458508862,0.9978797671143899
2025/04/11 11:51:10.793299719,1744365070,791733995,piren,252.08617160309197,1035.0832574349372,-41.53155630638172,0.002472154846225673,-0.007849693706445393,0.06486621134450514,0.997860032963011
2025/04/11 11:51:10.843708106,1744365070,842939560,piren,252.0853411229371,1035.0831735412369,-41.53132791303939,0.003308331356085392,-0.008028306189605733,0.06478701785474164,0.9978613348360852
2025/04/11 11:51:10.893741058,1744365070,891820853,piren,252.08426531058447,1035.0818176551618,-41.532537730905666,0.0029044469973666253,-0.007320122453821254,0.06482632315114532,0.9978654858354425
2025/04/11 11:51:10.944916180,1744365070,941812636,piren,252.08451956610244,1035.0815449850656,-41.53199289936642,0.0016912575748721519,-0.006789861976106073,0.06479697840248687,0.9978739344286274
2025/04/11 11:51:10.993540080,1744365070,991710057,piren,252.08618954716798,1035.0840420144657,-41.532595513602175,0.0024952786118959433,-0.006680662870241856,0.0648377517162217,0.9978703364068143
2025/04/11 11:51:11.41924574,1744365071,41533367,piren,252.08691909453765,1035.084415630547,-41.531000165713756,0.0024387018506174165,-0.009077422370659985,0.06491397730885907,0.9978465957682742
2025/04/11 11:51:11.95066540,1744365071,91672764,piren,252.08359696520344,1035.0847905437297,-41.531274525137974,0.003869620426507635,-0.006644893266431007,0.06477974319396358,0.9978699596154584
2025/04/11 11:51:11.142410223,1744365071,141837307,piren,252.08552456935945,1035.0828872455443,-41.53295744603806,0.0018520513212642404,-0.007450252837393155,0.06482477049036303,0.9978671318213834
2025/04/11 11:51:11.202458697,1744365071,192600427,piren,252.08555890027745,1035.0850530788334,-41.53152978847431,0.0006724276485970321,-0.0030420408113056422,0.06452677252244302,0.997911113003857
2025/04/11 11:51:11.245933405,1744365071,241959289,piren,252.09280240751661,1035.0888312025702,-41.53014845396503,0.002334222454366997,-0.01023186062278685,0.06477307230613444,0.9978448323951744
2025/04/11 11:51:11.293790554,1744365071,292765326,piren,252.08542288941237,1035.0883204724337,-41.52872301006493,0.002714264611128895,-0.010965597195282784,0.06481478330792377,0.9978333690103365
2025/04/11 11:51:11.342308643,1744365071,341521967,piren,252.07953296417867,1035.0870767074423,-41.53025298209469,0.0027535167152480293,-0.0010750030081141044,0.06464713026449755,0.9979038085220422
2025/04/11 11:51:11.392231404,1744365071,391510735,piren,252.09233547403198,1035.0877264451092,-41.53127071049239,0.0023101978323137513,-0.010739455494728803,0.06470403071672524,0.9978440336498793
2025/04/11 11:51:11.442675995,1744365071,441971124,piren,252.08430529904695,1035.0873577505288,-41.53030229536424,0.001521047074511705,-0.00881093210425838,0.06472091053020608,0.9978633461709036
2025/04/11 11:51:11.495511391,1744365071,491600677,piren,252.08230244082668,1035.088706034413,-41.530184589010325,0.0016427611132975998,-0.0033345064912245117,0.0646068532591011,0.9979038715799943
2025/04/11 11:51:11.542620556,1744365071,542006646,piren,252.09056841975382,1035.0903177561552,-41.52959550492487,0.003963061957600937,-0.009222510346043104,0.06461644630034313,0.9978596866846322
2025/04/11 11:51:11.593368767,1744365071,592782474,piren,252.08529415263968,1035.086838087538,-41.530376050559475,0.002576579549737729,-0.009424251247994389,0.06463267519849845,0.9978612939797414
2025/04/11 11:51:11.643171802,1744365071,642622297,piren,252.08230826712838,1035.0867366405387,-41.531035698902585,0.0017794078773867574,-0.004264226465084986,0.0643973244397653,0.9979136408954735
2025/04/11 11:51:11.696418367,1744365071,691819806,piren,252.08815137790023,1035.0885865520804,-41.531042155038385,0.002670048572894345,-0.01017309367588276,0.06463235168139182,0.9978537157929579
2025/04/11 11:51:11.749231827,1744365071,741902118,piren,252.0826038940747,1035.0878904032213,-41.53119625912149,0.0033724137095116615,-0.008629136639118205,0.06454469835667705,0.9978718087713877
2025/04/11 11:51:11.797882018,1744365071,792671806,piren,252.0817545267148,1035.0862550025824,-41.5314713901096,0.0017851798793760555,-0.0041820555222418995,0.06446101237107979,0.997909866384987
2025/04/11 11:51:11.844241903,1744365071,842872056,piren,252.08847763991895,1035.088768032388,-41.53097877681243,0.0008759387683265363,-0.008131699940700947,0.06435950972211714,0.9978932616746529
2025/04/11 11:51:11.897232642,1744365071,892471609,piren,252.08611601931588,1035.091431803539,-41.530232327146955,0.0020480485172378973,-0.006840878652913086,0.06430772817956068,0.9979045665658169
2025/04/11 11:51:11.949737743,1744365071,942591771,piren,252.08695069060232,1035.0915565021644,-41.53096633802755,0.002984282462107518,-0.00855987728970282,0.06434480504019734,0.9978865509782716
2025/04/11 11:51:12.6197364,1744365071,992737561,piren,252.08476569663256,1035.0899717715977,-41.530651276187676,0.002627575845991645,-0.006427590451165257,0.06429054441021625,0.9979070637216694
2025/04/11 11:51:12.43840986,1744365072,41828202,piren,252.08670819566407,1035.0897528540436,-41.52983677327269,0.001325167726105095,-0.00637928285237282,0.06424096062884922,0.9979131463500568
2025/04/11 11:51:12.94418968,1744365072,91825381,piren,252.08732367840787,1035.0914435577765,-41.52868355919258,0.0029153835238369514,-0.008600287721642116,0.06436952710386783,0.9978848127767245
2025/04/11 11:51:12.145395778,1744365072,141424162,piren,252.08563361474572,1035.0900981164532,-41.52937013770873,0.0025403831812475007,-0.006851278522688132,0.06421171881399176,0.997909545802048
2025/04/11 11:51:12.196409214,1744365072,193650015,piren,252.08665398710085,1035.09009464108,-41.52926016407794,0.003880585470037801,-0.008103132329410997,0.0642490203577474,0.9978934530729879
2025/04/11 11:51:12.242470301,1744365072,242030347,piren,252.08552981232071,1035.0876373489002,-41.53053190900335,0.002499121717616081,-0.0071553952023718555,0.06417015543665473,0.9979101892762565
2025/04/11 11:51:12.293695248,1744365072,291701839,piren,252.08597114253342,1035.0880818130877,-41.52969163196009,0.0016843269457648817,-0.006759703966682055,0.06418639613407634,0.997913611489663
2025/04/11 11:51:12.343854961,1744365072,341831123,piren,252.087471001741,1035.090410644885,-41.53037506826673,0.0025017768761451072,-0.008306579163864599,0.0639369148379427,0.9979162353504738
2025/04/11 11:51:12.394751180,1744365072,391319883,piren,252.08510397082833,1035.0904420247048,-41.530312229649674,0.002948149139638589,-0.006852196677186607,0.06430183912955592,0.9979026151393253
2025/04/11 11:51:12.441718881,1744365072,441215588,piren,252.08618005093962,1035.089716518999,-41.529128122001836,0.002731352452069409,-0.007126251550883149,0.06421630552371198,0.9979068204784961
2025/04/11 11:51:12.494181820,1744365072,492251923,piren,252.0868952549991,1035.0894763443857,-41.527373271025574,0.002368609386918044,-0.008707877746453459,0.06413976822533649,0.9979001215987126
2025/04/11 11:51:12.543622441,1744365072,541660909,piren,252.08425547898375,1035.0902762514054,-41.524731019221775,0.0013807241043531997,-0.005839033807419552,0.06415187945907508,0.9979221090080187
2025/04/11 11:51:12.597312837,1744365072,591862683,piren,252.08744844321384,1035.0925356833955,-41.524834885156835,0.002802777928242595,-0.008934973717161355,0.06412756177499222,0.9978977735727008
2025/04/11 11:51:12.643006161,1744365072,641189020,piren,252.0845442930788,1035.0913183354837,-41.52556058622491,0.00278706985702533,-0.007388588834987372,0.06402421396269437,0.9979171012780064
2025/04/11 11:51:12.697633479,1744365072,692678878,piren,252.08496381780023,1035.0908658534024,-41.52575465784099,0.0018437276049405717,-0.006218040761237504,0.0640392772981815,0.99792630369218
2025/04/11 11:51:12.743658926,1744365072,741527083,piren,252.08747696523866,1035.0924652845597,-41.52488161698058,0.0020248388511470653,-0.007547339792603301,0.06400485341663983,0.997918992919163
2025/04/11 11:51:12.795594769,1744365072,791719572,piren,252.08690097672994,1035.0929783950169,-41.52401309347317,0.0028393226162639488,-0.0073050285051797035,0.0640118906220358,0.9979183597191765
2025/04/11 11:51:12.843627282,1744365072,841059809,piren,252.08703767453852,1035.0924316581977,-41.52403518535041,0.002469225926480871,-0.006745733861305047,0.06384748942918626,0.9979338134824306
2025/04/11 11:51:12.894831703,1744365072,891063531,piren,252.08786830339594,1035.0933253403045,-41.52419687076232,0.0028849013789188,-0.0073529493540121565,0.06391609382389117,0.9979240173631091
2025/04/11 11:51:12.947861389,1744365072,942639676,piren,252.08725369637315,1035.0922089363748,-41.52500793926217,0.0015403604472665384,-0.006197385930612773,0.06407463887999694,0.9979246766914412
2025/04/11 11:51:12.997463996,1744365072,991218610,piren,252.08886329740486,1035.094847871091,-41.52352176727573,0.0016752314205181577,-0.00790442252558951,0.0639479053374142,0.9979205274505489
2025/04/11 11:51:13.47864584,1744365073,41967866,piren,252.08723013320176,1035.0964101312745,-41.523668949375796,0.002971837684118875,-0.006298804861378891,0.0638424614819733,0.9979356859788211
2025/04/11 11:51:13.91463689,1744365073,91056871,piren,252.08873539071507,1035.0953372428978,-41.524043442639254,0.0021056493363559863,-0.006909742190773578,0.06394305138054143,0.9979274061192401
2025/04/11 11:51:13.144512296,1744365073,141798304,piren,252.0885754230182,1035.0966940446872,-41.52330603410093,0.001981052686227052,-0.008322233054085264,0.0637541139771077,0.9979289698261304
2025/04/11 11:51:13.196933682,1744365073,191232230,piren,252.08587903976024,1035.0968001650658,-41.52267869138539,0.0027155658891799073,-0.00756055171024409,0.06380235326808927,0.9979302197434409
2025/04/11 11:51:13.247007026,1744365073,241932786,piren,252.0851576371701,1035.0962349311058,-41.52318449596395,0.002411140213134579,-0.006322159987185529,0.06396403760294832,0.9979292653236991
2025/04/11 11:51:13.304904836,1744365073,292377454,piren,252.08753125334928,1035.0966699685803,-41.5233691927331,0.0027707304881910205,-0.007770327376889858,0.063871488727617,0.9979240341793235
2025/04/11 11:51:13.350616570,1744365073,348339352,piren,252.0862126673712,1035.0958607495304,-41.52524905236264,0.0027683149149109556,-0.008049047097946781,0.06382167732614943,0.9979250186144367
2025/04/11 11:51:13.399784517,1744365073,391315965,piren,252.08497458640431,1035.0953528237192,-41.52583043672966,0.0021836543568802117,-0.007284830801694547,0.06380539314384227,0.9979333818946033
2025/04/11 11:51:13.445198299,1744365073,442562710,piren,252.08509002000963,1035.0961120535576,-41.526202031574705,0.001701566375198814,-0.006134419440267505,0.06393115726791931,0.9979340061849713
2025/04/11 11:51:13.499008629,1744365073,492871462,piren,252.08716311727932,1035.0974310976405,-41.52724876958136,0.0028910693256786655,-0.007676179274363683,0.06395137443119452,0.997919305203714
2025/04/11 11:51:13.541677423,1744365073,541211809,piren,252.08682134057065,1035.0964853891417,-41.526948414610615,0.002616315006481287,-0.008074917165684897,0.06372191865701238,0.9979315946953595
2025/04/11 11:51:13.593126178,1744365073,592067894,piren,252.08585267121836,1035.0964664411972,-41.52650975562647,0.0026519798687499327,-0.006965321545420898,0.06363328038565144,0.9979455180148392
2025/04/11 11:51:13.644342334,1744365073,641954686,piren,252.0860731850078,1035.0965918994914,-41.52810253669539,0.002197886189931048,-0.006755016245995794,0.06377084158599404,0.9979392861368003
2025/04/11 11:51:13.693740312,1744365073,690999759,piren,252.08701195139275,1035.09700644172,-41.52627319063962,0.002563052766338247,-0.007403547418412966,0.06389091130686352,0.9979261343899752
2025/04/11 11:51:13.747659526,1744365073,741985644,piren,252.08709676289146,1035.0967314003674,-41.527082605176325,0.0026949381212847835,-0.007458687586927895,0.0637775207013286,0.9979326295603299
2025/04/11 11:51:13.791453643,1744365073,791093083,piren,252.08669426828564,1035.0961631486875,-41.52737467418765,0.0023088883984819226,-0.00711066373183084,0.06368196498080997,0.9979422402282805
2025/04/11 11:51:13.845237505,1744365073,841059889,piren,252.08747022232987,1035.0968248923116,-41.52804128903275,0.001910149503880124,-0.006688846947694253,0.06364645124342755,0.9979482651417864
2025/04/11 11:51:13.892608966,1744365073,891790564,piren,252.0887559809447,1035.0982020716326,-41.527096283953405,0.002838464980901972,-0.007643561605670965,0.0636657252979213,0.9979379712711718
2025/04/11 11:51:13.944870688,1744365073,941877977,piren,252.08735170997207,1035.0970324350415,-41.528194809613886,0.0028892045912297395,-0.008110377126372203,0.06380507554920799,0.9979252409944634
2025/04/11 11:51:13.994064676,1744365073,991185473,piren,252.0857424627441,1035.0957762676612,-41.528993596109935,0.0023573699311153435,-0.006941652190877163,0.0638154352252277,0.9979347907047251
2025/04/11 11:51:14.44865937,1744365074,42259727,piren,252.0871966438744,1035.0962935959396,-41.527681252587925,0.0026261907541657516,-0.006869503351148537,0.06374140577837673,0.997939349978358
2025/04/11 11:51:14.100136347,1744365074,92109383,piren,252.0886772460944,1035.0961019905446,-41.526933215908116,0.0024109883962445374,-0.00710675195793485,0.06371511478709987,0.9979399106956431
2025/04/11 11:51:14.142330429,1744365074,141834610,piren,252.08830513227872,1035.0968822482082,-41.527726898455995,0.0023645048403767737,-0.007572558334029519,0.06378140514243051,0.9979323613528097
2025/04/11 11:51:14.191622260,1744365074,191182694,piren,252.08796891463723,1035.097061520601,-41.52712511419389,0.002267683035202814,-0.00779170767141965,0.06369637756261091,0.9979363298280188
2025/04/11 11:51:14.241832205,1744365074,241429451,piren,252.08675796085913,1035.0970860811178,-41.52699145263962,0.0026083055267807666,-0.007099860758231633,0.06387892595534873,0.9979289912304803
2025/04/11 11:51:14.295166552,1744365074,293638722,piren,252.0873988670469,1035.096875964981,-41.52641199441148,0.0027262250087052146,-0.006632782849123732,0.06373875724477103,0.9979408523122854
2025/04/11 11:51:14.341805977,1744365074,341421133,piren,252.0886029709512,1035.0963682306824,-41.52610232333186,0.0020187347275680335,-0.007475378225916575,0.0637039139991155,0.9979388031195463
2025/04/11 11:51:14.391976368,1744365074,391475350,piren,252.08820875651443,1035.0971943052532,-41.52609822476372,0.0024790845063734084,-0.0077470394335945915,0.06378160249653132,0.9979307314152618
2025/04/11 11:51:14.444544821,1744365074,442295700,piren,252.08724288322307,1035.096548412476,-41.52606101731505,0.0021179381789429535,-0.006276620474996624,0.06384152895944005,0.9979380629845742
2025/04/11 11:51:14.491665882,1744365074,491338722,piren,252.08924317959105,1035.09690723132,-41.52618168541297,0.001868102631765741,-0.007023426548607506,0.06379205043487969,0.9979367494853506
2025/04/11 11:51:14.544643139,1744365074,542105726,piren,252.08920577914193,1035.0976220610942,-41.526446518214,0.0025634016931759184,-0.0077602983536801465,0.06385431437408991,0.9979257654139592
2025/04/11 11:51:14.592610713,1744365074,592146060,piren,252.08902513192163,1035.0963186035715,-41.5271355074933,0.0026976227773607545,-0.007380301035645767,0.06374074237073658,0.9979355549082325
2025/04/11 11:51:14.642904919,1744365074,642296710,piren,252.08865242869317,1035.0953918238415,-41.52998066671647,0.0022562393135609855,-0.006382534562167725,0.06372200552674617,0.99794472725115
2025/04/11 11:51:14.695114944,1744365074,692720017,piren,252.0908911485053,1035.0954779614085,-41.52943628051194,0.002056188047927286,-0.007187934762397272,0.06357275408289012,0.9979492024260952
2025/04/11 11:51:14.745292767,1744365074,742069553,piren,252.09056014690123,1035.0955524949586,-41.5307272383472,0.0023939484016842934,-0.008223512542232879,0.0634955381412267,0.9979453689900434
2025/04/11 11:51:14.792324004,1744365074,791894965,piren,252.08900504573435,1035.0944779041786,-41.530724966868476,0.0021887427925951367,-0.007451016549796183,0.06334153863409539,0.9979616932732579
2025/04/11 11:51:14.848087858,1744365074,842270568,piren,252.0897570003342,1035.0944856483052,-41.530559305795414,0.002439433345411551,-0.006343406367117856,0.06309479763616045,0.9979843971084252
2025/04/11 11:51:14.894905600,1744365074,891372133,piren,252.09241556131292,1035.094476691987,-41.53099969951692,0.0021508276173603557,-0.00743464089937402,0.0627372894810216,0.9980000664147435
2025/04/11 11:51:14.944262107,1744365074,942299380,piren,252.09194246494533,1035.0945709479156,-41.531053348851664,0.0021320819689019635,-0.008143994135301248,0.06256175045461514,0.9980055896466996
2025/04/11 11:51:14.992247675,1744365074,991672865,piren,252.09109208095435,1035.094724950094,-41.52991997717451,0.002450573395193357,-0.007257119212448231,0.062144025102927124,0.9980377994118148
2025/04/11 11:51:15.42481864,1744365075,41993192,piren,252.09199553515785,1035.0943947226406,-41.53047245766853,0.0026115635274517202,-0.006454085706261595,0.06188805199618229,0.998058812662739
2025/04/11 11:51:15.93169540,1744365075,92615701,piren,252.09476196192594,1035.0937190033587,-41.5313647303147,0.0018906645957324781,-0.007588138463483443,0.06152219678330951,0.9980750797635423
2025/04/11 11:51:15.142822831,1744365075,142213895,piren,252.09480505501134,1035.0943790683548,-41.531802206063894,0.0025265965975399813,-0.007759976237411726,0.06109166521538195,0.9980987964723933
2025/04/11 11:51:15.194374742,1744365075,192700680,piren,252.09538727914278,1035.0943957207865,-41.532189105238736,0.0023471211066703386,-0.007384806436802121,0.060632581208385224,0.9981300745656401
2025/04/11 11:51:15.242794518,1744365075,242221752,piren,252.09687325133183,1035.0948325832835,-41.53194436502894,0.0031475673758771232,-0.007507467985915253,0.06000033685356111,0.99816516184523
2025/04/11 11:51:15.292896912,1744365075,292345199,piren,252.09790222725377,1035.0940598305672,-41.53346249466245,0.002376682727869655,-0.007432172890362882,0.05957511088275854,0.998193328142723
2025/04/11 11:51:15.342748421,1744365075,342199399,piren,252.09988391434456,1035.0953358227614,-41.533580411998315,0.001760695631543772,-0.007066383116913462,0.058965989342039254,0.9982334287537422
2025/04/11 11:51:15.392572304,1744365075,392067550,piren,252.10205702632504,1035.0981742536871,-41.532815217682696,0.0026330604262478677,-0.007057831296123276,0.05850317668528138,0.998258800275719
2025/04/11 11:51:15.442345452,1744365075,441815161,piren,252.10470439926465,1035.098651929479,-41.53401469156859,0.002142504982276044,-0.007442025063593063,0.05784192716818532,0.9982957164071297
2025/04/11 11:51:15.492636325,1744365075,492119198,piren,252.106434165014,1035.1010352714457,-41.53261061885282,0.002295357626751629,-0.007389832707617621,0.0571526503984112,0.9983354627871114
2025/04/11 11:51:15.544776407,1744365075,542552944,piren,252.10864221431015,1035.1030926379551,-41.533950447898825,0.0013889636049935457,-0.006648439770609315,0.05671299335610492,0.9983674200480057
2025/04/11 11:51:15.591654656,1744365075,591277316,piren,252.11279588672056,1035.1072210828722,-41.53236869560307,0.0026757719079689686,-0.007736508562867822,0.05594035744198015,0.9984005524283411
2025/04/11 11:51:15.641669417,1744365075,641327796,piren,252.1152304750126,1035.1088933582812,-41.53216096475262,0.0021435279680395306,-0.007833583886343174,0.055458129600723036,0.9984279824366579
2025/04/11 11:51:15.692959625,1744365075,692474685,piren,252.1177827697566,1035.1123226526345,-41.53273969867986,0.0015716107819748475,-0.0074439107846611475,0.05475209233864627,0.9984709943790658
2025/04/11 11:51:15.743501521,1744365075,741693152,piren,252.12148237398463,1035.1168041467895,-41.53123780363739,0.00439422513611066,-0.008452510438979589,0.05408441177995691,0.9984909224700784
2025/04/11 11:51:15.795038565,1744365075,792438501,piren,252.1238180079648,1035.116764124544,-41.53262122413503,0.0032159958897041672,-0.008375083687437512,0.053541233602505726,0.99852533851074
2025/04/11 11:51:15.841834981,1744365075,841478520,piren,252.12738503270302,1035.1202183625353,-41.53310951300338,0.0024833446085304237,-0.007139183235610409,0.05275008482986506,0.998579137381072
2025/04/11 11:51:15.895444563,1744365075,892595454,piren,252.1331379315529,1035.1255434833788,-41.53255253721934,0.0010757443710790618,-0.0044512960866371154,0.05199717602589048,0.9986367319613924
2025/04/11 11:51:15.952698327,1744365075,949462205,piren,252.14360330394948,1035.1336835937527,-41.52926085968292,-0.0004986970777271693,-0.007660339640001301,0.05116340494788451,0.9986607915062868
2025/04/11 11:51:15.995218860,1744365075,992473201,piren,252.14622860045245,1035.1429967694023,-41.52729176637195,0.002643281633136111,-0.009775242272664245,0.05017665600882459,0.9986890211134248
2025/04/11 11:51:16.46046348,1744365076,43449339,piren,252.146635729693,1035.1463974286328,-41.52781788538699,0.004877257146047178,-0.007993641845487707,0.049425662660060196,0.998733907466544
2025/04/11 11:51:16.105250261,1744365076,96141053,piren,252.15168060899038,1035.1464306520306,-41.52989317148689,0.002452615869863108,-0.006774027223201358,0.04931836297558452,0.9987571257838328
2025/04/11 11:51:16.147546355,1744365076,142560062,piren,252.15939927012235,1035.1526541341802,-41.52886574725621,0.002286963604486092,-0.006366815431680598,0.04866663262550399,0.9987921667332122
2025/04/11 11:51:16.196138397,1744365076,193134922,piren,252.16758222841088,1035.1597815367822,-41.52840541596882,-0.0005158203107512317,-0.004601085068715045,0.04732510209680375,0.9988688095326256
2025/04/11 11:51:16.247726582,1744365076,242893549,piren,252.1771963531982,1035.171005864125,-41.52645930652571,0.0029474933588048233,-0.009376684196813019,0.04669758984958323,0.998860713602559
2025/04/11 11:51:16.294600843,1744365076,293949993,piren,252.17898847728026,1035.1745988674757,-41.52683887766413,0.00312569297949782,-0.007864043207434019,0.04572001439693604,0.9989184486990785
2025/04/11 11:51:16.352756623,1744365076,342678389,piren,252.18491877397574,1035.1783636364148,-41.52766633918368,0.0032594009387670133,-0.00962859363872546,0.045025339651942206,0.998934124594454
2025/04/11 11:51:16.397062476,1744365076,393020536,piren,252.18809679629172,1035.1825621252153,-41.52725875458095,0.002349407816101613,-0.006117314173847845,0.04429023626562304,0.9989972140710641
2025/04/11 11:51:16.445239034,1744365076,442162200,piren,252.19875190002261,1035.188990896096,-41.52857281720295,0.0029641579025332845,-0.005579679889566234,0.043592211385912745,0.9990294290193582
2025/04/11 11:51:16.495613560,1744365076,493156533,piren,252.21029790705757,1035.1938555377221,-41.52849047705837,0.0005795721982320831,-0.007751723745461656,0.042723272618364526,0.9990567035217861
2025/04/11 11:51:16.542029221,1744365076,541556387,piren,252.2167659689592,1035.2027654893998,-41.52891588307222,0.0011937509803858581,-0.009806270684132323,0.04184436553120179,0.9990753030113184
2025/04/11 11:51:16.593177068,1744365076,592751969,piren,252.2206722609398,1035.2084326932513,-41.52743561167195,0.0017866457079553444,-0.005462253064778458,0.04105233011272495,0.9991404695441409
2025/04/11 11:51:16.645318172,1744365076,642930322,piren,252.23313172426953,1035.2135693681348,-41.52759020868715,0.003884346565047748,-0.007505714656758429,0.03995106591027586,0.9991658963514952
2025/04/11 11:51:16.696277592,1744365076,692330173,piren,252.24098835023142,1035.2142749673255,-41.52925418027902,0.003309389027953321,-0.00841520193838587,0.03915050868712101,0.999192408893371
2025/04/11 11:51:16.747476634,1744365076,743548588,piren,252.24729036788307,1035.2172277602901,-41.530020389368175,0.0006880212136319475,-0.00934073211344273,0.03819754368394062,0.9992263132078278
2025/04/11 11:51:16.797306288,1744365076,791906395,piren,252.25133374159682,1035.2241112166257,-41.52826055267271,0.0012616683776956422,-0.006045545535607731,0.037075962504821834,0.9992933666228465
2025/04/11 11:51:16.846346660,1744365076,843305746,piren,252.2622221439968,1035.2296500418392,-41.52556247208565,0.002697848678722027,-0.0056048884603261025,0.03607390582774236,0.9993297654709307
2025/04/11 11:51:16.893675826,1744365076,893281623,piren,252.2726505562276,1035.232123538205,-41.5254753666238,0.003876199804005346,-0.009494683790424832,0.03498129208794998,0.9993353467473554
2025/04/11 11:51:16.946032910,1744365076,943156711,piren,252.27540022530792,1035.231579545634,-41.52632332193473,0.001917386775441101,-0.007890822421377626,0.0338188572331808,0.99939498870312
2025/04/11 11:51:17.1267167,1744365076,994554523,piren,252.28176259855036,1035.2355969528849,-41.52587379432133,0.0015908593334415257,-0.005627431328933823,0.032438133294048856,0.9994566367239835
2025/04/11 11:51:17.44861953,1744365077,42333450,piren,252.29202470060557,1035.2394811930799,-41.52421933609387,0.0021497367615127593,-0.006937573409974257,0.031316243456071355,0.9994831372278561
2025/04/11 11:51:17.95034520,1744365077,93862645,piren,252.29934165375522,1035.241242927715,-41.52423106492562,0.0022713172139679893,-0.00926683661704439,0.02979428077916485,0.9995105140467903
2025/04/11 11:51:17.144689344,1744365077,144242005,piren,252.30165904882418,1035.2422460612513,-41.524012423344125,0.003201199914852242,-0.007388162916769124,0.028194415073081642,0.9995700287256053
2025/04/11 11:51:17.196771875,1744365077,192058725,piren,252.30842310118675,1035.2414322739478,-41.52456212656854,0.0025629364844321607,-0.006639105915914606,0.02675719209221313,0.99961662966387
2025/04/11 11:51:17.250972630,1744365077,248490907,piren,252.31600280570385,1035.242102542738,-41.52450785615966,0.001748288428337755,-0.007346601127086947,0.02501525607893195,0.9996585456558436
2025/04/11 11:51:17.310890267,1744365077,298266592,piren,252.32106977495596,1035.2440869159675,-41.52390590694512,0.0016605068606287963,-0.00860253031297548,0.023452008549446433,0.9996865721235716
2025/04/11 11:51:17.344789899,1744365077,343557428,piren,252.3229778306276,1035.2458282920913,-41.523075898393216,0.0014102335870046698,-0.0069796609000265745,0.022634690533352927,0.9997184435426857
2025/04/11 11:51:17.394844843,1744365077,393464945,piren,252.32791707702464,1035.2469586325803,-41.522696586287516,0.0022886327766113877,-0.006392516983498774,0.021496854402597295,0.9997458592749575
2025/04/11 11:51:17.443732768,1744365077,443271178,piren,252.33401838057682,1035.2453903531643,-41.52346742433748,0.002062557822219262,-0.0078087551255891004,0.018716107466825664,0.999792216672999
2025/04/11 11:51:17.497008950,1744365077,496442954,piren,252.33637803705884,1035.2443510005387,-41.524648025851434,0.0030023198201860717,-0.008407505249264813,0.016499084428939454,0.9998240245884211
2025/04/11 11:51:17.545027522,1744365077,542074549,piren,252.3361392991115,1035.241983743099,-41.52472027976449,0.0022852462602321417,-0.007779511182405499,0.014920269719085315,0.9998558108081398
2025/04/11 11:51:17.592628999,1744365077,592290456,piren,252.3380926341559,1035.2416471557824,-41.52574011215017,0.0016273636944212715,-0.007559936619012745,0.012912431841249442,0.9998867276595224
2025/04/11 11:51:17.642886102,1744365077,642484643,piren,252.33885845007774,1035.2426301504186,-41.52524083027091,0.002214199377743008,-0.007407658401581501,0.010900711651325352,0.9999106952141356
2025/04/11 11:51:17.694154048,1744365077,693637146,piren,252.3391465997052,1035.2424742895867,-41.52719274498343,0.0018873256692219299,-0.006982864855299767,0.008858487796927042,0.9999346002585282
2025/04/11 11:51:17.743539717,1744365077,743133596,piren,252.33987487132168,1035.2435672310703,-41.526838034746376,0.0022217994620936277,-0.007874808808948697,0.007034678796403502,0.999941780449044
2025/04/11 11:51:17.795520751,1744365077,792403424,piren,252.33756692802461,1035.2439435062538,-41.527218020197004,0.00246112083700647,-0.008158264746450369,0.005070864961371837,0.9999508347559374
2025/04/11 11:51:17.846044711,1744365077,845393069,piren,252.33402602575424,1035.2441494921884,-41.52766866832458,0.002530319382319723,-0.006262583336153789,0.0032045629023158624,0.9999720537646971
2025/04/11 11:51:17.894092917,1744365077,893468332,piren,252.33417825966384,1035.2447636377494,-41.52836374043231,0.002825793668775442,-0.008272651552677495,0.0014033130458004084,0.9999608036512857
2025/04/11 11:51:17.951701248,1744365077,943520870,piren,252.3286938841991,1035.2451334244006,-41.52836691352134,0.0013060964897468647,-0.008738588281536385,-0.0005226411718549808,0.9999608282492923
2025/04/11 11:51:17.995528720,1744365077,992457049,piren,252.32206947661388,1035.2492326598701,-41.52650655190456,0.0017823483889633299,-0.007203790107269684,-0.002363657333152954,0.9999696704232195
2025/04/11 11:51:18.44238981,1744365078,42176093,piren,252.31803792081882,1035.2514575116907,-41.52623694572681,0.0020121372901559676,-0.00619216510825852,-0.00409770573237024,0.999970408163426
2025/04/11 11:51:18.92644360,1744365078,92195511,piren,252.31503022308962,1035.2534475711261,-41.525448211979416,0.0027636967921145653,-0.008192826828702865,-0.005572418876702931,0.9999470924586255
2025/04/11 11:51:18.144374958,1744365078,143773711,piren,252.30660467859357,1035.2542684785117,-41.5240217733191,0.0019245506416818406,-0.008280494397830108,-0.006797556348219114,0.9999407596178126
2025/04/11 11:51:18.196190324,1744365078,193389717,piren,252.29816808113068,1035.2567316358752,-41.52353003821357,0.0010466221002196352,-0.007547250619481616,-0.008066076818862481,0.9999384391026371
2025/04/11 11:51:18.249445816,1744365078,248742627,piren,252.29143590618344,1035.2608908704435,-41.5221661712551,0.001962736076153965,-0.0057510148115261,-0.009464357493590673,0.9999367477160576
2025/04/11 11:51:18.305049485,1744365078,294422784,piren,252.28710005154724,1035.2622621134324,-41.52259726103889,0.0015761844939115915,-0.006577364486357438,-0.010595578802083299,0.9999209906931166
2025/04/11 11:51:18.348504020,1744365078,346470742,piren,252.27983884175234,1035.2645875983214,-41.52155872205811,0.0019582720388535138,-0.009015663587995434,-0.01155054358734643,0.9998907279915775
2025/04/11 11:51:18.403571380,1744365078,400382389,piren,252.2682901941729,1035.2665263861252,-41.520524434657354,0.0008785004575264773,-0.00811328799820147,-0.012512669001676566,0.9998884117286583
2025/04/11 11:51:18.461308532,1744365078,450149591,piren,252.25810557511565,1035.2711027323382,-41.520814327105526,0.00208313510157202,-0.004947042451513137,-0.013340637734748941,0.9998966020064084
2025/04/11 11:51:18.500519920,1744365078,496336379,piren,252.25390302277347,1035.2724993324496,-41.52258988892865,0.002059955343006936,-0.007863953385179655,-0.014298695135871484,0.9998647219191965
2025/04/11 11:51:18.545507892,1744365078,545025480,piren,252.2430771384796,1035.2740878244158,-41.522469587691724,0.0026308358358949104,-0.00882247524299501,-0.014749317563354247,0.9998488387075353
2025/04/11 11:51:18.593896101,1744365078,593402725,piren,252.23051953098675,1035.2749886786441,-41.52547383322831,0.0004383368361734091,-0.007210762092813577,-0.015498688940840076,0.9998537910174538
2025/04/11 11:51:18.643246003,1744365078,642926529,piren,252.22119606721785,1035.279776449572,-41.52742985422602,0.002010419723555799,-0.005691461656774098,-0.015378180199862585,0.9998635292131047
2025/04/11 11:51:18.695358624,1744365078,693427449,piren,252.215074660705,1035.2813813784878,-41.52915708642608,0.0016992637726287883,-0.007116630979451661,-0.015866352957562724,0.9998473508040912
2025/04/11 11:51:18.743028409,1744365078,742614797,piren,252.20532410759034,1035.2830296313525,-41.53016179345267,0.0011130188820120714,-0.00874725261918041,-0.01606357352151278,0.9998320900862823
2025/04/11 11:51:18.794388419,1744365078,793930291,piren,252.1934847036516,1035.2854006768114,-41.5323347958416,0.001653178394792583,-0.007096472657870903,-0.01624712010476578,0.9998414565146378
2025/04/11 11:51:18.849686476,1744365078,843710753,piren,252.18543515268962,1035.287268701761,-41.534154687468984,0.0010893095698635857,-0.006219560852233232,-0.016190109369065234,0.9998489940116378
2025/04/11 11:51:18.894235909,1744365078,892326280,piren,252.17878037253936,1035.2898963382543,-41.5360584729932,0.0020385384483711227,-0.007288965207389022,-0.016185605232648014,0.999840358022446
2025/04/11 11:51:18.947859885,1744365078,945080448,piren,252.17016132989409,1035.291383287116,-41.53883214904018,0.0012486233664257703,-0.008617493407479032,-0.01619874614000371,0.999830875883793
2025/04/11 11:51:18.997235602,1744365078,994556541,piren,252.1599902885491,1035.2946695071726,-41.53979181308613,0.0023133360697000817,-0.008150124069179612,-0.01590652613825514,0.9998375900015456
2025/04/11 11:51:19.43828646,1744365079,43047546,piren,252.15113557044236,1035.2961069484354,-41.5426363968046,0.001845493651607822,-0.0064736107310420865,-0.015662774943881307,0.9998546714389758
2025/04/11 11:51:19.100908267,1744365079,99128762,piren,252.14711602864335,1035.2992483101361,-41.54489688945643,0.0017086152833073705,-0.007400276821397425,-0.015463407502148818,0.9998515887696549
2025/04/11 11:51:19.150842004,1744365079,148088249,piren,252.141198351031,1035.303157325028,-41.54593150470349,0.002157517337636243,-0.007781262693902344,-0.015113090032599282,0.9998531850124261
2025/04/11 11:51:19.202331797,1744365079,200087919,piren,252.1343197250553,1035.3065465258283,-41.547335797110556,0.0012150263630985247,-0.00748447141149756,-0.01452894302950033,0.9998656990881691
2025/04/11 11:51:19.250115994,1744365079,249527740,piren,252.12906444314783,1035.3124783576468,-41.54704580034999,0.002074432721233705,-0.007064851959852691,-0.013916075372181317,0.9998760560399006
2025/04/11 11:51:19.304220759,1744365079,303724825,piren,252.12508814949828,1035.3161701739962,-41.546645423319994,0.002888441278679297,-0.007405103723783763,-0.013360828397739603,0.9998791475025098
2025/04/11 11:51:19.348402835,1744365079,347983917,piren,252.12004918970726,1035.3191862732554,-41.54572116026566,0.0013001092514053957,-0.008521344139630354,-0.012629755011196148,0.9998830860147329
2025/04/11 11:51:19.399199014,1744365079,398587141,piren,252.11397261057382,1035.3261070785438,-41.54349774796055,0.0012873582902152058,-0.007090064952313122,-0.011837016966776902,0.9999039747480419
2025/04/11 11:51:19.453553795,1744365079,449682374,piren,252.10961214395846,1035.3318147395348,-41.54103679682306,0.0019564503780645564,-0.006677042239842625,-0.010892312789467486,0.9999164699768386
2025/04/11 11:51:19.503082611,1744365079,495651361,piren,252.1067074319433,1035.3361970880078,-41.54048432247147,0.0020028264618885796,-0.006858475975267238,-0.009751278584781614,0.9999269286099971
2025/04/11 11:51:19.550860428,1744365079,550285697,piren,252.10422722975667,1035.3409472377177,-41.53749082958561,0.0017888053829553728,-0.0076563323706872535,-0.008896691684339387,0.9999295123292468
2025/04/11 11:51:19.595050167,1744365079,592935044,piren,252.0997980514012,1035.3460677142327,-41.535981162503894,0.0020816703907771865,-0.008149333208020897,-0.007565000841116942,0.9999360108421552
2025/04/11 11:51:19.649938908,1744365079,647373367,piren,252.09643072573482,1035.3505581592515,-41.53441080309253,0.0020680644366244,-0.006774061824754727,-0.006726229135691604,0.9999522953808819
2025/04/11 11:51:19.697203930,1744365079,694669055,piren,252.09571594773365,1035.3557286250339,-41.53215132263679,0.0019321774906320192,-0.0068953293536637,-0.005660133442715462,0.9999583411385996
2025/04/11 11:51:19.744972103,1744365079,744428950,piren,252.0944767165387,1035.3609069379695,-41.53123536737305,0.0009762961077808598,-0.0077421647251738985,-0.004312974857378291,0.9999602511995954
2025/04/11 11:51:19.795570308,1744365079,795097838,piren,252.09236005073325,1035.3681032078669,-41.52921740174387,0.001822433618378727,-0.007887198794370416,-0.0028373129649304466,0.9999632095662438
2025/04/11 11:51:19.853293689,1744365079,847431330,piren,252.09004977951844,1035.372470335767,-41.52958158257331,0.0021013467832289036,-0.006190118468563599,-0.0013080854152047192,0.9999777775968766
2025/04/11 11:51:19.898258714,1744365079,897638772,piren,252.09079192172274,1035.3758577286053,-41.52930894040977,0.0020484302747613824,-0.008014567217137017,0.00019521612772370394,0.9999657656822032
2025/04/11 11:51:19.949555505,1744365079,944136613,piren,252.08853045682466,1035.3803833853601,-41.527678937305105,0.002095445003218565,-0.007816818574999388,0.0014607027143446474,0.9999661858308931
2025/04/11 11:51:20.4582630,1744365079,993672937,piren,252.08586379321034,1035.3842082260933,-41.528097856875966,0.0024443120026664844,-0.008076553499097043,0.0031726037892874045,0.9999593637781518
2025/04/11 11:51:20.47023347,1744365080,45305974,piren,252.08401848620568,1035.3870820885188,-41.52684771567271,0.0020038821461014844,-0.0068521220665969575,0.004562914847364624,0.9999641056996119
2025/04/11 11:51:20.100466580,1744365080,96809131,piren,252.08455504510388,1035.3906556450686,-41.52714676260057,0.0018707881350689575,-0.006925053682219976,0.006164816310087371,0.9999552684111
2025/04/11 11:51:20.148135860,1744365080,145826933,piren,252.0843664658612,1035.3939361902708,-41.52619431050859,0.0018297936035449698,-0.00701953492845325,0.007769203683959115,0.9999435071337149
2025/04/11 11:51:20.197166459,1744365080,196629729,piren,252.0832634429679,1035.3971154659657,-41.52664273864548,0.002236415162837441,-0.008036702305742573,0.009447816760903987,0.9999205711563898
2025/04/11 11:51:20.246022740,1744365080,243897864,piren,252.080782962331,1035.3994650161508,-41.52546482927086,0.0029792911473001367,-0.007468381139637036,0.01086269347183136,0.9999086703284205
2025/04/11 11:51:20.303152142,1744365080,302614479,piren,252.07900754789256,1035.399997780077,-41.52669361247997,0.0019793897767913502,-0.006788835330943332,0.012598525890684477,0.9998956299916221
2025/04/11 11:51:20.344495283,1744365080,343937986,piren,252.07872472886245,1035.4026102936891,-41.527601147970664,0.0020093339719138405,-0.007299042493630333,0.01401907154452198,0.9998730680384861
2025/04/11 11:51:20.395671146,1744365080,395164138,piren,252.07738219129283,1035.4048287735422,-41.527925697425964,0.0022284237612231047,-0.0076865112603965915,0.015920505016912664,0.9998412319924552
2025/04/11 11:51:20.450590712,1744365080,446637777,piren,252.0753095104965,1035.4069054373035,-41.52907767132461,0.0016853595981551179,-0.007349360276854742,0.017763417767081627,0.9998137863901349
2025/04/11 11:51:20.504288612,1744365080,500796847,piren,252.07440414465208,1035.4091677690017,-41.529869794365965,0.0019299980310797926,-0.00583364111241239,0.01915245554179952,0.9997976931288104
2025/04/11 11:51:20.552208587,1744365080,549822856,piren,252.0745056182049,1035.4112122923007,-41.53021606302441,0.001968309401267761,-0.008025789985942744,0.020456999534897317,0.9997565821854997
2025/04/11 11:51:20.599074174,1744365080,596995249,piren,252.07414734916492,1035.4136302498293,-41.52825883158039,0.002591302094614098,-0.008172003345236399,0.022322233988919696,0.9997140698142264
2025/04/11 11:51:20.650746003,1744365080,647384447,piren,252.07249295920178,1035.4141165229587,-41.52731926225079,0.0014357297026685659,-0.0059348582112374575,0.024147004760163928,0.9996897710286657
2025/04/11 11:51:20.697471766,1744365080,695664395,piren,252.07430159051017,1035.4168307493858,-41.52578713087053,0.0016847887271501303,-0.006631893415055033,0.025526210626845194,0.9996507350308458
2025/04/11 11:51:20.745200447,1744365080,744378330,piren,252.07415002956367,1035.4189451372297,-41.525650009481936,0.0010552437392739793,-0.00716229441378928,0.027529726109768723,0.9995947689837628
2025/04/11 11:51:20.795967278,1744365080,795494096,piren,252.07272235558042,1035.4219092421638,-41.52549089106093,0.0018098267419036011,-0.006867952742492446,0.029204538615743868,0.9995482232871673
2025/04/11 11:51:20.846387315,1744365080,845957567,piren,252.07170106743382,1035.4225863862002,-41.52556962022983,0.0029430528301537576,-0.007533670707583169,0.030819228908433166,0.9994922497824574
2025/04/11 11:51:20.905369126,1744365080,901713625,piren,252.06875567770396,1035.4216090804275,-41.5261139788316,0.002439009088431006,-0.007537424587865374,0.0322354420776875,0.999448905517088
2025/04/11 11:51:20.952753817,1744365080,946149257,piren,252.06700139603282,1035.4221763446092,-41.52651281255212,0.0018497265714399285,-0.0071144993105561665,0.032964699269983404,0.9994294827616457
2025/04/11 11:51:20.995935441,1744365080,994021588,piren,252.06441585605708,1035.4237809051695,-41.526001319305365,0.0028849436221239423,-0.006495006149806236,0.034964229888091176,0.9993632946149983
2025/04/11 11:51:21.48248319,1744365081,45819894,piren,252.06325439339108,1035.4240062513393,-41.5260270617559,0.0027311073902570593,-0.007354160625777051,0.037266166019580396,0.9992745820064245
2025/04/11 11:51:21.100261950,1744365081,99845127,piren,252.05994633425163,1035.4248951164318,-41.52630243913525,0.0011738121950956016,-0.006095122001504752,0.038890496114115276,0.9992241995491881
2025/04/11 11:51:21.151328744,1744365081,148864142,piren,252.0587203528103,1035.4287900745433,-41.525741655675965,0.0019902114580301333,-0.007214932671876356,0.04047735539085507,0.9991524245606649
2025/04/11 11:51:21.207368713,1744365081,198824869,piren,252.05479543912233,1035.4307962043856,-41.52555752852118,0.0025630334380953817,-0.00825280126698733,0.042150924657790446,0.9990738819933871
2025/04/11 11:51:21.247598877,1744365081,246919939,piren,252.04907681516025,1035.4318534945744,-41.52585470725547,0.0012456593294952179,-0.006868277496347688,0.04322856092605582,0.999040823298693
2025/04/11 11:51:21.299434384,1744365081,294427728,piren,252.0463950913684,1035.435383287087,-41.52436071716098,0.002068909248081139,-0.006901019385768418,0.04447251209310535,0.998984630119047
2025/04/11 11:51:21.347708610,1744365081,346432915,piren,252.04259312074322,1035.43736096554,-41.52540550214256,0.0024928730794711008,-0.007369111994224353,0.04601356602627714,0.998910523277121
2025/04/11 11:51:21.397700298,1744365081,395563639,piren,252.0379352022784,1035.4389296476033,-41.52571700475632,0.0028097953375612033,-0.008557665926358675,0.047885133550497026,0.9988122373043419
2025/04/11 11:51:21.450170320,1744365081,448699523,piren,252.03206488879266,1035.4382496084477,-41.52765649294832,0.0019468913048984163,-0.00746482791392098,0.04938972478589043,0.9987497890082563
2025/04/11 11:51:21.498215806,1744365081,495566087,piren,252.02817440217495,1035.4409678262118,-41.52802828233556,0.0022981946464975082,-0.0070361198515881285,0.05130804974812672,0.99865544375918
2025/04/11 11:51:21.548200635,1744365081,546114313,piren,252.02487611234966,1035.4424023853596,-41.52890120919935,0.002456204180781485,-0.008073990617147222,0.05310350493285735,0.9985533513540389
2025/04/11 11:51:21.598509818,1744365081,597911838,piren,252.0196043174652,1035.4438236248802,-41.52997799387435,0.0020878416453642213,-0.007300755631141997,0.05438743412375148,0.9984910349592092
2025/04/11 11:51:21.652537827,1744365081,651061288,piren,252.01554653902537,1035.4457377145916,-41.5293253660076,0.0017885155237542761,-0.007061869526771151,0.05579547478578035,0.9984156430086808
2025/04/11 11:51:21.699130488,1744365081,696497684,piren,252.01136688497212,1035.4484553794512,-41.52786505562902,0.0026599590300219354,-0.007930406383815713,0.05702575278788563,0.9983376667197934
2025/04/11 11:51:21.758653039,1744365081,751303870,piren,252.00590890106312,1035.4487612124703,-41.528930351072994,0.0019624156824060257,-0.00701395737419012,0.058449104573873416,0.9982638205911075
2025/04/11 11:51:21.802109824,1744365081,800037700,piren,252.00135840096235,1035.4507917255237,-41.52767775419877,0.002495924421628731,-0.006930631417988768,0.05947351139341298,0.9982027039394189
2025/04/11 11:51:21.851825109,1744365081,846993125,piren,251.99688366911937,1035.4518367702349,-41.529039047502636,0.0025954665129119966,-0.007968551943886253,0.061358280617926475,0.9980806215597565
2025/04/11 11:51:21.901313677,1744365081,896358786,piren,251.98961023083297,1035.4525880764877,-41.529670534028334,0.0029552932623246445,-0.006426264247998249,0.06266862813500122,0.9980093248147663
2025/04/11 11:51:21.944395208,1744365081,943880417,piren,251.98549618928308,1035.4527185154623,-41.53002099527009,0.002031061402725571,-0.006796671485546575,0.06449013847510535,0.9978931315956422
2025/04/11 11:51:22.7585931,1744365082,523757,piren,251.98044579509607,1035.4548015052656,-41.52992913022318,0.0027758921302700724,-0.007172039885800965,0.06583426786028744,0.9978009347771015
2025/04/11 11:51:22.50680537,1744365082,49734933,piren,251.97390152458064,1035.455056876559,-41.530375490009014,0.0024695427456347973,-0.007853936112308009,0.06750092974096587,0.9976852417121728
2025/04/11 11:51:22.97045285,1744365082,94954693,piren,251.96658071781866,1035.4558265827502,-41.53005556129948,0.002054432787789734,-0.007284606849842956,0.06948771662682811,0.9975540942961205
2025/04/11 11:51:22.151713492,1744365082,151245425,piren,251.96150434594242,1035.457138667138,-41.52950759416605,0.0026702907752200146,-0.006909666013291894,0.07039863184530758,0.9974914328940723
2025/04/11 11:51:22.203607375,1744365082,202616698,piren,251.95657698639886,1035.4572764312124,-41.5295661816426,0.003069369788930374,-0.009373454720043105,0.07187665773636531,0.9973647594477958
2025/04/11 11:51:22.249096572,1744365082,246536256,piren,251.9480659582165,1035.456305047978,-41.529453565142546,0.0029752702630037493,-0.007188997071418645,0.07338062503182335,0.9972736585099942
2025/04/11 11:51:22.298376120,1744365082,296378634,piren,251.9434577284661,1035.4558724688932,-41.52896840055667,0.002543310283427057,-0.006419835683627365,0.07553062631761971,0.9971195724539086
2025/04/11 11:51:22.350569196,1744365082,348068852,piren,251.94074624614237,1035.4567029297127,-41.529811727897176,0.0029575655280619797,-0.00823089654981766,0.07746813460264641,0.9969564650822621
2025/04/11 11:51:22.398030679,1744365082,396114852,piren,251.9342437360851,1035.4556766510523,-41.52878006999496,0.0029345074949304667,-0.0072572168681596895,0.07986911920093721,0.9967746210990514
2025/04/11 11:51:22.451162846,1744365082,449797286,piren,251.93202772147183,1035.4545438457453,-41.5272925285353,0.0024127607419138545,-0.006445256251346389,0.08163664319285524,0.9966383976877768
2025/04/11 11:51:22.505245209,1744365082,503877869,piren,251.9306609317639,1035.4545573170562,-41.526625182604846,0.00231731920639351,-0.006670016628045416,0.08341780788570842,0.9964896438184495
2025/04/11 11:51:22.554032422,1744365082,552593557,piren,251.92806312879014,1035.4545735368015,-41.525709438197545,0.0030676295360892187,-0.007443222312511813,0.08544557032151831,0.9963103144116628
2025/04/11 11:51:22.596720279,1744365082,594835988,piren,251.92150656325936,1035.4518813086336,-41.52746067456781,0.002394427703468629,-0.007536121203942764,0.08718060918298466,0.9961611390611742
2025/04/11 11:51:22.644391990,1744365082,644021569,piren,251.91550789990154,1035.4506490311155,-41.52821601041776,0.002714123859616944,-0.0075906815509883836,0.0894960554646757,0.9959545527490348
2025/04/11 11:51:22.708495102,1744365082,700934842,piren,251.91117490743963,1035.4488731048368,-41.52935395937174,0.0021027202899354413,-0.006311934536960248,0.09079557873527444,0.9958473281241006
2025/04/11 11:51:22.747055886,1744365082,746616979,piren,251.90754725456674,1035.4487924178068,-41.52862832189284,0.0024133034802458486,-0.0074292366115057025,0.09330266921702406,0.9956071485915824
2025/04/11 11:51:22.796039730,1744365082,793750805,piren,251.90348537061587,1035.4473958823155,-41.528647830432355,0.0035602662720361504,-0.008258001002315956,0.09533260096771978,0.9954048548787812
2025/04/11 11:51:22.847820258,1744365082,847424859,piren,251.8981649613236,1035.4438675470728,-41.52983255439978,0.0028679713952416857,-0.006603528433189824,0.09730015626186057,0.9952290428558271
2025/04/11 11:51:22.904880440,1744365082,901175387,piren,251.89601952930022,1035.4422712878172,-41.53021930705051,0.0022547730503820963,-0.0063047510738998185,0.09949336591920412,0.9950156964844599
2025/04/11 11:51:22.957189039,1744365082,949873439,piren,251.89481243859154,1035.441765121692,-41.529659348028375,0.0024534866883645107,-0.007529777378702,0.10108192170901886,0.994846585137281
2025/04/11 11:51:22.999882293,1744365082,999321156,piren,251.8907526733628,1035.4398468600182,-41.528578233612585,0.002934795894618725,-0.0074251105618200934,0.1033508653672379,0.9946129163317984
2025/04/11 11:51:23.55477764,1744365083,47215763,piren,251.88802783492636,1035.4373135512512,-41.52889949813679,0.0032804148145037693,-0.007350824193294066,0.10555742205258477,0.994380628789568
2025/04/11 11:51:23.96625660,1744365083,96176705,piren,251.8850506847699,1035.434496506519,-41.52937491661068,0.002379143997741567,-0.006548233735206992,0.10790434332926502,0.9941368683433218
2025/04/11 11:51:23.152152307,1744365083,151393192,piren,251.8840529048534,1035.4333934426606,-41.52945224959875,0.0029468346223231493,-0.007113806789260039,0.11009884264311402,0.9938908163210488
2025/04/11 11:51:23.199331292,1744365083,198841479,piren,251.88191427270638,1035.4304715642006,-41.52987515380912,0.003179229688572735,-0.0071052517416564645,0.11189770080300357,0.9936892434012138
2025/04/11 11:51:23.249570910,1744365083,249082712,piren,251.88024939941937,1035.4272950795362,-41.53070408177824,0.0026587428432498553,-0.007257890863823285,0.11347682345245189,0.9935105760110676
2025/04/11 11:51:23.302672262,1744365083,299275731,piren,251.87822494603952,1035.4255634910744,-41.530883882478214,0.0022387410102552335,-0.00728997254085601,0.11564990404139211,0.9932607633618975
2025/04/11 11:51:23.351988398,1744365083,351343199,piren,251.87553439507818,1035.4238647383247,-41.53067453742217,0.002930080492052405,-0.007627602407756933,0.11896858676068639,0.9928643964177507
2025/04/11 11:51:23.406660089,1744365083,402479700,piren,251.8740396503348,1035.4207635680475,-41.5309769607844,0.0031293839471592077,-0.007646451296504213,0.12064938765537833,0.992660800070731
2025/04/11 11:51:23.444448395,1744365083,443714733,piren,251.87096641290933,1035.4172855620736,-41.534300771439256,0.0030365741072306794,-0.00783201754680123,0.12296140729564681,0.9923759020828308
2025/04/11 11:51:23.499353766,1744365083,497311084,piren,251.86827735663908,1035.4138982361703,-41.537673952438034,0.0027269314782518463,-0.005932542230921562,0.1261209042093331,0.9919933902545982
2025/04/11 11:51:23.554070596,1744365083,552228719,piren,251.86980992188552,1035.4121192002638,-41.53990385620408,0.002404071832102796,-0.006213423222442645,0.1280518420665565,0.9917450980740196
2025/04/11 11:51:23.600272283,1744365083,598714426,piren,251.8698510853787,1035.4096660049177,-41.540396048387926,0.0034870492156324623,-0.008036937043364082,0.13085264558569015,0.9913631187783589
2025/04/11 11:51:23.657502600,1744365083,655207460,piren,251.8669324267675,1035.4049422255082,-41.54168496885857,0.0021107300681639765,-0.00715145705648227,0.13328437623957828,0.9910497850920382
2025/04/11 11:51:23.705142435,1744365083,702162618,piren,251.86674448335606,1035.4031195024936,-41.54119252481912,0.002646163849384128,-0.006373111585282098,0.13587808816015906,0.9907015324624989
2025/04/11 11:51:23.747575818,1744365083,747163933,piren,251.86826477354424,1035.4000318564542,-41.54196168134913,0.001075251467666523,-0.008074974390761809,0.13836633812589277,0.990347613263394
2025/04/11 11:51:23.798851008,1744365083,798406046,piren,251.86653237107802,1035.399239757146,-41.54040779437637,0.005409982012906225,-0.0067081195952418985,0.14083582949767984,0.9899954557248314
2025/04/11 11:51:23.860549134,1744365083,857477971,piren,251.86992335948372,1035.3897933757225,-41.541010717302115,0.002939864360673005,-0.00601854227652219,0.14315545617858919,0.9896775483523442
2025/04/11 11:51:23.897859823,1744365083,896095211,piren,251.8747422324076,1035.3869385721316,-41.540001393620315,0.0012459963769601264,-0.0058103705432388094,0.14389705648787282,0.9895748199208108
2025/04/11 11:51:23.948419311,1744365083,945955743,piren,251.87735872915985,1035.3868176513922,-41.538020095706955,0.0010464826797770262,-0.003149437539503029,0.1460614531593594,0.9892699519434329
2025/04/11 11:51:24.458822,1744365083,998585912,piren,251.8853912575377,1035.3867241737953,-41.53555544448682,0.005989433354379487,-0.011597002352011991,0.14928084915313647,0.9887086852560057
2025/04/11 11:51:24.48538851,1744365084,47243446,piren,251.87906766433204,1035.3754708096294,-41.53746300398963,0.005632899053309677,-0.01149551430008969,0.15121369064305049,0.988418202665926
2025/04/11 11:51:24.102195170,1744365084,96801186,piren,251.87569265909795,1035.3672584298004,-41.53892431179132,0.002593229059468064,-0.003476776711016762,0.15305418243322136,0.9882082798815467
2025/04/11 11:51:24.150076534,1744365084,147205418,piren,251.8878052029569,1035.3670802764382,-41.53727268515141,0.00032487619697873095,-0.0028755370362459395,0.15502197717010197,0.987906783222224
2025/04/11 11:51:24.209266677,1744365084,208504040,piren,251.89771481362294,1035.3701429933628,-41.53411578115764,0.0031987633280645632,-0.008754257104436124,0.15680836057277028,0.987585069221989
2025/04/11 11:51:24.250971097,1744365084,250514471,piren,251.89705565372682,1035.3646021287655,-41.53341008301689,0.004478043585144461,-0.006511395961670962,0.15847022723393958,0.9873321305055881
2025/04/11 11:51:24.308170138,1744365084,305189787,piren,251.90210927317892,1035.3578910156568,-41.5344367458477,0.0032079233811693124,-0.008278565991704505,0.15927835596370563,0.9871937904455238
2025/04/11 11:51:24.358736298,1744365084,353878255,piren,251.90306664016765,1035.3537241333781,-41.53410806848778,0.0016559742286605767,-0.006864578354779927,0.1615225653456602,0.9868437547036117
2025/04/11 11:51:24.398084386,1744365084,397615039,piren,251.9067479362354,1035.3527548895813,-41.53361433285575,0.002722320600595685,-0.0029615849753639486,0.16283103015337494,0.9866457690600878
2025/04/11 11:51:24.448971024,1744365084,446649683,piren,251.91616452633434,1035.3499982967305,-41.53483068744646,0.004950785415115654,-0.00914633562769392,0.1643613061365013,0.9863453732407642
2025/04/11 11:51:24.507421645,1744365084,502828963,piren,251.91437616191237,1035.3413949733526,-41.536714645037996,0.0028349659011696823,-0.009160817118521122,0.1651047558129458,0.9862294165182907
2025/04/11 11:51:24.557389498,1744365084,555380094,piren,251.91338106349443,1035.3374700812979,-41.53725680369657,0.0021925241780500846,-0.006840405802715913,0.16510882691940262,0.9862491961768494
2025/04/11 11:51:24.605480081,1744365084,604901439,piren,251.91782171876986,1035.334260296089,-41.53625452187985,0.00332201507962528,-0.005127983953268125,0.16583276348499854,0.9861349616311726
2025/04/11 11:51:24.658020095,1744365084,653208068,piren,251.924459135173,1035.3291130407777,-41.537274278597124,0.004928762815767578,-0.007547421108260843,0.16661740834487518,0.9859804171321851
2025/04/11 11:51:24.699371786,1744365084,694245659,piren,251.92566817389326,1035.3199320327842,-41.53817969721474,0.0039963861361422505,-0.010093081580848475,0.1669060272058563,0.9859130472229339
