time,header_stamp_secs,header_stamp_nsecs,header_frame_id,twist_linear_x,twist_linear_y,twist_linear_z,twist_angular_x,twist_angular_y,twist_angular_z
2025/04/11 11:51:09.595014780,1744365069,591296340,piren,-0.0013415458665349306,-0.002795215936384919,0.001023966678314993,0.016088023781776428,0.010065369307994843,0.0021184591347106494
2025/04/11 11:51:09.652253059,1744365069,641666159,piren,-0.0003586418127497254,-0.004659457625166395,-6.867168855819567e-05,0.01312081329524517,0.006438122596591711,0.0045531504488862656
2025/04/11 11:51:09.698746505,1744365069,693901428,piren,-0.00531160641626228,-0.0020985157307222817,0.0014414424820756737,0.012177294120192528,0.005618299823254347,0.004647382965675633
2025/04/11 11:51:09.744180404,1744365069,741805785,piren,-0.003537650440921411,0.001148647376794544,-0.0005270121339435703,0.013771447353065014,0.00528655294328928,0.00593757925456758
2025/04/11 11:51:09.795370056,1744365069,791131044,piren,0.002969128221957376,-0.0005086765320811524,-0.0013516392270560102,0.01023928727954626,0.014631102792918682,-0.0011470090976404728
2025/04/11 11:51:09.844686280,1744365069,841302366,piren,-0.0018111947622401064,-0.0029865520227758662,-0.0022831592438365064,0.012547394260764122,0.005143740680068731,0.007978434340809245
2025/04/11 11:51:09.897660688,1744365069,891440122,piren,-0.001579059066989416,-0.0017089224284063658,-0.00042440770482130453,0.012210017070174217,0.001983062131330371,0.0011232667080354364
2025/04/11 11:51:09.945989767,1744365069,941841833,piren,-0.0005251767925073952,0.0019713371089892474,-0.0005347098465676924,0.019107019528746605,-0.003155254293233156,0.006973287944773187
2025/04/11 11:51:09.997260232,1744365069,993105848,piren,0.0015892466906734762,0.0026536559747910374,0.0006579725371921097,0.00613319082185626,-0.00039368573925457895,0.0011084188515173257
2025/04/11 11:51:10.44955733,1744365070,41903668,piren,-0.0030395836182606074,-0.0015939689230435742,-0.0027969080163870773,0.012462369166314602,0.0041783712804317474,0.007259941946736283
2025/04/11 11:51:10.94107361,1744365070,91685977,piren,-0.005106121166045327,-0.0026763275052871884,-0.00037375549548528293,0.01504938118159771,-0.003422784386202693,0.0
2025/04/11 11:51:10.148740515,1744365070,143714879,piren,-0.002237022592271373,9.060203319677558e-05,-0.0012167583495511268,0.0032734216656535864,0.006415721960365772,0.0034304385243224345
2025/04/11 11:51:10.303174857,1744365070,202366066,piren,0.0015862298463162144,0.0008830614595353853,-0.000509867201083124,0.012844673357903957,0.007752785924822092,0.0013445077714014334
2025/04/11 11:51:10.381030460,1744365070,241620094,piren,-0.0005198182162757664,-0.00025399477599421334,-0.0021383883718954153,0.011330824345350266,-0.0009144353098236024,0.005203242208373747
2025/04/11 11:51:10.385176809,1744365070,294810723,piren,-0.0011377791914810448,-0.0034844842932216106,-0.0024667486922510294,0.008397098630666733,-0.002743951277807355,0.01043838794090198
2025/04/11 11:51:10.391963557,1744365070,342023373,piren,0.0019288433602241777,-0.002793500097868671,-0.003315064854041337,0.012582269497215748,0.01338893361389637,0.004893752126989906
2025/04/11 11:51:10.402711540,1744365070,397062121,piren,0.004538806658251828,-0.0019553195608750665,-0.003475801323861559,0.008435122668743134,0.00012267334386706352,0.008029566931070214
2025/04/11 11:51:10.449421854,1744365070,442164440,piren,0.003128144557786086,-0.005665190804757001,-0.004679422967660683,0.01409623771905899,0.0029090496245771646,0.007665865355890465
2025/04/11 11:51:10.499897396,1744365070,493842027,piren,-0.003974251890394939,-0.010218197564427097,-0.008952688182250767,0.016217553988099098,-0.0006329527823254466,0.003359130653870023
2025/04/11 11:51:10.560343279,1744365070,548200774,piren,-0.002618381085926544,-0.009778475472558053,-0.007543540220484601,0.006520462688058615,0.008596060797572136,0.007853948998496781
2025/04/11 11:51:10.606519145,1744365070,593772650,piren,0.002122242265181753,-0.004118816405571121,-0.005613809454945339,0.021173052489757538,0.0020974306389689445,0.009139127918795512
2025/04/11 11:51:10.647468756,1744365070,643149615,piren,-0.0003440433424202502,-0.000898282215348442,-0.0038169842953152504,0.0073336269706487656,0.004014346282929182,0.0
2025/04/11 11:51:10.701789700,1744365070,695090019,piren,-0.007285103061553841,-0.005349094073062584,-0.0029774299520852303,0.015359366312623024,-0.0012144494103267789,0.006267859007041337
2025/04/11 11:51:10.745174931,1744365070,742204619,piren,-0.005607343318820299,-0.005326678667006486,-0.003694948440380585,0.011922737583518028,-0.0010812774999067187,0.0026455761417295194
2025/04/11 11:51:10.794542941,1744365070,791733995,piren,-0.004029414882006663,-0.0012804168196453207,0.001851998867238081,0.013726526871323586,0.006727549247443676,0.00818632025060211
2025/04/11 11:51:10.850564492,1744365070,842939560,piren,-0.005375058935146612,-0.0013230474958618248,0.0021426018503177607,0.01638863980770111,0.008503762073814869,0.002186250586241986
2025/04/11 11:51:10.903737913,1744365070,891820853,piren,-0.007094724685975948,-0.004074808456425667,-0.0006689647904011046,0.009579485282301903,0.0071068559773266315,0.004448155957375803
2025/04/11 11:51:10.944923863,1744365070,941812636,piren,-0.005797512378558154,-0.004224135015465431,0.0005659374377444243,0.009782967157661915,0.004806817509233952,0.0023820644820334268
2025/04/11 11:51:10.999225994,1744365070,991710057,piren,-0.0016059346067322493,0.0015679103569709732,-0.0007833668677335473,0.002658799523487687,-0.004797098692506552,0.003334951768941947
2025/04/11 11:51:11.45613385,1744365071,41533367,piren,0.00012705449505575781,0.002200500657636443,0.002715308096861691,0.006471610628068447,-0.0022151402663439512,0.004697107130547395
2025/04/11 11:51:11.96369636,1744365071,91672764,piren,-0.007015920228036508,0.0027690319213434155,0.0018352679819201973,0.008826296776533127,-0.0026058421935886145,-0.0011201214100054141
2025/04/11 11:51:11.146493900,1744365071,141837307,piren,-0.0021327445813312685,-0.0016053896524681442,-0.0019667169528986496,0.009780727326869965,0.002152790082618594,0.0022931199470523807
2025/04/11 11:51:11.202466981,1744365071,192600427,piren,-0.0018307104368432072,0.0032059220475275686,0.0013020996736770492,0.010011374950408936,0.007039520889520645,-0.007958978976256085
2025/04/11 11:51:11.248733209,1744365071,241959289,piren,0.013848158801556577,0.010939399089147631,0.004115683798789861,0.0153836440294981,0.0018638708861544728,0.003469677603107897
2025/04/11 11:51:11.295673750,1744365071,292765326,piren,-0.0033975501346730982,0.008675785348168577,0.006718885259613217,0.011620059609413147,0.0028684616554528475,0.0011567053996791416
2025/04/11 11:51:11.345509101,1744365071,341521967,piren,-0.015635539199683975,0.005093427532847276,0.002732240269494924,0.008478695526719093,-0.004243971314281225,-0.003228134878049682
2025/04/11 11:51:11.395131879,1744365071,391510735,piren,0.013620666592100872,0.005943308770110893,0.0002459163456535419,0.010507545433938503,0.0005270682158879936,0.0
2025/04/11 11:51:11.445017760,1744365071,441971124,piren,-0.005040095916842791,0.004516645679541402,0.002293970487050957,0.015414026565849781,-0.0022962098009884357,0.0
2025/04/11 11:51:11.499977551,1744365071,491600677,piren,-0.00878383873050551,0.006916111478130919,0.002299328495445253,0.005151616875082254,0.005843178369104862,-0.0034729148568613056
2025/04/11 11:51:11.545057289,1744365071,542006646,piren,0.00983608718979668,0.00962749648078898,0.0033146811095321038,0.005787544883787632,0.005396046210080385,-0.002388593347898741
2025/04/11 11:51:11.597794147,1744365071,592782474,piren,-0.002508872722546575,0.001146885703019511,0.001288638007770261,0.005875529255717993,0.0018113245023414493,-0.001101016944856369
2025/04/11 11:51:11.649344090,1744365071,642622297,piren,-0.008630452883630815,0.0008072510769125117,-0.0002606662939797376,0.010522430762648582,-0.0015203695511445403,-0.008115017616425524
2025/04/11 11:51:11.696426964,1744365071,691819806,piren,0.004807537798797066,0.004681508656176451,-0.0002464932971008681,0.007934735156595707,0.009318197146058083,0.00227746055531874
2025/04/11 11:51:11.749239299,1744365071,741902118,piren,-0.007559105260384048,0.002694586849065676,-0.0005494865241303147,0.012236524373292923,-0.0005848029977642,-0.003518484449572187
2025/04/11 11:51:11.797890059,1744365071,792671806,piren,-0.008565943464759574,-0.0010918874144408577,-0.0010790731446434151,0.008271344937384129,0.003465882269665599,-0.003409137737132913
2025/04/11 11:51:11.846411148,1744365071,842872056,piren,0.006741385909435857,0.004404556989356937,9.071770476225672e-05,0.008776834234595299,0.003295643487945199,-0.005553108994400723
2025/04/11 11:51:11.897241576,1744365071,892471609,piren,0.0009752096014381184,0.009619945335543893,0.0016748924543662736,0.005658258218318224,0.014593848958611488,-0.0055661137357310006
2025/04/11 11:51:11.949746008,1744365071,942591771,piren,0.0026587045218320867,0.008862916376165235,-7.516052529581304e-05,0.016081620007753372,0.0020445554982870817,-0.0034890812940056547
2025/04/11 11:51:12.6204378,1744365071,992737561,piren,-0.00230182432435412,0.004522367537538234,0.0006071025757819383,0.005304513033479452,0.004481432493776083,-0.004639724588715771
2025/04/11 11:51:12.49238278,1744365072,41828202,piren,0.0021050902759725517,0.0035689544629349296,0.0022864887510365872,0.013369733467698097,0.008202939294278622,-0.004504956361147221
2025/04/11 11:51:12.97271856,1744365072,91825381,piren,0.003199179329271837,0.006810671828316121,0.00451341981921587,0.014047298580408096,0.008690266869962215,0.0
2025/04/11 11:51:12.145404806,1744365072,141424162,piren,-0.0007657845441826705,0.0031960374302798344,0.0025573413889048886,0.0022194618359208107,0.002750418847426772,-0.005695246050098059
2025/04/11 11:51:12.198015226,1744365072,193650015,piren,0.001500392309503704,0.0028461250190957845,0.0025187077365274044,0.010036641731858253,0.005850713700056076,-0.0023086320801560586
2025/04/11 11:51:12.244581197,1744365072,242030347,piren,-0.001061437876251139,-0.002707367306538794,-0.0004671667704315031,0.019852077588438988,0.008839720860123634,-0.004609704645917562
2025/04/11 11:51:12.300873270,1744365072,291701839,piren,-2.831880897238414e-06,-0.0014661572624390775,0.0013823375297988614,0.00795385055243969,0.004676980432122946,-0.0023010125928750445
2025/04/11 11:51:12.344994007,1744365072,341831123,piren,0.003203200024927364,0.0036678801368907497,-0.00022596066801270254,0.010472065769135952,0.005860417149960995,-0.010143954974920984
2025/04/11 11:51:12.395715596,1744365072,391319883,piren,-0.002248115904444594,0.003338982420245889,-6.600534642870926e-05,0.00935429334640503,0.0014421252999454737,0.005306359609555726
2025/04/11 11:51:12.443712724,1744365072,441215588,piren,0.00029575672945157715,0.0014290407832959371,0.0024759518165069503,0.013608305715024471,0.006947814486920834,-0.0023202667077530984
2025/04/11 11:51:12.497193993,1744365072,492251923,piren,0.0017920011836622593,0.0007629159783391569,0.005959761448991685,0.011750372126698494,0.010404289700090885,-0.0023569089853220514
2025/04/11 11:51:12.545855624,1744365072,541660909,piren,-0.004052397103009743,0.0023944904831296352,0.010982010214439696,0.015308110043406487,0.011206028051674366,-0.001145053489379078
2025/04/11 11:51:12.597842895,1744365072,591862683,piren,0.0032038910971778113,0.006966587679562513,0.009585789104835384,0.009880267083644867,0.012535186484456062,-0.0023249460762369786
2025/04/11 11:51:12.644448046,1744365072,641189020,piren,-0.0033486725121065226,0.0036189336769894046,0.007009553564301996,0.010592411272227764,-0.006552305072546005,-0.004550320251718304
2025/04/11 11:51:12.697687447,1744365072,692678878,piren,-0.002093712561008933,0.0022646155726761255,0.005844512056035001,0.01205134205520153,0.011702247895300388,-0.00231417869407481
2025/04/11 11:51:12.745413935,1744365072,741527083,piren,0.003507159420496473,0.005446279416901238,0.007090692446308822,0.013146926648914814,0.003246692009270191,-0.0034081325287656033
2025/04/11 11:51:12.795604695,1744365072,791719572,piren,0.001899390607877658,0.005958340643701381,0.008185919285881483,0.009718193672597408,-0.001956065883859992,-0.0022730760636389953
2025/04/11 11:51:12.850686743,1744365072,841059809,piren,0.001989490473715714,0.004155903391256293,0.007267837066541462,0.007469910196959972,0.006419174838811159,-0.007079958860338204
2025/04/11 11:51:12.899264422,1744365072,891063531,piren,0.0035519158639545,0.005621050848276359,0.006143714968965243,0.01282901968806982,0.009116334840655327,-0.0022655839137629653
2025/04/11 11:51:12.947870788,1744365072,942639676,piren,0.0018581977434223608,0.0026334556010624557,0.003752646979211251,0.020212696865200996,0.00014420851948671043,0.0023277923756535247
2025/04/11 11:51:12.997853364,1744365072,991218610,piren,0.005102948167677832,0.007997287321450134,0.006531223003196375,0.011402017436921597,0.008976210840046406,-0.003208609012909605
2025/04/11 11:51:13.48013289,1744365073,41967866,piren,0.0010631128007844472,0.01048021661845269,0.005515867993301528,0.011285410262644291,0.005230985581874847,-0.00460948695030814
2025/04/11 11:51:13.97340470,1744365073,91056871,piren,0.004174730399631708,0.007063886922333044,0.0041252720886404875,0.013656902126967907,0.0062037985771894455,0.0
2025/04/11 11:51:13.144708454,1744365073,141798304,piren,0.003383800106803401,0.009217260701188938,0.005264924399813254,0.015226314775645733,0.003538860008120537,-0.0068199693768542635
2025/04/11 11:51:13.197562285,1744365073,191232230,piren,-0.0027469163147088595,0.008457279521644528,0.006043218798782847,0.013211339712142944,-0.0022717760875821114,-0.0023166687119685384
2025/04/11 11:51:13.247454244,1744365073,241932786,piren,-0.003994038360633558,0.006344636416906729,0.004315900333131141,0.009766261093318462,-0.0013837353326380253,0.0022650231169880053
2025/04/11 11:51:13.304914913,1744365073,292377454,piren,0.001505289072451896,0.006595054362878732,0.0034592684856534117,0.008961167186498642,0.00324218044988811,-0.002326460771292628
2025/04/11 11:51:13.353019931,1744365073,348339352,piren,-0.0014730069698089122,0.004164129514538222,-0.0009264412423362939,0.017681781202554703,-0.003733937395736575,-0.0022148590723432234
2025/04/11 11:51:13.399795251,1744365073,391315965,piren,-0.003981186864530164,0.002620375037622584,-0.002078904310297956,0.015513235703110695,0.005353980697691441,-0.0018764348511259737
2025/04/11 11:51:13.448458396,1744365073,442562710,piren,-0.003308415771834907,0.003963053696679712,-0.002650843396304479,0.012873110361397266,0.0041663870215415955,0.0023492318805414477
2025/04/11 11:51:13.499026805,1744365073,492871462,piren,0.0014844046759662976,0.006362041634747588,-0.004607546040381293,0.005761179607361555,0.002805504947900772,0.0011458779780776996
2025/04/11 11:51:13.546710751,1744365073,541211809,piren,0.0005945628595782272,0.003659703885568893,-0.0034737833031499563,0.010813050903379917,-0.0031765042804181576,-0.005865456358631829
2025/04/11 11:51:13.594602683,1744365073,592067894,piren,-0.0015427533767478872,0.003226939626438257,-0.0021624823641616317,0.013124127872288227,0.005273323971778154,-0.005378485491423133
2025/04/11 11:51:13.644788130,1744365073,641954686,piren,-0.0009054781385202569,0.0031503223002801,-0.005341865842297009,0.01030818559229374,0.004969919566065073,0.0
2025/04/11 11:51:13.694020162,1744365073,690999759,piren,0.0011984504709289558,0.0036999284422563556,-0.0008596426783071803,0.021118327975273132,0.004041882697492838,0.002341342500783402
2025/04/11 11:51:13.747665382,1744365073,741985644,piren,0.0012517196533963306,0.0027156019597896425,-0.0024996268252834835,0.010463112965226173,0.0035620781127363443,-0.0022680406682723912
2025/04/11 11:51:13.793411754,1744365073,791093083,piren,0.0002575456586555538,0.0012106782924092892,-0.002856948918361011,0.0072755394503474236,-0.004768669605255127,-0.00348752987706771
2025/04/11 11:51:13.845245220,1744365073,841059889,piren,0.0018913774246129922,0.0024978803641715836,-0.003978248110740877,0.01899336278438568,0.00912152137607336,-0.0033669070153266954
2025/04/11 11:51:13.898202760,1744365073,891790564,piren,0.004436540104757122,0.005173478155302296,-0.0015328948888281941,0.0173494853079319,0.010430370457470417,-0.002298628273604856
2025/04/11 11:51:13.944879642,1744365073,941877977,piren,0.0009531137514613959,0.0021139706466783586,-0.0037227076300950994,0.011415298096835613,0.0066179437562823296,0.002248465472763383
2025/04/11 11:51:13.994354904,1744365073,991185473,piren,-0.0025957850277791208,-0.0008029248123420933,-0.005035143515374327,0.015010322444140911,0.008481438271701336,0.0011149861340315754
2025/04/11 11:51:14.54668831,1744365074,42259727,piren,0.0007921934960450103,0.0003894114446666259,-0.0016884463006306282,0.012919658794999123,-0.00145697349216789,-0.001162380746131079
2025/04/11 11:51:14.100157480,1744365074,92109383,piren,0.003879581153614717,-6.259795063669513e-05,9.415662232754797e-05,0.00621581356972456,0.0019305023597553372,-0.0011381991204305346
2025/04/11 11:51:14.145098625,1744365074,141834610,piren,0.002665133478126344,0.001618165159561618,-0.0016187942740998528,0.008504845201969147,0.0011301621561869979,0.0011567236771104234
2025/04/11 11:51:14.198188338,1744365074,191182694,piren,0.001659603447251365,0.0018287793096533327,-0.0001565882136844699,0.0049271914176642895,0.006529767531901598,-0.002250262503404203
2025/04/11 11:51:14.244370783,1744365074,241429451,piren,-0.0011078972274617541,0.0016850271844305147,0.0001460263128933569,0.012071476317942142,0.010229991748929024,0.004593146123483682
2025/04/11 11:51:14.300926230,1744365074,293638722,piren,0.00038185329124190443,0.001053946339197869,0.0013690603979910085,0.005281144753098488,0.004957546014338732,-0.0023361495629433153
2025/04/11 11:51:14.344697535,1744365074,341421133,piren,0.002918148813273555,-0.00014369676300702368,0.001887284290910431,0.0019740837160497904,0.006986826658248901,-0.0011869767098991496
2025/04/11 11:51:14.395359042,1744365074,391475350,piren,0.0017539722254923701,0.0016498699978910784,0.0016919433442808458,0.012656770646572113,0.00444440171122551,0.0011237840166655449
2025/04/11 11:51:14.444804517,1744365074,442295700,piren,-0.0005019857850356772,9.027761516336376e-05,0.0015907018258417356,0.007937903515994549,0.0009498983854427934,0.0023004341219788277
2025/04/11 11:51:14.493648562,1744365074,491338722,piren,0.003828308307606684,0.0008478029318212114,0.0011628547079226355,0.019755147397518158,0.0072626895271241665,0.0
2025/04/11 11:51:14.544651208,1744365074,542105726,piren,0.0033382260922962892,0.002286998728595795,0.0004714669646318744,0.017700817435979843,0.00023828395933378488,0.0022673733082293826
2025/04/11 11:51:14.594476262,1744365074,592146060,piren,0.0025944826732711666,-0.0007408561670672448,-0.0010499080251520335,0.01307986956089735,0.005971857812255621,-0.0023035105847950357
2025/04/11 11:51:14.644840925,1744365074,642296710,piren,0.0015244986024299655,-0.00264053185255761,-0.007011356276200329,0.01194439921528101,0.005121059715747833,-0.001201746936376548
2025/04/11 11:51:14.695208197,1744365074,692720017,piren,0.006142055928216913,-0.0021730972843215517,-0.005096018645286902,0.008883005008101463,0.009350481443107128,-0.005679427640509797
2025/04/11 11:51:14.745303029,1744365074,742069553,piren,0.0047810764090400045,-0.0017825846291088913,-0.007313350112377746,0.007680309470742941,0.000978600000962615,-0.0058829913552234095
2025/04/11 11:51:14.795709162,1744365074,791894965,piren,0.0009428021067833547,-0.0038912044419703255,-0.006526786009413852,0.004963246639817953,0.007418373133987188,-0.009035490504306862
2025/04/11 11:51:14.848116892,1744365074,842270568,piren,0.0024495401507920256,-0.00345821362570859,-0.005474119423007549,0.010854782536625862,0.003422731766477227,-0.013812805251112063
2025/04/11 11:51:14.895055533,1744365074,891372133,piren,0.007874238083377356,-0.0031065647199284233,-0.0058292704060193025,0.014673610217869282,-0.0017190005164593458,-0.020208877863471572
2025/04/11 11:51:14.946395116,1744365074,942299380,piren,0.006018913788989272,-0.002572396290815954,-0.0053204421557154526,0.017590384930372238,0.0027136311400681734,-0.019551539625501442
2025/04/11 11:51:14.994596447,1744365074,991672865,piren,0.00355996096275249,-0.001968299617692532,-0.0023325731440763755,0.007921854965388775,0.002592032542452216,-0.02818806878304451
2025/04/11 11:51:15.44444081,1744365075,41993192,piren,0.005114737174562839,-0.0024656833895278342,-0.003266810904517568,0.011402755975723267,0.002217276720330119,-0.027636039688383407
2025/04/11 11:51:15.95313030,1744365075,92615701,piren,0.010488215068608048,-0.003647901164731587,-0.004826733100793488,0.014415125362575054,0.006347093731164932,-0.032362694354364646
2025/04/11 11:51:15.145021187,1744365075,142213895,piren,0.009456866372670453,-0.001841114256785653,-0.005247999965024517,0.008678171783685684,-0.0006467127823270857,-0.036472894325810634
2025/04/11 11:51:15.196565369,1744365075,192700680,piren,0.009687402234953886,-0.001607991614037013,-0.0055123651943972595,0.014621778391301632,0.0031332990620285273,-0.04115240598173609
2025/04/11 11:51:15.245177297,1744365075,242221752,piren,0.011826354858726525,-0.0005031878607041963,-0.004400845223165104,0.015439155511558056,0.0021522920578718185,-0.05084625297330426
2025/04/11 11:51:15.295182014,1744365075,292345199,piren,0.012763853549449785,-0.0021018788091168913,-0.007177226054523087,0.0031038622837513685,0.006287945434451103,-0.04943913662747754
2025/04/11 11:51:15.346282385,1744365075,342199399,piren,0.01563203414627879,0.0008471657529298738,-0.006662463214530587,0.017279518768191338,0.009925231337547302,-0.057101727480163705
2025/04/11 11:51:15.394843967,1744365075,392067550,piren,0.01863218512901313,0.006872747418128716,-0.004296226166241011,-0.000761830888222903,0.0009727549622766674,-0.0552686366605013
2025/04/11 11:51:15.445760001,1744365075,441815161,piren,0.022298180208622405,0.007158515036462637,-0.006400849877314838,0.008123800158500671,0.003196561010554433,-0.06369427964035683
2025/04/11 11:51:15.494757561,1744365075,492119198,piren,0.02360182795202946,0.01148590995890118,-0.002710976367546889,0.014789779670536518,-0.003853986505419016,-0.06873320137462982
2025/04/11 11:51:15.545557607,1744365075,542552944,piren,0.025813619446512358,0.014666547003434977,-0.005290663753629585,0.018653864040970802,0.007333491928875446,-0.06535379054084732
2025/04/11 11:51:15.594182374,1744365075,591277316,piren,0.03195210593119101,0.02194180117858196,-0.0013377927015540058,0.010617406107485294,-0.002480205846950412,-0.07547697930327993
2025/04/11 11:51:15.643725713,1744365075,641327796,piren,0.033737712114316316,0.02316889468347654,-0.0007502712950383716,0.00923608336597681,-0.0003049241495318711,-0.06918274242251338
2025/04/11 11:51:15.695266145,1744365075,692474685,piren,0.035586864970309766,0.028027203031342655,-0.0019086158108791527,0.017391061410307884,0.002452258486300707,-0.07674028122351821
2025/04/11 11:51:15.745558811,1744365075,741693152,piren,0.03970459421968826,0.03462028677367926,0.0015037946636596209,0.013434412889182568,0.004259276203811169,-0.07777990190234696
2025/04/11 11:51:15.795460280,1744365075,792438501,piren,0.04043938842567059,0.030822041327337506,-0.0016147190497747465,0.011514266952872276,0.008660035207867622,-0.07563505010334265
2025/04/11 11:51:15.844331558,1744365075,841478520,piren,0.04375204309346828,0.03491924098798336,-0.0024863486731078388,0.01847238466143608,0.006397614721208811,-0.08405319617535863
2025/04/11 11:51:15.895807182,1744365075,892595454,piren,0.05137855148659583,0.04257717052278167,-0.0010268666578383523,0.006458957679569721,0.012456647120416164,-0.08409206418273955
2025/04/11 11:51:15.954778936,1744365075,949462205,piren,0.06740366649801217,0.054732107966265174,0.006049065904181817,0.015698794275522232,0.004140885081142187,-0.08301278431424858
2025/04/11 11:51:15.996756945,1744365075,992473201,piren,0.0666639080168352,0.06951109922429168,0.00969510406957852,0.009193908423185349,-0.003816625103354454,-0.13242542065142923
2025/04/11 11:51:16.46252084,1744365076,43449339,piren,0.06037871861401527,0.06935766984006476,0.007522281937383468,0.013222424313426018,0.0012570478720590472,-0.0954136982757873
2025/04/11 11:51:16.105259715,1744365076,96141053,piren,0.0647547704157887,0.062013514664067765,0.002262310122853251,0.017650427296757698,0.006649729795753956,-0.06663142092962748
2025/04/11 11:51:16.147554908,1744365076,142560062,piren,0.074342929804493,0.06869043555252574,0.0042220814441918724,0.012455126270651817,0.004880174528807402,-0.08129522513066932
2025/04/11 11:51:16.198595172,1744365076,193134922,piren,0.08386954436864472,0.07656567431567965,0.004753715320885022,0.01442032866179943,0.013014236465096474,-0.10341764440131054
2025/04/11 11:51:16.247737169,1744365076,242893549,piren,0.09551649344159614,0.09244194041693846,0.008415851540036101,0.006936183664947748,0.010897217318415642,-0.09225093881938447
2025/04/11 11:51:16.302373337,1744365076,293949993,piren,0.08899549190537073,0.09010272295145115,0.006692676422545674,0.014104669913649559,-0.0040003159083426,-0.10363619288695844
2025/04/11 11:51:16.352765574,1744365076,342678389,piren,0.09229498634729226,0.08864336994829501,0.004211235030487615,0.007113436236977577,0.009731383062899113,-0.10147777459570388
2025/04/11 11:51:16.397082941,1744365076,393020536,piren,0.08920337066665525,0.08814299262085115,0.004635762723739845,0.017451373860239983,0.00782970990985632,-0.09788641889818304
2025/04/11 11:51:16.445246516,1744365076,442162200,piren,0.1024960505879335,0.09247747536228418,0.0013172401274403004,0.010088556446135044,-0.00047962652752175927,-0.0989869903717518
2025/04/11 11:51:16.497014937,1744365076,493156533,piren,0.11622387320148846,0.09299036677366532,0.0013524466310798292,0.00576487323269248,0.01677708700299263,-0.10159102501777442
2025/04/11 11:51:16.552983511,1744365076,541556387,piren,0.11768221507500129,0.10215292429984403,0.0002975616587320932,0.012946062721312046,0.0017040949314832687,-0.10576974340441801
2025/04/11 11:51:16.599064770,1744365076,592751969,piren,0.11340630323595632,0.10331996175136739,0.003438069855280901,0.02178286761045456,0.010991865769028664,-0.1024987957177904
2025/04/11 11:51:16.645672425,1744365076,642930322,piren,0.12790957598078875,0.10324987163985498,0.002739947290785949,0.012216527946293354,0.004390556365251541,-0.1149424600454756
2025/04/11 11:51:16.697118343,1744365076,692330173,piren,0.13101158821004902,0.09369989137885569,-0.001112114020668286,0.01951218582689762,0.012058364227414131,-0.10870765548963798
2025/04/11 11:51:16.749293464,1744365076,743548588,piren,0.13051452225156482,0.0900247191939343,-0.0026299787445338996,0.0044964081607759,-7.484636444132775e-05,-0.11438009261733637
2025/04/11 11:51:16.797758508,1744365076,791906395,piren,0.1252007278154224,0.09510620853579896,0.0014105917385336406,0.01669670082628727,-0.006302990484982729,-0.12137713030857754
2025/04/11 11:51:16.847104745,1744365076,843305746,piren,0.13509643354234413,0.09678638362947824,0.007023752144607443,0.012203074060380459,0.006315731443464756,-0.12159824213493164
2025/04/11 11:51:16.895958064,1744365076,893281623,piren,0.1429350782054371,0.09172251898344258,0.006458827452684091,0.014198570512235165,0.007958007976412773,-0.12846567769459383
2025/04/11 11:51:16.947719943,1744365076,943156711,piren,0.13353219919306414,0.08074868017465633,0.003953503046528795,0.014866368845105171,0.0037123963702470064,-0.13119888542842456
2025/04/11 11:51:17.1613747,1744365076,994554523,piren,0.1328549320463253,0.08070246897132166,0.004491632377994393,0.0128440847620368,0.0025136687327176332,-0.14225587547510657
2025/04/11 11:51:17.46765783,1744365077,42333450,piren,0.14060155158451837,0.08038204484419112,0.007550641744853693,0.021859489381313324,0.0007385911303572357,-0.14015389649152332
2025/04/11 11:51:17.96923082,1744365077,93862645,piren,0.14117806832546195,0.07552312302832434,0.006714482772378006,0.008010770194232464,0.011935867369174957,-0.15505516466348188
2025/04/11 11:51:17.147270447,1744365077,144242005,piren,0.13104900553075824,0.06959657494917337,0.0064655882965439565,0.017378121614456177,0.0009534803102724254,-0.1672920623364295
2025/04/11 11:51:17.196779529,1744365077,192058725,piren,0.13149825288421654,0.060396161898643184,0.004595189057414474,0.0020076350774616003,-0.0011436877539381385,-0.16718270154810067
2025/04/11 11:51:17.253202437,1744365077,248490907,piren,0.13356785066878277,0.05533838233859569,0.004217369347725253,0.015432441607117653,0.0027580636087805033,-0.18193046233109358
2025/04/11 11:51:17.310971238,1744365077,298266592,piren,0.13010287001161489,0.05365618595587875,0.005056443132014011,0.012975933961570263,0.0013056730385869741,-0.18303080842050828
2025/04/11 11:51:17.347092705,1744365077,343557428,piren,0.12032433588660753,0.051662775578915895,0.006291412029986532,0.007551286835223436,0.008796101436018944,-0.13502769271618434
2025/04/11 11:51:17.399229606,1744365077,393464945,piren,0.11803730051958611,0.04854889241833007,0.006432409553696061,0.010780270211398602,0.0019173052860423923,-0.1462444124640589
2025/04/11 11:51:17.446299255,1744365077,443271178,piren,0.11846172647892673,0.039991608125637866,0.004092941949795659,0.009758803062140942,0.0029324721544981003,-0.204411428595606
2025/04/11 11:51:17.503010914,1744365077,496442954,piren,0.11078098500433954,0.033470798886264676,0.0011273489268944564,0.016665497794747353,-0.0049798134714365005,-0.21259978717338102
2025/04/11 11:51:17.545036632,1744365077,542074549,piren,0.0985185459000377,0.02485431458662788,0.0008531373654193436,0.011368838138878345,0.005967551842331886,-0.20597506510953636
2025/04/11 11:51:17.595078292,1744365077,592290456,piren,0.09211562864140889,0.021463530591609017,-0.001421684905824349,0.01788332872092724,0.004126777406781912,-0.22109215566572288
2025/04/11 11:51:17.645294316,1744365077,642484643,piren,0.08390967588356946,0.021272577094168812,-0.00020169988217162357,0.01389903761446476,0.0017149188788607717,-0.22995056711015624
2025/04/11 11:51:17.696591848,1744365077,693637146,piren,0.07555108364956598,0.018663972434296742,-0.004354523979367285,0.010267812758684158,0.0077927433885633945,-0.2366497145592695
2025/04/11 11:51:17.747815676,1744365077,743133596,piren,0.06903652470646196,0.019005679579640857,-0.003131371047885522,0.008385537192225456,0.00202019396238029,-0.2381070030892372
2025/04/11 11:51:17.795540014,1744365077,792403424,piren,0.056709195801931886,0.017775317993437057,-0.003608656351747185,0.01054701954126358,0.001471441239118576,-0.24011148139779706
2025/04/11 11:51:17.850134862,1744365077,845393069,piren,0.04307067108968571,0.016313989081209002,-0.00418615376312914,0.006583521608263254,0.0001344808260910213,-0.24365937883775562
2025/04/11 11:51:17.896724945,1744365077,893468332,piren,0.03880203379799244,0.015888472309598,-0.005227615904249205,0.022538011893630028,0.002486931625753641,-0.23602287123383695
2025/04/11 11:51:17.951709760,1744365077,943520870,piren,0.022892768389351694,0.01497404150723014,-0.004673044627764965,0.008781087584793568,0.009879529476165771,-0.2424858346192789
2025/04/11 11:51:18.5249725,1744365077,992457049,piren,0.006273476380556569,0.02214417241884803,-0.00019343049281701427,0.018147382885217667,-0.0035342383198440075,-0.2446184211507598
2025/04/11 11:51:18.46800769,1744365078,42176093,piren,-0.003032088792656356,0.02453955390792544,0.0004046757821640774,0.010813049040734768,-0.004669982939958572,-0.2389073060368123
2025/04/11 11:51:18.95495896,1744365078,92195511,piren,-0.009137171409543003,0.026172131562088908,0.002047368762322322,0.007894810289144516,0.014506335370242596,-0.23157484081714388
2025/04/11 11:51:18.149504613,1744365078,143773711,piren,-0.026238809262485986,0.025118955456673576,0.004888833567366646,0.009499365463852882,0.009164771996438503,-0.2139718588482765
2025/04/11 11:51:18.202919376,1744365078,193389717,piren,-0.0414911668105105,0.027702056657653885,0.005417990279920559,0.010234111919999123,0.004444452002644539,-0.2079246614036701
2025/04/11 11:51:18.261545616,1744365078,248742627,piren,-0.05146203350461742,0.03364128705998155,0.007757107628725634,0.015404025092720985,0.005846770014613867,-0.20599202146912163
2025/04/11 11:51:18.305056970,1744365078,294422784,piren,-0.05521460702609597,0.03296282682367746,0.006001286828421826,0.009798938408493996,0.0038514218758791685,-0.19000327000739925
2025/04/11 11:51:18.350700788,1744365078,346470742,piren,-0.06485975551215684,0.03441866064094938,0.007583419627735566,0.01172605250030756,0.00029355078004300594,-0.18164578221713332
2025/04/11 11:51:18.409927273,1744365078,400382389,piren,-0.08311305824270217,0.03489735658331483,0.009023159162353522,0.01849413849413395,0.004417798016220331,-0.16820037286895698
2025/04/11 11:51:18.461553632,1744365078,450149591,piren,-0.09591519248272103,0.040914167452683614,0.007429385413166756,0.004072587471455336,0.0014499735552817583,-0.15701477626305083
2025/04/11 11:51:18.503916522,1744365078,496336379,piren,-0.0943712602942696,0.03941054773313226,0.002827011630051857,0.005697553511708975,0.017900772392749786,-0.15108913230413049
2025/04/11 11:51:18.550098462,1744365078,545025480,piren,-0.10783955348599644,0.0387543503940833,0.0027935517346122656,0.009481917135417461,0.00482585933059454,-0.14650217577821337
2025/04/11 11:51:18.599026115,1744365078,593402725,piren,-0.12314415917478524,0.03653593709859706,-0.0039248939241247165,0.01079848874360323,-0.0006250737351365387,-0.12838170382883066
2025/04/11 11:51:18.645728829,1744365078,642926529,piren,-0.12994934470516453,0.04288480952982354,-0.007694760215815676,0.012198055163025856,0.004054793622344732,-0.09174117212192297
2025/04/11 11:51:18.696763767,1744365078,693427449,piren,-0.12912955012218388,0.0417271731324945,-0.010562046490895226,0.00926498044282198,0.015134096145629883,-0.09811531628551438
2025/04/11 11:51:18.745230396,1744365078,742614797,piren,-0.13618762479554788,0.040789852162924946,-0.011583055380407357,0.008718691766262054,0.007354740519076586,-0.07900447147082951
2025/04/11 11:51:18.796845254,1744365078,793930291,piren,-0.14695746795480316,0.041500559010819414,-0.014994857543280202,0.015797056257724762,0.0036690086126327515,-0.07101553264750127
2025/04/11 11:51:18.849967460,1744365078,843710753,piren,-0.14844168067377267,0.04105187432396633,-0.017285152163560722,0.008835221640765667,0.0022937841713428497,-0.05353564260259431
2025/04/11 11:51:18.895262825,1744365078,892326280,piren,-0.1468118669396972,0.042286462931042476,-0.019512051418905683,0.006203973200172186,0.006191990338265896,-0.045728465895911896
2025/04/11 11:51:18.949590945,1744365078,945080448,piren,-0.14946288865039603,0.040923530744657904,-0.023341960024538366,0.004648715723305941,-0.0003743330016732216,-0.037370641122894184
2025/04/11 11:51:19.4864327,1744365078,994556541,piren,-0.15523172651010098,0.043578145655556,-0.022894566559693887,0.018484877422451973,-0.00531195430085063,-0.021794197307429257
2025/04/11 11:51:19.46192496,1744365079,43047546,piren,-0.1576634009757754,0.042017479306014134,-0.02654567640211667,0.012300889939069748,-0.003257759613916278,-0.012882946339078435
2025/04/11 11:51:19.109579782,1744365079,99128762,piren,-0.14935164981707202,0.044235769698934745,-0.028537900583467037,0.013334020040929317,-0.0025170808658003807,-0.00562030054734673
2025/04/11 11:51:19.152591830,1744365079,148088249,piren,-0.146046895136692,0.04788604262830631,-0.027700070046518022,0.00722828134894371,-0.002327295718714595,0.004546716849069888
2025/04/11 11:51:19.206075978,1744365079,200087919,piren,-0.14440074651213308,0.04976534036632074,-0.02760046510502434,0.01244798582047224,0.008196095936000347,0.01862500411967099
2025/04/11 11:51:19.255489984,1744365079,249527740,piren,-0.14084932318251048,0.05734030656221876,-0.0241575467623818,0.007989895530045033,0.001485553104430437,0.03289021738111174
2025/04/11 11:51:19.311583289,1744365079,303724825,piren,-0.13409140996100177,0.05901500787877012,-0.020687673219157432,0.008985629305243492,0.013780447654426098,0.036602207314864015
2025/04/11 11:51:19.351056003,1744365079,347983917,piren,-0.13084833202929075,0.05929542714875424,-0.016547550304869672,0.012031454592943192,0.012406772933900356,0.049343977047419156
2025/04/11 11:51:19.402231211,1744365079,398587141,piren,-0.1297669631062945,0.0677743118518265,-0.009971378221200665,0.010140963830053806,-0.0026719344314187765,0.05848974464120299
2025/04/11 11:51:19.454121165,1744365079,449682374,piren,-0.12528424655670278,0.07276336494869612,-0.0036520528146013467,0.0012129314709454775,0.0026684326585382223,0.07232616830020969
2025/04/11 11:51:19.503090636,1744365079,495651361,piren,-0.11774710178199257,0.07414303766436206,-0.0020714181399455345,0.010068926960229874,0.006499039474874735,0.08449783146416281
2025/04/11 11:51:19.554509840,1744365079,550285697,piren,-0.11080720538375317,0.07659513680591773,0.004548980221971988,0.009135198779404163,0.003300819080322981,0.0944073334398983
2025/04/11 11:51:19.595762671,1744365079,592935044,piren,-0.10842461906606786,0.07935673295542076,0.007294461075468916,0.0055297864601016045,-0.0010837260633707047,0.10680703080548376
2025/04/11 11:51:19.655228670,1744365079,647373367,piren,-0.10402133850564041,0.08047501100554656,0.00987776761560326,0.009709153324365616,0.005913989152759314,0.09729793983116368
2025/04/11 11:51:19.698808266,1744365079,694669055,piren,-0.09441952168999705,0.08293759971456895,0.013660540476189451,0.011459576897323132,0.010456215590238571,0.10844027448585043
2025/04/11 11:51:19.749512738,1744365079,744428950,piren,-0.08695314518531631,0.08513185247702497,0.014156871922835988,0.01069140899926424,0.007772611454129219,0.11727264324030034
2025/04/11 11:51:19.798463391,1744365079,795097838,piren,-0.08216325308480918,0.09142503064285849,0.016963717380207296,0.012628498487174511,0.004266286734491587,0.13624431631585088
2025/04/11 11:51:19.853476204,1744365079,847431330,piren,-0.07835565524183039,0.09103008213460273,0.014378663882769156,0.00543960789218545,-0.0006095521384850144,0.1473247552570017
2025/04/11 11:51:19.902023192,1744365079,897638772,piren,-0.06836530162074722,0.08851159561454554,0.013419676314407521,0.008696934208273888,0.01135664526373148,0.1553263915005256
2025/04/11 11:51:19.952355399,1744365079,944136613,piren,-0.06588930526334023,0.08872316017677806,0.015470386930627451,0.0017671890091151,0.004853822756558657,0.15289598758971967
2025/04/11 11:51:20.4591200,1744365079,993672937,piren,-0.0645365949552115,0.08740200216652741,0.012918774523166117,0.016641797497868538,0.0010586128337308764,0.17170967793770472
2025/04/11 11:51:20.48630323,1744365080,45305974,piren,-0.06159243790345952,0.0842176080150239,0.0142163323031923,0.01196648646146059,0.0025367136113345623,0.16836547063488905
2025/04/11 11:51:20.108919060,1744365080,96809131,piren,-0.053848106479472316,0.082847907494579,0.012053827407112291,0.011865878477692604,0.0034649355802685022,0.180488820998426
2025/04/11 11:51:20.149436633,1744365080,145826933,piren,-0.048485882903810285,0.08100857537301638,0.01280483217632877,0.013089566491544247,0.003407636657357216,0.1865573869003759
2025/04/11 11:51:20.205865671,1744365080,196629729,piren,-0.045580852953889896,0.07901238358499543,0.01045595089551625,0.009825610555708408,0.014529786072671413,0.1859264513435081
2025/04/11 11:51:20.248575160,1744365080,243897864,piren,-0.046079072458610405,0.07570289631166818,0.011873163456971267,0.01648688316345215,0.0008879850502125919,0.1935021151036358
2025/04/11 11:51:20.307103817,1744365080,302614479,piren,-0.044941942765331054,0.06872981427441122,0.007969429803853243,0.005855731666088104,0.0016426205402240157,0.1931167482283713
2025/04/11 11:51:20.349676677,1744365080,343937986,piren,-0.04073160140756042,0.066966467212842,0.005168828136396539,0.00967055931687355,0.005859023425728083,0.1878770522265891
2025/04/11 11:51:20.398996597,1744365080,395164138,piren,-0.039250654383909,0.06455582129892722,0.0039154630108214385,0.008387016132473946,0.0006828662008047104,0.2101732585471796
2025/04/11 11:51:20.450597871,1744365080,446637777,piren,-0.039469462825286405,0.06206395000790511,0.001028935298643317,0.013835444115102291,0.006105929613113403,0.21003100947291542
2025/04/11 11:51:20.507651234,1744365080,500796847,piren,-0.037084926299007726,0.06010254043521857,-0.000772441777286305,0.010725311934947968,-0.00023712350230198354,0.19598549534389317
2025/04/11 11:51:20.553351892,1744365080,549822856,piren,-0.033011665909452835,0.05823197965582952,-0.0014337132049661264,0.011073031462728977,0.010653981938958168,0.19232987704503077
2025/04/11 11:51:20.605578640,1744365080,596995249,piren,-0.03023879083427798,0.05716269218009987,0.0029085118480736563,0.01277995016425848,0.005711014848202467,0.20476444629424692
2025/04/11 11:51:20.650754825,1744365080,647384447,piren,-0.030540335607406606,0.05207865745178426,0.004608257411837255,0.014163607731461525,0.010031725279986858,0.20985822140346597
2025/04/11 11:51:20.698997636,1744365080,695664395,piren,-0.02341519709141264,0.052321371052130444,0.007391020436864435,0.008671068586409092,0.008067326620221138,0.19452759600784492
2025/04/11 11:51:20.747752092,1744365080,744378330,piren,-0.021237615325594535,0.051248838334322526,0.00689438686964081,0.0131621602922678,0.0012827423634007573,0.22172017841838004
2025/04/11 11:51:20.798874866,1744365080,795494096,piren,-0.022027452818770117,0.05212434647637568,0.006498828886140015,0.007033034227788448,-0.002250202465802431,0.21333082229315228
2025/04/11 11:51:20.848918247,1744365080,845957567,piren,-0.02182637595878984,0.04793799344533912,0.005628863503977752,0.004580891225486994,3.0693008739035577e-05,0.21374230048304524
2025/04/11 11:51:20.907515665,1744365080,901713625,piren,-0.0258300826028744,0.04075964204967025,0.0038645199085522086,0.009117618203163147,0.0008687314693816006,0.2103509431214766
2025/04/11 11:51:20.952761223,1744365080,946149257,piren,-0.026815096235532083,0.03761110894920424,0.0025988822518684153,0.005735441111028194,0.0006758383824490011,0.13662992589956455
2025/04/11 11:51:20.996728930,1744365080,994021588,piren,-0.02949292509963468,0.03702581091292817,0.0034185970417070144,0.007737476844340563,0.000521417532581836,0.20967766225633416
2025/04/11 11:51:21.49253051,1744365081,45819894,piren,-0.02883031325686713,0.033555108927066646,0.002998505253646042,0.01640339009463787,0.010765047743916512,0.21569724313762326
2025/04/11 11:51:21.104567556,1744365081,99845127,piren,-0.03272969399786232,0.03178105501974645,0.002083655240340929,0.009642045944929123,0.009312679059803486,0.20991339944196286
2025/04/11 11:51:21.152867583,1744365081,148864142,piren,-0.031925123376299755,0.036799670293658014,0.003067665823965624,0.013867373578250408,0.01026386022567749,0.22537319152118895
2025/04/11 11:51:21.207376090,1744365081,198824869,piren,-0.03682134912692161,0.03707159576679263,0.0031263738573215935,0.006948098074644804,0.010385981760919094,0.21089694277046542
2025/04/11 11:51:21.254749665,1744365081,246919939,piren,-0.04520387454344925,0.03544593090955462,0.002161947132839257,0.010502244345843792,0.004876409657299519,0.19942846752033602
2025/04/11 11:51:21.299445144,1744365081,294427728,piren,-0.04610476452721739,0.03920733004197249,0.005128932206451961,0.010709164664149284,-0.0027576375287026167,0.17772328072168048
2025/04/11 11:51:21.350893730,1744365081,346432915,piren,-0.049332180637384204,0.03926106634826286,0.0023422558231800364,0.0068831234239041805,0.002311862539499998,0.18563412750607228
2025/04/11 11:51:21.402028381,1744365081,395563639,piren,-0.05403243090677277,0.038394714383866844,0.0014178041105708387,0.01383282896131277,0.0011139212874695659,0.19794435220579812
2025/04/11 11:51:21.452151880,1744365081,448699523,piren,-0.06083116284135028,0.032836213554765015,-0.002887212311679835,0.008416179567575455,-0.0012530669337138534,0.1910871214426712
2025/04/11 11:51:21.498480398,1744365081,495566087,piren,-0.06248014782386233,0.03504709814933452,-0.0033653161843801654,0.006625788751989603,-0.0003275712952017784,0.20531493062604617
2025/04/11 11:51:21.551017683,1744365081,546114313,piren,-0.06301479611963712,0.03445857221031478,-0.004880554980559284,0.0055913906544446945,0.009564277715981007,0.22784493781524698
2025/04/11 11:51:21.602371637,1744365081,597911838,piren,-0.06754269844727785,0.033813730783003884,-0.006658647045634327,0.014676101505756378,0.007787078619003296,0.2037228607501903
2025/04/11 11:51:21.656177718,1744365081,651061288,piren,-0.06899244608387105,0.03428793033963306,-0.004544710735740412,0.011982453055679798,0.003882898483425379,0.20298244492642828
2025/04/11 11:51:21.700141077,1744365081,696497684,piren,-0.07055666388657753,0.03643528296688604,-0.00093514583095953,0.007309301756322384,0.004538014065474272,0.18687944100267626
2025/04/11 11:51:21.758659892,1744365081,751303870,piren,-0.07470178314758866,0.03319511704157779,-0.0031164379509959895,0.011556501500308514,0.004160594195127487,0.19338124732213205
2025/04/11 11:51:21.803261303,1744365081,800037700,piren,-0.07643937854536487,0.03398523100840979,-0.00010643664476220034,0.011703004129230976,0.00024849918554537,0.1566479940988445
2025/04/11 11:51:21.851832129,1744365081,846993125,piren,-0.07785246135510986,0.03259298664142993,-0.003007391083770019,0.017601683735847473,-0.0005292639252729714,0.197651354781678
2025/04/11 11:51:21.901321566,1744365081,896358786,piren,-0.08509115340884817,0.030713334719075686,-0.004037365570775366,0.009365391917526722,0.00408528558909893,0.16443634485999395
2025/04/11 11:51:21.949585507,1744365081,943880417,piren,-0.08478281323439203,0.027704175840881404,-0.0043549022835691195,0.014564304612576962,0.007431801408529282,0.1980291876055396
2025/04/11 11:51:22.8426466,1744365082,523757,piren,-0.08649456284681489,0.029187637800532726,-0.0036925790297686963,0.009178338572382927,0.01052810437977314,0.16771747682294663
2025/04/11 11:51:22.57258523,1744365082,49734933,piren,-0.09128691955727389,0.026617092380911388,-0.004255209980607334,0.009147945791482925,0.008824455551803112,0.19046014444557033
2025/04/11 11:51:22.97963391,1744365082,94954693,piren,-0.09709851263271502,0.025390896034696242,-0.0031112355091750046,0.004887926392257214,0.0007823587511666119,0.19780594872219825
2025/04/11 11:51:22.165413203,1744365082,151245425,piren,-0.09766245367804913,0.025505371960753153,-0.001603690453111996,0.01830635964870453,0.0071060494519770145,0.15968218676090262
2025/04/11 11:51:22.210630277,1744365082,202616698,piren,-0.09763687689840025,0.02303812863756325,-0.0015554675686871647,0.012493681162595749,0.01043444313108921,0.16441094366011455
2025/04/11 11:51:22.253176496,1744365082,246536256,piren,-0.10549186535117769,0.01850537679965787,-0.0011486271399689953,0.005922955926507711,0.007495581172406673,0.16133590805673395
2025/04/11 11:51:22.299321684,1744365082,296378634,piren,-0.10387463096387818,0.015569847317056022,1.2967340978774309e-05,0.002311982214450836,0.008422543294727802,0.18456037233111913
2025/04/11 11:51:22.357439199,1744365082,348068852,piren,-0.09849839888568111,0.01566990611136139,-0.0017901087543179994,0.00969668384641409,0.011016704142093658,0.19078736995125456
2025/04/11 11:51:22.399727536,1744365082,396114852,piren,-0.10203484591309005,0.011801250447206306,0.0006181267740714689,0.00857264082878828,0.002877426566556096,0.23549100943590673
2025/04/11 11:51:22.454703505,1744365082,449797286,piren,-0.09598972801129546,0.0081268374318825,0.0037388224098322083,0.012661880813539028,0.003352220170199871,0.21883218133379095
2025/04/11 11:51:22.507515388,1744365082,503877869,piren,-0.08856718007398283,0.007279359967105897,0.004765414631953034,0.01634552702307701,0.006673681084066629,0.22221926987174873
2025/04/11 11:51:22.556078039,1744365082,552593557,piren,-0.084680044765264,0.006537111561920078,0.006219014197279192,0.008184036239981651,0.005459444131702185,0.2362859532182514
2025/04/11 11:51:22.597921101,1744365082,594835988,piren,-0.08967765273348502,7.635782021684929e-05,0.0018065276775132578,0.008163515478372574,0.008559243753552437,0.22626999681952348
2025/04/11 11:51:22.648115444,1744365082,644021569,piren,-0.09292803394357631,-0.0025649724844697126,-2.471402524414825e-07,0.015779908746480942,-8.589264325564727e-05,0.25179607706582924
2025/04/11 11:51:22.708505427,1744365082,700934842,piren,-0.09210640136295749,-0.006074326994166717,-0.0024268366890851222,0.01244328636676073,0.00792715698480606,0.20671071860211715
2025/04/11 11:51:22.750374097,1744365082,746616979,piren,-0.09012183162446942,-0.005604802496418365,-0.0006205535074684588,0.006220225710421801,0.009094735607504845,0.26667383635923925
2025/04/11 11:51:22.797157307,1744365082,793750805,piren,-0.08921670005868233,-0.00799541686883453,-0.0005962236994037096,0.01056244969367981,0.01132369413971901,0.24900637092307815
2025/04/11 11:51:22.852512176,1744365082,847424859,piren,-0.09104431912596735,-0.014681040080904442,-0.0030644790121698417,0.02002563700079918,0.006900868844240904,0.2543729659367061
2025/04/11 11:51:22.906224558,1744365082,901175387,piren,-0.08591858401007355,-0.01652569819871127,-0.003563942180750247,0.003163184504956007,0.003803164465352893,0.26454208903696075
2025/04/11 11:51:22.957196616,1744365082,949873439,piren,-0.07928357522548592,-0.015835151895953404,-0.0019848225747068696,0.0039491308853030205,0.006915602367371321,0.2317267869755328
2025/04/11 11:51:23.2259620,1744365082,999321156,piren,-0.07945270382083433,-0.01823711224333232,0.0005402279721579348,0.014587233774363995,0.006515937391668558,0.2644810644705259
2025/04/11 11:51:23.55485218,1744365083,47215763,piren,-0.07684482896224833,-0.021726217877039686,-0.0002055256106871197,0.011605060659348965,0.006021073088049889,0.2658574057697009
2025/04/11 11:51:23.99202938,1744365083,96176705,piren,-0.07492507058682346,-0.02540876564144122,-0.0012003051611714013,0.006072535179555416,-0.001271453802473843,0.2717745438382235
2025/04/11 11:51:23.155241333,1744365083,151393192,piren,-0.06903110495095457,-0.025046767182538985,-0.0012371956980189239,0.015378718264400959,0.004006087779998779,0.2791107411143119
2025/04/11 11:51:23.203683903,1744365083,198841479,piren,-0.06628142934882814,-0.028643890068451524,-0.0020113617344975424,0.008441466838121414,0.007733051665127277,0.2572719532409752
2025/04/11 11:51:23.255621045,1744365083,249082712,piren,-0.0627479298241951,-0.03238043347664637,-0.0035716930953526584,0.003857068717479706,-0.004637664649635553,0.22761477880516628
2025/04/11 11:51:23.308578975,1744365083,299275731,piren,-0.06032823777297833,-0.03260240015006269,-0.003572196700559972,0.004407062660902739,0.005861710757017136,0.243048378505305
2025/04/11 11:51:23.362085800,1744365083,351343199,piren,-0.05963301801950817,-0.03275047325932968,-0.0027420206857016196,0.006429789122194052,0.0018329706508666277,0.2993247175964555
2025/04/11 11:51:23.408140658,1744365083,402479700,piren,-0.05637672783625473,-0.035870417670230324,-0.003095319718090651,0.0176022257655859,-0.004102081526070833,0.23647493489888513
2025/04/11 11:51:23.447054136,1744365083,443714733,piren,-0.056980595571917515,-0.03951919635655935,-0.009893093491967875,0.007420703768730164,-0.005029998254030943,0.27563007942128376
2025/04/11 11:51:23.503882262,1744365083,497311084,piren,-0.05666255067631024,-0.042556196458826835,-0.016057023298264993,0.014153940603137016,0.009850296191871166,0.3094692551995905
2025/04/11 11:51:23.556266521,1744365083,552228719,piren,-0.047262100427428747,-0.04177145094581641,-0.019099147287653294,0.013269215822219849,0.007885520346462727,0.2567174764908494
2025/04/11 11:51:23.601564800,1744365083,598714426,piren,-0.042164617877824606,-0.04259318129534216,-0.018127947854890178,0.004343806300312281,-0.0006891796947456896,0.318532335862468
2025/04/11 11:51:23.658820657,1744365083,655207460,piren,-0.04383950058572733,-0.04810848691686254,-0.01892145464291843,0.011270812712609768,0.0063943155109882355,0.28041026887579645
2025/04/11 11:51:23.705743314,1744365083,702162618,piren,-0.03961664095436387,-0.046934427543419525,-0.015871148922514063,0.011793600395321846,-0.0024552165996283293,0.3282927274687544
2025/04/11 11:51:23.749796886,1744365083,747163933,piren,-0.03212898529225182,-0.04852284508706355,-0.01582004747127712,0.007364713121205568,0.0059457020834088326,0.30761459410323344
2025/04/11 11:51:23.801732733,1744365083,798406046,piren,-0.032391666047533324,-0.04500356761782307,-0.010782686402262695,0.01036372035741806,0.0073983510956168175,0.31749981830663493
2025/04/11 11:51:23.860611987,1744365083,857477971,piren,-0.021643663954887378,-0.060456291980517496,-0.010921523231689887,0.017036546021699905,0.010728714056313038,0.31825443925583063
2025/04/11 11:51:23.899315336,1744365083,896095211,piren,-0.008991593649011484,-0.060057790663267885,-0.007583354545533891,0.009530941024422646,-0.006626977119594812,0.1823155365640645
2025/04/11 11:51:23.949951617,1744365083,945955743,piren,-0.0024352652355218753,-0.05392387912288534,-0.002536233289282561,0.01212772075086832,0.004278525710105896,0.2881541974831473
2025/04/11 11:51:24.1671757,1744365083,998585912,piren,0.01500835696945163,-0.048355894927408306,0.0030074206957635867,0.007377583999186754,0.012905891053378582,0.2906786189104106
2025/04/11 11:51:24.50138847,1744365084,47243446,piren,-0.00014099458499000454,-0.06729920797515654,-0.0014001766273224782,0.018292628228664398,-0.0037636433262377977,0.27886771135721133
2025/04/11 11:51:24.102201991,1744365084,96801186,piren,-0.007348807790458487,-0.0776859869842155,-0.004377971730593797,0.010558849200606346,0.002153784269466996,0.273582371154494
2025/04/11 11:51:24.150470383,1744365084,147205418,piren,0.01944871230882658,-0.06953572757356591,-0.0003531614710823288,0.014844942837953568,0.005623686593025923,0.2584045065230313
2025/04/11 11:51:24.213534748,1744365084,208504040,piren,0.03859384918582695,-0.05564047322168329,0.0064375084735957,0.016222089529037476,0.008499892428517342,0.27552571290323347
2025/04/11 11:51:24.258265887,1744365084,250514471,piren,0.032986978722851786,-0.061445503521645094,0.007247420977216735,0.01604975387454033,-0.0009735010680742562,0.24088814365582614
2025/04/11 11:51:24.321351747,1744365084,305189787,piren,0.04019857858463642,-0.06909881206065614,0.0042612446386613104,0.011464198119938374,0.0034656617790460587,0.20192219289428243
2025/04/11 11:51:24.362092097,1744365084,353878255,piren,0.03812089716554969,-0.07092755448229576,0.00452761567152038,0.012570696882903576,-0.0006078300066292286,0.27441806322926965
2025/04/11 11:51:24.401607846,1744365084,397615039,piren,0.041739080877005154,-0.06505197706155735,0.005078505832210567,0.011271093040704727,0.006885197013616562,0.2021486633183349
2025/04/11 11:51:24.450467392,1744365084,446649683,piren,0.057565015782825,-0.06416898961069814,0.001941171580978107,0.010697059333324432,0.003841606667265296,0.25560592937190896
2025/04/11 11:51:24.511082358,1744365084,502828963,piren,0.047616736858344715,-0.07591810520498252,-0.0023246910182649566,0.011262872256338596,-0.001526624895632267,0.2015320756851672
2025/04/11 11:51:24.558613699,1744365084,555380094,piren,0.04030861327439657,-0.07608148033359607,-0.003234301279866258,0.00292880623601377,0.0013493327423930168,0.1398426239614924
2025/04/11 11:51:24.614333001,1744365084,604901439,piren,0.04556102937194742,-0.07493847295663722,-0.0007512276754312094,0.013521828688681126,0.002970534609630704,0.16275953120097547
2025/04/11 11:51:24.660865274,1744365084,653208068,piren,0.0549039912707031,-0.07797027490087198,-0.002851431208017629,0.021655894815921783,0.004144706297665834,0.14088876139465
2025/04/11 11:51:24.699382628,1744365084,694245659,piren,0.051621449873732725,-0.08925641985169927,-0.0044813226332564675,0.0031805946491658688,0.005167732480913401,0.11271578646856525
2025/04/11 11:51:24.755321410,1744365084,748693588,piren,0.037543400905724465,-0.09461482522146974,-0.00416958226405768,0.01830199360847473,0.0005155766266398132,0.11347033847918747
2025/04/11 11:51:24.803143734,1744365084,799110469,piren,0.042258752960174256,-0.0889491258809357,-0.0014064682074490516,0.012574708089232445,0.013635370880365372,0.09812297869540705
2025/04/11 11:51:24.850375287,1744365084,847027202,piren,0.04759444139563134,-0.08752517310585967,-0.0012618424635775223,0.012769648805260658,0.012266178615391254,0.08035983547263832
2025/04/11 11:51:24.917310665,1744365084,907304591,piren,0.03877693755293881,-0.0953459121210471,-0.0021668897431709406,0.011158172972500324,0.0015171654522418976,0.07257428551564803
2025/04/11 11:51:24.954818180,1744365084,948626106,piren,0.02561303671582214,-0.10567239309602877,-0.000929314351117227,0.00469430023804307,0.0029432433657348156,0.05548276618843598
2025/04/11 11:51:25.6597134,1744365084,999754322,piren,0.031125940606307315,-0.0998183588531901,-0.0005446502978827534,0.011138145811855793,0.0011236785212531686,0.04066179278950013
2025/04/11 11:51:25.59266227,1744365085,52327980,piren,0.032848727129703596,-0.09126476380424714,0.0007815102163533541,0.007524312939494848,0.005993624217808247,0.02754202776469219
2025/04/11 11:51:25.107259520,1744365085,97584606,piren,0.01750823270417646,-0.09366940233903728,0.0038944947822074027,0.012609285302460194,-0.007060889154672623,0.015459842305650744
2025/04/11 11:51:25.154272109,1744365085,150971600,piren,0.011969642031454038,-0.09576256653708692,0.003221646746862916,0.011530482210218906,-0.0015911553055047989,0.004456143697689987
2025/04/11 11:51:25.211255109,1744365085,202358998,piren,0.018653314631205883,-0.09434918364149776,0.0022681190106823125,0.011555502191185951,-0.002874776255339384,-0.01175106180647771
2025/04/11 11:51:25.265271159,1744365085,250456105,piren,0.016954463028446352,-0.08885881067999431,0.004866754226225112,0.012006196193397045,0.008646467700600624,-0.023237389008111904
2025/04/11 11:51:25.315713187,1744365085,307003771,piren,0.004239832718462877,-0.08487563836370096,0.005547022243729316,0.007236337289214134,0.003258493496105075,-0.0361918385646102
2025/04/11 11:51:25.353373890,1744365085,349702677,piren,-0.0005046405201937334,-0.08743571719660391,0.005421204544899183,0.009604505263268948,0.0034954766742885113,-0.050713936417756816
2025/04/11 11:51:25.399135668,1744365085,395564518,piren,-0.0023258584931908797,-0.08684644625336656,0.003154035268357802,0.017922746017575264,-0.00660568056628108,-0.05763527749850729
2025/04/11 11:51:25.459433093,1744365085,455482431,piren,-0.001166754369705758,-0.08567783446578683,0.0027624940609200623,0.003378269262611866,0.007789478171616793,-0.07630351107956819
2025/04/11 11:51:25.497804840,1744365085,494889249,piren,-0.006488157036733299,-0.07974943303997857,0.0020352002944889593,0.007064990233629942,0.000551479053683579,-0.08834740530898794
2025/04/11 11:51:25.558467764,1744365085,551406211,piren,-0.00675473759715709,-0.07091088925571963,0.006576634509019641,0.010636338964104652,0.0071123926900327206,-0.08833657663712344
2025/04/11 11:51:25.613285751,1744365085,600042604,piren,-0.0077337986510200955,-0.06518782198272671,0.005644495278676232,0.008406031876802444,0.0037980051711201668,-0.13527232782172532
2025/04/11 11:51:25.652244819,1744365085,648722510,piren,-0.008138563117017782,-0.06629646086803401,0.0043653768311173735,0.01791420951485634,0.010563547722995281,-0.1023705396865659
2025/04/11 11:51:25.709332396,1744365085,704103002,piren,-0.006745302619015036,-0.063719474221034,0.007092347084915218,0.005397768225520849,-0.00029795418959110975,-0.14290231858462102
2025/04/11 11:51:25.750218155,1744365085,747347937,piren,-0.0015014793466661455,-0.05863678239893484,0.007735057527457911,0.0029608027543872595,-0.0021702637895941734,-0.12801121714507213
