time,header_stamp_secs,header_stamp_nsecs,header_frame_id,twist_linear_x,twist_linear_y,twist_linear_z,twist_angular_x,twist_angular_y,twist_angular_z
2025/04/11 11:51:09.595004392,1744365069,591296340,piren,-0.0016723048314609208,-0.002596893665461559,0.001058784700633095,0.016088023781776428,0.010065369307994843,0.0021184591347106494
2025/04/11 11:51:09.655611710,1744365069,641666159,piren,-0.000951432791955339,-0.004575688802049172,-4.162620060707386e-05,0.01312081329524517,0.006438122596591711,0.0045531504488862656
2025/04/11 11:51:09.698921223,1744365069,693901428,piren,-0.005515695607469645,-0.0013995228715784356,0.0015208961569314573,0.012177294120192528,0.005618299823254347,0.004647382965675633
2025/04/11 11:51:09.744761428,1744365069,741805785,piren,-0.00336767813150917,0.001589834359056863,-0.0004932280821378335,0.013771447353065014,0.00528655294328928,0.00593757925456758
2025/04/11 11:51:09.796762754,1744365069,791131044,piren,0.0028577334099949177,-0.000889043638488065,-0.001394404524911322,0.01023928727954626,0.014631102792918682,-0.0011470090976404728
2025/04/11 11:51:09.845642406,1744365069,841302366,piren,-0.002211633781332419,-0.002737413645561743,-0.0022423153512809778,0.012547394260764122,0.005143740680068731,0.007978434340809245
2025/04/11 11:51:09.899541816,1744365069,891440122,piren,-0.0017900220409507175,-0.0014938108218450253,-0.00039788896028012733,0.012210017070174217,0.001983062131330371,0.0011232667080354364
2025/04/11 11:51:09.946292172,1744365069,941841833,piren,-0.00027517891772089824,0.0020211071216836465,-0.0005360017225760434,0.019107019528746605,-0.003155254293233156,0.006973287944773187
2025/04/11 11:51:09.997862758,1744365069,993105848,piren,0.0019260777707492405,0.0024313466236895115,0.000615874136946048,0.00613319082185626,-0.00039368573925457895,0.0011084188515173257
2025/04/11 11:51:10.49498499,1744365070,41903668,piren,-0.0032637832826505862,-0.0012016251082927133,-0.0027397656350805497,0.012462369166314602,0.0041783712804317474,0.007259941946736283
2025/04/11 11:51:10.94091792,1744365070,91685977,piren,-0.005411271562618017,-0.0020013399725108427,-0.00029609768376358015,0.01504938118159771,-0.003422784386202693,0.0
2025/04/11 11:51:10.149647568,1744365070,143714879,piren,-0.002222419530662733,0.00037348407881635296,-0.0011892605940473449,0.0032734216656535864,0.006415721960365772,0.0034304385243224345
2025/04/11 11:51:10.303155190,1744365070,202366066,piren,0.0016785946753558837,0.0006710133076825189,-0.0005366081309310419,0.012844673357903957,0.007752785924822092,0.0013445077714014334
2025/04/11 11:51:10.380996638,1744365070,241620094,piren,-0.000579562802595066,-0.0001943631763921189,-0.0021292625640753926,0.011330824345350266,-0.0009144353098236024,0.005203242208373747
2025/04/11 11:51:10.386465522,1744365070,294810723,piren,-0.0016085964676337196,-0.003316895873527493,-0.0024354959571902695,0.008397098630666733,-0.002743951277807355,0.01043838794090198
2025/04/11 11:51:10.392252815,1744365070,342023373,piren,0.0015134140632971445,-0.00302829578057859,-0.003324565690419971,0.012582269497215748,0.01338893361389637,0.004893752126989906
2025/04/11 11:51:10.402883003,1744365070,397062121,piren,0.004194188880256777,-0.002539519463927538,-0.00353056027255635,0.008435122668743134,0.00012267334386706352,0.008029566931070214
2025/04/11 11:51:10.449405390,1744365070,442164440,piren,0.002288552369799726,-0.0060492283194564555,-0.004684660001403559,0.01409623771905899,0.0029090496245771646,0.007665865355890465
2025/04/11 11:51:10.500248736,1744365070,493842027,piren,-0.005382990771188375,-0.009659845034943534,-0.008835591066859176,0.016217553988099098,-0.0006329527823254466,0.003359130653870023
2025/04/11 11:51:10.560747501,1744365070,548200774,piren,-0.003946945615327108,-0.009377389316801573,-0.00747433549202951,0.006520462688058615,0.008596060797572136,0.007853948998496781
2025/04/11 11:51:10.608174709,1744365070,593772650,piren,0.0014886890573113877,-0.004375357753922525,-0.005623474622258969,0.021173052489757538,0.0020974306389689445,0.009139127918795512
2025/04/11 11:51:10.648379900,1744365070,643149615,piren,-0.0005240331503735816,-0.0008673905267517249,-0.0038036388895331757,0.0073336269706487656,0.004014346282929182,0.0
2025/04/11 11:51:10.701771299,1744365070,695090019,piren,-0.007957542030725254,-0.00437571275111031,-0.0028427602587134137,0.015359366312623024,-0.0012144494103267789,0.006267859007041337
2025/04/11 11:51:10.745158990,1744365070,742204619,piren,-0.006299690511206226,-0.0045690994417297735,-0.0035924474176158103,0.011922737583518028,-0.0010812774999067187,0.0026455761417295194
2025/04/11 11:51:10.794837369,1744365070,791733995,piren,-0.004131109188838638,-0.00074059139809135,0.0019212008168290513,0.013726526871323586,0.006727549247443676,0.00818632025060211
2025/04/11 11:51:10.852025991,1744365070,842939560,piren,-0.005464991817483466,-0.0006047301432374426,0.0022362070141848586,0.01638863980770111,0.008503762073814869,0.002186250586241986
2025/04/11 11:51:10.903721563,1744365070,891820853,piren,-0.0075713674351012405,-0.00312554600843741,-0.0005404197710858377,0.009579485282301903,0.0071068559773266315,0.004448155957375803
2025/04/11 11:51:10.944897852,1744365070,941812636,piren,-0.006286662914698994,-0.0034373689373148335,0.0006611473191266252,0.009782967157661915,0.004806817509233952,0.0023820644820334268
2025/04/11 11:51:10.999474467,1744365070,991710057,piren,-0.0014001524907274448,0.0017593459998448352,-0.0007715615034457646,0.002658799523487687,-0.004797098692506552,0.003334951768941947
2025/04/11 11:51:11.48427551,1744365071,41533367,piren,0.0004609862023316593,0.002175479242783446,0.0026992639432506698,0.006471610628068447,-0.0022151402663439512,0.004697107130547395
2025/04/11 11:51:11.97195674,1744365071,91672764,piren,-0.0065733109675695746,0.0036657059707729074,0.001900806579460806,0.008826296776533127,-0.0026058421935886145,-0.0011201214100054141
2025/04/11 11:51:11.146577239,1744365071,141837307,piren,-0.002351947778437124,-0.0013212773735744125,-0.0019278015219035408,0.009780727326869965,0.002152790082618594,0.0022931199470523807
2025/04/11 11:51:11.202441875,1744365071,192600427,piren,-0.0013945547097315696,0.003416232058180091,0.001307469359032175,0.010011374950408936,0.007039520889520645,-0.007958978976256085
2025/04/11 11:51:11.248703746,1744365071,241959289,piren,0.015227923394316563,0.009070432624167513,0.0037707305477398256,0.0153836440294981,0.0018638708861544728,0.003469677603107897
2025/04/11 11:51:11.297725458,1744365071,292765326,piren,-0.002097104018321491,0.009069279267078843,0.006730998868595601,0.011620059609413147,0.0028684616554528475,0.0011567053996791416
2025/04/11 11:51:11.346098009,1744365071,341521967,piren,-0.014840838283178085,0.007082852520230725,0.002731473268528842,0.008478695526719093,-0.004243971314281225,-0.003228134878049682
2025/04/11 11:51:11.395385056,1744365071,391510735,piren,0.014275978929758867,0.004134772928056387,-7.765841617192732e-05,0.010507545433938503,0.0005270682158879936,0.0
2025/04/11 11:51:11.445269839,1744365071,441971124,piren,-0.00437302757906842,0.005134273782073755,0.0023623755341548166,0.015414026565849781,-0.0022962098009884357,0.0
2025/04/11 11:51:11.499689953,1744365071,491600677,piren,-0.007802817520567806,0.007997595285998244,0.0023302018654031225,0.005151616875082254,0.005843178369104862,-0.0034729148568613056
2025/04/11 11:51:11.545824234,1744365071,542006646,piren,0.011055805692243258,0.008299920357644631,0.003050392286722052,0.005787544883787632,0.005396046210080385,-0.002388593347898741
2025/04/11 11:51:11.597753211,1744365071,592782474,piren,-0.002314920058574403,0.0014660835620567577,0.0013274491253060447,0.005875529255717993,0.0018113245023414493,-0.001101016944856369
2025/04/11 11:51:11.650619671,1744365071,642622297,piren,-0.00845709550638375,0.0019091360479789482,-0.00019249244342588732,0.010522430762648582,-0.0015203695511445403,-0.008115017616425524
2025/04/11 11:51:11.696400509,1744365071,691819806,piren,0.005364888429603879,0.004020967740844325,-0.0003734869411705713,0.007934735156595707,0.009318197146058083,0.00227746055531874
2025/04/11 11:51:11.750188862,1744365071,741902118,piren,-0.007157753526593507,0.0036431515505805324,-0.0004436409550133612,0.012236524373292923,-0.0005848029977642,-0.003518484449572187
2025/04/11 11:51:11.797866278,1744365071,792671806,piren,-0.008644169818568323,1.6089241376580142e-05,-0.001005024229969927,0.008271344937384129,0.003465882269665599,-0.003409137737132913
2025/04/11 11:51:11.853688593,1744365071,842872056,piren,0.007251822344540395,0.003502112717472386,-3.0251474898359605e-05,0.008776834234595299,0.003295643487945199,-0.005553108994400723
2025/04/11 11:51:11.897376177,1744365071,892471609,piren,0.002224772513388395,0.009420479349691004,0.001613878200174884,0.005658258218318224,0.014593848958611488,-0.0055661137357310006
2025/04/11 11:51:11.949706272,1744365071,942591771,piren,0.003772688526243295,0.008447443833785834,-0.0001820974707592833,0.016081620007753372,0.0020445554982870817,-0.0034890812940056547
2025/04/11 11:51:12.6183045,1744365071,992737561,piren,-0.0016944916327990408,0.004783032091085614,0.0006083412071430149,0.005304513033479452,0.004481432493776083,-0.004639724588715771
2025/04/11 11:51:12.49393360,1744365072,41828202,piren,0.002574573546052903,0.0032737205316100367,0.002247486768368989,0.013369733467698097,0.008202939294278622,-0.004504956361147221
2025/04/11 11:51:12.97386088,1744365072,91825381,piren,0.004125961412553467,0.0063642321082486505,0.004411796651343582,0.014047298580408096,0.008690266869962215,0.0
2025/04/11 11:51:12.145380288,1744365072,141424162,piren,-0.0003141177480901656,0.003278522461434253,0.0025482732807669247,0.0022194618359208107,0.002750418847426772,-0.005695246050098059
2025/04/11 11:51:12.197984069,1744365072,193650015,piren,0.0018945691189122746,0.0026469407294456735,0.0024697785320245648,0.010036641731858253,0.005850713700056076,-0.0023086320801560586
2025/04/11 11:51:12.249283397,1744365072,242030347,piren,-0.0014060503811810614,-0.0025509592247170434,-0.000436305223969037,0.019852077588438988,0.008839720860123634,-0.004609704645917562
2025/04/11 11:51:12.302904381,1744365072,291701839,piren,-0.00017164862949942036,-0.001450257916615677,0.001388441899154304,0.00795385055243969,0.004676980432122946,-0.0023010125928750445
2025/04/11 11:51:12.345124695,1744365072,341831123,piren,0.003640646787867406,0.0032280728533385793,-0.00030021649073689834,0.010472065769135952,0.005860417149960995,-0.010143954974920984
2025/04/11 11:51:12.398175442,1744365072,391319883,piren,-0.0018018719083601903,0.003599583030720882,-5.869462576491493e-05,0.00935429334640503,0.0014421252999454737,0.005306359609555726
2025/04/11 11:51:12.443936495,1744365072,441215588,piren,0.0005124662787479128,0.0013905476652382393,0.002462462691057425,0.013608305715024471,0.006947814486920834,-0.0023202667077530984
2025/04/11 11:51:12.498948154,1744365072,492251923,piren,0.0019800013178511333,0.0005486780951513343,0.005923733002959239,0.011750372126698494,0.010404289700090885,-0.0023569089853220514
2025/04/11 11:51:12.547771277,1744365072,541660909,piren,-0.0035822929861909786,0.0029157310702728157,0.01101933503398779,0.015308110043406487,0.011206028051674366,-0.001145053489379078
2025/04/11 11:51:12.598431175,1744365072,591862683,piren,0.00424268508296503,0.0065416039562084015,0.009481173755864452,0.009880267083644867,0.012535186484456062,-0.0023249460762369786
2025/04/11 11:51:12.645266754,1744365072,641189020,piren,-0.0027527020616943936,0.004049604876758447,0.007033310843712393,0.010592411272227764,-0.006552305072546005,-0.004550320251718304
2025/04/11 11:51:12.697874143,1744365072,692678878,piren,-0.0017130703738413274,0.0025305294005189966,0.00585937266272153,0.01205134205520153,0.011702247895300388,-0.00231417869407481
2025/04/11 11:51:12.747270439,1744365072,741527083,piren,0.004282231098414127,0.004975293408298033,0.007010634662924701,0.013146926648914814,0.003246692009270191,-0.0034081325287656033
2025/04/11 11:51:12.796015728,1744365072,791719572,piren,0.002766919916825227,0.0057054084887494146,0.008118574419996779,0.009718193672597408,-0.001956065883859992,-0.0022730760636389953
2025/04/11 11:51:12.850671700,1744365072,841059809,piren,0.002602684931906923,0.0038979375228149144,0.0072168674077962205,0.007469910196959972,0.006419174838811159,-0.007079958860338204
2025/04/11 11:51:12.899258093,1744365072,891063531,piren,0.004331758779531991,0.005151372717719817,0.006054484087227175,0.01282901968806982,0.009116334840655327,-0.0022655839137629653
2025/04/11 11:51:12.947843439,1744365072,942639676,piren,0.0022266793380618446,0.002382708050081206,0.0037195360033930557,0.020212696865200996,0.00014420851948671043,0.0023277923756535247
2025/04/11 11:51:12.998201106,1744365072,991218610,piren,0.006185491735773089,0.007295646013674621,0.006416135881599727,0.011402017436921597,0.008976210840046406,-0.003208609012909605
2025/04/11 11:51:13.48004550,1744365073,41967866,piren,0.0024608094986283973,0.010287377296706866,0.005431779992145516,0.011285410262644291,0.005230985581874847,-0.00460948695030814
2025/04/11 11:51:13.97320364,1744365073,91056871,piren,0.005099490137572914,0.0064868463231326666,0.00403246417011856,0.013656902126967907,0.0062037985771894455,0.0
2025/04/11 11:51:13.146353485,1744365073,141798304,piren,0.004617142795139653,0.008726809368772369,0.005162578578833493,0.015226314775645733,0.003538860008120537,-0.0068199693768542635
2025/04/11 11:51:13.197548479,1744365073,191232230,piren,-0.0015543455088099106,0.008765130075196609,0.006028940570392973,0.013211339712142944,-0.0022717760875821114,-0.0023166687119685384
2025/04/11 11:51:13.247677461,1744365073,241932786,piren,-0.003095463838017332,0.006819937908649421,0.0043290068057426885,0.009766261093318462,-0.0013837353326380253,0.0022650231169880053
2025/04/11 11:51:13.304882927,1744365073,292377454,piren,0.0023881364790492923,0.0063648833532758626,0.0033929691648215124,0.008961167186498642,0.00324218044988811,-0.002326460771292628
2025/04/11 11:51:13.353008170,1744365073,348339352,piren,-0.0009457917531448495,0.0043136711431982265,-0.0009304497570947469,0.017681781202554703,-0.003733937395736575,-0.0022148590723432234
2025/04/11 11:51:13.399874338,1744365073,391315965,piren,-0.003645540407833296,0.0030990055445448104,-0.002035744848750372,0.015513235703110695,0.005353980697691441,-0.0018764348511259737
2025/04/11 11:51:13.448445745,1744365073,442562710,piren,-0.0028085592256712087,0.0043459287075566285,-0.0026274091760812735,0.012873110361397266,0.0041663870215415955,0.0023492318805414477
2025/04/11 11:51:13.500147531,1744365073,492871462,piren,0.0022115418221595345,0.00609830399173093,-0.00467207477592168,0.005761179607361555,0.002805504947900772,0.0011458779780776996
2025/04/11 11:51:13.546812428,1744365073,541211809,piren,0.0009978009936944053,0.003539727128461675,-0.0035055431810628486,0.010813050903379917,-0.0031765042804181576,-0.005865456358631829
2025/04/11 11:51:13.596034445,1744365073,592067894,piren,-0.001151184044760409,0.0033872265402970373,-0.0021612563404767595,0.013124127872288227,0.005273323971778154,-0.005378485491423133
2025/04/11 11:51:13.644966060,1744365073,641954686,piren,-0.0005706724814825973,0.0032211130399899916,-0.005345906437131564,0.01030818559229374,0.004969919566065073,0.0
2025/04/11 11:51:13.695596024,1744365073,690999759,piren,0.00164721356192981,0.0035132209545807405,-0.0008992805730937485,0.021118327975273132,0.004041882697492838,0.002341342500783402
2025/04/11 11:51:13.747643909,1744365073,741985644,piren,0.0015488908602339466,0.002523020612377678,-0.002534705989457135,0.010463112965226173,0.0035620781127363443,-0.0022680406682723912
2025/04/11 11:51:13.794101085,1744365073,791093083,piren,0.00036788426895761737,0.0011575246155851667,-0.0028668845015269585,0.0072755394503474236,-0.004768669605255127,-0.00348752987706771
2025/04/11 11:51:13.845228216,1744365073,841059889,piren,0.002139053070752886,0.0022255320111632276,-0.00401430344324559,0.01899336278438568,0.00912152137607336,-0.0033669070153266954
2025/04/11 11:51:13.898171343,1744365073,891790564,piren,0.005033280605889366,0.004560324205584531,-0.001633113758144779,0.0173494853079319,0.010430370457470417,-0.002298628273604856
2025/04/11 11:51:13.944834044,1744365073,941877977,piren,0.0011527009177123087,0.0019576899037487003,-0.003751610407875052,0.011415298096835613,0.0066179437562823296,0.002248465472763383
2025/04/11 11:51:13.994525131,1744365073,991185473,piren,-0.002747907741759858,-0.00048490254495103444,-0.004994930525023269,0.015010322444140911,0.008481438271701336,0.0011149861340315754
2025/04/11 11:51:14.54653358,1744365074,42259727,piren,0.0008114932799533,0.0002780587678925264,-0.0017012421040861125,0.012919658794999123,-0.00145697349216789,-0.001162380746131079
2025/04/11 11:51:14.101457320,1744365074,92109383,piren,0.0038410962251597,-0.0005552115658586362,4.066702147009853e-05,0.00621581356972456,0.0019305023597553372,-0.0011381991204305346
2025/04/11 11:51:14.145441064,1744365074,141834610,piren,0.002824122483519128,0.001259541289822707,-0.0016672665590783246,0.008504845201969147,0.0011301621561869979,0.0011567236771104234
2025/04/11 11:51:14.198155241,1744365074,191182694,piren,0.0018758826043437896,0.0016023238623545646,-0.00019198939829881534,0.0049271914176642895,0.006529767531901598,-0.002250262503404203
2025/04/11 11:51:14.244894038,1744365074,241429451,piren,-0.0008818588396272477,0.001813170889569408,0.00015103931651681344,0.012071476317942142,0.010229991748929024,0.004593146123483682
2025/04/11 11:51:14.302460429,1744365074,293638722,piren,0.0005313564809671749,0.00100306758268344,0.0013573713235485508,0.005281144753098488,0.004957546014338732,-0.0023361495629433153
2025/04/11 11:51:14.345126689,1744365074,341421133,piren,0.002904515440595901,-0.0005078393723143056,0.0018449857663660326,0.0019740837160497904,0.006986826658248901,-0.0011869767098991496
2025/04/11 11:51:14.395579179,1744365074,391475350,piren,0.0019761507920458997,0.0014197789026882822,0.001655360315029221,0.012656770646572113,0.00444440171122551,0.0011237840166655449
2025/04/11 11:51:14.445198806,1744365074,442295700,piren,-0.0004659960958826695,0.0001589664809317693,0.001596261059938499,0.007937903515994549,0.0009498983854427934,0.0023004341219788277
2025/04/11 11:51:14.493805978,1744365074,491338722,piren,0.003921271241520178,0.00035666658844680165,0.001106058848409688,0.019755147397518158,0.0072626895271241665,0.0
2025/04/11 11:51:14.544735142,1744365074,542105726,piren,0.003609430907971142,0.0018446948294579785,0.00040682580225367894,0.017700817435979843,0.00023828395933378488,0.0022673733082293826
2025/04/11 11:51:14.594813346,1744365074,592146060,piren,0.0024630705728015327,-0.0010696593711220707,-0.0010824173163038278,0.01307986956089735,0.005971857812255621,-0.0023035105847950357
2025/04/11 11:51:14.644826176,1744365074,642296710,piren,0.0010849091067550833,-0.002838864471276954,-0.0070156569206879914,0.01194439921528101,0.005121059715747833,-0.001201746936376548
2025/04/11 11:51:14.695531889,1744365074,692720017,piren,0.005741664650164812,-0.0029512850704844027,-0.005171055244663863,0.008883005008101463,0.009350481443107128,-0.005679427640509797
2025/04/11 11:51:14.746852559,1744365074,742069553,piren,0.004393782094192761,-0.002401591569021868,-0.007378917691611954,0.007680309470742941,0.000978600000962615,-0.0058829913552234095
2025/04/11 11:51:14.797349311,1744365074,791894965,piren,0.00034444018659272137,-0.00400151926416161,-0.006519086436829062,0.004963246639817953,0.007418373133987188,-0.009035490504306862
2025/04/11 11:51:14.847655603,1744365074,842270568,piren,0.0019234417957643567,-0.0037614695347577666,-0.005484267543266216,0.010854782536625862,0.003422731766477227,-0.013812805251112063
2025/04/11 11:51:14.895214478,1744365074,891372133,piren,0.0073343892435977,-0.004087961348680546,-0.005927062481060834,0.014673610217869282,-0.0017190005164593458,-0.020208877863471572
2025/04/11 11:51:14.950547907,1744365074,942299380,piren,0.005561957876488122,-0.003321271339107438,-0.005402354290566124,0.017590384930372238,0.0027136311400681734,-0.019551539625501442
2025/04/11 11:51:14.994949307,1744365074,991672865,piren,0.003253504076245705,-0.0024040982682280603,-0.002371380538073123,0.007921854965388775,0.002592032542452216,-0.02818806878304451
2025/04/11 11:51:15.44681328,1744365075,41993192,piren,0.004727471016965201,-0.003093207821479404,-0.0033159112752026505,0.011402755975723267,0.002217276720330119,-0.027636039688383407
2025/04/11 11:51:15.95574791,1744365075,92615701,piren,0.00988549305253764,-0.004922303197430047,-0.004965395150451022,0.014415125362575054,0.006347093731164932,-0.032362694354364646
2025/04/11 11:51:15.145257547,1744365075,142213895,piren,0.009077770213102425,-0.0030024863418440157,-0.005379841136607334,0.008678171783685684,-0.0006467127823270857,-0.036472894325810634
2025/04/11 11:51:15.196786024,1744365075,192700680,piren,0.009337712628319943,-0.002789926049989132,-0.005642783412068157,0.014621778391301632,0.0031332990620285273,-0.04115240598173609
2025/04/11 11:51:15.245317047,1744365075,242221752,piren,0.01161200331306511,-0.0019403687737546598,-0.004569426006091189,0.015439155511558056,0.0021522920578718185,-0.05084625297330426
2025/04/11 11:51:15.295419666,1744365075,292345199,piren,0.012313403591475447,-0.0036331529829449973,-0.007350286878326517,0.0031038622837513685,0.006287945434451103,-0.04943913662747754
2025/04/11 11:51:15.346932972,1744365075,342199399,piren,0.015526102479102808,-0.001017247176860333,-0.006882728197299663,0.017279518768191338,0.009925231337547302,-0.057101727480163705
2025/04/11 11:51:15.395143197,1744365075,392067550,piren,0.01924342442673176,0.004629588725314461,-0.004594351270180775,-0.000761830888222903,0.0009727549622766674,-0.0552686366605013
2025/04/11 11:51:15.446052579,1744365075,441815161,piren,0.022876295062495965,0.004512824431123615,-0.006762661987920112,0.008123800158500671,0.003196561010554433,-0.06369427964035683
2025/04/11 11:51:15.495591611,1744365075,492119198,piren,0.02471467640805067,0.008706494425228202,-0.003115048634515389,0.014789779670536518,-0.003853986505419016,-0.06873320137462982
2025/04/11 11:51:15.545531689,1744365075,542552944,piren,0.027234798260071563,0.011637829236332383,-0.005680525265014569,0.018653864040970802,0.007333491928875446,-0.06535379054084732
2025/04/11 11:51:15.594365745,1744365075,591277316,piren,0.034177266540450675,0.018227741534362348,-0.001957879488190297,0.010617406107485294,-0.002480205846950412,-0.07547697930327993
2025/04/11 11:51:15.644046803,1744365075,641327796,piren,0.036079118526974104,0.019286294318411987,-0.00138919557975671,0.00923608336597681,-0.0003049241495318711,-0.06918274242251338
2025/04/11 11:51:15.696877226,1744365075,692474685,piren,0.03840460451586139,0.023962806016975924,-0.0025420783350956744,0.017391061410307884,0.002452258486300707,-0.07674028122351821
2025/04/11 11:51:15.747000585,1744365075,741693152,piren,0.04322934993705722,0.030136966224717433,0.0005167471548414249,0.013434412889182568,0.004259276203811169,-0.07777990190234696
2025/04/11 11:51:15.796817296,1744365075,792438501,piren,0.04346827294265054,0.02630962639418322,-0.0025024971164418824,0.011514266952872276,0.008660035207867622,-0.07563505010334265
2025/04/11 11:51:15.847376624,1744365075,841478520,piren,0.047145508097369525,0.030103180185616304,-0.0032979091417154045,0.01847238466143608,0.006397614721208811,-0.08405319617535863
2025/04/11 11:51:15.897491655,1744365075,892595454,piren,0.05551078748076758,0.037008821546567934,-0.001589043334567787,0.006458957679569721,0.012456647120416164,-0.08409206418273955
2025/04/11 11:51:15.956465702,1744365075,949462205,piren,0.0727285944108414,0.047547319701397896,0.00502524052714719,0.015698794275522232,0.004140885081142187,-0.08301278431424858
2025/04/11 11:51:16.265708,1744365075,992473201,piren,0.07347028796865744,0.06251716943861614,0.007974014142968208,0.009193908423185349,-0.003816625103354454,-0.13242542065142923
2025/04/11 11:51:16.47659567,1744365076,43449339,piren,0.06704174883286962,0.06311717465863265,0.00585550417995207,0.013222424313426018,0.0012570478720590472,-0.0954136982757873
2025/04/11 11:51:16.105232092,1744365076,96141053,piren,0.07057212750787557,0.05533925756110614,0.0010562818192725776,0.017650427296757698,0.006649729795753956,-0.06663142092962748
2025/04/11 11:51:16.147527874,1744365076,142560062,piren,0.08071517485067567,0.06115154510612084,0.0029363582873647926,0.012455126270651817,0.004880174528807402,-0.08129522513066932
2025/04/11 11:51:16.202941213,1744365076,193134922,piren,0.0907728992973984,0.0682868101101073,0.004024063058815529,0.01442032866179943,0.013014236465096474,-0.10341764440131054
2025/04/11 11:51:16.248959179,1744365076,242893549,piren,0.10386176664649972,0.08316345268609325,0.006026026133961081,0.006936183664947748,0.010897217318415642,-0.09225093881938447
2025/04/11 11:51:16.302354464,1744365076,293949993,piren,0.09694514344715191,0.08162793191252293,0.004691489543570473,0.014104669913649559,-0.0040003159083426,-0.10363619288695844
2025/04/11 11:51:16.352734614,1744365076,342678389,piren,0.0999542269807921,0.07999768742332905,0.001807915017581702,0.007113436236977577,0.009731383062899113,-0.10147777459570388
2025/04/11 11:51:16.397043949,1744365076,393020536,piren,0.09670173684248212,0.07991914421215235,0.0031021383798049227,0.017451373860239983,0.00782970990985632,-0.09788641889818304
2025/04/11 11:51:16.445221708,1744365076,442162200,piren,0.11016686274100493,0.08320076829381313,-0.0003917476014500669,0.010088556446135044,-0.00047962652752175927,-0.0989869903717518
2025/04/11 11:51:16.496997007,1744365076,493156533,piren,0.1237440134899888,0.0827289032111522,-0.0006114126394451783,0.00576487323269248,0.01677708700299263,-0.10159102501777442
2025/04/11 11:51:16.553125834,1744365076,541556387,piren,0.12579208211764006,0.09195304576986844,-0.0023241516866729767,0.012946062721312046,0.0017040949314832687,-0.10576974340441801
2025/04/11 11:51:16.599015448,1744365076,592751969,piren,0.12152906368760406,0.09367638968857461,0.0018014239945320274,0.02178286761045456,0.010991865769028664,-0.1024987957177904
2025/04/11 11:51:16.647748053,1744365076,642930322,piren,0.13576578416865964,0.09271760768378062,-2.6179133286666823e-06,0.012216527946293354,0.004390556365251541,-0.1149424600454756
2025/04/11 11:51:16.697102277,1744365076,692330173,piren,0.13789807598946843,0.0831466243100322,-0.003962599093137444,0.01951218582689762,0.012058364227414131,-0.10870765548963798
2025/04/11 11:51:16.749389822,1744365076,743548588,piren,0.13693262872964798,0.0797955612713262,-0.005246995643227318,0.0044964081607759,-7.484636444132775e-05,-0.11438009261733637
2025/04/11 11:51:16.797737324,1744365076,791906395,piren,0.13191041710270524,0.0855681345464749,-0.0003729968443327401,0.01669670082628727,-0.006302990484982729,-0.12137713030857754
2025/04/11 11:51:16.847090583,1744365076,843305746,piren,0.14179170389936407,0.08682364074738162,0.0049750998791076,0.012203074060380459,0.006315731443464756,-0.12159824213493164
2025/04/11 11:51:16.896274359,1744365076,893281623,piren,0.14908993760190953,0.08153704864067107,0.003012262796223515,0.014198570512235165,0.007958007976412773,-0.12846567769459383
2025/04/11 11:51:16.949488216,1744365076,943156711,piren,0.1387289009676322,0.07154603201161203,0.0015116538394407079,0.014866368845105171,0.0037123963702470064,-0.13119888542842456
2025/04/11 11:51:17.1769172,1744365076,994554523,piren,0.13784930286035937,0.07192804104832039,0.0027244890133649707,0.0128440847620368,0.0025136687327176332,-0.14225587547510657
2025/04/11 11:51:17.46744163,1744365077,42333450,piren,0.1454474957593339,0.07144693844790466,0.005238568108417263,0.021859489381313324,0.0007385911303572357,-0.14015389649152332
2025/04/11 11:51:17.97671711,1744365077,93862645,piren,0.1455233979929908,0.06700061578450088,0.003732490861620301,0.008010770194232464,0.011935867369174957,-0.15505516466348188
2025/04/11 11:51:17.148925756,1744365077,144242005,piren,0.1348425043071288,0.06213046264508064,0.004078427511580569,0.017378121614456177,0.0009534803102724254,-0.1672920623364295
2025/04/11 11:51:17.196755186,1744365077,192058725,piren,0.13458876067981482,0.053291974952655106,0.002536444456120351,0.0020076350774616003,-0.0011436877539381385,-0.16718270154810067
2025/04/11 11:51:17.254263121,1744365077,248490907,piren,0.13621482413989341,0.04859836053022955,0.0020529331839398437,0.015432441607117653,0.0027580636087805033,-0.18193046233109358
2025/04/11 11:51:17.310695708,1744365077,298266592,piren,0.13254223348350344,0.047507464108985945,0.0026282866807435575,0.012975933961570263,0.0013056730385869741,-0.18303080842050828
2025/04/11 11:51:17.347362496,1744365077,343557428,piren,0.12261458830330085,0.04617754198426889,0.004457286607876783,0.007551286835223436,0.008796101436018944,-0.13502769271618434
2025/04/11 11:51:17.399208790,1744365077,393464945,piren,0.12008675647421561,0.04345415561214999,0.004699195803713772,0.010780270211398602,0.0019173052860423923,-0.1462444124640589
2025/04/11 11:51:17.446741316,1744365077,443271178,piren,0.11992388662321439,0.035541754990450744,0.00207523589700744,0.009758803062140942,0.0029324721544981003,-0.204411428595606
2025/04/11 11:51:17.505112338,1744365077,496442954,piren,0.11182666579833465,0.029797908991480652,-0.0009345418034843623,0.016665497794747353,-0.0049798134714365005,-0.21259978717338102
2025/04/11 11:51:17.545018350,1744365077,542074549,piren,0.09921676349205379,0.02190376417086644,-0.0007922376550635576,0.011368838138878345,0.005967551842331886,-0.20597506510953636
2025/04/11 11:51:17.596992277,1744365077,592290456,piren,0.09260653113074117,0.019071039882755717,-0.0028843028883499965,0.01788332872092724,0.004126777406781912,-0.22109215566572288
2025/04/11 11:51:17.647089193,1744365077,642484643,piren,0.08434056134030704,0.01943451293352416,-0.001538293143095154,0.01389903761446476,0.0017149188788607717,-0.22995056711015624
2025/04/11 11:51:17.696576339,1744365077,693637146,piren,0.07580105827885093,0.017304572698285666,-0.005479353454083707,0.010267812758684158,0.0077927433885633945,-0.2366497145592695
2025/04/11 11:51:17.747799279,1744365077,743133596,piren,0.06923843382404378,0.018016385307862818,-0.004302583700705936,0.008385537192225456,0.00202019396238029,-0.2381070030892372
2025/04/11 11:51:17.795668484,1744365077,792403424,piren,0.05681931246222907,0.017179346952724994,-0.004620929401336908,0.01054701954126358,0.001471441239118576,-0.24011148139779706
2025/04/11 11:51:17.850345859,1744365077,845393069,piren,0.04311794778260434,0.01601502645886793,-0.004807737276996365,0.006583521608263254,0.0001344808260910213,-0.24365937883775562
2025/04/11 11:51:17.896891622,1744365077,893468332,piren,0.0387538878522048,0.01574802152834803,-0.005958635877211342,0.022538011893630028,0.002486931625753641,-0.23602287123383695
2025/04/11 11:51:17.951681084,1744365077,943520870,piren,0.022791604219625693,0.014985139036348748,-0.00511140830291138,0.008781087584793568,0.009879529476165771,-0.2424858346192789
2025/04/11 11:51:18.5403889,1744365077,992457049,piren,0.006164722068741976,0.022172582903096698,-0.00036202567463099015,0.018147382885217667,-0.0035342383198440075,-0.2446184211507598
2025/04/11 11:51:18.46895470,1744365078,42176093,piren,-0.0032284669233290974,0.024515407195889294,0.00034473508656750657,0.010813049040734768,-0.004669982939958572,-0.2389073060368123
2025/04/11 11:51:18.95461955,1744365078,92195511,piren,-0.009394748631810298,0.02608019619547857,0.002054788375973906,0.007894810289144516,0.014506335370242596,-0.23157484081714388
2025/04/11 11:51:18.149496463,1744365078,143773711,piren,-0.026494230424994925,0.024779952765297757,0.005229476411053817,0.009499365463852882,0.009164771996438503,-0.2139718588482765
2025/04/11 11:51:18.202902096,1744365078,193389717,piren,-0.04184665971044519,0.027041746239380444,0.005989700863811566,0.010234111919999123,0.004444452002644539,-0.2079246614036701
2025/04/11 11:51:18.261519394,1744365078,248742627,piren,-0.05199798692747322,0.032693407137290666,0.008221939642916301,0.015404025092720985,0.005846770014613867,-0.20599202146912163
2025/04/11 11:51:18.305033125,1744365078,294422784,piren,-0.05581784230465716,0.031806190900465534,0.006629549434653583,0.009798938408493996,0.0038514218758791685,-0.19000327000739925
2025/04/11 11:51:18.352273627,1744365078,346470742,piren,-0.06549176090003803,0.03294461276253962,0.008626823447972318,0.01172605250030756,0.00029355078004300594,-0.18164578221713332
2025/04/11 11:51:18.409909466,1744365078,400382389,piren,-0.0838036087177169,0.03282554365165083,0.010318052049120651,0.01849413849413395,0.004417798016220331,-0.16820037286895698
2025/04/11 11:51:18.461545661,1744365078,450149591,piren,-0.09689564334843451,0.038374281234595076,0.008218141808354246,0.004072587471455336,0.0014499735552817583,-0.15701477626305083
2025/04/11 11:51:18.508553054,1744365078,496336379,piren,-0.09540487199092403,0.03671103013820642,0.004162775936539913,0.005697553511708975,0.017900772392749786,-0.15108913230413049
2025/04/11 11:51:18.551999075,1744365078,545025480,piren,-0.10887160534250245,0.03557674329980308,0.004510187152074713,0.009481917135417461,0.00482585933059454,-0.14650217577821337
2025/04/11 11:51:18.599009839,1744365078,593402725,piren,-0.12426131760613027,0.03269824341009613,-0.002171003347680981,0.01079848874360323,-0.0006250737351365387,-0.12838170382883066
2025/04/11 11:51:18.647104103,1744365078,642926529,piren,-0.13128634601474995,0.03883864759705094,-0.006372065239563189,0.012198055163025856,0.004054793622344732,-0.09174117212192297
2025/04/11 11:51:18.698637220,1744365078,693427449,piren,-0.1305261188764098,0.03757376670845482,-0.008848664580745859,0.00926498044282198,0.015134096145629883,-0.09811531628551438
2025/04/11 11:51:18.745222661,1744365078,742614797,piren,-0.13760972828364104,0.03636773191512622,-0.009273570829178335,0.008718691766262054,0.007354740519076586,-0.07900447147082951
2025/04/11 11:51:18.797172528,1744365078,793930291,piren,-0.14842635304143684,0.03665432818992466,-0.013027566403776693,0.015797056257724762,0.0036690086126327515,-0.07101553264750127
2025/04/11 11:51:18.849954017,1744365078,843710753,piren,-0.1498963715509798,0.03618528587273448,-0.015513488139086432,0.008835221640765667,0.0022937841713428497,-0.05353564260259431
2025/04/11 11:51:18.895918769,1744365078,892326280,piren,-0.1483723597074599,0.037432455988645745,-0.017522656351422177,0.006203973200172186,0.006191990338265896,-0.045728465895911896
2025/04/11 11:51:18.949549098,1744365078,945080448,piren,-0.15109001444576112,0.03599894161586818,-0.02084757269884921,0.004648715723305941,-0.0003743330016732216,-0.037370641122894184
2025/04/11 11:51:19.5012302,1744365078,994556541,piren,-0.15689176492210258,0.03851204308752594,-0.02054024120822708,0.018484877422451973,-0.00531195430085063,-0.021794197307429257
2025/04/11 11:51:19.49215009,1744365079,43047546,piren,-0.15923197110363488,0.036958820971683584,-0.024639692387681638,0.012300889939069748,-0.003257759613916278,-0.012882946339078435
2025/04/11 11:51:19.109685476,1744365079,99128762,piren,-0.15105365969763024,0.03949581040975811,-0.0264575744481486,0.013334020040929317,-0.0025170808658003807,-0.00562030054734673
2025/04/11 11:51:19.154028352,1744365079,148088249,piren,-0.1478405144244036,0.043328809826464365,-0.025609745644962732,0.00722828134894371,-0.002327295718714595,0.004546716849069888
2025/04/11 11:51:19.207317847,1744365079,200087919,piren,-0.14618251179676903,0.045478328669612954,-0.025541050003022408,0.01244798582047224,0.008196095936000347,0.01862500411967099
2025/04/11 11:51:19.256947200,1744365079,249527740,piren,-0.14271799892397138,0.05329711498582657,-0.022383475613096098,0.007989895530045033,0.001485553104430437,0.03289021738111174
2025/04/11 11:51:19.311570493,1744365079,303724825,piren,-0.13591289794601766,0.05529238859138827,-0.019018231759490457,0.008985629305243492,0.013780447654426098,0.036602207314864015
2025/04/11 11:51:19.353885935,1744365079,347983917,piren,-0.13256793645043655,0.055927847110713844,-0.014452447527203326,0.012031454592943192,0.012406772933900356,0.049343977047419156
2025/04/11 11:51:19.407047930,1744365079,398587141,piren,-0.13146420446580898,0.06465830650489747,-0.008289559007568555,0.010140963830053806,-0.0026719344314187765,0.05848974464120299
2025/04/11 11:51:19.457097266,1744365079,449682374,piren,-0.12687884883259914,0.07000495294744946,-0.002247550986810862,0.0012129314709454775,0.0026684326585382223,0.07232616830020969
2025/04/11 11:51:19.503064941,1744365079,495651361,piren,-0.11918987253838312,0.07182680189841394,-0.0007386464637517497,0.010068926960229874,0.006499039474874735,0.08449783146416281
2025/04/11 11:51:19.554942236,1744365079,550285697,piren,-0.11207205474775114,0.0746309535446276,0.005985005093657647,0.009135198779404163,0.003300819080322981,0.0944073334398983
2025/04/11 11:51:19.597458814,1744365079,592935044,piren,-0.10948243812608399,0.07774154791281429,0.008743324164710539,0.0055297864601016045,-0.0010837260633707047,0.10680703080548376
2025/04/11 11:51:19.655204514,1744365079,647373367,piren,-0.10495362539699873,0.0791124333736841,0.010963391611932414,0.009709153324365616,0.005913989152759314,0.09729793983116368
2025/04/11 11:51:19.700895714,1744365079,694669055,piren,-0.09515745877008004,0.08191922581295065,0.01464924473516712,0.011459576897323132,0.010456215590238571,0.10844027448585043
2025/04/11 11:51:19.749596710,1744365079,744428950,piren,-0.08745600520532142,0.0844084007829657,0.015341701900938339,0.01069140899926424,0.007772611454129219,0.11727264324030034
2025/04/11 11:51:19.799115919,1744365079,795097838,piren,-0.0824057126772352,0.0910216722488939,0.017929244045789026,0.012628498487174511,0.004266286734491587,0.13624431631585088
2025/04/11 11:51:19.853460224,1744365079,847431330,piren,-0.07841196715202467,0.09088667853906196,0.014966816907738755,0.00543960789218545,-0.0006095521384850144,0.1473247552570017
2025/04/11 11:51:19.901867806,1744365079,897638772,piren,-0.06810975423028261,0.08859471658542903,0.014150699917320698,0.008696934208273888,0.01135664526373148,0.1553263915005256
2025/04/11 11:51:19.952340388,1744365079,944136613,piren,-0.06538274609170847,0.0889811229962801,0.016124169294919773,0.0017671890091151,0.004853822756558657,0.15289598758971967
2025/04/11 11:51:20.4559044,1744365079,993672937,piren,-0.06376689561352233,0.08787371827256063,0.013526620682191478,0.016641797497868538,0.0010586128337308764,0.17170967793770472
2025/04/11 11:51:20.50196660,1744365080,45305974,piren,-0.06062279717232809,0.08483326285637231,0.014715025890664769,0.01196648646146059,0.0025367136113345623,0.16836547063488905
2025/04/11 11:51:20.108901635,1744365080,96809131,piren,-0.05265233946903376,0.08355039233162685,0.012480071814065137,0.011865878477692604,0.0034649355802685022,0.180488820998426
2025/04/11 11:51:20.151133010,1744365080,145826933,piren,-0.047038537479509965,0.08179831094805666,0.013177487234878759,0.013089566491544247,0.003407636657357216,0.1865573869003759
2025/04/11 11:51:20.205850223,1744365080,196629729,piren,-0.04390830629371956,0.07990551305123782,0.010819771132117647,0.009825610555708408,0.014529786072671413,0.1859264513435081
2025/04/11 11:51:20.248765580,1744365080,243897864,piren,-0.044243803108861376,0.07675554592168615,0.01209353115616975,0.01648688316345215,0.0008879850502125919,0.1935021151036358
2025/04/11 11:51:20.307185483,1744365080,302614479,piren,-0.043085180276828255,0.06987113451559127,0.008292719887543381,0.005855731666088104,0.0016426205402240157,0.1931167482283713
2025/04/11 11:51:20.349660700,1744365080,343937986,piren,-0.03876010166566542,0.0681024036669402,0.005477682187662819,0.00967055931687355,0.005859023425728083,0.1878770522265891
2025/04/11 11:51:20.399080580,1744365080,395164138,piren,-0.037112673755887615,0.06578987143432524,0.004212012236119119,0.008387016132473946,0.0006828662008047104,0.2101732585471796
2025/04/11 11:51:20.453529717,1744365080,446637777,piren,-0.03722212028660645,0.06343057095067446,0.0013811315614590258,0.013835444115102291,0.006105929613113403,0.21003100947291542
2025/04/11 11:51:20.507510242,1744365080,500796847,piren,-0.03476385971312714,0.06147627355196485,-0.0005879112851587739,0.010725311934947968,-0.00023712350230198354,0.19598549534389317
2025/04/11 11:51:20.554943301,1744365080,549822856,piren,-0.03062282291192638,0.059528971240968745,-0.0011547182362297687,0.011073031462728977,0.010653981938958168,0.19232987704503077
2025/04/11 11:51:20.605563669,1744365080,596995249,piren,-0.027607910203062212,0.058469855842069964,0.003081645922824434,0.01277995016425848,0.005711014848202467,0.20476444629424692
2025/04/11 11:51:20.652908330,1744365080,647384447,piren,-0.027934148725380154,0.05350459659370713,0.004803766824073903,0.014163607731461525,0.010031725279986858,0.20985822140346597
2025/04/11 11:51:20.699118576,1744365080,695664395,piren,-0.020614958366262304,0.05347079188093117,0.007504826039687947,0.008671068586409092,0.008067326620221138,0.19452759600784492
2025/04/11 11:51:20.748212546,1744365080,744378330,piren,-0.018284310390189847,0.05235204711223105,0.007068200786456598,0.0131621602922678,0.0012827423634007573,0.22172017841838004
2025/04/11 11:51:20.799024802,1744365080,795494096,piren,-0.018856022448443796,0.05334256617361657,0.006588778460447134,0.007033034227788448,-0.002250202465802431,0.21333082229315228
2025/04/11 11:51:20.850560407,1744365080,845957567,piren,-0.01874544796230614,0.04922222795817229,0.005648580612191351,0.004580891225486994,3.0693008739035577e-05,0.21374230048304524
2025/04/11 11:51:20.909177168,1744365080,901713625,piren,-0.023089770365074966,0.04235673160061878,0.00403061955701699,0.009117618203163147,0.0008687314693816006,0.2103509431214766
2025/04/11 11:51:20.952736895,1744365080,946149257,piren,-0.024239554779056587,0.03930509999883473,0.0028199627060569565,0.005735441111028194,0.0006758383824490011,0.13662992589956455
2025/04/11 11:51:20.996960472,1744365080,994021588,piren,-0.02678713587958698,0.03901501330735969,0.003564856016900272,0.007737476844340563,0.000521417532581836,0.20967766225633416
2025/04/11 11:51:21.51099265,1744365081,45819894,piren,-0.026204657842679887,0.035624520763390705,0.0032144609313786965,0.01640339009463787,0.010765047743916512,0.21569724313762326
2025/04/11 11:51:21.105494932,1744365081,99845127,piren,-0.03013309645657286,0.034232973042363744,0.0023895608680529366,0.009642045944929123,0.009312679059803486,0.20991339944196286
2025/04/11 11:51:21.154835239,1744365081,148864142,piren,-0.02879693879431885,0.03927241632005904,0.003354615086956894,0.013867373578250408,0.01026386022567749,0.22537319152118895
2025/04/11 11:51:21.207353354,1744365081,198824869,piren,-0.03351252051598835,0.040056005287716516,0.003509499504880936,0.006948098074644804,0.010385981760919094,0.21089694277046542
2025/04/11 11:51:21.254882436,1744365081,246919939,piren,-0.04193975473430028,0.039222663554341855,0.002667947473180751,0.010502244345843792,0.004876409657299519,0.19942846752033602
2025/04/11 11:51:21.299419284,1744365081,294427728,piren,-0.04236370261214742,0.04316790049476417,0.005569475251078441,0.010709164664149284,-0.0027576375287026167,0.17772328072168048
2025/04/11 11:51:21.351113519,1744365081,346432915,piren,-0.045475200921351634,0.043641169758056965,0.0028347738700958323,0.0068831234239041805,0.002311862539499998,0.18563412750607228
2025/04/11 11:51:21.402200291,1744365081,395563639,piren,-0.05008124867816527,0.043395979549495756,0.0020797453174250507,0.01383282896131277,0.0011139212874695659,0.19794435220579812
2025/04/11 11:51:21.453501093,1744365081,448699523,piren,-0.05733267988341154,0.03866979232862197,-0.0021434240889827002,0.008416179567575455,-0.0012530669337138534,0.1910871214426712
2025/04/11 11:51:21.498727354,1744365081,495566087,piren,-0.05860266144845665,0.041254055298843614,-0.002687806979519723,0.006625788751989603,-0.0003275712952017784,0.20531493062604617
2025/04/11 11:51:21.551138633,1744365081,546114313,piren,-0.05907806855726261,0.04092948641818304,-0.00407878692484952,0.0055913906544446945,0.009564277715981007,0.22784493781524698
2025/04/11 11:51:21.602570779,1744365081,597911838,piren,-0.06356300523052998,0.04092884079562379,-0.005856316305819681,0.014676101505756378,0.007787078619003296,0.2037228607501903
2025/04/11 11:51:21.656537829,1744365081,651061288,piren,-0.06480169836180116,0.0417500531691135,-0.003734585530586838,0.011982453055679798,0.003882898483425379,0.20298244492642828
2025/04/11 11:51:21.701993411,1744365081,696497684,piren,-0.06595693483315414,0.04423036963054462,-6.565947112141711e-05,0.007309301756322384,0.004538014065474272,0.18687944100267626
2025/04/11 11:51:21.758638212,1744365081,751303870,piren,-0.07035558345351095,0.04167779743576792,-0.0022444295834292446,0.011556501500308514,0.004160594195127487,0.19338124732213205
2025/04/11 11:51:21.804922142,1744365081,800037700,piren,-0.07185879147670647,0.042822486345481706,0.0007311624676950382,0.011703004129230976,0.00024849918554537,0.1566479940988445
2025/04/11 11:51:21.851810393,1744365081,846993125,piren,-0.07331449139188195,0.041873161812668765,-0.001994138948962683,0.017601683735847473,-0.0005292639252729714,0.197651354781678
2025/04/11 11:51:21.901297360,1744365081,896358786,piren,-0.08062834591297247,0.041098082963104236,-0.003182931174571576,0.009365391917526722,0.00408528558909893,0.16443634485999395
2025/04/11 11:51:21.949569773,1744365081,943880417,piren,-0.08056497535533907,0.038374282178169856,-0.0033632077193531075,0.014564304612576962,0.007431801408529282,0.1980291876055396
2025/04/11 11:51:22.8412934,1744365082,523757,piren,-0.08195662330859725,0.04028422458030052,-0.00267504918541578,0.009178338572382927,0.01052810437977314,0.16771747682294663
2025/04/11 11:51:22.57240111,1744365082,49734933,piren,-0.08692788017531945,0.03865667453648136,-0.0030138452274603203,0.009147945791482925,0.008824455551803112,0.19046014444557033
2025/04/11 11:51:22.99699012,1744365082,94954693,piren,-0.09267730462676894,0.038600085379902664,-0.001857191187012523,0.004887926392257214,0.0007823587511666119,0.19780594872219825
2025/04/11 11:51:22.165402850,1744365082,151245425,piren,-0.09312667668498725,0.03896493349268723,-0.0004546733587779507,0.01830635964870453,0.0071060494519770145,0.15968218676090262
2025/04/11 11:51:22.210298357,1744365082,202616698,piren,-0.09333890139040871,0.03679648105938356,5.522526145486306e-05,0.012493681162595749,0.01043444313108921,0.16441094366011455
2025/04/11 11:51:22.253156962,1744365082,246536256,piren,-0.10165416913570616,0.033744573594583605,0.00018873347338908825,0.005922955926507711,0.007495581172406673,0.16133590805673395
2025/04/11 11:51:22.302991755,1744365082,296378634,piren,-0.10033599661561758,0.03104167689697978,0.0012088631372235514,0.002311982214450836,0.008422543294727802,0.18456037233111913
2025/04/11 11:51:22.357771788,1744365082,348068852,piren,-0.09491332792471649,0.030692601062242374,-0.0003308356437647139,0.00969668384641409,0.011016704142093658,0.19078736995125456
2025/04/11 11:51:22.400152904,1744365082,396114852,piren,-0.09883456133526287,0.027904027036711836,0.0019637041872847738,0.00857264082878828,0.002877426566556096,0.23549100943590673
2025/04/11 11:51:22.455040108,1744365082,449797286,piren,-0.0933306094808601,0.023655325023904945,0.00488621482167877,0.012661880813539028,0.003352220170199871,0.21883218133379095
2025/04/11 11:51:22.507778067,1744365082,503877869,piren,-0.0860515463466047,0.021921708323725194,0.005866320817181539,0.01634552702307701,0.006673681084066629,0.22221926987174873
2025/04/11 11:51:22.557496308,1744365082,552593557,piren,-0.08222596149761167,0.020893181105008637,0.007381475849222795,0.008184036239981651,0.005459444131702185,0.2362859532182514
2025/04/11 11:51:22.599674021,1744365082,594835988,piren,-0.08826314591788176,0.015660956037655657,0.0031148517170475573,0.008163515478372574,0.008559243753552437,0.22626999681952348
2025/04/11 11:51:22.648098564,1744365082,644021569,piren,-0.09188585356699765,0.014046077319036792,0.001377026774446297,0.015779908746480942,-8.589264325564727e-05,0.25179607706582924
2025/04/11 11:51:22.708471952,1744365082,700934842,piren,-0.09171017963799562,0.010677192900679646,-0.0012714791819060604,0.01244328636676073,0.00792715698480606,0.20671071860211715
2025/04/11 11:51:22.751047078,1744365082,746616979,piren,-0.08959334239577324,0.011237295988610447,0.000706831130334361,0.006220225710421801,0.009094735607504845,0.26667383635923925
2025/04/11 11:51:22.798540989,1744365082,793750805,piren,-0.08911005402169221,0.009084428622217006,0.0008793018969617277,0.01056244969367981,0.01132369413971901,0.24900637092307815
2025/04/11 11:51:22.852498340,1744365082,847424859,piren,-0.09219722593916789,0.0032197990699309935,-0.0018156094446317582,0.02002563700079918,0.006900868844240904,0.2543729659367061
2025/04/11 11:51:22.907843142,1744365082,901175387,piren,-0.08752859847355172,0.0008040089226017179,-0.0024292966115359326,0.003163184504956007,0.003803164465352893,0.26454208903696075
2025/04/11 11:51:22.957172487,1744365082,949873439,piren,-0.08086934976533225,0.0004305652812345566,-0.0007346691957754145,0.0039491308853030205,0.006915602367371321,0.2317267869755328
2025/04/11 11:51:23.2481947,1744365082,999321156,piren,-0.08148684402957164,-0.00150687556369404,0.001799952725722354,0.014587233774363995,0.006515937391668558,0.2644810644705259
2025/04/11 11:51:23.55469882,1744365083,47215763,piren,-0.07968710916477365,-0.0051069824949934554,0.001040137015842601,0.011605060659348965,0.006021073088049889,0.2658574057697009
2025/04/11 11:51:23.99463895,1744365083,96176705,piren,-0.07864062230589633,-0.008743761683653598,-0.00010705747488962391,0.006072535179555416,-0.001271453802473843,0.2717745438382235
2025/04/11 11:51:23.155737223,1744365083,151393192,piren,-0.07284935586306211,-0.009333898531366876,-0.000119744662926962,0.015378718264400959,0.004006087779998779,0.2791107411143119
2025/04/11 11:51:23.203675403,1744365083,198841479,piren,-0.07101336042758848,-0.013192652293343527,-0.0008957996721279963,0.008441466838121414,0.007733051665127277,0.2572719532409752
2025/04/11 11:51:23.255218012,1744365083,249082712,piren,-0.0684788928189886,-0.017408158420584897,-0.00247980233371804,0.003857068717479706,-0.004637664649635553,0.22761477880516628
2025/04/11 11:51:23.308525511,1744365083,299275731,piren,-0.066250683129602,-0.017877988694886465,-0.0025293996702554257,0.004407062660902739,0.005861710757017136,0.243048378505305
2025/04/11 11:51:23.362071089,1744365083,351343199,piren,-0.065716974119441,-0.017743488364153244,-0.0016300145771592505,0.006429789122194052,0.0018329706508666277,0.2993247175964555
2025/04/11 11:51:23.409187033,1744365083,402479700,piren,-0.06336843823659989,-0.021332461770754405,-0.001992591220154805,0.0176022257655859,-0.004102081526070833,0.23647493489888513
2025/04/11 11:51:23.447269738,1744365083,443714733,piren,-0.06505443627534324,-0.024455311770492413,-0.008734214237403283,0.007420703768730164,-0.005029998254030943,0.27563007942128376
2025/04/11 11:51:23.503865789,1744365083,497311084,piren,-0.06570312421922352,-0.027084506312351785,-0.015133786341764481,0.014153940603137016,0.009850296191871166,0.3094692551995905
2025/04/11 11:51:23.557882294,1744365083,552228719,piren,-0.056563919121259305,-0.02845628083294622,-0.018278424791177042,0.013269215822219849,0.007885520346462727,0.2567174764908494
2025/04/11 11:51:23.601847118,1744365083,598714426,piren,-0.05206886299991283,-0.03027899320308237,-0.017107678497518892,0.004343806300312281,-0.0006891796947456896,0.318532335862468
2025/04/11 11:51:23.660896617,1744365083,655207460,piren,-0.05526426646733652,-0.03485891031659969,-0.018029614366547757,0.011270812712609768,0.0063943155109882355,0.28041026887579645
2025/04/11 11:51:23.708603182,1744365083,702162618,piren,-0.05099691764448397,-0.0345891145917215,-0.01507048904244899,0.011793600395321846,-0.0024552165996283293,0.3282927274687544
2025/04/11 11:51:23.751137173,1744365083,747163933,piren,-0.04444969835316413,-0.03785723327330725,-0.015101864072010467,0.007364713121205568,0.0059457020834088326,0.30761459410323344
2025/04/11 11:51:23.803152517,1744365083,798406046,piren,-0.04380958101956619,-0.034275907563703814,-0.009833118797763838,0.01036372035741806,0.0073983510956168175,0.31749981830663493
2025/04/11 11:51:23.860892827,1744365083,857477971,piren,-0.038022769214509616,-0.051888443077560804,-0.010224949651362123,0.017036546021699905,0.010728714056313038,0.31825443925583063
2025/04/11 11:51:23.899528497,1744365083,896095211,piren,-0.025811762208542418,-0.05501558682638392,-0.007234112226347844,0.009530941024422646,-0.006626977119594812,0.1823155365640645
2025/04/11 11:51:23.951605041,1744365083,945955743,piren,-0.017930909439976505,-0.050922080947771786,-0.002360486036496733,0.01212772075086832,0.004278525710105896,0.2881541974831473
2025/04/11 11:51:24.2117591,1744365083,998585912,piren,0.00014226342458025957,-0.05060442962166293,0.0034291975998093126,0.007377583999186754,0.012905891053378582,0.2906786189104106
2025/04/11 11:51:24.51803511,1744365084,47243446,piren,-0.020277395222743962,-0.06418582493925226,-0.00041338600892141495,0.018292628228664398,-0.0037636433262377977,0.27886771135721133
2025/04/11 11:51:24.102178865,1744365084,96801186,piren,-0.030536407282926618,-0.07183990396954663,-0.0038522998357120603,0.010558849200606346,0.002153784269466996,0.273582371154494
2025/04/11 11:51:24.150812861,1744365084,147205418,piren,-0.002786709810490919,-0.07215055591677781,-0.0003550662098386069,0.014844942837953568,0.005623686593025923,0.2584045065230313
2025/04/11 11:51:24.213644882,1744365084,208504040,piren,0.01957771726282103,-0.06483563558636303,0.006312076959940126,0.016222089529037476,0.008499892428517342,0.27552571290323347
2025/04/11 11:51:24.258248424,1744365084,250514471,piren,0.012206580742500504,-0.06863216104242112,0.0075393392505822224,0.01604975387454033,-0.0009735010680742562,0.24088814365582614
2025/04/11 11:51:24.321332146,1744365084,305189787,piren,0.016501098980344714,-0.07821929240040439,0.004264479230867036,0.011464198119938374,0.0034656617790460587,0.20192219289428243
2025/04/11 11:51:24.363656902,1744365084,353878255,piren,0.013582213678912715,-0.07937509416834464,0.004420179471607821,0.012570696882903576,-0.0006078300066292286,0.27441806322926965
2025/04/11 11:51:24.401702325,1744365084,397615039,piren,0.018658191813631618,-0.07499104680923922,0.005283615264436095,0.011271093040704727,0.006885197013616562,0.2021486633183349
2025/04/11 11:51:24.451989262,1744365084,446649683,piren,0.03368341315869141,-0.07935546816940993,0.0018154245884198811,0.010697059333324432,0.003841606667265296,0.25560592937190896
2025/04/11 11:51:24.511068252,1744365084,502828963,piren,0.020248814384636712,-0.08729331160813522,-0.002485916286518601,0.011262872256338596,-0.001526624895632267,0.2015320756851672
2025/04/11 11:51:24.559449583,1744365084,555380094,piren,0.013285461637483486,-0.08506812079415399,-0.0032477672723498804,0.00292880623601377,0.0013493327423930168,0.1398426239614924
2025/04/11 11:51:24.614314967,1744365084,604901439,piren,0.018536958864796116,-0.08572183167759125,-0.000543322563499898,0.013521828688681126,0.002970534609630704,0.16275953120097547
2025/04/11 11:51:24.660850303,1744365084,653208068,piren,0.026189848624755412,-0.09170141236106091,-0.002624020865791541,0.021655894815921783,0.004144706297665834,0.14088876139465
2025/04/11 11:51:24.699354086,1744365084,694245659,piren,0.01927171665417473,-0.1012941229881783,-0.0044346825827181946,0.0031805946491658688,0.005167732480913401,0.11271578646856525
2025/04/11 11:51:24.755297627,1744365084,748693588,piren,0.004156275252160156,-0.1017116404319706,-0.00404043267234763,0.01830199360847473,0.0005155766266398132,0.11347033847918747
2025/04/11 11:51:24.805452861,1744365084,799110469,piren,0.010449778000851357,-0.09792358733077083,-0.001224962675336846,0.012574708089232445,0.013635370880365372,0.09812297869540705
2025/04/11 11:51:24.853581930,1744365084,847027202,piren,0.01593183799629078,-0.09834928359086509,-0.0010363303524063387,0.012769648805260658,0.012266178615391254,0.08035983547263832
2025/04/11 11:51:24.917423546,1744365084,907304591,piren,0.004950961325325469,-0.1028211744289371,-0.001575857337208888,0.011158172972500324,0.0015171654522418976,0.07257428551564803
2025/04/11 11:51:24.954803077,1744365084,948626106,piren,-0.010832054422160826,-0.10819448412798649,-0.0004076013801530361,0.00469430023804307,0.0029432433657348156,0.05548276618843598
2025/04/11 11:51:25.6561469,1744365084,999754322,piren,-0.00365858211969996,-0.10449547889546028,-0.00036776894977381166,0.011138145811855793,0.0011236785212531686,0.04066179278950013
2025/04/11 11:51:25.61562582,1744365085,52327980,piren,0.0008695929377269948,-0.09699073223602094,0.0009738649537551772,0.007524312939494848,0.005993624217808247,0.02754202776469219
2025/04/11 11:51:25.107243425,1744365085,97584606,piren,-0.014307775437524024,-0.09418194081526494,0.0045510243774333605,0.012609285302460194,-0.007060889154672623,0.015459842305650744
2025/04/11 11:51:25.164238194,1744365085,150971600,piren,-0.020189596509409154,-0.0943453270985766,0.003931912428140692,0.011530482210218906,-0.0015911553055047989,0.004456143697689987
2025/04/11 11:51:25.211239574,1744365085,202358998,piren,-0.013311330960452089,-0.09523819583017613,0.002711731452186999,0.011555502191185951,-0.002874776255339384,-0.01175106180647771
2025/04/11 11:51:25.265416023,1744365085,250456105,piren,-0.01294502321250549,-0.08950913946647955,0.005250492809490665,0.012006196193397045,0.008646467700600624,-0.023237389008111904
2025/04/11 11:51:25.315696606,1744365085,307003771,piren,-0.023542118504393115,-0.08159469598678072,0.006379174558566655,0.007236337289214134,0.003258493496105075,-0.0361918385646102
2025/04/11 11:51:25.355401929,1744365085,349702677,piren,-0.02873328233695759,-0.08251505779753587,0.006349211389672684,0.009604505263268948,0.0034954766742885113,-0.050713936417756816
2025/04/11 11:51:25.400666022,1744365085,395564518,piren,-0.03017579574436034,-0.0814271763651251,0.004086451203762939,0.017922746017575264,-0.00660568056628108,-0.05763527749850729
2025/04/11 11:51:25.460503961,1744365085,455482431,piren,-0.028529883783824057,-0.08076673047929347,0.0035305788348765303,0.003378269262611866,0.007789478171616793,-0.07630351107956819
2025/04/11 11:51:25.498137028,1744365085,494889249,piren,-0.031539367684935364,-0.07351489253916818,0.0026531402448860685,0.007064990233629942,0.000551479053683579,-0.08834740530898794
2025/04/11 11:51:25.558382527,1744365085,551406211,piren,-0.028767377717399893,-0.06509928159014121,0.0071940483888112755,0.010636338964104652,0.0071123926900327206,-0.08833657663712344
2025/04/11 11:51:25.613431893,1744365085,600042604,piren,-0.027699635071362916,-0.05943008098801866,0.0064745497177835076,0.008406031876802444,0.0037980051711201668,-0.13527232782172532
2025/04/11 11:51:25.653764513,1744365085,648722510,piren,-0.02833783529271141,-0.060427500495546536,0.0050987962204804916,0.01791420951485634,0.010563547722995281,-0.1023705396865659
2025/04/11 11:51:25.709313120,1744365085,704103002,piren,-0.026011020194000384,-0.05847863676570664,0.007723196235488347,0.005397768225520849,-0.00029795418959110975,-0.14290231858462102
2025/04/11 11:51:25.750450738,1744365085,747347937,piren,-0.01928455892939761,-0.05533296898274181,0.008168606719331421,0.0029608027543872595,-0.0021702637895941734,-0.12801121714507213
