time,header_stamp_secs,header_stamp_nsecs,header_frame_id,vessel_state_pose_position_x,vessel_state_pose_position_y,vessel_state_pose_position_z,vessel_state_pose_orientation_x,vessel_state_pose_orientation_y,vessel_state_pose_orientation_z,vessel_state_pose_orientation_w,vessel_state_velocity_linear_x,vessel_state_velocity_linear_y,vessel_state_velocity_linear_z,vessel_state_velocity_angular_x,vessel_state_velocity_angular_y,vessel_state_velocity_angular_z,vessel_state_vessel_frame_id,vessel_state_w_1,vessel_state_w_2,vessel_state_w_3,vessel_state_w_4,vessel_state_a_1,vessel_state_a_2,vessel_state_a_3,vessel_state_a_4
2025/04/09 10:58:23.910828459,1744189103,862822022,world_ned,1.7678863221703263,11.33510686435479,0.4336872348306172,-0.0004037757214256011,1.0957894080166936e-05,-0.00045435563499883643,0.9999998152030071,-0.0030419893042403067,1.4243383594299277e-05,-5.791275800322336e-05,1.194904576219584e-05,0.0009440776121223234,1.0856457659168547e-05,,5.0,5.0,5.0,5.0,2.356194490192345,-2.356194490192345,-0.7853981633974483,0.7853981633974483
2025/04/09 10:58:23.963549765,1744189103,959919875,world_ned,1.7678940782463628,11.335108087194689,0.43368190547828445,-0.00040302769068813296,1.2891298718474346e-05,-0.00045381538498843424,0.9999998157270287,0.003102393626475852,1.0560171480859323e-05,-4.704225973651199e-05,1.7795254083791734e-05,-0.000837592564532189,1.0793479295020244e-05,,5.0,5.0,5.0,5.0,2.356194490192345,-2.356194490192345,-0.7853981633974483,0.7853981633974483
2025/04/09 10:58:24.65470972,1744189104,62137514,world_ned,1.767889430343597,11.33510903532298,0.43367821537077966,-0.0004020507424345318,1.3855063865307208e-05,-0.00045328043514582136,0.9999998163500255,-0.0030979800478938948,9.635811322188574e-06,-2.5936582236125544e-05,1.9209787542549463e-05,0.0008503865191854896,1.0633261040060964e-05,,5.0,5.0,5.0,5.0,2.356194490192345,-2.356194490192345,-0.7853981633974483,0.7853981633974483
2025/04/09 10:58:24.158269968,1744189104,156683016,world_ned,1.767891487516146,11.335110114108184,0.4336772719007858,-0.000401191353203354,1.0978991891613655e-05,-0.0004527494044271297,0.9999998169714516,0.0030461914220086352,1.1470327257732112e-05,4.591023043776125e-06,1.6081573189194063e-05,-0.0009330706353912776,1.0572700257408476e-05,,5.0,5.0,5.0,5.0,2.356194490192345,-2.356194490192345,-0.7853981633974483,0.7853981633974483
2025/04/09 10:58:24.267041983,1744189104,264355372,world_ned,1.7678817089184622,11.335123008140078,0.43367873057662376,-0.0004040108981839925,7.669157355443782e-06,-0.0004498048173590366,0.9999998171959855,-0.0031554711127617795,0.0006037477312616666,2.05193701840044e-05,-0.00035341949578823826,0.0007751807452197544,0.00025052628754485413,,5.0,5.0,6.0,5.0,2.356194490192345,-2.356194490192345,-0.8003981633974483,0.7853981633974483
2025/04/09 10:58:24.361931007,1744189104,358871104,world_ned,1.7678755186610289,11.335286387705708,0.43368213226458463,-0.00045262280685344383,1.5088894443964545e-06,-0.00041601275200007197,0.9999998110318362,0.0029441104513783837,0.00242161363015597,4.4177389594755465e-05,-0.001411815845937627,-0.0009887649573481286,0.001016343013872046,,5.0,5.0,6.0,5.0,2.356194490192345,-2.356194490192345,-0.8553981633974483,0.7853981633974483
2025/04/09 10:58:24.466262938,1744189104,464208150,world_ned,1.7678556271854649,11.33558709500116,0.4336867004733782,-0.0005336194813991282,-3.916244665275848e-06,-0.000349942442948289,0.9999997963875786,-0.003217233365502197,0.002662889767691299,5.313318755078389e-05,-0.001228169950296977,0.0007456785657089992,0.001262443072608661,,5.0,5.0,5.0,5.0,2.356194490192345,-2.356194490192345,-0.8653981633974484,0.7853981633974483
2025/04/09 10:58:24.570197928,1744189104,559010429,world_ned,1.767851088801812,11.335723801403434,0.43369159268044716,-0.0005411289142072782,-9.510164873010767e-06,-0.00030713298857393804,0.9999998063791724,0.002971495487282523,0.0008414098461836924,4.197012333739514e-05,0.00039032797061371396,-0.0009518215938004358,0.0007277949459002166,,5.0,5.0,6.0,5.0,2.356194490192345,-2.3361944901923453,-0.8553981633974483,0.7853981633974483
2025/04/09 10:58:24.664794216,1744189104,663032908,world_ned,1.7678256644478814,11.335815924406369,0.4336947374271379,-0.0005130777567055482,-1.2626422616045765e-05,-0.0002653469638640356,0.999999833091375,-0.003365295988951678,0.0009970557964281547,2.4912914003443617e-05,0.0006800877224541131,0.0007961467653468292,0.000922618928940419,,5.0,5.0,6.0,5.0,2.356194490192345,-2.2911944901923462,-0.9003981633974484,0.7853981633974483
2025/04/09 10:58:24.765845612,1744189104,764268858,world_ned,1.7677970713848765,11.335920366711521,0.4336960664405984,-0.0004721712666142801,-1.6166125501326888e-05,-0.00021550213053822756,0.9999998651758825,0.002789706942033122,0.0008612330723861416,4.505162269280778e-06,0.0010543767535343784,-0.0008995289318027757,0.0009650932985052235,,5.0,5.0,5.0,5.0,2.356194490192345,-2.2761944901923465,-0.9153981633974484,0.7853981633974483
2025/04/09 10:58:24.866442698,1744189104,865267143,world_ned,1.767777585377311,11.335960470295442,0.4336950470719834,-0.0004007793984007305,-1.4319507051023501e-05,-0.00017505938174618306,0.9999999042625146,-0.003125663934845528,7.161797186055507e-05,-1.9342840058585647e-05,0.001666089323385517,0.0009334563142424801,0.0006835273884570088,,5.0,5.0,5.0,5.0,2.356194490192345,-2.3211944901923456,-0.8703981633974484,0.7853981633974483
2025/04/09 10:58:24.960101448,1744189104,957553761,world_ned,1.7677894856834873,11.335930544228855,0.4336925621176353,-0.0003088740899766872,-9.575707224086115e-06,-0.0001499148145579198,0.9999999410153236,0.0032225976821742184,-0.0008196650193587133,-2.7196703049706317e-05,0.002072139813114259,-0.0007331333022519763,0.00025209674098967684,,5.0,5.0,5.0,5.0,2.356194490192345,-2.356194490192345,-0.8203981633974483,0.7853981633974483
2025/04/09 10:58:25.60375529,1744189105,58782459,world_ned,1.7678027134600778,11.335775614196816,0.43368950688383356,-0.0001934248995967658,-1.0756767504293405e-06,-0.0001566695602254732,0.9999999690201495,-0.0028965067527493074,-0.0016824941161223636,-2.7206261909932666e-05,0.002147055341527967,0.0010275114444954455,-0.0002965296457354792,,5.0,5.0,5.0,5.0,2.356194490192345,-2.356194490192345,-0.7853981633974483,0.7853981633974483
2025/04/09 10:58:25.165441152,1744189105,162403131,world_ned,1.7678254139566234,11.33565263379659,0.4336867617671972,-0.00012073946370668119,5.98138645064449e-06,-0.00017105534965252664,0.9999999780631359,0.003256115401445734,-0.0008388899657470813,-2.6991473862315e-05,0.0008420982700223924,-0.0007219441113312296,-0.000280389589455082,,5.0,5.0,5.0,5.0,2.356194490192345,-2.356194490192345,-0.7853981633974483,0.7853981633974483
2025/04/09 10:58:25.265445496,1744189105,263923063,world_ned,1.76783633381584,11.335617314374048,0.43368420695932824,-0.00011789300596930115,1.3144033024754723e-05,-0.00018464872970404202,0.9999999759166598,-0.002942420606798091,3.365214758779994e-05,-2.2249049154732842e-05,-0.000577220206609995,0.0009775868359014396,-0.0002653067872800898,,5.0,5.0,5.0,5.0,2.356194490192345,-2.356194490192345,-0.7853981633974483,0.7853981633974483
2025/04/09 10:58:25.366046321,1744189105,364713547,world_ned,1.7678534575602045,11.335661909974577,0.433682733081389,-0.00018139427041173874,1.6418019127565188e-05,-0.00019751808432024113,0.9999999639065862,0.0031909213228026234,0.0007441739377531338,-7.675860563390073e-06,-0.0017790420809228147,-0.000817317151444509,-0.0002509615324797611,,5.0,5.0,5.0,5.0,2.356194490192345,-2.356194490192345,-0.7853981633974483,0.7853981633974483
2025/04/09 10:58:25.457770535,1744189105,456681524,world_ned,1.7678570097017052,11.335761364542748,0.4336826131348777,-0.00029275481353867013,1.797997561807602e-05,-0.00020970165862163826,0.9999999349982749,-0.0030226293308406845,0.001144513034264497,5.9557982278147e-06,-0.002507858559290951,0.000854375808030033,-0.0002380258670497559,,5.0,5.0,5.0,5.0,2.356194490192345,-2.356194490192345,-0.7853981633974483,0.7853981633974483
2025/04/09 10:58:25.561850258,1744189105,560955400,world_ned,1.767865930337887,11.33588036009508,0.43368397623174704,-0.00042419804008850313,1.4862871253830907e-05,-0.00022127170968393826,0.9999998854369676,0.0031092718665859504,0.0011670330349326991,2.1047381336988496e-05,-0.00262870524545947,-0.0009455099463417926,-0.00022624489468341084,,5.0,5.0,5.0,5.0,2.356194490192345,-2.356194490192345,-0.7853981633974483,0.7853981633974483
2025/04/09 10:58:25.665953421,1744189105,663051830,world_ned,1.7678619309165504,11.335981243674484,0.433686313379418,-0.0005446192246508526,1.0434735284451678e-05,-0.00023227460447973773,0.9999998246647469,-0.003091301308261624,0.0008299810197960055,2.6721248146132095e-05,-0.0021424367343614676,0.0007447942288439226,-0.00021516154175827809,,5.0,5.0,5.0,5.0,2.356194490192345,-2.356194490192345,-0.7853981633974483,0.7853981633974483
2025/04/09 10:58:25.768487284,1744189105,766463367,world_ned,1.767865176903609,11.336033072807007,0.4336890244475941,-0.0006271107895503212,2.8031506156263726e-06,-0.00024272144389794102,0.9999997739052248,0.0030637944045778325,0.0002335080999071503,2.7722877611435103e-05,-0.001190866037683603,-0.0010172219199858095,-0.00020406652636810747,,5.0,5.0,5.0,5.0,2.356194490192345,-2.356194490192345,-0.7853981633974483,0.7853981633974483
2025/04/09 10:58:25.869388877,1744189105,866761093,world_ned,1.767858170490802,11.33601795202636,0.43369137045220707,-0.000654797221240245,-3.908909448473026e-06,-0.0002526385857997226,0.9999997536995019,-0.0031073967880160705,-0.0004690361922307112,1.9694677828844704e-05,-2.1066419445188483e-05,0.0007222204169369779,-0.00019407500590956287,,5.0,5.0,5.0,5.0,2.356194490192345,-2.356194490192345,-0.7853981633974483,0.7853981633974483
2025/04/09 10:58:25.962719521,1744189105,959411966,world_ned,1.7678614958763283,11.335934647831301,0.4336928944364031,-0.0006244924859635234,-1.123917323679428e-05,-0.00026206154044922916,0.9999997706032562,0.0030795482840778408,-0.0011086793573628602,9.126113430242846e-06,0.0010898872404028507,-0.0009869852944686518,-0.00018403903723418364,,5.0,5.0,5.0,5.0,2.356194490192345,-2.356194490192345,-0.7853981633974483,0.7853981633974483
2025/04/09 10:58:26.62706920,1744189106,61178393,world_ned,1.7678575652122719,11.335797894722521,0.4336930447104409,-0.0005461253524476536,-1.5118774516581812e-05,-0.0002709994503149365,0.9999998140388927,-0.0030641674426918576,-0.0015376603737488651,-6.980531291525173e-06,0.0018944540239459648,0.0007999849471372186,-0.0001747027576078493,,5.0,5.0,5.0,5.0,2.356194490192345,-2.356194490192345,-0.7853981633974483,0.7853981633974483
2025/04/09 10:58:26.165647512,1744189106,162949559,world_ned,1.7678662147124056,11.335634179690706,0.4336918014479142,-0.00043996082227702434,-1.76188902455965e-05,-0.00027949301515753307,0.9999998640038428,0.003140414870129907,-0.0016697252003426604,-1.8807157905901958e-05,0.002231750747340211,-0.0008771586164546655,-0.00016612730461515202,,5.0,5.0,5.0,5.0,2.356194490192345,-2.356194490192345,-0.7853981633974483,0.7853981633974483
2025/04/09 10:58:26.266427602,1744189106,265188344,world_ned,1.7678687754375773,11.335474702810911,0.43368945213510973,-0.000331291245805492,-1.5606957529793336e-05,-0.0002875760587843977,0.9999999036512672,-0.002997711293406054,-0.0014859391105095428,-2.7582568431281247e-05,0.0020448643645884536,0.0009212460323555265,-0.00015810899876131265,,5.0,5.0,5.0,5.0,2.356194490192345,-2.356194490192345,-0.7853981633974483,0.7853981633974483
2025/04/09 10:58:26.359442741,1744189106,358072228,world_ned,1.7678855469592758,11.33534885113264,0.43368675007911417,-0.00024520350674534034,-1.249613783830104e-05,-0.0002952658421605394,0.9999999262685819,0.0032171288608059557,-0.0010397566043853026,-2.669470862595278e-05,0.0013980434022512242,-0.0007718897572915076,-0.00015029750029855446,,5.0,5.0,5.0,5.0,2.356194490192345,-2.356194490192345,-0.7853981633974483,0.7853981633974483
2025/04/09 10:58:26.460521654,1744189106,458886101,world_ned,1.7678938780093114,11.335276858099776,0.4336842449899376,-0.00020020593749445447,-5.777200623153419e-06,-0.0003025736869407668,0.9999999341666831,-0.002953482130509606,-0.0004453346809169488,-2.208881539728232e-05,0.0004641816455850495,0.0010021826128974547,-0.000142816398700753,,5.0,5.0,5.0,5.0,2.356194490192345,-2.356194490192345,-0.7853981633974483,0.7853981633974483
2025/04/09 10:58:26.560434075,1744189106,559804162,world_ned,1.7679119022441772,11.335266006655727,0.4336828047796633,-0.00020449929655250827,5.823524298177181e-07,-0.0003095305504503127,0.9999999311852661,0.0032167857317963173,0.00015763314480888964,-7.470677742010433e-06,-0.0005257060576299075,-0.0007266427472718867,-0.00013624858557180708,,5.0,5.0,5.0,5.0,2.356194490192345,-2.356194490192345,-0.7853981633974483,0.7853981633974483
2025/04/09 10:58:26.661703662,1744189106,660753276,world_ned,1.7679196862446886,11.335309685648323,0.4336826945539219,-0.00025445137100753225,8.104889708027908e-06,-0.0003161686633576349,0.99999991761309,-0.002968336312927647,0.0006373355678502219,5.603938945940917e-06,-0.0013450035634029892,0.0009936579848224927,-0.00012987134276721795,,5.0,5.0,5.0,5.0,2.356194490192345,-2.356194490192345,-0.7853981633974483,0.7853981633974483
2025/04/09 10:58:26.763763426,1744189106,762009114,world_ned,1.7679348883242538,11.335389567061725,0.43368404264972515,-0.0003364062241139003,1.266678039670066e-05,-0.00032249227327080465,0.9999998913345635,0.003176145655600078,0.0008901593022537664,2.022613258796345e-05,-0.001815017542112344,-0.0007848098440740548,-0.00012374973899067116,,5.0,5.0,5.0,5.0,2.356194490192345,-2.356194490192345,-0.7853981633974483,0.7853981633974483
2025/04/09 10:58:26.863819948,1744189106,862848573,world_ned,1.7679374534003434,11.335479906977096,0.43368633189151773,-0.00042993578877156103,1.619916949782029e-05,-0.00032852557384076877,0.9999998534818652,-0.0030295061122460956,0.0008729255937982768,2.6316099760507127e-05,-0.0018476043987512925,0.0008980859001838234,-0.00011820020246974286,,5.0,5.0,5.0,5.0,2.356194490192345,-2.356194490192345,-0.7853981633974483,0.7853981633974483
2025/04/09 10:58:26.967624659,1744189106,965159259,world_ned,1.767945867742723,11.335554423247226,0.43368905725001605,-0.0005132132988072923,1.537635506293361e-05,-0.0003342839768216758,0.9999998123149326,0.0031047288162700413,0.0006059870543652267,2.810589464475479e-05,-0.0014560729198312245,-0.0008992858254115663,-0.00011278305021780875,,5.0,5.0,5.0,5.0,2.356194490192345,-2.356194490192345,-0.7853981633974483,0.7853981633974483
2025/04/09 10:58:27.67562276,1744189107,65903225,world_ned,1.7679412951552933,11.335591775831972,0.43369129209251445,-0.0005675763036401124,1.3137191953673347e-05,-0.0003397807087602278,0.9999997811167879,-0.0030980713831711064,0.00016497262096890495,1.8486164512798633e-05,-0.000750600415032994,0.0007855964293995916,-0.00010773230422174479,,5.0,5.0,5.0,5.0,2.356194490192345,-2.356194490192345,-0.7853981633974483,0.7853981633974483
2025/04/09 10:58:27.158845364,1744189107,157710430,world_ned,1.7679439162329313,11.335580474794197,0.43369253458337664,-0.0005820999795110768,7.233452896288215e-06,-0.0003451746486545872,0.9999997709808502,0.0030934886408277825,-0.0003487786479006278,4.998693124819176e-06,0.00010051989019940194,-0.0009805981901760555,-0.00013078743381831056,,5.0,5.0,5.0,5.0,2.356194490192345,-2.356194490192345,-0.7853981633974483,0.8003981633974483
2025/04/09 10:58:27.262210831,1744189107,261127764,world_ned,1.76795465683056,11.335518386907587,0.4336921102976292,-0.0005545155251645333,3.1942649063290956e-06,-0.0003573845903586966,0.9999997823892681,-0.002964413248825167,-0.0008018403192307831,-1.113283981832396e-05,0.0008776190732085146,0.0007656175528465214,-0.00022940661611090443,,5.0,5.0,5.0,5.0,2.356194490192345,-2.356194490192345,-0.7853981633974483,0.8153981633974483
2025/04/09 10:58:27.363935768,1744189107,363250175,world_ned,1.7679527682121834,11.335423584783312,0.43369049649704705,-0.0004954067290551795,-4.24389163768274e-06,-0.00036180593781671153,0.9999998118252951,0.002953247650515566,-0.0010544679583254697,-2.2168338222320365e-05,0.0014006965468794745,-0.001013531915309192,-2.83502009624198e-05,,5.0,5.0,5.0,5.0,2.356194490192345,-2.356194490192345,-0.7853981633974483,0.7853981633974483
2025/04/09 10:58:27.466146392,1744189107,464965478,world_ned,1.7679364300198102,11.335311704291456,0.4336879575631886,-0.00041793998723291514,-1.0146321661431456e-05,-0.00036317989048112985,0.9999998466617814,-0.0031880285490441733,-0.0011349310859804771,-2.7613238597866038e-05,0.0016113812620834724,0.0007501776272459672,-2.6892199696197325e-05,,5.0,5.0,5.0,5.0,2.356194490192345,-2.356194490192345,-0.7853981633974483,0.7853981633974483
2025/04/09 10:58:27.566852230,1744189107,566194669,world_ned,1.7679347761735553,11.335204498314027,0.43368551050557536,-0.00034046066167107037,-1.5827375496163242e-05,-0.0003644805268605712,0.999999875494981,0.0030322801696578685,-0.0009879823296882527,-2.2641470924097866e-05,0.0014433238513561234,-0.0009441499859427925,-2.5412484024235368e-05,,5.0,5.0,5.0,5.0,2.356194490192345,-2.356194490192345,-0.7853981633974483,0.7853981633974483
2025/04/09 10:58:27.659892732,1744189107,658680268,world_ned,1.7679347934622152,11.33511696823854,0.4336835261298515,-0.0002787871270557857,-1.61400372220846e-05,-0.00036602643093338976,0.9999998940209388,-0.002778304839542958,-0.0009354620103149565,-1.7214445553427796e-05,0.0011307487086603875,0.0009273880149773637,-5.589097639190875e-05,,5.0,5.0,33.0,33.0,2.356194490192345,-2.356194490192345,-0.7703981633974483,0.7703981633974483
2025/04/09 10:58:27.767753437,1744189107,759399033,world_ned,1.7680210644738032,11.335000348971365,0.4336826429035379,-0.00022686080544818466,-7.104939901486482e-06,-0.0003716886833739948,0.9999999051656042,0.0045094104813061245,-0.0013075331006392812,-3.195056772437924e-06,0.0009089634953079455,-0.0005293379449624009,-0.00015827228498224407,,7.0,5.0,56.0,57.0,2.3361944901923453,-2.356194490192345,-0.7153981633974482,0.7153981633974482
2025/04/09 10:58:27.863469828,1744189107,862701959,world_ned,1.7682572359790494,11.334858326914345,0.43368300300818063,-0.00019380619257083488,2.1234536235707165e-05,-0.00038227181712228276,0.9999999079282518,0.00036376791468474735,-0.0015093642238500297,9.918001479040235e-06,0.0004407484530552526,0.001626720476581415,-0.0002565153540127254,,5.0,5.0,83.00000000000001,83.00000000000001,2.3261944901923455,-2.356194490192345,-0.6653981633974482,0.6653981633974482
2025/04/09 10:58:27.966516105,1744189107,963621898,world_ned,1.7687281872268625,11.334698743199441,0.43368443891426833,-0.00018695712743695698,7.644047302227098e-05,-0.00039783196960815816,0.9999999004668003,0.005337414935940622,-0.0016150388316579977,1.7416833657267466e-05,-0.00014689095971452912,0.001575978611895496,-0.0003484619618360061,,8.0,5.0,108.99999999999999,110.00000000000001,2.3361944901923453,-2.356194490192345,-0.6153981633974481,0.6153981633974481
2025/04/09 10:58:28.65738709,1744189108,64624302,world_ned,1.7695002214486049,11.33453146345564,0.4336875770809192,-0.0002101582654195049,0.00016365588004005972,-0.0004174466941733342,0.9999998773942494,0.011801232709661368,-0.0017685304862263382,3.756019233232293e-05,-0.0006673514376926829,0.0013694265437961671,-0.000431800367581305,,5.0,5.0,135.0,136.0,2.3261944901923455,-2.356194490192345,-0.5653981633974481,0.5653981633974481
2025/04/09 10:58:28.163060651,1744189108,161398183,world_ned,1.77080519893968,11.33433447945841,0.4336912987746519,-0.0002532906044996315,0.0002605220091874317,-0.0004404379210502451,0.9999998369932818,0.013342197714819076,-0.0020882892429083355,3.658228718703289e-05,-0.0010232750486520166,0.002661032482275805,-0.00047669994789396674,,9.0,5.0,161.0,161.0,2.3311944901923454,-2.356194490192345,-0.520398163397448,0.520398163397448
2025/04/09 10:58:28.264170803,1744189108,263342148,world_ned,1.7725165022758018,11.334108851913221,0.43369293406640297,-0.0003108494902019036,0.00038569898546883904,-0.00046534846835107215,0.9999997690298184,0.02121295591133179,-0.0023764035017060686,2.1899083795014437e-05,-0.001218250385445836,0.002017557796024753,-0.00052302208452208,,9.0,5.0,161.0,161.0,2.2811944901923464,-2.356194490192345,-0.470398163397448,0.470398163397448
2025/04/09 10:58:28.360782738,1744189108,357213943,world_ned,1.7747774261256337,11.333844125445479,0.43369288605631995,-0.0003696902973196995,0.0005012497558052868,-0.0004940215843407543,0.9999996840101704,0.025922768217234386,-0.0028690512151372705,2.043783333368057e-05,-0.0010919557722878822,0.001981404703157056,-0.0006226069885965836,,5.0,5.0,184.99999999999997,184.99999999999997,2.2261944901923476,-2.356194490192345,-0.41539816339744795,0.41539816339744795
2025/04/09 10:58:28.465154294,1744189108,462361965,world_ned,1.7775539104006317,11.333518017505892,0.43369087332951667,-0.0004143678378425083,0.0006066226672312974,-0.000527833414582038,0.9999995908499768,0.03330901354905675,-0.0035442551159265705,-6.7878165907045144e-06,-0.0007074979377645728,0.0009885077710240391,-0.0007108432468125798,,5.0,5.0,184.99999999999997,184.99999999999997,2.1761944901923487,-2.356194490192345,-0.3653981633974479,0.3653981633974479
2025/04/09 10:58:28.563974458,1744189108,562831109,world_ned,1.7808683375781345,11.33312307415968,0.4336843887494628,-0.0004357771365300553,0.0006847897712846131,-0.0005653355115660341,0.9999995107783882,0.034521686413614035,-0.004193911038036999,-4.124729179416805e-05,-0.0002064581009089358,0.0017651299388636039,-0.0007797110371983685,,7.0,5.0,226.0,227.0,2.1261944901923497,-2.356194490192345,-0.31539816339744786,0.31539816339744786
2025/04/09 10:58:28.664604413,1744189108,663618192,world_ned,1.7849064026811303,11.332668207321905,0.43367530290260203,-0.0004334459202994816,0.0007352056769122917,-0.0006052655537138939,0.9999994526252783,0.04568173320139626,-0.004713429354125871,-2.553907624483041e-05,0.00021308893089482293,0.0004341060209475869,-0.0008090106908065544,,10.0,5.0,276.0,277.0,2.076194490192351,-2.356194490192345,-0.2653981633974478,0.2653981633974478
2025/04/09 10:58:28.765583224,1744189108,764758934,world_ned,1.7897736435016616,11.332165485983667,0.43366775221741166,-0.0004137889040014574,0.0007781185738482667,-0.0006462290546029315,0.9999994028489402,0.0495708981122908,-0.005206167761112196,1.619011193784901e-05,0.0005603610201506318,0.0017066228777868964,-0.0008302952164113785,,10.0,5.0,295.0,295.0,2.0311944901923518,-2.356194490192345,-0.22039816339744778,0.22039816339744778
2025/04/09 10:58:28.860765992,1744189108,858711520,world_ned,1.7956829874256264,11.331611587926316,0.43366269755090475,-0.00037864975630524396,0.0007957688916080419,-0.0006885090324418125,0.9999993746655772,0.06651810163313616,-0.005702206573514766,5.005344293045878e-05,0.0008337182141687348,-0.0006688996347178106,-0.0008659791668403111,,5.0,5.0,296.0,296.0,1.976194490192353,-2.356194490192345,-0.16539816339744773,0.16539816339744773
2025/04/09 10:58:28.962924924,1744189108,961934140,world_ned,1.802386090303448,11.331001769289266,0.4336601657156291,-0.0003308842078964387,0.0008157361567253246,-0.0007329731311576965,0.9999993439200611,0.06915147887383195,-0.006193358863415154,8.787049315667401e-05,0.000996838654617907,0.00076774074324993,-0.0009037589131270878,,9.0,5.0,296.0,296.0,1.926194490192354,-2.356194490192345,-0.11539816339744768,0.11539816339744768
2025/04/09 10:58:29.66782483,1744189109,65662653,world_ned,1.810005576161243,11.330357134383025,0.4336593290682871,-0.00028431187718708657,0.0008108353696370602,-0.0007777537331286634,0.9999993284057197,0.07975267202680109,-0.006457578647660574,0.00017716991934583733,0.0008901676073440195,-0.000175643027808337,-0.0008872421325085007,,9.0,5.0,297.0,297.0,1.876194490192355,-2.356194490192345,-0.06539816339744764,0.06539816339744764
2025/04/09 10:58:29.158874507,1744189109,156409112,world_ned,1.8186194885065161,11.329688313760279,0.43366232727037396,-0.00024975621243722917,0.0007635800713006693,-0.0008216191510276498,0.9999993397544219,0.08848200615184833,-0.0066483773359715705,0.00019170741656967426,0.0005529960165925117,-0.0007313275602877924,-0.0008761123687245689,,5.0,5.0,298.0,298.0,1.8611944901923554,-2.356194490192345,-0.02039816339744765,0.02039816339744765
2025/04/09 10:58:29.260417706,1744189109,258273066,world_ned,1.8279787366520424,11.329011384089752,0.4336708996737033,-0.0002363892452742094,0.0007114755508531483,-0.000865213485249053,0.9999993446639304,0.10001290943531173,-0.0063147725550030545,0.0002491142204219702,-0.0001390849786193448,-0.0018688793108950358,-0.0008550262165956522,,5.0,5.0,298.0,298.0,1.881194490192355,-2.356194490192345,2.407412430484045e-35,0.0
2025/04/09 10:58:29.364794589,1744189109,360392083,world_ned,1.8381662520826731,11.328407993835567,0.4336815601242308,-0.00027086956165575074,0.000654317308607249,-0.0009064535575096575,0.9999993384200253,0.11034647855538529,-0.0054984960496582665,0.0002400407311784148,-0.0011057325600606473,-0.0024793153333657297,-0.0008003493654323715,,5.0,5.0,298.0,299.0,1.8661944901923553,-2.356194490192345,2.407412430484045e-35,0.0
2025/04/09 10:58:29.462202592,1744189109,461339884,world_ned,1.8491135731165562,11.32787425729013,0.43369169838936966,-0.00034686654264088544,0.0006074978245158673,-0.0009449142543040481,0.9999993088832846,0.10973232538085381,-0.0048768137871414,0.00022966068423151625,-0.0017952077011489213,7.56573322242393e-05,-0.0007479506141626563,,5.0,5.0,299.0,299.0,1.9161944901923542,-2.356194490192345,2.407412430484045e-35,0.0
2025/04/09 10:58:29.563095946,1744189109,562258091,world_ned,1.8610819776785796,11.327384349734576,0.4336989634351499,-0.0004453944541809538,0.0005387496350722371,-0.0009809619066499656,0.9999992745429112,0.12434425819783755,-0.0045401116943853325,0.0001749105108503102,-0.002043925933047155,-0.0015666264775007599,-0.0007027218116643383,,5.0,5.0,300.0,300.0,1.9661944901923532,-2.356194490192345,2.407412430484045e-35,0.0
2025/04/09 10:58:29.666344164,1744189109,664915644,world_ned,1.8737473374480353,11.326910325716614,0.4337030791706209,-0.0005428677714644961,0.000499072717377207,-0.0010155173115830017,0.9999992124724876,0.13066197572923252,-0.004424561084918095,0.00016918269494937147,-0.0018442839400313244,-0.0007441836869954829,-0.0007286847684572791,,9.0,5.0,300.0,300.0,1.976194490192353,-2.356194490192345,2.407412430484045e-35,0.017453292519943295
2025/04/09 10:58:29.769049713,1744189109,767320359,world_ned,1.887178717758677,11.326447204445387,0.43370569939925807,-0.0006241991806913891,0.00048011510785168785,-0.0010526734130067248,0.9999991358714024,0.13582687055331405,-0.004329171308465887,0.00012635912095972633,-0.0013919358720148951,0.0003103342247476384,-0.0007373205533023235,,9.0,5.0,300.0,300.0,1.921194490192354,-2.356194490192345,2.407412430484045e-35,0.017453292519943295
2025/04/09 10:58:29.861941504,1744189109,860372258,world_ned,1.9014192026287573,11.325976834348378,0.4337017884853455,-0.0006725907592945179,0.0004692156093498493,-0.0010882469762494359,0.9999990715880196,0.14724236747431987,-0.004557693911093438,7.496828415447831e-05,-0.0005180696347276939,-0.0005246304446018186,-0.0006377458533693099,,5.0,5.0,301.0,301.0,1.9161944901923542,-2.356194490192345,-6.776263578031995e-23,-4.336808689942018e-19
2025/04/09 10:58:29.963989535,1744189109,961211667,world_ned,1.9163512372822202,11.325460045954378,0.4336937107931818,-0.0006669250132168539,0.00047735173559618666,-0.0011176594420530127,0.9999990390913978,0.15316643230931629,-0.0050489431540331154,3.433517141742564e-05,0.0006069484659246739,9.243891825208022e-05,-0.0005712272225569756,,5.0,5.0,301.0,301.0,1.9661944901923532,-2.356194490192345,2.407412430484045e-35,0.0
2025/04/09 10:58:30.65023747,1744189110,63679737,world_ned,1.9318898798952202,11.324898458016861,0.4336823908477856,-0.000609582736132742,0.0005079259381365526,-0.0011452918060163824,0.9999990293629331,0.1553361331696362,-0.005409867453449578,3.624167120820465e-05,0.0015420170203692678,0.0015331694578314442,-0.000536080172767041,,5.0,5.0,301.0,301.0,1.9811944901923528,-2.356194490192345,2.407412430484045e-35,0.0
2025/04/09 10:58:30.166718522,1744189110,165358481,world_ned,1.9482048151027997,11.324310260333968,0.4336709084403763,-0.0005150482923852605,0.0005251462118402991,-0.0011711284948396968,0.9999990437019234,0.16600196047416524,-0.005533462738904958,6.072067703941607e-05,0.00209986625992966,0.00033903623383620764,-0.0004986573548236924,,5.0,5.0,302.0,302.0,1.926194490192354,-2.356194490192345,2.407412430484045e-35,0.0
2025/04/09 10:58:30.257838613,1744189110,256655198,world_ned,1.965085302502121,11.323723591377998,0.4336617147728854,-0.0004057802144557327,0.0005472991265369772,-0.0011950708411304278,0.9999990538054365,0.17153409692723495,-0.005362978531535065,0.00010506569837649575,0.002172022658971743,0.0003746457143106253,-0.00045986787838356546,,5.0,5.0,301.0,301.0,1.9061944901923544,-2.356194490192345,2.407412430484045e-35,-6.776263578034403e-23
2025/04/09 10:58:30.359935714,1744189110,357775896,world_ned,1.9825310598729808,11.323167804425042,0.4336572175190935,-0.0003065970224867639,0.0005636530758716572,-0.001217094343687912,0.9999990534869693,0.17819841518662957,-0.004916067266973825,0.0001904118521130919,0.0017662949014473428,-9.002470282022987e-05,-0.00042259094543579457,,5.0,5.0,302.0,302.0,1.9561944901923534,-2.356194490192345,2.407412430484045e-35,0.0
2025/04/09 10:58:30.460587814,1744189110,459419253,world_ned,2.000598989567588,11.322666931576032,0.43366122096156,-0.0002389815983301483,0.0005596536728703574,-0.0012372787666548666,0.999999049407956,0.18530462256442712,-0.004248105623768787,0.0002721270417663318,0.0009589822911211021,-0.000817199399258057,-0.000387356416813877,,5.0,5.0,303.0,303.0,2.0011944901923524,-2.356194490192345,2.407412430484045e-35,0.0
2025/04/09 10:58:30.564013776,1744189110,562758482,world_ned,2.0191761304044378,11.322236976155477,0.4336688026674673,-0.00021799278226308644,0.0005457310718176231,-0.001255766409484668,0.9999990388532726,0.18929635909273654,-0.0034966424044001977,0.0002901427301066389,-3.141725629975092e-05,-0.0007177057594279051,-0.0003555375930083665,,5.0,5.0,303.0,303.0,2.0561944901923512,-2.356194490192345,2.407412430484045e-35,0.0
2025/04/09 10:58:30.664832099,1744189110,663581514,world_ned,2.038291934012942,11.321879346043943,0.43367755728415824,-0.0002471583433580069,0.0005160738611200369,-0.001272721123686178,0.9999990263802583,0.1899839865542613,-0.0027804371200659934,0.00029231834951398526,-0.0010097430296718466,0.00027628236413859757,-0.0003272463284931644,,5.0,5.0,303.0,303.0,2.10619449019235,-2.356194490192345,2.407412430484045e-35,3.3881317890172014e-23
2025/04/09 10:58:30.765230663,1744189110,764311623,world_ned,2.0579491160315073,11.321581986926748,0.4336848786068929,-0.00031865615708938437,0.00047084995613816237,-0.00128840171183873,0.999999008389309,0.19569241206466453,-0.002244609561436354,0.00025277070565210937,-0.0017290046048075455,-0.0001096721145414184,-0.0003046288573644228,,5.0,5.0,303.0,303.0,2.156194490192349,-2.356194490192345,2.407412430484045e-35,0.0
2025/04/09 10:58:30.866772346,1744189110,865630063,world_ned,2.078091254323575,11.32132187887474,0.4336913187424666,-0.00041494524884882274,0.0004218643412777389,-0.0013029994933645725,0.9999989760210949,0.20880913932557557,-0.001987542515607066,0.0002184017670847347,-0.00201395784491612,-0.002436322353184858,-0.00028420593493755066,,5.0,5.0,304.0,304.0,2.206194490192348,-2.356194490192345,2.407412430484045e-35,0.0
2025/04/09 10:58:30.959024139,1744189110,957324371,world_ned,2.098695153432231,11.321068935172464,0.43369458950560835,-0.0005119773534504983,0.0003793383809135317,-0.0013167056078974243,0.9999989301333899,0.20737163154743932,-0.0020319178087443413,0.0001711365007007869,-0.0018110410533558883,-0.0005683673341842005,-0.0002687167798033853,,5.0,5.0,303.0,303.0,2.256194490192347,-2.356194490192345,2.407412430484045e-35,-1.6940658945086007e-23
2025/04/09 10:58:31.59719847,1744189111,58027232,world_ned,2.119825249050041,11.320795154358466,0.43369450701753154,-0.0005868395783236516,0.0003379762732408484,-0.0013297688332846603,0.9999988865524791,0.20835744550636362,-0.0023256517708605253,0.00012313785501027867,-0.001191213480650653,0.0007004754110984293,-0.0002576536270887841,,5.0,5.0,305.00000000000006,305.00000000000006,2.306194490192346,-2.356194490192345,-8.47032947251893e-24,-5.082197683525802e-23
2025/04/09 10:58:31.160668491,1744189111,159289216,world_ned,2.1414045751646014,11.32048080823497,0.43369275029949766,-0.000622484774887425,0.0003134614747927151,-0.0013424666329960495,0.9999988560183197,0.21501231195969667,-0.0027767163486402753,0.00010972693354581084,-0.00029584265590766313,0.00046385100522984736,-0.00025239388460228217,,5.0,5.0,305.00000000000006,305.00000000000006,2.356194490192345,-2.356194490192345,2.407412430484045e-35,-1.6940658945086004e-23
2025/04/09 10:58:31.262073212,1744189111,260154842,world_ned,2.1634998001701593,11.320117294066803,0.43368960506894705,-0.0006109960385090189,0.00029708976831209136,-0.0013549733416493082,0.9999988512337171,0.2275105800128467,-0.003248067121338867,8.698713668680455e-05,0.0006560168766164271,-0.001449775750316355,-0.00024844020354563423,,5.0,5.0,305.00000000000006,305.00000000000006,2.356194490192345,-2.356194490192345,3.388131789019609e-23,-5.082197683525802e-23
2025/04/09 10:58:31.364827528,1744189111,363126504,world_ned,2.185937012790489,11.319710833291659,0.4336849310061096,-0.0005559015395430561,0.00031060464195528306,-0.0013673127702043477,0.9999988624763646,0.2251670239296956,-0.0035965892767295116,8.168827431684049e-05,0.0014277552853340283,0.0007273960300938774,-0.0002445472789510684,,5.0,5.0,306.00000000000006,306.00000000000006,2.356194490192345,-2.356194490192345,2.407412430484045e-35,-1.6940658945086004e-23
2025/04/09 10:58:31.463975618,1744189111,463006999,world_ned,2.208886584776148,11.319278469246344,0.43368000012068625,-0.00047080876103883267,0.0003244761859761936,-0.00137942660256461,0.9999988851176602,0.23178642865672952,-0.003729439293853935,0.00010705489059952651,0.001856400789079023,0.00023343899349520945,-0.00023910333830841004,,5.0,5.0,305.00000000000006,305.00000000000006,2.356194490192345,-2.356194490192345,2.407412430484045e-35,1.6940658945086004e-23
2025/04/09 10:58:31.565870918,1744189111,564997308,world_ned,2.232242499996706,11.318846640989147,0.43367454182655,-0.00037705909754751885,0.00034398064745379774,-0.0013912058631954571,0.9999989020243959,0.23827397128015482,-0.003588748395006328,0.00011281132662370649,0.0018315013845712073,-0.0003897223670731845,-0.0002310446688249751,,5.0,5.0,308.0,308.0,2.356194490192345,-2.356194490192345,2.407412430484045e-35,0.0
2025/04/09 10:58:31.667570242,1744189111,665950515,world_ned,2.255964302427007,11.318440675115196,0.43367139084513484,-0.0002958203891723424,0.000369236496105079,-0.0014025072158698958,0.9999989045635084,0.2360301089052375,-0.003198825955814059,0.00015297294967478762,0.0013895710788793974,0.001308385213344188,-0.00021903256145909588,,6.0,5.0,308.0,308.0,2.3361944901923453,-2.356194490192345,2.407412430484045e-35,0.0
2025/04/09 10:58:31.761238712,1744189111,758672880,world_ned,2.2800294261250365,11.318083521496076,0.43367038737611996,-0.00024625428752527296,0.00039470329517661903,-0.001413059992699426,0.9999988934141836,0.24120416801181924,-0.0026326146348133973,0.00019142110258063528,0.0006346202685925043,0.0007575543307472118,-0.00020520721350977513,,5.0,5.0,308.99999999999994,308.99999999999994,2.3361944901923453,-2.356194490192345,2.407412430484045e-35,0.0
2025/04/09 10:58:31.860483107,1744189111,859459940,world_ned,2.304457506508266,11.317784154065436,0.43367187490333364,-0.0002381697821522182,0.0004109382857015475,-0.0014230919116304133,0.9999988746065124,0.243560778743554,-0.00202983899482096,0.00022916066065740062,-0.0002300234803222217,0.0008592511421513349,-0.00019664679686145987,,5.0,5.0,308.0,308.0,2.356194490192345,-2.356194490192345,-3.388131789014794e-23,0.0
2025/04/09 10:58:31.961577200,1744189111,960513133,world_ned,2.3292921742885957,11.317540847088535,0.43367582462702847,-0.0002721248168116105,0.0004045993325072011,-0.0014326763296572558,0.9999988548423436,0.25208148029119576,-0.0014926369550048774,0.0002448576756634541,-0.0010183223703625977,-0.0008887686417667051,-0.00018822075387859788,,5.0,5.0,308.0,308.0,2.356194490192345,-2.356194490192345,2.407632835674824e-35,0.0
2025/04/09 10:58:32.63501415,1744189112,61485613,world_ned,2.3543707955046638,11.317341135166053,0.4336816057313394,-0.0003388128706790693,0.0003958694042555373,-0.001441861088125189,0.9999988247642374,0.2540115207746962,-0.0011365796152712191,0.00027884087586320177,-0.0015318198294057882,-0.0007691479899695581,-0.00018136285021543678,,5.0,5.0,311.0,311.0,2.356194490192345,-2.356194490192345,2.407412430484045e-35,0.0
2025/04/09 10:58:32.163379474,1744189112,162228951,world_ned,2.3797976849000393,11.317162949661322,0.43368933613175065,-0.00042116116824779637,0.00037340915416898064,-0.0014507432029631866,0.9999987892657836,0.25982099976813294,-0.0010148878866320518,0.0002687582920026781,-0.0016703114429042494,-0.0016776059786426413,-0.00017688909069261643,,5.0,5.0,311.0,311.0,2.356194490192345,-2.356194490192345,2.407412430484045e-35,0.0
2025/04/09 10:58:32.264114697,1744189112,263113955,world_ned,2.405599485788691,11.316982326473692,0.43369673555529364,-0.0004996868120773011,0.00033549422277877366,-0.0014594691445928539,0.9999987538524897,0.2560691088316505,-0.001114320368045786,0.00023638540296742647,-0.001442634997324615,0.00011771950496751576,-0.00017481421654407664,,5.0,5.0,312.0,312.0,2.356194490192345,-2.356194490192345,-2.1175823681116757e-24,-4.235164736271502e-24
2025/04/09 10:58:32.364774872,1744189112,363935929,world_ned,2.4316218315385805,11.316779092440612,0.4337026055522487,-0.000556703291278104,0.0003074035594772213,-0.0014680584459529464,0.9999987201936292,0.26684705697076877,-0.0014086234169181323,0.00021334476561133412,-0.000860248603560586,-0.002030692668010407,-0.00016821432014916494,,7.0,5.0,312.0,312.0,2.341194490192345,-2.356194490192345,-2.1175823681116727e-24,4.235164736271498e-24
2025/04/09 10:58:32.466522659,1744189112,464777292,world_ned,2.4579783054680346,11.316542018276893,0.4337053643875415,-0.0005805079983961395,0.00027660527312999304,-0.0014760660220698243,0.9999987038637026,0.26424116601013065,-0.0017632897584903108,0.00015671663085772825,-0.00013438323436365055,-0.0003870093724038525,-0.00015471271237927096,,6.0,5.0,311.0,311.0,2.2911944901923462,-2.356194490192345,2.40781650666714e-35,4.235164736271498e-24
2025/04/09 10:58:32.571702614,1744189112,565813856,world_ned,2.4846509927673726,11.316266279009733,0.4337046382814955,-0.0005663150191456955,0.00024866956043726054,-0.0014834242668150684,0.9999987084507627,0.2615714905380228,-0.0021188127476398197,0.00010111691232796532,0.0006044764342443539,0.001343367854892921,-0.0001413572098485874,,6.0,5.0,314.0,314.0,2.2361944901923474,-2.356194490192345,2.40781650666714e-35,4.235164736271498e-24
2025/04/09 10:58:32.660709966,1744189112,656528436,world_ned,2.5116441125457523,11.315958578561034,0.43370033296877697,-0.000518729520992808,0.0002278768249607158,-0.0014900923191035465,0.9999987293075513,0.2701742574043731,-0.002380925268233924,5.366254540606195e-05,0.00119943793619475,5.124158454933359e-06,-0.00012842011887162914,,5.0,5.0,314.0,314.0,2.2261944901923476,-2.356194490192345,-8.470329472518924e-24,-3.6734198463196485e-39
2025/04/09 10:58:32.759562550,1744189112,757578575,world_ned,2.538947841606502,11.315631148905767,0.43369379708491673,-0.000448200706259193,0.00021767821826721174,-0.0014962612050201478,0.9999987564665901,0.2799707708522669,-0.002492822140177186,5.407659378460326e-05,0.0015351252026161609,-0.0016558569671572252,-0.0001187189737806492,,5.0,5.0,316.0,316.0,2.2761944901923465,-2.356194490192345,-8.470329472518924e-24,-3.6734198463196485e-39
2025/04/09 10:58:32.860785921,1744189112,859204976,world_ned,2.5664873180418746,11.315302650535692,0.43368583132445215,-0.0003701925299427645,0.00022911535418657526,-0.0015020123544537284,0.9999987772105186,0.27643414771465863,-0.002397962885946023,4.561861376794814e-05,0.0015229472339865226,0.0004200120260985617,-0.00011183964637046366,,5.0,5.0,316.0,316.0,2.3261944901923455,-2.356194490192345,-8.470329472518922e-24,-2.938735877055719e-39
2025/04/09 10:58:32.964217030,1744189112,963161960,world_ned,2.5943137392272297,11.314994448932785,0.4336791795937916,-0.00030312094409806924,0.0002504832489672159,-0.0015074854342331005,0.999998786431014,0.27381119333490933,-0.002090410829927657,7.978897238659007e-05,0.0011416064097072864,0.002095229439519801,-0.00010638851053890026,,5.0,5.0,316.0,316.0,2.356194490192345,-2.356194490192345,2.408147114453309e-35,-2.938735877055719e-39
2025/04/09 10:58:33.65657251,1744189113,64267149,world_ned,2.622496949051927,11.314724196631081,0.43367433607258216,-0.00026281844497182935,0.000265020330985166,-0.0015126893022556374,0.9999987862301454,0.28818388443085574,-0.0016392314840389562,0.00011227728884150251,0.0005003461487907343,-0.0011475304035756424,-0.00010148067813492251,,5.0,5.0,316.0,316.0,2.3361944901923453,-2.356194490192345,2.408147114453309e-35,-2.938735877055719e-39
2025/04/09 10:58:33.159480381,1744189113,156681266,world_ned,2.650830037105823,11.314502002579461,0.43367209387767824,-0.00025820098983531694,0.00029482275598278617,-0.0015175900728505076,0.9999987716653267,0.27978935026571433,-0.0011371121165106993,0.00016081908357847938,-0.00024690819646203035,0.0018967716514630075,-9.458258619896336e-05,,5.0,5.0,319.0,319.0,2.2911944901923462,-2.356194490192345,2.408147114453309e-35,-2.938735877055719e-39
2025/04/09 10:58:33.260967867,1744189113,259056280,world_ned,2.6794368022389494,11.314325999219065,0.433672459793014,-0.0002891066280990858,0.0003185192655307727,-0.0015220573796757694,0.9999987491513017,0.28930134460891416,-0.0006977480316316872,0.0002082199956156021,-0.000911297624537543,-0.0001892140596462828,-8.482460652466974e-05,,5.0,5.0,320.0,320.0,2.2761944901923465,-2.356194490192345,2.408147114453309e-35,-5.877471754111438e-39
2025/04/09 10:58:33.361604395,1744189113,359827174,world_ned,2.7082632495408214,11.314185727078357,0.43367709906923424,-0.0003478712772522739,0.00033734215064310023,-0.0015260254572726402,0.9999987182152543,0.2841942419603409,-0.0004141905951714921,0.00025746061501160316,-0.0013420995005331466,0.0017351106316245456,-7.659988167046042e-05,,5.0,5.0,320.0,320.0,2.3261944901923455,-2.356194490192345,2.4082940512471615e-35,-5.877471754111438e-39
2025/04/09 10:58:33.464829148,1744189113,463392695,world_ned,2.7374165264728543,11.314061746655723,0.43368373542810384,-0.00041972186134381817,0.00033194688890344636,-0.001529747040727767,0.9999986867585444,0.29687024738031775,-0.00033007138504223934,0.0002634716615205667,-0.0014585155631778519,-0.0014314227364959548,-7.399267380624855e-05,,5.0,5.0,321.0,321.0,2.356194490192345,-2.356194490192345,2.4082940512471615e-35,-5.877471754111438e-39
2025/04/09 10:58:33.566234751,1744189113,564985275,world_ned,2.7666883052921136,11.313933711565909,0.43369074365424076,-0.00048758026877444497,0.00032927177416505233,-0.0015333991606989055,0.9999986512653876,0.291518442462162,-0.0004567313152155547,0.0002536584841679315,-0.0012249634552235129,0.0004500428325000455,-7.33923081556349e-05,,5.0,5.0,321.0,321.0,2.356194490192345,-2.356194490192345,2.4082940512471615e-35,-5.877471754111438e-39
2025/04/09 10:58:33.669123363,1744189113,665997137,world_ned,2.79623888400154,11.313782355080061,0.43369600655756435,-0.0005355858150841084,0.0003066361460699441,-0.0015370608781740526,0.9999986282820419,0.30014466882885854,-0.0007502474591360959,0.00022336677861032968,-0.0007037526144016825,-0.0015618199721264565,-7.395013178484018e-05,,5.0,5.0,324.0,324.0,2.356194490192345,-2.356194490192345,-1.6940658945061924e-23,-5.877471754111438e-39
2025/04/09 10:58:33.760918497,1744189113,757419468,world_ned,2.8259705262640606,11.313596195792984,0.4336980676631474,-0.0005531742084554191,0.00028127364391878745,-0.001540743229206182,0.9999986204959155,0.29538711701829967,-0.0011075460624887028,0.00015873776451744015,-5.850175688404434e-05,0.00025070345948131624,-7.320420491741627e-05,,5.0,5.0,325.0,325.0,2.356194490192345,-2.356194490192345,2.4082940512471615e-35,-5.877471754111438e-39
2025/04/09 10:58:33.862478870,1744189113,860236360,world_ned,2.8559547718393823,11.313371697260925,0.4336969984038713,-0.0005366274518792944,0.00024822272098159434,-0.001544393103942633,0.9999986326322647,0.30506907280828677,-0.001486902190101632,0.00013076072431398948,0.0006435284719791567,-0.0018351456117234105,-7.283006540510224e-05,,5.0,5.0,325.0,325.0,2.356194490192345,-2.356194490192345,2.4082940512471615e-35,-5.877471754111438e-39
2025/04/09 10:58:33.964232913,1744189113,963324151,world_ned,2.886099479023716,11.31311404055736,0.43369331746386053,-0.0004889942839417322,0.00022617225102214818,-0.0015480047194359262,0.9999986567051437,0.30373257859208186,-0.0017540592804758757,9.049230999733625e-05,0.0011776906362040668,-0.0007439483344834028,-7.15677529726979e-05,,5.0,5.0,326.0,326.0,2.356194490192345,-2.356194490192345,-8.47032947251892e-24,8.470329472542998e-24
2025/04/09 10:58:34.67116311,1744189114,64259562,world_ned,2.9165005808055446,11.312837558408011,0.43368810413695436,-0.0004217012116794105,0.00020642694824661912,-0.0015515102854254824,0.9999986861850556,0.30658981855580264,-0.0018443328964927804,6.161155954630116e-05,0.0014289872178897673,-0.0007510631652038399,-6.850654329330222e-05,,5.0,5.0,327.99999999999994,327.99999999999994,2.356194490192345,-2.356194490192345,8.470329472567087e-24,-5.877471754111438e-39
2025/04/09 10:58:34.161371243,1744189114,156615934,world_ned,2.9471718802850018,11.312563209909959,0.4336819699053061,-0.0003519377927949347,0.0001893562626447281,-0.0015548218113404931,0.9999987114057352,0.3104287550895115,-0.0017274306112040549,6.460292632332894e-05,0.0013358118838344263,-0.0009824755288076834,-6.413191537034997e-05,,5.0,5.0,329.0,329.0,2.356194490192345,-2.356194490192345,-2.117582368111667e-24,2.5410988417629003e-23
2025/04/09 10:58:34.261132880,1744189114,258237149,world_ned,2.978022645896184,11.312309638959416,0.4336782454764868,-0.00029465572888733276,0.00019184853172452994,-0.0015586085817559713,0.9999987235549009,0.3123950438178112,-0.0013852342086522094,8.669360116264318e-05,0.0009180659417286074,-0.0006322130840389312,-0.00013405608315853287,,8.0,5.0,329.0,329.99999999999994,2.3361944901923453,-2.356194490192345,6.352747104431337e-24,0.017453292519943295
2025/04/09 10:58:34.361690185,1744189114,359142743,world_ned,3.009062465418757,11.312111777680924,0.43367631057321293,-0.00027074199889770204,0.00020810635330868166,-0.0015667842114234054,0.9999987142880488,0.30920231916655455,-0.0007462229452614423,0.00011533600112878773,0.00013885474179665546,0.0009276496853329147,-9.779678889452636e-05,,5.0,5.0,329.99999999999994,329.99999999999994,2.3261944901923455,-2.356194490192345,6.352747104431337e-24,4.336808689942018e-19
2025/04/09 10:58:34.460640240,1744189114,459714877,world_ned,3.04038584528288,11.311960893981087,0.4336759156842265,-0.00028111042957033893,0.00021629240866058468,-0.0015697368046789682,0.9999987050596038,0.31434619565429434,-0.0003510836329834755,0.0001406414260131559,-0.00048495511414906164,0.00017511796490791472,-5.746792064856342e-05,,5.0,5.0,333.0,333.0,2.356194490192345,-2.356194490192345,-2.117582368111667e-24,0.0
2025/04/09 10:58:34.562034408,1744189114,560634739,world_ned,3.071820990164131,11.311845586257608,0.43367737736014056,-0.0003200286228321621,0.00024360591547145156,-0.0015724877302711545,0.9999986827592208,0.3120050656891702,-2.170520249432531e-05,0.0001757309429609541,-0.0009973758614771598,0.001486476102570504,-5.115064537998154e-05,,7.0,5.0,333.0,333.0,2.3361944901923453,-2.356194490192345,2.408404253842551e-35,-6.617444900424222e-26
2025/04/09 10:58:34.663236562,1744189114,662170933,world_ned,3.1034844551294776,11.31175714360282,0.4336811860308337,-0.00037970310685151083,0.0002667366577560921,-0.0015747033444290656,0.9999986524923337,0.3184572745851823,0.00017667021651623474,0.00021351105321295414,-0.001293555845616763,0.00017726560279617923,-4.090185527696235e-05,,5.0,5.0,335.0,335.0,2.3211944901923456,-2.356194490192345,2.4082940512471615e-35,-6.617444900424222e-26
2025/04/09 10:58:34.764691956,1744189114,763405014,world_ned,3.135330449224309,11.311675372547521,0.4336868827975593,-0.0004452938847225241,0.00028638325443780294,-0.0015766902165086118,0.999998616872018,0.31767596716045843,0.0001607066141503357,0.0002536745354420262,-0.0012742584466927797,0.0007854006164552372,-4.0165951037094575e-05,,5.0,5.0,336.0,336.0,2.356194490192345,-2.356194490192345,-2.541098841760493e-23,-6.617444900424227e-26
2025/04/09 10:58:34.864800296,1744189114,863996065,world_ned,3.1673757741768975,11.311580572086925,0.4336896676775418,-0.0005010119773632186,0.0002958344501397677,-0.0015785707174677775,0.9999985847907319,0.32038388620280384,-4.722800305805547e-05,0.00019711688286343584,-0.0009322023981919112,0.00035903236509968254,-3.61961370255983e-05,,5.0,5.0,336.0,336.0,2.356194490192345,-2.356194490192345,-2.541098841760493e-23,-6.617444900424227e-26
2025/04/09 10:58:34.960325036,1744189114,957553599,world_ned,3.199642197209044,11.311456349968847,0.43368985545745964,-0.0005328132432112945,0.00029044252824642595,-0.001580401801213438,0.9999985670406395,0.3292177138329315,-0.000376148019855255,0.00018021792051396753,-0.00037479400128197525,-0.0017970982335880298,-3.76722728552052e-05,,5.0,5.0,340.0,340.0,2.356194490192345,-2.356194490192345,2.408147114453309e-35,-6.617444900424374e-26
2025/04/09 10:58:35.59604510,1744189115,58177334,world_ned,3.2319543887350517,11.311296439875656,0.4336880399330243,-0.0005340956815970134,0.0002962988612513917,-0.0015823366022249897,0.999998561578798,0.3212077384013888,-0.0007412912468868712,0.00016222943100272416,0.00026223064735902756,0.0008219305431572657,-3.927200330479236e-05,,5.0,5.0,340.99999999999994,340.99999999999994,2.356194490192345,-2.356194490192345,-1.5881867760777316e-24,-6.617444900424668e-26
2025/04/09 10:58:35.161846189,1744189115,159295010,world_ned,3.2645905053500246,11.311101194552418,0.43368449907087614,-0.0005049715367550952,0.000275373500588494,-0.0015843413279923988,0.9999985795168604,0.32822616887119505,-0.0010478851534182893,0.00013712207461475946,0.0008211013087123144,-0.0007598889976515329,-4.1168307738631625e-05,,5.0,5.0,343.00000000000006,343.00000000000006,2.356194490192345,-2.356194490192345,-8.99972506455286e-24,-6.617444900424852e-26
2025/04/09 10:58:35.262434548,1744189115,260147620,world_ned,3.297367141109715,11.310881729644006,0.43368131275916594,-0.00045332090316128394,0.00025537583412083156,-0.001586418837724857,0.9999986062783355,0.33174374949171875,-0.0012306314151042377,0.00014941185473288935,0.0011881336300150586,-0.0013031378106150065,-4.058222672058226e-05,,5.0,5.0,341.99999999999994,341.99999999999994,2.356194490192345,-2.356194490192345,-2.646977959928879e-25,2.5410988417629003e-23
2025/04/09 10:58:35.362806264,1744189115,361485865,world_ned,3.3302798461867367,11.310651991384711,0.43368049368886546,-0.0003902058965800818,0.00024026235234341205,-0.001588395250156478,0.9999986335060111,0.32928901343724526,-0.001235504827452085,0.00015573301023375392,0.0012662552635060679,-0.00010910179190839822,-3.871710101346013e-05,,5.0,5.0,346.0,346.0,2.356194490192345,-2.356194490192345,-2.646977959928876e-25,-7.346839692639297e-39
2025/04/09 10:58:35.465414780,1744189115,462406380,world_ned,3.3634581003823874,11.310431233145037,0.43368200183467576,-0.00033194223215591185,0.00021594192677800667,-0.0015902964494106072,0.9999986570694192,0.3351093977533561,-0.0010736679729837033,0.00017746960820354496,0.0010633056628218485,-0.0011174796309255956,-3.647917627729695e-05,,5.0,5.0,346.0,346.0,2.356194490192345,-2.356194490192345,-2.646977959928876e-25,-7.346839692639297e-39
2025/04/09 10:58:35.563899828,1744189115,563196742,world_ned,3.396764371075723,11.31023281302458,0.4336876705806237,-0.00028963936720007906,0.00020791024214556253,-0.0015920136525847835,0.9999986691865635,0.3308873717122766,-0.0007771505977932865,0.00020470475587628674,0.0006250145806998528,0.0007658254917119166,-3.361943201545377e-05,,5.0,5.0,348.0,348.0,2.356194490192345,-2.356194490192345,-2.6469779599288615e-25,-8.816207631167156e-39
2025/04/09 10:58:35.666600509,1744189115,665400238,world_ned,3.43037090242114,11.310069383522167,0.4336924270105631,-0.000275078860137123,0.00019165494134320651,-0.0015935574030491082,0.9999986740865247,0.33579124828258533,-0.0003825650828957695,0.00016724952476025474,4.8671619485098065e-06,5.408310760955681e-05,-2.896785469244302e-05,,5.0,5.0,349.0,349.0,2.356194490192345,-2.356194490192345,-8.73502726853589e-24,-4.2351647362715106e-24
2025/04/09 10:58:35.760497572,1744189115,757451992,world_ned,3.4640411556978745,11.309944808445193,0.433695981278392,-0.00029182563446339085,0.00020048670241949837,-0.0015948988181489093,0.9999986654694301,0.340529978354885,-1.1428973998879686e-05,0.00016110465222610507,-0.0005978012709912703,-0.000574876783663207,-2.4922223115496408e-05,,5.0,5.0,353.0,353.0,2.356194490192345,-2.356194490192345,-8.735027268535888e-24,-1.0285575569695016e-38
2025/04/09 10:58:35.861408020,1744189115,859449467,world_ned,3.4979802288231703,11.309854474811244,0.4336966928240787,-0.0003358978437742829,0.00020708760537810892,-0.0015951216078042318,0.999998649936298,0.34065412606153417,0.00041963275364798893,0.00013124777299983756,-0.0011486350500412529,4.378824399345862e-05,7.104134240325827e-05,,5.0,5.0,353.0,353.0,2.356194490192345,-2.3361944901923453,-0.017453292519943295,-1.0285575569695016e-38
2025/04/09 10:58:35.964742681,1744189115,960637461,world_ned,3.5320362156948986,11.309772156024774,0.43369454080786596,-0.00039219861769266754,0.0002256511871754276,-0.0015923339840236178,0.999998629866196,0.33991974656512014,9.356194876721598e-06,0.00012422590022559966,-0.0010121466730566755,0.0008032397458142044,-1.224688123196065e-05,,5.0,5.0,354.0,354.0,2.356194490192345,-2.3261944901923455,0.0,4.2351647362714915e-24
2025/04/09 10:58:36.62715738,1744189116,61674940,world_ned,3.5663224729197354,11.309670291990953,0.43369077396806066,-0.00044476951894084545,0.00024070332605837693,-0.0015914243470161132,0.9999986058042939,0.34248101893459354,0.00011418746237238857,0.0001117174022958995,-0.0010522080118011577,0.000650669565924481,4.809972713499275e-05,,5.0,5.0,354.99999999999994,354.99999999999994,2.356194490192345,-2.356194490192345,0.0,-1.0285575569695016e-38
2025/04/09 10:58:36.166749071,1744189116,162506989,world_ned,3.600799742394063,11.309562272301338,0.4336854843732977,-0.0004894027241304598,0.0002552509012993792,-0.0015890612360011064,0.9999985851071687,0.3438209876265364,-7.924302446131381e-05,0.00012034336877138013,-0.000735928917114222,0.0007814297297893212,4.6718929950083006e-05,,5.0,5.0,358.0,358.0,2.356194490192345,-2.356194490192345,0.0,4.235164736271501e-23
2025/04/09 10:58:36.264532975,1744189116,263403740,world_ned,3.6354130438240104,11.309429976215934,0.4336794696879282,-0.0005140165180836445,0.0002734213470989966,-0.0015867191897469901,0.9999985716739794,0.34815143952969424,-0.00035352528423855363,0.00012866407751059087,-0.0002727917334585653,-1.7708653081452576e-05,4.6818959939012256e-05,,5.0,5.0,359.0,359.0,2.356194490192345,-2.356194490192345,0.0,8.470329472542995e-24
2025/04/09 10:58:36.364975871,1744189116,364271102,world_ned,3.6702541811458156,11.309267515457382,0.43367552166906254,-0.000513258381920772,0.0002789454878704201,-0.0015844609954882708,0.9999985741182844,0.34782534866584236,-0.0006506260616829504,0.0001628410555125581,0.00024407909737364557,0.000432906638290746,4.4253803655030996e-05,,5.0,5.0,360.99999999999994,360.99999999999994,2.356194490192345,-2.356194490192345,0.0,8.470329472542993e-24
2025/04/09 10:58:36.466100730,1744189116,465061328,world_ned,3.7052101235371384,11.309077845794862,0.4336737487338301,-0.0004884739203186115,0.00028468393064451803,-0.0015823055637910926,0.9999985883276994,0.35127773835980763,-0.0008911422094804381,0.00019175106002687227,0.0006822527580615072,-0.00022619792004988635,4.240528606907196e-05,,5.0,5.0,362.0,362.0,2.356194490192345,-2.356194490192345,0.0,4.235164736271501e-23
2025/04/09 10:58:36.567062363,1744189116,565924932,world_ned,3.7404005464255667,11.308868586817697,0.43367491586650747,-0.0004456788260927243,0.0002738140277476386,-0.0015802274382612658,0.9999986146377932,0.3513308515934281,-0.0010303220385160785,0.00021521021178462211,0.0009631713909694178,0.00011507429042186344,4.1021401892893665e-05,,5.0,5.0,366.0,366.0,2.356194490192345,-2.356194490192345,2.938735877055719e-39,8.470329472542993e-24
2025/04/09 10:58:36.659981860,1744189116,658340014,world_ned,3.7757128154859685,11.308652742042959,0.4336791550672114,-0.00039496131566109605,0.0002656928123653799,-0.0015782126529273871,0.9999986413279324,0.356290381471578,-0.001029778103625982,0.0002369685849561733,0.0010166588237957841,-0.0008582295499074228,4.024501049925473e-05,,5.0,5.0,367.0,367.0,2.356194490192345,-2.356194490192345,-8.470329472542998e-24,8.470329472542993e-24
2025/04/09 10:58:36.761197739,1744189116,760066124,world_ned,3.811202988506802,11.308445335784167,0.433685378421355,-0.0003489500443364515,0.00025375027965938003,-0.001576205289673426,0.999998664709882,0.3535947092919401,-0.0008723172853972437,0.0002481815645671631,0.0008058621651853321,0.00032500130101240023,4.0985500482943874e-05,,5.0,5.0,368.0,368.0,2.356194490192345,-2.356194490192345,5.877471754111438e-39,-1.0285575569695016e-38
2025/04/09 10:58:36.864084371,1744189116,860273733,world_ned,3.846874821384091,11.30825810515653,0.43369259192754045,-0.00031778971318689053,0.00024011868846615932,-0.001574110251071209,0.9999986817639467,0.3588778008208151,-0.0006377023872943163,0.00025418073862843956,0.00045621459168344343,-0.0006281929470612847,4.2172355674181e-05,,5.0,5.0,368.99999999999994,368.99999999999994,2.356194490192345,-2.356194490192345,5.877471754111438e-39,-1.0285575569695016e-38
2025/04/09 10:58:36.962359101,1744189116,961491080,world_ned,3.8827475208561735,11.3080987492686,0.4336970032855818,-0.0003085686955315301,0.0002252782605903898,-0.0015719353279616695,0.999998691526339,0.3617833389404523,-0.00032617713679751746,0.00019391207212067683,-3.603046969687344e-05,-0.0008851034197682382,4.458143010440018e-05,,5.0,5.0,373.0,373.0,2.356194490192345,-2.356194490192345,-2.1175823681357435e-24,-1.0285575569695016e-38
2025/04/09 10:58:37.63538065,1744189117,62443882,world_ned,3.918794945435934,11.307968699874019,0.43369847908118353,-0.0003231967399405984,0.00021751546649141794,-0.0015696485549114062,0.9999986922162964,0.36140285383872994,-4.808885877661736e-05,0.00015190179577185772,-0.0004892312734077019,-0.00011782144153499137,4.5357068299543206e-05,,5.0,5.0,373.0,373.0,2.356194490192345,-2.356194490192345,-2.117582368135744e-24,-1.1754943508222875e-38
2025/04/09 10:58:37.171062262,1744189117,165355822,world_ned,3.9550584061420975,11.30786200192351,0.4336955835809552,-0.00035708640545193147,0.00021223017065524524,-0.001567311552034941,0.9999986854902123,0.3630313635217795,0.00017767262452271753,9.994711726248734e-05,-0.0008280767172760911,2.7116476248022568e-05,5.2124337724064024e-05,,9.0,5.0,368.0,368.0,2.3361944901923453,-2.356194490192345,-2.117582368135744e-24,-8.470329472543015e-24
