time,header_stamp_secs,header_stamp_nsecs,header_frame_id,wrench_force_x,wrench_force_y,wrench_force_z,wrench_torque_x,wrench_torque_y,wrench_torque_z
2025/05/06 15:28:00.936893603,1746538080,906360116,,2.55351295663786e-15,1.7763568394002505e-15,0.0,0.0,0.0,-4.996003610813204e-16
2025/05/06 15:28:01.47840881,1746538080,998193875,,7.494005416219807e-16,1.7763568394002505e-15,0.0,0.0,0.0,-8.326672684688674e-16
2025/05/06 15:28:01.144992173,1746538081,94242950,,-9.159339953157541e-16,0.0,0.0,0.0,0.0,-2.1094237467877974e-15
2025/05/06 15:28:01.194802533,1746538081,194246749,,-1.0547118733938987e-15,-1.7763568394002505e-15,0.0,0.0,0.0,2.9976021664879227e-15
2025/05/06 15:28:01.294480077,1746538081,294320071,,-4.996003610813204e-16,0.0,0.0,0.0,0.0,-2.7755575615628914e-15
2025/05/06 15:28:01.397396451,1746538081,393489437,,8.326672684688674e-16,0.0,0.0,0.0,0.0,-7.771561172376096e-16
2025/05/06 15:28:01.504325488,1746538081,503607019,,8.881784197001252e-16,0.0,0.0,0.0,0.0,1.0658141036401503e-14
2025/05/06 15:28:01.606404396,1746538081,603971982,,8.881784197001252e-16,0.0,0.0,0.0,0.0,7.105427357601002e-15
2025/05/06 15:28:01.792329560,1746538081,708658468,,1.7763568394002505e-15,0.0,0.0,0.0,0.0,-3.552713678800501e-15
2025/05/06 15:28:01.856592994,1746538081,808397658,,0.0,-3.552713678800501e-15,0.0,0.0,0.0,-7.105427357601002e-15
2025/05/06 15:28:01.908835681,1746538081,906020278,,8.881784197001252e-16,0.0,0.0,0.0,0.0,3.552713678800501e-15
2025/05/06 15:28:02.21852561,1746538082,800570,,0.0,0.0,0.0,0.0,0.0,-3.552713678800501e-15
2025/05/06 15:28:02.124065298,1746538082,98185622,,-1.7763568394002505e-15,0.0,0.0,0.0,0.0,-7.105427357601002e-15
2025/05/06 15:28:02.234882144,1746538082,204907207,,-8.881784197001252e-16,0.0,0.0,0.0,0.0,-7.105427357601002e-15
2025/05/06 15:28:02.304878262,1746538082,295596354,,0.0,-3.552713678800501e-15,0.0,0.0,0.0,3.552713678800501e-15
2025/05/06 15:28:02.420761279,1746538082,405147481,,1.7763568394002505e-15,0.0,0.0,0.0,0.0,-7.105427357601002e-15
2025/05/06 15:28:02.514377596,1746538082,511883238,,-4.440892098500626e-16,1.7763568394002505e-15,0.0,0.0,0.0,-1.7763568394002505e-15
2025/05/06 15:28:02.595177241,1746538082,593514013,,0.0,0.0,0.0,0.0,0.0,5.329070518200751e-15
2025/05/06 15:28:02.733402307,1746538082,702319382,,-1.7763568394002505e-15,0.0,0.0,0.0,0.0,0.0
2025/05/06 15:28:02.844304112,1746538082,797570170,,-4.440892098500626e-16,0.0,0.0,0.0,0.0,-1.7763568394002505e-15
2025/05/06 15:28:02.939436983,1746538082,907583950,,-6.661338147750939e-16,8.881784197001252e-16,0.0,0.0,0.0,-1.7763568394002505e-15
2025/05/06 15:28:03.3248652,1746538083,2764816,,2.220446049250313e-16,-8.881784197001252e-16,0.0,0.0,0.0,-8.881784197001252e-16
2025/05/06 15:28:03.154719283,1746538083,105271698,,2.220446049250313e-16,0.0,0.0,0.0,0.0,0.0
2025/05/06 15:28:03.349858720,1746538083,199291862,,4.440892098500626e-16,0.0,0.0,0.0,0.0,0.0
2025/05/06 15:28:03.380664602,1746538083,303445669,,2.220446049250313e-16,8.881784197001252e-16,0.0,0.0,0.0,-1.7763568394002505e-15
2025/05/06 15:28:03.543685878,1746538083,402073364,,4.440892098500626e-16,0.0,0.0,0.0,0.0,8.881784197001252e-16
2025/05/06 15:28:03.702286498,1746538083,506969555,,-2.220446049250313e-16,0.0,0.0,0.0,0.0,0.0
2025/05/06 15:28:03.858390846,1746538083,600522534,,0.0,0.0,0.0,0.0,0.0,-8.881784197001252e-16
2025/05/06 15:28:03.907273689,1746538083,700971757,,-4.440892098500626e-16,0.0,0.0,0.0,0.0,0.0
2025/05/06 15:28:03.944759294,1746538083,800881011,,1.7763568394002505e-15,0.0,0.0,0.0,0.0,7.105427357601002e-15
2025/05/06 15:28:04.1440999,1746538083,897258907,,3.552713678800501e-15,3.552713678800501e-15,0.0,0.0,0.0,7.105427357601002e-15
2025/05/06 15:28:04.54294654,1746538083,999880043,,1.7763568394002505e-15,0.0,0.0,0.0,0.0,1.4210854715202004e-14
2025/05/06 15:28:04.231870889,1746538084,107643048,,-1.7763568394002505e-15,7.105427357601002e-15,0.0,0.0,0.0,7.105427357601002e-15
2025/05/06 15:28:04.327906205,1746538084,203189651,,3.552713678800501e-15,0.0,0.0,0.0,0.0,0.0
2025/05/06 15:28:04.401323608,1746538084,300475628,,1.7763568394002505e-15,-7.105427357601002e-15,0.0,0.0,0.0,0.0
2025/05/06 15:28:04.517984422,1746538084,401087792,,1.7763568394002505e-15,0.0,0.0,0.0,0.0,0.0
2025/05/06 15:28:04.801215901,1746538084,501388095,,-5.329070518200751e-15,-3.552713678800501e-15,0.0,0.0,0.0,-7.105427357601002e-15
2025/05/06 15:28:04.895335307,1746538084,596889837,,-1.7763568394002505e-15,0.0,0.0,0.0,0.0,0.0
2025/05/06 15:28:05.128520258,1746538084,801165296,,3.552713678800501e-15,0.0,0.0,0.0,0.0,0.0
2025/05/06 15:28:05.144317067,1746538084,907203882,,1.7763568394002505e-15,0.0,0.0,0.0,0.0,3.552713678800501e-15
2025/05/06 15:28:05.192896178,1746538085,191672308,,-3.552713678800501e-15,3.552713678800501e-15,0.0,0.0,0.0,0.0
2025/05/06 15:28:05.293918828,1746538085,292963375,,3.552713678800501e-15,3.552713678800501e-15,0.0,0.0,0.0,0.0
2025/05/06 15:28:05.392173746,1746538085,391639532,,0.0,0.0,0.0,0.0,0.0,-3.552713678800501e-15
2025/05/06 15:28:05.544562052,1746538085,496904428,,1.7763568394002505e-15,0.0,0.0,0.0,0.0,0.0
2025/05/06 15:28:05.644323295,1746538085,601202773,,-1.7763568394002505e-15,0.0,0.0,0.0,0.0,-1.0658141036401503e-14
2025/05/06 15:28:05.692900104,1746538085,691942231,,0.0,0.0,0.0,0.0,0.0,-7.105427357601002e-15
2025/05/06 15:28:05.800687890,1746538085,798385574,,-1.7763568394002505e-15,0.0,0.0,0.0,0.0,0.0
2025/05/06 15:28:05.906007180,1746538085,901996173,,4.440892098500626e-16,0.0,0.0,0.0,0.0,1.7763568394002505e-15
2025/05/06 15:28:06.2304795,1746538085,998688424,,4.440892098500626e-16,-3.552713678800501e-15,0.0,0.0,0.0,3.552713678800501e-15
2025/05/06 15:28:06.102460993,1746538086,100991141,,4.440892098500626e-16,0.0,0.0,0.0,0.0,-3.552713678800501e-15
2025/05/06 15:28:06.203603274,1746538086,202274063,,0.0,0.0,0.0,0.0,0.0,0.0
2025/05/06 15:28:06.302334387,1746538086,301701704,,1.3322676295501878e-15,1.7763568394002505e-15,0.0,0.0,0.0,-1.7763568394002505e-15
2025/05/06 15:28:06.396556882,1746538086,394367176,,1.7763568394002505e-15,0.0,0.0,0.0,0.0,-1.7763568394002505e-15
2025/05/06 15:28:06.503555177,1746538086,501359276,,-1.3322676295501878e-15,0.0,0.0,0.0,0.0,1.7763568394002505e-15
2025/05/06 15:28:06.627146599,1746538086,623623903,,62.10645651213263,6.534371987387228,0.0,0.0,0.0,2.2737367544323206e-13
2025/05/06 15:28:06.764761067,1746538086,761019259,,2.2307640270014844,1.609091695368015,0.0,0.0,0.0,-4.263256414560601e-14
2025/05/06 15:28:06.797808161,1746538086,796910956,,0.0,-7.105427357601002e-15,0.0,0.0,0.0,1.4210854715202004e-14
2025/05/06 15:28:06.904083625,1746538086,901619152,,0.0,-7.105427357601002e-15,0.0,0.0,0.0,2.842170943040401e-14
2025/05/06 15:28:06.993934959,1746538086,993619154,,1.4210854715202004e-14,1.0658141036401503e-14,0.0,0.0,0.0,-2.842170943040401e-14
2025/05/06 15:28:07.106154049,1746538087,102656164,,0.0,7.105427357601002e-15,0.0,0.0,0.0,0.0
2025/05/06 15:28:07.207769029,1746538087,206583103,,2.2737367544323206e-13,2.3803181647963356e-13,0.0,0.0,0.0,-6.536993168992922e-13
2025/05/06 15:28:07.296911634,1746538087,296588315,,2.842170943040401e-14,1.4210854715202004e-14,0.0,0.0,0.0,-5.684341886080802e-14
2025/05/06 15:28:07.408138927,1746538087,406303976,,0.0,1.0658141036401503e-14,0.0,0.0,0.0,2.842170943040401e-14
2025/05/06 15:28:07.513835394,1746538087,513581772,,0.0,1.0658141036401503e-14,0.0,0.0,0.0,0.0
2025/05/06 15:28:07.596512845,1746538087,595392355,,0.0,1.0658141036401503e-14,0.0,0.0,0.0,1.4210854715202004e-14
2025/05/06 15:28:07.701767260,1746538087,700101536,,1.4210854715202004e-14,-1.0658141036401503e-14,0.0,0.0,0.0,-2.842170943040401e-14
2025/05/06 15:28:07.813008000,1746538087,809463192,,0.0,1.0658141036401503e-14,0.0,0.0,0.0,0.0
2025/05/06 15:28:07.895593470,1746538087,895087037,,0.0,0.0,0.0,0.0,0.0,1.4210854715202004e-14
2025/05/06 15:28:08.23505635,1746538088,14383466,,0.0,-7.105427357601002e-15,0.0,0.0,0.0,4.263256414560601e-14
2025/05/06 15:28:08.104637359,1746538088,101377911,,0.0,3.552713678800501e-15,0.0,0.0,0.0,0.0
2025/05/06 15:28:08.198994939,1746538088,195030442,,2.842170943040401e-14,0.0,0.0,0.0,0.0,-1.4210854715202004e-14
2025/05/06 15:28:08.295786833,1746538088,293084043,,0.0,-3.552713678800501e-15,0.0,0.0,0.0,-1.4210854715202004e-14
2025/05/06 15:28:08.405260043,1746538088,401255103,,0.0,0.0,0.0,0.0,0.0,2.842170943040401e-14
2025/05/06 15:28:08.505282776,1746538088,503756056,,0.0,-7.105427357601002e-15,0.0,0.0,0.0,1.4210854715202004e-14
2025/05/06 15:28:08.608056453,1746538088,602611982,,0.0,-3.552713678800501e-15,0.0,0.0,0.0,0.0
2025/05/06 15:28:08.696818060,1746538088,694858379,,2.842170943040401e-14,-3.552713678800501e-15,0.0,0.0,0.0,-1.4210854715202004e-14
2025/05/06 15:28:08.804561791,1746538088,800738523,,0.0,0.0,0.0,0.0,0.0,-2.842170943040401e-14
2025/05/06 15:28:08.895746854,1746538088,895319516,,1.2221335055073723e-12,-3.659295089164516e-12,0.0,0.0,0.0,7.37543359718984e-12
2025/05/06 15:28:08.994977248,1746538088,993730274,,0.0,-2.842170943040401e-14,0.0,0.0,0.0,5.684341886080802e-14
2025/05/06 15:28:09.92288005,1746538089,91860402,,0.0,3.552713678800501e-15,0.0,0.0,0.0,0.0
2025/05/06 15:28:09.196204463,1746538089,193202322,,0.0,3.552713678800501e-15,0.0,0.0,0.0,0.0
2025/05/06 15:28:09.295923272,1746538089,295120472,,-2.842170943040401e-14,7.105427357601002e-15,0.0,0.0,0.0,-2.842170943040401e-14
2025/05/06 15:28:09.392418257,1746538089,391877802,,2.842170943040401e-14,0.0,0.0,0.0,0.0,1.4210854715202004e-14
2025/05/06 15:28:09.494406625,1746538089,492384605,,0.0,-3.552713678800501e-15,0.0,0.0,0.0,4.263256414560601e-14
2025/05/06 15:28:09.592657642,1746538089,592379655,,0.0,-7.105427357601002e-15,0.0,0.0,0.0,1.4210854715202004e-14
2025/05/06 15:28:09.693799055,1746538089,692634060,,0.0,3.552713678800501e-15,0.0,0.0,0.0,1.4210854715202004e-14
2025/05/06 15:28:09.798157365,1746538089,795866674,,0.0,-3.552713678800501e-15,0.0,0.0,0.0,0.0
2025/05/06 15:28:09.892713377,1746538089,892119192,,0.0,-3.552713678800501e-15,0.0,0.0,0.0,1.4210854715202004e-14
2025/05/06 15:28:09.999872148,1746538089,997823037,,0.0,0.0,0.0,0.0,0.0,1.4210854715202004e-14
2025/05/06 15:28:10.94191353,1746538090,92537202,,0.0,0.0,0.0,0.0,0.0,-2.842170943040401e-14
2025/05/06 15:28:10.199674981,1746538090,194843616,,0.0,0.0,0.0,0.0,0.0,2.842170943040401e-14
2025/05/06 15:28:10.292620145,1746538090,292364068,,0.0,7.105427357601002e-15,0.0,0.0,0.0,-2.842170943040401e-14
2025/05/06 15:28:10.395067398,1746538090,394833991,,0.0,-3.552713678800501e-15,0.0,0.0,0.0,2.842170943040401e-14
2025/05/06 15:28:10.522689769,1746538090,502963694,,0.0,3.552713678800501e-15,0.0,0.0,0.0,2.842170943040401e-14
2025/05/06 15:28:10.593802307,1746538090,593032938,,-2.842170943040401e-14,3.552713678800501e-15,0.0,0.0,0.0,0.0
2025/05/06 15:28:10.694076341,1746538090,693766495,,0.0,5.329070518200751e-15,0.0,0.0,0.0,1.4210854715202004e-14
2025/05/06 15:28:10.793196739,1746538090,792849306,,2.842170943040401e-14,-3.552713678800501e-15,0.0,0.0,0.0,1.4210854715202004e-14
2025/05/06 15:28:10.899002852,1746538090,898030496,,0.0,7.105427357601002e-15,0.0,0.0,0.0,0.0
2025/05/06 15:28:10.996589497,1746538090,993622787,,0.0,-3.552713678800501e-15,0.0,0.0,0.0,1.4210854715202004e-14
2025/05/06 15:28:11.92158490,1746538091,91842275,,0.0,0.0,0.0,0.0,0.0,-2.842170943040401e-14
2025/05/06 15:28:11.196362053,1746538091,192831338,,0.0,-3.552713678800501e-15,0.0,0.0,0.0,1.4210854715202004e-14
2025/05/06 15:28:11.292285426,1746538091,291846133,,0.0,-3.552713678800501e-15,0.0,0.0,0.0,1.4210854715202004e-14
2025/05/06 15:28:11.399856143,1746538091,399677038,,2.842170943040401e-14,0.0,0.0,0.0,0.0,0.0
2025/05/06 15:28:11.493885380,1746538091,492528828,,0.0,0.0,0.0,0.0,0.0,-1.4210854715202004e-14
2025/05/06 15:28:11.592280180,1746538091,591993049,,0.0,-1.7763568394002505e-15,0.0,0.0,0.0,1.4210854715202004e-14
2025/05/06 15:28:11.695718657,1746538091,695250958,,0.0,0.0,0.0,0.0,0.0,0.0
2025/05/06 15:28:11.793202737,1746538091,792886026,,0.0,-1.7763568394002505e-15,0.0,0.0,0.0,1.4210854715202004e-14
2025/05/06 15:28:11.906528432,1746538091,903585332,,-8.526512829121202e-13,9.683664855308216,0.0,0.0,0.0,-1.4210854715202004e-12
2025/05/06 15:28:12.9864679,1746538092,7233520,,0.0,1.4210854715202004e-14,0.0,0.0,0.0,-1.4210854715202004e-14
2025/05/06 15:28:12.95457148,1746538092,94115972,,0.0,3.268496584496461e-12,0.0,0.0,0.0,-6.195932655828074e-12
2025/05/06 15:28:12.195498942,1746538092,193643433,,0.0,7.105427357601002e-15,0.0,0.0,0.0,0.0
2025/05/06 15:28:12.292224306,1746538092,292018324,,2.842170943040401e-14,-2.1316282072803006e-14,0.0,0.0,0.0,4.263256414560601e-14
2025/05/06 15:28:12.393188032,1746538092,392644339,,0.0,-2.1316282072803006e-14,0.0,0.0,0.0,4.263256414560601e-14
2025/05/06 15:28:12.499802779,1746538092,499408167,,0.0,-2.842170943040401e-14,0.0,0.0,0.0,7.105427357601002e-14
2025/05/06 15:28:12.595197837,1746538092,594475699,,0.0,-3.552713678800501e-14,0.0,0.0,0.0,8.526512829121202e-14
2025/05/06 15:28:12.704012372,1746538092,703784751,,5.684341886080802e-14,-4.973799150320701e-14,0.0,0.0,0.0,8.526512829121202e-14
2025/05/06 15:28:12.803190115,1746538092,799622923,,-1.0157918950426392e-10,-39.33165715960898,0.0,0.0,0.0,5.719584805774502e-10
2025/05/06 15:28:12.910642000,1746538092,910166303,,0.0,-8.056805523367913,0.0,0.0,0.0,6.480149750132114e-12
2025/05/06 15:28:12.993856879,1746538092,993600719,,0.0,-1.4210854715202004e-14,0.0,0.0,0.0,-2.842170943040401e-14
2025/05/06 15:28:13.95373470,1746538093,93841648,,0.0,-1.4210854715202004e-14,0.0,0.0,0.0,0.0
2025/05/06 15:28:13.195175384,1746538093,194623422,,5.684341886080802e-14,-7.105427357601002e-15,0.0,0.0,0.0,0.0
2025/05/06 15:28:13.298612726,1746538093,298189178,,1.3130829756846651e-11,2.8890667636005674e-11,0.0,0.0,0.0,-5.846345629834104e-11
2025/05/06 15:28:13.393082926,1746538093,392508635,,-2.842170943040401e-14,0.0,0.0,0.0,0.0,-2.842170943040401e-14
2025/05/06 15:28:13.492048430,1746538093,491618487,,1.1368683772161603e-13,2.1316282072803006e-13,0.0,0.0,0.0,-4.831690603168681e-13
2025/05/06 15:28:13.593335127,1746538093,593064730,,2.6773250283440575e-11,5.4086513046058826e-11,0.0,0.0,0.0,-1.0837197805813048e-10
2025/05/06 15:28:13.693467792,1746538093,692335238,,3.126388037344441e-12,6.281197784119286e-12,0.0,0.0,0.0,-1.2562395568238571e-11
2025/05/06 15:28:13.811780791,1746538093,808168186,,-6.403411134670023e-11,34.12370994607514,0.0,0.0,0.0,-4.284572696633404e-10
2025/05/06 15:28:13.897873795,1746538093,897562002,,2.842170943040401e-14,-7.105427357601002e-15,0.0,0.0,0.0,4.263256414560601e-14
2025/05/06 15:28:13.993869043,1746538093,993633026,,0.0,0.0,0.0,0.0,0.0,0.0
2025/05/06 15:28:14.92836385,1746538094,92601122,,0.0,7.105427357601002e-15,0.0,0.0,0.0,0.0
2025/05/06 15:28:14.199711716,1746538094,195277515,,2.2737367544323206e-12,-5.9827698351000436e-12,0.0,0.0,0.0,1.2022383089060895e-11
2025/05/06 15:28:14.296149486,1746538094,294993858,,0.0,0.0,0.0,0.0,0.0,1.4210854715202004e-14
2025/05/06 15:28:14.394759391,1746538094,393326583,,5.684341886080802e-14,-1.4210854715202004e-14,0.0,0.0,0.0,1.4210854715202004e-14
2025/05/06 15:28:14.498740193,1746538094,496544437,,5.684341886080802e-14,-1.3500311979441904e-13,0.0,0.0,0.0,2.8421709430404007e-13
2025/05/06 15:28:14.591902058,1746538094,591675992,,7.389644451905042e-13,-1.5702994460298214e-12,0.0,0.0,0.0,3.069544618483633e-12
2025/05/06 15:28:14.694009051,1746538094,693678480,,3.979039320256561e-13,-8.526512829121202e-13,0.0,0.0,0.0,1.6626700016786344e-12
2025/05/06 15:28:14.793393209,1746538094,792876316,,1.0800249583553523e-12,-2.2737367544323206e-12,0.0,0.0,0.0,4.476419235288631e-12
2025/05/06 15:28:14.896622919,1746538094,895849622,,0.0,-1.4210854715202004e-14,0.0,0.0,0.0,4.263256414560601e-14
2025/05/06 15:28:14.993093291,1746538094,992258703,,0.0,-2.1316282072803006e-14,0.0,0.0,0.0,4.263256414560601e-14
2025/05/06 15:28:15.92643625,1746538095,92264993,,0.0,-2.842170943040401e-14,0.0,0.0,0.0,8.526512829121202e-14
2025/05/06 15:28:15.200242537,1746538095,196683061,,2.842170943040401e-14,-4.263256414560601e-14,0.0,0.0,0.0,7.105427357601002e-14
2025/05/06 15:28:15.296493228,1746538095,293575330,,5.684341886080802e-14,-4.973799150320701e-14,0.0,0.0,0.0,8.526512829121202e-14
2025/05/06 15:28:15.395890759,1746538095,395427605,,5.684341886080802e-14,-7.105427357601002e-14,0.0,0.0,0.0,1.4210854715202004e-13
2025/05/06 15:28:15.497168391,1746538095,495775420,,1.1368683772161603e-13,-7.105427357601002e-14,0.0,0.0,0.0,1.8474111129762605e-13
2025/05/06 15:28:15.595805472,1746538095,595576711,,0.0,-7.815970093361102e-14,0.0,0.0,0.0,9.947598300641403e-14
2025/05/06 15:28:15.692315857,1746538095,692045654,,5.684341886080802e-14,-8.526512829121202e-14,0.0,0.0,0.0,1.1368683772161603e-13
2025/05/06 15:28:15.794615824,1746538095,792610609,,0.0,-7.815970093361102e-14,0.0,0.0,0.0,1.8474111129762605e-13
2025/05/06 15:28:15.901939401,1746538095,901630575,,-4.547473508864641e-13,-22.966186259498766,0.0,0.0,0.0,6.195932655828074e-12
2025/05/06 15:28:15.996188846,1746538095,995639382,,0.0,-3.552713678800501e-15,0.0,0.0,0.0,2.842170943040401e-14
2025/05/06 15:28:16.98823164,1746538096,96380064,,2.2737367544323206e-13,1.3322676295501878e-13,0.0,0.0,0.0,-1.9895196601282805e-13
2025/05/06 15:28:16.193330440,1746538096,193097502,,0.0,2.1316282072803006e-14,0.0,0.0,0.0,-8.526512829121202e-14
2025/05/06 15:28:16.292732031,1746538096,292484761,,5.684341886080802e-14,3.552713678800501e-15,0.0,0.0,0.0,-2.842170943040401e-14
2025/05/06 15:28:16.393937090,1746538096,391934513,,0.0,-1.7763568394002505e-15,0.0,0.0,0.0,0.0
2025/05/06 15:28:16.503318066,1746538096,501371732,,0.0,1.7763568394002505e-15,0.0,0.0,0.0,-2.842170943040401e-14
2025/05/06 15:28:16.596191342,1746538096,595837454,,0.0,1.7763568394002505e-15,0.0,0.0,0.0,2.842170943040401e-14
2025/05/06 15:28:16.692735758,1746538096,692465881,,-5.684341886080802e-14,-1.7763568394002505e-15,0.0,0.0,0.0,0.0
2025/05/06 15:28:16.792596184,1746538096,792169817,,0.0,0.0,0.0,0.0,0.0,2.842170943040401e-14
2025/05/06 15:28:16.908101356,1746538096,907686046,,-6.366462912410498e-12,-27.92885864251631,0.0,0.0,0.0,3.632294465205632e-11
2025/05/06 15:28:16.996697088,1746538096,996374782,,0.0,0.0,0.0,0.0,0.0,0.0
2025/05/06 15:28:17.94680038,1746538097,93473093,,-5.684341886080802e-14,-4.263256414560601e-13,0.0,0.0,0.0,-6.821210263296962e-13
2025/05/06 15:28:17.197811963,1746538097,195938516,,-5.684341886080802e-14,-1.4210854715202004e-13,0.0,0.0,0.0,-2.8421709430404007e-13
2025/05/06 15:28:17.292651112,1746538097,292433050,,-1.1368683772161603e-13,-1.2789769243681803e-13,0.0,0.0,0.0,-3.126388037344441e-13
2025/05/06 15:28:17.394622920,1746538097,394068874,,0.0,-2.842170943040401e-14,0.0,0.0,0.0,5.684341886080802e-14
2025/05/06 15:28:17.492956938,1746538097,492253317,,0.0,0.0,0.0,0.0,0.0,-2.842170943040401e-14
2025/05/06 15:28:17.593108976,1746538097,592391459,,0.0,-1.4210854715202004e-14,0.0,0.0,0.0,0.0
2025/05/06 15:28:17.693098641,1746538097,692626433,,0.0,-1.4210854715202004e-14,0.0,0.0,0.0,5.684341886080802e-14
2025/05/06 15:28:17.817617637,1746538097,814982843,,-4.547473508864641e-13,5.71946328537399,0.0,0.0,0.0,-9.606537787476555e-12
2025/05/06 15:28:17.895764301,1746538097,894611655,,2.2737367544323206e-13,-4.085620730620576e-13,0.0,0.0,0.0,8.242295734817162e-13
2025/05/06 15:28:17.994861136,1746538097,993585433,,0.0,-7.105427357601002e-15,0.0,0.0,0.0,0.0
2025/05/06 15:28:18.95380867,1746538098,93774454,,5.684341886080802e-14,-3.552713678800501e-15,0.0,0.0,0.0,-5.684341886080802e-14
2025/05/06 15:28:18.193003648,1746538098,192294087,,0.0,-3.552713678800501e-15,0.0,0.0,0.0,-2.842170943040401e-14
2025/05/06 15:28:18.293806296,1746538098,293667436,,0.0,0.0,0.0,0.0,0.0,0.0
2025/05/06 15:28:18.393237310,1746538098,392123971,,0.0,0.0,0.0,0.0,0.0,0.0
2025/05/06 15:28:18.495741404,1746538098,494530773,,0.0,7.105427357601002e-15,0.0,0.0,0.0,-2.842170943040401e-14
2025/05/06 15:28:18.595552435,1746538098,593430176,,0.0,3.552713678800501e-15,0.0,0.0,0.0,-2.842170943040401e-14
2025/05/06 15:28:18.698145378,1746538098,693648870,,0.0,1.0658141036401503e-14,0.0,0.0,0.0,5.684341886080802e-14
2025/05/06 15:28:18.808366246,1746538098,808097385,,-4.547473508864641e-13,0.2996240894285336,0.0,0.0,0.0,-8.952838470577262e-12
2025/05/06 15:28:18.895159956,1746538098,894530955,,0.0,3.552713678800501e-15,0.0,0.0,0.0,-2.842170943040401e-14
2025/05/06 15:28:18.993637089,1746538098,993416260,,2.2737367544323206e-13,-6.004086117172847e-13,0.0,0.0,0.0,1.1937117960769683e-12
2025/05/06 15:28:19.94705601,1746538099,92866799,,1.1368683772161603e-13,-8.881784197001252e-14,0.0,0.0,0.0,1.7053025658242404e-13
2025/05/06 15:28:19.197456795,1746538099,195424019,,2.4442670110147446e-12,-2.48334686148155e-12,0.0,0.0,0.0,4.746425474877469e-12
2025/05/06 15:28:19.293229806,1746538099,292364929,,6.991740519879386e-12,-6.817657549618161e-12,0.0,0.0,0.0,1.2875034371973015e-11
2025/05/06 15:28:19.392774515,1746538099,392597008,,5.343281372915953e-12,-5.094591415399918e-12,0.0,0.0,0.0,9.72022462519817e-12
2025/05/06 15:28:19.493029673,1746538099,492831624,,3.240074875066057e-12,-2.9913849175500218e-12,0.0,0.0,0.0,5.6559201766503975e-12
2025/05/06 15:28:19.594743057,1746538099,594080518,,1.8758328224066645e-12,-1.7550405573274475e-12,0.0,0.0,0.0,3.325340003357269e-12
2025/05/06 15:28:19.692709438,1746538099,692414484,,1.2505552149377763e-12,-1.0764722446765518e-12,0.0,0.0,0.0,2.0463630789890885e-12
2025/05/06 15:28:19.793995602,1746538099,793430372,,7.958078640513122e-13,-6.963318810448982e-13,0.0,0.0,0.0,1.2221335055073723e-12
2025/05/06 15:28:19.897951850,1746538099,896941439,,0.0,3.197442310920451e-14,0.0,0.0,0.0,-8.526512829121202e-14
2025/05/06 15:28:19.992045645,1746538099,991771667,,5.684341886080802e-14,0.0,0.0,0.0,0.0,2.842170943040401e-14
2025/05/06 15:28:20.93995657,1746538100,92261801,,0.0,-3.552713678800501e-15,0.0,0.0,0.0,2.842170943040401e-14
2025/05/06 15:28:20.192890379,1746538100,192023492,,0.0,0.0,0.0,0.0,0.0,0.0
2025/05/06 15:28:20.299222187,1746538100,297958447,,-5.684341886080802e-14,0.0,0.0,0.0,0.0,2.842170943040401e-14
2025/05/06 15:28:20.396450894,1746538100,396108855,,0.0,0.0,0.0,0.0,0.0,-2.842170943040401e-14
2025/05/06 15:28:20.493657702,1746538100,491756078,,0.0,-1.7763568394002505e-15,0.0,0.0,0.0,0.0
2025/05/06 15:28:20.592467434,1746538100,592236170,,0.0,-3.552713678800501e-15,0.0,0.0,0.0,5.684341886080802e-14
2025/05/06 15:28:20.693504448,1746538100,692140093,,0.0,-3.552713678800501e-15,0.0,0.0,0.0,0.0
2025/05/06 15:28:20.797125236,1746538100,795209080,,0.0,-5.329070518200751e-15,0.0,0.0,0.0,0.0
2025/05/06 15:28:20.895470049,1746538100,892383018,,5.684341886080802e-14,4.440892098500626e-15,0.0,0.0,0.0,5.684341886080802e-14
2025/05/06 15:28:20.995060186,1746538100,993034582,,0.0,-8.881784197001252e-16,0.0,0.0,0.0,-2.842170943040401e-14
2025/05/06 15:28:21.93091381,1746538101,92127911,,0.0,8.881784197001252e-16,0.0,0.0,0.0,-5.684341886080802e-14
2025/05/06 15:28:21.196856617,1746538101,193449124,,-5.684341886080802e-14,8.881784197001252e-16,0.0,0.0,0.0,-2.842170943040401e-14
2025/05/06 15:28:21.292209869,1746538101,291949919,,0.0,-1.7763568394002505e-15,0.0,0.0,0.0,0.0
2025/05/06 15:28:21.394986155,1746538101,392711338,,0.0,1.7763568394002505e-15,0.0,0.0,0.0,0.0
2025/05/06 15:28:21.496444486,1746538101,492117477,,0.0,0.0,0.0,0.0,0.0,-2.842170943040401e-14
2025/05/06 15:28:21.594482678,1746538101,594088202,,0.0,-1.7763568394002505e-15,0.0,0.0,0.0,-2.842170943040401e-14
2025/05/06 15:28:21.691869132,1746538101,691616727,,0.0,-2.6645352591003757e-15,0.0,0.0,0.0,-2.842170943040401e-14
2025/05/06 15:28:21.793434259,1746538101,792970071,,-5.684341886080802e-14,7.105427357601002e-15,0.0,0.0,0.0,2.842170943040401e-14
2025/05/06 15:28:21.897086518,1746538101,896375665,,0.0,8.881784197001252e-15,0.0,0.0,0.0,2.842170943040401e-14
2025/05/06 15:28:21.992455241,1746538101,992182157,,0.0,7.105427357601002e-15,0.0,0.0,0.0,0.0
2025/05/06 15:28:22.93975096,1746538102,93280481,,0.0,3.552713678800501e-15,0.0,0.0,0.0,0.0
2025/05/06 15:28:22.192121960,1746538102,191845380,,0.0,1.7763568394002505e-15,0.0,0.0,0.0,2.842170943040401e-14
2025/05/06 15:28:22.294488894,1746538102,293854256,,0.0,0.0,0.0,0.0,0.0,-2.842170943040401e-14
2025/05/06 15:28:22.394398370,1746538102,392201057,,5.684341886080802e-14,5.329070518200751e-15,0.0,0.0,0.0,2.842170943040401e-14
2025/05/06 15:28:22.494740646,1746538102,491919073,,0.0,3.552713678800501e-15,0.0,0.0,0.0,-5.684341886080802e-14
2025/05/06 15:28:22.596115664,1746538102,594516774,,0.0,7.105427357601002e-15,0.0,0.0,0.0,-2.842170943040401e-14
2025/05/06 15:28:22.693212191,1746538102,692018440,,0.0,7.105427357601002e-15,0.0,0.0,0.0,2.842170943040401e-14
2025/05/06 15:28:22.796265896,1746538102,795497454,,0.0,-2.6645352591003757e-15,0.0,0.0,0.0,-2.842170943040401e-14
2025/05/06 15:28:22.899556023,1746538102,896082101,,0.0,-8.881784197001252e-16,0.0,0.0,0.0,0.0
2025/05/06 15:28:22.993580127,1746538102,992367320,,0.0,0.0,0.0,0.0,0.0,-2.842170943040401e-14
2025/05/06 15:28:23.92340920,1746538103,92028856,,0.0,2.6645352591003757e-15,0.0,0.0,0.0,-2.842170943040401e-14
2025/05/06 15:28:23.198008747,1746538103,197446838,,0.0,-8.881784197001252e-16,0.0,0.0,0.0,5.684341886080802e-14
2025/05/06 15:28:23.291937870,1746538103,291655518,,1.1368683772161603e-13,2.6645352591003757e-15,0.0,0.0,0.0,0.0
2025/05/06 15:28:23.392864827,1746538103,392575147,,0.0,-8.881784197001252e-16,0.0,0.0,0.0,2.842170943040401e-14
2025/05/06 15:28:23.492739125,1746538103,491765989,,0.0,0.0,0.0,0.0,0.0,2.842170943040401e-14
2025/05/06 15:28:23.594843259,1746538103,592512986,,1.1368683772161603e-13,0.0,0.0,0.0,0.0,2.842170943040401e-14
2025/05/06 15:28:23.701085423,1746538103,697555314,,0.0,0.0,0.0,0.0,0.0,0.0
2025/05/06 15:28:23.793995828,1746538103,792219501,,0.0,8.881784197001252e-16,0.0,0.0,0.0,0.0
2025/05/06 15:28:23.894285128,1746538103,892820705,,5.684341886080802e-14,-8.881784197001252e-16,0.0,0.0,0.0,-5.684341886080802e-14
2025/05/06 15:28:23.992069766,1746538103,991689713,,0.0,1.7763568394002505e-15,0.0,0.0,0.0,-2.842170943040401e-14
2025/05/06 15:28:24.92874937,1746538104,92486057,,0.0,1.7763568394002505e-15,0.0,0.0,0.0,2.842170943040401e-14
2025/05/06 15:28:24.193081399,1746538104,192531591,,0.0,1.7763568394002505e-15,0.0,0.0,0.0,0.0
2025/05/06 15:28:24.294203573,1746538104,293745975,,5.684341886080802e-14,-8.881784197001252e-16,0.0,0.0,0.0,5.684341886080802e-14
2025/05/06 15:28:24.393613098,1746538104,393060441,,5.684341886080802e-14,6.217248937900877e-15,0.0,0.0,0.0,0.0
2025/05/06 15:28:24.496118486,1746538104,494270442,,0.0,-2.6645352591003757e-15,0.0,0.0,0.0,0.0
2025/05/06 15:28:24.595085583,1746538104,592688402,,0.0,0.0,0.0,0.0,0.0,-2.842170943040401e-14
2025/05/06 15:28:24.692124934,1746538104,691816424,,0.0,-8.881784197001252e-16,0.0,0.0,0.0,-2.842170943040401e-14
2025/05/06 15:28:24.801676329,1746538104,795098072,,5.684341886080802e-14,0.0,0.0,0.0,0.0,0.0
2025/05/06 15:28:24.896229449,1746538104,895275620,,0.0,0.0,0.0,0.0,0.0,-2.842170943040401e-14
2025/05/06 15:28:24.995949576,1746538104,994486495,,-1.1368683772161603e-13,1.4210854715202004e-14,0.0,0.0,0.0,-2.842170943040401e-14
2025/05/06 15:28:25.92449765,1746538105,92238282,,0.0,7.105427357601002e-15,0.0,0.0,0.0,-5.684341886080802e-14
2025/05/06 15:28:25.195793661,1746538105,195495704,,0.0,7.105427357601002e-15,0.0,0.0,0.0,0.0
2025/05/06 15:28:25.292435969,1746538105,292126952,,0.0,0.0,0.0,0.0,0.0,-2.842170943040401e-14
2025/05/06 15:28:25.393647390,1746538105,393351113,,0.0,7.105427357601002e-15,0.0,0.0,0.0,2.842170943040401e-14
2025/05/06 15:28:25.493017129,1746538105,492449179,,0.0,0.0,0.0,0.0,0.0,5.684341886080802e-14
2025/05/06 15:28:25.604036709,1746538105,600248325,,0.0,7.105427357601002e-15,0.0,0.0,0.0,0.0
2025/05/06 15:28:25.698487145,1746538105,695662539,,0.0,0.0,0.0,0.0,0.0,0.0
2025/05/06 15:28:25.808615472,1746538105,804320417,,-2.2737367544323206e-13,26.222396970448063,0.0,0.0,0.0,-5.002220859751105e-12
2025/05/06 15:28:25.895968923,1746538105,895593871,,0.0,2.1316282072803006e-14,0.0,0.0,0.0,2.842170943040401e-14
2025/05/06 15:28:25.993968657,1746538105,992799611,,0.0,-2.1316282072803006e-14,0.0,0.0,0.0,0.0
2025/05/06 15:28:26.93055886,1746538106,92769114,,0.0,-7.105427357601002e-15,0.0,0.0,0.0,-2.842170943040401e-14
2025/05/06 15:28:26.193486121,1746538106,192784041,,0.0,-7.105427357601002e-15,0.0,0.0,0.0,0.0
2025/05/06 15:28:26.297310426,1746538106,296223670,,0.0,-7.105427357601002e-15,0.0,0.0,0.0,-2.842170943040401e-14
2025/05/06 15:28:26.395291895,1746538106,394681603,,0.0,-7.105427357601002e-15,0.0,0.0,0.0,5.684341886080802e-14
2025/05/06 15:28:26.494332787,1746538106,492889801,,0.0,-7.105427357601002e-15,0.0,0.0,0.0,8.526512829121202e-14
2025/05/06 15:28:26.595230196,1746538106,592970183,,0.0,-1.4210854715202004e-14,0.0,0.0,0.0,0.0
2025/05/06 15:28:26.693642826,1746538106,693389013,,0.0,0.0,0.0,0.0,0.0,2.842170943040401e-14
2025/05/06 15:28:26.807290518,1746538106,802887373,,-2.8421709430404007e-13,-6.20945898288312,0.0,0.0,0.0,7.844391802791506e-12
2025/05/06 15:28:26.893161282,1746538106,892810426,,5.684341886080802e-14,1.0658141036401503e-14,0.0,0.0,0.0,5.684341886080802e-14
2025/05/06 15:28:26.994566677,1746538106,994192645,,0.0,1.5987211554602254e-14,0.0,0.0,0.0,-8.526512829121202e-14
2025/05/06 15:28:27.97071750,1746538107,92619110,,0.0,7.105427357601002e-15,0.0,0.0,0.0,2.842170943040401e-14
2025/05/06 15:28:27.192122668,1746538107,191881678,,0.0,1.5987211554602254e-14,0.0,0.0,0.0,-5.684341886080802e-14
2025/05/06 15:28:27.294428495,1746538107,293755823,,1.1368683772161603e-12,5.311306949806749e-13,0.0,0.0,0.0,-9.947598300641403e-13
2025/05/06 15:28:27.393285743,1746538107,392983674,,4.411049303598702e-11,1.9774404336203588e-11,0.0,0.0,0.0,-3.8113512346171774e-11
2025/05/06 15:28:27.495129855,1746538107,493539075,,4.5133674575481564e-11,1.9875656676049402e-11,0.0,0.0,0.0,-3.836930773104541e-11
2025/05/06 15:28:27.600140567,1746538107,599207423,,0.0,3.552713678800501e-15,0.0,0.0,0.0,2.842170943040401e-14
2025/05/06 15:28:27.693262300,1746538107,692976080,,8.003553375601768e-11,3.40243389018724e-11,0.0,0.0,0.0,-6.568257049366366e-11
2025/05/06 15:28:27.796783715,1746538107,793600051,,0.0,1.7763568394002505e-15,0.0,0.0,0.0,0.0
2025/05/06 15:28:27.893237176,1746538107,892770325,,5.684341886080802e-14,-3.552713678800501e-15,0.0,0.0,0.0,0.0
2025/05/06 15:28:27.992308290,1746538107,991976817,,0.0,1.7763568394002505e-15,0.0,0.0,0.0,-8.526512829121202e-14
2025/05/06 15:28:28.98928440,1746538108,98486849,,0.0,0.0,0.0,0.0,0.0,2.842170943040401e-14
2025/05/06 15:28:28.195739601,1746538108,194425435,,0.0,-8.881784197001252e-16,0.0,0.0,0.0,0.0
2025/05/06 15:28:28.292812176,1746538108,291989646,,0.0,-8.881784197001252e-16,0.0,0.0,0.0,5.684341886080802e-14
2025/05/06 15:28:28.392231067,1746538108,391962789,,0.0,0.0,0.0,0.0,0.0,0.0
2025/05/06 15:28:28.500675165,1746538108,497674841,,0.0,0.0,0.0,0.0,0.0,0.0
2025/05/06 15:28:28.594622425,1746538108,593771105,,0.0,-4.440892098500626e-15,0.0,0.0,0.0,0.0
2025/05/06 15:28:28.692434152,1746538108,692038726,,5.684341886080802e-14,-1.7763568394002505e-15,0.0,0.0,0.0,0.0
2025/05/06 15:28:28.793318470,1746538108,792063852,,0.0,-3.552713678800501e-15,0.0,0.0,0.0,5.684341886080802e-14
2025/05/06 15:28:28.893738119,1746538108,893499721,,0.0,-1.7763568394002505e-15,0.0,0.0,0.0,5.684341886080802e-14
2025/05/06 15:28:28.992423752,1746538108,992195077,,0.0,-7.105427357601002e-15,0.0,0.0,0.0,0.0
2025/05/06 15:28:29.98372424,1746538109,94168528,,0.0,-3.552713678800501e-15,0.0,0.0,0.0,0.0
2025/05/06 15:28:29.193017834,1746538109,192582740,,0.0,-1.7763568394002505e-15,0.0,0.0,0.0,-2.842170943040401e-14
2025/05/06 15:28:29.292734220,1746538109,292313445,,0.0,-3.552713678800501e-15,0.0,0.0,0.0,5.684341886080802e-14
2025/05/06 15:28:29.394203320,1746538109,392207648,,0.0,-5.329070518200751e-15,0.0,0.0,0.0,2.842170943040401e-14
2025/05/06 15:28:29.496055234,1746538109,492536957,,0.0,0.0,0.0,0.0,0.0,-5.684341886080802e-14
2025/05/06 15:28:29.594101566,1746538109,593452332,,0.0,0.0,0.0,0.0,0.0,0.0
2025/05/06 15:28:29.692251934,1746538109,691988692,,1.1368683772161603e-13,-8.881784197001252e-15,0.0,0.0,0.0,0.0
2025/05/06 15:28:29.794810794,1746538109,794003497,,0.0,-2.1316282072803006e-14,0.0,0.0,0.0,1.1368683772161603e-13
2025/05/06 15:28:29.893241822,1746538109,892800239,,0.0,3.552713678800501e-15,0.0,0.0,0.0,0.0
2025/05/06 15:28:29.992624723,1746538109,992144332,,0.0,2.6645352591003757e-15,0.0,0.0,0.0,2.842170943040401e-14
2025/05/06 15:28:30.92482265,1746538110,92155798,,-5.684341886080802e-14,-1.7763568394002505e-15,0.0,0.0,0.0,2.842170943040401e-14
2025/05/06 15:28:30.196446894,1746538110,193634284,,0.0,1.7763568394002505e-15,0.0,0.0,0.0,-2.842170943040401e-14
2025/05/06 15:28:30.294781065,1746538110,294462609,,0.0,4.440892098500626e-15,0.0,0.0,0.0,-2.842170943040401e-14
2025/05/06 15:28:30.392109811,1746538110,391765465,,0.0,4.440892098500626e-15,0.0,0.0,0.0,0.0
2025/05/06 15:28:30.495061539,1746538110,492005986,,0.0,-8.881784197001252e-16,0.0,0.0,0.0,2.842170943040401e-14
2025/05/06 15:28:30.592053214,1746538110,591824268,,-5.684341886080802e-14,2.6645352591003757e-15,0.0,0.0,0.0,2.842170943040401e-14
2025/05/06 15:28:30.695226649,1746538110,694973352,,0.0,8.881784197001252e-16,0.0,0.0,0.0,-5.684341886080802e-14
2025/05/06 15:28:30.795095627,1746538110,794539647,,0.0,0.0,0.0,0.0,0.0,0.0
2025/05/06 15:28:30.895941872,1746538110,895136225,,0.0,3.552713678800501e-15,0.0,0.0,0.0,0.0
2025/05/06 15:28:30.992402448,1746538110,992139629,,0.0,0.0,0.0,0.0,0.0,-2.842170943040401e-14
2025/05/06 15:28:31.96879739,1746538111,96590758,,0.0,-3.552713678800501e-15,0.0,0.0,0.0,-2.842170943040401e-14
2025/05/06 15:28:31.195959366,1746538111,194268141,,0.0,0.0,0.0,0.0,0.0,2.842170943040401e-14
2025/05/06 15:28:31.292480474,1746538111,291914478,,0.0,1.7763568394002505e-15,0.0,0.0,0.0,0.0
2025/05/06 15:28:31.400104901,1746538111,399391020,,0.0,0.0,0.0,0.0,0.0,0.0
2025/05/06 15:28:31.494027734,1746538111,491867218,,0.0,-3.552713678800501e-15,0.0,0.0,0.0,0.0
2025/05/06 15:28:31.593250180,1746538111,592813870,,0.0,0.0,0.0,0.0,0.0,-2.842170943040401e-14
2025/05/06 15:28:31.693457652,1746538111,693085690,,0.0,5.329070518200751e-15,0.0,0.0,0.0,0.0
2025/05/06 15:28:31.800572194,1746538111,798653668,,0.0,-2.1316282072803006e-14,0.0,0.0,0.0,0.0
2025/05/06 15:28:31.893997148,1746538111,893637926,,0.0,-4.973799150320701e-14,0.0,0.0,0.0,-8.526512829121202e-14
2025/05/06 15:28:31.994542224,1746538111,994232057,,0.0,-7.815970093361102e-14,0.0,0.0,0.0,1.1368683772161603e-13
2025/05/06 15:28:32.92684080,1746538112,92087652,,0.0,1.4210854715202004e-14,0.0,0.0,0.0,-2.842170943040401e-14
2025/05/06 15:28:32.200122322,1746538112,199194357,,0.0,7.105427357601002e-15,0.0,0.0,0.0,-5.684341886080802e-14
2025/05/06 15:28:32.293698966,1746538112,293185652,,0.0,1.4210854715202004e-14,0.0,0.0,0.0,0.0
2025/05/06 15:28:32.392853396,1746538112,392594394,,0.0,2.842170943040401e-14,0.0,0.0,0.0,-5.684341886080802e-14
2025/05/06 15:28:32.497943547,1746538112,495587990,,0.0,2.1316282072803006e-14,0.0,0.0,0.0,-2.842170943040401e-14
2025/05/06 15:28:32.595693176,1746538112,595358493,,0.0,3.552713678800501e-14,0.0,0.0,0.0,-8.526512829121202e-14
2025/05/06 15:28:32.693000954,1746538112,692406408,,0.0,2.842170943040401e-14,0.0,0.0,0.0,-8.526512829121202e-14
2025/05/06 15:28:32.800088217,1746538112,799691355,,1.3073986337985843e-12,2.5153212845907547e-12,0.0,0.0,0.0,-4.519051799434237e-12
2025/05/06 15:28:32.898150250,1746538112,896628804,,0.0,0.0,0.0,0.0,0.0,0.0
2025/05/06 15:28:32.993512645,1746538112,992965340,,4.547473508864641e-13,7.602807272633072e-13,0.0,0.0,0.0,-1.3926637620897964e-12
2025/05/06 15:28:33.96622153,1746538113,94657207,,9.094947017729282e-13,1.6697754290362354e-12,0.0,0.0,0.0,-3.097966327914037e-12
2025/05/06 15:28:33.193831230,1746538113,192698968,,3.410605131648481e-13,6.252776074688882e-13,0.0,0.0,0.0,-1.1368683772161603e-12
2025/05/06 15:28:33.296944518,1746538113,295689004,,2.2737367544323206e-13,4.902744876744691e-13,0.0,0.0,0.0,-9.379164112033322e-13
2025/05/06 15:28:33.397437941,1746538113,396909821,,3.410605131648481e-13,4.831690603168681e-13,0.0,0.0,0.0,-8.810729923425242e-13
2025/05/06 15:28:33.492553155,1746538113,492061201,,2.2737367544323206e-13,5.471179065352771e-13,0.0,0.0,0.0,-9.947598300641403e-13
2025/05/06 15:28:33.593689194,1746538113,593364922,,3.410605131648481e-13,6.252776074688882e-13,0.0,0.0,0.0,-1.1084466677857563e-12
2025/05/06 15:28:33.694310103,1746538113,693575215,,3.979039320256561e-13,7.673861546209082e-13,0.0,0.0,0.0,-1.4210854715202004e-12
2025/05/06 15:28:33.798370195,1746538113,797729066,,0.0,0.0,0.0,0.0,0.0,0.0
2025/05/06 15:28:33.895838175,1746538113,894119985,,-5.684341886080802e-14,3.552713678800501e-15,0.0,0.0,0.0,2.842170943040401e-14
2025/05/06 15:28:33.997473490,1746538113,995627196,,0.0,0.0,0.0,0.0,0.0,0.0
2025/05/06 15:28:34.95160948,1746538114,92459521,,-5.684341886080802e-14,0.0,0.0,0.0,0.0,2.842170943040401e-14
2025/05/06 15:28:34.197215765,1746538114,192767154,,0.0,3.552713678800501e-15,0.0,0.0,0.0,2.842170943040401e-14
2025/05/06 15:28:34.296870072,1746538114,296084526,,0.0,-3.552713678800501e-15,0.0,0.0,0.0,-5.684341886080802e-14
2025/05/06 15:28:34.393223475,1746538114,391870677,,0.0,0.0,0.0,0.0,0.0,-2.842170943040401e-14
2025/05/06 15:28:34.495498969,1746538114,492964321,,0.0,0.0,0.0,0.0,0.0,0.0
2025/05/06 15:28:34.592285546,1746538114,591963119,,0.0,-3.552713678800501e-15,0.0,0.0,0.0,-5.684341886080802e-14
2025/05/06 15:28:34.693250135,1746538114,692969659,,0.0,3.552713678800501e-15,0.0,0.0,0.0,2.842170943040401e-14
2025/05/06 15:28:34.794239118,1746538114,792736306,,0.0,1.7763568394002505e-15,0.0,0.0,0.0,-4.263256414560601e-14
2025/05/06 15:28:34.892754537,1746538114,892248239,,0.0,3.552713678800501e-15,0.0,0.0,0.0,1.4210854715202004e-14
2025/05/06 15:28:34.996928612,1746538114,992120462,,0.0,1.7763568394002505e-15,0.0,0.0,0.0,7.105427357601002e-14
2025/05/06 15:28:35.92485517,1746538115,91816378,,0.0,6.217248937900877e-15,0.0,0.0,0.0,-2.842170943040401e-14
2025/05/06 15:28:35.194960547,1746538115,194194468,,0.0,1.7763568394002505e-15,0.0,0.0,0.0,-1.4210854715202004e-14
2025/05/06 15:28:35.294368763,1746538115,294065199,,0.0,-3.552713678800501e-15,0.0,0.0,0.0,-1.4210854715202004e-14
2025/05/06 15:28:35.396366146,1746538115,393464812,,0.0,-8.881784197001252e-16,0.0,0.0,0.0,0.0
2025/05/06 15:28:35.493358596,1746538115,491823645,,0.0,0.0,0.0,0.0,0.0,0.0
2025/05/06 15:28:35.593050754,1746538115,592730942,,0.0,-8.881784197001252e-16,0.0,0.0,0.0,0.0
2025/05/06 15:28:35.693218020,1746538115,692819015,,0.0,8.881784197001252e-16,0.0,0.0,0.0,2.842170943040401e-14
2025/05/06 15:28:35.803367355,1746538115,800457756,,-8.526512829121202e-13,-2.4158453015843406e-12,0.0,0.0,0.0,-3.694822225952521e-12
2025/05/06 15:28:35.898769199,1746538115,895719468,,1.7053025658242404e-13,3.268496584496461e-13,0.0,0.0,0.0,-6.821210263296962e-13
2025/05/06 15:28:35.994338734,1746538115,993888127,,0.0,1.4210854715202004e-14,0.0,0.0,0.0,-2.842170943040401e-14
2025/05/06 15:28:36.93813945,1746538116,93360715,,7.332801033044234e-12,1.4864554032101296e-11,0.0,0.0,0.0,-2.8194335754960775e-11
2025/05/06 15:28:36.193057491,1746538116,192649126,,2.2737367544323206e-13,4.405364961712621e-13,0.0,0.0,0.0,-9.094947017729282e-13
2025/05/06 15:28:36.297312255,1746538116,296554685,,0.0,4.263256414560601e-14,0.0,0.0,0.0,-5.684341886080802e-14
2025/05/06 15:28:36.393697437,1746538116,393366267,,0.0,1.4210854715202004e-14,0.0,0.0,0.0,-2.842170943040401e-14
2025/05/06 15:28:36.493980258,1746538116,492765173,,5.684341886080802e-14,7.105427357601002e-15,0.0,0.0,0.0,-2.842170943040401e-14
2025/05/06 15:28:36.598437108,1746538116,597819447,,0.0,0.0,0.0,0.0,0.0,0.0
2025/05/06 15:28:36.691850168,1746538116,691574750,,0.0,-7.105427357601002e-15,0.0,0.0,0.0,2.842170943040401e-14
2025/05/06 15:28:36.808340168,1746538116,805852525,,-1.3869794202037156e-11,-37.65593919344025,0.0,0.0,0.0,7.321432349272072e-11
2025/05/06 15:28:36.900055203,1746538116,899748802,,1.7053025658242404e-12,-4.580196891622421,0.0,0.0,0.0,9.114842214330565e-11
2025/05/06 15:28:36.996258036,1746538116,995459503,,0.0,-2.842170943040401e-14,0.0,0.0,0.0,5.684341886080802e-14
2025/05/06 15:28:37.94677550,1746538117,93773231,,5.684341886080802e-14,0.0,0.0,0.0,0.0,-2.842170943040401e-14
2025/05/06 15:28:37.193208679,1746538117,192502793,,0.0,0.0,0.0,0.0,0.0,2.842170943040401e-14
2025/05/06 15:28:37.293823359,1746538117,293429418,,0.0,-2.842170943040401e-14,0.0,0.0,0.0,-5.684341886080802e-14
2025/05/06 15:28:37.395280218,1746538117,394935851,,0.0,0.0,0.0,0.0,0.0,2.842170943040401e-14
2025/05/06 15:28:37.498441530,1746538117,496509548,,0.0,2.842170943040401e-14,0.0,0.0,0.0,-2.842170943040401e-14
2025/05/06 15:28:37.592355983,1746538117,592037597,,5.684341886080802e-14,0.0,0.0,0.0,0.0,8.526512829121202e-14
2025/05/06 15:28:37.693853028,1746538117,692345379,,-5.684341886080802e-14,2.842170943040401e-14,0.0,0.0,0.0,-8.526512829121202e-14
2025/05/06 15:28:37.793560717,1746538117,793212366,,5.684341886080802e-14,9.947598300641403e-14,0.0,0.0,0.0,-2.2737367544323206e-13
2025/05/06 15:28:37.898957486,1746538117,896672044,,9.094947017729282e-13,1.5631940186722204e-12,0.0,0.0,0.0,-3.097966327914037e-12
2025/05/06 15:28:37.993937986,1746538117,993607909,,1.2164491636212915e-11,2.2254198484006338e-11,0.0,0.0,0.0,-4.4366288420860656e-11
2025/05/06 15:28:38.115711621,1746538118,95437506,,1.7053025658242404e-13,2.4158453015843406e-13,0.0,0.0,0.0,-4.547473508864641e-13
2025/05/06 15:28:38.193609215,1746538118,193373825,,0.0,8.526512829121202e-14,0.0,0.0,0.0,-1.1368683772161603e-13
2025/05/06 15:28:38.293352896,1746538118,293037490,,0.0,8.526512829121202e-14,0.0,0.0,0.0,-1.9895196601282805e-13
2025/05/06 15:28:38.394435965,1746538118,392849553,,0.0,1.1368683772161603e-13,0.0,0.0,0.0,-1.9895196601282805e-13
2025/05/06 15:28:38.505218865,1746538118,500680745,,0.0,1.1368683772161603e-13,0.0,0.0,0.0,-1.4210854715202004e-13
2025/05/06 15:28:38.598864862,1746538118,596946380,,1.1368683772161603e-13,9.947598300641403e-14,0.0,0.0,0.0,-1.1368683772161603e-13
2025/05/06 15:28:38.696424471,1746538118,693792822,,1.1368683772161603e-13,8.526512829121202e-14,0.0,0.0,0.0,-1.4210854715202004e-13
2025/05/06 15:28:38.800179912,1746538118,800080996,,6.662048690486699e-11,7.657068400940403,0.0,0.0,0.0,-2.758042683126405e-10
2025/05/06 15:28:38.897988700,1746538118,895240641,,0.0,-4.973799150320701e-14,0.0,0.0,0.0,5.684341886080802e-14
2025/05/06 15:28:38.995371138,1746538118,993898777,,5.684341886080802e-14,-7.105427357601002e-15,0.0,0.0,0.0,2.842170943040401e-14
2025/05/06 15:28:39.99176317,1746538119,96894598,,0.0,-7.105427357601002e-15,0.0,0.0,0.0,-2.842170943040401e-14
2025/05/06 15:28:39.192552633,1746538119,191999743,,0.0,-1.4210854715202004e-14,0.0,0.0,0.0,-2.842170943040401e-14
2025/05/06 15:28:39.292560479,1746538119,292233794,,0.0,-1.4210854715202004e-14,0.0,0.0,0.0,5.684341886080802e-14
2025/05/06 15:28:39.391931705,1746538119,391721959,,0.0,-1.4210854715202004e-14,0.0,0.0,0.0,2.842170943040401e-14
2025/05/06 15:28:39.496053789,1746538119,493965756,,0.0,-7.105427357601002e-15,0.0,0.0,0.0,0.0
2025/05/06 15:28:39.592325915,1746538119,592090872,,0.0,-7.105427357601002e-15,0.0,0.0,0.0,-2.842170943040401e-14
2025/05/06 15:28:39.696069471,1746538119,695241521,,0.0,0.0,0.0,0.0,0.0,2.842170943040401e-14
2025/05/06 15:28:39.794014837,1746538119,792737427,,0.0,0.0,0.0,0.0,0.0,-4.263256414560601e-14
2025/05/06 15:28:39.893312620,1746538119,892179184,,0.0,-7.105427357601002e-15,0.0,0.0,0.0,-1.4210854715202004e-14
2025/05/06 15:28:39.992762786,1746538119,991757367,,-1.1368683772161603e-13,-7.105427357601002e-15,0.0,0.0,0.0,1.4210854715202004e-14
2025/05/06 15:28:40.97563011,1746538120,94911943,,0.0,-7.105427357601002e-15,0.0,0.0,0.0,-2.842170943040401e-14
2025/05/06 15:28:40.203042665,1746538120,201458135,,0.0,0.0,0.0,0.0,0.0,0.0
2025/05/06 15:28:40.295481665,1746538120,294635020,,0.0,-1.4210854715202004e-14,0.0,0.0,0.0,2.842170943040401e-14
2025/05/06 15:28:40.400663400,1746538120,397663845,,0.0,1.4210854715202004e-13,0.0,0.0,0.0,-3.126388037344441e-13
2025/05/06 15:28:40.493032367,1746538120,491993346,,1.1368683772161603e-13,1.1368683772161603e-13,0.0,0.0,0.0,-2.5579538487363607e-13
2025/05/06 15:28:40.592731942,1746538120,592263427,,2.0463630789890885e-12,4.206412995699793e-12,0.0,0.0,0.0,-8.29913915367797e-12
2025/05/06 15:28:40.693016430,1746538120,692728907,,2.8421709430404007e-13,6.252776074688882e-13,0.0,0.0,0.0,-1.2505552149377763e-12
2025/05/06 15:28:40.795355854,1746538120,794692567,,1.1368683772161603e-12,2.2453150450019166e-12,0.0,0.0,0.0,-4.490630090003833e-12
2025/05/06 15:28:40.898831815,1746538120,898366202,,3.183231456205249e-12,6.338041202980094e-12,0.0,0.0,0.0,-1.2505552149377763e-11
2025/05/06 15:28:40.993570729,1746538120,992477154,,5.8548721426632255e-12,1.1510792319313623e-11,0.0,0.0,0.0,-2.2851054382044822e-11
2025/05/06 15:28:41.95118646,1746538121,94345424,,7.275957614183426e-12,1.4409806681214832e-11,0.0,0.0,0.0,-2.8677504815277644e-11
2025/05/06 15:28:41.192670937,1746538121,192291191,,7.275957614183426e-12,1.4352963262354024e-11,0.0,0.0,0.0,-2.8478552849264815e-11
2025/05/06 15:28:41.299588527,1746538121,296381237,,2.842170943040401e-14,0.0,0.0,0.0,0.0,5.684341886080802e-14
2025/05/06 15:28:41.396306185,1746538121,395964639,,0.0,2.842170943040401e-14,0.0,0.0,0.0,-5.684341886080802e-14
2025/05/06 15:28:41.498483381,1746538121,496243025,,0.0,4.263256414560601e-14,0.0,0.0,0.0,-1.1368683772161603e-13
2025/05/06 15:28:41.592657077,1746538121,592372100,,0.0,8.526512829121202e-14,0.0,0.0,0.0,-1.4210854715202004e-13
2025/05/06 15:28:41.695077651,1746538121,692712745,,5.684341886080802e-14,1.2789769243681803e-13,0.0,0.0,0.0,-1.9895196601282805e-13
2025/05/06 15:28:41.791941627,1746538121,791664342,,6.252776074688882e-13,1.1937117960769683e-12,0.0,0.0,0.0,-2.4158453015843406e-12
2025/05/06 15:28:41.894284543,1746538121,892547067,,1.0800249583553523e-12,2.1316282072803006e-12,0.0,0.0,0.0,-4.263256414560601e-12
2025/05/06 15:28:41.992884793,1746538121,992169893,,1.5347723092418164e-12,2.9842794901924208e-12,0.0,0.0,0.0,-5.9685589803848416e-12
2025/05/06 15:28:42.92569902,1746538122,92283363,,5.684341886080802e-14,1.4210854715202004e-13,0.0,0.0,0.0,-3.126388037344441e-13
2025/05/06 15:28:42.198440347,1746538122,196965206,,5.684341886080802e-14,1.4210854715202004e-13,0.0,0.0,0.0,-2.8421709430404007e-13
2025/05/06 15:28:42.294189387,1746538122,293971235,,4.519051799434237e-12,9.237055564881302e-12,0.0,0.0,0.0,-1.8616219676914625e-11
2025/05/06 15:28:42.397320968,1746538122,397042694,,1.4296119843493216e-11,2.9544366952904966e-11,0.0,0.0,0.0,-5.948663783783559e-11
2025/05/06 15:28:42.492928851,1746538122,492620040,,5.115907697472721e-12,1.0530243343964685e-11,0.0,0.0,0.0,-2.114575181622058e-11
2025/05/06 15:28:42.596504246,1746538122,596056294,,1.5347723092418164e-12,3.097966327914037e-12,0.0,0.0,0.0,-6.195932655828074e-12
2025/05/06 15:28:42.694498697,1746538122,692923762,,1.0516032489249483e-12,2.0747847884194925e-12,0.0,0.0,0.0,-4.149569576838985e-12
2025/05/06 15:28:42.804401463,1746538122,799478977,,0.0,0.0,0.0,0.0,0.0,-2.842170943040401e-14
2025/05/06 15:28:42.903866777,1746538122,895726686,,3.299760464869905e-11,6.853895229141926e-11,0.0,0.0,0.0,-1.3784529073745944e-10
2025/05/06 15:28:42.992878959,1746538122,992504796,,1.9326762412674725e-11,4.0031977732724044e-11,0.0,0.0,0.0,-8.049028110690415e-11
2025/05/06 15:28:43.97432680,1746538123,93857623,,1.2676082405960187e-11,2.6204816094832495e-11,0.0,0.0,0.0,-5.263700586510822e-11
2025/05/06 15:28:43.194593651,1746538123,192750240,,8.981260180007666e-12,1.8474111129762605e-11,0.0,0.0,0.0,-3.709033080667723e-11
2025/05/06 15:28:43.293851865,1746538123,293522235,,6.679101716144942e-12,1.3699263945454732e-11,0.0,0.0,0.0,-2.751221472863108e-11
2025/05/06 15:28:43.393207814,1746538123,392416515,,0.0,0.0,0.0,0.0,0.0,-2.842170943040401e-14
2025/05/06 15:28:43.496511917,1746538123,495878034,,-2.842170943040401e-14,0.0,0.0,0.0,0.0,0.0
2025/05/06 15:28:43.598620464,1746538123,594777141,,0.0,0.0,0.0,0.0,0.0,4.263256414560601e-14
2025/05/06 15:28:43.697902948,1746538123,696584959,,-2.842170943040401e-14,0.0,0.0,0.0,0.0,-2.842170943040401e-14
2025/05/06 15:28:43.793893107,1746538123,792531176,,0.0,0.0,0.0,0.0,0.0,-2.842170943040401e-14
2025/05/06 15:28:43.892781135,1746538123,891657558,,0.0,0.0,0.0,0.0,0.0,-1.4210854715202004e-14
2025/05/06 15:28:43.997214831,1746538123,993821412,,-2.842170943040401e-14,-1.4210854715202004e-14,0.0,0.0,0.0,0.0
2025/05/06 15:28:44.96087889,1746538124,94325417,,0.0,0.0,0.0,0.0,0.0,4.263256414560601e-14
2025/05/06 15:28:44.205211203,1746538124,204346596,,0.0,0.0,0.0,0.0,0.0,1.4210854715202004e-14
2025/05/06 15:28:44.296588603,1746538124,294618774,,0.0,0.0,0.0,0.0,0.0,-1.4210854715202004e-14
2025/05/06 15:28:44.394624160,1746538124,392819162,,0.0,0.0,0.0,0.0,0.0,-2.842170943040401e-14
2025/05/06 15:28:44.493322702,1746538124,492870843,,0.0,1.4210854715202004e-14,0.0,0.0,0.0,0.0
2025/05/06 15:28:44.592171648,1746538124,591908180,,5.684341886080802e-14,1.4210854715202004e-14,0.0,0.0,0.0,-2.842170943040401e-14
2025/05/06 15:28:44.694517567,1746538124,693570965,,2.842170943040401e-14,0.0,0.0,0.0,0.0,-2.842170943040401e-14
2025/05/06 15:28:44.795394835,1746538124,794894160,,0.0,0.0,0.0,0.0,0.0,-4.263256414560601e-14
2025/05/06 15:28:44.896558744,1746538124,893952510,,5.684341886080802e-14,1.4210854715202004e-14,0.0,0.0,0.0,-7.105427357601002e-14
2025/05/06 15:28:44.992942261,1746538124,991901688,,0.0,2.842170943040401e-14,0.0,0.0,0.0,-4.263256414560601e-14
2025/05/06 15:28:45.94395903,1746538125,92087088,,-2.842170943040401e-14,1.4210854715202004e-14,0.0,0.0,0.0,-5.684341886080802e-14
2025/05/06 15:28:45.195470783,1746538125,195109785,,0.0,0.0,0.0,0.0,0.0,-4.263256414560601e-14
2025/05/06 15:28:45.299488317,1746538125,298123741,,0.0,1.4210854715202004e-14,0.0,0.0,0.0,-1.4210854715202004e-14
2025/05/06 15:28:45.410616468,1746538125,409646694,,0.0,0.0,0.0,0.0,0.0,-1.4210854715202004e-14
2025/05/06 15:28:45.496310761,1746538125,495278184,,8.526512829121202e-14,1.8474111129762605e-13,0.0,0.0,0.0,-4.263256414560601e-13
2025/05/06 15:28:45.596436961,1746538125,593443446,,1.9610979506978765e-12,4.206412995699793e-12,0.0,0.0,0.0,-8.526512829121202e-12
2025/05/06 15:28:45.692812139,1746538125,692594645,,2.5579538487363607e-13,5.684341886080801e-13,0.0,0.0,0.0,-1.1084466677857563e-12
2025/05/06 15:28:45.798062149,1746538125,794926945,,2.6147972675971687e-12,5.5138116294983774e-12,0.0,0.0,0.0,-1.1084466677857563e-11
2025/05/06 15:28:45.894743524,1746538125,893432788,,8.72546479513403e-12,1.8616219676914625e-11,0.0,0.0,0.0,-3.76019215764245e-11
2025/05/06 15:28:45.994694233,1746538125,994186357,,0.0,-1.4210854715202004e-14,0.0,0.0,0.0,0.0
2025/05/06 15:28:46.93651038,1746538126,92920162,,1.3642420526593924e-12,2.7426949600339867e-12,0.0,0.0,0.0,-5.5138116294983774e-12
2025/05/06 15:28:46.197821801,1746538126,193016409,,1.8189894035458565e-12,3.808509063674137e-12,0.0,0.0,0.0,-7.688072400924284e-12
2025/05/06 15:28:46.293825004,1746538126,293462179,,2.3874235921539366e-12,5.030642569181509e-12,0.0,0.0,0.0,-1.0103917702508625e-11
2025/05/06 15:28:46.417198821,1746538126,415147746,,-1.0231815394945443e-12,-1.501074198849551,0.0,0.0,0.0,1.1084466677857563e-12
2025/05/06 15:28:46.506917703,1746538126,494581557,,0.0,-7.105427357601002e-14,0.0,0.0,0.0,-2.842170943040401e-14
2025/05/06 15:28:46.594241940,1746538126,593419933,,-2.842170943040401e-14,0.0,0.0,0.0,0.0,-2.842170943040401e-14
2025/05/06 15:28:46.696402655,1746538126,693306625,,0.0,0.0,0.0,0.0,0.0,0.0
2025/05/06 15:28:46.796901425,1746538126,795269458,,0.0,2.842170943040401e-14,0.0,0.0,0.0,0.0
2025/05/06 15:28:46.893597729,1746538126,893245523,,0.0,1.4210854715202004e-14,0.0,0.0,0.0,-1.1368683772161603e-13
2025/05/06 15:28:46.993909672,1746538126,993626365,,0.0,1.4210854715202004e-14,0.0,0.0,0.0,-2.842170943040401e-14
2025/05/06 15:28:47.94046723,1746538127,93662721,,-2.842170943040401e-14,1.4210854715202004e-14,0.0,0.0,0.0,-8.526512829121202e-14
2025/05/06 15:28:47.196293981,1746538127,194267834,,0.0,2.842170943040401e-14,0.0,0.0,0.0,-5.684341886080802e-14
2025/05/06 15:28:47.293749190,1746538127,293188309,,0.0,0.0,0.0,0.0,0.0,-2.842170943040401e-14
2025/05/06 15:28:47.397707688,1746538127,395331434,,0.0,5.684341886080802e-14,0.0,0.0,0.0,0.0
2025/05/06 15:28:47.493041319,1746538127,492777595,,0.0,0.0,0.0,0.0,0.0,8.526512829121202e-14
2025/05/06 15:28:47.593941737,1746538127,593236994,,2.842170943040401e-14,2.842170943040401e-14,0.0,0.0,0.0,-2.842170943040401e-14
2025/05/06 15:28:47.694129049,1746538127,693636934,,0.0,2.842170943040401e-14,0.0,0.0,0.0,2.842170943040401e-14
2025/05/06 15:28:47.797219283,1746538127,795948116,,2.842170943040401e-14,0.0,0.0,0.0,0.0,2.842170943040401e-14
2025/05/06 15:28:47.899965367,1746538127,898616473,,0.0,2.842170943040401e-14,0.0,0.0,0.0,0.0
2025/05/06 15:28:47.994310926,1746538127,992842120,,-2.842170943040401e-14,0.0,0.0,0.0,0.0,-5.684341886080802e-14
2025/05/06 15:28:48.97427286,1746538128,94220826,,0.0,0.0,0.0,0.0,0.0,5.684341886080802e-14
2025/05/06 15:28:48.192961117,1746538128,192583831,,0.0,2.842170943040401e-14,0.0,0.0,0.0,-2.842170943040401e-14
2025/05/06 15:28:48.296355443,1746538128,292183719,,0.0,0.0,0.0,0.0,0.0,0.0
2025/05/06 15:28:48.392646339,1746538128,392405708,,2.842170943040401e-14,2.842170943040401e-14,0.0,0.0,0.0,-8.526512829121202e-14
2025/05/06 15:28:48.496742489,1746538128,493694695,,0.0,5.684341886080802e-14,0.0,0.0,0.0,-2.842170943040401e-14
2025/05/06 15:28:48.597484388,1746538128,595679302,,0.0,2.842170943040401e-14,0.0,0.0,0.0,-5.684341886080802e-14
2025/05/06 15:28:48.693569280,1746538128,692514751,,0.0,0.0,0.0,0.0,0.0,-2.842170943040401e-14
2025/05/06 15:28:48.794668704,1746538128,793991740,,0.0,2.842170943040401e-14,0.0,0.0,0.0,-5.684341886080802e-14
2025/05/06 15:28:48.892117889,1746538128,891863305,,0.0,0.0,0.0,0.0,0.0,-2.842170943040401e-14
2025/05/06 15:28:48.993124037,1746538128,992727979,,0.0,2.842170943040401e-14,0.0,0.0,0.0,-2.842170943040401e-14
2025/05/06 15:28:49.94762402,1746538129,94514856,,0.0,0.0,0.0,0.0,0.0,-1.1368683772161603e-13
2025/05/06 15:28:49.201111019,1746538129,197488954,,2.842170943040401e-14,0.0,0.0,0.0,0.0,0.0
2025/05/06 15:28:49.298932270,1746538129,297743678,,0.0,2.842170943040401e-14,0.0,0.0,0.0,0.0
2025/05/06 15:28:49.394075877,1746538129,393760591,,8.526512829121202e-14,-2.842170943040401e-14,0.0,0.0,0.0,4.263256414560601e-14
2025/05/06 15:28:49.496465554,1746538129,493842058,,0.0,0.0,0.0,0.0,0.0,0.0
2025/05/06 15:28:49.592781687,1746538129,592454979,,0.0,0.0,0.0,0.0,0.0,-4.263256414560601e-14
2025/05/06 15:28:49.694142268,1746538129,693666025,,0.0,0.0,0.0,0.0,0.0,-4.263256414560601e-14
2025/05/06 15:28:49.792850049,1746538129,792531959,,0.0,0.0,0.0,0.0,0.0,-5.684341886080802e-14
2025/05/06 15:28:49.894039219,1746538129,892734934,,0.0,-1.4210854715202004e-14,0.0,0.0,0.0,-2.842170943040401e-14
2025/05/06 15:28:49.993331220,1746538129,992164389,,0.0,0.0,0.0,0.0,0.0,0.0
2025/05/06 15:28:50.94958674,1746538130,93750683,,0.0,0.0,0.0,0.0,0.0,-1.4210854715202004e-14
2025/05/06 15:28:50.195345961,1746538130,193836865,,2.842170943040401e-14,1.4210854715202004e-14,0.0,0.0,0.0,-9.947598300641403e-14
2025/05/06 15:28:50.294578216,1746538130,294308234,,2.842170943040401e-14,2.842170943040401e-14,0.0,0.0,0.0,-1.1368683772161603e-13
2025/05/06 15:28:50.394547727,1746538130,392341096,,0.0,0.0,0.0,0.0,0.0,0.0
2025/05/06 15:28:50.494492469,1746538130,492226064,,-2.842170943040401e-14,0.0,0.0,0.0,0.0,-2.842170943040401e-14
2025/05/06 15:28:50.598119675,1746538130,597343470,,2.842170943040401e-14,-1.4210854715202004e-14,0.0,0.0,0.0,2.842170943040401e-14
2025/05/06 15:28:50.692874627,1746538130,692057992,,0.0,0.0,0.0,0.0,0.0,0.0
2025/05/06 15:28:50.793436586,1746538130,792258561,,0.0,0.0,0.0,0.0,0.0,-2.842170943040401e-14
2025/05/06 15:28:50.894959861,1746538130,894638808,,0.0,-1.4210854715202004e-14,0.0,0.0,0.0,-1.4210854715202004e-14
2025/05/06 15:28:50.992572727,1746538130,992273464,,2.842170943040401e-14,0.0,0.0,0.0,0.0,-1.4210854715202004e-14
2025/05/06 15:28:51.92349707,1746538131,92063341,,0.0,0.0,0.0,0.0,0.0,-1.4210854715202004e-14
2025/05/06 15:28:51.196275447,1746538131,195881589,,0.0,0.0,0.0,0.0,0.0,0.0
2025/05/06 15:28:51.297196291,1746538131,294997523,,0.0,0.0,0.0,0.0,0.0,-4.263256414560601e-14
2025/05/06 15:28:51.392435812,1746538131,392119937,,0.0,-7.105427357601002e-15,0.0,0.0,0.0,0.0
2025/05/06 15:28:51.504644895,1746538131,499076400,,0.0,0.0,0.0,0.0,0.0,-2.842170943040401e-14
2025/05/06 15:28:51.593308165,1746538131,592090354,,0.0,0.0,0.0,0.0,0.0,-1.4210854715202004e-14
2025/05/06 15:28:51.694251191,1746538131,693226480,,0.0,0.0,0.0,0.0,0.0,-2.842170943040401e-14
2025/05/06 15:28:51.792299122,1746538131,792052125,,0.0,0.0,0.0,0.0,0.0,-1.4210854715202004e-14
2025/05/06 15:28:51.905564116,1746538131,901376738,,0.0,0.0,0.0,0.0,0.0,-9.947598300641403e-14
2025/05/06 15:28:52.2052111,1746538131,997527384,,0.0,-1.4210854715202004e-14,0.0,0.0,0.0,-4.263256414560601e-14
2025/05/06 15:28:52.92284328,1746538132,91984993,,0.0,-1.4210854715202004e-14,0.0,0.0,0.0,-2.842170943040401e-14
2025/05/06 15:28:52.198163548,1746538132,195965289,,0.0,-7.105427357601002e-15,0.0,0.0,0.0,1.4210854715202004e-14
2025/05/06 15:28:52.294867318,1746538132,292708018,,0.0,-7.105427357601002e-15,0.0,0.0,0.0,-1.4210854715202004e-14
2025/05/06 15:28:52.393500512,1746538132,392666027,,0.0,-1.4210854715202004e-14,0.0,0.0,0.0,4.263256414560601e-14
2025/05/06 15:28:52.495545998,1746538132,494756428,,0.0,1.4210854715202004e-14,0.0,0.0,0.0,2.842170943040401e-14
2025/05/06 15:28:52.596071131,1746538132,595079135,,0.0,0.0,0.0,0.0,0.0,-2.842170943040401e-14
2025/05/06 15:28:52.693189243,1746538132,692870501,,2.842170943040401e-14,2.842170943040401e-14,0.0,0.0,0.0,-2.842170943040401e-14
2025/05/06 15:28:52.792145208,1746538132,791961412,,5.684341886080802e-14,7.105427357601002e-14,0.0,0.0,0.0,-9.947598300641403e-14
2025/05/06 15:28:52.900890957,1746538132,900095814,,5.684341886080802e-14,7.105427357601002e-14,0.0,0.0,0.0,-1.7053025658242404e-13
2025/05/06 15:28:52.994258950,1746538132,991722151,,7.389644451905042e-13,1.5347723092418164e-12,0.0,0.0,0.0,-3.126388037344441e-12
2025/05/06 15:28:53.100440801,1746538133,99677990,,5.684341886080802e-14,1.4210854715202004e-13,0.0,0.0,0.0,-2.984279490192421e-13
2025/05/06 15:28:53.198802873,1746538133,197171195,,8.526512829121202e-14,1.2789769243681803e-13,0.0,0.0,0.0,-2.8421709430404007e-13
2025/05/06 15:28:53.293558670,1746538133,291884705,,5.684341886080802e-14,1.1368683772161603e-13,0.0,0.0,0.0,-2.5579538487363607e-13
2025/05/06 15:28:53.393707395,1746538133,392104731,,0.0,0.0,0.0,0.0,0.0,-1.4210854715202004e-14
2025/05/06 15:28:53.493662736,1746538133,492012465,,0.0,0.0,0.0,0.0,0.0,1.4210854715202004e-14
2025/05/06 15:28:53.593481370,1746538133,592982927,,0.0,0.0,0.0,0.0,0.0,-5.684341886080802e-14
2025/05/06 15:28:53.693258775,1746538133,692605226,,-2.842170943040401e-14,0.0,0.0,0.0,0.0,-1.4210854715202004e-14
2025/05/06 15:28:53.805559776,1746538133,799522096,,0.0,-1.4210854715202004e-14,0.0,0.0,0.0,-1.4210854715202004e-14
2025/05/06 15:28:53.891949302,1746538133,891751568,,0.0,0.0,0.0,0.0,0.0,-2.842170943040401e-14
2025/05/06 15:28:53.993763001,1746538133,992592402,,-2.842170943040401e-14,0.0,0.0,0.0,0.0,0.0
2025/05/06 15:28:54.92689789,1746538134,92250433,,0.0,0.0,0.0,0.0,0.0,-1.4210854715202004e-14
