time,header_stamp_secs,header_stamp_nsecs,header_frame_id,wrench_force_x,wrench_force_y,wrench_force_z,wrench_torque_x,wrench_torque_y,wrench_torque_z
2025/05/06 15:28:00.935227233,1746538080,905760956,,0.15769934654235584,9.562272071838377,0.0,0.0,0.0,-0.023504670709371067
2025/05/06 15:28:01.45973688,1746538080,998030320,,0.15769959986209794,9.56228733062744,0.0,0.0,0.0,-0.02356564253568566
2025/05/06 15:28:01.143954496,1746538081,94027833,,0.1576998531818399,9.562302589416504,0.0,0.0,0.0,-0.02362661249935416
2025/05/06 15:28:01.194372880,1746538081,193983929,,0.15770012140274153,9.562317848205568,0.0,0.0,0.0,-0.023687584325674194
2025/05/06 15:28:01.294499032,1746538081,294147406,,0.15770037472248127,9.562332153320312,0.0,0.0,0.0,-0.023748554289338197
2025/05/06 15:28:01.397403984,1746538081,393311049,,0.15770062804222024,9.562347412109375,0.0,0.0,0.0,-0.023809526115655122
2025/05/06 15:28:01.504161518,1746538081,502983617,,0.16944265365600497,-16.13174057006836,0.0,0.0,0.0,-0.051620010286580253
2025/05/06 15:28:01.606422455,1746538081,603501304,,0.16944295167922885,-16.131765365600586,0.0,0.0,0.0,-0.051682103425271464
2025/05/06 15:28:01.792336238,1746538081,706582889,,0.16944324970245184,-16.13178825378418,0.0,0.0,0.0,-0.05174419656395557
2025/05/06 15:28:01.856599636,1746538081,802988733,,0.1694435328245163,-16.13181114196777,0.0,0.0,0.0,-0.05180629342793708
2025/05/06 15:28:01.907622919,1746538081,904872776,,0.16944383084773929,-16.131834030151367,0.0,0.0,0.0,-0.0518683865666425
2025/05/06 15:28:02.21860452,1746538082,270292,,0.16944412887096405,-16.13185691833496,0.0,0.0,0.0,-0.05193047970533016
2025/05/06 15:28:02.124072159,1746538082,97599184,,0.1694444119930285,-16.131881713867188,0.0,0.0,0.0,-0.051992576569311666
2025/05/06 15:28:02.234888727,1746538082,204024053,,0.1694447100162515,-16.13190460205078,0.0,0.0,0.0,-0.05205466970800643
2025/05/06 15:28:02.298566546,1746538082,295298167,,0.1694450080394745,-16.13192749023437,0.0,0.0,0.0,-0.05211676284671185
2025/05/06 15:28:02.420768916,1746538082,404925745,,0.1694452911615354,-16.13195037841797,0.0,0.0,0.0,-0.052178859710686254
2025/05/06 15:28:02.514392028,1746538082,504196020,,0.10130679607391402,-8.626699447631838,0.0,0.0,0.0,-0.15987183153629125
2025/05/06 15:28:02.593818217,1746538082,593217151,,0.10130692273378372,-8.626712799072266,0.0,0.0,0.0,-0.15993839502335128
2025/05/06 15:28:02.719994303,1746538082,698849877,,0.10130704939365565,-8.626726150512695,0.0,0.0,0.0,-0.16000495851039886
2025/05/06 15:28:02.843292559,1746538082,797300621,,0.10130717605352446,-8.626739501953125,0.0,0.0,0.0,-0.16007152199745
2025/05/06 15:28:02.939443797,1746538082,907368212,,0.06960239261388845,-4.185479164123536,0.0,0.0,0.0,-0.13401094079017462
2025/05/06 15:28:03.3029599,1746538082,995907367,,0.06960243731737115,-4.185486316680907,0.0,0.0,0.0,-0.13407641649246127
2025/05/06 15:28:03.154726136,1746538083,104384039,,0.06960248947143532,-4.185492992401123,0.0,0.0,0.0,-0.13414189219474792
2025/05/06 15:28:03.349865921,1746538083,196921942,,0.06960253417491868,-4.185499668121338,0.0,0.0,0.0,-0.1342073678970337
2025/05/06 15:28:03.380147982,1746538083,303288544,,0.06960258632898308,-4.185506343841554,0.0,0.0,0.0,-0.13427284359931768
2025/05/06 15:28:03.543692683,1746538083,401912275,,0.06960263103246644,-4.185513019561768,0.0,0.0,0.0,-0.1343383193016061
2025/05/06 15:28:03.702292858,1746538083,505993529,,0.06960268318653129,-4.185520172119141,0.0,0.0,0.0,-0.134403795003891
2025/05/06 15:28:03.858397254,1746538083,599811046,,0.06960273534059525,-4.1855268478393555,0.0,0.0,0.0,-0.13446927070617587
2025/05/06 15:28:03.907280230,1746538083,700805709,,0.06960278004407927,-4.18553352355957,0.0,0.0,0.0,-0.13453474640846252
2025/05/06 15:28:03.943419303,1746538083,800723992,,0.379697769880293,-29.8936824798584,0.0,0.0,0.0,0.06196588650345092
2025/05/06 15:28:04.1448205,1746538083,897098215,,0.3876673281192744,-30.639560699462894,0.0,0.0,0.0,0.061530604958527135
2025/05/06 15:28:04.54302360,1746538083,999111120,,0.38766813278198065,-30.639606475830078,0.0,0.0,0.0,0.06147331744431028
2025/05/06 15:28:04.231878125,1746538084,107477622,,0.38766896724701105,-30.63965034484864,0.0,0.0,0.0,0.06141602993010764
2025/05/06 15:28:04.327927716,1746538084,201439025,,0.3876698017120326,-30.63969612121582,0.0,0.0,0.0,0.0613587461411953
2025/05/06 15:28:04.401330631,1746538084,299013806,,0.3876706063747388,-30.639741897583,0.0,0.0,0.0,0.06130145862698555
2025/05/06 15:28:04.517991019,1746538084,398870220,,0.3876714408397657,-30.639787673950195,0.0,0.0,0.0,0.0612441748380661
2025/05/06 15:28:04.769777704,1746538084,500747141,,0.38767227530479964,-30.639831542968746,0.0,0.0,0.0,0.06118688732386346
2025/05/06 15:28:04.895342800,1746538084,596666505,,0.38767307996750056,-30.639877319335938,0.0,0.0,0.0,0.061129599809646606
2025/05/06 15:28:05.127433627,1746538084,800204806,,0.38767474889754894,-30.639968872070312,0.0,0.0,0.0,0.06101502850651741
2025/05/06 15:28:05.144085404,1746538084,906977540,,0.5131175518035871,-24.679542541503906,0.0,0.0,0.0,-0.012663546018305993
2025/05/06 15:28:05.192902806,1746538085,191416677,,0.5131210088729894,-24.679653167724613,0.0,0.0,0.0,-0.012844737619161606
2025/05/06 15:28:05.293936315,1746538085,292800970,,0.513122141361233,-24.67969131469727,0.0,0.0,0.0,-0.012905134819447994
2025/05/06 15:28:05.391973162,1746538085,391450738,,0.5131232738494873,-24.67972755432129,0.0,0.0,0.0,-0.01296553201973083
2025/05/06 15:28:05.544584874,1746538085,496715359,,0.5131244063377363,-24.679765701293945,0.0,0.0,0.0,-0.013025929220020771
2025/05/06 15:28:05.644330392,1746538085,600934602,,0.5131255388259905,-24.67980194091797,0.0,0.0,0.0,-0.013086326420296501
2025/05/06 15:28:05.692113689,1746538085,691734229,,0.5131267309188843,-24.679840087890625,0.0,0.0,0.0,-0.013146723620586442
2025/05/06 15:28:05.800318368,1746538085,798214858,,0.5131278634071368,-24.67987632751465,0.0,0.0,0.0,-0.01320712175220251
2025/05/06 15:28:05.905560330,1746538085,901641005,,0.22479620575904802,-8.887019157409668,0.0,0.0,0.0,-0.021336488425733435
2025/05/06 15:28:06.883523,1746538085,998447200,,0.22479663789272264,-8.88703346252441,0.0,0.0,0.0,-0.021397225558761335
2025/05/06 15:28:06.102481966,1746538086,100509104,,0.22479708492755845,-8.887046813964844,0.0,0.0,0.0,-0.021457960829135203
2025/05/06 15:28:06.203619873,1746538086,201501059,,0.22479753196239471,-8.88706111907959,0.0,0.0,0.0,-0.02151869796216488
2025/05/06 15:28:06.301146091,1746538086,298421057,,0.2247979789972292,-8.887074470520021,0.0,0.0,0.0,-0.021579433232544076
2025/05/06 15:28:06.396575138,1746538086,394052613,,0.22479841113090338,-8.887088775634766,0.0,0.0,0.0,-0.0216401703655702
2025/05/06 15:28:06.503562373,1746538086,500711005,,0.2247988581657423,-8.887102127075195,0.0,0.0,0.0,-0.021700905635954726
2025/05/06 15:28:06.627153688,1746538086,622287472,,57.439113861402525,-7.734431282087851,0.0,0.0,0.0,1.3621417284009567
2025/05/06 15:28:06.763451009,1746538086,760767853,,117.47996747934617,-3.7328345142004125,0.0,0.0,0.0,1.31369221210484
2025/05/06 15:28:06.797742958,1746538086,796602270,,119.80799865722656,-24.17438316345214,0.0,0.0,0.0,1.2407623529434062
2025/05/06 15:28:06.903867969,1746538086,901453798,,120.18624114990234,-24.516618728637688,0.0,0.0,0.0,1.2217116355895712
2025/05/06 15:28:06.993872555,1746538086,993418713,,120.67089080810545,-24.694812774658214,0.0,0.0,0.0,1.2106940746307657
2025/05/06 15:28:07.106161632,1746538087,102457762,,121.26187133789062,-24.761278152465827,0.0,0.0,0.0,1.204979658126831
2025/05/06 15:28:07.207009609,1746538087,206396316,,121.9591369628904,-24.75284385681176,0.0,0.0,0.0,1.2026605606085639
2025/05/06 15:28:07.296834101,1746538087,296209018,,122.76267242431638,-24.695381164550795,0.0,0.0,0.0,1.2024091482163044
2025/05/06 15:28:07.408160760,1746538087,406122879,,123.67243957519531,-24.607011795043956,0.0,0.0,0.0,1.2033071517944052
2025/05/06 15:28:07.513769086,1746538087,513402593,,124.68843078613281,-24.50037193298341,0.0,0.0,0.0,1.204724669456482
2025/05/06 15:28:07.596251767,1746538087,594602396,,125.81063842773438,-24.384225845336925,0.0,0.0,0.0,1.2062342166900493
2025/05/06 15:28:07.701774031,1746538087,699919290,,127.03904724121092,-24.264602661132802,0.0,0.0,0.0,1.2075508832931803
2025/05/06 15:28:07.808516033,1746538087,807005217,,128.300048828125,-13.558585166931163,0.0,0.0,0.0,1.181640863418579
2025/05/06 15:28:07.895519039,1746538087,894904090,,129.74269104003906,-12.957138061523438,0.0,0.0,0.0,1.1804327964782573
2025/05/06 15:28:08.23530809,1746538088,13669082,,131.28970336914062,-12.846671104431145,0.0,0.0,0.0,1.1803145408629945
2025/05/06 15:28:08.103726635,1746538088,101214471,,132.9429168701172,-12.742477416992191,0.0,0.0,0.0,1.179601788520813
2025/05/06 15:28:08.199002390,1746538088,193664581,,134.70233154296872,-12.645211219787598,0.0,0.0,0.0,1.178283452987685
2025/05/06 15:28:08.295794456,1746538088,292199606,,136.56793212890625,-12.555202484130856,0.0,0.0,0.0,1.176364064216628
2025/05/06 15:28:08.405266996,1746538088,401036389,,138.5397186279297,-12.47256088256836,0.0,0.0,0.0,1.1738584041595175
2025/05/06 15:28:08.505302964,1746538088,503406012,,140.6177215576172,-12.397242546081536,0.0,0.0,0.0,1.1707876920699931
2025/05/06 15:28:08.608064592,1746538088,602331841,,142.80191040039062,-12.329106330871578,0.0,0.0,0.0,1.167177438735962
2025/05/06 15:28:08.695274044,1746538088,693367739,,145.09230041503903,-12.267942428588864,0.0,0.0,0.0,1.1630550622940206
2025/05/06 15:28:08.804568685,1746538088,800594175,,147.4888916015625,-12.213500022888184,0.0,0.0,0.0,1.1584491729736612
2025/05/06 15:28:08.895767519,1746538088,895143643,,149.7532501220691,2.741343975070798,0.0,0.0,0.0,1.1010280847475684
2025/05/06 15:28:08.994996482,1746538088,993499096,,152.36224365234375,2.783089876174955,0.0,0.0,0.0,1.0955333709716228
2025/05/06 15:28:09.91959881,1746538089,91637406,,155.0774383544922,2.8189585208892787,0.0,0.0,0.0,1.0896401405334473
2025/05/06 15:28:09.194971588,1746538089,193014911,,157.89881896972656,2.8492383956909144,0.0,0.0,0.0,1.0833754539489746
2025/05/06 15:28:09.295198754,1746538089,294824458,,160.82641601562503,2.874211549758904,0.0,0.0,0.0,1.0767649412155436
2025/05/06 15:28:09.392425978,1746538089,391724049,,163.8602142333984,2.8941524028778076,0.0,0.0,0.0,1.0698335170745708
2025/05/06 15:28:09.493234231,1746538089,492219501,,167.00021362304688,2.90932655334473,0.0,0.0,0.0,1.0626044273376039
2025/05/06 15:28:09.592591272,1746538089,592229785,,170.24642944335938,2.9199886322021555,0.0,0.0,0.0,1.055100083351121
2025/05/06 15:28:09.693806028,1746538089,692461470,,173.5988311767578,2.9263827800750697,0.0,0.0,0.0,1.0473415851592875
2025/05/06 15:28:09.797374820,1746538089,795520512,,172.9185333251953,5.435708045959476,0.0,0.0,0.0,1.049826979637146
2025/05/06 15:28:09.892735562,1746538089,891948605,,175.8991241455078,5.806041240692142,0.0,0.0,0.0,1.0945568084716655
2025/05/06 15:28:09.999893833,1746538089,997637594,,179.5701446533203,5.801163196563721,0.0,0.0,0.0,1.086164355278001
2025/05/06 15:28:10.93338682,1746538090,92358872,,183.3473663330078,5.792891502380371,0.0,0.0,0.0,1.0775915384292887
2025/05/06 15:28:10.199681746,1746538090,194542316,,187.2307891845703,5.781417369842529,0.0,0.0,0.0,1.0688540935516073
2025/05/06 15:28:10.292556200,1746538090,292142004,,191.2204132080078,5.76692342758178,0.0,0.0,0.0,1.059967160224943
2025/05/06 15:28:10.395087731,1746538090,394590009,,195.31625366210938,5.749581813812259,0.0,0.0,0.0,1.0509445667266561
2025/05/06 15:28:10.521857330,1746538090,502688763,,199.518310546875,5.729556560516354,0.0,0.0,0.0,1.041799664497347
2025/05/06 15:28:10.593297731,1746538090,592843397,,203.82656860351565,5.707004070281979,0.0,0.0,0.0,1.0325448513031006
2025/05/06 15:28:10.694008391,1746538090,693593707,,208.24102783203125,5.6820721626281685,0.0,0.0,0.0,1.023191690444932
2025/05/06 15:28:10.793214234,1746538090,792699474,,205.11181640624997,1.5109443664550817,0.0,0.0,0.0,0.8886452317237712
2025/05/06 15:28:10.898287775,1746538090,897854388,,208.98944091796875,1.2288671731948781,0.0,0.0,0.0,0.8552920818328857
2025/05/06 15:28:10.995426109,1746538090,993399276,,213.72251892089844,1.1970512866973912,0.0,0.0,0.0,0.845665931701646
2025/05/06 15:28:11.92177735,1746538091,91690456,,218.56179809570312,1.1633622646331787,0.0,0.0,0.0,0.8359807133674906
2025/05/06 15:28:11.194498958,1746538091,192674554,,222.19110107421875,1.1297777891159093,0.0,0.0,0.0,0.8262450098991252
2025/05/06 15:28:11.292015327,1746538091,291574646,,223.61883544921875,1.0978174209594762,0.0,0.0,0.0,0.8164939284324504
2025/05/06 15:28:11.399587688,1746538091,399040547,,223.64889526367185,1.066455364227295,0.0,0.0,0.0,0.8067829012870789
2025/05/06 15:28:11.492734370,1746538091,492357650,,222.8415069580078,1.0350009202957153,0.0,0.0,0.0,0.7971503734588765
2025/05/06 15:28:11.592207728,1746538091,591834514,,221.5847930908203,1.0029989480972308,0.0,0.0,0.0,0.7876225709915019
2025/05/06 15:28:11.695737817,1746538091,695079994,,220.14541625976562,0.9701590538024902,0.0,0.0,0.0,0.7782171368598938
2025/05/06 15:28:11.793034965,1746538091,792657550,,218.7044677734375,0.9363060593605059,0.0,0.0,0.0,0.7689451575279094
2025/05/06 15:28:11.906547841,1746538091,903332909,,208.18818664550867,37.50188583438905,0.0,0.0,0.0,0.6225904226317311
2025/05/06 15:28:12.9282605,1746538092,7015827,,207.064453125,47.14966964721678,0.0,0.0,0.0,0.6135703325271749
2025/05/06 15:28:12.95245227,1746538092,93947773,,206.187744140625,47.11260986327798,0.0,0.0,0.0,0.6046966910424203
2025/05/06 15:28:12.195286183,1746538092,193420771,,205.58656311035156,47.07438659667968,0.0,0.0,0.0,0.595969021320343
2025/05/06 15:28:12.292245369,1746538092,291837030,,205.27514648437497,47.03504180908205,0.0,0.0,0.0,0.5873854160308412
2025/05/06 15:28:12.393360410,1746538092,392491240,,205.25799560546875,46.99462127685549,0.0,0.0,0.0,0.5789431929587892
2025/05/06 15:28:12.499822370,1746538092,495094976,,205.53297424316406,46.95318603515628,0.0,0.0,0.0,0.5706391930579429
2025/05/06 15:28:12.594890252,1746538092,594285433,,206.09352111816406,46.910793304443395,0.0,0.0,0.0,0.5624698400496584
2025/05/06 15:28:12.703958036,1746538092,702215524,,206.9302368164062,46.8675041198731,0.0,0.0,0.0,0.5544312596320253
2025/05/06 15:28:12.801421720,1746538092,799457436,,198.25057983408595,6.595439660829682,0.0,0.0,0.0,0.5924989575388508
2025/05/06 15:28:12.910578586,1746538092,910009652,,197.91397094726562,-36.1252661624231,0.0,0.0,0.0,0.5960366129810382
2025/05/06 15:28:12.993874895,1746538092,993459755,,199.5085906982422,-44.22774505615233,0.0,0.0,0.0,0.5883713960647867
2025/05/06 15:28:13.95091209,1746538093,93676680,,201.33050537109375,-44.27406311035155,0.0,0.0,0.0,0.5808203220367432
2025/05/06 15:28:13.194916171,1746538093,194459042,,203.36703491210932,-44.32096862792968,0.0,0.0,0.0,0.5733794569969177
2025/05/06 15:28:13.298632133,1746538093,297895821,,205.60572814940093,-44.36840820315389,0.0,0.0,0.0,0.5660449863064798
2025/05/06 15:28:13.393096169,1746538093,392255930,,208.03450012207034,-44.41633605957031,0.0,0.0,0.0,0.5588131546974466
2025/05/06 15:28:13.492067836,1746538093,491468393,,210.6417236328124,-44.464702606201385,0.0,0.0,0.0,0.5516803860669199
2025/05/06 15:28:13.593354285,1746538093,592910118,,213.41625976559823,-44.51345825200721,0.0,0.0,0.0,0.5446431637894023
2025/05/06 15:28:13.693474805,1746538093,692167601,,216.34741210937187,-44.56256866455706,0.0,0.0,0.0,0.5376982092982985
2025/05/06 15:28:13.811796842,1746538093,807974624,,205.83525085455622,-4.184844284454044,0.0,0.0,0.0,-0.31618651704857825
2025/05/06 15:28:13.897807694,1746538093,897404251,,206.85348510742185,37.68506622314454,0.0,0.0,0.0,-0.41607901453976126
2025/05/06 15:28:13.993801330,1746538093,993471713,,210.19529724121094,37.63270950317383,0.0,0.0,0.0,-0.42277783155441284
2025/05/06 15:28:14.92768850,1746538094,92454005,,213.6558837890625,37.58005142211913,0.0,0.0,0.0,-0.42939090728759766
2025/05/06 15:28:14.199732767,1746538094,194811050,,217.22695922851335,37.52713775635364,0.0,0.0,0.0,-0.43592137099514616
2025/05/06 15:28:14.296156806,1746538094,294804091,,220.900634765625,37.47400665283203,0.0,0.0,0.0,-0.4423721432685994
2025/05/06 15:28:14.394227429,1746538094,393191474,,224.66943359374994,37.42068481445314,0.0,0.0,0.0,-0.44874608516694536
2025/05/06 15:28:14.498747359,1746538094,496373475,,228.52627563476557,37.367214202880994,0.0,0.0,0.0,-0.45504587888746073
2025/05/06 15:28:14.591839860,1746538094,591533176,,232.46447753906176,37.31362533569493,0.0,0.0,0.0,-0.46127411723443856
2025/05/06 15:28:14.694028381,1746538094,693506978,,236.4776611328121,37.25994110107507,0.0,0.0,0.0,-0.46743321418928474
2025/05/06 15:28:14.793596007,1746538094,792715326,,240.55982971191298,37.2061958313011,0.0,0.0,0.0,-0.47352549434155833
2025/05/06 15:28:14.896048491,1746538094,895676041,,230.47860717773438,51.82644653320314,0.0,0.0,0.0,-0.768474459648175
2025/05/06 15:28:14.993107423,1746538094,991887979,,234.68190002441406,51.77169418334963,0.0,0.0,0.0,-0.7744306325912902
2025/05/06 15:28:15.92662394,1746538095,92092446,,238.93797302246094,51.71693801879886,0.0,0.0,0.0,-0.7803254723549742
2025/05/06 15:28:15.200249292,1746538095,196502484,,243.24198913574216,51.66220474243168,0.0,0.0,0.0,-0.7861610054970498
2025/05/06 15:28:15.296521351,1746538095,293342929,,247.58940124511713,51.607513427734425,0.0,0.0,0.0,-0.7919390797615904
2025/05/06 15:28:15.395915507,1746538095,395078593,,251.97587585449213,51.55289077758796,0.0,0.0,0.0,-0.7976614236833086
2025/05/06 15:28:15.496977899,1746538095,495606210,,256.3973388671874,51.498348236084055,0.0,0.0,0.0,-0.8033297061922013
2025/05/06 15:28:15.595745427,1746538095,595310131,,260.8498840332031,51.443912506103594,0.0,0.0,0.0,-0.8089455366135638
2025/05/06 15:28:15.692336765,1746538095,691826975,,265.3298950195312,51.3895912170411,0.0,0.0,0.0,-0.8145104050637428
2025/05/06 15:28:15.794622400,1746538095,792439795,,269.83392333984375,51.33541107177742,0.0,0.0,0.0,-0.8200256228448808
2025/05/06 15:28:15.901873204,1746538095,901484674,,256.5513305664067,7.776672099342516,0.0,0.0,0.0,-0.16416120529794398
2025/05/06 15:28:15.996208368,1746538095,995459205,,261.0937194824219,-15.241221427917477,0.0,0.0,0.0,-0.16961061954501133
2025/05/06 15:28:16.98842609,1746538096,96198488,,265.65084838867165,-15.292742729187145,0.0,0.0,0.0,-0.17501470446566714
2025/05/06 15:28:16.193276905,1746538096,192952269,,270.2199401855469,-15.344066619873068,0.0,0.0,0.0,-0.18037451803675708
2025/05/06 15:28:16.292744079,1746538096,292324619,,274.7984313964843,-15.395182609558109,0.0,0.0,0.0,-0.18569101393219967
2025/05/06 15:28:16.392651067,1746538096,391752672,,279.38385009765625,-15.446082115173338,0.0,0.0,0.0,-0.19096516072750092
2025/05/06 15:28:16.503057564,1746538096,501194648,,283.973876953125,-15.496755599975588,0.0,0.0,0.0,-0.19619783759114284
2025/05/06 15:28:16.596207722,1746538096,595664522,,288.5663757324219,-15.547194480895998,0.0,0.0,0.0,-0.2013898789882944
2025/05/06 15:28:16.692754958,1746538096,692313220,,293.1592407226563,-15.597391128540037,0.0,0.0,0.0,-0.20654207468032837
2025/05/06 15:28:16.792368997,1746538096,792015703,,297.75054931640625,-15.6473388671875,0.0,0.0,0.0,-0.2116551697254465
2025/05/06 15:28:16.907909441,1746538096,907453537,,285.3244934082095,-55.092351074280565,0.0,0.0,0.0,3.0446717738741995
2025/05/06 15:28:16.996717448,1746538096,995978401,,289.90740966796875,-83.0580062866211,0.0,0.0,0.0,3.039463520050049
2025/05/06 15:28:17.93414726,1746538097,93029838,,294.4835815429688,-83.09455108642535,0.0,0.0,0.0,3.0342936515814927
2025/05/06 15:28:17.197819019,1746538097,195746884,,299.05151367187506,-83.13085174560533,0.0,0.0,0.0,3.0291612148287754
2025/05/06 15:28:17.292590016,1746538097,292284951,,303.60977172851574,-83.16689300537097,0.0,0.0,0.0,3.0240664482119826
2025/05/06 15:28:17.394127194,1746538097,393816268,,308.156982421875,-83.20269012451169,0.0,0.0,0.0,3.0190083980559734
2025/05/06 15:28:17.492976530,1746538097,492091757,,312.69195556640625,-83.23822784423828,0.0,0.0,0.0,3.0139870643616007
2025/05/06 15:28:17.592736469,1746538097,592217033,,317.21343994140625,-83.2735137939453,0.0,0.0,0.0,3.0090019702911377
2025/05/06 15:28:17.693119260,1746538097,692474842,,321.7203369140625,-83.3085479736328,0.0,0.0,0.0,3.0040531158446697
2025/05/06 15:28:17.817262056,1746538097,814853226,,312.96716308593795,-31.616969999241178,0.0,0.0,0.0,-0.417640477409293
2025/05/06 15:28:17.895771357,1746538097,894465935,,315.1547851562498,-21.725383758544513,0.0,0.0,0.0,-1.730118274689545
2025/05/06 15:28:17.992842138,1746538097,992184238,,319.61175537109375,-21.77629852294921,0.0,0.0,0.0,-1.7347544431686401
2025/05/06 15:28:18.95402754,1746538098,93582143,,324.0503845214843,-21.826889038085934,0.0,0.0,0.0,-1.7393593788146404
2025/05/06 15:28:18.193022643,1746538098,192115855,,328.4698486328125,-21.877155303955075,0.0,0.0,0.0,-1.7439332008361532
2025/05/06 15:28:18.293327706,1746538098,293109275,,332.8694152832031,-21.927095413208008,0.0,0.0,0.0,-1.748476505279541
2025/05/06 15:28:18.392557336,1746538098,391982009,,337.2483825683594,-21.976703643798828,0.0,0.0,0.0,-1.7529895305633545
2025/05/06 15:28:18.496128508,1746538098,494343781,,341.6061096191406,-22.025979995727546,0.0,0.0,0.0,-1.7574727535247519
2025/05/06 15:28:18.595571545,1746538098,593282757,,345.94146728515625,-22.07492256164551,0.0,0.0,0.0,-1.7619262933730795
2025/05/06 15:28:18.698152217,1746538098,693245982,,350.2540283203125,-22.123529434204112,0.0,0.0,0.0,-1.766350507736263
2025/05/06 15:28:18.808308809,1746538098,807849256,,335.60763549804733,19.40163743095721,0.0,0.0,0.0,-13.241503715506184
2025/05/06 15:28:18.895093498,1746538098,894187146,,336.9948425292969,26.400690078735348,0.0,0.0,0.0,-13.211239814758272
2025/05/06 15:28:18.993653485,1746538098,993209000,,341.23666381835915,26.312875747681264,0.0,0.0,0.0,-13.215156555176975
2025/05/06 15:28:19.94712509,1746538099,92693984,,345.45428466796864,26.22563362121591,0.0,0.0,0.0,-13.21905517578142
2025/05/06 15:28:19.197361479,1746538099,195250333,,349.6472778320288,26.13896751404057,0.0,0.0,0.0,-13.222937583928086
2025/05/06 15:28:19.293248621,1746538099,292205873,,353.81536865233676,26.052881240851544,0.0,0.0,0.0,-13.226803779614926
2025/05/06 15:28:19.392534705,1746538099,392113169,,357.95822143554153,25.967378616338102,0.0,0.0,0.0,-13.230653762827103
2025/05/06 15:28:19.493040957,1746538099,492534378,,362.07556152343426,25.882461547854554,0.0,0.0,0.0,-13.234486579900675
2025/05/06 15:28:19.594519134,1746538099,593793406,,366.1671142578106,25.798130035402146,0.0,0.0,0.0,-13.238304138186919
2025/05/06 15:28:19.692731075,1746538099,692163686,,370.2326965332019,25.7143917083751,0.0,0.0,0.0,-13.242106437685152
2025/05/06 15:28:19.794015928,1746538099,793217187,,374.2720642089836,25.63124275207589,0.0,0.0,0.0,-13.24589252472046
2025/05/06 15:28:19.897971774,1746538099,896796862,,359.8131408691406,9.27731132507321,0.0,0.0,0.0,-20.88252449035636
2025/05/06 15:28:19.992063676,1746538099,991618620,,363.79898071289057,9.169120788574219,0.0,0.0,0.0,-20.886066436767607
2025/05/06 15:28:20.94002289,1746538100,92098540,,367.75811767578125,9.061701774597172,0.0,0.0,0.0,-20.889600753784208
2025/05/06 15:28:20.192366473,1746538100,191840096,,371.6904602050781,8.955056190490723,0.0,0.0,0.0,-20.89312744140625
2025/05/06 15:28:20.298285206,1746538100,297725614,,375.5958862304688,8.8491849899292,0.0,0.0,0.0,-20.89664840698245
2025/05/06 15:28:20.396470355,1746538100,395954921,,379.4743347167969,8.744087219238281,0.0,0.0,0.0,-20.9001598358154
2025/05/06 15:28:20.493678076,1746538100,491585739,,383.3257141113281,8.639763832092287,0.0,0.0,0.0,-20.90366554260254
2025/05/06 15:28:20.592489014,1746538100,592081478,,387.1499938964844,8.536213874816898,0.0,0.0,0.0,-20.907165527343807
2025/05/06 15:28:20.692748925,1746538100,691965331,,390.94708251953125,8.433437347412113,0.0,0.0,0.0,-20.91065788269043
2025/05/06 15:28:20.797137640,1746538100,795012284,,394.7170104980469,8.331433296203619,0.0,0.0,0.0,-20.914142608642578
2025/05/06 15:28:20.895492320,1746538100,892222596,,387.83035278320307,3.3521776199340776,0.0,0.0,0.0,-24.986989974975643
2025/05/06 15:28:20.994538350,1746538100,992396590,,391.5455017089844,3.238654613494874,0.0,0.0,0.0,-24.990386962890597
2025/05/06 15:28:21.92758679,1746538101,91924440,,395.23345947265625,3.1259961128234854,0.0,0.0,0.0,-24.993782043456974
2025/05/06 15:28:21.193970361,1746538101,193281007,,398.89425659179693,3.0142004489898673,0.0,0.0,0.0,-24.99717140197751
2025/05/06 15:28:21.292142464,1746538101,291801691,,402.5279235839844,2.903264760971071,0.0,0.0,0.0,-25.000558853149414
2025/05/06 15:28:21.393710562,1746538101,392534790,,406.13446044921875,2.793186664581297,0.0,0.0,0.0,-25.003944396972656
2025/05/06 15:28:21.496451285,1746538101,491825761,,409.7139587402344,2.6839635372161865,0.0,0.0,0.0,-25.00732421874997
2025/05/06 15:28:21.594530733,1746538101,593925732,,413.2664489746094,2.575592517852785,0.0,0.0,0.0,-25.01070022583005
2025/05/06 15:28:21.691807961,1746538101,691473009,,416.7920227050781,2.468070268630984,0.0,0.0,0.0,-25.014074325561495
2025/05/06 15:28:21.793366046,1746538101,792793623,,407.90560913085943,-12.618430137634284,0.0,0.0,0.0,-23.531856536865263
2025/05/06 15:28:21.897020711,1746538101,896188621,,411.3776550292969,-12.720020294189462,0.0,0.0,0.0,-23.535236358642607
2025/05/06 15:28:21.992475933,1746538101,991897562,,414.8230285644531,-12.82080554962159,0.0,0.0,0.0,-23.538610458374023
2025/05/06 15:28:22.93995263,1746538102,93040379,,418.2417907714844,-12.920789718627933,0.0,0.0,0.0,-23.541980743408203
2025/05/06 15:28:22.192059856,1746538102,191699348,,421.634033203125,-13.019975662231447,0.0,0.0,0.0,-23.545345306396513
2025/05/06 15:28:22.294198255,1746538102,293671478,,424.9998779296875,-13.118368148803711,0.0,0.0,0.0,-23.54870414733884
2025/05/06 15:28:22.394419700,1746538102,392010898,,428.3394470214843,-13.215971946716314,0.0,0.0,0.0,-23.552055358886747
2025/05/06 15:28:22.493331148,1746538102,491750342,,431.65283203125,-13.312788963317875,0.0,0.0,0.0,-23.555402755737248
2025/05/06 15:28:22.595215243,1746538102,593708124,,434.94012451171875,-13.40882587432862,0.0,0.0,0.0,-23.558744430541964
2025/05/06 15:28:22.693219533,1746538102,691860915,,438.2015075683594,-13.504085540771491,0.0,0.0,0.0,-23.562078475952177
2025/05/06 15:28:22.795630561,1746538102,795358084,,439.5210876464844,2.712757587432864,0.0,0.0,0.0,-16.595726013183565
2025/05/06 15:28:22.899563402,1746538102,895818696,,442.7314147949219,2.637778043746949,0.0,0.0,0.0,-16.599061965942383
2025/05/06 15:28:22.992872032,1746538102,991827200,,445.91619873046875,2.563410758972168,0.0,0.0,0.0,-16.602386474609347
2025/05/06 15:28:23.92268072,1746538103,91872575,,449.0755310058594,2.4896521568298313,0.0,0.0,0.0,-16.605699539184542
2025/05/06 15:28:23.197755566,1746538103,196612186,,452.2095947265625,2.4164981842041025,0.0,0.0,0.0,-16.609001159668026
2025/05/06 15:28:23.291875911,1746538103,291506983,,455.3185119628905,2.3439452648162815,0.0,0.0,0.0,-16.612289428710938
2025/05/06 15:28:23.392882730,1746538103,392422379,,458.40240478515625,2.271989345550538,0.0,0.0,0.0,-16.61556816101077
2025/05/06 15:28:23.492441819,1746538103,491622602,,461.4614562988281,2.2006263732910156,0.0,0.0,0.0,-16.618833541870146
2025/05/06 15:28:23.594850557,1746538103,592301227,,464.4957580566405,2.129852771759033,0.0,0.0,0.0,-16.622089385986357
2025/05/06 15:28:23.701099907,1746538103,697282986,,467.5055236816406,2.059664249420166,0.0,0.0,0.0,-16.62533187866211
2025/05/06 15:28:23.793369176,1746538103,792039399,,460.4666442871094,-4.363143920898438,0.0,0.0,0.0,5.120476245880127
2025/05/06 15:28:23.893917117,1746538103,892447043,,463.42895507812494,-4.3696322441101065,0.0,0.0,0.0,4.90167427062994
2025/05/06 15:28:23.992081100,1746538103,991542601,,466.3666687011719,-4.385216236114504,0.0,0.0,0.0,4.898587703704862
2025/05/06 15:28:24.92810113,1746538104,92247122,,469.2803955078125,-4.400668144226076,0.0,0.0,0.0,4.8955268859863
2025/05/06 15:28:24.193012794,1746538104,192377365,,472.17034912109375,-4.415988922119142,0.0,0.0,0.0,4.892491340637207
2025/05/06 15:28:24.294248434,1746538104,293511778,,475.03662109374994,-4.431179523468017,0.0,0.0,0.0,4.889480590820256
2025/05/06 15:28:24.393630563,1746538104,392904875,,477.87939453124994,-4.446241855621344,0.0,0.0,0.0,4.8864946365356445
2025/05/06 15:28:24.495382199,1746538104,492162164,,480.6988525390625,-4.461175918579099,0.0,0.0,0.0,4.883533000946045
2025/05/06 15:28:24.594163224,1746538104,592409265,,483.4951171875,-4.475983619689941,0.0,0.0,0.0,4.8805961608887
2025/05/06 15:28:24.692057813,1746538104,691665473,,486.26837158203125,-4.490665435791015,0.0,0.0,0.0,4.877683162689237
2025/05/06 15:28:24.801700059,1746538104,794845920,,472.4228210449218,-33.92212677001953,0.0,0.0,0.0,16.89040184020996
2025/05/06 15:28:24.896235907,1746538104,895091182,,475.1505126953125,-33.90921401977539,0.0,0.0,0.0,16.887666702270536
2025/05/06 15:28:24.995646815,1746538104,994219377,,477.855682373047,-33.8964080810547,0.0,0.0,0.0,16.88496398925784
2025/05/06 15:28:25.92387369,1746538105,92076674,,480.5384521484375,-33.88370895385743,0.0,0.0,0.0,16.882289886474666
2025/05/06 15:28:25.195812887,1746538105,195340899,,483.19903564453125,-33.871112823486335,0.0,0.0,0.0,16.87964630126953
2025/05/06 15:28:25.292368335,1746538105,291967082,,485.8375549316406,-33.85862350463867,0.0,0.0,0.0,16.877031326293974
2025/05/06 15:28:25.393578494,1746538105,393181641,,488.45416259765625,-33.846237182617195,0.0,0.0,0.0,16.874446868896456
2025/05/06 15:28:25.492667380,1746538105,492293271,,491.0490417480469,-33.833953857421875,0.0,0.0,0.0,16.871889114379826
2025/05/06 15:28:25.603533469,1746538105,598932297,,493.622314453125,-33.82177352905274,0.0,0.0,0.0,16.869361877441406
2025/05/06 15:28:25.699630695,1746538105,695322588,,496.1741943359375,-33.809696197509766,0.0,0.0,0.0,16.86686134338379
2025/05/06 15:28:25.808622642,1746538105,803578375,,463.3799438476565,11.624038576426937,0.0,0.0,0.0,25.298387527470823
2025/05/06 15:28:25.895772286,1746538105,895351221,,465.88934326171875,37.87587738037107,0.0,0.0,0.0,25.296077728271456
2025/05/06 15:28:25.993361079,1746538105,992594680,,468.3777770996094,37.90507125854494,0.0,0.0,0.0,25.293798446655273
2025/05/06 15:28:26.93280626,1746538106,92621352,,470.845458984375,37.93401718139649,0.0,0.0,0.0,25.291549682617216
2025/05/06 15:28:26.193507101,1746538106,192448857,,473.2925109863281,37.96272277832032,0.0,0.0,0.0,25.289331436157227
2025/05/06 15:28:26.297317327,1746538106,295068236,,475.7190856933594,37.99118423461915,0.0,0.0,0.0,25.28714370727542
2025/05/06 15:28:26.394578183,1746538106,394036110,,478.1253662109375,38.01940917968751,0.0,0.0,0.0,25.284988403320256
2025/05/06 15:28:26.494352176,1746538106,492645322,,480.511474609375,38.04739379882813,0.0,0.0,0.0,25.28285980224601
2025/05/06 15:28:26.595237336,1746538106,592160573,,482.87762451171875,38.075141906738295,0.0,0.0,0.0,25.280763626098633
2025/05/06 15:28:26.693662470,1746538106,693234946,,485.2239074707031,38.102657318115234,0.0,0.0,0.0,25.278694152832003
2025/05/06 15:28:26.807297118,1746538106,802499818,,451.2945556640628,-5.847513520778989,0.0,0.0,0.0,27.77375221251657
2025/05/06 15:28:26.893180920,1746538106,892648506,,449.84097290039057,-15.59536361694337,0.0,0.0,0.0,27.813104629516545
2025/05/06 15:28:26.994586623,1746538106,993978756,,452.1286315917969,-15.56358146667482,0.0,0.0,0.0,27.811176300048913
2025/05/06 15:28:27.96955419,1746538107,92457689,,454.39703369140625,-15.5320692062378,0.0,0.0,0.0,27.80927848815915
2025/05/06 15:28:27.192154915,1746538107,191649846,,456.6463928222656,-15.500823974609391,0.0,0.0,0.0,27.807407379150447
2025/05/06 15:28:27.294448069,1746538107,293573626,,458.87683105468636,-15.469844818115766,0.0,0.0,0.0,27.80556678772072
2025/05/06 15:28:27.393306520,1746538107,392816026,,461.08847045894026,-15.439128875752196,0.0,0.0,0.0,27.803752899208035
2025/05/06 15:28:27.495166461,1746538107,493357823,,463.281524658158,-15.408675193806497,0.0,0.0,0.0,27.80196762088798
2025/05/06 15:28:27.600149679,1746538107,599000869,,465.4560852050781,-15.37847995758057,0.0,0.0,0.0,27.800209045410128
2025/05/06 15:28:27.693128186,1746538107,692808627,,467.61230468741996,-15.34854125979965,0.0,0.0,0.0,27.798479080265878
2025/05/06 15:28:27.796790871,1746538107,793406029,,421.0003662109375,4.6231274604797346,0.0,0.0,0.0,19.725791931152344
2025/05/06 15:28:27.893256050,1746538107,892530977,,422.8498229980468,5.768266677856449,0.0,0.0,0.0,19.59473991394043
2025/05/06 15:28:27.992327175,1746538107,991782621,,424.9521179199219,5.7833304405212385,0.0,0.0,0.0,19.592895507812585
2025/05/06 15:28:28.98416002,1746538108,98173176,,427.03668212890625,5.7982659339904785,0.0,0.0,0.0,19.59107589721677
2025/05/06 15:28:28.194048520,1746538108,193702841,,429.1036071777344,5.8130741119384775,0.0,0.0,0.0,19.589277267456055
2025/05/06 15:28:28.292369608,1746538108,291827388,,431.1531066894531,5.827755928039552,0.0,0.0,0.0,19.587503433227482
2025/05/06 15:28:28.392246701,1746538108,391812142,,433.1852722167969,5.842312812805176,0.0,0.0,0.0,19.585752487182617
2025/05/06 15:28:28.499925431,1746538108,497390766,,435.2002868652344,5.85674524307251,0.0,0.0,0.0,19.584022521972656
2025/05/06 15:28:28.594637176,1746538108,593590010,,437.1982421875,5.871054172515874,0.0,0.0,0.0,19.582317352294922
2025/05/06 15:28:28.692623905,1746538108,691865597,,439.17932128906244,5.88524103164673,0.0,0.0,0.0,19.58063316345215
2025/05/06 15:28:28.792269825,1746538108,791911177,,395.8431396484375,11.837486267089847,0.0,0.0,0.0,7.514932155609074
2025/05/06 15:28:28.893673902,1746538108,893352635,,397.7908630371094,11.831958770751955,0.0,0.0,0.0,7.512971401214543
2025/05/06 15:28:28.992357026,1746538108,992038915,,399.72210693359375,11.82647895812989,0.0,0.0,0.0,7.511029243469238
2025/05/06 15:28:29.98391988,1746538109,93403522,,401.63702392578125,11.821044921875004,0.0,0.0,0.0,7.509105205535889
2025/05/06 15:28:29.193039289,1746538109,192426622,,403.53570556640625,11.81565856933594,0.0,0.0,0.0,7.507198810577421
2025/05/06 15:28:29.293010697,1746538109,292150810,,405.41827392578125,11.81031703948975,0.0,0.0,0.0,7.50531101226801
2025/05/06 15:28:29.394222911,1746538109,392027543,,407.2849426269531,11.805021286010748,0.0,0.0,0.0,7.503440856933565
2025/05/06 15:28:29.496377365,1746538109,492385540,,409.1357727050781,11.79977035522461,0.0,0.0,0.0,7.5015883445740315
2025/05/06 15:28:29.594122162,1746538109,593139153,,410.9709167480469,11.794565200805664,0.0,0.0,0.0,7.499753475189209
2025/05/06 15:28:29.692258821,1746538109,691838715,,412.79049682617176,11.789403915405282,0.0,0.0,0.0,7.497936248779297
2025/05/06 15:28:29.794819382,1746538109,793811616,,368.2679138183594,2.2087385654449676,0.0,0.0,0.0,-7.52990293502819
2025/05/06 15:28:29.893263069,1746538109,892598359,,370.0565490722656,2.1813056468963588,0.0,0.0,0.0,-7.532124996185303
2025/05/06 15:28:29.992558941,1746538109,991968138,,371.8300476074219,2.1541070938110325,0.0,0.0,0.0,-7.534333705902128
2025/05/06 15:28:30.92501808,1746538110,91996546,,373.58847045898443,2.1271407604217547,0.0,0.0,0.0,-7.536529064178495
2025/05/06 15:28:30.196148872,1746538110,193446317,,375.33197021484375,2.10040497779846,0.0,0.0,0.0,-7.538710594177218
2025/05/06 15:28:30.295479044,1746538110,294276244,,377.0606689453125,2.0738976001739458,0.0,0.0,0.0,-7.5408792495727255
2025/05/06 15:28:30.392136126,1746538110,391616985,,378.77471923828125,2.0476169586181596,0.0,0.0,0.0,-7.543034553527832
2025/05/06 15:28:30.495068751,1746538110,491849006,,380.47418212890625,2.0215606689453134,0.0,0.0,0.0,-7.545176506042509
2025/05/06 15:28:30.591986282,1746538110,591672700,,382.1592407226563,1.9957270622253391,0.0,0.0,0.0,-7.547305107116728
2025/05/06 15:28:30.695163775,1746538110,694706813,,383.8299560546875,1.9701143503189078,0.0,0.0,0.0,-7.549421310424748
2025/05/06 15:28:30.795029153,1746538110,794385976,,344.4378356933594,-9.390013694763184,0.0,0.0,0.0,-20.13460350036621
2025/05/06 15:28:30.895960951,1746538110,894540185,,346.0799560546875,-9.432501792907718,0.0,0.0,0.0,-20.1370906829834
2025/05/06 15:28:30.992316712,1746538110,991892866,,347.7081298828125,-9.474627494812012,0.0,0.0,0.0,-20.139568328857393
2025/05/06 15:28:31.96898121,1746538111,96427474,,349.32244873046875,-9.516391754150387,0.0,0.0,0.0,-20.14203453063962
2025/05/06 15:28:31.194860557,1746538111,194114491,,350.92303466796875,-9.55780029296875,0.0,0.0,0.0,-20.14449119567874
2025/05/06 15:28:31.292381479,1746538111,291766363,,352.5100402832031,-9.598854064941408,0.0,0.0,0.0,-20.146936416625977
2025/05/06 15:28:31.400112330,1746538111,397661552,,354.0835266113281,-9.639556884765625,0.0,0.0,0.0,-20.14937400817871
2025/05/06 15:28:31.494034775,1746538111,491697182,,355.6436462402344,-9.679911613464352,0.0,0.0,0.0,-20.151798248291016
2025/05/06 15:28:31.592978453,1746538111,592660984,,357.19049072265625,-9.719921112060547,0.0,0.0,0.0,-20.15421485900876
2025/05/06 15:28:31.693475107,1746538111,692935080,,358.72418212890625,-9.759588241577154,0.0,0.0,0.0,-20.156620025634766
2025/05/06 15:28:31.800935136,1746538111,798315761,,333.0154724121094,-38.56739044189451,0.0,0.0,0.0,-27.230714797973633
2025/05/06 15:28:31.894008812,1746538111,893236802,,331.90277099609375,-43.4719734191894,0.0,0.0,0.0,-27.10705184936515
2025/05/06 15:28:31.994560850,1746538111,993817685,,333.39739990234375,-43.5195007324218,0.0,0.0,0.0,-27.10966300964367
2025/05/06 15:28:32.92237282,1746538112,91939637,,334.8793029785156,-43.566616058349624,0.0,0.0,0.0,-27.112266540527315
2025/05/06 15:28:32.199042485,1746538112,195519851,,336.3486022949219,-43.613334655761726,0.0,0.0,0.0,-27.114860534667912
2025/05/06 15:28:32.293634939,1746538112,292829918,,337.805419921875,-43.659648895263686,0.0,0.0,0.0,-27.11744499206543
2025/05/06 15:28:32.392868251,1746538112,392358093,,339.2497863769531,-43.705570220947294,0.0,0.0,0.0,-27.120021820068303
2025/05/06 15:28:32.497961033,1746538112,493296464,,340.681884765625,-43.751094818115256,0.0,0.0,0.0,-27.122589111328097
2025/05/06 15:28:32.595519965,1746538112,595171241,,342.101806640625,-43.79623413085941,0.0,0.0,0.0,-27.12514686584464
2025/05/06 15:28:32.692526525,1746538112,692100649,,343.5096130371094,-43.840988159179716,0.0,0.0,0.0,-27.12769699096671
2025/05/06 15:28:32.800110790,1746538112,799239207,,323.4058837890612,-37.083793640139234,0.0,0.0,0.0,-33.834434509272825
2025/05/06 15:28:32.897584799,1746538112,896381445,,324.78955078125,-37.13534164428711,0.0,0.0,0.0,-33.83719253540039
2025/05/06 15:28:32.993448553,1746538112,992714905,,326.1614379882808,-37.18645477294998,0.0,0.0,0.0,-33.83994674682478
2025/05/06 15:28:33.96641926,1746538113,94322568,,327.5216369628897,-37.237125396730185,0.0,0.0,0.0,-33.842693328854324
2025/05/06 15:28:33.192714099,1746538113,192192669,,328.8702697753903,-37.28736495971742,0.0,0.0,0.0,-33.84542846679574
2025/05/06 15:28:33.296963104,1746538113,295522496,,330.2073974609373,-37.33717346191455,0.0,0.0,0.0,-33.848159790038125
2025/05/06 15:28:33.397029982,1746538113,396654023,,331.5331420898434,-37.38655853271533,0.0,0.0,0.0,-33.85087966918857
2025/05/06 15:28:33.492574081,1746538113,491909235,,332.8475952148435,-37.43552017211969,0.0,0.0,0.0,-33.85359573364158
2025/05/06 15:28:33.593618453,1746538113,593197653,,334.1508178710934,-37.48405838012758,0.0,0.0,0.0,-33.8563003540028
2025/05/06 15:28:33.694330089,1746538113,693236748,,335.442962646484,-37.53218841552811,0.0,0.0,0.0,-33.85900115966655
2025/05/06 15:28:33.797847607,1746538113,797038285,,318.8313903808594,-16.62481689453125,0.0,0.0,0.0,-44.74637985229492
2025/05/06 15:28:33.895857462,1746538113,893953565,,320.1011352539063,-16.68354988098145,0.0,0.0,0.0,-44.749454498291044
2025/05/06 15:28:33.996940403,1746538113,995433407,,321.3600158691406,-16.74178123474121,0.0,0.0,0.0,-44.75252151489258
2025/05/06 15:28:34.95168009,1746538114,92296127,,322.6082153320313,-16.79951286315918,0.0,0.0,0.0,-44.75558090209964
2025/05/06 15:28:34.197223159,1746538114,192572400,,323.8457336425781,-16.856750488281254,0.0,0.0,0.0,-44.75863265991214
2025/05/06 15:28:34.296146210,1746538114,295418317,,325.0727233886719,-16.913497924804684,0.0,0.0,0.0,-44.76168060302729
2025/05/06 15:28:34.392234103,1746538114,391709956,,326.2892150878906,-16.96976089477539,0.0,0.0,0.0,-44.764724731445284
2025/05/06 15:28:34.495519266,1746538114,492621859,,327.495361328125,-17.025541305541992,0.0,0.0,0.0,-44.767757415771484
2025/05/06 15:28:34.592217278,1746538114,591794795,,328.69122314453125,-17.080842971801754,0.0,0.0,0.0,-44.770786285400334
2025/05/06 15:28:34.693182053,1746538114,692804781,,329.87689208984375,-17.13567161560059,0.0,0.0,0.0,-44.773807525634794
2025/05/06 15:28:34.794257802,1746538114,792277167,,308.55242919921875,-3.9847247600555438,0.0,0.0,0.0,-56.069252014160114
2025/05/06 15:28:34.892761397,1746538114,891991613,,309.7174072265625,-4.049512863159183,0.0,0.0,0.0,-56.0726776123047
2025/05/06 15:28:34.996935971,1746538114,991909850,,310.8724365234375,-4.11374616622925,0.0,0.0,0.0,-56.076099395752024
2025/05/06 15:28:35.91917708,1746538115,91638526,,312.0176086425781,-4.177429199218756,0.0,0.0,0.0,-56.07951354980466
2025/05/06 15:28:35.194651875,1746538115,193994209,,313.15301513671875,-4.240566253662111,0.0,0.0,0.0,-56.08292388916014
2025/05/06 15:28:35.294390549,1746538115,293903393,,314.2787170410156,-4.303162574768063,0.0,0.0,0.0,-56.08632659912108
2025/05/06 15:28:35.396386295,1746538115,393281547,,315.39483642578125,-4.365221977233886,0.0,0.0,0.0,-56.089725494384766
2025/05/06 15:28:35.492933944,1746538115,491670087,,316.5014343261719,-4.426750183105469,0.0,0.0,0.0,-56.093116760253906
2025/05/06 15:28:35.593231768,1746538115,592544470,,317.59857177734375,-4.487751007080077,0.0,0.0,0.0,-56.09650421142578
2025/05/06 15:28:35.693240106,1746538115,692670310,,318.6863708496094,-4.548229217529298,0.0,0.0,0.0,-56.09988784790042
2025/05/06 15:28:35.803387191,1746538115,800268336,,298.02526855468835,-43.44202804565188,0.0,0.0,0.0,-66.86479949950802
2025/05/06 15:28:35.895793234,1746538115,895386719,,299.09399414062483,-43.51106262207064,0.0,0.0,0.0,-66.868576049804
2025/05/06 15:28:35.994356608,1746538115,993730709,,300.15362548828125,-43.579509735107436,0.0,0.0,0.0,-66.87235260009763
2025/05/06 15:28:36.93746644,1746538116,93034597,,301.2041625976489,-43.64736938478049,0.0,0.0,0.0,-66.8761215209679
2025/05/06 15:28:36.193078099,1746538116,192493839,,302.2457580566404,-43.71464538574263,0.0,0.0,0.0,-66.87988281249909
2025/05/06 15:28:36.297244967,1746538116,296373724,,303.2784729003906,-43.78134918212895,0.0,0.0,0.0,-66.88364410400385
2025/05/06 15:28:36.393715454,1746538116,393110747,,304.3023681640625,-43.847480773925795,0.0,0.0,0.0,-66.88739776611325
2025/05/06 15:28:36.493986527,1746538116,492618955,,305.31750488281244,-43.913043975830085,0.0,0.0,0.0,-66.8911437988281
2025/05/06 15:28:36.598216972,1746538116,597555957,,306.3240051269531,-43.97804641723633,0.0,0.0,0.0,-66.89488983154297
2025/05/06 15:28:36.691787983,1746538116,691437828,,307.3218688964844,-44.042495727539055,0.0,0.0,0.0,-66.89862823486331
2025/05/06 15:28:36.806249507,1746538116,805660310,,285.46920776368574,-75.89089003019257,0.0,0.0,0.0,-77.682441711499
2025/05/06 15:28:36.900062234,1746538116,899562778,,285.4583740234358,-111.67515894333852,0.0,0.0,0.0,-77.56749725350912
2025/05/06 15:28:36.996277250,1746538116,994037719,,286.4303283691406,-116.32701110839841,0.0,0.0,0.0,-77.5716400146485
2025/05/06 15:28:37.94693593,1746538117,93558315,,287.39395141601557,-116.39806365966797,0.0,0.0,0.0,-77.57578277587888
2025/05/06 15:28:37.193228821,1746538117,192301203,,288.349365234375,-116.46849822998047,0.0,0.0,0.0,-77.57991790771487
2025/05/06 15:28:37.293842984,1746538117,293240599,,289.296630859375,-116.5383377075195,0.0,0.0,0.0,-77.5840454101562
2025/05/06 15:28:37.395298116,1746538117,394750553,,290.23577880859375,-116.60758209228516,0.0,0.0,0.0,-77.58817291259768
2025/05/06 15:28:37.498461250,1746538117,496314163,,291.16693115234375,-116.67623138427737,0.0,0.0,0.0,-77.59230041503903
2025/05/06 15:28:37.592287235,1746538117,591893470,,292.09011840820307,-116.74429321289062,0.0,0.0,0.0,-77.59642028808602
2025/05/06 15:28:37.693873535,1746538117,692181966,,293.0054016113282,-116.81176757812503,0.0,0.0,0.0,-77.6005325317382
2025/05/06 15:28:37.793577032,1746538117,793004089,,281.18139648437494,-94.9084243774415,0.0,0.0,0.0,-80.67895507812477
2025/05/06 15:28:37.897904819,1746538117,896486463,,282.0809631347647,-94.9770126342789,0.0,0.0,0.0,-80.68318176269221
2025/05/06 15:28:37.993955429,1746538117,993375411,,282.9728393554566,-95.04502105715116,0.0,0.0,0.0,-80.68740081782673
2025/05/06 15:28:38.115723364,1746538118,95276744,,283.85708618164045,-95.1124420166018,0.0,0.0,0.0,-80.69161987304642
2025/05/06 15:28:38.193551882,1746538118,193216935,,284.7337951660156,-95.17928314208993,0.0,0.0,0.0,-80.69583129882801
2025/05/06 15:28:38.294847127,1746538118,292880340,,285.6029968261719,-95.2455596923829,0.0,0.0,0.0,-80.70004272460918
2025/05/06 15:28:38.394456071,1746538118,392677096,,286.46478271484375,-95.31126403808605,0.0,0.0,0.0,-80.7042465209959
2025/05/06 15:28:38.504835763,1746538118,500494293,,287.3192138671875,-95.3764114379884,0.0,0.0,0.0,-80.70845031738267
2025/05/06 15:28:38.598885665,1746538118,596747223,,288.16635131835926,-95.44099426269541,0.0,0.0,0.0,-80.71264648437489
2025/05/06 15:28:38.695973109,1746538118,693516826,,289.0062255859374,-95.50502777099618,0.0,0.0,0.0,-80.71684265136705
2025/05/06 15:28:38.800110112,1746538118,799606935,,281.84759521477713,-46.4445439868779,0.0,0.0,0.0,-77.0301284787281
2025/05/06 15:28:38.896339856,1746538118,894922044,,282.6733703613281,-38.847869873046825,0.0,0.0,0.0,-77.03417205810553
2025/05/06 15:28:38.995391178,1746538118,993600233,,283.49206542968744,-38.90774917602538,0.0,0.0,0.0,-77.03820800781253
2025/05/06 15:28:39.98370205,1746538119,96732085,,284.3038024902344,-38.967109680175774,0.0,0.0,0.0,-77.0422439575195
2025/05/06 15:28:39.192011568,1746538119,191577903,,285.10858154296875,-39.025966644287095,0.0,0.0,0.0,-77.046272277832
2025/05/06 15:28:39.292579184,1746538119,291983090,,285.906494140625,-39.084316253662095,0.0,0.0,0.0,-77.05030059814459
2025/05/06 15:28:39.391870319,1746538119,391575612,,286.69757080078125,-39.142169952392564,0.0,0.0,0.0,-77.05432128906253
2025/05/06 15:28:39.494505291,1746538119,493807222,,287.4819030761719,-39.19952392578124,0.0,0.0,0.0,-77.05833435058594
2025/05/06 15:28:39.592261740,1746538119,591925620,,288.259521484375,-39.256389617919915,0.0,0.0,0.0,-77.06234741210935
2025/05/06 15:28:39.695768710,1746538119,695053612,,289.030517578125,-39.312767028808594,0.0,0.0,0.0,-77.06635284423831
2025/05/06 15:28:39.794033098,1746538119,792552886,,273.2104797363281,-43.94866943359375,0.0,0.0,0.0,-70.28276824951168
2025/05/06 15:28:39.893607233,1746538119,892013753,,273.9686279296875,-43.99981689453124,0.0,0.0,0.0,-70.28649902343749
2025/05/06 15:28:39.992769564,1746538119,991611820,,274.7203063964845,-44.05052947998046,0.0,0.0,0.0,-70.29022216796876
2025/05/06 15:28:40.97488947,1746538120,94612032,,275.4655456542969,-44.10080337524413,0.0,0.0,0.0,-70.29393768310544
2025/05/06 15:28:40.203051043,1746538120,201197860,,276.20440673828125,-44.15065002441406,0.0,0.0,0.0,-70.29765319824219
2025/05/06 15:28:40.295503182,1746538120,293839448,,261.1822814941406,-70.69775390624999,0.0,0.0,0.0,-68.12850189208987
2025/05/06 15:28:40.400669523,1746538120,397458527,,259.4942321777344,-74.87061309814467,0.0,0.0,0.0,-67.97044372558562
2025/05/06 15:28:40.492623539,1746538120,491841572,,260.21441650390614,-74.91785430908214,0.0,0.0,0.0,-67.97405242919896
2025/05/06 15:28:40.592752684,1746538120,592016110,,260.92843627929483,-74.96469116211358,0.0,0.0,0.0,-67.97765350340967
2025/05/06 15:28:40.692744370,1746538120,692305665,,261.6363525390622,-75.01112365722719,0.0,0.0,0.0,-67.98124694824094
2025/05/06 15:28:40.795286065,1746538120,794428599,,262.3381958007801,-75.05715942383037,0.0,0.0,0.0,-67.98484039306192
2025/05/06 15:28:40.898850897,1746538120,898172575,,263.0340576171843,-75.10280609131493,0.0,0.0,0.0,-67.98843383787812
2025/05/06 15:28:40.993577510,1746538120,992323468,,263.7239685058535,-75.14805603028495,0.0,0.0,0.0,-67.99201202390293
2025/05/06 15:28:41.95125239,1746538121,94076482,,264.40798950194585,-75.19292449952613,0.0,0.0,0.0,-67.99559020993226
2025/05/06 15:28:41.192690464,1746538121,192111835,,265.0861511230396,-75.23740386964326,0.0,0.0,0.0,-67.99916839596762
2025/05/06 15:28:41.299608061,1746538121,296060774,,241.0804748535156,-84.98487091064453,0.0,0.0,0.0,-66.83808898925787
2025/05/06 15:28:41.396235627,1746538121,395808093,,239.21432495117188,-85.69455718994143,0.0,0.0,0.0,-67.6783599853515
2025/05/06 15:28:41.498063081,1746538121,496072675,,239.875244140625,-85.73769378662114,0.0,0.0,0.0,-67.68190002441395
2025/05/06 15:28:41.592672790,1746538121,592231971,,240.530517578125,-85.78046417236337,0.0,0.0,0.0,-67.68544006347642
2025/05/06 15:28:41.695084088,1746538121,692561236,,241.180191040039,-85.82287597656263,0.0,0.0,0.0,-67.68898010253886
2025/05/06 15:28:41.791875461,1746538121,791516036,,241.8242950439447,-85.86491394043088,0.0,0.0,0.0,-67.69251251220462
2025/05/06 15:28:41.893539234,1746538121,892346706,,242.46290588378798,-85.90660095215057,0.0,0.0,0.0,-67.6960372924762
2025/05/06 15:28:41.992813774,1746538121,991981753,,243.09603881835784,-85.9479293823272,0.0,0.0,0.0,-67.69956207274794
2025/05/06 15:28:42.92586820,1746538122,92141573,,243.7237701416015,-85.98889923095717,0.0,0.0,0.0,-67.7030792236325
2025/05/06 15:28:42.196457293,1746538122,194282750,,244.3461303710937,-86.02952575683608,0.0,0.0,0.0,-67.7065887451169
2025/05/06 15:28:42.294127514,1746538122,293826843,,228.72013854980017,-80.79705810547799,0.0,0.0,0.0,-68.99396514890717
2025/05/06 15:28:42.397253153,1746538122,396871712,,227.45480346678258,-79.99467468264673,0.0,0.0,0.0,-69.43765258783114
2025/05/06 15:28:42.492948696,1746538122,492466544,,228.06126403808082,-80.03507995606522,0.0,0.0,0.0,-69.44121551511557
2025/05/06 15:28:42.596523145,1746538122,595851588,,228.66253662109222,-80.07514953613591,0.0,0.0,0.0,-69.44477844237662
2025/05/06 15:28:42.694279970,1746538122,692766724,,229.2586822509755,-80.11486816406457,0.0,0.0,0.0,-69.44834136962476
2025/05/06 15:28:42.804408430,1746538122,798764352,,229.84971618652344,-80.15425109863281,0.0,0.0,0.0,-69.45189666748044
2025/05/06 15:28:42.903873863,1746538122,895548090,,230.43568420406856,-80.19329071051776,0.0,0.0,0.0,-69.45544433579965
2025/05/06 15:28:42.992899222,1746538122,992318859,,231.01664733884786,-80.23200225834081,0.0,0.0,0.0,-69.45899200431404
2025/05/06 15:28:43.97453071,1746538123,93673435,,231.59263610838576,-80.2703857422137,0.0,0.0,0.0,-69.46253967279893
2025/05/06 15:28:43.194600943,1746538123,192585330,,232.16371154784258,-80.30843353273332,0.0,0.0,0.0,-69.46607208248244
2025/05/06 15:28:43.293631537,1746538123,293251355,,232.72988891600895,-80.34616088868557,0.0,0.0,0.0,-69.46961212155452
2025/05/06 15:28:43.393011403,1746538123,392269957,,225.62901306152344,-66.16459655761719,0.0,0.0,0.0,-73.92740631103513
2025/05/06 15:28:43.496518319,1746538123,495715551,,226.18540954589847,-66.20365905761719,0.0,0.0,0.0,-73.93111419677734
2025/05/06 15:28:43.596258125,1746538123,594563216,,226.73704528808594,-66.24238586425781,0.0,0.0,0.0,-73.93481445312504
2025/05/06 15:28:43.697915306,1746538123,696447164,,227.2839508056641,-66.2807846069336,0.0,0.0,0.0,-73.9385070800781
2025/05/06 15:28:43.793918935,1746538123,792377087,,227.82618713378906,-66.31885528564453,0.0,0.0,0.0,-73.94219970703122
2025/05/06 15:28:43.892463411,1746538123,891513151,,228.36378479003906,-66.35659790039062,0.0,0.0,0.0,-73.94588470458983
2025/05/06 15:28:43.996506983,1746538123,992780006,,228.89677429199222,-66.39401245117186,0.0,0.0,0.0,-73.94956970214844
2025/05/06 15:28:44.94489465,1746538124,93848867,,229.42520141601562,-66.43111419677734,0.0,0.0,0.0,-73.95324707031254
2025/05/06 15:28:44.205230317,1746538124,203531894,,229.94911193847656,-66.4678955078125,0.0,0.0,0.0,-73.95692443847658
2025/05/06 15:28:44.296158244,1746538124,294351125,,230.46853637695312,-66.50436401367188,0.0,0.0,0.0,-73.96060180664061
2025/05/06 15:28:44.394631860,1746538124,392160724,,218.16883850097656,-75.21652221679688,0.0,0.0,0.0,-82.4818420410156
2025/05/06 15:28:44.493342888,1746538124,492706079,,218.6791534423828,-75.25594329833986,0.0,0.0,0.0,-82.48584747314453
2025/05/06 15:28:44.592108557,1746538124,591758665,,219.18508911132807,-75.29502868652345,0.0,0.0,0.0,-82.48986053466794
2025/05/06 15:28:44.694539146,1746538124,693324955,,219.68670654296872,-75.33377838134766,0.0,0.0,0.0,-82.49385833740232
2025/05/06 15:28:44.794991282,1746538124,794754235,,220.18402099609375,-75.3721923828125,0.0,0.0,0.0,-82.49786376953121
2025/05/06 15:28:44.895283398,1746538124,893782469,,220.67707824707026,-75.41028594970705,0.0,0.0,0.0,-82.50185394287102
2025/05/06 15:28:44.992948531,1746538124,991766246,,221.16592407226562,-75.44804382324222,0.0,0.0,0.0,-82.50585174560543
2025/05/06 15:28:45.92658186,1746538125,91935433,,221.65057373046878,-75.48548889160158,0.0,0.0,0.0,-82.50983428955072
2025/05/06 15:28:45.195488585,1746538125,194931337,,222.13107299804688,-75.5226058959961,0.0,0.0,0.0,-82.51382446289058
2025/05/06 15:28:45.298255733,1746538125,297897130,,222.6074676513672,-75.55941009521486,0.0,0.0,0.0,-82.51780700683592
2025/05/06 15:28:45.410622729,1746538125,409466952,,210.07232666015625,-89.51216888427734,0.0,0.0,0.0,-92.5576934814453
2025/05/06 15:28:45.496331851,1746538125,495095624,,210.54028320312491,-89.55224609375018,0.0,0.0,0.0,-92.56208038330035
2025/05/06 15:28:45.594254519,1746538125,593284633,,211.00422668456835,-89.59198760986749,0.0,0.0,0.0,-92.56646728514772
2025/05/06 15:28:45.692754575,1746538125,692450886,,211.46420288085912,-89.63139343261776,0.0,0.0,0.0,-92.57084655761608
2025/05/06 15:28:45.797428264,1746538125,794601959,,211.9202423095677,-89.6704559326227,0.0,0.0,0.0,-92.57522583006704
2025/05/06 15:28:45.894750311,1746538125,893258138,,212.3723907470616,-89.70918273927643,0.0,0.0,0.0,-92.57959747310693
2025/05/06 15:28:45.994638498,1746538125,994031383,,212.82064819335938,-89.74758911132811,0.0,0.0,0.0,-92.58396911621094
2025/05/06 15:28:46.93671218,1746538126,92758539,,213.26507568359239,-89.7856597900418,0.0,0.0,0.0,-92.5883331298773
2025/05/06 15:28:46.197854113,1746538126,192846087,,213.70570373534974,-89.82340240478896,0.0,0.0,0.0,-92.592697143547
2025/05/06 15:28:46.293848372,1746538126,293284644,,214.1425476074195,-89.86082458496597,0.0,0.0,0.0,-92.59706115721646
2025/05/06 15:28:46.417098164,1746538126,412946407,,208.0219421386729,-123.97414552771295,0.0,0.0,0.0,-101.16107177734486
2025/05/06 15:28:46.506574840,1746538126,494415611,,208.45106506347656,-125.5151290893554,0.0,0.0,0.0,-101.1657791137695
2025/05/06 15:28:46.593988560,1746538126,593203276,,208.87652587890628,-125.55469512939453,0.0,0.0,0.0,-101.17049407958982
2025/05/06 15:28:46.696034756,1746538126,693112952,,209.29832458496094,-125.59392547607422,0.0,0.0,0.0,-101.1751937866211
2025/05/06 15:28:46.796944136,1746538126,795090632,,209.71652221679688,-125.63282012939456,0.0,0.0,0.0,-101.17990112304688
2025/05/06 15:28:46.893617534,1746538126,893029892,,210.1311492919922,-125.67137908935548,0.0,0.0,0.0,-101.18459320068348
2025/05/06 15:28:46.993838734,1746538126,993415501,,210.54220581054688,-125.70961761474611,0.0,0.0,0.0,-101.18929290771482
2025/05/06 15:28:47.94067713,1746538127,93507515,,210.94975280761722,-125.74752044677736,0.0,0.0,0.0,-101.19398498535148
2025/05/06 15:28:47.195353579,1746538127,194073263,,211.35382080078125,-125.78511047363284,0.0,0.0,0.0,-101.19867706298822
2025/05/06 15:28:47.293475801,1746538127,292243793,,211.75440979003906,-125.82237243652344,0.0,0.0,0.0,-101.20336151123044
2025/05/06 15:28:47.397715155,1746538127,395011556,,207.67129516601562,-140.76974487304693,0.0,0.0,0.0,-108.0701904296875
2025/05/06 15:28:47.492978640,1746538127,492319457,,208.06483459472656,-140.8087158203125,0.0,0.0,0.0,-108.07516479492196
2025/05/06 15:28:47.593960831,1746538127,593048983,,208.45501708984372,-140.84733581542972,0.0,0.0,0.0,-108.08013916015622
2025/05/06 15:28:47.694156723,1746538127,693491537,,208.8418426513672,-140.88565063476565,0.0,0.0,0.0,-108.08510589599612
2025/05/06 15:28:47.795846688,1746538127,794692039,,209.22535705566403,-140.92361450195312,0.0,0.0,0.0,-108.09007263183597
2025/05/06 15:28:47.899983749,1746538127,898430070,,209.6055908203125,-140.9612731933594,0.0,0.0,0.0,-108.09503173828125
2025/05/06 15:28:47.994333488,1746538127,992560514,,209.98257446289065,-140.99859619140625,0.0,0.0,0.0,-108.0999908447265
2025/05/06 15:28:48.97435037,1746538128,93920559,,210.3563232421875,-141.03561401367188,0.0,0.0,0.0,-108.10494995117193
2025/05/06 15:28:48.193144107,1746538128,192380580,,210.72686767578125,-141.07231140136722,0.0,0.0,0.0,-108.10990142822263
2025/05/06 15:28:48.296362985,1746538128,292005820,,211.09425354003906,-141.1086883544922,0.0,0.0,0.0,-108.11485290527344
2025/05/06 15:28:48.392575956,1746538128,392241927,,207.36535644531247,-129.08891296386722,0.0,0.0,0.0,-104.16223144531241
2025/05/06 15:28:48.496765134,1746538128,493518373,,207.72657775878906,-129.12350463867193,0.0,0.0,0.0,-104.16701507568357
2025/05/06 15:28:48.596621238,1746538128,595487523,,208.08470153808594,-129.15779113769534,0.0,0.0,0.0,-104.1717910766601
2025/05/06 15:28:48.693575771,1746538128,692329740,,208.4397735595703,-129.19180297851562,0.0,0.0,0.0,-104.17657470703122
2025/05/06 15:28:48.794603972,1746538128,793755829,,208.7917938232422,-129.22550964355472,0.0,0.0,0.0,-104.18135070800776
2025/05/06 15:28:48.892057003,1746538128,891631095,,209.1407928466797,-129.25892639160156,0.0,0.0,0.0,-104.18611907958982
2025/05/06 15:28:48.993152985,1746538128,992560992,,209.48681640625,-129.29206848144534,0.0,0.0,0.0,-104.19088745117185
2025/05/06 15:28:49.94698929,1746538129,94367322,,209.8298797607422,-129.32492065429688,0.0,0.0,0.0,-104.19565582275379
2025/05/06 15:28:49.200161791,1746538129,197303705,,210.16998291015622,-129.3574981689453,0.0,0.0,0.0,-104.2004165649414
2025/05/06 15:28:49.298286759,1746538129,297461896,,210.50718688964844,-129.3897857666016,0.0,0.0,0.0,-104.2051773071289
2025/05/06 15:28:49.394096397,1746538129,393525742,,204.83580017089835,-95.58404541015622,0.0,0.0,0.0,-96.09370422363286
2025/05/06 15:28:49.496016976,1746538129,493670074,,205.16746520996094,-95.6135025024414,0.0,0.0,0.0,-96.0981216430664
2025/05/06 15:28:49.592615637,1746538129,592301583,,205.49627685546875,-95.6427001953125,0.0,0.0,0.0,-96.10253143310543
2025/05/06 15:28:49.693939420,1746538129,693403728,,205.82228088378906,-95.6716537475586,0.0,0.0,0.0,-96.10694122314449
2025/05/06 15:28:49.792962672,1746538129,792372350,,206.14549255371094,-95.70035552978516,0.0,0.0,0.0,-96.11135101318354
2025/05/06 15:28:49.893974864,1746538129,892579127,,206.46592712402344,-95.72882080078124,0.0,0.0,0.0,-96.1157531738281
2025/05/06 15:28:49.993338800,1746538129,991994394,,206.78363037109375,-95.75703430175781,0.0,0.0,0.0,-96.12015533447266
2025/05/06 15:28:50.94569270,1746538130,93559207,,207.09860229492188,-95.7850112915039,0.0,0.0,0.0,-96.12454986572264
2025/05/06 15:28:50.194286396,1746538130,193556951,,207.4108734130859,-95.81275177001955,0.0,0.0,0.0,-96.12895202636709
2025/05/06 15:28:50.294511678,1746538130,294109809,,207.72047424316403,-95.84024810791018,0.0,0.0,0.0,-96.13334655761707
