time,header_stamp_secs,header_stamp_nsecs,header_frame_id,wrench_force_x,wrench_force_y,wrench_force_z,wrench_torque_x,wrench_torque_y,wrench_torque_z
2025/05/06 15:20:03.432653585,1746537603,390064958,,0.0,0.0,0.0,0.0,0.0,0.0
2025/05/06 15:20:03.489460979,1746537603,488413579,,0.0,0.0,0.0,0.0,0.0,0.0
2025/05/06 15:20:03.589892871,1746537603,587991401,,0.0,0.0,0.0,0.0,0.0,0.0
2025/05/06 15:20:03.690545262,1746537603,689622561,,0.0,0.0,0.0,0.0,0.0,0.0
2025/05/06 15:20:03.788115334,1746537603,787832637,,0.0,0.0,0.0,0.0,0.0,0.0
2025/05/06 15:20:03.891573684,1746537603,889418510,,0.0,0.0,0.0,0.0,0.0,0.0
2025/05/06 15:20:03.999386059,1746537603,992477069,,0.0,0.0,0.0,0.0,0.0,0.0
2025/05/06 15:20:04.88308578,1746537604,87909425,,0.0,0.0,0.0,0.0,0.0,0.0
2025/05/06 15:20:04.192647690,1746537604,188236985,,0.0,0.0,0.0,0.0,0.0,0.0
2025/05/06 15:20:04.291110115,1746537604,289253073,,0.0,0.0,0.0,0.0,0.0,0.0
2025/05/06 15:20:04.389466924,1746537604,388417313,,0.0,0.0,0.0,0.0,0.0,0.0
2025/05/06 15:20:04.504932748,1746537604,489422695,,0.0,0.0,0.0,0.0,0.0,0.0
2025/05/06 15:20:04.703088688,1746537604,687868094,,0.0,0.0,0.0,0.0,0.0,0.0
2025/05/06 15:20:04.790254092,1746537604,787913223,,0.0,0.0,0.0,0.0,0.0,0.0
2025/05/06 15:20:04.888181802,1746537604,887930833,,0.0,0.0,0.0,0.0,0.0,0.0
2025/05/06 15:20:05.331922638,1746537604,988142698,,0.0,0.0,0.0,0.0,0.0,0.0
2025/05/06 15:20:05.336730883,1746537605,87932222,,0.0,0.0,0.0,0.0,0.0,0.0
2025/05/06 15:20:05.340502199,1746537605,189147859,,0.0,0.0,0.0,0.0,0.0,0.0
2025/05/06 15:20:05.349943203,1746537605,287935099,,0.0,0.0,0.0,0.0,0.0,0.0
2025/05/06 15:20:05.391498479,1746537605,388520305,,0.0,0.0,0.0,0.0,0.0,0.0
2025/05/06 15:20:05.489759724,1746537605,488983680,,0.0,0.0,0.0,0.0,0.0,0.0
2025/05/06 15:20:05.596586159,1746537605,590220872,,0.0,0.0,0.0,0.0,0.0,0.0
2025/05/06 15:20:05.692758238,1746537605,691118666,,0.0,0.0,0.0,0.0,0.0,0.0
2025/05/06 15:20:05.788444669,1746537605,788010022,,0.0,0.0,0.0,0.0,0.0,0.0
2025/05/06 15:20:05.888945332,1746537605,887881934,,0.0,0.0,0.0,0.0,0.0,0.0
2025/05/06 15:20:06.5080538,1746537605,994896490,,0.0,0.0,0.0,0.0,0.0,0.0
2025/05/06 15:20:06.95263871,1746537606,88784536,,0.0,0.0,0.0,0.0,0.0,0.0
2025/05/06 15:20:06.199669649,1746537606,187858630,,0.0,0.0,0.0,0.0,0.0,0.0
2025/05/06 15:20:06.321911027,1746537606,289101512,,0.0,0.0,0.0,0.0,0.0,0.0
2025/05/06 15:20:06.442533369,1746537606,387892513,,0.0,0.0,0.0,0.0,0.0,0.0
2025/05/06 15:20:06.500609866,1746537606,490670621,,0.0,0.0,0.0,0.0,0.0,0.0
2025/05/06 15:20:06.618066161,1746537606,590638317,,0.0,0.0,0.0,0.0,0.0,0.0
2025/05/06 15:20:06.817413697,1746537606,691396106,,0.0,0.0,0.0,0.0,0.0,0.0
2025/05/06 15:20:06.861433556,1746537606,790711304,,0.0,0.0,0.0,0.0,0.0,0.0
2025/05/06 15:20:06.938460944,1746537606,891197676,,0.0,0.0,0.0,0.0,0.0,0.0
2025/05/06 15:20:07.86726924,1746537606,990903630,,0.0,0.0,0.0,0.0,0.0,0.0
2025/05/06 15:20:07.146393005,1746537607,90187232,,0.0,0.0,0.0,0.0,0.0,0.0
2025/05/06 15:20:07.208694188,1746537607,188689379,,0.0,0.0,0.0,0.0,0.0,0.0
2025/05/06 15:20:07.297742085,1746537607,288211078,,0.0,0.0,0.0,0.0,0.0,0.0
2025/05/06 15:20:07.487274212,1746537607,388421267,,0.06960243731737115,-4.185486316680908,0.0,0.0,0.0,-0.13407641649246194
2025/05/06 15:20:07.594101454,1746537607,490854077,,0.06960248947143532,-4.185492992401123,0.0,0.0,0.0,-0.13414189219474815
2025/05/06 15:20:07.628755870,1746537607,591478085,,0.06960253417491857,-4.185499668121338,0.0,0.0,0.0,-0.13420736789703358
2025/05/06 15:20:07.688757331,1746537607,687922040,,0.06960258632898308,-4.185506343841553,0.0,0.0,0.0,-0.13427284359931968
2025/05/06 15:20:07.816327194,1746537607,790055312,,0.06960263103246656,-4.185513019561768,0.0,0.0,0.0,-0.1343383193016049
2025/05/06 15:20:07.891798663,1746537607,891071314,,0.06960268318653096,-4.18552017211914,0.0,0.0,0.0,-0.13440379500389088
2025/05/06 15:20:08.24990313,1746537607,988982462,,0.06960273534059513,-4.185526847839355,0.0,0.0,0.0,-0.13446927070617665
2025/05/06 15:20:08.199113385,1746537608,89936273,,0.0696027800440786,-4.18553352355957,0.0,0.0,0.0,-0.1345347464084623
2025/05/06 15:20:08.262579204,1746537608,190503054,,0.3796977698802939,-29.893682479858395,0.0,0.0,0.0,0.06196588650346069
2025/05/06 15:20:08.355439578,1746537608,288596978,,0.38766732811927707,-30.639560699462884,0.0,0.0,0.0,0.06153060495853513
2025/05/06 15:20:08.411871293,1746537608,389652057,,0.38766813278198153,-30.63960647583007,0.0,0.0,0.0,0.06147331744432538
2025/05/06 15:20:08.587830801,1746537608,489603796,,0.3876689672470075,-30.63965034484863,0.0,0.0,0.0,0.061416029930114746
2025/05/06 15:20:08.717341401,1746537608,588604216,,0.38766980171203347,-30.63969612121582,0.0,0.0,0.0,0.06135874614119796
2025/05/06 15:20:08.777362457,1746537608,687970031,,0.3876706063747415,-30.639741897583008,0.0,0.0,0.0,0.061301458626988214
2025/05/06 15:20:08.828177911,1746537608,787931526,,0.3876714408397657,-30.639787673950195,0.0,0.0,0.0,0.06124417483806788
2025/05/06 15:20:08.895352789,1746537608,891946386,,0.3876722753047934,-30.639831542968743,0.0,0.0,0.0,0.061186887323855466
2025/05/06 15:20:08.992092753,1746537608,989438190,,0.3876730799674961,-30.63987731933593,0.0,0.0,0.0,0.061129599809647495
2025/05/06 15:20:09.90724747,1746537609,88232049,,0.38767391443252386,-30.63992309570312,0.0,0.0,0.0,0.06107231602073071
2025/05/06 15:20:09.193502761,1746537609,188475781,,0.3876747488975516,-30.639968872070312,0.0,0.0,0.0,0.0610150285065183
2025/05/06 15:20:09.290761191,1746537609,289212562,,0.5131175518035889,-24.679542541503906,0.0,0.0,0.0,-0.012663546018304217
2025/05/06 15:20:09.390790527,1746537609,388225394,,0.5131186842918387,-24.679578781127923,0.0,0.0,0.0,-0.012723943218589717
2025/05/06 15:20:09.488188904,1746537609,487890894,,0.5131198167800868,-24.679616928100582,0.0,0.0,0.0,-0.012784340418873441
2025/05/06 15:20:09.592008246,1746537609,587930141,,0.5131210088729832,-24.679653167724602,0.0,0.0,0.0,-0.012844737619160718
2025/05/06 15:20:09.694732292,1746537609,690228635,,0.5131221413612339,-24.67969131469726,0.0,0.0,0.0,-0.012905134819447106
2025/05/06 15:20:09.788508961,1746537609,787907111,,0.5131232738494855,-24.67972755432129,0.0,0.0,0.0,-0.012965532019736159
2025/05/06 15:20:09.893592545,1746537609,888174280,,0.5131244063377354,-24.679765701293945,0.0,0.0,0.0,-0.013025929220019883
2025/05/06 15:20:09.994680935,1746537609,988012207,,0.5131255388259861,-24.67980194091796,0.0,0.0,0.0,-0.013086326420306271
2025/05/06 15:20:10.91662645,1746537610,88422700,,0.5131267309188843,-24.67984008789062,0.0,0.0,0.0,-0.013146723620591771
2025/05/06 15:20:10.197533452,1746537610,189443092,,0.5131278634071368,-24.67987632751465,0.0,0.0,0.0,-0.01320712175220251
2025/05/06 15:20:10.289272778,1746537610,287981167,,0.22479620575904802,-8.887019157409668,0.0,0.0,0.0,-0.021336488425731215
2025/05/06 15:20:10.391574376,1746537610,388361988,,0.22479663789272264,-8.887033462524414,0.0,0.0,0.0,-0.021397225558757338
2025/05/06 15:20:10.491149415,1746537610,488640359,,0.2247970849275589,-8.887046813964844,0.0,0.0,0.0,-0.021457960829138756
2025/05/06 15:20:10.594852178,1746537610,592713346,,0.22479753196239471,-8.887061119079588,0.0,0.0,0.0,-0.02151869796216399
2025/05/06 15:20:10.690963845,1746537610,690343122,,0.22479797899722964,-8.887074470520018,0.0,0.0,0.0,-0.021579433232545853
2025/05/06 15:20:10.794468963,1746537610,789894420,,0.2247984111309047,-8.887088775634766,0.0,0.0,0.0,-0.02164017036557153
2025/05/06 15:20:10.891490848,1746537610,888615463,,0.22479885816574052,-8.887102127075195,0.0,0.0,0.0,-0.021700905635952505
2025/05/06 15:20:10.999888956,1746537610,988172570,,119.54557037353516,-1.2000592947006261,0.0,0.0,0.0,1.362141728401184
2025/05/06 15:20:11.88926526,1746537611,87866523,,119.71073150634766,-2.123742818832408,0.0,0.0,0.0,1.3136922121048045
2025/05/06 15:20:11.189712374,1746537611,187920224,,119.80799865722656,-24.174383163452134,0.0,0.0,0.0,1.2407623529434204
2025/05/06 15:20:11.289138145,1746537611,287922807,,120.18624114990234,-24.51661872863769,0.0,0.0,0.0,1.2217116355895996
2025/05/06 15:20:11.388963423,1746537611,388178542,,120.67089080810545,-24.694812774658203,0.0,0.0,0.0,1.2106940746307515
2025/05/06 15:20:11.488353105,1746537611,487971610,,121.26187133789062,-24.76127815246582,0.0,0.0,0.0,1.204979658126831
2025/05/06 15:20:11.590911096,1746537611,590477469,,121.95913696289061,-24.752843856811527,0.0,0.0,0.0,1.202660560607896
2025/05/06 15:20:11.688295769,1746537611,687912062,,122.7626724243164,-24.69538116455078,0.0,0.0,0.0,1.2024091482162476
2025/05/06 15:20:11.789207796,1746537611,787911171,,123.6724395751953,-24.60701179504393,0.0,0.0,0.0,1.2033071517944478
2025/05/06 15:20:11.888310938,1746537611,887889779,,124.6884307861328,-24.500371932983402,0.0,0.0,0.0,1.2047246694564961
2025/05/06 15:20:11.989274455,1746537611,988596774,,125.81063842773438,-24.384225845336918,0.0,0.0,0.0,1.2062342166900635
2025/05/06 15:20:12.89248740,1746537612,88034456,,127.03904724121094,-24.264602661132802,0.0,0.0,0.0,1.2075508832931519
2025/05/06 15:20:12.189155093,1746537612,187900790,,128.300048828125,-13.558585166931149,0.0,0.0,0.0,1.1816408634185933
2025/05/06 15:20:12.291290218,1746537612,288042119,,129.74269104003906,-12.95713806152343,0.0,0.0,0.0,1.1804327964782857
2025/05/06 15:20:12.388171786,1746537612,387885648,,131.28970336914062,-12.84667110443116,0.0,0.0,0.0,1.180314540863037
2025/05/06 15:20:12.489407118,1746537612,488842034,,132.9429168701172,-12.742477416992195,0.0,0.0,0.0,1.179601788520813
2025/05/06 15:20:12.588821330,1746537612,587957886,,134.70233154296875,-12.645211219787587,0.0,0.0,0.0,1.178283452987671
2025/05/06 15:20:12.691497274,1746537612,690458415,,136.56793212890625,-12.55520248413086,0.0,0.0,0.0,1.1763640642166138
2025/05/06 15:20:12.790091494,1746537612,788010557,,138.5397186279297,-12.472560882568356,0.0,0.0,0.0,1.173858404159546
2025/05/06 15:20:12.889391127,1746537612,887901975,,140.6177215576172,-12.397242546081543,0.0,0.0,0.0,1.1707876920700073
2025/05/06 15:20:12.988582052,1746537612,987884456,,142.80191040039062,-12.329106330871582,0.0,0.0,0.0,1.167177438735962
2025/05/06 15:20:13.88749709,1746537613,87968472,,145.09230041503906,-12.267942428588867,0.0,0.0,0.0,1.1630550622940063
2025/05/06 15:20:13.188877286,1746537613,188252910,,147.4888916015625,-12.213500022888198,0.0,0.0,0.0,1.1584491729736328
2025/05/06 15:20:13.289854231,1746537613,287946519,,149.7532501220703,2.7413439750671387,0.0,0.0,0.0,1.1010280847549438
2025/05/06 15:20:13.388234464,1746537613,387903646,,152.36224365234375,2.7830898761749125,0.0,0.0,0.0,1.0955333709716797
2025/05/06 15:20:13.489586670,1746537613,487874165,,155.0774383544922,2.8189585208892822,0.0,0.0,0.0,1.0896401405334473
2025/05/06 15:20:13.588402054,1746537613,587896327,,157.89881896972656,2.849238395690918,0.0,0.0,0.0,1.0833754539489746
2025/05/06 15:20:13.689029419,1746537613,687899132,,160.826416015625,2.874211549758904,0.0,0.0,0.0,1.0767649412155151
2025/05/06 15:20:13.789778065,1746537613,787866153,,163.86021423339844,2.894152402877822,0.0,0.0,0.0,1.069833517074585
2025/05/06 15:20:13.890443256,1746537613,888955726,,167.00021362304688,2.9093265533447195,0.0,0.0,0.0,1.0626044273376465
2025/05/06 15:20:13.991487844,1746537613,988675247,,170.24642944335938,2.9199886322021484,0.0,0.0,0.0,1.0551000833511353
2025/05/06 15:20:14.89150048,1746537614,87909258,,173.5988311767578,2.926382780075066,0.0,0.0,0.0,1.0473415851593018
2025/05/06 15:20:14.193177316,1746537614,189431165,,172.9185333251953,5.4357080459594656,0.0,0.0,0.0,1.049826979637146
2025/05/06 15:20:14.288559346,1746537614,288008350,,175.8991241455078,5.806041240692139,0.0,0.0,0.0,1.0945568084716797
2025/05/06 15:20:14.388888973,1746537614,387981646,,179.5701446533203,5.801163196563721,0.0,0.0,0.0,1.0861643552780293
2025/05/06 15:20:14.489171208,1746537614,487981366,,183.3473663330078,5.792891502380357,0.0,0.0,0.0,1.0775915384292603
2025/05/06 15:20:14.589877030,1746537614,588173120,,187.2307891845703,5.781417369842529,0.0,0.0,0.0,1.06885409355165
2025/05/06 15:20:14.689058977,1746537614,687877961,,191.2204132080078,5.766923427581808,0.0,0.0,0.0,1.0599671602249288
2025/05/06 15:20:14.788904714,1746537614,788440660,,195.31625366210938,5.74958181381227,0.0,0.0,0.0,1.0509445667266846
2025/05/06 15:20:14.892718261,1746537614,888005811,,199.518310546875,5.729556560516343,0.0,0.0,0.0,1.0417996644973755
2025/05/06 15:20:14.990670188,1746537614,987957923,,203.82656860351565,5.707004070281997,0.0,0.0,0.0,1.032544851303129
2025/05/06 15:20:15.88353566,1746537615,87868695,,208.24102783203122,5.682072162628174,0.0,0.0,0.0,1.0231916904449463
2025/05/06 15:20:15.190414764,1746537615,188710733,,205.11181640624997,1.5109443664550923,0.0,0.0,0.0,0.8886452317238138
2025/05/06 15:20:15.288784443,1746537615,287887205,,208.98944091796875,1.228867173194864,0.0,0.0,0.0,0.8552920818328715
2025/05/06 15:20:15.389547404,1746537615,388299423,,213.7225189208984,1.1970512866973735,0.0,0.0,0.0,0.8456659317016317
2025/05/06 15:20:15.489153505,1746537615,487864993,,218.56179809570312,1.1633622646331858,0.0,0.0,0.0,0.835980713367448
2025/05/06 15:20:15.588315236,1746537615,587873836,,222.19110107421875,1.1297777891159129,0.0,0.0,0.0,0.8262450098991252
2025/05/06 15:20:15.690122505,1746537615,687931588,,223.61883544921875,1.0978174209594656,0.0,0.0,0.0,0.8164939284324788
2025/05/06 15:20:15.789759787,1746537615,787910613,,223.64889526367185,1.0664553642273091,0.0,0.0,0.0,0.8067829012870504
2025/05/06 15:20:15.890558410,1746537615,887865615,,222.8415069580078,1.0350009202957438,0.0,0.0,0.0,0.7971503734588481
2025/05/06 15:20:15.988827810,1746537615,987947708,,221.5847930908203,1.0029989480972148,0.0,0.0,0.0,0.7876225709915161
2025/05/06 15:20:16.89095021,1746537616,87879381,,220.14541625976562,0.9701590538024973,0.0,0.0,0.0,0.7782171368598938
2025/05/06 15:20:16.189638100,1746537616,188298338,,218.70446777343747,0.9363060593605042,0.0,0.0,0.0,0.7689451575279236
2025/05/06 15:20:16.289593175,1746537616,287880130,,208.1881866455078,47.18555068969726,0.0,0.0,0.0,0.6225904226303243
2025/05/06 15:20:16.391969989,1746537616,388185677,,207.064453125,47.1496696472168,0.0,0.0,0.0,0.6135703325271749
2025/05/06 15:20:16.494338452,1746537616,487899417,,206.187744140625,47.112609863281236,0.0,0.0,0.0,0.6046966910362244
2025/05/06 15:20:16.588630203,1746537616,587891317,,205.58656311035156,47.07438659667967,0.0,0.0,0.0,0.595969021320343
2025/05/06 15:20:16.688213238,1746537616,687884501,,205.275146484375,47.03504180908204,0.0,0.0,0.0,0.5873854160308696
2025/05/06 15:20:16.789743321,1746537616,788625126,,205.25799560546875,46.994621276855455,0.0,0.0,0.0,0.5789431929588318
2025/05/06 15:20:16.891611833,1746537616,889056972,,205.53297424316406,46.95318603515624,0.0,0.0,0.0,0.5706391930580281
2025/05/06 15:20:16.990109447,1746537616,988015754,,206.09352111816406,46.910793304443345,0.0,0.0,0.0,0.5624698400497437
2025/05/06 15:20:17.88266774,1746537617,87837298,,206.93023681640625,46.86750411987303,0.0,0.0,0.0,0.5544312596321106
2025/05/06 15:20:17.192587903,1746537617,187899732,,198.25057983398438,-32.736217498779304,0.0,0.0,0.0,0.5924989581108093
2025/05/06 15:20:17.288148680,1746537617,287860262,,197.91397094726562,-44.182071685791016,0.0,0.0,0.0,0.5960366129875041
2025/05/06 15:20:17.388537828,1746537617,388167631,,199.5085906982422,-44.22774505615233,0.0,0.0,0.0,0.5883713960647583
2025/05/06 15:20:17.489958204,1746537617,488144460,,201.33050537109375,-44.27406311035156,0.0,0.0,0.0,0.5808203220367574
2025/05/06 15:20:17.590490750,1746537617,587866339,,203.36703491210938,-44.32096862792967,0.0,0.0,0.0,0.5733794569969177
2025/05/06 15:20:17.688163472,1746537617,687855396,,205.60572814941406,-44.368408203125,0.0,0.0,0.0,0.5660449862480164
2025/05/06 15:20:17.788360582,1746537617,787961488,,208.0345001220703,-44.41633605957032,0.0,0.0,0.0,0.558813154697404
2025/05/06 15:20:17.891991999,1746537617,890580841,,210.64172363281247,-44.46470260620118,0.0,0.0,0.0,0.5516803860664652
2025/05/06 15:20:17.990749212,1746537617,988115809,,213.416259765625,-44.51345825195313,0.0,0.0,0.0,0.5446431636810303
2025/05/06 15:20:18.88317407,1746537618,87868832,,216.347412109375,-44.56256866455078,0.0,0.0,0.0,0.5376982092857361
2025/05/06 15:20:18.189975608,1746537618,188504764,,205.8352508544922,29.938865661621087,0.0,0.0,0.0,-0.3161865174770355
2025/05/06 15:20:18.290790259,1746537618,289499048,,206.85348510742188,37.68506622314452,0.0,0.0,0.0,-0.41607901453971863
2025/05/06 15:20:18.388216688,1746537618,387872576,,210.19529724121097,37.63270950317383,0.0,0.0,0.0,-0.42277783155444126
2025/05/06 15:20:18.490329327,1746537618,487895019,,213.6558837890625,37.580051422119126,0.0,0.0,0.0,-0.42939090728759766
2025/05/06 15:20:18.588156439,1746537618,587855414,,217.22695922851562,37.52713775634764,0.0,0.0,0.0,-0.4359213709831238
2025/05/06 15:20:18.688185839,1746537618,687872771,,220.90063476562503,37.474006652832045,0.0,0.0,0.0,-0.4423721432686136
2025/05/06 15:20:18.789585949,1746537618,787986703,,224.66943359375,37.42068481445313,0.0,0.0,0.0,-0.44874608516693115
2025/05/06 15:20:18.889015424,1746537618,887908697,,228.52627563476562,37.367214202880874,0.0,0.0,0.0,-0.4550458788871765
2025/05/06 15:20:18.990631421,1746537618,987858156,,232.4644775390625,37.31362533569335,0.0,0.0,0.0,-0.461274117231369
2025/05/06 15:20:19.88789138,1746537619,87888219,,236.4776611328125,37.259941101074205,0.0,0.0,0.0,-0.4674332141876363
2025/05/06 15:20:19.193807693,1746537619,188634699,,240.55982971191406,37.20619583129883,0.0,0.0,0.0,-0.4735254943370819
2025/05/06 15:20:19.289215589,1746537619,288013960,,230.47860717773435,51.8264465332031,0.0,0.0,0.0,-0.7684744596481323
2025/05/06 15:20:19.389136681,1746537619,387891678,,234.68190002441406,51.77169418334962,0.0,0.0,0.0,-0.7744306325912476
2025/05/06 15:20:19.488280897,1746537619,487880370,,238.9379730224609,51.71693801879882,0.0,0.0,0.0,-0.7803254723548605
2025/05/06 15:20:19.589896617,1746537619,587891024,,243.2419891357422,51.662204742431626,0.0,0.0,0.0,-0.7861610054969788
2025/05/06 15:20:19.688182099,1746537619,687878636,,247.58940124511722,51.607513427734375,0.0,0.0,0.0,-0.7919390797615335
2025/05/06 15:20:19.790644716,1746537619,788034998,,251.9758758544922,51.55289077758786,0.0,0.0,0.0,-0.7976614236831665
2025/05/06 15:20:19.889567540,1746537619,887904217,,256.3973388671875,51.49834823608397,0.0,0.0,0.0,-0.8033297061919882
2025/05/06 15:20:19.988870298,1746537619,987909399,,260.8498840332031,51.44391250610351,0.0,0.0,0.0,-0.8089455366134359
2025/05/06 15:20:20.88263283,1746537620,87875504,,265.32989501953125,51.38959121704103,0.0,0.0,0.0,-0.8145104050636292
2025/05/06 15:20:20.190185353,1746537620,188828062,,269.83392333984375,51.335411071777344,0.0,0.0,0.0,-0.820025622844696
2025/05/06 15:20:20.288211492,1746537620,287876891,,256.55133056640625,-15.18951416015625,0.0,0.0,0.0,-0.16416120529174805
2025/05/06 15:20:20.388385985,1746537620,387973382,,261.0937194824219,-15.241221427917473,0.0,0.0,0.0,-0.1696106195449829
2025/05/06 15:20:20.488385366,1746537620,487902803,,265.6508483886719,-15.292742729187005,0.0,0.0,0.0,-0.17501470446583767
2025/05/06 15:20:20.588506102,1746537620,587885579,,270.2199401855469,-15.344066619873047,0.0,0.0,0.0,-0.18037451803684235
2025/05/06 15:20:20.688344908,1746537620,687895090,,274.7984313964844,-15.395182609558105,0.0,0.0,0.0,-0.1856910139322281
2025/05/06 15:20:20.788604983,1746537620,787875922,,279.38385009765625,-15.44608211517334,0.0,0.0,0.0,-0.19096516072750092
2025/05/06 15:20:20.888288298,1746537620,887922642,,283.973876953125,-15.496755599975558,0.0,0.0,0.0,-0.19619783759117126
2025/05/06 15:20:20.988965766,1746537620,987873924,,288.5663757324219,-15.547194480896025,0.0,0.0,0.0,-0.201389878988266
2025/05/06 15:20:21.89209439,1746537621,87945348,,293.15924072265625,-15.597391128540053,0.0,0.0,0.0,-0.20654207468032837
2025/05/06 15:20:21.191140699,1746537621,188465217,,297.75054931640625,-15.6473388671875,0.0,0.0,0.0,-0.21165516972538967
2025/05/06 15:20:21.288234544,1746537621,287867461,,285.3244934082031,-83.02120971679688,0.0,0.0,0.0,3.044671773910551
2025/05/06 15:20:21.396879104,1746537621,387871013,,289.90740966796875,-83.0580062866211,0.0,0.0,0.0,3.039463520050049
2025/05/06 15:20:21.488900062,1746537621,487848897,,294.48358154296875,-83.09455108642575,0.0,0.0,0.0,3.034293651580839
2025/05/06 15:20:21.589050512,1746537621,587845985,,299.051513671875,-83.13085174560544,0.0,0.0,0.0,3.029161214828463
2025/05/06 15:20:21.688537839,1746537621,688236254,,303.6097717285156,-83.1668930053711,0.0,0.0,0.0,3.02406644821167
2025/05/06 15:20:21.792637153,1746537621,788422555,,308.156982421875,-83.20269012451172,0.0,0.0,0.0,3.0190083980560303
2025/05/06 15:20:21.890187853,1746537621,887892133,,312.69195556640625,-83.23822784423827,0.0,0.0,0.0,3.0139870643616007
2025/05/06 15:20:21.988449656,1746537621,987989593,,317.21343994140625,-83.27351379394531,0.0,0.0,0.0,3.0090019702911377
2025/05/06 15:20:22.89876742,1746537622,87883752,,321.7203369140625,-83.30854797363278,0.0,0.0,0.0,3.004053115844698
2025/05/06 15:20:22.189380836,1746537622,187896922,,312.9671630859375,-25.897506713867188,0.0,0.0,0.0,-0.41764047741889954
2025/05/06 15:20:22.288461094,1746537622,287934318,,315.15478515625,-21.725383758544908,0.0,0.0,0.0,-1.7301182746887207
2025/05/06 15:20:22.388287187,1746537622,387904353,,319.61175537109375,-21.776298522949205,0.0,0.0,0.0,-1.7347544431686401
2025/05/06 15:20:22.489025174,1746537622,487870375,,324.0503845214844,-21.826889038085938,0.0,0.0,0.0,-1.7393593788146973
2025/05/06 15:20:22.591302368,1746537622,587849452,,328.4698486328125,-21.877155303955092,0.0,0.0,0.0,-1.7439332008361816
2025/05/06 15:20:22.691444539,1746537622,688116808,,332.8694152832031,-21.927095413208008,0.0,0.0,0.0,-1.748476505279541
2025/05/06 15:20:22.789927277,1746537622,787890264,,337.2483825683594,-21.976703643798828,0.0,0.0,0.0,-1.7529895305633545
2025/05/06 15:20:22.893816632,1746537622,892971168,,341.6061096191406,-22.02597999572754,0.0,0.0,0.0,-1.7574727535247803
2025/05/06 15:20:22.988623451,1746537622,987919110,,345.94146728515625,-22.074922561645522,0.0,0.0,0.0,-1.761926293373108
2025/05/06 15:20:23.88633909,1746537623,87899314,,350.2540283203125,-22.123529434204073,0.0,0.0,0.0,-1.766350507736206
2025/05/06 15:20:23.190767982,1746537623,190431986,,335.6076354980469,19.701261520385742,0.0,0.0,0.0,-13.241503715515137
2025/05/06 15:20:23.288461515,1746537623,287876323,,336.9948425292969,26.400690078735337,0.0,0.0,0.0,-13.2112398147583
2025/05/06 15:20:23.389642921,1746537623,387885270,,341.2366638183594,26.31287574768068,0.0,0.0,0.0,-13.215156555175781
2025/05/06 15:20:23.489357756,1746537623,487911324,,345.45428466796875,26.225633621215835,0.0,0.0,0.0,-13.21905517578125
2025/05/06 15:20:23.588439830,1746537623,587902970,,349.64727783203125,26.1389675140381,0.0,0.0,0.0,-13.22293758392334
2025/05/06 15:20:23.689560183,1746537623,687952790,,353.81536865234375,26.052881240844712,0.0,0.0,0.0,-13.22680377960208
2025/05/06 15:20:23.789108075,1746537623,787862893,,357.9582214355468,25.967378616333008,0.0,0.0,0.0,-13.230653762817326
2025/05/06 15:20:23.888181575,1746537623,887873718,,362.0755615234375,25.882461547851562,0.0,0.0,0.0,-13.23448657989502
2025/05/06 15:20:23.988537250,1746537623,988153540,,366.1671142578124,25.798130035400376,0.0,0.0,0.0,-13.238304138183565
2025/05/06 15:20:24.88339154,1746537624,87940516,,370.2326965332031,25.714391708374038,0.0,0.0,0.0,-13.242106437683105
2025/05/06 15:20:24.188634005,1746537624,187853095,,374.2720642089844,25.631242752075195,0.0,0.0,0.0,-13.245892524719238
2025/05/06 15:20:24.290036365,1746537624,287882807,,359.8131408691406,9.277311325073242,0.0,0.0,0.0,-20.882524490356474
2025/05/06 15:20:24.402662485,1746537624,391091238,,363.7989807128906,9.169120788574247,0.0,0.0,0.0,-20.886066436767578
2025/05/06 15:20:24.488457206,1746537624,487871612,,367.75811767578125,9.061701774597168,0.0,0.0,0.0,-20.889600753784208
2025/05/06 15:20:24.588194363,1746537624,587861298,,371.6904602050781,8.955056190490737,0.0,0.0,0.0,-20.89312744140622
2025/05/06 15:20:24.689118894,1746537624,687888218,,375.5958862304687,8.84918498992917,0.0,0.0,0.0,-20.89664840698248
2025/05/06 15:20:24.790021275,1746537624,788609472,,379.4743347167969,8.744087219238281,0.0,0.0,0.0,-20.900159835815458
2025/05/06 15:20:24.888353651,1746537624,887890976,,383.3257141113281,8.639763832092285,0.0,0.0,0.0,-20.903665542602567
2025/05/06 15:20:24.992258348,1746537624,987873091,,387.1499938964843,8.536213874816895,0.0,0.0,0.0,-20.90716552734375
2025/05/06 15:20:25.89082165,1746537625,88674176,,390.9470825195312,8.433437347412095,0.0,0.0,0.0,-20.910657882690487
2025/05/06 15:20:25.188160247,1746537625,187867628,,394.7170104980469,8.331433296203585,0.0,0.0,0.0,-20.914142608642578
2025/05/06 15:20:25.289010500,1746537625,287834907,,387.8303527832031,3.352177619934068,0.0,0.0,0.0,-24.986989974975586
2025/05/06 15:20:25.388220905,1746537625,387870546,,391.5455017089844,3.2386546134948446,0.0,0.0,0.0,-24.990386962890625
2025/05/06 15:20:25.488301351,1746537625,487880027,,395.23345947265625,3.1259961128234863,0.0,0.0,0.0,-24.99378204345706
2025/05/06 15:20:25.591600807,1746537625,587948346,,398.8942565917968,3.0142004489898966,0.0,0.0,0.0,-24.997171401977482
2025/05/06 15:20:25.690642654,1746537625,687886406,,402.5279235839844,2.9032647609710978,0.0,0.0,0.0,-25.000558853149414
2025/05/06 15:20:25.791239350,1746537625,789008192,,406.13446044921875,2.793186664581299,0.0,0.0,0.0,-25.003944396972628
2025/05/06 15:20:25.889354261,1746537625,888061279,,409.7139587402344,2.683963537216215,0.0,0.0,0.0,-25.00732421875
2025/05/06 15:20:25.989269561,1746537625,987914775,,413.2664489746093,2.575592517852783,0.0,0.0,0.0,-25.010700225830078
2025/05/06 15:20:26.89420440,1746537626,87908308,,416.7920227050781,2.4680702686309814,0.0,0.0,0.0,-25.014074325561552
2025/05/06 15:20:26.188986317,1746537626,187857948,,407.9056091308594,-12.618430137634277,0.0,0.0,0.0,-23.531856536865263
2025/05/06 15:20:26.292640315,1746537626,288592474,,411.3776550292969,-12.720020294189467,0.0,0.0,0.0,-23.535236358642578
2025/05/06 15:20:26.388121175,1746537626,387866664,,414.8230285644531,-12.820805549621568,0.0,0.0,0.0,-23.538610458374052
2025/05/06 15:20:26.488962671,1746537626,487934362,,418.2417907714844,-12.920789718627901,0.0,0.0,0.0,-23.541980743408203
2025/05/06 15:20:26.589530726,1746537626,588040540,,421.634033203125,-13.019975662231417,0.0,0.0,0.0,-23.545345306396484
2025/05/06 15:20:26.689493119,1746537626,688486664,,424.9998779296875,-13.118368148803697,0.0,0.0,0.0,-23.54870414733884
2025/05/06 15:20:26.788535519,1746537626,787886675,,428.3394470214844,-13.215971946716323,0.0,0.0,0.0,-23.55205535888672
2025/05/06 15:20:26.890758876,1746537626,888049108,,431.65283203125,-13.312788963317828,0.0,0.0,0.0,-23.555402755737333
2025/05/06 15:20:26.990470637,1746537626,989445094,,434.94012451171875,-13.408825874328585,0.0,0.0,0.0,-23.558744430541992
2025/05/06 15:20:27.91217404,1746537627,87883507,,438.2015075683594,-13.504085540771456,0.0,0.0,0.0,-23.56207847595215
2025/05/06 15:20:27.189330304,1746537627,187897808,,439.5210876464844,2.7127575874328613,0.0,0.0,0.0,-16.595726013183594
2025/05/06 15:20:27.288574945,1746537627,287916812,,442.7314147949219,2.6377780437469482,0.0,0.0,0.0,-16.599061965942383
2025/05/06 15:20:27.390347781,1746537627,387916928,,445.91619873046875,2.5634107589721964,0.0,0.0,0.0,-16.602386474609375
2025/05/06 15:20:27.488973685,1746537627,488049943,,449.0755310058594,2.4896521568298198,0.0,0.0,0.0,-16.605699539184542
2025/05/06 15:20:27.588445491,1746537627,587906374,,452.2095947265625,2.41649818420413,0.0,0.0,0.0,-16.60900115966797
2025/05/06 15:20:27.688302101,1746537627,687879219,,455.3185119628906,2.343945264816284,0.0,0.0,0.0,-16.612289428710938
2025/05/06 15:20:27.788216738,1746537627,787887966,,458.40240478515625,2.271989345550523,0.0,0.0,0.0,-16.615568161010742
2025/05/06 15:20:27.892427569,1746537627,889991186,,461.4614562988281,2.2006263732910156,0.0,0.0,0.0,-16.61883354187009
2025/05/06 15:20:27.988535861,1746537627,987885678,,464.4957580566406,2.129852771759019,0.0,0.0,0.0,-16.6220893859863
2025/05/06 15:20:28.89648082,1746537628,89430087,,467.50552368164057,2.0596642494201376,0.0,0.0,0.0,-16.625331878662166
2025/05/06 15:20:28.189269256,1746537628,188753060,,460.4666442871094,-4.363143920898466,0.0,0.0,0.0,5.120476245880127
2025/05/06 15:20:28.288344263,1746537628,287951021,,463.428955078125,-4.369632244110136,0.0,0.0,0.0,4.901674270629883
2025/05/06 15:20:28.388477693,1746537628,388052229,,466.3666687011719,-4.3852162361144735,0.0,0.0,0.0,4.898587703704834
2025/05/06 15:20:28.489507930,1746537628,487955339,,469.2803955078125,-4.400668144226046,0.0,0.0,0.0,4.895526885986328
2025/05/06 15:20:28.588178354,1746537628,587872074,,472.17034912109375,-4.415988922119141,0.0,0.0,0.0,4.8924913406372355
2025/05/06 15:20:28.689637373,1746537628,687874822,,475.03662109375,-4.43117952346806,0.0,0.0,0.0,4.889480590820341
2025/05/06 15:20:28.788259329,1746537628,787858121,,477.87939453125,-4.4462418556213095,0.0,0.0,0.0,4.8864946365356445
2025/05/06 15:20:28.889460660,1746537628,887929342,,480.6988525390625,-4.461175918579087,0.0,0.0,0.0,4.883533000946045
2025/05/06 15:20:28.989603418,1746537628,988413431,,483.4951171875,-4.47598361968997,0.0,0.0,0.0,4.880596160888672
2025/05/06 15:20:29.89807463,1746537629,87859374,,486.2683715820312,-4.490665435791001,0.0,0.0,0.0,4.877683162689152
2025/05/06 15:20:29.193712034,1746537629,190027600,,472.4228210449219,-33.92212677001953,0.0,0.0,0.0,16.89040184020999
2025/05/06 15:20:29.290448409,1746537629,287967733,,475.1505126953125,-33.909214019775405,0.0,0.0,0.0,16.887666702270508
2025/05/06 15:20:29.388265871,1746537629,387890369,,477.8556823730469,-33.89640808105466,0.0,0.0,0.0,16.884963989257812
2025/05/06 15:20:29.490299919,1746537629,489347836,,480.53845214843744,-33.883708953857436,0.0,0.0,0.0,16.882289886474666
2025/05/06 15:20:29.589057903,1746537629,587863255,,483.1990356445312,-33.871112823486314,0.0,0.0,0.0,16.879646301269588
2025/05/06 15:20:29.690241415,1746537629,689469642,,485.8375549316406,-33.85862350463866,0.0,0.0,0.0,16.877031326293945
2025/05/06 15:20:29.789601570,1746537629,787900231,,488.45416259765625,-33.84623718261716,0.0,0.0,0.0,16.874446868896484
2025/05/06 15:20:29.890303462,1746537629,889658901,,491.0490417480469,-33.83395385742186,0.0,0.0,0.0,16.871889114379883
2025/05/06 15:20:29.988302414,1746537629,987892638,,493.622314453125,-33.82177352905272,0.0,0.0,0.0,16.869361877441406
2025/05/06 15:20:30.89242486,1746537630,87903262,,496.1741943359375,-33.80969619750975,0.0,0.0,0.0,16.86686134338379
2025/05/06 15:20:30.188137216,1746537630,187880497,,463.37994384765625,37.846435546874986,0.0,0.0,0.0,25.29838752746582
2025/05/06 15:20:30.289058699,1746537630,287891127,,465.88934326171875,37.87587738037108,0.0,0.0,0.0,25.296077728271484
2025/05/06 15:20:30.388841130,1746537630,388047255,,468.3777770996094,37.90507125854488,0.0,0.0,0.0,25.293798446655245
2025/05/06 15:20:30.488730873,1746537630,488316482,,470.845458984375,37.934017181396484,0.0,0.0,0.0,25.291549682617216
2025/05/06 15:20:30.589091173,1746537630,587903033,,473.2925109863281,37.96272277832031,0.0,0.0,0.0,25.289331436157198
2025/05/06 15:20:30.689220597,1746537630,687906187,,475.7190856933594,37.99118423461911,0.0,0.0,0.0,25.28714370727539
2025/05/06 15:20:30.791036562,1746537630,790558164,,478.1253662109375,38.019409179687486,0.0,0.0,0.0,25.284988403320312
2025/05/06 15:20:30.889019585,1746537630,888282327,,480.511474609375,38.047393798828125,0.0,0.0,0.0,25.282859802246122
2025/05/06 15:20:30.989348222,1746537630,988094994,,482.87762451171875,38.07514190673824,0.0,0.0,0.0,25.280763626098604
2025/05/06 15:20:31.90376318,1746537631,89183080,,485.2239074707031,38.102657318115234,0.0,0.0,0.0,25.27869415283206
2025/05/06 15:20:31.190112438,1746537631,187883154,,451.2945556640625,-12.056972503662152,0.0,0.0,0.0,27.773752212524442
2025/05/06 15:20:31.288351778,1746537631,287897998,,449.8409729003906,-15.595363616943374,0.0,0.0,0.0,27.813104629516573
2025/05/06 15:20:31.388344945,1746537631,387961362,,452.1286315917969,-15.563581466674776,0.0,0.0,0.0,27.811176300048857
2025/05/06 15:20:31.488166751,1746537631,487878074,,454.39703369140625,-15.532069206237821,0.0,0.0,0.0,27.80927848815918
2025/05/06 15:20:31.589449483,1746537631,588060372,,456.6463928222656,-15.500823974609403,0.0,0.0,0.0,27.80740737915039
2025/05/06 15:20:31.688433468,1746537631,687909005,,458.87683105468744,-15.469844818115263,0.0,0.0,0.0,27.805566787719783
2025/05/06 15:20:31.789445232,1746537631,788598360,,461.0884704589844,-15.439128875732393,0.0,0.0,0.0,27.803752899169922
2025/05/06 15:20:31.890302120,1746537631,887904093,,463.2815246582031,-15.408675193786635,0.0,0.0,0.0,27.80196762084961
2025/05/06 15:20:31.988328144,1746537631,987870230,,465.4560852050781,-15.378479957580595,0.0,0.0,0.0,27.800209045410156
2025/05/06 15:20:32.88513925,1746537632,88200604,,467.6123046875,-15.348541259765625,0.0,0.0,0.0,27.798479080200224
2025/05/06 15:20:32.188665624,1746537632,187895136,,421.0003662109375,4.623127460479736,0.0,0.0,0.0,19.725791931152372
2025/05/06 15:20:32.288249333,1746537632,287895152,,422.8498229980469,5.768266677856445,0.0,0.0,0.0,19.594739913940458
2025/05/06 15:20:32.389845536,1746537632,388685130,,424.9521179199219,5.783330440521226,0.0,0.0,0.0,19.5928955078125
2025/05/06 15:20:32.489247399,1746537632,487890868,,427.03668212890625,5.798265933990493,0.0,0.0,0.0,19.591075897216825
2025/05/06 15:20:32.588972865,1746537632,587880840,,429.1036071777344,5.813074111938477,0.0,0.0,0.0,19.589277267456083
2025/05/06 15:20:32.688307486,1746537632,687915586,,431.1531066894531,5.827755928039579,0.0,0.0,0.0,19.58750343322754
2025/05/06 15:20:32.790304283,1746537632,787902758,,433.1852722167969,5.84231281280519,0.0,0.0,0.0,19.58575248718259
2025/05/06 15:20:32.889688141,1746537632,887899118,,435.2002868652344,5.856745243072524,0.0,0.0,0.0,19.584022521972656
2025/05/06 15:20:32.990016688,1746537632,988426539,,437.1982421875,5.871054172515855,0.0,0.0,0.0,19.582317352294922
2025/05/06 15:20:33.88565241,1746537633,87912924,,439.1793212890625,5.8852410316467,0.0,0.0,0.0,19.58063316345215
2025/05/06 15:20:33.194346309,1746537633,189680161,,395.8431396484375,11.837486267089886,0.0,0.0,0.0,7.514932155609131
2025/05/06 15:20:33.289138653,1746537633,287937652,,397.7908630371094,11.831958770751953,0.0,0.0,0.0,7.512971401214571
2025/05/06 15:20:33.389097703,1746537633,387978055,,399.72210693359375,11.826478958129869,0.0,0.0,0.0,7.511029243469238
2025/05/06 15:20:33.489236165,1746537633,487908181,,401.63702392578125,11.821044921874972,0.0,0.0,0.0,7.509105205535889
2025/05/06 15:20:33.588781573,1746537633,587853887,,403.53570556640625,11.81565856933598,0.0,0.0,0.0,7.507198810577364
2025/05/06 15:20:33.689434043,1746537633,687879236,,405.41827392578125,11.810317039489703,0.0,0.0,0.0,7.505311012268066
2025/05/06 15:20:33.789365889,1746537633,788532863,,407.2849426269531,11.805021286010742,0.0,0.0,0.0,7.503440856933622
2025/05/06 15:20:33.888281032,1746537633,887901590,,409.1357727050781,11.799770355224595,0.0,0.0,0.0,7.501588344573975
2025/05/06 15:20:33.990255666,1746537633,988900775,,410.9709167480469,11.794565200805664,0.0,0.0,0.0,7.499753475189181
2025/05/06 15:20:34.90499161,1746537634,87875220,,412.7904968261719,11.78940391540526,0.0,0.0,0.0,7.497936248779297
2025/05/06 15:20:34.189739464,1746537634,187873458,,368.2679138183594,2.2087385654449605,0.0,0.0,0.0,-7.529902935028076
2025/05/06 15:20:34.288292597,1746537634,287906443,,370.0565490722656,2.1813056468963765,0.0,0.0,0.0,-7.532124996185331
2025/05/06 15:20:34.388548925,1746537634,388151849,,371.8300476074219,2.154107093811021,0.0,0.0,0.0,-7.534333705902071
2025/05/06 15:20:34.490086419,1746537634,487863827,,373.5884704589844,2.1271407604217814,0.0,0.0,0.0,-7.536529064178467
2025/05/06 15:20:34.592599943,1746537634,587900968,,375.33197021484375,2.1004049777984903,0.0,0.0,0.0,-7.538710594177246
2025/05/06 15:20:34.690044015,1746537634,687909655,,377.0606689453125,2.0738976001739644,0.0,0.0,0.0,-7.540879249572754
2025/05/06 15:20:34.788939743,1746537634,787932748,,378.77471923828125,2.0476169586181356,0.0,0.0,0.0,-7.543034553527832
2025/05/06 15:20:34.890843013,1746537634,888681963,,380.47418212890625,2.0215606689453125,0.0,0.0,0.0,-7.5451765060424805
2025/05/06 15:20:34.989637192,1746537634,988603205,,382.15924072265625,1.9957270622253702,0.0,0.0,0.0,-7.547305107116699
2025/05/06 15:20:35.88991057,1746537635,87871300,,383.8299560546875,1.9701143503188945,0.0,0.0,0.0,-7.549421310424805
2025/05/06 15:20:35.189993165,1746537635,187868185,,344.4378356933594,-9.390013694763184,0.0,0.0,0.0,-20.13460350036621
2025/05/06 15:20:35.288178848,1746537635,287878072,,346.0799560546875,-9.4325017929077,0.0,0.0,0.0,-20.1370906829834
2025/05/06 15:20:35.391137417,1746537635,387941445,,347.7081298828125,-9.474627494812012,0.0,0.0,0.0,-20.139568328857422
2025/05/06 15:20:35.490160856,1746537635,487900476,,349.32244873046875,-9.516391754150376,0.0,0.0,0.0,-20.14203453063965
2025/05/06 15:20:35.588433841,1746537635,587930151,,350.92303466796875,-9.557800292968764,0.0,0.0,0.0,-20.144491195678683
2025/05/06 15:20:35.688996996,1746537635,687994317,,352.51004028320307,-9.598854064941378,0.0,0.0,0.0,-20.146936416625977
2025/05/06 15:20:35.791193692,1746537635,788740211,,354.0835266113281,-9.63955688476564,0.0,0.0,0.0,-20.14937400817871
2025/05/06 15:20:35.888540211,1746537635,887914307,,355.6436462402344,-9.679911613464341,0.0,0.0,0.0,-20.151798248291016
2025/05/06 15:20:35.992181113,1746537635,987854161,,357.19049072265625,-9.719921112060561,0.0,0.0,0.0,-20.15421485900876
2025/05/06 15:20:36.88172839,1746537636,87845058,,358.72418212890625,-9.759588241577163,0.0,0.0,0.0,-20.156620025634766
2025/05/06 15:20:36.189813366,1746537636,188081265,,333.0154724121094,-38.56739044189452,0.0,0.0,0.0,-27.230714797973633
2025/05/06 15:20:36.291287150,1746537636,288489925,,331.90277099609375,-43.47197341918945,0.0,0.0,0.0,-27.107051849365234
2025/05/06 15:20:36.388259573,1746537636,387899102,,333.39739990234375,-43.51950073242186,0.0,0.0,0.0,-27.109663009643555
2025/05/06 15:20:36.488718047,1746537636,488033963,,334.8793029785156,-43.56661605834958,0.0,0.0,0.0,-27.112266540527344
2025/05/06 15:20:36.588555089,1746537636,587934299,,336.3486022949219,-43.61333465576169,0.0,0.0,0.0,-27.11486053466797
2025/05/06 15:20:36.689232463,1746537636,687854956,,337.805419921875,-43.65964889526366,0.0,0.0,0.0,-27.117444992065458
2025/05/06 15:20:36.788268359,1746537636,787916108,,339.2497863769531,-43.70557022094724,0.0,0.0,0.0,-27.12002182006836
2025/05/06 15:20:36.889016350,1746537636,887886244,,340.681884765625,-43.751094818115206,0.0,0.0,0.0,-27.122589111328125
2025/05/06 15:20:36.988563894,1746537636,987918008,,342.101806640625,-43.79623413085936,0.0,0.0,0.0,-27.125146865844727
2025/05/06 15:20:37.88087583,1746537637,87879734,,343.5096130371094,-43.84098815917969,0.0,0.0,0.0,-27.127696990966825
2025/05/06 15:20:37.192021257,1746537637,187991645,,323.4058837890625,-37.083793640136705,0.0,0.0,0.0,-33.834434509277344
2025/05/06 15:20:37.288883311,1746537637,287988010,,324.78955078125,-37.1353416442871,0.0,0.0,0.0,-33.83719253540042
2025/05/06 15:20:37.388686613,1746537637,387916816,,326.16143798828125,-37.1864547729492,0.0,0.0,0.0,-33.83994674682617
2025/05/06 15:20:37.488794486,1746537637,487991930,,327.5216369628906,-37.23712539672853,0.0,0.0,0.0,-33.84269332885742
2025/05/06 15:20:37.588670882,1746537637,587895239,,328.8702697753906,-37.28736495971678,0.0,0.0,0.0,-33.845428466796875
2025/05/06 15:20:37.689109571,1746537637,687882945,,330.2073974609375,-37.33717346191406,0.0,0.0,0.0,-33.84815979003909
2025/05/06 15:20:37.790376493,1746537637,788020272,,331.53314208984375,-37.38655853271483,0.0,0.0,0.0,-33.85087966918945
2025/05/06 15:20:37.889283728,1746537637,887901722,,332.84759521484375,-37.43552017211917,0.0,0.0,0.0,-33.85359573364258
2025/05/06 15:20:37.990019961,1746537637,988187658,,334.15081787109375,-37.48405838012694,0.0,0.0,0.0,-33.856300354003906
2025/05/06 15:20:38.88246266,1746537638,87886338,,335.4429626464844,-37.53218841552736,0.0,0.0,0.0,-33.85900115966797
2025/05/06 15:20:38.188605186,1746537638,188237112,,318.8313903808594,-16.62481689453125,0.0,0.0,0.0,-44.74637985229495
2025/05/06 15:20:38.289141452,1746537638,287896461,,320.10113525390625,-16.683549880981445,0.0,0.0,0.0,-44.74945449829099
2025/05/06 15:20:38.409267656,1746537638,388585157,,321.3600158691406,-16.741781234741197,0.0,0.0,0.0,-44.75252151489255
2025/05/06 15:20:38.490687504,1746537638,487878392,,322.60821533203125,-16.79951286315918,0.0,0.0,0.0,-44.75558090209961
2025/05/06 15:20:38.591939242,1746537638,587869919,,323.8457336425781,-16.856750488281264,0.0,0.0,0.0,-44.75863265991208
2025/05/06 15:20:38.688329448,1746537638,687888832,,325.0727233886719,-16.913497924804673,0.0,0.0,0.0,-44.761680603027344
2025/05/06 15:20:38.790411856,1746537638,788273706,,326.2892150878906,-16.96976089477539,0.0,0.0,0.0,-44.76472473144531
2025/05/06 15:20:38.889894699,1746537638,887896731,,327.495361328125,-17.025541305541992,0.0,0.0,0.0,-44.767757415771484
2025/05/06 15:20:38.988211707,1746537638,987886810,,328.69122314453125,-17.08084297180173,0.0,0.0,0.0,-44.77078628540039
2025/05/06 15:20:39.88941398,1746537639,87853212,,329.87689208984375,-17.135671615600586,0.0,0.0,0.0,-44.773807525634766
2025/05/06 15:20:39.188838129,1746537639,188451728,,308.55242919921875,-3.984724760055556,0.0,0.0,0.0,-56.069252014160156
2025/05/06 15:20:39.289146480,1746537639,287886875,,309.7174072265625,-4.049512863159173,0.0,0.0,0.0,-56.072677612304716
2025/05/06 15:20:39.388597610,1746537639,387943448,,310.8724365234375,-4.11374616622922,0.0,0.0,0.0,-56.07609939575195
2025/05/06 15:20:39.491074141,1746537639,488447941,,312.0176086425781,-4.1774291992187145,0.0,0.0,0.0,-56.079513549804716
2025/05/06 15:20:39.589438242,1746537639,588976529,,313.15301513671875,-4.2405662536621165,0.0,0.0,0.0,-56.082923889160185
2025/05/06 15:20:39.688280662,1746537639,687889756,,314.2787170410156,-4.303162574768066,0.0,0.0,0.0,-56.086326599121094
2025/05/06 15:20:39.788974370,1746537639,787869659,,315.39483642578125,-4.3652219772338725,0.0,0.0,0.0,-56.089725494384766
2025/05/06 15:20:39.888351684,1746537639,887971020,,316.5014343261718,-4.426750183105462,0.0,0.0,0.0,-56.093116760253906
2025/05/06 15:20:39.988360500,1746537639,987883755,,317.59857177734375,-4.487751007080092,0.0,0.0,0.0,-56.09650421142581
2025/05/06 15:20:40.89570434,1746537640,87872360,,318.6863708496094,-4.5482292175292685,0.0,0.0,0.0,-56.09988784790039
2025/05/06 15:20:40.188729915,1746537640,187902985,,298.02526855468756,-43.442028045654304,0.0,0.0,0.0,-66.86479949951178
2025/05/06 15:20:40.291397300,1746537640,289430476,,299.093994140625,-43.511062622070284,0.0,0.0,0.0,-66.8685760498047
2025/05/06 15:20:40.390260657,1746537640,388275535,,300.15362548828125,-43.57950973510742,0.0,0.0,0.0,-66.87235260009767
2025/05/06 15:20:40.489281369,1746537640,487955191,,301.20416259765625,-43.64736938476561,0.0,0.0,0.0,-66.87612152099614
2025/05/06 15:20:40.589299431,1746537640,588235878,,302.2457580566406,-43.714645385742145,0.0,0.0,0.0,-66.87988281250003
2025/05/06 15:20:40.690077216,1746537640,687885216,,303.2784729003906,-43.78134918212889,0.0,0.0,0.0,-66.8836441040039
2025/05/06 15:20:40.788551227,1746537640,787869921,,304.3023681640625,-43.84748077392575,0.0,0.0,0.0,-66.88739776611328
2025/05/06 15:20:40.888145610,1746537640,887871064,,305.3175048828125,-43.91304397583005,0.0,0.0,0.0,-66.89114379882812
2025/05/06 15:20:40.989380613,1746537640,987888565,,306.3240051269531,-43.97804641723633,0.0,0.0,0.0,-66.89488983154298
2025/05/06 15:20:41.88299873,1746537641,87884880,,307.32186889648426,-44.04249572753904,0.0,0.0,0.0,-66.89862823486325
2025/05/06 15:20:41.188601272,1746537641,187881791,,285.4692077636719,-113.54682922363277,0.0,0.0,0.0,-77.6824417114258
2025/05/06 15:20:41.288998969,1746537641,287882371,,285.4583740234375,-116.25535583496094,0.0,0.0,0.0,-77.56749725341797
2025/05/06 15:20:41.388755577,1746537641,387987778,,286.4303283691406,-116.32701110839844,0.0,0.0,0.0,-77.57164001464847
2025/05/06 15:20:41.488792547,1746537641,488083521,,287.3939514160156,-116.39806365966794,0.0,0.0,0.0,-77.57578277587892
2025/05/06 15:20:41.589301282,1746537641,587890656,,288.349365234375,-116.46849822998044,0.0,0.0,0.0,-77.57991790771486
2025/05/06 15:20:41.688912037,1746537641,687885458,,289.296630859375,-116.53833770751952,0.0,0.0,0.0,-77.58404541015629
2025/05/06 15:20:41.788274345,1746537641,787932207,,290.23577880859375,-116.60758209228514,0.0,0.0,0.0,-77.58817291259766
2025/05/06 15:20:41.888437100,1746537641,887947433,,291.16693115234375,-116.67623138427732,0.0,0.0,0.0,-77.59230041503908
2025/05/06 15:20:41.988200031,1746537641,987900925,,292.0901184082031,-116.7442932128906,0.0,0.0,0.0,-77.59642028808595
2025/05/06 15:20:42.89372175,1746537642,88152593,,293.0054016113281,-116.81176757812497,0.0,0.0,0.0,-77.6005325317383
2025/05/06 15:20:42.188292165,1746537642,188027410,,281.181396484375,-94.90842437744138,0.0,0.0,0.0,-80.67895507812501
2025/05/06 15:20:42.293002998,1746537642,289205463,,282.0809631347656,-94.97701263427732,0.0,0.0,0.0,-80.68318176269531
2025/05/06 15:20:42.388359748,1746537642,387883903,,282.97283935546875,-95.04502105712886,0.0,0.0,0.0,-80.68740081787111
2025/05/06 15:20:42.488698004,1746537642,487868607,,283.8570861816406,-95.11244201660155,0.0,0.0,0.0,-80.69161987304689
2025/05/06 15:20:42.589436937,1746537642,587878279,,284.7337951660156,-95.17928314208983,0.0,0.0,0.0,-80.69583129882815
2025/05/06 15:20:42.689111075,1746537642,687886901,,285.6029968261719,-95.2455596923828,0.0,0.0,0.0,-80.70004272460938
2025/05/06 15:20:42.788268693,1746537642,787896359,,286.46478271484375,-95.31126403808592,0.0,0.0,0.0,-80.7042465209961
2025/05/06 15:20:42.888673462,1746537642,887928097,,287.3192138671875,-95.37641143798825,0.0,0.0,0.0,-80.70845031738281
2025/05/06 15:20:42.988057119,1746537642,987879175,,288.1663513183594,-95.44099426269528,0.0,0.0,0.0,-80.71264648437501
2025/05/06 15:20:43.93535906,1746537643,88823175,,289.0062255859375,-95.5050277709961,0.0,0.0,0.0,-80.7168426513672
2025/05/06 15:20:43.189235935,1746537643,187880854,,281.84759521484375,-38.7874755859375,0.0,0.0,0.0,-77.0301284790039
2025/05/06 15:20:43.289269841,1746537643,287873638,,282.6733703613281,-38.84786987304688,0.0,0.0,0.0,-77.0341720581055
2025/05/06 15:20:43.389011765,1746537643,387886161,,283.4920654296875,-38.90774917602537,0.0,0.0,0.0,-77.0382080078125
2025/05/06 15:20:43.488738984,1746537643,487867250,,284.3038024902344,-38.967109680175795,0.0,0.0,0.0,-77.04224395751953
2025/05/06 15:20:43.588600208,1746537643,587878307,,285.10858154296875,-39.02596664428709,0.0,0.0,0.0,-77.04627227783203
2025/05/06 15:20:43.703310416,1746537643,687917601,,285.906494140625,-39.084316253662095,0.0,0.0,0.0,-77.05030059814455
2025/05/06 15:20:43.789028603,1746537643,787920684,,286.69757080078125,-39.14216995239254,0.0,0.0,0.0,-77.0543212890625
2025/05/06 15:20:43.889830063,1746537643,887902784,,287.4819030761718,-39.19952392578125,0.0,0.0,0.0,-77.05833435058592
2025/05/06 15:20:43.988507752,1746537643,987877519,,288.259521484375,-39.2563896179199,0.0,0.0,0.0,-77.06234741210938
2025/05/06 15:20:44.89861866,1746537644,87891967,,289.030517578125,-39.31276702880858,0.0,0.0,0.0,-77.0663528442383
2025/05/06 15:20:44.189144299,1746537644,187913465,,273.2104797363281,-43.948669433593736,0.0,0.0,0.0,-70.28276824951173
2025/05/06 15:20:44.289175508,1746537644,287881622,,273.9686279296875,-43.99981689453123,0.0,0.0,0.0,-70.28649902343753
2025/05/06 15:20:44.388166371,1746537644,387902460,,274.7203063964844,-44.05052947998043,0.0,0.0,0.0,-70.29022216796878
2025/05/06 15:20:44.490115161,1746537644,488760924,,275.4655456542969,-44.100803375244105,0.0,0.0,0.0,-70.29393768310547
2025/05/06 15:20:44.588266299,1746537644,587898042,,276.20440673828125,-44.15065002441402,0.0,0.0,0.0,-70.2976531982422
2025/05/06 15:20:44.689771528,1746537644,687891246,,261.1822814941406,-70.69775390625,0.0,0.0,0.0,-68.12850189208984
2025/05/06 15:20:44.789058428,1746537644,788105683,,259.4942321777344,-74.87061309814452,0.0,0.0,0.0,-67.97044372558597
2025/05/06 15:20:44.888777733,1746537644,888366556,,260.21441650390625,-74.917854309082,0.0,0.0,0.0,-67.97405242919923
2025/05/06 15:20:44.991057459,1746537644,990429711,,260.9284362792969,-74.96469116210938,0.0,0.0,0.0,-67.977653503418
2025/05/06 15:20:45.88225795,1746537645,87876580,,261.6363525390625,-75.01112365722653,0.0,0.0,0.0,-67.98124694824222
2025/05/06 15:20:45.189272646,1746537645,187895792,,262.33819580078125,-75.0571594238281,0.0,0.0,0.0,-67.98484039306642
2025/05/06 15:20:45.288207027,1746537645,287885545,,263.0340576171875,-75.10280609130857,0.0,0.0,0.0,-67.98843383789064
2025/05/06 15:20:45.389867046,1746537645,387899525,,263.7239685058594,-75.14805603027341,0.0,0.0,0.0,-67.99201202392578
2025/05/06 15:20:45.488195541,1746537645,487879252,,264.4079895019531,-75.1929244995117,0.0,0.0,0.0,-67.99559020996095
2025/05/06 15:20:45.590487057,1746537645,589037983,,265.0861511230469,-75.23740386962888,0.0,0.0,0.0,-67.99916839599611
2025/05/06 15:20:45.690157447,1746537645,687880370,,241.08047485351562,-84.98487091064453,0.0,0.0,0.0,-66.83808898925781
2025/05/06 15:20:45.790006127,1746537645,787849405,,239.21432495117182,-85.69455718994138,0.0,0.0,0.0,-67.67835998535155
2025/05/06 15:20:45.890075334,1746537645,888319408,,239.875244140625,-85.73769378662107,0.0,0.0,0.0,-67.68190002441406
2025/05/06 15:20:45.989127294,1746537645,987896120,,240.530517578125,-85.78046417236327,0.0,0.0,0.0,-67.68544006347658
2025/05/06 15:20:46.88384400,1746537646,87880052,,241.18019104003906,-85.82287597656247,0.0,0.0,0.0,-67.68898010253908
2025/05/06 15:20:46.188757845,1746537646,187886807,,241.8242950439453,-85.86491394042966,0.0,0.0,0.0,-67.69251251220705
2025/05/06 15:20:46.290566301,1746537646,288143406,,242.46290588378906,-85.90660095214842,0.0,0.0,0.0,-67.69603729248047
2025/05/06 15:20:46.388584533,1746537646,387881750,,243.09603881835938,-85.94792938232419,0.0,0.0,0.0,-67.69956207275392
2025/05/06 15:20:46.494792864,1746537646,493554103,,243.72377014160156,-85.98889923095702,0.0,0.0,0.0,-67.70307922363283
2025/05/06 15:20:46.597014831,1746537646,593524134,,244.34613037109375,-86.02952575683592,0.0,0.0,0.0,-67.70658874511719
2025/05/06 15:20:46.689250805,1746537646,687877727,,228.7201385498047,-80.79705810546874,0.0,0.0,0.0,-68.99396514892578
2025/05/06 15:20:46.788186157,1746537646,787879825,,227.4548034667969,-79.99467468261717,0.0,0.0,0.0,-69.43765258789065
2025/05/06 15:20:46.888328513,1746537646,887907773,,228.06126403808594,-80.03507995605466,0.0,0.0,0.0,-69.44121551513673
2025/05/06 15:20:46.988767210,1746537646,987911662,,228.66253662109375,-80.07514953613281,0.0,0.0,0.0,-69.44477844238286
2025/05/06 15:20:47.90148777,1746537647,88264270,,229.25868225097656,-80.1148681640625,0.0,0.0,0.0,-69.44834136962895
2025/05/06 15:20:47.189734084,1746537647,187894984,,229.84971618652344,-80.15425109863281,0.0,0.0,0.0,-69.45189666748048
2025/05/06 15:20:47.289680951,1746537647,287922891,,230.43568420410156,-80.19329071044922,0.0,0.0,0.0,-69.45544433593751
2025/05/06 15:20:47.390302860,1746537647,387907958,,231.0166473388672,-80.23200225830075,0.0,0.0,0.0,-69.45899200439455
2025/05/06 15:20:47.489505175,1746537647,487909836,,231.59263610839838,-80.27038574218747,0.0,0.0,0.0,-69.46253967285155
2025/05/06 15:20:47.590625076,1746537647,587892882,,232.16371154785156,-80.30843353271484,0.0,0.0,0.0,-69.46607208251955
2025/05/06 15:20:47.692382116,1746537647,690801971,,232.72988891601562,-80.34616088867185,0.0,0.0,0.0,-69.46961212158203
2025/05/06 15:20:47.788270286,1746537647,787897745,,225.62901306152344,-66.16459655761719,0.0,0.0,0.0,-73.92740631103517
2025/05/06 15:20:47.888224653,1746537647,887873119,,226.18540954589844,-66.20365905761716,0.0,0.0,0.0,-73.93111419677736
2025/05/06 15:20:47.988111598,1746537647,987879372,,226.73704528808594,-66.2423858642578,0.0,0.0,0.0,-73.934814453125
2025/05/06 15:20:48.91686593,1746537648,89093251,,227.28395080566406,-66.28078460693357,0.0,0.0,0.0,-73.93850708007812
2025/05/06 15:20:48.189391079,1746537648,187914514,,227.82618713378906,-66.3188552856445,0.0,0.0,0.0,-73.94219970703126
2025/05/06 15:20:48.291233780,1746537648,287900078,,228.36378479003906,-66.3565979003906,0.0,0.0,0.0,-73.94588470458986
2025/05/06 15:20:48.388187947,1746537648,387858970,,228.89677429199216,-66.39401245117186,0.0,0.0,0.0,-73.94956970214847
2025/05/06 15:20:48.489120139,1746537648,488500010,,229.42520141601562,-66.43111419677734,0.0,0.0,0.0,-73.95324707031254
2025/05/06 15:20:48.588967777,1746537648,587865246,,229.94911193847656,-66.46789550781249,0.0,0.0,0.0,-73.95692443847656
2025/05/06 15:20:48.688654850,1746537648,688380507,,230.46853637695307,-66.50436401367186,0.0,0.0,0.0,-73.96060180664062
2025/05/06 15:20:48.788278750,1746537648,787875447,,218.16883850097656,-75.21652221679685,0.0,0.0,0.0,-82.48184204101562
2025/05/06 15:20:48.888674342,1746537648,888020502,,218.6791534423828,-75.25594329833982,0.0,0.0,0.0,-82.48584747314455
2025/05/06 15:20:48.988543984,1746537648,987887213,,219.18508911132812,-75.29502868652341,0.0,0.0,0.0,-82.48986053466798
2025/05/06 15:20:49.90370104,1746537649,88580098,,219.68670654296875,-75.33377838134766,0.0,0.0,0.0,-82.49385833740239
2025/05/06 15:20:49.191069856,1746537649,188578819,,220.18402099609375,-75.37219238281247,0.0,0.0,0.0,-82.49786376953126
2025/05/06 15:20:49.290260285,1746537649,287995568,,220.6770782470703,-75.41028594970703,0.0,0.0,0.0,-82.50185394287111
2025/05/06 15:20:49.389277171,1746537649,387870620,,221.16592407226562,-75.44804382324213,0.0,0.0,0.0,-82.50585174560548
2025/05/06 15:20:49.489222530,1746537649,487854691,,221.65057373046875,-75.48548889160156,0.0,0.0,0.0,-82.5098342895508
2025/05/06 15:20:49.588718325,1746537649,587920156,,222.13107299804688,-75.5226058959961,0.0,0.0,0.0,-82.51382446289064
2025/05/06 15:20:49.688348985,1746537649,687964232,,222.6074676513672,-75.55941009521483,0.0,0.0,0.0,-82.51780700683595
2025/05/06 15:20:49.788283573,1746537649,787868280,,210.07232666015625,-89.51216888427732,0.0,0.0,0.0,-92.55769348144533
2025/05/06 15:20:49.890258862,1746537649,888139212,,210.540283203125,-89.55224609374999,0.0,0.0,0.0,-92.5620803833008
2025/05/06 15:20:49.988814496,1746537649,987881689,,211.0042266845703,-89.59198760986327,0.0,0.0,0.0,-92.56646728515625
2025/05/06 15:20:50.89139044,1746537650,87847596,,211.46420288085938,-89.63139343261719,0.0,0.0,0.0,-92.57084655761719
2025/05/06 15:20:50.189228641,1746537650,188514506,,211.9202423095703,-89.67045593261717,0.0,0.0,0.0,-92.57522583007814
2025/05/06 15:20:50.291786984,1746537650,289716092,,212.3723907470703,-89.7091827392578,0.0,0.0,0.0,-92.57959747314453
2025/05/06 15:20:50.388198175,1746537650,387890743,,212.82064819335938,-89.74758911132811,0.0,0.0,0.0,-92.58396911621094
2025/05/06 15:20:50.488688847,1746537650,487892291,,213.26507568359375,-89.78565979003903,0.0,0.0,0.0,-92.58833312988281
2025/05/06 15:20:50.588318213,1746537650,587862649,,213.70570373535156,-89.82340240478513,0.0,0.0,0.0,-92.59269714355469
2025/05/06 15:20:50.689000071,1746537650,687876420,,214.1425476074219,-89.86082458496091,0.0,0.0,0.0,-92.59706115722659
2025/05/06 15:20:50.790332987,1746537650,788465575,,208.02194213867185,-125.4752197265625,0.0,0.0,0.0,-101.16107177734378
2025/05/06 15:20:50.888964760,1746537650,887900473,,208.45106506347656,-125.51512908935547,0.0,0.0,0.0,-101.16577911376953
2025/05/06 15:20:50.989410359,1746537650,988150461,,208.87652587890625,-125.55469512939449,0.0,0.0,0.0,-101.17049407958984
2025/05/06 15:20:51.88597509,1746537651,87879955,,209.29832458496094,-125.5939254760742,0.0,0.0,0.0,-101.1751937866211
2025/05/06 15:20:51.190666793,1746537651,187882735,,209.71652221679688,-125.63282012939449,0.0,0.0,0.0,-101.17990112304688
2025/05/06 15:20:51.289058157,1746537651,287887846,,210.13114929199216,-125.67137908935544,0.0,0.0,0.0,-101.18459320068362
2025/05/06 15:20:51.388514616,1746537651,387979269,,210.54220581054688,-125.70961761474607,0.0,0.0,0.0,-101.18929290771486
2025/05/06 15:20:51.489173540,1746537651,487868656,,210.94975280761713,-125.74752044677732,0.0,0.0,0.0,-101.19398498535156
2025/05/06 15:20:51.591826713,1746537651,588321565,,211.35382080078125,-125.78511047363277,0.0,0.0,0.0,-101.19867706298828
2025/05/06 15:20:51.689096877,1746537651,687930028,,211.75440979003906,-125.82237243652341,0.0,0.0,0.0,-101.20336151123047
2025/05/06 15:20:51.788388835,1746537651,787995492,,207.67129516601562,-140.76974487304688,0.0,0.0,0.0,-108.07019042968751
2025/05/06 15:20:51.888244480,1746537651,887883011,,208.06483459472656,-140.80871582031247,0.0,0.0,0.0,-108.07516479492188
2025/05/06 15:20:51.988279245,1746537651,987887214,,208.45501708984372,-140.8473358154297,0.0,0.0,0.0,-108.08013916015628
2025/05/06 15:20:52.88259557,1746537652,87889065,,208.8418426513672,-140.8856506347656,0.0,0.0,0.0,-108.08510589599611
2025/05/06 15:20:52.189398871,1746537652,187954449,,209.22535705566406,-140.9236145019531,0.0,0.0,0.0,-108.09007263183595
2025/05/06 15:20:52.288053760,1746537652,287850907,,209.6055908203125,-140.96127319335935,0.0,0.0,0.0,-108.09503173828126
2025/05/06 15:20:52.388681180,1746537652,388088072,,209.98257446289062,-140.99859619140622,0.0,0.0,0.0,-108.09999084472658
2025/05/06 15:20:52.489655978,1746537652,488598105,,210.35632324218747,-141.03561401367188,0.0,0.0,0.0,-108.1049499511719
2025/05/06 15:20:52.588390647,1746537652,588017332,,210.72686767578125,-141.0723114013672,0.0,0.0,0.0,-108.10990142822266
2025/05/06 15:20:52.689102879,1746537652,687868128,,211.09425354003903,-141.10868835449216,0.0,0.0,0.0,-108.11485290527347
2025/05/06 15:20:52.789850688,1746537652,787976237,,207.3653564453125,-129.0889129638672,0.0,0.0,0.0,-104.16223144531251
2025/05/06 15:20:52.888919858,1746537652,888173976,,207.72657775878906,-129.12350463867188,0.0,0.0,0.0,-104.1670150756836
2025/05/06 15:20:52.994536717,1746537652,987886695,,208.08470153808594,-129.15779113769528,0.0,0.0,0.0,-104.17179107666016
2025/05/06 15:20:53.89927202,1746537653,89457261,,208.4397735595703,-129.19180297851557,0.0,0.0,0.0,-104.17657470703125
2025/05/06 15:20:53.190362230,1746537653,188743043,,208.7917938232422,-129.22550964355466,0.0,0.0,0.0,-104.18135070800781
2025/05/06 15:20:53.288149522,1746537653,287873474,,209.14079284667966,-129.25892639160153,0.0,0.0,0.0,-104.18611907958987
2025/05/06 15:20:53.389341507,1746537653,387968061,,209.48681640625,-129.2920684814453,0.0,0.0,0.0,-104.19088745117188
2025/05/06 15:20:53.489068900,1746537653,487885011,,209.8298797607422,-129.32492065429688,0.0,0.0,0.0,-104.19565582275392
2025/05/06 15:20:53.589320297,1746537653,588465024,,210.16998291015625,-129.3574981689453,0.0,0.0,0.0,-104.2004165649414
2025/05/06 15:20:53.689076180,1746537653,687888833,,210.5071868896484,-129.38978576660156,0.0,0.0,0.0,-104.20517730712893
2025/05/06 15:20:53.789234523,1746537653,787916463,,204.83580017089844,-95.58404541015621,0.0,0.0,0.0,-96.09370422363283
2025/05/06 15:20:53.889894658,1746537653,887901208,,205.16746520996094,-95.61350250244138,0.0,0.0,0.0,-96.09812164306642
2025/05/06 15:20:53.988607851,1746537653,987925599,,205.49627685546875,-95.64270019531247,0.0,0.0,0.0,-96.10253143310548
2025/05/06 15:20:54.89302579,1746537654,87877367,,205.8222808837891,-95.67165374755857,0.0,0.0,0.0,-96.10694122314456
