time,header_stamp_secs,header_stamp_nsecs,header_frame_id,wrench_force_x,wrench_force_y,wrench_force_z,wrench_torque_x,wrench_torque_y,wrench_torque_z
2025/05/06 15:20:03.432658883,1746537603,394001864,,-0.0,0.0,0.0,0.0,0.0,0.0
2025/05/06 15:20:03.489613367,1746537603,489291979,,-0.0,0.0,0.0,0.0,0.0,0.0
2025/05/06 15:20:03.589949598,1746537603,589664898,,-0.0,0.0,0.0,0.0,0.0,0.0
2025/05/06 15:20:03.690603087,1746537603,689855107,,-0.0,0.0,0.0,0.0,0.0,0.0
2025/05/06 15:20:03.788748305,1746537603,788121129,,-0.0,0.0,0.0,0.0,0.0,0.0
2025/05/06 15:20:03.891591395,1746537603,889942612,,-0.0,0.0,0.0,0.0,0.0,0.0
2025/05/06 15:20:04.4589560,1746537603,992657891,,-0.0,0.0,0.0,0.0,0.0,0.0
2025/05/06 15:20:04.91533371,1746537604,88088113,,-0.0,0.0,0.0,0.0,0.0,0.0
2025/05/06 15:20:04.192918820,1746537604,190090714,,-0.0,0.0,0.0,0.0,0.0,0.0
2025/05/06 15:20:04.293446371,1746537604,291800199,,-0.0,0.0,0.0,0.0,0.0,0.0
2025/05/06 15:20:04.389487987,1746537604,388590781,,-0.0,0.0,0.0,0.0,0.0,0.0
2025/05/06 15:20:04.504953732,1746537604,489561303,,-0.0,0.0,0.0,0.0,0.0,0.0
2025/05/06 15:20:04.639351815,1746537604,592232076,,-0.0,0.0,0.0,0.0,0.0,0.0
2025/05/06 15:20:04.704165027,1746537604,691244478,,-0.0,0.0,0.0,0.0,0.0,0.0
2025/05/06 15:20:04.790317120,1746537604,789272814,,-0.0,0.0,0.0,0.0,0.0,0.0
2025/05/06 15:20:04.890213601,1746537604,888125823,,-0.0,0.0,0.0,0.0,0.0,0.0
2025/05/06 15:20:05.331928254,1746537604,988454709,,-0.0,0.0,0.0,0.0,0.0,0.0
2025/05/06 15:20:05.336735707,1746537605,88110028,,-0.0,0.0,0.0,0.0,0.0,0.0
2025/05/06 15:20:05.340663364,1746537605,190081098,,-0.0,0.0,0.0,0.0,0.0,0.0
2025/05/06 15:20:05.349948674,1746537605,290917534,,-0.0,0.0,0.0,0.0,0.0,0.0
2025/05/06 15:20:05.391517455,1746537605,389225400,,-0.0,0.0,0.0,0.0,0.0,0.0
2025/05/06 15:20:05.489778093,1746537605,489173325,,-0.0,0.0,0.0,0.0,0.0,0.0
2025/05/06 15:20:05.596609982,1746537605,590357591,,-0.0,0.0,0.0,0.0,0.0,0.0
2025/05/06 15:20:05.692831425,1746537605,691263691,,-0.0,0.0,0.0,0.0,0.0,0.0
2025/05/06 15:20:05.788851928,1746537605,788625113,,-0.0,0.0,0.0,0.0,0.0,0.0
2025/05/06 15:20:05.892519135,1746537605,888054625,,-0.0,0.0,0.0,0.0,0.0,0.0
2025/05/06 15:20:06.5098157,1746537605,995043829,,-0.0,0.0,0.0,0.0,0.0,0.0
2025/05/06 15:20:06.97864104,1746537606,89184742,,-0.0,0.0,0.0,0.0,0.0,0.0
2025/05/06 15:20:06.199688511,1746537606,188482077,,-0.0,0.0,0.0,0.0,0.0,0.0
2025/05/06 15:20:06.321928691,1746537606,289647017,,-0.0,0.0,0.0,0.0,0.0,0.0
2025/05/06 15:20:06.443788717,1746537606,388937576,,-0.0,0.0,0.0,0.0,0.0,0.0
2025/05/06 15:20:06.500616830,1746537606,490804872,,-0.0,0.0,0.0,0.0,0.0,0.0
2025/05/06 15:20:06.618084692,1746537606,590863226,,-0.0,0.0,0.0,0.0,0.0,0.0
2025/05/06 15:20:06.818611867,1746537606,691563415,,-0.0,0.0,0.0,0.0,0.0,0.0
2025/05/06 15:20:06.861659764,1746537606,794200878,,-0.0,0.0,0.0,0.0,0.0,0.0
2025/05/06 15:20:06.938757292,1746537606,891354690,,-0.0,0.0,0.0,0.0,0.0,0.0
2025/05/06 15:20:07.86732308,1746537606,991736853,,-0.0,0.0,0.0,0.0,0.0,0.0
2025/05/06 15:20:07.146408894,1746537607,90650887,,-0.0,0.0,0.0,0.0,0.0,0.0
2025/05/06 15:20:07.208709812,1746537607,189050802,,-0.0,0.0,0.0,0.0,0.0,0.0
2025/05/06 15:20:07.299819587,1746537607,288350515,,-0.0,0.0,0.0,0.0,0.0,0.0
2025/05/06 15:20:07.487965052,1746537607,388581012,,2.220446049250313e-16,0.0,0.0,0.0,0.0,-2.220446049250313e-16
2025/05/06 15:20:07.594120598,1746537607,491403613,,2.220446049250313e-16,0.0,0.0,0.0,0.0,2.220446049250313e-16
2025/05/06 15:20:07.629668832,1746537607,591656546,,5.551115123125783e-16,0.0,0.0,0.0,0.0,-1.1102230246251565e-16
2025/05/06 15:20:07.691216372,1746537607,688073938,,2.220446049250313e-16,0.0,0.0,0.0,0.0,2.220446049250313e-16
2025/05/06 15:20:07.816347355,1746537607,790306046,,3.3306690738754696e-16,0.0,0.0,0.0,0.0,-3.3306690738754696e-16
2025/05/06 15:20:07.892497022,1746537607,892274487,,1.1102230246251565e-16,-8.881784197001252e-16,0.0,0.0,0.0,-1.1102230246251565e-16
2025/05/06 15:20:08.25007657,1746537607,989570882,,1.1102230246251565e-16,-8.881784197001252e-16,0.0,0.0,0.0,-1.1102230246251565e-16
2025/05/06 15:20:08.199139482,1746537608,90185024,,2.220446049250313e-16,0.0,0.0,0.0,0.0,-2.220446049250313e-16
2025/05/06 15:20:08.262598806,1746537608,190654548,,8.881784197001252e-16,-3.552713678800501e-15,0.0,0.0,0.0,-2.6645352591003757e-15
2025/05/06 15:20:08.355457160,1746537608,288847826,,8.881784197001252e-16,-7.105427357601002e-15,0.0,0.0,0.0,-8.881784197001252e-16
2025/05/06 15:20:08.413141673,1746537608,391379358,,8.881784197001252e-16,-7.105427357601002e-15,0.0,0.0,0.0,-8.881784197001252e-16
2025/05/06 15:20:08.587842779,1746537608,489752753,,1.7763568394002505e-15,-3.552713678800501e-15,0.0,0.0,0.0,0.0
2025/05/06 15:20:08.717360958,1746537608,588798267,,2.6645352591003757e-15,0.0,0.0,0.0,0.0,-2.6645352591003757e-15
2025/05/06 15:20:08.777368540,1746537608,688886231,,-8.881784197001252e-16,0.0,0.0,0.0,0.0,-2.6645352591003757e-15
2025/05/06 15:20:08.828195034,1746537608,788275169,,1.7763568394002505e-15,0.0,0.0,0.0,0.0,-1.7763568394002505e-15
2025/05/06 15:20:08.895368328,1746537608,892123390,,8.881784197001252e-16,-7.105427357601002e-15,0.0,0.0,0.0,8.881784197001252e-16
2025/05/06 15:20:08.992177646,1746537608,989628263,,2.6645352591003757e-15,-7.105427357601002e-15,0.0,0.0,0.0,-8.881784197001252e-16
2025/05/06 15:20:09.90970725,1746537609,89296365,,1.7763568394002505e-15,-3.552713678800501e-15,0.0,0.0,0.0,-3.552713678800501e-15
2025/05/06 15:20:09.193520266,1746537609,191277551,,8.881784197001252e-16,0.0,0.0,0.0,0.0,-8.881784197001252e-16
2025/05/06 15:20:09.290781337,1746537609,289400171,,0.0,0.0,0.0,0.0,0.0,1.7763568394002505e-15
2025/05/06 15:20:09.392457027,1746537609,388982924,,8.881784197001252e-16,-7.105427357601002e-15,0.0,0.0,0.0,8.881784197001252e-16
2025/05/06 15:20:09.488255725,1746537609,488036906,,3.552713678800501e-15,-3.552713678800501e-15,0.0,0.0,0.0,-1.7763568394002505e-15
2025/05/06 15:20:09.592026222,1746537609,589111565,,2.6645352591003757e-15,-7.105427357601002e-15,0.0,0.0,0.0,-8.881784197001252e-16
2025/05/06 15:20:09.694752344,1746537609,690396651,,2.6645352591003757e-15,-7.105427357601002e-15,0.0,0.0,0.0,-8.881784197001252e-16
2025/05/06 15:20:09.788529556,1746537609,788092386,,1.7763568394002505e-15,0.0,0.0,0.0,0.0,1.7763568394002505e-15
2025/05/06 15:20:09.893609605,1746537609,889805256,,2.6645352591003757e-15,0.0,0.0,0.0,0.0,-8.881784197001252e-16
2025/05/06 15:20:09.996901259,1746537609,989946975,,2.6645352591003757e-15,-7.105427357601002e-15,0.0,0.0,0.0,-8.881784197001252e-16
2025/05/06 15:20:10.91674554,1746537610,89220694,,0.0,-3.552713678800501e-15,0.0,0.0,0.0,-1.7763568394002505e-15
2025/05/06 15:20:10.198399079,1746537610,189606021,,-1.7763568394002505e-15,0.0,0.0,0.0,0.0,0.0
2025/05/06 15:20:10.289290196,1746537610,288363930,,4.440892098500626e-16,0.0,0.0,0.0,0.0,-4.440892098500626e-16
2025/05/06 15:20:10.391822690,1746537610,390589371,,4.440892098500626e-16,0.0,0.0,0.0,0.0,-4.440892098500626e-16
2025/05/06 15:20:10.491165214,1746537610,489494607,,0.0,0.0,0.0,0.0,0.0,0.0
2025/05/06 15:20:10.596229098,1746537610,592884079,,0.0,-1.7763568394002505e-15,0.0,0.0,0.0,-8.881784197001252e-16
2025/05/06 15:20:10.693506705,1746537610,691508244,,8.881784197001252e-16,-1.7763568394002505e-15,0.0,0.0,0.0,0.0
2025/05/06 15:20:10.794486364,1746537610,790154943,,4.440892098500626e-16,0.0,0.0,0.0,0.0,-4.440892098500626e-16
2025/05/06 15:20:10.891647303,1746537610,889366248,,4.440892098500626e-16,0.0,0.0,0.0,0.0,-4.440892098500626e-16
2025/05/06 15:20:11.152455,1746537610,988363318,,0.0,3.552713678800501e-15,0.0,0.0,0.0,0.0
2025/05/06 15:20:11.88993393,1746537611,88012980,,0.0,1.0658141036401503e-14,0.0,0.0,0.0,-7.105427357601002e-15
2025/05/06 15:20:11.189992554,1746537611,188077071,,0.0,-1.4210854715202004e-14,0.0,0.0,0.0,0.0
2025/05/06 15:20:11.289157264,1746537611,288083520,,0.0,-3.552713678800501e-15,0.0,0.0,0.0,0.0
2025/05/06 15:20:11.388981149,1746537611,388700243,,1.4210854715202004e-14,0.0,0.0,0.0,0.0,-1.4210854715202004e-14
2025/05/06 15:20:11.489090131,1746537611,488459669,,0.0,0.0,0.0,0.0,0.0,0.0
2025/05/06 15:20:11.590927312,1746537611,590646573,,1.4210854715202004e-14,3.552713678800501e-15,0.0,0.0,0.0,1.4210854715202004e-14
2025/05/06 15:20:11.688882718,1746537611,688365141,,0.0,0.0,0.0,0.0,0.0,0.0
2025/05/06 15:20:11.789568153,1746537611,788064220,,1.4210854715202004e-14,-1.4210854715202004e-14,0.0,0.0,0.0,-1.4210854715202004e-14
2025/05/06 15:20:11.888365410,1746537611,888067153,,1.4210854715202004e-14,3.552713678800501e-15,0.0,0.0,0.0,-1.4210854715202004e-14
2025/05/06 15:20:11.989628364,1746537611,988738366,,0.0,3.552713678800501e-15,0.0,0.0,0.0,0.0
2025/05/06 15:20:12.89267140,1746537612,88311533,,0.0,-1.0658141036401503e-14,0.0,0.0,0.0,0.0
2025/05/06 15:20:12.189503831,1746537612,188053313,,0.0,-3.552713678800501e-15,0.0,0.0,0.0,-1.4210854715202004e-14
2025/05/06 15:20:12.291306855,1746537612,288580313,,0.0,-7.105427357601002e-15,0.0,0.0,0.0,-1.4210854715202004e-14
2025/05/06 15:20:12.388233789,1746537612,388033059,,0.0,7.105427357601002e-15,0.0,0.0,0.0,0.0
2025/05/06 15:20:12.489563202,1746537612,489208711,,0.0,7.105427357601002e-15,0.0,0.0,0.0,0.0
2025/05/06 15:20:12.588840612,1746537612,588213681,,0.0,-1.0658141036401503e-14,0.0,0.0,0.0,0.0
2025/05/06 15:20:12.691888773,1746537612,690615035,,0.0,0.0,0.0,0.0,0.0,0.0
2025/05/06 15:20:12.790180223,1746537612,788167187,,0.0,-3.552713678800501e-15,0.0,0.0,0.0,0.0
2025/05/06 15:20:12.890157451,1746537612,888158120,,0.0,0.0,0.0,0.0,0.0,0.0
2025/05/06 15:20:12.988648862,1746537612,988089377,,0.0,0.0,0.0,0.0,0.0,0.0
2025/05/06 15:20:13.88766278,1746537613,88216744,,0.0,0.0,0.0,0.0,0.0,0.0
2025/05/06 15:20:13.188896378,1746537613,188420788,,0.0,1.4210854715202004e-14,0.0,0.0,0.0,0.0
2025/05/06 15:20:13.289872847,1746537613,288375554,,0.0,0.0,0.0,0.0,0.0,0.0
2025/05/06 15:20:13.388294654,1746537613,388084801,,0.0,1.4210854715202004e-14,0.0,0.0,0.0,0.0
2025/05/06 15:20:13.489617152,1746537613,488460843,,0.0,0.0,0.0,0.0,0.0,0.0
2025/05/06 15:20:13.588411526,1746537613,588060158,,0.0,0.0,0.0,0.0,0.0,0.0
2025/05/06 15:20:13.689040157,1746537613,688052830,,0.0,7.105427357601002e-15,0.0,0.0,0.0,0.0
2025/05/06 15:20:13.789792860,1746537613,788089516,,0.0,-1.4210854715202004e-14,0.0,0.0,0.0,0.0
2025/05/06 15:20:13.890460132,1746537613,890153357,,0.0,7.105427357601002e-15,0.0,0.0,0.0,0.0
2025/05/06 15:20:13.991508932,1746537613,988843942,,0.0,0.0,0.0,0.0,0.0,0.0
2025/05/06 15:20:14.89166273,1746537614,88065252,,0.0,7.105427357601002e-15,0.0,0.0,0.0,0.0
2025/05/06 15:20:14.193195232,1746537614,189659060,,0.0,7.105427357601002e-15,0.0,0.0,0.0,0.0
2025/05/06 15:20:14.288685666,1746537614,288159758,,0.0,0.0,0.0,0.0,0.0,0.0
2025/05/06 15:20:14.388906417,1746537614,388217241,,0.0,0.0,0.0,0.0,0.0,-1.4210854715202004e-14
2025/05/06 15:20:14.489187538,1746537614,488135678,,0.0,1.4210854715202004e-14,0.0,0.0,0.0,0.0
2025/05/06 15:20:14.589896411,1746537614,588330931,,0.0,0.0,0.0,0.0,0.0,-1.4210854715202004e-14
2025/05/06 15:20:14.689071024,1746537614,688118334,,0.0,-2.1316282072803006e-14,0.0,0.0,0.0,-1.4210854715202004e-14
2025/05/06 15:20:14.789421547,1746537614,788781314,,0.0,-1.4210854715202004e-14,0.0,0.0,0.0,0.0
2025/05/06 15:20:14.892738560,1746537614,888242146,,0.0,1.4210854715202004e-14,0.0,0.0,0.0,0.0
2025/05/06 15:20:14.990688264,1746537614,988306833,,-2.842170943040401e-14,-1.4210854715202004e-14,0.0,0.0,0.0,-2.842170943040401e-14
2025/05/06 15:20:15.88415881,1746537615,88086108,,2.842170943040401e-14,0.0,0.0,0.0,0.0,0.0
2025/05/06 15:20:15.191823706,1746537615,188873934,,2.842170943040401e-14,-1.4210854715202004e-14,0.0,0.0,0.0,-2.842170943040401e-14
2025/05/06 15:20:15.289501213,1746537615,288623397,,0.0,2.1316282072803006e-14,0.0,0.0,0.0,1.4210854715202004e-14
2025/05/06 15:20:15.389566679,1746537615,388461648,,2.842170943040401e-14,1.4210854715202004e-14,0.0,0.0,0.0,2.842170943040401e-14
2025/05/06 15:20:15.489463362,1746537615,488010176,,0.0,-7.105427357601002e-15,0.0,0.0,0.0,1.4210854715202004e-14
2025/05/06 15:20:15.588328555,1746537615,588097854,,0.0,-7.105427357601002e-15,0.0,0.0,0.0,1.4210854715202004e-14
2025/05/06 15:20:15.690145358,1746537615,688548199,,0.0,7.105427357601002e-15,0.0,0.0,0.0,-1.4210854715202004e-14
2025/05/06 15:20:15.789777190,1746537615,788144601,,2.842170943040401e-14,-1.4210854715202004e-14,0.0,0.0,0.0,2.842170943040401e-14
2025/05/06 15:20:15.890579397,1746537615,888017107,,0.0,-2.842170943040401e-14,0.0,0.0,0.0,1.4210854715202004e-14
2025/05/06 15:20:15.988844871,1746537615,988174264,,0.0,1.4210854715202004e-14,0.0,0.0,0.0,0.0
2025/05/06 15:20:16.89422283,1746537616,88087349,,0.0,-7.105427357601002e-15,0.0,0.0,0.0,0.0
2025/05/06 15:20:16.190091074,1746537616,188967781,,2.842170943040401e-14,0.0,0.0,0.0,0.0,0.0
2025/05/06 15:20:16.289767460,1746537616,288074267,,0.0,7.105427357601002e-15,0.0,0.0,0.0,-1.4210854715202004e-14
2025/05/06 15:20:16.391988946,1746537616,388347253,,0.0,0.0,0.0,0.0,0.0,-1.4210854715202004e-14
2025/05/06 15:20:16.494472921,1746537616,489330140,,0.0,1.4210854715202004e-14,0.0,0.0,0.0,0.0
2025/05/06 15:20:16.588646899,1746537616,588138582,,0.0,1.4210854715202004e-14,0.0,0.0,0.0,0.0
2025/05/06 15:20:16.688274664,1746537616,688037073,,0.0,-7.105427357601002e-15,0.0,0.0,0.0,1.4210854715202004e-14
2025/05/06 15:20:16.789757087,1746537616,788769507,,0.0,1.4210854715202004e-14,0.0,0.0,0.0,0.0
2025/05/06 15:20:16.891627248,1746537616,889208990,,0.0,7.105427357601002e-15,0.0,0.0,0.0,-1.4210854715202004e-14
2025/05/06 15:20:16.990970044,1746537616,988320146,,0.0,1.4210854715202004e-14,0.0,0.0,0.0,0.0
2025/05/06 15:20:17.88279785,1746537617,87990404,,0.0,1.4210854715202004e-14,0.0,0.0,0.0,0.0
2025/05/06 15:20:17.196491723,1746537617,188148569,,0.0,7.105427357601002e-15,0.0,0.0,0.0,0.0
2025/05/06 15:20:17.288204658,1746537617,288013640,,0.0,0.0,0.0,0.0,0.0,1.4210854715202004e-14
2025/05/06 15:20:17.388692393,1746537617,388331905,,0.0,-1.4210854715202004e-14,0.0,0.0,0.0,0.0
2025/05/06 15:20:17.491631053,1746537617,488352207,,0.0,0.0,0.0,0.0,0.0,-1.4210854715202004e-14
2025/05/06 15:20:17.590509759,1746537617,588105332,,0.0,-1.4210854715202004e-14,0.0,0.0,0.0,0.0
2025/05/06 15:20:17.688219638,1746537617,687992945,,0.0,0.0,0.0,0.0,0.0,0.0
2025/05/06 15:20:17.788783396,1746537617,788148332,,0.0,7.105427357601002e-15,0.0,0.0,0.0,1.4210854715202004e-14
2025/05/06 15:20:17.892008858,1746537617,890733092,,2.842170943040401e-14,7.105427357601002e-15,0.0,0.0,0.0,-2.842170943040401e-14
2025/05/06 15:20:17.990766766,1746537617,989061945,,0.0,7.105427357601002e-15,0.0,0.0,0.0,0.0
2025/05/06 15:20:18.88327956,1746537618,88013411,,0.0,0.0,0.0,0.0,0.0,0.0
2025/05/06 15:20:18.191527374,1746537618,188662774,,0.0,7.105427357601002e-15,0.0,0.0,0.0,0.0
2025/05/06 15:20:18.290807829,1746537618,289653459,,0.0,1.4210854715202004e-14,0.0,0.0,0.0,0.0
2025/05/06 15:20:18.388284126,1746537618,388027405,,-2.842170943040401e-14,0.0,0.0,0.0,0.0,2.842170943040401e-14
2025/05/06 15:20:18.490347401,1746537618,488033160,,0.0,1.4210854715202004e-14,0.0,0.0,0.0,0.0
2025/05/06 15:20:18.588912342,1746537618,588012202,,0.0,1.4210854715202004e-14,0.0,0.0,0.0,0.0
2025/05/06 15:20:18.688243120,1746537618,688024152,,-2.842170943040401e-14,-1.4210854715202004e-14,0.0,0.0,0.0,2.842170943040401e-14
2025/05/06 15:20:18.789606457,1746537618,788416137,,0.0,-7.105427357601002e-15,0.0,0.0,0.0,0.0
2025/05/06 15:20:18.889026957,1746537618,888090902,,0.0,-1.4210854715202004e-14,0.0,0.0,0.0,0.0
2025/05/06 15:20:18.990733275,1746537618,988037481,,0.0,7.105427357601002e-15,0.0,0.0,0.0,0.0
2025/05/06 15:20:19.89038566,1746537619,88052667,,0.0,1.4210854715202004e-14,0.0,0.0,0.0,1.4210854715202004e-14
2025/05/06 15:20:19.193833603,1746537619,188812872,,0.0,0.0,0.0,0.0,0.0,0.0
2025/05/06 15:20:19.289233415,1746537619,288183546,,2.842170943040401e-14,2.842170943040401e-14,0.0,0.0,0.0,0.0
2025/05/06 15:20:19.389156984,1746537619,388059065,,0.0,-7.105427357601002e-15,0.0,0.0,0.0,0.0
2025/05/06 15:20:19.488330612,1746537619,488027848,,2.842170943040401e-14,7.105427357601002e-15,0.0,0.0,0.0,-2.842170943040401e-14
2025/05/06 15:20:19.589913406,1746537619,588075976,,0.0,1.4210854715202004e-14,0.0,0.0,0.0,0.0
2025/05/06 15:20:19.688233664,1746537619,688031571,,-2.842170943040401e-14,0.0,0.0,0.0,0.0,2.842170943040401e-14
2025/05/06 15:20:19.791063364,1746537619,788605064,,0.0,2.842170943040401e-14,0.0,0.0,0.0,0.0
2025/05/06 15:20:19.889586595,1746537619,888166050,,0.0,1.4210854715202004e-14,0.0,0.0,0.0,-2.842170943040401e-14
2025/05/06 15:20:19.988886723,1746537619,988275801,,0.0,7.105427357601002e-15,0.0,0.0,0.0,-2.842170943040401e-14
2025/05/06 15:20:20.88330305,1746537620,88048704,,0.0,-1.4210854715202004e-14,0.0,0.0,0.0,0.0
2025/05/06 15:20:20.190203734,1746537620,189004702,,0.0,0.0,0.0,0.0,0.0,0.0
2025/05/06 15:20:20.288273213,1746537620,288024006,,0.0,0.0,0.0,0.0,0.0,0.0
2025/05/06 15:20:20.389343539,1746537620,388140363,,0.0,-7.105427357601002e-15,0.0,0.0,0.0,0.0
2025/05/06 15:20:20.488937031,1746537620,488072304,,0.0,-7.105427357601002e-15,0.0,0.0,0.0,-2.842170943040401e-14
2025/05/06 15:20:20.588523335,1746537620,588130643,,0.0,0.0,0.0,0.0,0.0,0.0
2025/05/06 15:20:20.688360307,1746537620,688039769,,0.0,0.0,0.0,0.0,0.0,0.0
2025/05/06 15:20:20.788620030,1746537620,788146286,,0.0,0.0,0.0,0.0,0.0,0.0
2025/05/06 15:20:20.888349545,1746537620,888087622,,0.0,-2.842170943040401e-14,0.0,0.0,0.0,0.0
2025/05/06 15:20:20.988980437,1746537620,988010493,,0.0,2.842170943040401e-14,0.0,0.0,0.0,0.0
2025/05/06 15:20:21.89226783,1746537621,88114474,,0.0,1.4210854715202004e-14,0.0,0.0,0.0,0.0
2025/05/06 15:20:21.191160008,1746537621,188757482,,0.0,0.0,0.0,0.0,0.0,-2.842170943040401e-14
2025/05/06 15:20:21.288291622,1746537621,288010260,,0.0,0.0,0.0,0.0,0.0,-2.842170943040401e-14
2025/05/06 15:20:21.396888650,1746537621,388012150,,0.0,0.0,0.0,0.0,0.0,0.0
2025/05/06 15:20:21.488914364,1746537621,487980678,,0.0,-2.842170943040401e-14,0.0,0.0,0.0,-2.842170943040401e-14
2025/05/06 15:20:21.589068040,1746537621,587989204,,0.0,-2.842170943040401e-14,0.0,0.0,0.0,2.842170943040401e-14
2025/05/06 15:20:21.689260339,1746537621,688711472,,0.0,0.0,0.0,0.0,0.0,0.0
2025/05/06 15:20:21.792656405,1746537621,788566728,,0.0,0.0,0.0,0.0,0.0,0.0
2025/05/06 15:20:21.890442580,1746537621,888179291,,0.0,-1.4210854715202004e-14,0.0,0.0,0.0,-2.842170943040401e-14
2025/05/06 15:20:21.991345061,1746537621,988197609,,0.0,0.0,0.0,0.0,0.0,0.0
2025/05/06 15:20:22.90049037,1746537622,88035928,,0.0,-2.842170943040401e-14,0.0,0.0,0.0,2.842170943040401e-14
2025/05/06 15:20:22.190102458,1746537622,188068697,,0.0,0.0,0.0,0.0,0.0,0.0
2025/05/06 15:20:22.288887509,1746537622,288421903,,0.0,-1.4210854715202004e-14,0.0,0.0,0.0,0.0
2025/05/06 15:20:22.388354004,1746537622,388103601,,0.0,-1.4210854715202004e-14,0.0,0.0,0.0,0.0
2025/05/06 15:20:22.489079717,1746537622,488076281,,0.0,0.0,0.0,0.0,0.0,0.0
2025/05/06 15:20:22.592827820,1746537622,590201100,,0.0,1.4210854715202004e-14,0.0,0.0,0.0,0.0
2025/05/06 15:20:22.694288385,1746537622,688319511,,0.0,0.0,0.0,0.0,0.0,0.0
2025/05/06 15:20:22.791638986,1746537622,788049807,,0.0,0.0,0.0,0.0,0.0,0.0
2025/05/06 15:20:22.893834900,1746537622,893165221,,0.0,0.0,0.0,0.0,0.0,0.0
2025/05/06 15:20:22.988783945,1746537622,988120408,,0.0,1.4210854715202004e-14,0.0,0.0,0.0,0.0
2025/05/06 15:20:23.88654129,1746537623,88091008,,0.0,-2.842170943040401e-14,0.0,0.0,0.0,0.0
2025/05/06 15:20:23.190883745,1746537623,190573065,,0.0,0.0,0.0,0.0,0.0,0.0
2025/05/06 15:20:23.288511930,1746537623,288108110,,0.0,1.4210854715202004e-14,0.0,0.0,0.0,0.0
2025/05/06 15:20:23.389700314,1746537623,388150064,,0.0,-1.4210854715202004e-14,0.0,0.0,0.0,0.0
2025/05/06 15:20:23.489724103,1746537623,488139899,,0.0,-1.4210854715202004e-14,0.0,0.0,0.0,0.0
2025/05/06 15:20:23.588457024,1746537623,588196961,,0.0,-1.4210854715202004e-14,0.0,0.0,0.0,0.0
2025/05/06 15:20:23.690327061,1746537623,688126329,,0.0,1.4210854715202004e-14,0.0,0.0,0.0,2.842170943040401e-14
2025/05/06 15:20:23.789625490,1746537623,788041107,,5.684341886080802e-14,0.0,0.0,0.0,0.0,-5.684341886080802e-14
2025/05/06 15:20:23.888424765,1746537623,888058708,,0.0,0.0,0.0,0.0,0.0,0.0
2025/05/06 15:20:23.989141293,1746537623,988473041,,1.1368683772161603e-13,1.4210854715202004e-14,0.0,0.0,0.0,-2.842170943040401e-14
2025/05/06 15:20:24.88389226,1746537624,88213718,,0.0,-1.4210854715202004e-14,0.0,0.0,0.0,0.0
2025/05/06 15:20:24.188651320,1746537624,188074229,,0.0,0.0,0.0,0.0,0.0,0.0
2025/05/06 15:20:24.290055123,1746537624,288097942,,0.0,0.0,0.0,0.0,0.0,2.842170943040401e-14
2025/05/06 15:20:24.402683664,1746537624,391740549,,0.0,-2.842170943040401e-14,0.0,0.0,0.0,0.0
2025/05/06 15:20:24.488560087,1746537624,488045129,,0.0,0.0,0.0,0.0,0.0,2.842170943040401e-14
2025/05/06 15:20:24.588255711,1746537624,588018979,,0.0,-1.4210854715202004e-14,0.0,0.0,0.0,-2.842170943040401e-14
2025/05/06 15:20:24.689237012,1746537624,688032835,,5.684341886080802e-14,2.842170943040401e-14,0.0,0.0,0.0,5.684341886080802e-14
2025/05/06 15:20:24.790089111,1746537624,789517171,,0.0,0.0,0.0,0.0,0.0,2.842170943040401e-14
2025/05/06 15:20:24.888413255,1746537624,888048667,,0.0,0.0,0.0,0.0,0.0,2.842170943040401e-14
2025/05/06 15:20:24.992278962,1746537624,988044734,,5.684341886080802e-14,0.0,0.0,0.0,0.0,0.0
2025/05/06 15:20:25.89096101,1746537625,88844352,,5.684341886080802e-14,1.4210854715202004e-14,0.0,0.0,0.0,5.684341886080802e-14
2025/05/06 15:20:25.188279801,1746537625,188009290,,0.0,2.842170943040401e-14,0.0,0.0,0.0,0.0
2025/05/06 15:20:25.289181539,1746537625,287995667,,0.0,1.4210854715202004e-14,0.0,0.0,0.0,0.0
2025/05/06 15:20:25.388283905,1746537625,388021885,,0.0,2.842170943040401e-14,0.0,0.0,0.0,0.0
2025/05/06 15:20:25.488881786,1746537625,488297491,,0.0,0.0,0.0,0.0,0.0,2.842170943040401e-14
2025/05/06 15:20:25.591621859,1746537625,590185692,,5.684341886080802e-14,-2.842170943040401e-14,0.0,0.0,0.0,-5.684341886080802e-14
2025/05/06 15:20:25.690661044,1746537625,688070822,,0.0,-2.842170943040401e-14,0.0,0.0,0.0,0.0
2025/05/06 15:20:25.791250105,1746537625,789177052,,0.0,0.0,0.0,0.0,0.0,-2.842170943040401e-14
2025/05/06 15:20:25.889385249,1746537625,888280003,,0.0,-2.842170943040401e-14,0.0,0.0,0.0,0.0
2025/05/06 15:20:25.989439544,1746537625,988073574,,5.684341886080802e-14,0.0,0.0,0.0,0.0,0.0
2025/05/06 15:20:26.89437020,1746537626,88067442,,0.0,0.0,0.0,0.0,0.0,2.842170943040401e-14
2025/05/06 15:20:26.189001684,1746537626,188005436,,0.0,0.0,0.0,0.0,0.0,2.842170943040401e-14
2025/05/06 15:20:26.294730349,1746537626,291422592,,0.0,1.4210854715202004e-14,0.0,0.0,0.0,0.0
2025/05/06 15:20:26.388182506,1746537626,388008848,,0.0,-1.4210854715202004e-14,0.0,0.0,0.0,2.842170943040401e-14
2025/05/06 15:20:26.488979287,1746537626,488149063,,0.0,-2.842170943040401e-14,0.0,0.0,0.0,0.0
2025/05/06 15:20:26.589547469,1746537626,588220098,,0.0,-2.842170943040401e-14,0.0,0.0,0.0,0.0
2025/05/06 15:20:26.689512868,1746537626,688736947,,0.0,-1.4210854715202004e-14,0.0,0.0,0.0,-2.842170943040401e-14
2025/05/06 15:20:26.788548045,1746537626,788101556,,0.0,1.4210854715202004e-14,0.0,0.0,0.0,0.0
2025/05/06 15:20:26.890776138,1746537626,889141378,,0.0,-4.263256414560601e-14,0.0,0.0,0.0,2.842170943040401e-14
2025/05/06 15:20:26.990487309,1746537626,989612201,,0.0,-2.842170943040401e-14,0.0,0.0,0.0,0.0
2025/05/06 15:20:27.91232569,1746537627,88162069,,0.0,-2.842170943040401e-14,0.0,0.0,0.0,0.0
2025/05/06 15:20:27.189464679,1746537627,188233223,,0.0,0.0,0.0,0.0,0.0,0.0
2025/05/06 15:20:27.288592234,1746537627,288106040,,0.0,0.0,0.0,0.0,0.0,0.0
2025/05/06 15:20:27.390365843,1746537627,388100292,,0.0,-2.842170943040401e-14,0.0,0.0,0.0,0.0
2025/05/06 15:20:27.488990232,1746537627,488454247,,0.0,1.4210854715202004e-14,0.0,0.0,0.0,-2.842170943040401e-14
2025/05/06 15:20:27.588463987,1746537627,588072108,,0.0,-2.842170943040401e-14,0.0,0.0,0.0,0.0
2025/05/06 15:20:27.689164910,1746537627,688571666,,0.0,0.0,0.0,0.0,0.0,0.0
2025/05/06 15:20:27.788227511,1746537627,788030942,,0.0,1.4210854715202004e-14,0.0,0.0,0.0,0.0
2025/05/06 15:20:27.892446315,1746537627,890170328,,0.0,0.0,0.0,0.0,0.0,-2.842170943040401e-14
2025/05/06 15:20:27.988548949,1746537627,988025423,,0.0,1.4210854715202004e-14,0.0,0.0,0.0,-2.842170943040401e-14
2025/05/06 15:20:28.89777564,1746537628,89578268,,5.684341886080802e-14,2.842170943040401e-14,0.0,0.0,0.0,5.684341886080802e-14
2025/05/06 15:20:28.189587333,1746537628,189013302,,0.0,2.842170943040401e-14,0.0,0.0,0.0,0.0
2025/05/06 15:20:28.288473907,1746537628,288118627,,0.0,2.842170943040401e-14,0.0,0.0,0.0,0.0
2025/05/06 15:20:28.388543496,1746537628,388288772,,0.0,-2.842170943040401e-14,0.0,0.0,0.0,0.0
2025/05/06 15:20:28.490918547,1746537628,488275899,,0.0,-2.842170943040401e-14,0.0,0.0,0.0,0.0
2025/05/06 15:20:28.588330258,1746537628,588085864,,0.0,0.0,0.0,0.0,0.0,-2.842170943040401e-14
2025/05/06 15:20:28.689860986,1746537628,688179635,,0.0,4.263256414560601e-14,0.0,0.0,0.0,-2.842170943040401e-14
2025/05/06 15:20:28.788317048,1746537628,788095403,,0.0,-2.842170943040401e-14,0.0,0.0,0.0,0.0
2025/05/06 15:20:28.890158213,1746537628,889784165,,0.0,-1.4210854715202004e-14,0.0,0.0,0.0,0.0
2025/05/06 15:20:28.989620646,1746537628,988568092,,0.0,2.842170943040401e-14,0.0,0.0,0.0,0.0
2025/05/06 15:20:29.89824949,1746537629,88011652,,5.684341886080802e-14,-1.4210854715202004e-14,0.0,0.0,0.0,5.684341886080802e-14
2025/05/06 15:20:29.194466976,1746537629,190184821,,0.0,0.0,0.0,0.0,0.0,-2.842170943040401e-14
2025/05/06 15:20:29.290738314,1746537629,288119523,,0.0,1.4210854715202004e-14,0.0,0.0,0.0,0.0
2025/05/06 15:20:29.388324349,1746537629,388035371,,0.0,-2.842170943040401e-14,0.0,0.0,0.0,0.0
2025/05/06 15:20:29.490367875,1746537629,489514937,,5.684341886080802e-14,1.4210854715202004e-14,0.0,0.0,0.0,-5.684341886080802e-14
2025/05/06 15:20:29.589503215,1746537629,588047236,,5.684341886080802e-14,-1.4210854715202004e-14,0.0,0.0,0.0,-5.684341886080802e-14
2025/05/06 15:20:29.690300319,1746537629,689618198,,0.0,-1.4210854715202004e-14,0.0,0.0,0.0,0.0
2025/05/06 15:20:29.789619090,1746537629,788111590,,0.0,-2.842170943040401e-14,0.0,0.0,0.0,0.0
2025/05/06 15:20:29.890593545,1746537629,889841465,,0.0,-1.4210854715202004e-14,0.0,0.0,0.0,0.0
2025/05/06 15:20:29.989706444,1746537629,988034702,,0.0,-1.4210854715202004e-14,0.0,0.0,0.0,0.0
2025/05/06 15:20:30.89258162,1746537630,88066980,,0.0,-1.4210854715202004e-14,0.0,0.0,0.0,0.0
2025/05/06 15:20:30.190174583,1746537630,188209610,,0.0,1.4210854715202004e-14,0.0,0.0,0.0,0.0
2025/05/06 15:20:30.289077907,1746537630,288039253,,0.0,1.4210854715202004e-14,0.0,0.0,0.0,0.0
2025/05/06 15:20:30.389873853,1746537630,388461087,,0.0,4.263256414560601e-14,0.0,0.0,0.0,2.842170943040401e-14
2025/05/06 15:20:30.489831021,1746537630,488515856,,0.0,0.0,0.0,0.0,0.0,-2.842170943040401e-14
2025/05/06 15:20:30.589116542,1746537630,588051528,,0.0,0.0,0.0,0.0,0.0,2.842170943040401e-14
2025/05/06 15:20:30.689504815,1746537630,688072099,,0.0,2.842170943040401e-14,0.0,0.0,0.0,0.0
2025/05/06 15:20:30.791055219,1746537630,790711794,,0.0,1.4210854715202004e-14,0.0,0.0,0.0,0.0
2025/05/06 15:20:30.889147823,1746537630,888712198,,0.0,0.0,0.0,0.0,0.0,-2.842170943040401e-14
2025/05/06 15:20:30.989360177,1746537630,988279941,,0.0,4.263256414560601e-14,0.0,0.0,0.0,2.842170943040401e-14
2025/05/06 15:20:31.90392829,1746537631,89326980,,0.0,0.0,0.0,0.0,0.0,-2.842170943040401e-14
2025/05/06 15:20:31.190237370,1746537631,188026543,,0.0,4.263256414560601e-14,0.0,0.0,0.0,-2.842170943040401e-14
2025/05/06 15:20:31.288369948,1746537631,288098624,,0.0,1.4210854715202004e-14,0.0,0.0,0.0,2.842170943040401e-14
2025/05/06 15:20:31.388601314,1746537631,388127975,,0.0,-2.842170943040401e-14,0.0,0.0,0.0,-2.842170943040401e-14
2025/05/06 15:20:31.488427529,1746537631,488026091,,0.0,2.842170943040401e-14,0.0,0.0,0.0,0.0
2025/05/06 15:20:31.589612341,1746537631,588212883,,0.0,2.842170943040401e-14,0.0,0.0,0.0,0.0
2025/05/06 15:20:31.689160212,1746537631,688082085,,5.684341886080802e-14,2.842170943040401e-14,0.0,0.0,0.0,-5.684341886080802e-14
2025/05/06 15:20:31.790491092,1746537631,789402232,,0.0,-2.842170943040401e-14,0.0,0.0,0.0,0.0
2025/05/06 15:20:31.890319427,1746537631,888068784,,0.0,1.4210854715202004e-14,0.0,0.0,0.0,0.0
2025/05/06 15:20:31.988540203,1746537631,988099223,,0.0,2.842170943040401e-14,0.0,0.0,0.0,0.0
2025/05/06 15:20:32.89400282,1746537632,88383497,,0.0,0.0,0.0,0.0,0.0,-2.842170943040401e-14
2025/05/06 15:20:32.188678613,1746537632,188044605,,0.0,0.0,0.0,0.0,0.0,-2.842170943040401e-14
2025/05/06 15:20:32.288265286,1746537632,288047196,,0.0,0.0,0.0,0.0,0.0,-2.842170943040401e-14
2025/05/06 15:20:32.389863450,1746537632,388831656,,0.0,1.4210854715202004e-14,0.0,0.0,0.0,0.0
2025/05/06 15:20:32.489366773,1746537632,488034686,,0.0,-1.4210854715202004e-14,0.0,0.0,0.0,-2.842170943040401e-14
2025/05/06 15:20:32.589264093,1746537632,588242431,,0.0,0.0,0.0,0.0,0.0,-2.842170943040401e-14
2025/05/06 15:20:32.688374740,1746537632,688143313,,0.0,-2.842170943040401e-14,0.0,0.0,0.0,0.0
2025/05/06 15:20:32.790779096,1746537632,788069797,,0.0,-1.4210854715202004e-14,0.0,0.0,0.0,2.842170943040401e-14
2025/05/06 15:20:32.889700950,1746537632,888107557,,0.0,-1.4210854715202004e-14,0.0,0.0,0.0,0.0
2025/05/06 15:20:32.990034296,1746537632,988584472,,0.0,1.4210854715202004e-14,0.0,0.0,0.0,0.0
2025/05/06 15:20:33.88579553,1746537633,88073505,,0.0,2.842170943040401e-14,0.0,0.0,0.0,0.0
2025/05/06 15:20:33.194363886,1746537633,189840493,,0.0,-4.263256414560601e-14,0.0,0.0,0.0,0.0
2025/05/06 15:20:33.289156984,1746537633,288110847,,0.0,0.0,0.0,0.0,0.0,2.842170943040401e-14
2025/05/06 15:20:33.389116368,1746537633,388386328,,0.0,1.4210854715202004e-14,0.0,0.0,0.0,0.0
2025/05/06 15:20:33.489592283,1746537633,488080085,,0.0,2.842170943040401e-14,0.0,0.0,0.0,0.0
2025/05/06 15:20:33.588787644,1746537633,588125908,,0.0,-4.263256414560601e-14,0.0,0.0,0.0,2.842170943040401e-14
2025/05/06 15:20:33.691103924,1746537633,688035802,,0.0,4.263256414560601e-14,0.0,0.0,0.0,0.0
2025/05/06 15:20:33.789381018,1746537633,789155325,,0.0,0.0,0.0,0.0,0.0,-2.842170943040401e-14
2025/05/06 15:20:33.888293007,1746537633,888055637,,0.0,1.4210854715202004e-14,0.0,0.0,0.0,0.0
2025/05/06 15:20:33.990271887,1746537633,989058743,,0.0,0.0,0.0,0.0,0.0,2.842170943040401e-14
2025/05/06 15:20:34.90518170,1746537634,89375484,,0.0,1.4210854715202004e-14,0.0,0.0,0.0,0.0
2025/05/06 15:20:34.189757441,1746537634,188025192,,0.0,-1.4210854715202004e-14,0.0,0.0,0.0,0.0
2025/05/06 15:20:34.288358526,1746537634,288064203,,0.0,-1.4210854715202004e-14,0.0,0.0,0.0,2.842170943040401e-14
2025/05/06 15:20:34.388780941,1746537634,388373338,,0.0,1.4210854715202004e-14,0.0,0.0,0.0,-2.842170943040401e-14
2025/05/06 15:20:34.490104167,1746537634,488075479,,0.0,-2.842170943040401e-14,0.0,0.0,0.0,0.0
2025/05/06 15:20:34.592823905,1746537634,591645267,,0.0,-2.842170943040401e-14,0.0,0.0,0.0,0.0
2025/05/06 15:20:34.690532044,1746537634,688111177,,0.0,-1.4210854715202004e-14,0.0,0.0,0.0,0.0
2025/05/06 15:20:34.788956254,1746537634,788273152,,0.0,2.842170943040401e-14,0.0,0.0,0.0,0.0
2025/05/06 15:20:34.890860544,1746537634,888840040,,0.0,0.0,0.0,0.0,0.0,0.0
2025/05/06 15:20:34.990038482,1746537634,988745074,,0.0,-2.842170943040401e-14,0.0,0.0,0.0,0.0
2025/05/06 15:20:35.89176197,1746537635,88012338,,0.0,1.4210854715202004e-14,0.0,0.0,0.0,0.0
2025/05/06 15:20:35.190012197,1746537635,188115805,,0.0,0.0,0.0,0.0,0.0,0.0
2025/05/06 15:20:35.288245715,1746537635,288034680,,0.0,-1.4210854715202004e-14,0.0,0.0,0.0,0.0
2025/05/06 15:20:35.391225317,1746537635,388115577,,0.0,0.0,0.0,0.0,0.0,0.0
2025/05/06 15:20:35.490174437,1746537635,488040854,,0.0,-1.4210854715202004e-14,0.0,0.0,0.0,0.0
2025/05/06 15:20:35.588444210,1746537635,588085209,,0.0,1.4210854715202004e-14,0.0,0.0,0.0,-2.842170943040401e-14
2025/05/06 15:20:35.689237581,1746537635,688391721,,5.684341886080802e-14,-2.842170943040401e-14,0.0,0.0,0.0,0.0
2025/05/06 15:20:35.791208328,1746537635,789452863,,0.0,1.4210854715202004e-14,0.0,0.0,0.0,0.0
2025/05/06 15:20:35.888553565,1746537635,888130589,,0.0,-1.4210854715202004e-14,0.0,0.0,0.0,0.0
2025/05/06 15:20:35.992202355,1746537635,988018378,,0.0,1.4210854715202004e-14,0.0,0.0,0.0,-2.842170943040401e-14
2025/05/06 15:20:36.88182481,1746537636,87981076,,0.0,1.4210854715202004e-14,0.0,0.0,0.0,0.0
2025/05/06 15:20:36.189829022,1746537636,188239793,,0.0,-1.4210854715202004e-14,0.0,0.0,0.0,0.0
2025/05/06 15:20:36.291372073,1746537636,289129271,,0.0,0.0,0.0,0.0,0.0,0.0
2025/05/06 15:20:36.388316499,1746537636,388076158,,0.0,-1.4210854715202004e-14,0.0,0.0,0.0,0.0
2025/05/06 15:20:36.488866829,1746537636,488597871,,0.0,-2.842170943040401e-14,0.0,0.0,0.0,0.0
2025/05/06 15:20:36.588565563,1746537636,588084936,,0.0,-2.842170943040401e-14,0.0,0.0,0.0,0.0
2025/05/06 15:20:36.689248629,1746537636,688007108,,0.0,-1.4210854715202004e-14,0.0,0.0,0.0,2.842170943040401e-14
2025/05/06 15:20:36.789498399,1746537636,788076329,,0.0,-2.842170943040401e-14,0.0,0.0,0.0,0.0
2025/05/06 15:20:36.889030210,1746537636,888033588,,0.0,-2.842170943040401e-14,0.0,0.0,0.0,0.0
2025/05/06 15:20:36.988583307,1746537636,988106921,,0.0,-1.4210854715202004e-14,0.0,0.0,0.0,0.0
2025/05/06 15:20:37.88364206,1746537637,88220230,,0.0,0.0,0.0,0.0,0.0,2.842170943040401e-14
2025/05/06 15:20:37.192045596,1746537637,189656106,,0.0,-1.4210854715202004e-14,0.0,0.0,0.0,0.0
2025/05/06 15:20:37.290333670,1746537637,288240458,,0.0,-7.105427357601002e-15,0.0,0.0,0.0,2.842170943040401e-14
2025/05/06 15:20:37.388704799,1746537637,388102170,,0.0,-2.1316282072803006e-14,0.0,0.0,0.0,0.0
2025/05/06 15:20:37.488809143,1746537637,488584925,,0.0,1.4210854715202004e-14,0.0,0.0,0.0,0.0
2025/05/06 15:20:37.588909667,1746537637,588051644,,0.0,-1.4210854715202004e-14,0.0,0.0,0.0,0.0
2025/05/06 15:20:37.689172348,1746537637,688105662,,0.0,0.0,0.0,0.0,0.0,2.842170943040401e-14
2025/05/06 15:20:37.790396503,1746537637,788192025,,0.0,-1.4210854715202004e-14,0.0,0.0,0.0,0.0
2025/05/06 15:20:37.890355725,1746537637,888053785,,0.0,2.842170943040401e-14,0.0,0.0,0.0,0.0
2025/05/06 15:20:37.990036229,1746537637,988375714,,0.0,-1.4210854715202004e-14,0.0,0.0,0.0,0.0
2025/05/06 15:20:38.88305448,1746537638,88101135,,0.0,1.4210854715202004e-14,0.0,0.0,0.0,0.0
2025/05/06 15:20:38.189075978,1746537638,188398600,,0.0,0.0,0.0,0.0,0.0,2.842170943040401e-14
2025/05/06 15:20:38.289385465,1746537638,288062589,,0.0,0.0,0.0,0.0,0.0,-2.842170943040401e-14
2025/05/06 15:20:38.409285024,1746537638,390329275,,0.0,-1.4210854715202004e-14,0.0,0.0,0.0,-2.842170943040401e-14
2025/05/06 15:20:38.490705382,1746537638,488037822,,0.0,0.0,0.0,0.0,0.0,0.0
2025/05/06 15:20:38.591959378,1746537638,588060563,,0.0,1.4210854715202004e-14,0.0,0.0,0.0,-2.842170943040401e-14
2025/05/06 15:20:38.688394524,1746537638,688113993,,0.0,-1.4210854715202004e-14,0.0,0.0,0.0,0.0
2025/05/06 15:20:38.790430059,1746537638,788440712,,0.0,0.0,0.0,0.0,0.0,0.0
2025/05/06 15:20:38.889911292,1746537638,888167593,,0.0,0.0,0.0,0.0,0.0,0.0
2025/05/06 15:20:38.988273598,1746537638,988038960,,0.0,-2.842170943040401e-14,0.0,0.0,0.0,0.0
2025/05/06 15:20:39.88957020,1746537639,87996505,,0.0,0.0,0.0,0.0,0.0,0.0
2025/05/06 15:20:39.189111205,1746537639,188610364,,0.0,1.4210854715202004e-14,0.0,0.0,0.0,0.0
2025/05/06 15:20:39.289159191,1746537639,288026569,,0.0,-7.105427357601002e-15,0.0,0.0,0.0,2.842170943040401e-14
2025/05/06 15:20:39.388613967,1746537639,388110078,,0.0,-2.842170943040401e-14,0.0,0.0,0.0,0.0
2025/05/06 15:20:39.492149232,1746537639,488793810,,0.0,-3.552713678800501e-14,0.0,0.0,0.0,2.842170943040401e-14
2025/05/06 15:20:39.589456508,1746537639,589142972,,0.0,7.105427357601002e-15,0.0,0.0,0.0,2.842170943040401e-14
2025/05/06 15:20:39.688341857,1746537639,688046400,,0.0,0.0,0.0,0.0,0.0,0.0
2025/05/06 15:20:39.788988781,1746537639,788029795,,0.0,-1.4210854715202004e-14,0.0,0.0,0.0,0.0
2025/05/06 15:20:39.888409379,1746537639,888209245,,5.684341886080802e-14,-7.105427357601002e-15,0.0,0.0,0.0,0.0
2025/05/06 15:20:39.988373575,1746537639,988025183,,0.0,1.4210854715202004e-14,0.0,0.0,0.0,2.842170943040401e-14
2025/05/06 15:20:40.89652200,1746537640,88017658,,0.0,-2.842170943040401e-14,0.0,0.0,0.0,0.0
2025/05/06 15:20:40.188783352,1746537640,188541036,,-5.684341886080802e-14,7.105427357601002e-15,0.0,0.0,0.0,5.684341886080802e-14
2025/05/06 15:20:40.291411286,1746537640,289573599,,0.0,-2.842170943040401e-14,0.0,0.0,0.0,1.4210854715202004e-14
2025/05/06 15:20:40.390277014,1746537640,388446103,,0.0,0.0,0.0,0.0,0.0,1.4210854715202004e-14
2025/05/06 15:20:40.489400326,1746537640,488186113,,0.0,-1.4210854715202004e-14,0.0,0.0,0.0,4.263256414560601e-14
2025/05/06 15:20:40.589316089,1746537640,588452230,,0.0,-4.263256414560601e-14,0.0,0.0,0.0,2.842170943040401e-14
2025/05/06 15:20:40.690092397,1746537640,689348297,,0.0,-1.4210854715202004e-14,0.0,0.0,0.0,0.0
2025/05/06 15:20:40.788565493,1746537640,788104768,,0.0,-2.842170943040401e-14,0.0,0.0,0.0,0.0
2025/05/06 15:20:40.888681669,1746537640,888210590,,0.0,-2.842170943040401e-14,0.0,0.0,0.0,0.0
2025/05/06 15:20:40.990347420,1746537640,988165745,,0.0,0.0,0.0,0.0,0.0,1.4210854715202004e-14
2025/05/06 15:20:41.88836198,1746537641,88030466,,1.1368683772161603e-13,-2.1316282072803006e-14,0.0,0.0,0.0,-2.842170943040401e-14
2025/05/06 15:20:41.189021984,1746537641,188032658,,0.0,-4.263256414560601e-14,0.0,0.0,0.0,1.4210854715202004e-14
2025/05/06 15:20:41.289014303,1746537641,288030795,,0.0,0.0,0.0,0.0,0.0,0.0
2025/05/06 15:20:41.388773334,1746537641,388235791,,0.0,0.0,0.0,0.0,0.0,2.842170943040401e-14
2025/05/06 15:20:41.488943053,1746537641,488296056,,0.0,-2.842170943040401e-14,0.0,0.0,0.0,1.4210854715202004e-14
2025/05/06 15:20:41.589311093,1746537641,588028928,,0.0,-2.842170943040401e-14,0.0,0.0,0.0,1.4210854715202004e-14
2025/05/06 15:20:41.688929476,1746537641,688701749,,0.0,-1.4210854715202004e-14,0.0,0.0,0.0,4.263256414560601e-14
2025/05/06 15:20:41.788328239,1746537641,788077876,,0.0,-1.4210854715202004e-14,0.0,0.0,0.0,0.0
2025/05/06 15:20:41.889268760,1746537641,888114864,,0.0,-2.842170943040401e-14,0.0,0.0,0.0,1.4210854715202004e-14
2025/05/06 15:20:41.988264139,1746537641,988074279,,0.0,-2.842170943040401e-14,0.0,0.0,0.0,1.4210854715202004e-14
2025/05/06 15:20:42.89390041,1746537642,88334435,,0.0,-2.842170943040401e-14,0.0,0.0,0.0,1.4210854715202004e-14
2025/05/06 15:20:42.188354562,1746537642,188173131,,0.0,-2.842170943040401e-14,0.0,0.0,0.0,1.4210854715202004e-14
2025/05/06 15:20:42.293020527,1746537642,289377654,,0.0,-2.842170943040401e-14,0.0,0.0,0.0,0.0
2025/05/06 15:20:42.388425925,1746537642,388039041,,0.0,-4.263256414560601e-14,0.0,0.0,0.0,1.4210854715202004e-14
2025/05/06 15:20:42.488746301,1746537642,488476960,,0.0,-1.4210854715202004e-14,0.0,0.0,0.0,1.4210854715202004e-14
2025/05/06 15:20:42.589457506,1746537642,588031153,,0.0,-1.4210854715202004e-14,0.0,0.0,0.0,2.842170943040401e-14
2025/05/06 15:20:42.689126182,1746537642,688051613,,0.0,-1.4210854715202004e-14,0.0,0.0,0.0,0.0
2025/05/06 15:20:42.788281575,1746537642,788039732,,0.0,-1.4210854715202004e-14,0.0,0.0,0.0,0.0
2025/05/06 15:20:42.888694595,1746537642,888100232,,0.0,-2.842170943040401e-14,0.0,0.0,0.0,0.0
2025/05/06 15:20:42.988336151,1746537642,988022281,,0.0,-2.842170943040401e-14,0.0,0.0,0.0,1.4210854715202004e-14
2025/05/06 15:20:43.93554467,1746537643,88971068,,0.0,0.0,0.0,0.0,0.0,1.4210854715202004e-14
2025/05/06 15:20:43.189251867,1746537643,188032662,,0.0,0.0,0.0,0.0,0.0,0.0
2025/05/06 15:20:43.289428913,1746537643,288019358,,0.0,7.105427357601002e-15,0.0,0.0,0.0,2.842170943040401e-14
2025/05/06 15:20:43.389024641,1746537643,388037161,,0.0,-2.1316282072803006e-14,0.0,0.0,0.0,0.0
2025/05/06 15:20:43.489113618,1746537643,488519608,,0.0,1.4210854715202004e-14,0.0,0.0,0.0,0.0
2025/05/06 15:20:43.588842555,1746537643,588091577,,0.0,-2.1316282072803006e-14,0.0,0.0,0.0,0.0
2025/05/06 15:20:43.703577826,1746537643,688075012,,0.0,-1.4210854715202004e-14,0.0,0.0,0.0,1.4210854715202004e-14
2025/05/06 15:20:43.789041267,1746537643,788061957,,0.0,-3.552713678800501e-14,0.0,0.0,0.0,0.0
2025/05/06 15:20:43.890428318,1746537643,888670610,,5.684341886080802e-14,0.0,0.0,0.0,0.0,-1.4210854715202004e-14
2025/05/06 15:20:43.988523140,1746537643,988054173,,0.0,-2.1316282072803006e-14,0.0,0.0,0.0,0.0
2025/05/06 15:20:44.89880878,1746537644,88137133,,0.0,-1.4210854715202004e-14,0.0,0.0,0.0,1.4210854715202004e-14
2025/05/06 15:20:44.189160985,1746537644,188139577,,0.0,-1.4210854715202004e-14,0.0,0.0,0.0,1.4210854715202004e-14
2025/05/06 15:20:44.289257704,1746537644,288033962,,0.0,-2.1316282072803006e-14,0.0,0.0,0.0,2.842170943040401e-14
2025/05/06 15:20:44.388304991,1746537644,388047426,,0.0,-3.552713678800501e-14,0.0,0.0,0.0,2.842170943040401e-14
2025/05/06 15:20:44.491072159,1746537644,489166358,,0.0,-3.552713678800501e-14,0.0,0.0,0.0,0.0
2025/05/06 15:20:44.588419147,1746537644,588120161,,0.0,-4.263256414560601e-14,0.0,0.0,0.0,1.4210854715202004e-14
2025/05/06 15:20:44.689927982,1746537644,688140465,,0.0,0.0,0.0,0.0,0.0,0.0
2025/05/06 15:20:44.789129092,1746537644,788426560,,0.0,-1.4210854715202004e-14,0.0,0.0,0.0,2.842170943040401e-14
2025/05/06 15:20:44.888843862,1746537644,888551932,,0.0,-2.842170943040401e-14,0.0,0.0,0.0,1.4210854715202004e-14
2025/05/06 15:20:44.991076669,1746537644,990612985,,0.0,0.0,0.0,0.0,0.0,2.842170943040401e-14
2025/05/06 15:20:45.88232996,1746537645,88036100,,0.0,-2.842170943040401e-14,0.0,0.0,0.0,2.842170943040401e-14
2025/05/06 15:20:45.190259804,1746537645,188112262,,0.0,-2.842170943040401e-14,0.0,0.0,0.0,1.4210854715202004e-14
2025/05/06 15:20:45.288261857,1746537645,288101617,,0.0,-2.842170943040401e-14,0.0,0.0,0.0,1.4210854715202004e-14
2025/05/06 15:20:45.389885891,1746537645,388390419,,0.0,-2.842170943040401e-14,0.0,0.0,0.0,0.0
2025/05/06 15:20:45.488263113,1746537645,488017815,,0.0,-1.4210854715202004e-14,0.0,0.0,0.0,1.4210854715202004e-14
2025/05/06 15:20:45.590913358,1746537645,589196165,,0.0,-2.842170943040401e-14,0.0,0.0,0.0,1.4210854715202004e-14
2025/05/06 15:20:45.690173601,1746537645,688023765,,0.0,0.0,0.0,0.0,0.0,0.0
2025/05/06 15:20:45.790024178,1746537645,788004040,,5.684341886080802e-14,-2.842170943040401e-14,0.0,0.0,0.0,-1.4210854715202004e-14
2025/05/06 15:20:45.890085375,1746537645,889354402,,0.0,-2.842170943040401e-14,0.0,0.0,0.0,0.0
2025/05/06 15:20:45.989144990,1746537645,988041508,,0.0,-1.4210854715202004e-14,0.0,0.0,0.0,1.4210854715202004e-14
2025/05/06 15:20:46.89632251,1746537646,88024880,,0.0,-2.842170943040401e-14,0.0,0.0,0.0,1.4210854715202004e-14
2025/05/06 15:20:46.188775590,1746537646,188121195,,0.0,-2.842170943040401e-14,0.0,0.0,0.0,1.4210854715202004e-14
2025/05/06 15:20:46.290585699,1746537646,288339110,,0.0,-1.4210854715202004e-14,0.0,0.0,0.0,0.0
2025/05/06 15:20:46.389494078,1746537646,388057864,,0.0,-2.842170943040401e-14,0.0,0.0,0.0,1.4210854715202004e-14
2025/05/06 15:20:46.495255969,1746537646,493720759,,0.0,-1.4210854715202004e-14,0.0,0.0,0.0,1.4210854715202004e-14
2025/05/06 15:20:46.597473263,1746537646,593683417,,0.0,-1.4210854715202004e-14,0.0,0.0,0.0,0.0
2025/05/06 15:20:46.689499308,1746537646,688057747,,0.0,-1.4210854715202004e-14,0.0,0.0,0.0,0.0
2025/05/06 15:20:46.788242017,1746537646,788025123,,-2.842170943040401e-14,-1.4210854715202004e-14,0.0,0.0,0.0,2.842170943040401e-14
2025/05/06 15:20:46.888740608,1746537646,888144687,,0.0,-2.842170943040401e-14,0.0,0.0,0.0,1.4210854715202004e-14
2025/05/06 15:20:46.989254261,1746537646,988055750,,0.0,0.0,0.0,0.0,0.0,4.263256414560601e-14
2025/05/06 15:20:47.90161672,1746537647,88407403,,0.0,0.0,0.0,0.0,0.0,4.263256414560601e-14
2025/05/06 15:20:47.189750847,1746537647,188043752,,0.0,0.0,0.0,0.0,0.0,1.4210854715202004e-14
2025/05/06 15:20:47.289702394,1746537647,288080589,,0.0,0.0,0.0,0.0,0.0,1.4210854715202004e-14
2025/05/06 15:20:47.390319262,1746537647,388061417,,0.0,-2.842170943040401e-14,0.0,0.0,0.0,1.4210854715202004e-14
2025/05/06 15:20:47.490166824,1746537647,488246538,,5.684341886080802e-14,-2.842170943040401e-14,0.0,0.0,0.0,-1.4210854715202004e-14
2025/05/06 15:20:47.590641960,1746537647,588045638,,0.0,0.0,0.0,0.0,0.0,1.4210854715202004e-14
2025/05/06 15:20:47.692401782,1746537647,691019823,,0.0,-2.842170943040401e-14,0.0,0.0,0.0,0.0
2025/05/06 15:20:47.788322569,1746537647,788039884,,0.0,0.0,0.0,0.0,0.0,1.4210854715202004e-14
2025/05/06 15:20:47.888413670,1746537647,888018209,,0.0,-2.842170943040401e-14,0.0,0.0,0.0,1.4210854715202004e-14
2025/05/06 15:20:47.988257739,1746537647,988021902,,0.0,-1.4210854715202004e-14,0.0,0.0,0.0,0.0
2025/05/06 15:20:48.92172248,1746537648,89252662,,0.0,-2.842170943040401e-14,0.0,0.0,0.0,0.0
2025/05/06 15:20:48.189956650,1746537648,188546152,,0.0,-2.842170943040401e-14,0.0,0.0,0.0,1.4210854715202004e-14
2025/05/06 15:20:48.291518339,1746537648,288055146,,0.0,-2.842170943040401e-14,0.0,0.0,0.0,1.4210854715202004e-14
2025/05/06 15:20:48.388249024,1746537648,388000016,,2.842170943040401e-14,-1.4210854715202004e-14,0.0,0.0,0.0,2.842170943040401e-14
2025/05/06 15:20:48.489139323,1746537648,488648568,,0.0,0.0,0.0,0.0,0.0,4.263256414560601e-14
2025/05/06 15:20:48.588983626,1746537648,588000808,,0.0,-1.4210854715202004e-14,0.0,0.0,0.0,0.0
2025/05/06 15:20:48.690214949,1746537648,688704010,,5.684341886080802e-14,-1.4210854715202004e-14,0.0,0.0,0.0,0.0
2025/05/06 15:20:48.788340782,1746537648,788056088,,0.0,-2.842170943040401e-14,0.0,0.0,0.0,0.0
2025/05/06 15:20:48.888689463,1746537648,888169177,,0.0,-2.842170943040401e-14,0.0,0.0,0.0,1.4210854715202004e-14
2025/05/06 15:20:48.988558924,1746537648,988033685,,0.0,-2.842170943040401e-14,0.0,0.0,0.0,1.4210854715202004e-14
2025/05/06 15:20:49.90385347,1746537649,88728147,,0.0,0.0,0.0,0.0,0.0,4.263256414560601e-14
2025/05/06 15:20:49.191089742,1746537649,188747622,,0.0,-2.842170943040401e-14,0.0,0.0,0.0,1.4210854715202004e-14
2025/05/06 15:20:49.290394259,1746537649,289770292,,0.0,0.0,0.0,0.0,0.0,1.4210854715202004e-14
2025/05/06 15:20:49.389294086,1746537649,388034575,,0.0,-5.684341886080802e-14,0.0,0.0,0.0,1.4210854715202004e-14
2025/05/06 15:20:49.489596290,1746537649,488088651,,0.0,0.0,0.0,0.0,0.0,1.4210854715202004e-14
2025/05/06 15:20:49.588728053,1746537649,588071694,,0.0,0.0,0.0,0.0,0.0,1.4210854715202004e-14
2025/05/06 15:20:49.688411326,1746537649,688126295,,0.0,-1.4210854715202004e-14,0.0,0.0,0.0,1.4210854715202004e-14
2025/05/06 15:20:49.788298734,1746537649,788041708,,0.0,-2.842170943040401e-14,0.0,0.0,0.0,1.4210854715202004e-14
2025/05/06 15:20:49.890827915,1746537649,888464951,,0.0,-1.4210854715202004e-14,0.0,0.0,0.0,1.4210854715202004e-14
2025/05/06 15:20:49.989073979,1746537649,988166745,,0.0,-1.4210854715202004e-14,0.0,0.0,0.0,0.0
2025/05/06 15:20:50.89157407,1746537650,87988658,,0.0,0.0,0.0,0.0,0.0,0.0
2025/05/06 15:20:50.189290642,1746537650,188709221,,0.0,-1.4210854715202004e-14,0.0,0.0,0.0,1.4210854715202004e-14
2025/05/06 15:20:50.291805697,1746537650,289875033,,0.0,-1.4210854715202004e-14,0.0,0.0,0.0,0.0
2025/05/06 15:20:50.388261517,1746537650,388044730,,0.0,-1.4210854715202004e-14,0.0,0.0,0.0,0.0
2025/05/06 15:20:50.488740770,1746537650,488112870,,0.0,-2.842170943040401e-14,0.0,0.0,0.0,0.0
2025/05/06 15:20:50.588332793,1746537650,588088682,,0.0,-2.842170943040401e-14,0.0,0.0,0.0,0.0
2025/05/06 15:20:50.689016496,1746537650,688018998,,-2.842170943040401e-14,-2.842170943040401e-14,0.0,0.0,0.0,2.842170943040401e-14
2025/05/06 15:20:50.790577919,1746537650,788681255,,2.842170943040401e-14,0.0,0.0,0.0,0.0,2.842170943040401e-14
2025/05/06 15:20:50.889062812,1746537650,888075692,,0.0,0.0,0.0,0.0,0.0,0.0
2025/05/06 15:20:50.989720465,1746537650,988326413,,0.0,-4.263256414560601e-14,0.0,0.0,0.0,0.0
2025/05/06 15:20:51.88611465,1746537651,88027149,,0.0,-1.4210854715202004e-14,0.0,0.0,0.0,0.0
2025/05/06 15:20:51.190683353,1746537651,188037478,,0.0,-4.263256414560601e-14,0.0,0.0,0.0,0.0
2025/05/06 15:20:51.289304143,1746537651,288032133,,2.842170943040401e-14,-2.842170943040401e-14,0.0,0.0,0.0,2.842170943040401e-14
2025/05/06 15:20:51.388566419,1746537651,388125598,,0.0,-2.842170943040401e-14,0.0,0.0,0.0,1.4210854715202004e-14
2025/05/06 15:20:51.489185408,1746537651,488008491,,5.684341886080802e-14,-2.842170943040401e-14,0.0,0.0,0.0,0.0
2025/05/06 15:20:51.591836759,1746537651,588463434,,0.0,-4.263256414560601e-14,0.0,0.0,0.0,0.0
2025/05/06 15:20:51.689113481,1746537651,688074170,,0.0,-2.842170943040401e-14,0.0,0.0,0.0,0.0
2025/05/06 15:20:51.788737157,1746537651,788156638,,0.0,0.0,0.0,0.0,0.0,1.4210854715202004e-14
2025/05/06 15:20:51.888293617,1746537651,888034581,,0.0,-2.842170943040401e-14,0.0,0.0,0.0,0.0
2025/05/06 15:20:51.988343024,1746537651,988053381,,2.842170943040401e-14,0.0,0.0,0.0,0.0,2.842170943040401e-14
2025/05/06 15:20:52.88270549,1746537652,88036886,,0.0,-2.842170943040401e-14,0.0,0.0,0.0,1.4210854715202004e-14
2025/05/06 15:20:52.190383140,1746537652,188190595,,0.0,-2.842170943040401e-14,0.0,0.0,0.0,1.4210854715202004e-14
2025/05/06 15:20:52.288418793,1746537652,287992751,,0.0,-2.842170943040401e-14,0.0,0.0,0.0,1.4210854715202004e-14
2025/05/06 15:20:52.388701344,1746537652,388277614,,0.0,-2.842170943040401e-14,0.0,0.0,0.0,1.4210854715202004e-14
2025/05/06 15:20:52.489669638,1746537652,489214534,,2.842170943040401e-14,0.0,0.0,0.0,0.0,2.842170943040401e-14
2025/05/06 15:20:52.588402210,1746537652,588172813,,0.0,0.0,0.0,0.0,0.0,0.0
2025/05/06 15:20:52.689282793,1746537652,688139807,,2.842170943040401e-14,-2.842170943040401e-14,0.0,0.0,0.0,2.842170943040401e-14
2025/05/06 15:20:52.789867635,1746537652,788313475,,0.0,0.0,0.0,0.0,0.0,1.4210854715202004e-14
2025/05/06 15:20:52.889210166,1746537652,888320377,,0.0,0.0,0.0,0.0,0.0,0.0
2025/05/06 15:20:52.994808693,1746537652,988042470,,0.0,-2.842170943040401e-14,0.0,0.0,0.0,0.0
2025/05/06 15:20:53.89941794,1746537653,89610996,,0.0,-5.684341886080802e-14,0.0,0.0,0.0,0.0
2025/05/06 15:20:53.190381372,1746537653,188901725,,0.0,-2.842170943040401e-14,0.0,0.0,0.0,0.0
2025/05/06 15:20:53.288477559,1746537653,288019023,,2.842170943040401e-14,-2.842170943040401e-14,0.0,0.0,0.0,2.842170943040401e-14
2025/05/06 15:20:53.389466692,1746537653,388137378,,0.0,0.0,0.0,0.0,0.0,0.0
2025/05/06 15:20:53.489516627,1746537653,488030397,,0.0,0.0,0.0,0.0,0.0,1.4210854715202004e-14
2025/05/06 15:20:53.589703016,1746537653,588801303,,0.0,0.0,0.0,0.0,0.0,0.0
2025/05/06 15:20:53.689438492,1746537653,688043752,,2.842170943040401e-14,0.0,0.0,0.0,0.0,2.842170943040401e-14
2025/05/06 15:20:53.789251519,1746537653,788073769,,0.0,-4.263256414560601e-14,0.0,0.0,0.0,1.4210854715202004e-14
2025/05/06 15:20:53.889915135,1746537653,888086125,,0.0,-2.842170943040401e-14,0.0,0.0,0.0,1.4210854715202004e-14
2025/05/06 15:20:53.988678616,1746537653,988096550,,0.0,-2.842170943040401e-14,0.0,0.0,0.0,1.4210854715202004e-14
2025/05/06 15:20:54.89313647,1746537654,88180436,,-2.842170943040401e-14,-2.842170943040401e-14,0.0,0.0,0.0,2.842170943040401e-14
2025/05/06 15:20:54.191062417,1746537654,189312033,,0.0,0.0,0.0,0.0,0.0,1.4210854715202004e-14
2025/05/06 15:20:54.288772372,1746537654,288125994,,0.0,-2.842170943040401e-14,0.0,0.0,0.0,1.4210854715202004e-14
2025/05/06 15:20:54.390593793,1746537654,388198726,,2.842170943040401e-14,-2.842170943040401e-14,0.0,0.0,0.0,2.842170943040401e-14
2025/05/06 15:20:54.489144114,1746537654,488121979,,0.0,-2.842170943040401e-14,0.0,0.0,0.0,0.0
2025/05/06 15:20:54.589003747,1746537654,588022703,,0.0,-2.842170943040401e-14,0.0,0.0,0.0,0.0
2025/05/06 15:20:54.690023069,1746537654,688032620,,0.0,-2.842170943040401e-14,0.0,0.0,0.0,1.4210854715202004e-14
2025/05/06 15:20:54.802116236,1746537654,788229961,,0.0,-1.4210854715202004e-14,0.0,0.0,0.0,0.0
2025/05/06 15:20:54.888217008,1746537654,887988518,,0.0,-2.842170943040401e-14,0.0,0.0,0.0,1.4210854715202004e-14
2025/05/06 15:20:54.989207771,1746537654,988799983,,0.0,-2.842170943040401e-14,0.0,0.0,0.0,0.0
2025/05/06 15:20:55.88376660,1746537655,88180778,,0.0,-1.4210854715202004e-14,0.0,0.0,0.0,1.4210854715202004e-14
2025/05/06 15:20:55.188949556,1746537655,188120289,,2.842170943040401e-14,-1.4210854715202004e-14,0.0,0.0,0.0,2.842170943040401e-14
2025/05/06 15:20:55.288267935,1746537655,288006042,,0.0,-1.4210854715202004e-14,0.0,0.0,0.0,1.4210854715202004e-14
2025/05/06 15:20:55.391907132,1746537655,390210841,,2.842170943040401e-14,-2.842170943040401e-14,0.0,0.0,0.0,2.842170943040401e-14
2025/05/06 15:20:55.489503207,1746537655,488032704,,0.0,-2.842170943040401e-14,0.0,0.0,0.0,0.0
2025/05/06 15:20:55.588383360,1746537655,588150509,,-2.842170943040401e-14,0.0,0.0,0.0,0.0,2.842170943040401e-14
2025/05/06 15:20:55.688572617,1746537655,688154705,,0.0,0.0,0.0,0.0,0.0,0.0
2025/05/06 15:20:55.791810744,1746537655,788428160,,0.0,-7.105427357601002e-15,0.0,0.0,0.0,0.0
2025/05/06 15:20:55.888825912,1746537655,888531990,,0.0,-2.1316282072803006e-14,0.0,0.0,0.0,0.0
2025/05/06 15:20:55.990720375,1746537655,988891894,,-2.842170943040401e-14,0.0,0.0,0.0,0.0,2.842170943040401e-14
2025/05/06 15:20:56.89984325,1746537656,88031512,,0.0,-2.842170943040401e-14,0.0,0.0,0.0,1.4210854715202004e-14
2025/05/06 15:20:56.189690193,1746537656,188008315,,2.842170943040401e-14,0.0,0.0,0.0,0.0,2.842170943040401e-14
2025/05/06 15:20:56.288454947,1746537656,288160596,,0.0,-2.1316282072803006e-14,0.0,0.0,0.0,1.4210854715202004e-14
2025/05/06 15:20:56.388213370,1746537656,387982320,,0.0,-1.4210854715202004e-14,0.0,0.0,0.0,0.0
2025/05/06 15:20:56.490687210,1746537656,488219943,,0.0,-2.842170943040401e-14,0.0,0.0,0.0,1.4210854715202004e-14
2025/05/06 15:20:56.589398455,1746537656,588040737,,2.842170943040401e-14,-1.4210854715202004e-14,0.0,0.0,0.0,2.842170943040401e-14
2025/05/06 15:20:56.688434949,1746537656,688127665,,0.0,0.0,0.0,0.0,0.0,1.4210854715202004e-14
2025/05/06 15:20:56.790123616,1746537656,788211519,,0.0,0.0,0.0,0.0,0.0,0.0
2025/05/06 15:20:56.889610303,1746537656,888667410,,0.0,-2.842170943040401e-14,0.0,0.0,0.0,1.4210854715202004e-14
2025/05/06 15:20:56.989177975,1746537656,988980927,,0.0,-2.842170943040401e-14,0.0,0.0,0.0,1.4210854715202004e-14
2025/05/06 15:20:57.90360074,1746537657,89749711,,0.0,-1.4210854715202004e-14,0.0,0.0,0.0,0.0
2025/05/06 15:20:57.189795738,1746537657,188033007,,0.0,-2.842170943040401e-14,0.0,0.0,0.0,1.4210854715202004e-14
2025/05/06 15:20:57.289980810,1746537657,288201689,,0.0,-4.263256414560601e-14,0.0,0.0,0.0,1.4210854715202004e-14
2025/05/06 15:20:57.388266134,1746537657,388032700,,0.0,-1.4210854715202004e-14,0.0,0.0,0.0,1.4210854715202004e-14
2025/05/06 15:20:57.489242033,1746537657,488322481,,0.0,-1.4210854715202004e-14,0.0,0.0,0.0,1.4210854715202004e-14
2025/05/06 15:20:57.588244162,1746537657,588022533,,0.0,-1.4210854715202004e-14,0.0,0.0,0.0,4.263256414560601e-14
2025/05/06 15:20:57.688686565,1746537657,688512712,,0.0,-2.842170943040401e-14,0.0,0.0,0.0,1.4210854715202004e-14
2025/05/06 15:20:57.790634996,1746537657,788026091,,0.0,-1.4210854715202004e-14,0.0,0.0,0.0,1.4210854715202004e-14
2025/05/06 15:20:57.890338964,1746537657,888191241,,0.0,-1.4210854715202004e-14,0.0,0.0,0.0,0.0
2025/05/06 15:20:57.988593712,1746537657,988129269,,2.842170943040401e-14,-1.4210854715202004e-14,0.0,0.0,0.0,2.842170943040401e-14
2025/05/06 15:20:58.91700259,1746537658,89307652,,0.0,-2.842170943040401e-14,0.0,0.0,0.0,1.4210854715202004e-14
2025/05/06 15:20:58.188891431,1746537658,188297208,,0.0,-2.842170943040401e-14,0.0,0.0,0.0,1.4210854715202004e-14
2025/05/06 15:20:58.302012928,1746537658,289025870,,0.0,-2.842170943040401e-14,0.0,0.0,0.0,1.4210854715202004e-14
2025/05/06 15:20:58.390154600,1746537658,388109927,,2.842170943040401e-14,0.0,0.0,0.0,0.0,2.842170943040401e-14
2025/05/06 15:20:58.491889378,1746537658,488602338,,0.0,-1.4210854715202004e-14,0.0,0.0,0.0,0.0
2025/05/06 15:20:58.589452794,1746537658,588072588,,0.0,-1.4210854715202004e-14,0.0,0.0,0.0,0.0
2025/05/06 15:20:58.689087331,1746537658,688762819,,0.0,-2.842170943040401e-14,0.0,0.0,0.0,1.4210854715202004e-14
2025/05/06 15:20:58.788277648,1746537658,788012600,,0.0,-1.4210854715202004e-14,0.0,0.0,0.0,0.0
2025/05/06 15:20:58.889035448,1746537658,888464626,,0.0,-2.842170943040401e-14,0.0,0.0,0.0,1.4210854715202004e-14
2025/05/06 15:20:58.989294852,1746537658,988095763,,0.0,-2.842170943040401e-14,0.0,0.0,0.0,1.4210854715202004e-14
2025/05/06 15:20:59.89467262,1746537659,88040018,,0.0,-2.842170943040401e-14,0.0,0.0,0.0,1.4210854715202004e-14
2025/05/06 15:20:59.188956698,1746537659,188091574,,0.0,-2.842170943040401e-14,0.0,0.0,0.0,1.4210854715202004e-14
2025/05/06 15:20:59.288616041,1746537659,288122059,,0.0,-2.842170943040401e-14,0.0,0.0,0.0,1.4210854715202004e-14
2025/05/06 15:20:59.389166850,1746537659,388018759,,0.0,-1.4210854715202004e-14,0.0,0.0,0.0,1.4210854715202004e-14
2025/05/06 15:20:59.491541915,1746537659,489503451,,-2.842170943040401e-14,0.0,0.0,0.0,0.0,2.842170943040401e-14
2025/05/06 15:20:59.589210314,1746537659,588074337,,0.0,-2.842170943040401e-14,0.0,0.0,0.0,1.4210854715202004e-14
2025/05/06 15:20:59.688627068,1746537659,688072617,,0.0,0.0,0.0,0.0,0.0,4.263256414560601e-14
2025/05/06 15:20:59.788736156,1746537659,788100320,,2.842170943040401e-14,-2.842170943040401e-14,0.0,0.0,0.0,1.4210854715202004e-14
2025/05/06 15:20:59.889515652,1746537659,888602246,,-2.842170943040401e-14,0.0,0.0,0.0,0.0,4.263256414560601e-14
2025/05/06 15:20:59.990205829,1746537659,988569166,,0.0,-2.842170943040401e-14,0.0,0.0,0.0,1.4210854715202004e-14
2025/05/06 15:21:00.91438611,1746537660,88243826,,0.0,-2.842170943040401e-14,0.0,0.0,0.0,1.4210854715202004e-14
2025/05/06 15:21:00.189931209,1746537660,188222934,,0.0,-2.842170943040401e-14,0.0,0.0,0.0,1.4210854715202004e-14
2025/05/06 15:21:00.289253915,1746537660,288224620,,0.0,-2.842170943040401e-14,0.0,0.0,0.0,1.4210854715202004e-14
2025/05/06 15:21:00.389033915,1746537660,388045201,,0.0,-4.263256414560601e-14,0.0,0.0,0.0,1.4210854715202004e-14
2025/05/06 15:21:00.491714815,1746537660,489251570,,0.0,-2.842170943040401e-14,0.0,0.0,0.0,1.4210854715202004e-14
2025/05/06 15:21:00.589124152,1746537660,588196095,,0.0,-2.842170943040401e-14,0.0,0.0,0.0,1.4210854715202004e-14
2025/05/06 15:21:00.691814514,1746537660,688767727,,-2.842170943040401e-14,0.0,0.0,0.0,0.0,2.842170943040401e-14
2025/05/06 15:21:00.789086386,1746537660,788754026,,0.0,-2.842170943040401e-14,0.0,0.0,0.0,1.4210854715202004e-14
2025/05/06 15:21:00.890400560,1746537660,888075961,,0.0,-2.842170943040401e-14,0.0,0.0,0.0,1.4210854715202004e-14
2025/05/06 15:21:00.988474802,1746537660,988046066,,2.842170943040401e-14,-1.4210854715202004e-14,0.0,0.0,0.0,2.842170943040401e-14
2025/05/06 15:21:01.90528471,1746537661,89195505,,2.842170943040401e-14,-2.842170943040401e-14,0.0,0.0,0.0,2.842170943040401e-14
2025/05/06 15:21:01.191179925,1746537661,189506081,,0.0,-2.842170943040401e-14,0.0,0.0,0.0,1.4210854715202004e-14
2025/05/06 15:21:01.289922959,1746537661,288055654,,2.842170943040401e-14,-1.4210854715202004e-14,0.0,0.0,0.0,1.4210854715202004e-14
2025/05/06 15:21:01.390325525,1746537661,388497240,,2.842170943040401e-14,-1.4210854715202004e-14,0.0,0.0,0.0,1.4210854715202004e-14
2025/05/06 15:21:01.494393254,1746537661,490036219,,0.0,-2.842170943040401e-14,0.0,0.0,0.0,1.4210854715202004e-14
2025/05/06 15:21:01.593381028,1746537661,590273001,,0.0,-2.842170943040401e-14,0.0,0.0,0.0,1.4210854715202004e-14
2025/05/06 15:21:01.690036609,1746537661,688053661,,-2.842170943040401e-14,-2.842170943040401e-14,0.0,0.0,0.0,4.263256414560601e-14
2025/05/06 15:21:01.790625815,1746537661,788068294,,0.0,0.0,0.0,0.0,0.0,0.0
