time,header_stamp_secs,header_stamp_nsecs,header_frame_id,status_status,status_service,latitude,longitude,altitude,position_covariance_0,position_covariance_1,position_covariance_2,position_covariance_3,position_covariance_4,position_covariance_5,position_covariance_6,position_covariance_7,position_covariance_8,position_covariance_type
2025/04/05 15:58:42.499301972,1743861522,497209584,mA1/gps,0,1,63.43676688850914,10.393073462273321,0.0,1.4400000000000002e-10,0.0,0.0,0.0,1.4400000000000002e-10,0.0,0.0,0.0,1.0,2
2025/04/05 15:58:42.548283385,1743861522,548012130,mA1/gps,0,1,63.4367669945346,10.393073483996648,0.0,1.4400000000000002e-10,0.0,0.0,0.0,1.4400000000000002e-10,0.0,0.0,0.0,1.0,2
2025/04/05 15:58:42.598052479,1743861522,597226774,mA1/gps,0,1,63.43676710128726,10.39307351001477,0.0,1.4400000000000002e-10,0.0,0.0,0.0,1.4400000000000002e-10,0.0,0.0,0.0,1.0,2
2025/04/05 15:58:42.648535591,1743861522,648319805,mA1/gps,0,1,63.436767207936235,10.393073541101897,0.0,1.4400000000000002e-10,0.0,0.0,0.0,1.4400000000000002e-10,0.0,0.0,0.0,1.0,2
2025/04/05 15:58:42.698498884,1743861522,698316570,mA1/gps,0,1,63.43676731644731,10.39307357364957,0.0,1.4400000000000002e-10,0.0,0.0,0.0,1.4400000000000002e-10,0.0,0.0,0.0,1.0,2
2025/04/05 15:58:42.750244789,1743861522,750090256,mA1/gps,0,1,63.43676742526581,10.3930736080891,0.0,1.4400000000000002e-10,0.0,0.0,0.0,1.4400000000000002e-10,0.0,0.0,0.0,1.0,2
2025/04/05 15:58:42.800262461,1743861522,799934158,mA1/gps,0,1,63.436767532241866,10.393073642847696,0.0,1.4400000000000002e-10,0.0,0.0,0.0,1.4400000000000002e-10,0.0,0.0,0.0,1.0,2
2025/04/05 15:58:42.841962970,1743861522,841497306,mA1/gps,0,1,63.43676764364745,10.393073674606432,0.0,1.4400000000000002e-10,0.0,0.0,0.0,1.4400000000000002e-10,0.0,0.0,0.0,1.0,2
2025/04/05 15:58:42.891211856,1743861522,890871487,mA1/gps,0,1,63.43676775456192,10.393073702313947,0.0,1.4400000000000002e-10,0.0,0.0,0.0,1.4400000000000002e-10,0.0,0.0,0.0,1.0,2
2025/04/05 15:58:42.942513737,1743861522,942319420,mA1/gps,0,1,63.4367678647034,10.393073724494016,0.0,1.4400000000000002e-10,0.0,0.0,0.0,1.4400000000000002e-10,0.0,0.0,0.0,1.0,2
2025/04/05 15:58:42.992030515,1743861522,991699327,mA1/gps,0,1,63.43676797863865,10.39307374066774,0.0,1.4400000000000002e-10,0.0,0.0,0.0,1.4400000000000002e-10,0.0,0.0,0.0,1.0,2
2025/04/05 15:58:43.44196448,1743861523,43131152,mA1/gps,0,1,63.4367680905499,10.393073749862637,0.0,1.4400000000000002e-10,0.0,0.0,0.0,1.4400000000000002e-10,0.0,0.0,0.0,1.0,2
2025/04/05 15:58:43.93912379,1743861523,93557203,mA1/gps,0,1,63.436768204666635,10.393073752404664,0.0,1.4400000000000002e-10,0.0,0.0,0.0,1.4400000000000002e-10,0.0,0.0,0.0,1.0,2
2025/04/05 15:58:43.145466553,1743861523,145021465,mA1/gps,0,1,63.43676831929819,10.393073747528076,0.0,1.4400000000000002e-10,0.0,0.0,0.0,1.4400000000000002e-10,0.0,0.0,0.0,1.0,2
2025/04/05 15:58:43.195466690,1743861523,194922947,mA1/gps,0,1,63.43676843498274,10.393073736309848,0.0,1.4400000000000002e-10,0.0,0.0,0.0,1.4400000000000002e-10,0.0,0.0,0.0,1.0,2
2025/04/05 15:58:43.246286047,1743861523,245942696,mA1/gps,0,1,63.43676855132109,10.393073721015805,0.0,1.4400000000000002e-10,0.0,0.0,0.0,1.4400000000000002e-10,0.0,0.0,0.0,1.0,2
2025/04/05 15:58:43.296160344,1743861523,295996902,mA1/gps,0,1,63.436768668861404,10.393073701176188,0.0,1.4400000000000002e-10,0.0,0.0,0.0,1.4400000000000002e-10,0.0,0.0,0.0,1.0,2
2025/04/05 15:58:43.349515978,1743861523,347537747,mA1/gps,0,1,63.436768788422405,10.393073679928985,0.0,1.4400000000000002e-10,0.0,0.0,0.0,1.4400000000000002e-10,0.0,0.0,0.0,1.0,2
2025/04/05 15:58:43.398014055,1743861523,397802933,mA1/gps,0,1,63.43676890903158,10.393073658437855,0.0,1.4400000000000002e-10,0.0,0.0,0.0,1.4400000000000002e-10,0.0,0.0,0.0,1.0,2
2025/04/05 15:58:43.450550496,1743861523,450015052,mA1/gps,0,1,63.436769028678064,10.393073638301061,0.0,1.4400000000000002e-10,0.0,0.0,0.0,1.4400000000000002e-10,0.0,0.0,0.0,1.0,2
2025/04/05 15:58:43.500968720,1743861523,500484372,mA1/gps,0,1,63.436769149342,10.393073621145925,0.0,1.4400000000000002e-10,0.0,0.0,0.0,1.4400000000000002e-10,0.0,0.0,0.0,1.0,2
2025/04/05 15:58:43.550726882,1743861523,550493392,mA1/gps,0,1,63.436769272450924,10.393073608948244,0.0,1.4400000000000002e-10,0.0,0.0,0.0,1.4400000000000002e-10,0.0,0.0,0.0,1.0,2
2025/04/05 15:58:43.591514320,1743861523,591197126,mA1/gps,0,1,63.43676939628341,10.393073602053613,0.0,1.4400000000000002e-10,0.0,0.0,0.0,1.4400000000000002e-10,0.0,0.0,0.0,1.0,2
2025/04/05 15:58:43.642579550,1743861523,642170206,mA1/gps,0,1,63.43676951795792,10.39307360142644,0.0,1.4400000000000002e-10,0.0,0.0,0.0,1.4400000000000002e-10,0.0,0.0,0.0,1.0,2
2025/04/05 15:58:43.695550117,1743861523,692364457,mA1/gps,0,1,63.43676964376486,10.393073607884164,0.0,1.4400000000000002e-10,0.0,0.0,0.0,1.4400000000000002e-10,0.0,0.0,0.0,1.0,2
2025/04/05 15:58:43.745351425,1743861523,745183128,mA1/gps,0,1,63.43676976833969,10.393073621091931,0.0,1.4400000000000002e-10,0.0,0.0,0.0,1.4400000000000002e-10,0.0,0.0,0.0,1.0,2
2025/04/05 15:58:43.795843889,1743861523,795595252,mA1/gps,0,1,63.4367698919596,10.39307364040986,0.0,1.4400000000000002e-10,0.0,0.0,0.0,1.4400000000000002e-10,0.0,0.0,0.0,1.0,2
2025/04/05 15:58:43.846258015,1743861523,845993744,mA1/gps,0,1,63.43677001661775,10.393073664849052,0.0,1.4400000000000002e-10,0.0,0.0,0.0,1.4400000000000002e-10,0.0,0.0,0.0,1.0,2
2025/04/05 15:58:43.896518414,1743861523,895949976,mA1/gps,0,1,63.436770143077226,10.393073693656525,0.0,1.4400000000000002e-10,0.0,0.0,0.0,1.4400000000000002e-10,0.0,0.0,0.0,1.0,2
2025/04/05 15:58:43.949224226,1743861523,948321713,mA1/gps,0,1,63.43677026879815,10.393073725761049,0.0,1.4400000000000002e-10,0.0,0.0,0.0,1.4400000000000002e-10,0.0,0.0,0.0,1.0,2
2025/04/05 15:58:43.997657126,1743861523,997383056,mA1/gps,0,1,63.43677039381146,10.393073758614637,0.0,1.4400000000000002e-10,0.0,0.0,0.0,1.4400000000000002e-10,0.0,0.0,0.0,1.0,2
2025/04/05 15:58:44.49025487,1743861524,48590124,mA1/gps,0,1,63.43677051940204,10.393073791646575,0.0,1.4400000000000002e-10,0.0,0.0,0.0,1.4400000000000002e-10,0.0,0.0,0.0,1.0,2
2025/04/05 15:58:44.98757319,1743861524,98557799,mA1/gps,0,1,63.43677064453668,10.393073823194522,0.0,1.4400000000000002e-10,0.0,0.0,0.0,1.4400000000000002e-10,0.0,0.0,0.0,1.0,2
2025/04/05 15:58:44.149618323,1743861524,149507172,mA1/gps,0,1,63.43677077037133,10.393073851862452,0.0,1.4400000000000002e-10,0.0,0.0,0.0,1.4400000000000002e-10,0.0,0.0,0.0,1.0,2
2025/04/05 15:58:44.192168766,1743861524,190998093,mA1/gps,0,1,63.43677089708681,10.39307387564595,0.0,1.4400000000000002e-10,0.0,0.0,0.0,1.4400000000000002e-10,0.0,0.0,0.0,1.0,2
2025/04/05 15:58:44.243500686,1743861524,242980362,mA1/gps,0,1,63.436771023795195,10.393073894732474,0.0,1.4400000000000002e-10,0.0,0.0,0.0,1.4400000000000002e-10,0.0,0.0,0.0,1.0,2
2025/04/05 15:58:44.293275084,1743861524,292935635,mA1/gps,0,1,63.43677115021186,10.393073908708846,0.0,1.4400000000000002e-10,0.0,0.0,0.0,1.4400000000000002e-10,0.0,0.0,0.0,1.0,2
2025/04/05 15:58:44.345053722,1743861524,344771751,mA1/gps,0,1,63.436771277084176,10.393073915615737,0.0,1.4400000000000002e-10,0.0,0.0,0.0,1.4400000000000002e-10,0.0,0.0,0.0,1.0,2
2025/04/05 15:58:44.394058846,1743861524,393693718,mA1/gps,0,1,63.43677140521961,10.39307391785536,0.0,1.4400000000000002e-10,0.0,0.0,0.0,1.4400000000000002e-10,0.0,0.0,0.0,1.0,2
2025/04/05 15:58:44.445170719,1743861524,444647803,mA1/gps,0,1,63.436771533734856,10.393073914162054,0.0,1.4400000000000002e-10,0.0,0.0,0.0,1.4400000000000002e-10,0.0,0.0,0.0,1.0,2
2025/04/05 15:58:44.495228383,1743861524,494460005,mA1/gps,0,1,63.43677166182477,10.393073906703377,0.0,1.4400000000000002e-10,0.0,0.0,0.0,1.4400000000000002e-10,0.0,0.0,0.0,1.0,2
2025/04/05 15:58:44.545647352,1743861524,545538680,mA1/gps,0,1,63.436771792135815,10.393073894620317,0.0,1.4400000000000002e-10,0.0,0.0,0.0,1.4400000000000002e-10,0.0,0.0,0.0,1.0,2
2025/04/05 15:58:44.595493991,1743861524,595227677,mA1/gps,0,1,63.436771923124105,10.393073881129895,0.0,1.4400000000000002e-10,0.0,0.0,0.0,1.4400000000000002e-10,0.0,0.0,0.0,1.0,2
2025/04/05 15:58:44.647533441,1743861524,647303554,mA1/gps,0,1,63.43677205511618,10.393073866067216,0.0,1.4400000000000002e-10,0.0,0.0,0.0,1.4400000000000002e-10,0.0,0.0,0.0,1.0,2
2025/04/05 15:58:44.699951102,1743861524,699654170,mA1/gps,0,1,63.43677218860085,10.393073851653181,0.0,1.4400000000000002e-10,0.0,0.0,0.0,1.4400000000000002e-10,0.0,0.0,0.0,1.0,2
2025/04/05 15:58:44.741106523,1743861524,740696000,mA1/gps,0,1,63.43677232168552,10.39307383934383,0.0,1.4400000000000002e-10,0.0,0.0,0.0,1.4400000000000002e-10,0.0,0.0,0.0,1.0,2
2025/04/05 15:58:44.790823294,1743861524,790531479,mA1/gps,0,1,63.43677245613638,10.393073829426703,0.0,1.4400000000000002e-10,0.0,0.0,0.0,1.4400000000000002e-10,0.0,0.0,0.0,1.0,2
2025/04/05 15:58:44.846488600,1743861524,845627894,mA1/gps,0,1,63.43677259195633,10.393073823320584,0.0,1.4400000000000002e-10,0.0,0.0,0.0,1.4400000000000002e-10,0.0,0.0,0.0,1.0,2
2025/04/05 15:58:44.899638267,1743861524,895536238,mA1/gps,0,1,63.436772728574084,10.393073822563448,0.0,1.4400000000000002e-10,0.0,0.0,0.0,1.4400000000000002e-10,0.0,0.0,0.0,1.0,2
2025/04/05 15:58:44.947403193,1743861524,946922421,mA1/gps,0,1,63.43677286559092,10.3930738254377,0.0,1.4400000000000002e-10,0.0,0.0,0.0,1.4400000000000002e-10,0.0,0.0,0.0,1.0,2
2025/04/05 15:58:44.997273310,1743861524,996673121,mA1/gps,0,1,63.43677300298458,10.393073834212302,0.0,1.4400000000000002e-10,0.0,0.0,0.0,1.4400000000000002e-10,0.0,0.0,0.0,1.0,2
2025/04/05 15:58:45.47938877,1743861525,47687235,mA1/gps,0,1,63.43677314112287,10.393073848482555,0.0,1.4400000000000002e-10,0.0,0.0,0.0,1.4400000000000002e-10,0.0,0.0,0.0,1.0,2
2025/04/05 15:58:45.97662143,1743861525,97512747,mA1/gps,0,1,63.436773279577515,10.393073867213614,0.0,1.4400000000000002e-10,0.0,0.0,0.0,1.4400000000000002e-10,0.0,0.0,0.0,1.0,2
2025/04/05 15:58:45.148614544,1743861525,148433084,mA1/gps,0,1,63.436773419627144,10.393073890652909,0.0,1.4400000000000002e-10,0.0,0.0,0.0,1.4400000000000002e-10,0.0,0.0,0.0,1.0,2
2025/04/05 15:58:45.198502016,1743861525,198307643,mA1/gps,0,1,63.43677355749743,10.393073916899844,0.0,1.4400000000000002e-10,0.0,0.0,0.0,1.4400000000000002e-10,0.0,0.0,0.0,1.0,2
2025/04/05 15:58:45.249624867,1743861525,249398154,mA1/gps,0,1,63.436773696423664,10.393073945362868,0.0,1.4400000000000002e-10,0.0,0.0,0.0,1.4400000000000002e-10,0.0,0.0,0.0,1.0,2
2025/04/05 15:58:45.299511605,1743861525,299321479,mA1/gps,0,1,63.43677383495443,10.393073974770747,0.0,1.4400000000000002e-10,0.0,0.0,0.0,1.4400000000000002e-10,0.0,0.0,0.0,1.0,2
2025/04/05 15:58:45.352068317,1743861525,351532085,mA1/gps,0,1,63.43677397404812,10.393074004186003,0.0,1.4400000000000002e-10,0.0,0.0,0.0,1.4400000000000002e-10,0.0,0.0,0.0,1.0,2
2025/04/05 15:58:45.391125911,1743861525,391004092,mA1/gps,0,1,63.43677411303528,10.393074030869215,0.0,1.4400000000000002e-10,0.0,0.0,0.0,1.4400000000000002e-10,0.0,0.0,0.0,1.0,2
2025/04/05 15:58:45.443170542,1743861525,442703621,mA1/gps,0,1,63.43677425142277,10.393074055384176,0.0,1.4400000000000002e-10,0.0,0.0,0.0,1.4400000000000002e-10,0.0,0.0,0.0,1.0,2
2025/04/05 15:58:45.493049973,1743861525,492654214,mA1/gps,0,1,63.436774389346425,10.393074075814457,0.0,1.4400000000000002e-10,0.0,0.0,0.0,1.4400000000000002e-10,0.0,0.0,0.0,1.0,2
2025/04/05 15:58:45.543819960,1743861525,543473575,mA1/gps,0,1,63.436774528381186,10.39307409122246,0.0,1.4400000000000002e-10,0.0,0.0,0.0,1.4400000000000002e-10,0.0,0.0,0.0,1.0,2
2025/04/05 15:58:45.593606210,1743861525,593372140,mA1/gps,0,1,63.43677466736629,10.393074101311448,0.0,1.4400000000000002e-10,0.0,0.0,0.0,1.4400000000000002e-10,0.0,0.0,0.0,1.0,2
2025/04/05 15:58:45.644612056,1743861525,644314665,mA1/gps,0,1,63.436774805598375,10.393074106682729,0.0,1.4400000000000002e-10,0.0,0.0,0.0,1.4400000000000002e-10,0.0,0.0,0.0,1.0,2
2025/04/05 15:58:45.695540431,1743861525,694261509,mA1/gps,0,1,63.43677494414281,10.393074105575351,0.0,1.4400000000000002e-10,0.0,0.0,0.0,1.4400000000000002e-10,0.0,0.0,0.0,1.0,2
2025/04/05 15:58:45.747405923,1743861525,745594622,mA1/gps,0,1,63.43677508433109,10.393074099822075,0.0,1.4400000000000002e-10,0.0,0.0,0.0,1.4400000000000002e-10,0.0,0.0,0.0,1.0,2
2025/04/05 15:58:45.795749176,1743861525,795487244,mA1/gps,0,1,63.43677522494439,10.393074089756851,0.0,1.4400000000000002e-10,0.0,0.0,0.0,1.4400000000000002e-10,0.0,0.0,0.0,1.0,2
2025/04/05 15:58:45.846710030,1743861525,846372061,mA1/gps,0,1,63.43677536456376,10.393074076651498,0.0,1.4400000000000002e-10,0.0,0.0,0.0,1.4400000000000002e-10,0.0,0.0,0.0,1.0,2
2025/04/05 15:58:45.897038489,1743861525,896830155,mA1/gps,0,1,63.43677550559752,10.393074061710937,0.0,1.4400000000000002e-10,0.0,0.0,0.0,1.4400000000000002e-10,0.0,0.0,0.0,1.0,2
2025/04/05 15:58:45.950496031,1743861525,950155577,mA1/gps,0,1,63.436775647749016,10.393074045237631,0.0,1.4400000000000002e-10,0.0,0.0,0.0,1.4400000000000002e-10,0.0,0.0,0.0,1.0,2
2025/04/05 15:58:45.991197113,1743861525,990914886,mA1/gps,0,1,63.4367757915426,10.393074029737411,0.0,1.4400000000000002e-10,0.0,0.0,0.0,1.4400000000000002e-10,0.0,0.0,0.0,1.0,2
2025/04/05 15:58:46.42928378,1743861526,42482684,mA1/gps,0,1,63.43677593578887,10.393074015946029,0.0,1.4400000000000002e-10,0.0,0.0,0.0,1.4400000000000002e-10,0.0,0.0,0.0,1.0,2
2025/04/05 15:58:46.92260491,1743861526,91824720,mA1/gps,0,1,63.43677608039479,10.3930740044724,0.0,1.4400000000000002e-10,0.0,0.0,0.0,1.4400000000000002e-10,0.0,0.0,0.0,1.0,2
2025/04/05 15:58:46.143405096,1743861526,143155819,mA1/gps,0,1,63.43677622648551,10.39307399752786,0.0,1.4400000000000002e-10,0.0,0.0,0.0,1.4400000000000002e-10,0.0,0.0,0.0,1.0,2
2025/04/05 15:58:46.197593227,1743861526,195672194,mA1/gps,0,1,63.4367763725688,10.393073994595174,0.0,1.4400000000000002e-10,0.0,0.0,0.0,1.4400000000000002e-10,0.0,0.0,0.0,1.0,2
2025/04/05 15:58:46.247249498,1743861526,246735108,mA1/gps,0,1,63.436776520139425,10.393073997862466,0.0,1.4400000000000002e-10,0.0,0.0,0.0,1.4400000000000002e-10,0.0,0.0,0.0,1.0,2
2025/04/05 15:58:46.298490520,1743861526,296533075,mA1/gps,0,1,63.43677666938261,10.393074004753354,0.0,1.4400000000000002e-10,0.0,0.0,0.0,1.4400000000000002e-10,0.0,0.0,0.0,1.0,2
2025/04/05 15:58:46.347745350,1743861526,347526664,mA1/gps,0,1,63.43677681674845,10.393074017613193,0.0,1.4400000000000002e-10,0.0,0.0,0.0,1.4400000000000002e-10,0.0,0.0,0.0,1.0,2
2025/04/05 15:58:46.397593863,1743861526,397406182,mA1/gps,0,1,63.436776965419696,10.393074035463133,0.0,1.4400000000000002e-10,0.0,0.0,0.0,1.4400000000000002e-10,0.0,0.0,0.0,1.0,2
2025/04/05 15:58:46.448977027,1743861526,448492190,mA1/gps,0,1,63.43677711704671,10.393074056120524,0.0,1.4400000000000002e-10,0.0,0.0,0.0,1.4400000000000002e-10,0.0,0.0,0.0,1.0,2
2025/04/05 15:58:46.498521908,1743861526,498169547,mA1/gps,0,1,63.43677726618189,10.393074079656653,0.0,1.4400000000000002e-10,0.0,0.0,0.0,1.4400000000000002e-10,0.0,0.0,0.0,1.0,2
2025/04/05 15:58:46.549833867,1743861526,549560693,mA1/gps,0,1,63.436777417457726,10.393074103868088,0.0,1.4400000000000002e-10,0.0,0.0,0.0,1.4400000000000002e-10,0.0,0.0,0.0,1.0,2
2025/04/05 15:58:46.599766947,1743861526,599533151,mA1/gps,0,1,63.43677756791319,10.393074128154003,0.0,1.4400000000000002e-10,0.0,0.0,0.0,1.4400000000000002e-10,0.0,0.0,0.0,1.0,2
2025/04/05 15:58:46.650809189,1743861526,650496447,mA1/gps,0,1,63.4367777163911,10.393074151644548,0.0,1.4400000000000002e-10,0.0,0.0,0.0,1.4400000000000002e-10,0.0,0.0,0.0,1.0,2
2025/04/05 15:58:46.690719186,1743861526,690398309,mA1/gps,0,1,63.43677786879644,10.39307417334775,0.0,1.4400000000000002e-10,0.0,0.0,0.0,1.4400000000000002e-10,0.0,0.0,0.0,1.0,2
2025/04/05 15:58:46.741495116,1743861526,741338757,mA1/gps,0,1,63.436778018979396,10.393074191129774,0.0,1.4400000000000002e-10,0.0,0.0,0.0,1.4400000000000002e-10,0.0,0.0,0.0,1.0,2
2025/04/05 15:58:46.791512473,1743861526,791219343,mA1/gps,0,1,63.43677816795022,10.393074206196372,0.0,1.4400000000000002e-10,0.0,0.0,0.0,1.4400000000000002e-10,0.0,0.0,0.0,1.0,2
2025/04/05 15:58:46.842409374,1743861526,842226339,mA1/gps,0,1,63.43677831981415,10.393074215871962,0.0,1.4400000000000002e-10,0.0,0.0,0.0,1.4400000000000002e-10,0.0,0.0,0.0,1.0,2
2025/04/05 15:58:46.892903869,1743861526,892051216,mA1/gps,0,1,63.43677846910916,10.393074221934882,0.0,1.4400000000000002e-10,0.0,0.0,0.0,1.4400000000000002e-10,0.0,0.0,0.0,1.0,2
2025/04/05 15:58:46.944115379,1743861526,943478643,mA1/gps,0,1,63.43677862076293,10.39307422298163,0.0,1.4400000000000002e-10,0.0,0.0,0.0,1.4400000000000002e-10,0.0,0.0,0.0,1.0,2
2025/04/05 15:58:46.993977405,1743861526,993125444,mA1/gps,0,1,63.43677877068537,10.39307421988793,0.0,1.4400000000000002e-10,0.0,0.0,0.0,1.4400000000000002e-10,0.0,0.0,0.0,1.0,2
2025/04/05 15:58:47.44455943,1743861527,44171420,mA1/gps,0,1,63.436778920258135,10.39307421339767,0.0,1.4400000000000002e-10,0.0,0.0,0.0,1.4400000000000002e-10,0.0,0.0,0.0,1.0,2
2025/04/05 15:58:47.94206811,1743861527,93973647,mA1/gps,0,1,63.436779071532364,10.393074203170446,0.0,1.4400000000000002e-10,0.0,0.0,0.0,1.4400000000000002e-10,0.0,0.0,0.0,1.0,2
2025/04/05 15:58:47.145582489,1743861527,145192070,mA1/gps,0,1,63.436779222364095,10.393074190520961,0.0,1.4400000000000002e-10,0.0,0.0,0.0,1.4400000000000002e-10,0.0,0.0,0.0,1.0,2
2025/04/05 15:58:47.195383847,1743861527,195002988,mA1/gps,0,1,63.4367793751383,10.39307417594805,0.0,1.4400000000000002e-10,0.0,0.0,0.0,1.4400000000000002e-10,0.0,0.0,0.0,1.0,2
2025/04/05 15:58:47.246109581,1743861527,245916554,mA1/gps,0,1,63.436779526826015,10.393074162027677,0.0,1.4400000000000002e-10,0.0,0.0,0.0,1.4400000000000002e-10,0.0,0.0,0.0,1.0,2
2025/04/05 15:58:47.296983892,1743861527,296700658,mA1/gps,0,1,63.436779680100855,10.393074147507836,0.0,1.4400000000000002e-10,0.0,0.0,0.0,1.4400000000000002e-10,0.0,0.0,0.0,1.0,2
2025/04/05 15:58:47.347871336,1743861527,347590313,mA1/gps,0,1,63.43677983515142,10.393074135416306,0.0,1.4400000000000002e-10,0.0,0.0,0.0,1.4400000000000002e-10,0.0,0.0,0.0,1.0,2
2025/04/05 15:58:47.397630560,1743861527,397397034,mA1/gps,0,1,63.436779988823325,10.393074125260444,0.0,1.4400000000000002e-10,0.0,0.0,0.0,1.4400000000000002e-10,0.0,0.0,0.0,1.0,2
2025/04/05 15:58:47.448702851,1743861527,448399700,mA1/gps,0,1,63.43678014560872,10.393074119208363,0.0,1.4400000000000002e-10,0.0,0.0,0.0,1.4400000000000002e-10,0.0,0.0,0.0,1.0,2
2025/04/05 15:58:47.499360248,1743861527,498589921,mA1/gps,0,1,63.43678030237296,10.39307411609979,0.0,1.4400000000000002e-10,0.0,0.0,0.0,1.4400000000000002e-10,0.0,0.0,0.0,1.0,2
2025/04/05 15:58:47.549875506,1743861527,549614627,mA1/gps,0,1,63.43678045983745,10.393074117570338,0.0,1.4400000000000002e-10,0.0,0.0,0.0,1.4400000000000002e-10,0.0,0.0,0.0,1.0,2
2025/04/05 15:58:47.599933406,1743861527,599634078,mA1/gps,0,1,63.43678061738364,10.393074123325617,0.0,1.4400000000000002e-10,0.0,0.0,0.0,1.4400000000000002e-10,0.0,0.0,0.0,1.0,2
2025/04/05 15:58:47.641049905,1743861527,640705762,mA1/gps,0,1,63.4367807765191,10.393074131889685,0.0,1.4400000000000002e-10,0.0,0.0,0.0,1.4400000000000002e-10,0.0,0.0,0.0,1.0,2
2025/04/05 15:58:47.690559815,1743861527,690459565,mA1/gps,0,1,63.43678093641539,10.39307414434458,0.0,1.4400000000000002e-10,0.0,0.0,0.0,1.4400000000000002e-10,0.0,0.0,0.0,1.0,2
2025/04/05 15:58:47.743827180,1743861527,741475814,mA1/gps,0,1,63.43678109704733,10.393074159746504,0.0,1.4400000000000002e-10,0.0,0.0,0.0,1.4400000000000002e-10,0.0,0.0,0.0,1.0,2
2025/04/05 15:58:47.791696943,1743861527,791287017,mA1/gps,0,1,63.436781258052875,10.393074175707156,0.0,1.4400000000000002e-10,0.0,0.0,0.0,1.4400000000000002e-10,0.0,0.0,0.0,1.0,2
2025/04/05 15:58:47.842592574,1743861527,842292258,mA1/gps,0,1,63.43678142034199,10.393074192917691,0.0,1.4400000000000002e-10,0.0,0.0,0.0,1.4400000000000002e-10,0.0,0.0,0.0,1.0,2
2025/04/05 15:58:47.893321536,1743861527,893051273,mA1/gps,0,1,63.436781581920556,10.393074209965654,0.0,1.4400000000000002e-10,0.0,0.0,0.0,1.4400000000000002e-10,0.0,0.0,0.0,1.0,2
2025/04/05 15:58:47.944519381,1743861527,944176380,mA1/gps,0,1,63.436781743977825,10.393074225584606,0.0,1.4400000000000002e-10,0.0,0.0,0.0,1.4400000000000002e-10,0.0,0.0,0.0,1.0,2
2025/04/05 15:58:47.994458286,1743861527,994107300,mA1/gps,0,1,63.43678190755005,10.393074239775398,0.0,1.4400000000000002e-10,0.0,0.0,0.0,1.4400000000000002e-10,0.0,0.0,0.0,1.0,2
2025/04/05 15:58:48.45307776,1743861528,45085854,mA1/gps,0,1,63.436782068980264,10.393074251411036,0.0,1.4400000000000002e-10,0.0,0.0,0.0,1.4400000000000002e-10,0.0,0.0,0.0,1.0,2
2025/04/05 15:58:48.96886129,1743861528,94889969,mA1/gps,0,1,63.43678223239545,10.393074258699787,0.0,1.4400000000000002e-10,0.0,0.0,0.0,1.4400000000000002e-10,0.0,0.0,0.0,1.0,2
2025/04/05 15:58:48.146067274,1743861528,145885614,mA1/gps,0,1,63.436782396094586,10.3930742635042,0.0,1.4400000000000002e-10,0.0,0.0,0.0,1.4400000000000002e-10,0.0,0.0,0.0,1.0,2
2025/04/05 15:58:48.196685700,1743861528,196497582,mA1/gps,0,1,63.43678255881478,10.393074264984735,0.0,1.4400000000000002e-10,0.0,0.0,0.0,1.4400000000000002e-10,0.0,0.0,0.0,1.0,2
2025/04/05 15:58:48.248733155,1743861528,248300275,mA1/gps,0,1,63.43678272174971,10.393074263558002,0.0,1.4400000000000002e-10,0.0,0.0,0.0,1.4400000000000002e-10,0.0,0.0,0.0,1.0,2
2025/04/05 15:58:48.298272332,1743861528,298013567,mA1/gps,0,1,63.436782885346304,10.393074259056183,0.0,1.4400000000000002e-10,0.0,0.0,0.0,1.4400000000000002e-10,0.0,0.0,0.0,1.0,2
2025/04/05 15:58:48.349812530,1743861528,349587607,mA1/gps,0,1,63.43678304920376,10.393074253171127,0.0,1.4400000000000002e-10,0.0,0.0,0.0,1.4400000000000002e-10,0.0,0.0,0.0,1.0,2
2025/04/05 15:58:48.399771799,1743861528,399457481,mA1/gps,0,1,63.43678321228785,10.393074244090046,0.0,1.4400000000000002e-10,0.0,0.0,0.0,1.4400000000000002e-10,0.0,0.0,0.0,1.0,2
2025/04/05 15:58:48.450723546,1743861528,450495722,mA1/gps,0,1,63.43678337651102,10.393074235721185,0.0,1.4400000000000002e-10,0.0,0.0,0.0,1.4400000000000002e-10,0.0,0.0,0.0,1.0,2
2025/04/05 15:58:48.490762461,1743861528,490216229,mA1/gps,0,1,63.43678354085336,10.393074225658701,0.0,1.4400000000000002e-10,0.0,0.0,0.0,1.4400000000000002e-10,0.0,0.0,0.0,1.0,2
2025/04/05 15:58:48.542543424,1743861528,542176009,mA1/gps,0,1,63.43678370489012,10.393074215743063,0.0,1.4400000000000002e-10,0.0,0.0,0.0,1.4400000000000002e-10,0.0,0.0,0.0,1.0,2
2025/04/05 15:58:48.592274175,1743861528,592063578,mA1/gps,0,1,63.436783869891464,10.393074207162268,0.0,1.4400000000000002e-10,0.0,0.0,0.0,1.4400000000000002e-10,0.0,0.0,0.0,1.0,2
2025/04/05 15:58:48.643775654,1743861528,643536853,mA1/gps,0,1,63.43678403615341,10.393074199478242,0.0,1.4400000000000002e-10,0.0,0.0,0.0,1.4400000000000002e-10,0.0,0.0,0.0,1.0,2
2025/04/05 15:58:48.696397420,1743861528,695990765,mA1/gps,0,1,63.43678420174919,10.393074194595732,0.0,1.4400000000000002e-10,0.0,0.0,0.0,1.4400000000000002e-10,0.0,0.0,0.0,1.0,2
2025/04/05 15:58:48.746435447,1743861528,745954140,mA1/gps,0,1,63.436784367698614,10.393074190854723,0.0,1.4400000000000002e-10,0.0,0.0,0.0,1.4400000000000002e-10,0.0,0.0,0.0,1.0,2
2025/04/05 15:58:48.796691892,1743861528,796470520,mA1/gps,0,1,63.436784535195734,10.393074189649173,0.0,1.4400000000000002e-10,0.0,0.0,0.0,1.4400000000000002e-10,0.0,0.0,0.0,1.0,2
2025/04/05 15:58:48.847856347,1743861528,847567868,mA1/gps,0,1,63.43678470324479,10.393074190693612,0.0,1.4400000000000002e-10,0.0,0.0,0.0,1.4400000000000002e-10,0.0,0.0,0.0,1.0,2
2025/04/05 15:58:48.897676706,1743861528,897469922,mA1/gps,0,1,63.436784872291696,10.393074193132774,0.0,1.4400000000000002e-10,0.0,0.0,0.0,1.4400000000000002e-10,0.0,0.0,0.0,1.0,2
2025/04/05 15:58:48.948604603,1743861528,948432878,mA1/gps,0,1,63.436785042372634,10.393074198491297,0.0,1.4400000000000002e-10,0.0,0.0,0.0,1.4400000000000002e-10,0.0,0.0,0.0,1.0,2
2025/04/05 15:58:48.998521769,1743861528,998325530,mA1/gps,0,1,63.43678521160429,10.393074205374448,0.0,1.4400000000000002e-10,0.0,0.0,0.0,1.4400000000000002e-10,0.0,0.0,0.0,1.0,2
2025/04/05 15:58:49.49681918,1743861529,49317110,mA1/gps,0,1,63.436785383420414,10.393074213319442,0.0,1.4400000000000002e-10,0.0,0.0,0.0,1.4400000000000002e-10,0.0,0.0,0.0,1.0,2
2025/04/05 15:58:49.99653001,1743861529,99569098,mA1/gps,0,1,63.43678555386927,10.393074222370027,0.0,1.4400000000000002e-10,0.0,0.0,0.0,1.4400000000000002e-10,0.0,0.0,0.0,1.0,2
2025/04/05 15:58:49.150564588,1743861529,150327290,mA1/gps,0,1,63.43678572494907,10.393074231306773,0.0,1.4400000000000002e-10,0.0,0.0,0.0,1.4400000000000002e-10,0.0,0.0,0.0,1.0,2
2025/04/05 15:58:49.191052321,1743861529,190829081,mA1/gps,0,1,63.43678589990207,10.39307424139949,0.0,1.4400000000000002e-10,0.0,0.0,0.0,1.4400000000000002e-10,0.0,0.0,0.0,1.0,2
2025/04/05 15:58:49.241743610,1743861529,241128843,mA1/gps,0,1,63.436786072594124,10.39307424974816,0.0,1.4400000000000002e-10,0.0,0.0,0.0,1.4400000000000002e-10,0.0,0.0,0.0,1.0,2
2025/04/05 15:58:49.291135386,1743861529,290937894,mA1/gps,0,1,63.43678624602352,10.393074256646273,0.0,1.4400000000000002e-10,0.0,0.0,0.0,1.4400000000000002e-10,0.0,0.0,0.0,1.0,2
2025/04/05 15:58:49.342183123,1743861529,341966960,mA1/gps,0,1,63.43678642095802,10.393074261683198,0.0,1.4400000000000002e-10,0.0,0.0,0.0,1.4400000000000002e-10,0.0,0.0,0.0,1.0,2
2025/04/05 15:58:49.392072680,1743861529,391777101,mA1/gps,0,1,63.43678659622283,10.393074265084534,0.0,1.4400000000000002e-10,0.0,0.0,0.0,1.4400000000000002e-10,0.0,0.0,0.0,1.0,2
2025/04/05 15:58:49.443534365,1743861529,443439205,mA1/gps,0,1,63.43678677029055,10.393074266652444,0.0,1.4400000000000002e-10,0.0,0.0,0.0,1.4400000000000002e-10,0.0,0.0,0.0,1.0,2
2025/04/05 15:58:49.494163074,1743861529,493860635,mA1/gps,0,1,63.436786945407015,10.393074265776868,0.0,1.4400000000000002e-10,0.0,0.0,0.0,1.4400000000000002e-10,0.0,0.0,0.0,1.0,2
2025/04/05 15:58:49.546868088,1743861529,544888353,mA1/gps,0,1,63.436787121013666,10.39307426279816,0.0,1.4400000000000002e-10,0.0,0.0,0.0,1.4400000000000002e-10,0.0,0.0,0.0,1.0,2
2025/04/05 15:58:49.596900108,1743861529,596548620,mA1/gps,0,1,63.4367872966677,10.393074258980008,0.0,1.4400000000000002e-10,0.0,0.0,0.0,1.4400000000000002e-10,0.0,0.0,0.0,1.0,2
2025/04/05 15:58:49.647763651,1743861529,647481142,mA1/gps,0,1,63.436787472934604,10.393074253761412,0.0,1.4400000000000002e-10,0.0,0.0,0.0,1.4400000000000002e-10,0.0,0.0,0.0,1.0,2
2025/04/05 15:58:49.698412568,1743861529,697384848,mA1/gps,0,1,63.43678764926622,10.393074247725181,0.0,1.4400000000000002e-10,0.0,0.0,0.0,1.4400000000000002e-10,0.0,0.0,0.0,1.0,2
2025/04/05 15:58:49.741617341,1743861529,741421060,mA1/gps,0,1,63.43678782342688,10.393074241366474,0.0,1.4400000000000002e-10,0.0,0.0,0.0,1.4400000000000002e-10,0.0,0.0,0.0,1.0,2
2025/04/05 15:58:49.791230934,1743861529,791006417,mA1/gps,0,1,63.43678799962467,10.393074235662446,0.0,1.4400000000000002e-10,0.0,0.0,0.0,1.4400000000000002e-10,0.0,0.0,0.0,1.0,2
2025/04/05 15:58:49.845382931,1743861529,843455980,mA1/gps,0,1,63.43678817666113,10.393074230275232,0.0,1.4400000000000002e-10,0.0,0.0,0.0,1.4400000000000002e-10,0.0,0.0,0.0,1.0,2
2025/04/05 15:58:49.893626736,1743861529,893301067,mA1/gps,0,1,63.43678835195329,10.393074225808173,0.0,1.4400000000000002e-10,0.0,0.0,0.0,1.4400000000000002e-10,0.0,0.0,0.0,1.0,2
2025/04/05 15:58:49.944495525,1743861529,944224788,mA1/gps,0,1,63.4367885281963,10.393074223102861,0.0,1.4400000000000002e-10,0.0,0.0,0.0,1.4400000000000002e-10,0.0,0.0,0.0,1.0,2
2025/04/05 15:58:49.995544404,1743861529,994603400,mA1/gps,0,1,63.436788704187286,10.393074221606978,0.0,1.4400000000000002e-10,0.0,0.0,0.0,1.4400000000000002e-10,0.0,0.0,0.0,1.0,2
2025/04/05 15:58:50.45810828,1743861530,45562458,mA1/gps,0,1,63.436788881388765,10.393074222168146,0.0,1.4400000000000002e-10,0.0,0.0,0.0,1.4400000000000002e-10,0.0,0.0,0.0,1.0,2
2025/04/05 15:58:50.96445426,1743861530,96067274,mA1/gps,0,1,63.436789058738846,10.39307422461084,0.0,1.4400000000000002e-10,0.0,0.0,0.0,1.4400000000000002e-10,0.0,0.0,0.0,1.0,2
2025/04/05 15:58:50.147398261,1743861530,147313264,mA1/gps,0,1,63.43678923622199,10.393074228044325,0.0,1.4400000000000002e-10,0.0,0.0,0.0,1.4400000000000002e-10,0.0,0.0,0.0,1.0,2
2025/04/05 15:58:50.198580444,1743861530,197068785,mA1/gps,0,1,63.43678941275451,10.39307423282972,0.0,1.4400000000000002e-10,0.0,0.0,0.0,1.4400000000000002e-10,0.0,0.0,0.0,1.0,2
2025/04/05 15:58:50.248541017,1743861530,248216624,mA1/gps,0,1,63.436789590041215,10.393074238980008,0.0,1.4400000000000002e-10,0.0,0.0,0.0,1.4400000000000002e-10,0.0,0.0,0.0,1.0,2
2025/04/05 15:58:50.298564024,1743861530,298127103,mA1/gps,0,1,63.43678976881943,10.39307424606007,0.0,1.4400000000000002e-10,0.0,0.0,0.0,1.4400000000000002e-10,0.0,0.0,0.0,1.0,2
2025/04/05 15:58:50.349362910,1743861530,349100550,mA1/gps,0,1,63.43678994916109,10.393074253347363,0.0,1.4400000000000002e-10,0.0,0.0,0.0,1.4400000000000002e-10,0.0,0.0,0.0,1.0,2
2025/04/05 15:58:50.399092358,1743861530,398844212,mA1/gps,0,1,63.43679012763019,10.393074260995188,0.0,1.4400000000000002e-10,0.0,0.0,0.0,1.4400000000000002e-10,0.0,0.0,0.0,1.0,2
2025/04/05 15:58:50.453551289,1743861530,450232024,mA1/gps,0,1,63.436790309038415,10.39307426868419,0.0,1.4400000000000002e-10,0.0,0.0,0.0,1.4400000000000002e-10,0.0,0.0,0.0,1.0,2
2025/04/05 15:58:50.501110623,1743861530,500028970,mA1/gps,0,1,63.43679048857732,10.393074275382611,0.0,1.4400000000000002e-10,0.0,0.0,0.0,1.4400000000000002e-10,0.0,0.0,0.0,1.0,2
2025/04/05 15:58:50.542537195,1743861530,540984799,mA1/gps,0,1,63.4367906708085,10.393074281367541,0.0,1.4400000000000002e-10,0.0,0.0,0.0,1.4400000000000002e-10,0.0,0.0,0.0,1.0,2
2025/04/05 15:58:50.592706469,1743861530,590790534,mA1/gps,0,1,63.43679085190614,10.393074285351963,0.0,1.4400000000000002e-10,0.0,0.0,0.0,1.4400000000000002e-10,0.0,0.0,0.0,1.0,2
2025/04/05 15:58:50.642074363,1743861530,641862192,mA1/gps,0,1,63.436791034817276,10.39307428931059,0.0,1.4400000000000002e-10,0.0,0.0,0.0,1.4400000000000002e-10,0.0,0.0,0.0,1.0,2
2025/04/05 15:58:50.692440960,1743861530,691710027,mA1/gps,0,1,63.436791217568455,10.393074291084439,0.0,1.4400000000000002e-10,0.0,0.0,0.0,1.4400000000000002e-10,0.0,0.0,0.0,1.0,2
2025/04/05 15:58:50.744198737,1743861530,743920838,mA1/gps,0,1,63.43679140196071,10.39307429133872,0.0,1.4400000000000002e-10,0.0,0.0,0.0,1.4400000000000002e-10,0.0,0.0,0.0,1.0,2
2025/04/05 15:58:50.796140643,1743861530,793723657,mA1/gps,0,1,63.43679158488807,10.393074289864916,0.0,1.4400000000000002e-10,0.0,0.0,0.0,1.4400000000000002e-10,0.0,0.0,0.0,1.0,2
2025/04/05 15:58:50.844897170,1743861530,844799685,mA1/gps,0,1,63.43679176868302,10.393074288470652,0.0,1.4400000000000002e-10,0.0,0.0,0.0,1.4400000000000002e-10,0.0,0.0,0.0,1.0,2
2025/04/05 15:58:50.896468917,1743861530,895798654,mA1/gps,0,1,63.436791953142176,10.39307428546555,0.0,1.4400000000000002e-10,0.0,0.0,0.0,1.4400000000000002e-10,0.0,0.0,0.0,1.0,2
2025/04/05 15:58:50.949122989,1743861530,948772261,mA1/gps,0,1,63.43679213827199,10.39307428143579,0.0,1.4400000000000002e-10,0.0,0.0,0.0,1.4400000000000002e-10,0.0,0.0,0.0,1.0,2
2025/04/05 15:58:50.998865768,1743861530,998598039,mA1/gps,0,1,63.436792323914815,10.393074276966594,0.0,1.4400000000000002e-10,0.0,0.0,0.0,1.4400000000000002e-10,0.0,0.0,0.0,1.0,2
2025/04/05 15:58:51.49751777,1743861531,49501667,mA1/gps,0,1,63.436792508759915,10.393074272626183,0.0,1.4400000000000002e-10,0.0,0.0,0.0,1.4400000000000002e-10,0.0,0.0,0.0,1.0,2
2025/04/05 15:58:51.99700534,1743861531,99414776,mA1/gps,0,1,63.43679269312997,10.393074267892626,0.0,1.4400000000000002e-10,0.0,0.0,0.0,1.4400000000000002e-10,0.0,0.0,0.0,1.0,2
2025/04/05 15:58:51.151016917,1743861531,150450940,mA1/gps,0,1,63.43679287811355,10.393074263810028,0.0,1.4400000000000002e-10,0.0,0.0,0.0,1.4400000000000002e-10,0.0,0.0,0.0,1.0,2
2025/04/05 15:58:51.190578938,1743861531,190295767,mA1/gps,0,1,63.43679306296343,10.393074259239391,0.0,1.4400000000000002e-10,0.0,0.0,0.0,1.4400000000000002e-10,0.0,0.0,0.0,1.0,2
2025/04/05 15:58:51.245072231,1743861531,243194001,mA1/gps,0,1,63.43679324832569,10.393074255847143,0.0,1.4400000000000002e-10,0.0,0.0,0.0,1.4400000000000002e-10,0.0,0.0,0.0,1.0,2
2025/04/05 15:58:51.295564519,1743861531,293019156,mA1/gps,0,1,63.436793433700224,10.393074253798108,0.0,1.4400000000000002e-10,0.0,0.0,0.0,1.4400000000000002e-10,0.0,0.0,0.0,1.0,2
2025/04/05 15:58:51.345365161,1743861531,344692723,mA1/gps,0,1,63.43679361925163,10.393074252509752,0.0,1.4400000000000002e-10,0.0,0.0,0.0,1.4400000000000002e-10,0.0,0.0,0.0,1.0,2
2025/04/05 15:58:51.394705428,1743861531,394503294,mA1/gps,0,1,63.43679380409455,10.393074252673985,0.0,1.4400000000000002e-10,0.0,0.0,0.0,1.4400000000000002e-10,0.0,0.0,0.0,1.0,2
2025/04/05 15:58:51.448769318,1743861531,447802982,mA1/gps,0,1,63.436793988420824,10.393074253961627,0.0,1.4400000000000002e-10,0.0,0.0,0.0,1.4400000000000002e-10,0.0,0.0,0.0,1.0,2
2025/04/05 15:58:51.495867373,1743861531,495490094,mA1/gps,0,1,63.43679417297036,10.393074255552714,0.0,1.4400000000000002e-10,0.0,0.0,0.0,1.4400000000000002e-10,0.0,0.0,0.0,1.0,2
2025/04/05 15:58:51.551337610,1743861531,549347992,mA1/gps,0,1,63.43679435873134,10.393074258809959,0.0,1.4400000000000002e-10,0.0,0.0,0.0,1.4400000000000002e-10,0.0,0.0,0.0,1.0,2
2025/04/05 15:58:51.599406849,1743861531,599130048,mA1/gps,0,1,63.43679454492638,10.393074263211439,0.0,1.4400000000000002e-10,0.0,0.0,0.0,1.4400000000000002e-10,0.0,0.0,0.0,1.0,2
2025/04/05 15:58:51.652436079,1743861531,650436699,mA1/gps,0,1,63.43679473098691,10.393074267258964,0.0,1.4400000000000002e-10,0.0,0.0,0.0,1.4400000000000002e-10,0.0,0.0,0.0,1.0,2
2025/04/05 15:58:51.690390660,1743861531,690124308,mA1/gps,0,1,63.43679491647474,10.393074272410322,0.0,1.4400000000000002e-10,0.0,0.0,0.0,1.4400000000000002e-10,0.0,0.0,0.0,1.0,2
2025/04/05 15:58:51.741647636,1743861531,741132975,mA1/gps,0,1,63.43679510333676,10.393074277760107,0.0,1.4400000000000002e-10,0.0,0.0,0.0,1.4400000000000002e-10,0.0,0.0,0.0,1.0,2
2025/04/05 15:58:51.791287192,1743861531,791040456,mA1/gps,0,1,63.43679528982717,10.393074282679926,0.0,1.4400000000000002e-10,0.0,0.0,0.0,1.4400000000000002e-10,0.0,0.0,0.0,1.0,2
2025/04/05 15:58:51.842997153,1743861531,842802210,mA1/gps,0,1,63.43679547655706,10.39307428711324,0.0,1.4400000000000002e-10,0.0,0.0,0.0,1.4400000000000002e-10,0.0,0.0,0.0,1.0,2
2025/04/05 15:58:51.895962027,1743861531,892922821,mA1/gps,0,1,63.43679566481349,10.393074291425416,0.0,1.4400000000000002e-10,0.0,0.0,0.0,1.4400000000000002e-10,0.0,0.0,0.0,1.0,2
2025/04/05 15:58:51.947271247,1743861531,946679948,mA1/gps,0,1,63.436795853426084,10.393074293834966,0.0,1.4400000000000002e-10,0.0,0.0,0.0,1.4400000000000002e-10,0.0,0.0,0.0,1.0,2
2025/04/05 15:58:51.995881712,1743861531,995456053,mA1/gps,0,1,63.43679604203007,10.393074297328507,0.0,1.4400000000000002e-10,0.0,0.0,0.0,1.4400000000000002e-10,0.0,0.0,0.0,1.0,2
2025/04/05 15:58:52.46732628,1743861532,46458036,mA1/gps,0,1,63.43679623077873,10.393074298347056,0.0,1.4400000000000002e-10,0.0,0.0,0.0,1.4400000000000002e-10,0.0,0.0,0.0,1.0,2
2025/04/05 15:58:52.97949628,1743861532,96452892,mA1/gps,0,1,63.43679642142013,10.393074298533252,0.0,1.4400000000000002e-10,0.0,0.0,0.0,1.4400000000000002e-10,0.0,0.0,0.0,1.0,2
2025/04/05 15:58:52.148145739,1743861532,147909512,mA1/gps,0,1,63.43679661210026,10.393074298105898,0.0,1.4400000000000002e-10,0.0,0.0,0.0,1.4400000000000002e-10,0.0,0.0,0.0,1.0,2
2025/04/05 15:58:52.198819475,1743861532,198476697,mA1/gps,0,1,63.43679680241313,10.39307429649521,0.0,1.4400000000000002e-10,0.0,0.0,0.0,1.4400000000000002e-10,0.0,0.0,0.0,1.0,2
2025/04/05 15:58:52.249122990,1743861532,248761666,mA1/gps,0,1,63.43679699344545,10.393074293746135,0.0,1.4400000000000002e-10,0.0,0.0,0.0,1.4400000000000002e-10,0.0,0.0,0.0,1.0,2
2025/04/05 15:58:52.301594343,1743861532,298579775,mA1/gps,0,1,63.436797186002835,10.393074290369595,0.0,1.4400000000000002e-10,0.0,0.0,0.0,1.4400000000000002e-10,0.0,0.0,0.0,1.0,2
2025/04/05 15:58:52.350060162,1743861532,349855673,mA1/gps,0,1,63.43679737772521,10.393074286774155,0.0,1.4400000000000002e-10,0.0,0.0,0.0,1.4400000000000002e-10,0.0,0.0,0.0,1.0,2
2025/04/05 15:58:52.400181731,1743861532,399745603,mA1/gps,0,1,63.43679756853411,10.39307428322703,0.0,1.4400000000000002e-10,0.0,0.0,0.0,1.4400000000000002e-10,0.0,0.0,0.0,1.0,2
2025/04/05 15:58:52.451630816,1743861532,450821869,mA1/gps,0,1,63.43679776087605,10.39307427960259,0.0,1.4400000000000002e-10,0.0,0.0,0.0,1.4400000000000002e-10,0.0,0.0,0.0,1.0,2
2025/04/05 15:58:52.490633936,1743861532,490466445,mA1/gps,0,1,63.43679795319933,10.393074276236714,0.0,1.4400000000000002e-10,0.0,0.0,0.0,1.4400000000000002e-10,0.0,0.0,0.0,1.0,2
2025/04/05 15:58:52.542068372,1743861532,541564279,mA1/gps,0,1,63.43679814575541,10.393074273773978,0.0,1.4400000000000002e-10,0.0,0.0,0.0,1.4400000000000002e-10,0.0,0.0,0.0,1.0,2
2025/04/05 15:58:52.591523432,1743861532,591290317,mA1/gps,0,1,63.43679833728547,10.393074271516985,0.0,1.4400000000000002e-10,0.0,0.0,0.0,1.4400000000000002e-10,0.0,0.0,0.0,1.0,2
2025/04/05 15:58:52.643042356,1743861532,642686405,mA1/gps,0,1,63.43679852901693,10.393074270618026,0.0,1.4400000000000002e-10,0.0,0.0,0.0,1.4400000000000002e-10,0.0,0.0,0.0,1.0,2
2025/04/05 15:58:52.693797617,1743861532,692456840,mA1/gps,0,1,63.43679872227128,10.393074270693209,0.0,1.4400000000000002e-10,0.0,0.0,0.0,1.4400000000000002e-10,0.0,0.0,0.0,1.0,2
2025/04/05 15:58:52.744186898,1743861532,743703273,mA1/gps,0,1,63.43679891240158,10.393074271868587,0.0,1.4400000000000002e-10,0.0,0.0,0.0,1.4400000000000002e-10,0.0,0.0,0.0,1.0,2
2025/04/05 15:58:52.794813893,1743861532,793586569,mA1/gps,0,1,63.43679910327375,10.393074273473262,0.0,1.4400000000000002e-10,0.0,0.0,0.0,1.4400000000000002e-10,0.0,0.0,0.0,1.0,2
2025/04/05 15:58:52.845395360,1743861532,844513245,mA1/gps,0,1,63.436799295499235,10.393074275896545,0.0,1.4400000000000002e-10,0.0,0.0,0.0,1.4400000000000002e-10,0.0,0.0,0.0,1.0,2
2025/04/05 15:58:52.894740959,1743861532,894376097,mA1/gps,0,1,63.43679948764526,10.393074278796494,0.0,1.4400000000000002e-10,0.0,0.0,0.0,1.4400000000000002e-10,0.0,0.0,0.0,1.0,2
2025/04/05 15:58:52.947772092,1743861532,946889985,mA1/gps,0,1,63.43679967870714,10.393074282452126,0.0,1.4400000000000002e-10,0.0,0.0,0.0,1.4400000000000002e-10,0.0,0.0,0.0,1.0,2
2025/04/05 15:58:52.997057712,1743861532,996772488,mA1/gps,0,1,63.43679987013595,10.39307428667838,0.0,1.4400000000000002e-10,0.0,0.0,0.0,1.4400000000000002e-10,0.0,0.0,0.0,1.0,2
2025/04/05 15:58:53.51217561,1743861533,48816836,mA1/gps,0,1,63.436800060649674,10.393074290822353,0.0,1.4400000000000002e-10,0.0,0.0,0.0,1.4400000000000002e-10,0.0,0.0,0.0,1.0,2
2025/04/05 15:58:53.97937106,1743861533,97468895,mA1/gps,0,1,63.43680025262039,10.393074295488285,0.0,1.4400000000000002e-10,0.0,0.0,0.0,1.4400000000000002e-10,0.0,0.0,0.0,1.0,2
2025/04/05 15:58:53.149323675,1743861533,149097429,mA1/gps,0,1,63.43680044417941,10.393074300170355,0.0,1.4400000000000002e-10,0.0,0.0,0.0,1.4400000000000002e-10,0.0,0.0,0.0,1.0,2
2025/04/05 15:58:53.200853944,1743861533,199023870,mA1/gps,0,1,63.43680063577957,10.393074304117377,0.0,1.4400000000000002e-10,0.0,0.0,0.0,1.4400000000000002e-10,0.0,0.0,0.0,1.0,2
2025/04/05 15:58:53.242951403,1743861533,241467429,mA1/gps,0,1,63.43680082808994,10.393074307112572,0.0,1.4400000000000002e-10,0.0,0.0,0.0,1.4400000000000002e-10,0.0,0.0,0.0,1.0,2
2025/04/05 15:58:53.291240347,1743861533,290999425,mA1/gps,0,1,63.43680102062847,10.393074309706767,0.0,1.4400000000000002e-10,0.0,0.0,0.0,1.4400000000000002e-10,0.0,0.0,0.0,1.0,2
2025/04/05 15:58:53.344716362,1743861533,342845656,mA1/gps,0,1,63.436801213059404,10.393074311092803,0.0,1.4400000000000002e-10,0.0,0.0,0.0,1.4400000000000002e-10,0.0,0.0,0.0,1.0,2
2025/04/05 15:58:53.393468813,1743861533,392605022,mA1/gps,0,1,63.436801407692165,10.393074310887979,0.0,1.4400000000000002e-10,0.0,0.0,0.0,1.4400000000000002e-10,0.0,0.0,0.0,1.0,2
2025/04/05 15:58:53.444626858,1743861533,444474302,mA1/gps,0,1,63.43680160120287,10.39307430962229,0.0,1.4400000000000002e-10,0.0,0.0,0.0,1.4400000000000002e-10,0.0,0.0,0.0,1.0,2
2025/04/05 15:58:53.496292148,1743861533,494274711,mA1/gps,0,1,63.43680179451397,10.39307430680115,0.0,1.4400000000000002e-10,0.0,0.0,0.0,1.4400000000000002e-10,0.0,0.0,0.0,1.0,2
2025/04/05 15:58:53.546836654,1743861533,545474076,mA1/gps,0,1,63.43680198915114,10.393074303224273,0.0,1.4400000000000002e-10,0.0,0.0,0.0,1.4400000000000002e-10,0.0,0.0,0.0,1.0,2
2025/04/05 15:58:53.596198316,1743861533,595279851,mA1/gps,0,1,63.43680218424512,10.39307429833118,0.0,1.4400000000000002e-10,0.0,0.0,0.0,1.4400000000000002e-10,0.0,0.0,0.0,1.0,2
2025/04/05 15:58:53.646600700,1743861533,646241919,mA1/gps,0,1,63.43680238052289,10.39307429375782,0.0,1.4400000000000002e-10,0.0,0.0,0.0,1.4400000000000002e-10,0.0,0.0,0.0,1.0,2
2025/04/05 15:58:53.696452658,1743861533,696359403,mA1/gps,0,1,63.43680257654108,10.393074288127897,0.0,1.4400000000000002e-10,0.0,0.0,0.0,1.4400000000000002e-10,0.0,0.0,0.0,1.0,2
2025/04/05 15:58:53.749852721,1743861533,747459226,mA1/gps,0,1,63.43680277236633,10.393074282016235,0.0,1.4400000000000002e-10,0.0,0.0,0.0,1.4400000000000002e-10,0.0,0.0,0.0,1.0,2
2025/04/05 15:58:53.797467071,1743861533,797209587,mA1/gps,0,1,63.43680296803496,10.393074276574987,0.0,1.4400000000000002e-10,0.0,0.0,0.0,1.4400000000000002e-10,0.0,0.0,0.0,1.0,2
2025/04/05 15:58:53.848884615,1743861533,848352140,mA1/gps,0,1,63.436803163813444,10.393074270933791,0.0,1.4400000000000002e-10,0.0,0.0,0.0,1.4400000000000002e-10,0.0,0.0,0.0,1.0,2
2025/04/05 15:58:53.898471650,1743861533,898213954,mA1/gps,0,1,63.43680336012805,10.393074265490386,0.0,1.4400000000000002e-10,0.0,0.0,0.0,1.4400000000000002e-10,0.0,0.0,0.0,1.0,2
2025/04/05 15:58:53.942730883,1743861533,942471839,mA1/gps,0,1,63.4368035572622,10.393074259917142,0.0,1.4400000000000002e-10,0.0,0.0,0.0,1.4400000000000002e-10,0.0,0.0,0.0,1.0,2
2025/04/05 15:58:53.992242588,1743861533,991656899,mA1/gps,0,1,63.436803753718806,10.393074255287994,0.0,1.4400000000000002e-10,0.0,0.0,0.0,1.4400000000000002e-10,0.0,0.0,0.0,1.0,2
2025/04/05 15:58:54.42471035,1743861534,41834757,mA1/gps,0,1,63.436803950154165,10.393074250710304,0.0,1.4400000000000002e-10,0.0,0.0,0.0,1.4400000000000002e-10,0.0,0.0,0.0,1.0,2
2025/04/05 15:58:54.92502297,1743861534,91705632,mA1/gps,0,1,63.43680414547876,10.393074248102979,0.0,1.4400000000000002e-10,0.0,0.0,0.0,1.4400000000000002e-10,0.0,0.0,0.0,1.0,2
2025/04/05 15:58:54.143034560,1743861534,142675418,mA1/gps,0,1,63.43680434219392,10.393074246477058,0.0,1.4400000000000002e-10,0.0,0.0,0.0,1.4400000000000002e-10,0.0,0.0,0.0,1.0,2
2025/04/05 15:58:54.194099950,1743861534,192653505,mA1/gps,0,1,63.4368045372306,10.393074245138148,0.0,1.4400000000000002e-10,0.0,0.0,0.0,1.4400000000000002e-10,0.0,0.0,0.0,1.0,2
2025/04/05 15:58:54.243835079,1743861534,243626140,mA1/gps,0,1,63.43680473385557,10.393074247414267,0.0,1.4400000000000002e-10,0.0,0.0,0.0,1.4400000000000002e-10,0.0,0.0,0.0,1.0,2
2025/04/05 15:58:54.295611279,1743861534,293430179,mA1/gps,0,1,63.436804929563614,10.393074249489114,0.0,1.4400000000000002e-10,0.0,0.0,0.0,1.4400000000000002e-10,0.0,0.0,0.0,1.0,2
2025/04/05 15:58:54.346746846,1743861534,346164657,mA1/gps,0,1,63.43680512560234,10.393074252272285,0.0,1.4400000000000002e-10,0.0,0.0,0.0,1.4400000000000002e-10,0.0,0.0,0.0,1.0,2
2025/04/05 15:58:54.394673613,1743861534,394340753,mA1/gps,0,1,63.436805321070466,10.393074255776723,0.0,1.4400000000000002e-10,0.0,0.0,0.0,1.4400000000000002e-10,0.0,0.0,0.0,1.0,2
2025/04/05 15:58:54.446494540,1743861534,446213316,mA1/gps,0,1,63.436805516852715,10.393074258933423,0.0,1.4400000000000002e-10,0.0,0.0,0.0,1.4400000000000002e-10,0.0,0.0,0.0,1.0,2
2025/04/05 15:58:54.496267574,1743861534,496032894,mA1/gps,0,1,63.43680571270486,10.393074262169158,0.0,1.4400000000000002e-10,0.0,0.0,0.0,1.4400000000000002e-10,0.0,0.0,0.0,1.0,2
2025/04/05 15:58:54.550317068,1743861534,549592364,mA1/gps,0,1,63.43680590865872,10.393074263319196,0.0,1.4400000000000002e-10,0.0,0.0,0.0,1.4400000000000002e-10,0.0,0.0,0.0,1.0,2
2025/04/05 15:58:54.599407482,1743861534,599131071,mA1/gps,0,1,63.43680610467198,10.393074264100456,0.0,1.4400000000000002e-10,0.0,0.0,0.0,1.4400000000000002e-10,0.0,0.0,0.0,1.0,2
2025/04/05 15:58:54.651005005,1743861534,650379966,mA1/gps,0,1,63.436806300545435,10.393074264070577,0.0,1.4400000000000002e-10,0.0,0.0,0.0,1.4400000000000002e-10,0.0,0.0,0.0,1.0,2
2025/04/05 15:58:54.701277882,1743861534,700140943,mA1/gps,0,1,63.436806497231515,10.393074261576476,0.0,1.4400000000000002e-10,0.0,0.0,0.0,1.4400000000000002e-10,0.0,0.0,0.0,1.0,2
2025/04/05 15:58:54.741125867,1743861534,740943673,mA1/gps,0,1,63.43680669495577,10.39307425882467,0.0,1.4400000000000002e-10,0.0,0.0,0.0,1.4400000000000002e-10,0.0,0.0,0.0,1.0,2
2025/04/05 15:58:54.791032417,1743861534,790792578,mA1/gps,0,1,63.436806890343725,10.393074253919961,0.0,1.4400000000000002e-10,0.0,0.0,0.0,1.4400000000000002e-10,0.0,0.0,0.0,1.0,2
2025/04/05 15:58:54.842736280,1743861534,842536107,mA1/gps,0,1,63.436807087586864,10.393074248500447,0.0,1.4400000000000002e-10,0.0,0.0,0.0,1.4400000000000002e-10,0.0,0.0,0.0,1.0,2
2025/04/05 15:58:54.892423562,1743861534,891978536,mA1/gps,0,1,63.43680728525724,10.393074242766914,0.0,1.4400000000000002e-10,0.0,0.0,0.0,1.4400000000000002e-10,0.0,0.0,0.0,1.0,2
2025/04/05 15:58:54.946077965,1743861534,945093880,mA1/gps,0,1,63.436807482990325,10.393074236778878,0.0,1.4400000000000002e-10,0.0,0.0,0.0,1.4400000000000002e-10,0.0,0.0,0.0,1.0,2
2025/04/05 15:58:54.994005821,1743861534,993724095,mA1/gps,0,1,63.43680768123487,10.393074230568656,0.0,1.4400000000000002e-10,0.0,0.0,0.0,1.4400000000000002e-10,0.0,0.0,0.0,1.0,2
2025/04/05 15:58:55.46205548,1743861535,45268413,mA1/gps,0,1,63.43680787979144,10.393074225031324,0.0,1.4400000000000002e-10,0.0,0.0,0.0,1.4400000000000002e-10,0.0,0.0,0.0,1.0,2
2025/04/05 15:58:55.96913999,1743861535,95054486,mA1/gps,0,1,63.43680807855436,10.393074219699878,0.0,1.4400000000000002e-10,0.0,0.0,0.0,1.4400000000000002e-10,0.0,0.0,0.0,1.0,2
2025/04/05 15:58:55.148540753,1743861535,148349209,mA1/gps,0,1,63.43680827853235,10.393074217059548,0.0,1.4400000000000002e-10,0.0,0.0,0.0,1.4400000000000002e-10,0.0,0.0,0.0,1.0,2
2025/04/05 15:58:55.198479522,1743861535,198196334,mA1/gps,0,1,63.436808476759595,10.393074215613048,0.0,1.4400000000000002e-10,0.0,0.0,0.0,1.4400000000000002e-10,0.0,0.0,0.0,1.0,2
2025/04/05 15:58:55.250008333,1743861535,249259783,mA1/gps,0,1,63.43680867733447,10.393074215362867,0.0,1.4400000000000002e-10,0.0,0.0,0.0,1.4400000000000002e-10,0.0,0.0,0.0,1.0,2
2025/04/05 15:58:55.299353695,1743861535,299088125,mA1/gps,0,1,63.436808876914114,10.393074217629882,0.0,1.4400000000000002e-10,0.0,0.0,0.0,1.4400000000000002e-10,0.0,0.0,0.0,1.0,2
2025/04/05 15:58:55.340991718,1743861535,340817721,mA1/gps,0,1,63.43680907664444,10.393074219924479,0.0,1.4400000000000002e-10,0.0,0.0,0.0,1.4400000000000002e-10,0.0,0.0,0.0,1.0,2
2025/04/05 15:58:55.392405674,1743861535,390468549,mA1/gps,0,1,63.436809276674616,10.393074222526932,0.0,1.4400000000000002e-10,0.0,0.0,0.0,1.4400000000000002e-10,0.0,0.0,0.0,1.0,2
2025/04/05 15:58:55.442277970,1743861535,442161481,mA1/gps,0,1,63.43680947765695,10.39307422630078,0.0,1.4400000000000002e-10,0.0,0.0,0.0,1.4400000000000002e-10,0.0,0.0,0.0,1.0,2
2025/04/05 15:58:55.493892112,1743861535,491980361,mA1/gps,0,1,63.43680967768875,10.393074229846848,0.0,1.4400000000000002e-10,0.0,0.0,0.0,1.4400000000000002e-10,0.0,0.0,0.0,1.0,2
2025/04/05 15:58:55.543443919,1743861535,543051157,mA1/gps,0,1,63.43680987720438,10.393074232478105,0.0,1.4400000000000002e-10,0.0,0.0,0.0,1.4400000000000002e-10,0.0,0.0,0.0,1.0,2
2025/04/05 15:58:55.593020786,1743861535,592697516,mA1/gps,0,1,63.436810078282726,10.393074235328664,0.0,1.4400000000000002e-10,0.0,0.0,0.0,1.4400000000000002e-10,0.0,0.0,0.0,1.0,2
2025/04/05 15:58:55.644223644,1743861535,643752248,mA1/gps,0,1,63.43681027782988,10.393074237224903,0.0,1.4400000000000002e-10,0.0,0.0,0.0,1.4400000000000002e-10,0.0,0.0,0.0,1.0,2
2025/04/05 15:58:55.695509587,1743861535,693529987,mA1/gps,0,1,63.436810476906544,10.393074237210547,0.0,1.4400000000000002e-10,0.0,0.0,0.0,1.4400000000000002e-10,0.0,0.0,0.0,1.0,2
2025/04/05 15:58:55.747592934,1743861535,746074063,mA1/gps,0,1,63.43681067727938,10.393074237225138,0.0,1.4400000000000002e-10,0.0,0.0,0.0,1.4400000000000002e-10,0.0,0.0,0.0,1.0,2
2025/04/05 15:58:55.799243107,1743861535,798626775,mA1/gps,0,1,63.436810877785305,10.393074236225655,0.0,1.4400000000000002e-10,0.0,0.0,0.0,1.4400000000000002e-10,0.0,0.0,0.0,1.0,2
2025/04/05 15:58:55.852057742,1743861535,850076081,mA1/gps,0,1,63.436811076676904,10.39307423343472,0.0,1.4400000000000002e-10,0.0,0.0,0.0,1.4400000000000002e-10,0.0,0.0,0.0,1.0,2
2025/04/05 15:58:55.900307464,1743861535,899947215,mA1/gps,0,1,63.43681127582763,10.393074230484013,0.0,1.4400000000000002e-10,0.0,0.0,0.0,1.4400000000000002e-10,0.0,0.0,0.0,1.0,2
2025/04/05 15:58:55.943069738,1743861535,942816432,mA1/gps,0,1,63.43681147611532,10.393074227693381,0.0,1.4400000000000002e-10,0.0,0.0,0.0,1.4400000000000002e-10,0.0,0.0,0.0,1.0,2
2025/04/05 15:58:55.991529515,1743861535,991308927,mA1/gps,0,1,63.43681167650777,10.393074224315683,0.0,1.4400000000000002e-10,0.0,0.0,0.0,1.4400000000000002e-10,0.0,0.0,0.0,1.0,2
2025/04/05 15:58:56.48003684,1743861536,42818273,mA1/gps,0,1,63.436811876021586,10.393074220782047,0.0,1.4400000000000002e-10,0.0,0.0,0.0,1.4400000000000002e-10,0.0,0.0,0.0,1.0,2
2025/04/05 15:58:56.92747253,1743861536,92552881,mA1/gps,0,1,63.43681207523601,10.393074218695183,0.0,1.4400000000000002e-10,0.0,0.0,0.0,1.4400000000000002e-10,0.0,0.0,0.0,1.0,2
2025/04/05 15:58:56.144032748,1743861536,143622736,mA1/gps,0,1,63.43681227585741,10.393074217212243,0.0,1.4400000000000002e-10,0.0,0.0,0.0,1.4400000000000002e-10,0.0,0.0,0.0,1.0,2
2025/04/05 15:58:56.193779105,1743861536,193496590,mA1/gps,0,1,63.43681247637457,10.393074217846255,0.0,1.4400000000000002e-10,0.0,0.0,0.0,1.4400000000000002e-10,0.0,0.0,0.0,1.0,2
2025/04/05 15:58:56.245523056,1743861536,244643506,mA1/gps,0,1,63.43681267667345,10.39307422016265,0.0,1.4400000000000002e-10,0.0,0.0,0.0,1.4400000000000002e-10,0.0,0.0,0.0,1.0,2
2025/04/05 15:58:56.294858152,1743861536,294459060,mA1/gps,0,1,63.43681287756945,10.393074223503799,0.0,1.4400000000000002e-10,0.0,0.0,0.0,1.4400000000000002e-10,0.0,0.0,0.0,1.0,2
2025/04/05 15:58:56.346500653,1743861536,345495794,mA1/gps,0,1,63.436813078469555,10.393074228697387,0.0,1.4400000000000002e-10,0.0,0.0,0.0,1.4400000000000002e-10,0.0,0.0,0.0,1.0,2
2025/04/05 15:58:56.395671477,1743861536,395371105,mA1/gps,0,1,63.43681327943044,10.393074235144946,0.0,1.4400000000000002e-10,0.0,0.0,0.0,1.4400000000000002e-10,0.0,0.0,0.0,1.0,2
2025/04/05 15:58:56.446611001,1743861536,446350628,mA1/gps,0,1,63.436813480556594,10.393074241876235,0.0,1.4400000000000002e-10,0.0,0.0,0.0,1.4400000000000002e-10,0.0,0.0,0.0,1.0,2
2025/04/05 15:58:56.496643074,1743861536,496365564,mA1/gps,0,1,63.43681368279268,10.393074249470402,0.0,1.4400000000000002e-10,0.0,0.0,0.0,1.4400000000000002e-10,0.0,0.0,0.0,1.0,2
2025/04/05 15:58:56.549140157,1743861536,548730176,mA1/gps,0,1,63.4368138853151,10.393074256695115,0.0,1.4400000000000002e-10,0.0,0.0,0.0,1.4400000000000002e-10,0.0,0.0,0.0,1.0,2
2025/04/05 15:58:56.601514454,1743861536,598464961,mA1/gps,0,1,63.436814087597746,10.393074265074011,0.0,1.4400000000000002e-10,0.0,0.0,0.0,1.4400000000000002e-10,0.0,0.0,0.0,1.0,2
2025/04/05 15:58:56.650923060,1743861536,650560120,mA1/gps,0,1,63.43681429036301,10.393074271803727,0.0,1.4400000000000002e-10,0.0,0.0,0.0,1.4400000000000002e-10,0.0,0.0,0.0,1.0,2
2025/04/05 15:58:56.691090471,1743861536,690859687,mA1/gps,0,1,63.43681449225174,10.393074278111355,0.0,1.4400000000000002e-10,0.0,0.0,0.0,1.4400000000000002e-10,0.0,0.0,0.0,1.0,2
2025/04/05 15:58:56.744792017,1743861536,744355823,mA1/gps,0,1,63.436814694229206,10.393074283198656,0.0,1.4400000000000002e-10,0.0,0.0,0.0,1.4400000000000002e-10,0.0,0.0,0.0,1.0,2
2025/04/05 15:58:56.797525822,1743861536,795686077,mA1/gps,0,1,63.4368148967483,10.393074286681854,0.0,1.4400000000000002e-10,0.0,0.0,0.0,1.4400000000000002e-10,0.0,0.0,0.0,1.0,2
2025/04/05 15:58:56.848885001,1743861536,848499104,mA1/gps,0,1,63.43681509932869,10.393074289336464,0.0,1.4400000000000002e-10,0.0,0.0,0.0,1.4400000000000002e-10,0.0,0.0,0.0,1.0,2
2025/04/05 15:58:56.898686782,1743861536,898403816,mA1/gps,0,1,63.43681530253181,10.393074290712121,0.0,1.4400000000000002e-10,0.0,0.0,0.0,1.4400000000000002e-10,0.0,0.0,0.0,1.0,2
2025/04/05 15:58:56.942598503,1743861536,942328276,mA1/gps,0,1,63.436815505522766,10.393074290597186,0.0,1.4400000000000002e-10,0.0,0.0,0.0,1.4400000000000002e-10,0.0,0.0,0.0,1.0,2
2025/04/05 15:58:56.990639603,1743861536,990480222,mA1/gps,0,1,63.436815708904405,10.39307428998308,0.0,1.4400000000000002e-10,0.0,0.0,0.0,1.4400000000000002e-10,0.0,0.0,0.0,1.0,2
2025/04/05 15:58:57.42540881,1743861537,41512712,mA1/gps,0,1,63.436815909943135,10.393074287855452,0.0,1.4400000000000002e-10,0.0,0.0,0.0,1.4400000000000002e-10,0.0,0.0,0.0,1.0,2
2025/04/05 15:58:57.91509788,1743861537,91278242,mA1/gps,0,1,63.436816112947916,10.393074283620262,0.0,1.4400000000000002e-10,0.0,0.0,0.0,1.4400000000000002e-10,0.0,0.0,0.0,1.0,2
2025/04/05 15:58:57.142432845,1743861537,142253934,mA1/gps,0,1,63.43681631533837,10.393074278953723,0.0,1.4400000000000002e-10,0.0,0.0,0.0,1.4400000000000002e-10,0.0,0.0,0.0,1.0,2
2025/04/05 15:58:57.193762537,1743861537,192095849,mA1/gps,0,1,63.436816517430934,10.393074273515564,0.0,1.4400000000000002e-10,0.0,0.0,0.0,1.4400000000000002e-10,0.0,0.0,0.0,1.0,2
2025/04/05 15:58:57.244976468,1743861537,243091030,mA1/gps,0,1,63.436816719515555,10.393074267178266,0.0,1.4400000000000002e-10,0.0,0.0,0.0,1.4400000000000002e-10,0.0,0.0,0.0,1.0,2
2025/04/05 15:58:57.294751704,1743861537,293999210,mA1/gps,0,1,63.436816921292994,10.393074261154927,0.0,1.4400000000000002e-10,0.0,0.0,0.0,1.4400000000000002e-10,0.0,0.0,0.0,1.0,2
2025/04/05 15:58:57.347176477,1743861537,345207402,mA1/gps,0,1,63.43681712337555,10.393074256398174,0.0,1.4400000000000002e-10,0.0,0.0,0.0,1.4400000000000002e-10,0.0,0.0,0.0,1.0,2
2025/04/05 15:58:57.395505405,1743861537,394990741,mA1/gps,0,1,63.436817327110425,10.393074251922014,0.0,1.4400000000000002e-10,0.0,0.0,0.0,1.4400000000000002e-10,0.0,0.0,0.0,1.0,2
2025/04/05 15:58:57.450197780,1743861537,448439286,mA1/gps,0,1,63.43681753041898,10.393074248356497,0.0,1.4400000000000002e-10,0.0,0.0,0.0,1.4400000000000002e-10,0.0,0.0,0.0,1.0,2
2025/04/05 15:58:57.498458622,1743861537,498157626,mA1/gps,0,1,63.43681773246937,10.39307424643829,0.0,1.4400000000000002e-10,0.0,0.0,0.0,1.4400000000000002e-10,0.0,0.0,0.0,1.0,2
2025/04/05 15:58:57.542083702,1743861537,541875250,mA1/gps,0,1,63.436817935174695,10.393074247451297,0.0,1.4400000000000002e-10,0.0,0.0,0.0,1.4400000000000002e-10,0.0,0.0,0.0,1.0,2
2025/04/05 15:58:57.591751908,1743861537,591586108,mA1/gps,0,1,63.43681813745874,10.39307424893359,0.0,1.4400000000000002e-10,0.0,0.0,0.0,1.4400000000000002e-10,0.0,0.0,0.0,1.0,2
2025/04/05 15:58:57.643074086,1743861537,642710453,mA1/gps,0,1,63.43681834044332,10.393074252562714,0.0,1.4400000000000002e-10,0.0,0.0,0.0,1.4400000000000002e-10,0.0,0.0,0.0,1.0,2
2025/04/05 15:58:57.693384044,1743861537,693105308,mA1/gps,0,1,63.4368185438463,10.393074257826553,0.0,1.4400000000000002e-10,0.0,0.0,0.0,1.4400000000000002e-10,0.0,0.0,0.0,1.0,2
2025/04/05 15:58:57.744996060,1743861537,744761784,mA1/gps,0,1,63.43681874789396,10.39307426423161,0.0,1.4400000000000002e-10,0.0,0.0,0.0,1.4400000000000002e-10,0.0,0.0,0.0,1.0,2
2025/04/05 15:58:57.794968432,1743861537,794661141,mA1/gps,0,1,63.43681895171303,10.393074272811354,0.0,1.4400000000000002e-10,0.0,0.0,0.0,1.4400000000000002e-10,0.0,0.0,0.0,1.0,2
2025/04/05 15:58:57.846406980,1743861537,845685863,mA1/gps,0,1,63.4368191554266,10.393074281006252,0.0,1.4400000000000002e-10,0.0,0.0,0.0,1.4400000000000002e-10,0.0,0.0,0.0,1.0,2
2025/04/05 15:58:57.898622497,1743861537,896103247,mA1/gps,0,1,63.43681935989751,10.393074289055477,0.0,1.4400000000000002e-10,0.0,0.0,0.0,1.4400000000000002e-10,0.0,0.0,0.0,1.0,2
2025/04/05 15:58:57.946947659,1743861537,946633872,mA1/gps,0,1,63.436819564361144,10.393074296404354,0.0,1.4400000000000002e-10,0.0,0.0,0.0,1.4400000000000002e-10,0.0,0.0,0.0,1.0,2
2025/04/05 15:58:57.996664620,1743861537,996390051,mA1/gps,0,1,63.43681976886684,10.393074303102491,0.0,1.4400000000000002e-10,0.0,0.0,0.0,1.4400000000000002e-10,0.0,0.0,0.0,1.0,2
2025/04/05 15:58:58.50719261,1743861538,50412909,mA1/gps,0,1,63.43681997307569,10.393074309012174,0.0,1.4400000000000002e-10,0.0,0.0,0.0,1.4400000000000002e-10,0.0,0.0,0.0,1.0,2
2025/04/05 15:58:58.99881627,1743861538,99562146,mA1/gps,0,1,63.436820178882606,10.393074312744043,0.0,1.4400000000000002e-10,0.0,0.0,0.0,1.4400000000000002e-10,0.0,0.0,0.0,1.0,2
2025/04/05 15:58:58.152176811,1743861538,152053169,mA1/gps,0,1,63.43682038370277,10.393074316682467,0.0,1.4400000000000002e-10,0.0,0.0,0.0,1.4400000000000002e-10,0.0,0.0,0.0,1.0,2
2025/04/05 15:58:58.191757258,1743861538,191572394,mA1/gps,0,1,63.436820589723425,10.393074317737508,0.0,1.4400000000000002e-10,0.0,0.0,0.0,1.4400000000000002e-10,0.0,0.0,0.0,1.0,2
2025/04/05 15:58:58.243290414,1743861538,243001764,mA1/gps,0,1,63.436820794780026,10.393074318250733,0.0,1.4400000000000002e-10,0.0,0.0,0.0,1.4400000000000002e-10,0.0,0.0,0.0,1.0,2
2025/04/05 15:58:58.293228900,1743861538,293137058,mA1/gps,0,1,63.43682099893632,10.39307431675314,0.0,1.4400000000000002e-10,0.0,0.0,0.0,1.4400000000000002e-10,0.0,0.0,0.0,1.0,2
2025/04/05 15:58:58.344117142,1743861538,343723502,mA1/gps,0,1,63.4368212045874,10.393074315322972,0.0,1.4400000000000002e-10,0.0,0.0,0.0,1.4400000000000002e-10,0.0,0.0,0.0,1.0,2
2025/04/05 15:58:58.395222783,1743861538,393578636,mA1/gps,0,1,63.43682141017308,10.393074311951342,0.0,1.4400000000000002e-10,0.0,0.0,0.0,1.4400000000000002e-10,0.0,0.0,0.0,1.0,2
2025/04/05 15:58:58.445586259,1743861538,445068417,mA1/gps,0,1,63.43682161622329,10.393074308103241,0.0,1.4400000000000002e-10,0.0,0.0,0.0,1.4400000000000002e-10,0.0,0.0,0.0,1.0,2
2025/04/05 15:58:58.496942992,1743861538,494895589,mA1/gps,0,1,63.43682182111942,10.39307430408097,0.0,1.4400000000000002e-10,0.0,0.0,0.0,1.4400000000000002e-10,0.0,0.0,0.0,1.0,2
2025/04/05 15:58:58.546518872,1743861538,546332360,mA1/gps,0,1,63.43682202559505,10.39307430071012,0.0,1.4400000000000002e-10,0.0,0.0,0.0,1.4400000000000002e-10,0.0,0.0,0.0,1.0,2
2025/04/05 15:58:58.596305303,1743861538,595715583,mA1/gps,0,1,63.436822230480495,10.393074296668637,0.0,1.4400000000000002e-10,0.0,0.0,0.0,1.4400000000000002e-10,0.0,0.0,0.0,1.0,2
2025/04/05 15:58:58.648021612,1743861538,647527973,mA1/gps,0,1,63.4368224363857,10.393074294658081,0.0,1.4400000000000002e-10,0.0,0.0,0.0,1.4400000000000002e-10,0.0,0.0,0.0,1.0,2
2025/04/05 15:58:58.698616426,1743861538,698446319,mA1/gps,0,1,63.43682264183286,10.39307429290181,0.0,1.4400000000000002e-10,0.0,0.0,0.0,1.4400000000000002e-10,0.0,0.0,0.0,1.0,2
2025/04/05 15:58:58.749883600,1743861538,749511605,mA1/gps,0,1,63.436822846255396,10.393074292811795,0.0,1.4400000000000002e-10,0.0,0.0,0.0,1.4400000000000002e-10,0.0,0.0,0.0,1.0,2
2025/04/05 15:58:58.801479359,1743861538,799313530,mA1/gps,0,1,63.43682305077367,10.393074293684812,0.0,1.4400000000000002e-10,0.0,0.0,0.0,1.4400000000000002e-10,0.0,0.0,0.0,1.0,2
2025/04/05 15:58:58.850596486,1743861538,850302859,mA1/gps,0,1,63.43682325637737,10.39307429525941,0.0,1.4400000000000002e-10,0.0,0.0,0.0,1.4400000000000002e-10,0.0,0.0,0.0,1.0,2
2025/04/05 15:58:58.892383102,1743861538,890785462,mA1/gps,0,1,63.43682346198445,10.393074298539702,0.0,1.4400000000000002e-10,0.0,0.0,0.0,1.4400000000000002e-10,0.0,0.0,0.0,1.0,2
