time,header_stamp_secs,header_stamp_nsecs,header_frame_id,orientation_x,orientation_y,orientation_z,orientation_w,orientation_covariance_0,orientation_covariance_1,orientation_covariance_2,orientation_covariance_3,orientation_covariance_4,orientation_covariance_5,orientation_covariance_6,orientation_covariance_7,orientation_covariance_8,angular_velocity_x,angular_velocity_y,angular_velocity_z,angular_velocity_covariance_0,angular_velocity_covariance_1,angular_velocity_covariance_2,angular_velocity_covariance_3,angular_velocity_covariance_4,angular_velocity_covariance_5,angular_velocity_covariance_6,angular_velocity_covariance_7,angular_velocity_covariance_8,linear_acceleration_x,linear_acceleration_y,linear_acceleration_z,linear_acceleration_covariance_0,linear_acceleration_covariance_1,linear_acceleration_covariance_2,linear_acceleration_covariance_3,linear_acceleration_covariance_4,linear_acceleration_covariance_5,linear_acceleration_covariance_6,linear_acceleration_covariance_7,linear_acceleration_covariance_8
2025/04/05 15:58:42.466881509,1743861522,444777546,mA1/imu,0.7217954233452454,0.6921046314664822,-0.0006404329519661239,0.0014614329054699667,0.0,0.0,0.0,0.0,0.0,0.0,0.0,0.0,0.0,0.00030931209762477877,0.0018548492615740257,0.001460245947224566,0.0,0.0,0.0,0.0,0.0,0.0,0.0,0.0,0.0,0.00010871356921846043,0.06443820295764296,9.808762449393553,0.0,0.0,0.0,0.0,0.0,0.0,0.0,0.0,0.0
2025/04/05 15:58:42.499288373,1743861522,495000610,mA1/imu,0.7218203674482445,0.6920787848188098,-0.0005789761168547428,0.0014062458024495872,0.0,0.0,0.0,0.0,0.0,0.0,0.0,0.0,0.0,0.0008123035334089902,0.004224366090523889,0.0014303592407593649,0.0,0.0,0.0,0.0,0.0,0.0,0.0,0.0,0.0,0.0004562263289157771,-0.5519994790337878,9.809462728233663,0.0,0.0,0.0,0.0,0.0,0.0,0.0,0.0,0.0
2025/04/05 15:58:42.548162471,1743861522,547927272,mA1/imu,0.721844306202375,0.6920540867247518,-0.0004867925283290432,0.0013044860351061206,0.0,0.0,0.0,0.0,0.0,0.0,0.0,0.0,0.0,0.0009575975391747533,0.006218112191858169,0.0013203250798068712,0.0,0.0,0.0,0.0,0.0,0.0,0.0,0.0,0.0,0.008693353115702976,-0.5587549403071851,9.810155723378895,0.0,0.0,0.0,0.0,0.0,0.0,0.0,0.0,0.0
2025/04/05 15:58:42.597563721,1743861522,597118270,mA1/imu,0.7218656040479978,0.6920321857929371,-0.0003673339656470477,0.0011698653026501762,0.0,0.0,0.0,0.0,0.0,0.0,0.0,0.0,0.0,-0.000613106460911123,0.007764822852031386,0.0011621178464388089,0.0,0.0,0.0,0.0,0.0,0.0,0.0,0.0,0.0,0.009758079879354661,0.5736332380632941,9.810238299460215,0.0,0.0,0.0,0.0,0.0,0.0,0.0,0.0,0.0
2025/04/05 15:58:42.648522428,1743861522,648256155,mA1/imu,0.7218838222538263,0.6920134996244763,-0.00023164605826640538,0.001004910839108256,0.0,0.0,0.0,0.0,0.0,0.0,0.0,0.0,0.0,0.0006259433291714859,0.008957919584391901,0.0009720173349491743,0.0,0.0,0.0,0.0,0.0,0.0,0.0,0.0,0.0,0.006569103121759042,0.011157407662243194,9.808941376236577,0.0,0.0,0.0,0.0,0.0,0.0,0.0,0.0,0.0
2025/04/05 15:58:42.698485591,1743861522,698151092,mA1/imu,0.7218998419176506,0.6919970594823392,-7.579079153177773e-05,0.0008259314879255606,0.0,0.0,0.0,0.0,0.0,0.0,0.0,0.0,0.0,0.00040170059752578347,0.009726475351106519,0.0008954537976266824,0.0,0.0,0.0,0.0,0.0,0.0,0.0,0.0,0.0,0.005804291192009921,-0.011537236519986536,9.809285908251045,0.0,0.0,0.0,0.0,0.0,0.0,0.0,0.0,0.0
2025/04/05 15:58:42.750230352,1743861522,749993208,mA1/imu,0.7219150583931603,0.6919813849075033,8.466711451749002e-05,0.0006357972739334541,0.0,0.0,0.0,0.0,0.0,0.0,0.0,0.0,0.0,0.00012400016277766196,0.009927178239192175,0.0008705901555581065,0.0,0.0,0.0,0.0,0.0,0.0,0.0,0.0,0.0,0.007971513553844026,-0.044114114057543195,9.808308541982948,0.0,0.0,0.0,0.0,0.0,0.0,0.0,0.0,0.0
2025/04/05 15:58:42.800248073,1743861522,799857817,mA1/imu,0.7219300434474348,0.6919658760506456,0.00022774217194249292,0.00043229960747210704,0.0,0.0,0.0,0.0,0.0,0.0,0.0,0.0,0.0,0.0012007341429397347,0.009628868076404533,0.0008597003060172977,0.0,0.0,0.0,0.0,0.0,0.0,0.0,0.0,0.0,0.006755202412858201,0.6592375172969777,9.81194388500906,0.0,0.0,0.0,0.0,0.0,0.0,0.0,0.0,0.0
2025/04/05 15:58:42.841639683,1743861522,840915069,mA1/imu,0.7219435859664469,0.6919517662877944,0.00037752829133037125,0.00026322138665357993,0.0,0.0,0.0,0.0,0.0,0.0,0.0,0.0,0.0,0.0019219508303118145,0.008472206691212784,0.0007091977484852379,0.0,0.0,0.0,0.0,0.0,0.0,0.0,0.0,0.0,0.019116283659580662,-0.21831750525133375,9.809912582394533,0.0,0.0,0.0,0.0,0.0,0.0,0.0,0.0,0.0
2025/04/05 15:58:42.891197853,1743861522,890795630,mA1/imu,0.7219535195814549,0.6919413701616971,0.0004933911183745681,0.00011130097549808473,0.0,0.0,0.0,0.0,0.0,0.0,0.0,0.0,0.0,0.0005456050695215885,0.006862690851925716,0.0004951552193262582,0.0,0.0,0.0,0.0,0.0,0.0,0.0,0.0,0.0,0.020038622290191002,-0.014074461083624623,9.811056444154751,0.0,0.0,0.0,0.0,0.0,0.0,0.0,0.0,0.0
2025/04/05 15:58:42.942224680,1743861522,941986624,mA1/imu,0.7219598092289549,0.6919347583422154,0.0005691061703763029,-1.3196900663389939e-05,0.0,0.0,0.0,0.0,0.0,0.0,0.0,0.0,0.0,0.0011352947071169423,0.004803391118534186,0.00028324310691197604,0.0,0.0,0.0,0.0,0.0,0.0,0.0,0.0,0.0,0.021909966081685262,0.6663552950685134,9.812823258443172,0.0,0.0,0.0,0.0,0.0,0.0,0.0,0.0,0.0
2025/04/05 15:58:42.992016967,1743861522,991629888,mA1/imu,0.7219624495179511,0.6919319513671314,0.0006242629433664316,-8.036847235320016e-05,0.0,0.0,0.0,0.0,0.0,0.0,0.0,0.0,0.0,0.00046976194911959305,0.002493949011031359,7.11717192022225e-05,0.0,0.0,0.0,0.0,0.0,0.0,0.0,0.0,0.0,0.02314292382971326,0.0006444175528101791,9.807488407177596,0.0,0.0,0.0,0.0,0.0,0.0,0.0,0.0,0.0
2025/04/05 15:58:43.44182931,1743861523,43075721,mA1/imu,0.7219620544255785,0.6919323584795979,0.0006238396077739509,-0.00011867014381916586,0.0,0.0,0.0,0.0,0.0,0.0,0.0,0.0,0.0,-0.00012284071689217275,7.53809348013892e-05,-5.8350230171445186e-05,0.0,0.0,0.0,0.0,0.0,0.0,0.0,0.0,0.0,0.024591848026362412,0.6034778407833614,9.809546068985536,0.0,0.0,0.0,0.0,0.0,0.0,0.0,0.0,0.0
2025/04/05 15:58:43.93898590,1743861523,93363011,mA1/imu,0.7219597236829413,0.6919348224563934,0.0005902132468057653,-0.00010247055138504552,0.0,0.0,0.0,0.0,0.0,0.0,0.0,0.0,0.0,0.0003628267335172013,-0.002407859358080529,-0.00020507534677482016,0.0,0.0,0.0,0.0,0.0,0.0,0.0,0.0,0.0,0.023347878177271894,-0.03656533464916114,9.810463445933715,0.0,0.0,0.0,0.0,0.0,0.0,0.0,0.0,0.0
2025/04/05 15:58:43.145453910,1743861523,144962011,mA1/imu,0.7219531754891407,0.6919417209492987,0.0005152301015168917,-4.18187930621713e-05,0.0,0.0,0.0,0.0,0.0,0.0,0.0,0.0,0.0,0.0008198181353835748,-0.004801580181088013,-0.0005636555693181983,0.0,0.0,0.0,0.0,0.0,0.0,0.0,0.0,0.0,0.024715926259034113,-0.37941356510967633,9.810206381712415,0.0,0.0,0.0,0.0,0.0,0.0,0.0,0.0,0.0
2025/04/05 15:58:43.195459669,1743861523,194776886,mA1/imu,0.7219404428316555,0.6919550754112569,0.0004081542907680288,6.345636172934411e-05,0.0,0.0,0.0,0.0,0.0,0.0,0.0,0.0,0.0,-0.0001696445218596548,-0.0067431091171110385,-0.0008164787105603724,0.0,0.0,0.0,0.0,0.0,0.0,0.0,0.0,0.0,0.01818179334894527,0.11131267758723762,9.810554943447134,0.0,0.0,0.0,0.0,0.0,0.0,0.0,0.0,0.0
2025/04/05 15:58:43.246268745,1743861523,245883832,mA1/imu,0.7219249171070045,0.6919713125228415,0.0002756003806217036,0.00020186602209017383,0.0,0.0,0.0,0.0,0.0,0.0,0.0,0.0,0.0,0.00017600662043790798,-0.00821814694059907,-0.0009312787293459985,0.0,0.0,0.0,0.0,0.0,0.0,0.0,0.0,0.0,0.01579424801807105,0.0798823543228889,9.810243938595766,0.0,0.0,0.0,0.0,0.0,0.0,0.0,0.0,0.0
2025/04/05 15:58:43.296099440,1743861523,295796627,mA1/imu,0.7219075797596053,0.6919893743217157,0.0001281180460389214,0.0003683710573692562,0.0,0.0,0.0,0.0,0.0,0.0,0.0,0.0,0.0,-0.00027535651266330323,-0.009250886310467792,-0.0010692885619902383,0.0,0.0,0.0,0.0,0.0,0.0,0.0,0.0,0.0,0.016510487498430447,0.06382873307331643,9.809236112275821,0.0,0.0,0.0,0.0,0.0,0.0,0.0,0.0,0.0
2025/04/05 15:58:43.349501712,1743861523,347485392,mA1/imu,0.7218873849178706,0.6920103272089844,-2.2681510350991212e-05,0.0005567926916788934,0.0,0.0,0.0,0.0,0.0,0.0,0.0,0.0,0.0,-0.0004819697998185039,-0.0097079129915827,-0.0012315956307172983,0.0,0.0,0.0,0.0,0.0,0.0,0.0,0.0,0.0,0.011785080316258946,0.07325613554549323,9.809710763697732,0.0,0.0,0.0,0.0,0.0,0.0,0.0,0.0,0.0
2025/04/05 15:58:43.398000898,1743861523,397752956,mA1/imu,0.7218643283964072,0.6920341709499643,-0.00016852772987763605,0.00075446988253736,0.0,0.0,0.0,0.0,0.0,0.0,0.0,0.0,0.0,-0.0025598454052892946,-0.009590135271486075,-0.0013939826968038132,0.0,0.0,0.0,0.0,0.0,0.0,0.0,0.0,0.0,0.011110735266369336,-0.05395034023325929,9.811234802615015,0.0,0.0,0.0,0.0,0.0,0.0,0.0,0.0,0.0
2025/04/05 15:58:43.450535215,1743861523,448786092,mA1/imu,0.7218374388727251,0.6920619469199621,-0.00031195218908274767,0.0009360303670793413,0.0,0.0,0.0,0.0,0.0,0.0,0.0,0.0,0.0,-0.0013419849894847978,-0.008809364751821619,-0.001699783707452246,0.0,0.0,0.0,0.0,0.0,0.0,0.0,0.0,0.0,0.008025591387310384,-0.592663002152151,9.809089115486621,0.0,0.0,0.0,0.0,0.0,0.0,0.0,0.0,0.0
2025/04/05 15:58:43.500396463,1743861523,499425364,mA1/imu,0.7218058946836294,0.6920945372053299,-0.0004327390183157604,0.0011021376717282034,0.0,0.0,0.0,0.0,0.0,0.0,0.0,0.0,0.0,-0.0010571019237472854,-0.0075175886252330645,-0.0018761429858417003,0.0,0.0,0.0,0.0,0.0,0.0,0.0,0.0,0.0,0.003734303027721573,0.06858036539559556,9.808839261918536,0.0,0.0,0.0,0.0,0.0,0.0,0.0,0.0,0.0
2025/04/05 15:58:43.550713600,1743861523,550430887,mA1/imu,0.7217717602683196,0.6921298254386534,-0.0005137368629847806,0.0012517555137575257,0.0,0.0,0.0,0.0,0.0,0.0,0.0,0.0,0.0,-0.0025373413995072557,-0.005744818483110366,-0.0020235342230825893,0.0,0.0,0.0,0.0,0.0,0.0,0.0,0.0,0.0,0.001445609690511003,0.6029082853106565,9.810676924646343,0.0,0.0,0.0,0.0,0.0,0.0,0.0,0.0,0.0
2025/04/05 15:58:43.591432232,1743861523,591136574,mA1/imu,0.7217351059469049,0.6921677920265907,-0.0005581741831203439,0.0013685636358888031,0.0,0.0,0.0,0.0,0.0,0.0,0.0,0.0,0.0,-0.0038717180024338688,-0.0036558282498774953,-0.002169025854956148,0.0,0.0,0.0,0.0,0.0,0.0,0.0,0.0,0.0,0.0014178509571131266,0.4666884579297436,9.810609566753715,0.0,0.0,0.0,0.0,0.0,0.0,0.0,0.0,0.0
2025/04/05 15:58:43.642403703,1743861523,642103602,mA1/imu,0.7216959537063554,0.6922084727400737,-0.0005812723173640489,0.0014292631744396926,0.0,0.0,0.0,0.0,0.0,0.0,0.0,0.0,0.0,-0.001142951333302676,-0.001421369383206609,-0.002318217635545187,0.0,0.0,0.0,0.0,0.0,0.0,0.0,0.0,0.0,0.0012402065856261732,0.061221118567379815,9.807705043188385,0.0,0.0,0.0,0.0,0.0,0.0,0.0,0.0,0.0
2025/04/05 15:58:43.695537184,1743861523,692314092,mA1/imu,0.7216542786715029,0.6922518647600434,-0.0005432005674033008,0.0014706272468084257,0.0,0.0,0.0,0.0,0.0,0.0,0.0,0.0,0.0,-0.0006456777742019598,0.0008245558096661338,-0.002462111400813795,0.0,0.0,0.0,0.0,0.0,0.0,0.0,0.0,0.0,0.004211186128483237,-0.5509263345051714,9.80950634013388,0.0,0.0,0.0,0.0,0.0,0.0,0.0,0.0,0.0
2025/04/05 15:58:43.745334966,1743861523,745066943,mA1/imu,0.7216088144900603,0.692299333529565,-0.0004792297250400153,0.001456703003507474,0.0,0.0,0.0,0.0,0.0,0.0,0.0,0.0,0.0,-0.003989915690334063,0.0031043337854009677,-0.002810320594102336,0.0,0.0,0.0,0.0,0.0,0.0,0.0,0.0,0.0,0.01257389083552565,0.45284823662779095,9.809576701758441,0.0,0.0,0.0,0.0,0.0,0.0,0.0,0.0,0.0
2025/04/05 15:58:43.795837257,1743861523,794925215,mA1/imu,0.7215573651510149,0.6923531374013902,-0.0003875102200728708,0.0013970549761430564,0.0,0.0,0.0,0.0,0.0,0.0,0.0,0.0,0.0,-0.0005760080443269288,0.00514357249512727,-0.0030313143395061873,0.0,0.0,0.0,0.0,0.0,0.0,0.0,0.0,0.0,0.00010882258856068083,0.05255206971262029,9.811278648393149,0.0,0.0,0.0,0.0,0.0,0.0,0.0,0.0,0.0
2025/04/05 15:58:43.846186268,1743861523,845935968,mA1/imu,0.721503713587519,0.6924092927402626,-0.0002644018851389139,0.0013010372753243199,0.0,0.0,0.0,0.0,0.0,0.0,0.0,0.0,0.0,0.00010423806254603087,0.006852199561034383,-0.003124507603644869,0.0,0.0,0.0,0.0,0.0,0.0,0.0,0.0,0.0,0.007154167289600097,0.14540879120614542,9.809734026022463,0.0,0.0,0.0,0.0,0.0,0.0,0.0,0.0,0.0
2025/04/05 15:58:43.896505229,1743861523,895898848,mA1/imu,0.721449526833568,0.692466005615001,-0.0001147228899487198,0.001182428807374391,0.0,0.0,0.0,0.0,0.0,0.0,0.0,0.0,0.0,-0.0004939543324461472,0.008030680438075618,-0.003130561907968033,0.0,0.0,0.0,0.0,0.0,0.0,0.0,0.0,0.0,0.01077558259489193,0.0069633142934168845,9.807829136552733,0.0,0.0,0.0,0.0,0.0,0.0,0.0,0.0,0.0
2025/04/05 15:58:43.949210231,1743861523,948102238,mA1/imu,0.7213933745387527,0.6925247426120469,4.0545336365786474e-05,0.0010384593321486183,0.0,0.0,0.0,0.0,0.0,0.0,0.0,0.0,0.0,-0.00013504085579344317,0.008656332722416197,-0.0033648852853332373,0.0,0.0,0.0,0.0,0.0,0.0,0.0,0.0,0.0,0.015435588531371018,-0.4519470891272708,9.80925914239326,0.0,0.0,0.0,0.0,0.0,0.0,0.0,0.0,0.0
2025/04/05 15:58:43.997643445,1743861523,997317039,mA1/imu,0.7213335187873198,0.6925872849214811,0.00019225477324112206,0.0008777682476271057,0.0,0.0,0.0,0.0,0.0,0.0,0.0,0.0,0.0,-0.00047986798507722956,0.00892209620110921,-0.0034973572293083045,0.0,0.0,0.0,0.0,0.0,0.0,0.0,0.0,0.0,0.010097992968852845,0.34256444234710437,9.811075846978456,0.0,0.0,0.0,0.0,0.0,0.0,0.0,0.0,0.0
2025/04/05 15:58:44.49011906,1743861524,48405212,mA1/imu,0.7212715010068499,0.6926520043840932,0.0003380265140754685,0.0007130190037386997,0.0,0.0,0.0,0.0,0.0,0.0,0.0,0.0,0.0,0.0001908215471652303,0.00861211004331346,-0.003634914061047293,0.0,0.0,0.0,0.0,0.0,0.0,0.0,0.0,0.0,0.015559457892986978,-0.024631515948692534,9.810385268904763,0.0,0.0,0.0,0.0,0.0,0.0,0.0,0.0,0.0
2025/04/05 15:58:44.98744137,1743861524,98504031,mA1/imu,0.7212070575107166,0.6927191818350785,0.0004631187323391994,0.0005484847428111241,0.0,0.0,0.0,0.0,0.0,0.0,0.0,0.0,0.0,0.0025153022184303273,0.007796464228750201,-0.0037727619112411237,0.0,0.0,0.0,0.0,0.0,0.0,0.0,0.0,0.0,0.01648384279365909,-0.37133063040029196,9.81051458135392,0.0,0.0,0.0,0.0,0.0,0.0,0.0,0.0,0.0
2025/04/05 15:58:44.149604528,1743861524,149447739,mA1/imu,0.7211401842193782,0.6927888173194409,0.0005705605963647628,0.0004046749034194566,0.0,0.0,0.0,0.0,0.0,0.0,0.0,0.0,0.0,0.002171364142677544,0.006545209336638972,-0.003912501270546599,0.0,0.0,0.0,0.0,0.0,0.0,0.0,0.0,0.0,0.017706855451466618,0.0748371080529268,9.811613622916134,0.0,0.0,0.0,0.0,0.0,0.0,0.0,0.0,0.0
2025/04/05 15:58:44.192155189,1743861524,190965718,mA1/imu,0.7210709250786271,0.6928608951760777,0.0006485125438266329,0.000283502271102486,0.0,0.0,0.0,0.0,0.0,0.0,0.0,0.0,0.0,0.0006885583395664966,0.0049468922398382305,-0.004049330142078321,0.0,0.0,0.0,0.0,0.0,0.0,0.0,0.0,0.0,0.018227181438302778,0.5873017316122107,9.812261968212516,0.0,0.0,0.0,0.0,0.0,0.0,0.0,0.0,0.0
2025/04/05 15:58:44.243482769,1743861524,242912830,mA1/imu,0.7209993963119296,0.6929353186131928,0.0006917076737522987,0.00019046459017912416,0.0,0.0,0.0,0.0,0.0,0.0,0.0,0.0,0.0,0.0009066710417007279,0.0030617891429823734,-0.0041768498835350505,0.0,0.0,0.0,0.0,0.0,0.0,0.0,0.0,0.0,0.019095402347424545,-0.03586096187408174,9.810552338493377,0.0,0.0,0.0,0.0,0.0,0.0,0.0,0.0,0.0
2025/04/05 15:58:44.293261033,1743861524,292817451,mA1/imu,0.7209257043117795,0.6930119994421371,0.000693984106039897,0.00012600728904306523,0.0,0.0,0.0,0.0,0.0,0.0,0.0,0.0,0.0,0.002469850262901434,0.0010308725468698328,-0.004301442387430274,0.0,0.0,0.0,0.0,0.0,0.0,0.0,0.0,0.0,0.01847043038010393,-0.5574164377423182,9.809437733845702,0.0,0.0,0.0,0.0,0.0,0.0,0.0,0.0,0.0
2025/04/05 15:58:44.344858212,1743861524,343785995,mA1/imu,0.7208486006327436,0.6930922367094122,0.0006605965045532065,9.995607852414948e-05,0.0,0.0,0.0,0.0,0.0,0.0,0.0,0.0,0.0,0.0021915704842021995,-0.0011121288452247556,-0.004616200505273611,0.0,0.0,0.0,0.0,0.0,0.0,0.0,0.0,0.0,0.020068250231349526,0.05601406653407566,9.81147554088959,0.0,0.0,0.0,0.0,0.0,0.0,0.0,0.0,0.0
2025/04/05 15:58:44.394045312,1743861524,393580896,mA1/imu,0.7207662862903236,0.6931778916937024,0.0005979874127315511,0.00011586795604688458,0.0,0.0,0.0,0.0,0.0,0.0,0.0,0.0,0.0,0.0009811154232720078,-0.002944963979602459,-0.004802138251596786,0.0,0.0,0.0,0.0,0.0,0.0,0.0,0.0,0.0,0.012447076288591354,0.021280726935891378,9.810403611989631,0.0,0.0,0.0,0.0,0.0,0.0,0.0,0.0,0.0
2025/04/05 15:58:44.444771731,1743861524,444514797,mA1/imu,0.7206822542615062,0.6932653215761275,0.000505787201115596,0.00016270159576212096,0.0,0.0,0.0,0.0,0.0,0.0,0.0,0.0,0.0,0.0007279003850166661,-0.004605390168726613,-0.004864884533938892,0.0,0.0,0.0,0.0,0.0,0.0,0.0,0.0,0.0,0.014389365979091783,-0.0030454918098860853,9.809717024999037,0.0,0.0,0.0,0.0,0.0,0.0,0.0,0.0,0.0
2025/04/05 15:58:44.494601759,1743861524,494344564,mA1/imu,0.7205972179968483,0.6933537659501906,0.0003857209739326016,0.0002363836314420545,0.0,0.0,0.0,0.0,0.0,0.0,0.0,0.0,0.0,0.0008116453084436999,-0.00604752714336501,-0.004956023994893318,0.0,0.0,0.0,0.0,0.0,0.0,0.0,0.0,0.0,0.014535344217583276,0.4806620036336123,9.812005216837118,0.0,0.0,0.0,0.0,0.0,0.0,0.0,0.0,0.0
2025/04/05 15:58:44.545456836,1743861524,545295945,mA1/imu,0.7205104212062745,0.6934439758533423,0.00025738219274765926,0.00034502213407592284,0.0,0.0,0.0,0.0,0.0,0.0,0.0,0.0,0.0,0.0011267525224009298,-0.007097398232113944,-0.005047779422015899,0.0,0.0,0.0,0.0,0.0,0.0,0.0,0.0,0.0,0.010104563930233432,0.06007529068005551,9.809390643723253,0.0,0.0,0.0,0.0,0.0,0.0,0.0,0.0,0.0
2025/04/05 15:58:44.595487197,1743861524,595162307,mA1/imu,0.7204220904059886,0.6935357072916801,0.00011753918546806967,0.0004696286132247096,0.0,0.0,0.0,0.0,0.0,0.0,0.0,0.0,0.0,0.00035929210817288974,-0.007690487200078663,-0.0051274440959392775,0.0,0.0,0.0,0.0,0.0,0.0,0.0,0.0,0.0,0.009554350312370629,0.03102466096655171,9.809769515322426,0.0,0.0,0.0,0.0,0.0,0.0,0.0,0.0,0.0
2025/04/05 15:58:44.647513463,1743861524,647200076,mA1/imu,0.720332443699155,0.6936287184330915,-1.8349602985609276e-05,0.0006092475384380083,0.0,0.0,0.0,0.0,0.0,0.0,0.0,0.0,0.0,-0.0012192235455864239,-0.00778542115611475,-0.005197258368310896,0.0,0.0,0.0,0.0,0.0,0.0,0.0,0.0,0.0,0.006015251885348658,0.5810202963481803,9.809230723228938,0.0,0.0,0.0,0.0,0.0,0.0,0.0,0.0,0.0
2025/04/05 15:58:44.699937931,1743861524,699575553,mA1/imu,0.7202416194571649,0.6937228688626459,-0.00014193835694558304,0.0007554284899584872,0.0,0.0,0.0,0.0,0.0,0.0,0.0,0.0,0.0,-0.0012658782060975741,-0.007436515142446411,-0.00526105644765068,0.0,0.0,0.0,0.0,0.0,0.0,0.0,0.0,0.0,0.00509319407657958,-0.14993701615078175,9.808166374403935,0.0,0.0,0.0,0.0,0.0,0.0,0.0,0.0,0.0
2025/04/05 15:58:44.741093567,1743861524,740644122,mA1/imu,0.7201496893985474,0.6938181094024475,-0.00025600162120892393,0.0008890374341224229,0.0,0.0,0.0,0.0,0.0,0.0,0.0,0.0,0.0,-0.00026514268732524577,-0.006636858639929941,-0.005322351666325683,0.0,0.0,0.0,0.0,0.0,0.0,0.0,0.0,0.0,0.0026942951418097855,-0.4836965004471172,9.808882471092888,0.0,0.0,0.0,0.0,0.0,0.0,0.0,0.0,0.0
2025/04/05 15:58:44.790803749,1743861524,790453731,mA1/imu,0.7200566922485806,0.6939144145201582,-0.0003431934146047871,0.0010136505606449411,0.0,0.0,0.0,0.0,0.0,0.0,0.0,0.0,0.0,0.00010401462741866158,-0.005482360448031714,-0.0053799571231781616,0.0,0.0,0.0,0.0,0.0,0.0,0.0,0.0,0.0,0.0028224912636811844,-0.5160789114541245,9.809020481971858,0.0,0.0,0.0,0.0,0.0,0.0,0.0,0.0,0.0
2025/04/05 15:58:44.846476039,1743861524,845581724,mA1/imu,0.7199623996168069,0.6940120494001449,-0.00039851907967591643,0.0011223225752596316,0.0,0.0,0.0,0.0,0.0,0.0,0.0,0.0,0.0,-0.0008172670644551565,-0.00400543777749437,-0.005456313329541613,0.0,0.0,0.0,0.0,0.0,0.0,0.0,0.0,0.0,0.0018331797810258108,-0.314316124958223,9.808383751604737,0.0,0.0,0.0,0.0,0.0,0.0,0.0,0.0,0.0
2025/04/05 15:58:44.899622399,1743861524,895437871,mA1/imu,0.7198670115223846,0.6941108347093089,-0.0004224299632748239,0.001206819747721288,0.0,0.0,0.0,0.0,0.0,0.0,0.0,0.0,0.0,-0.0011734994593042157,-0.002360761417123741,-0.00551676431425474,0.0,0.0,0.0,0.0,0.0,0.0,0.0,0.0,0.0,0.002153458960365874,-0.38133978356992937,9.80842605389528,0.0,0.0,0.0,0.0,0.0,0.0,0.0,0.0,0.0
2025/04/05 15:58:44.947389532,1743861524,946797238,mA1/imu,0.7197705865350246,0.6942107284445777,-0.00041204950842550964,0.0012639171959029155,0.0,0.0,0.0,0.0,0.0,0.0,0.0,0.0,0.0,-0.002001304390783829,-0.0005620231883110362,-0.005571416631572372,0.0,0.0,0.0,0.0,0.0,0.0,0.0,0.0,0.0,0.0014234627093404721,-0.11685124144506506,9.809656208618863,0.0,0.0,0.0,0.0,0.0,0.0,0.0,0.0,0.0
2025/04/05 15:58:44.997260526,1743861524,996620261,mA1/imu,0.7196733462533921,0.6943115164208545,-0.00037263121364100306,0.0012860807895628944,0.0,0.0,0.0,0.0,0.0,0.0,0.0,0.0,0.0,-0.0011714969227693797,0.0012334782698675626,-0.005619052080178616,0.0,0.0,0.0,0.0,0.0,0.0,0.0,0.0,0.0,0.0023905130142225436,-0.14472957496092675,9.809659371659805,0.0,0.0,0.0,0.0,0.0,0.0,0.0,0.0,0.0
2025/04/05 15:58:45.47920499,1743861525,47628395,mA1/imu,0.7195744723467387,0.6944140345412719,-0.0002977572002251991,0.001280124867117189,0.0,0.0,0.0,0.0,0.0,0.0,0.0,0.0,0.0,-0.002014924932746784,0.003027246878231269,-0.00578134052905975,0.0,0.0,0.0,0.0,0.0,0.0,0.0,0.0,0.0,0.00044388573842860796,0.41411876783787105,9.810473899770741,0.0,0.0,0.0,0.0,0.0,0.0,0.0,0.0,0.0
2025/04/05 15:58:45.97584079,1743861525,97461603,mA1/imu,0.7194732831176176,0.6945189859203229,-0.00019826111937040324,0.00123845415399184,0.0,0.0,0.0,0.0,0.0,0.0,0.0,0.0,0.0,-0.001255256067990244,0.004665878434651843,-0.005844846120106509,0.0,0.0,0.0,0.0,0.0,0.0,0.0,0.0,0.0,-0.0005046857439042936,0.03703252682210667,9.81101967159157,0.0,0.0,0.0,0.0,0.0,0.0,0.0,0.0,0.0
2025/04/05 15:58:45.148554785,1743861525,148372809,mA1/imu,0.7193713128909673,0.6946247347180691,-6.58040497296769e-05,0.001178039560195496,0.0,0.0,0.0,0.0,0.0,0.0,0.0,0.0,0.0,-0.0009161864378058944,0.005983517457492109,-0.005888173669737661,0.0,0.0,0.0,0.0,0.0,0.0,0.0,0.0,0.0,0.0025492700839774597,-0.5868494813794863,9.809915097023445,0.0,0.0,0.0,0.0,0.0,0.0,0.0,0.0,0.0
2025/04/05 15:58:45.198488942,1743861525,198248267,mA1/imu,0.7192684438328872,0.6947314151879636,6.715758290950764e-05,0.0010779364569964106,0.0,0.0,0.0,0.0,0.0,0.0,0.0,0.0,0.0,-0.00040283688884975796,0.00697579529434048,-0.005940894496223682,0.0,0.0,0.0,0.0,0.0,0.0,0.0,0.0,0.0,0.0027700406035776094,-0.5509647734387417,9.810099863816474,0.0,0.0,0.0,0.0,0.0,0.0,0.0,0.0,0.0
2025/04/05 15:58:45.249617098,1743861525,249341011,mA1/imu,0.719165176118153,0.694838452649129,0.0002131504001502986,0.0009637146968322333,0.0,0.0,0.0,0.0,0.0,0.0,0.0,0.0,0.0,-0.0007331794895820094,0.007593885596114299,-0.005934607978108656,0.0,0.0,0.0,0.0,0.0,0.0,0.0,0.0,0.0,0.0030499919731778024,0.005544962017506001,9.809902712637443,0.0,0.0,0.0,0.0,0.0,0.0,0.0,0.0,0.0
2025/04/05 15:58:45.299455539,1743861525,299188939,mA1/imu,0.7190622500649008,0.6949450741152705,0.00035748065354648134,0.0008346868309940073,0.0,0.0,0.0,0.0,0.0,0.0,0.0,0.0,0.0,9.316926219191499e-05,0.007779625231835078,-0.005911964329827869,0.0,0.0,0.0,0.0,0.0,0.0,0.0,0.0,0.0,0.0038998472308261973,0.03442406844188844,9.809643400758986,0.0,0.0,0.0,0.0,0.0,0.0,0.0,0.0,0.0
2025/04/05 15:58:45.351871409,1743861525,351474193,mA1/imu,0.7189593296795802,0.6950516117747857,0.0004946558615906606,0.0007032435851681284,0.0,0.0,0.0,0.0,0.0,0.0,0.0,0.0,0.0,-0.000621394738371448,0.007426618853412324,-0.005923409874025435,0.0,0.0,0.0,0.0,0.0,0.0,0.0,0.0,0.0,0.008559526369277894,0.5865839018733771,9.811966002495687,0.0,0.0,0.0,0.0,0.0,0.0,0.0,0.0,0.0
2025/04/05 15:58:45.391110770,1743861525,390939411,mA1/imu,0.7188561518430784,0.6951583412500503,0.0006161986838880924,0.0005777949651305504,0.0,0.0,0.0,0.0,0.0,0.0,0.0,0.0,0.0,-0.0006482846943482276,0.006657102283955882,-0.005937918483614418,0.0,0.0,0.0,0.0,0.0,0.0,0.0,0.0,0.0,0.008457394249357523,0.4148464356505887,9.810643557815865,0.0,0.0,0.0,0.0,0.0,0.0,0.0,0.0,0.0
2025/04/05 15:58:45.442841917,1743861525,442583907,mA1/imu,0.7187529430193397,0.695265054183204,0.0007084299004710847,0.00045766771854168897,0.0,0.0,0.0,0.0,0.0,0.0,0.0,0.0,0.0,0.0010698303363948602,0.0055278844346595525,-0.005925193232402662,0.0,0.0,0.0,0.0,0.0,0.0,0.0,0.0,0.0,0.009676337077156842,-0.6103406403478471,9.81110699027442,0.0,0.0,0.0,0.0,0.0,0.0,0.0,0.0,0.0
2025/04/05 15:58:45.493035759,1743861525,492504219,mA1/imu,0.7186500734124541,0.6953713786381418,0.0007702261331222995,0.00035285530763387064,0.0,0.0,0.0,0.0,0.0,0.0,0.0,0.0,0.0,0.0027139720516721486,0.0040921599950499606,-0.0059059247026914605,0.0,0.0,0.0,0.0,0.0,0.0,0.0,0.0,0.0,0.010094415176184379,-0.5202943495141845,9.81058534873687,0.0,0.0,0.0,0.0,0.0,0.0,0.0,0.0,0.0
2025/04/05 15:58:45.543806268,1743861525,543409723,mA1/imu,0.7185472668352875,0.6954776066991056,0.0008045853511694371,0.0002766695410200784,0.0,0.0,0.0,0.0,0.0,0.0,0.0,0.0,0.0,0.0004999174209878549,0.0024110846124307766,-0.005918204401139233,0.0,0.0,0.0,0.0,0.0,0.0,0.0,0.0,0.0,0.01237216678914458,0.5705181635612392,9.811941764777934,0.0,0.0,0.0,0.0,0.0,0.0,0.0,0.0,0.0
2025/04/05 15:58:45.593597407,1743861525,593309606,mA1/imu,0.7184441396625542,0.695584158459378,0.0008029853158024157,0.0002278145600023467,0.0,0.0,0.0,0.0,0.0,0.0,0.0,0.0,0.0,0.0010302062726318425,0.000585504097375334,-0.005937865229043757,0.0,0.0,0.0,0.0,0.0,0.0,0.0,0.0,0.0,0.011683914511692421,-0.05085440504491722,9.810753280539304,0.0,0.0,0.0,0.0,0.0,0.0,0.0,0.0,0.0
2025/04/05 15:58:45.644594165,1743861525,644245474,mA1/imu,0.7183409236374041,0.6956908080884289,0.0007588889128537818,0.000202624401717765,0.0,0.0,0.0,0.0,0.0,0.0,0.0,0.0,0.0,0.002662388108892837,-0.0013361661374835128,-0.005914144676281105,0.0,0.0,0.0,0.0,0.0,0.0,0.0,0.0,0.0,0.015562680926191357,-0.5578758577769255,9.808807625715385,0.0,0.0,0.0,0.0,0.0,0.0,0.0,0.0,0.0
2025/04/05 15:58:45.695526952,1743861525,694153634,mA1/imu,0.71823821343129,0.6957969261806614,0.0006797141176800574,0.0002104121908550001,0.0,0.0,0.0,0.0,0.0,0.0,0.0,0.0,0.0,0.002568778198109181,-0.0032379940944623807,-0.005918102456092381,0.0,0.0,0.0,0.0,0.0,0.0,0.0,0.0,0.0,0.015951521220278035,0.05940316805246172,9.809870154274355,0.0,0.0,0.0,0.0,0.0,0.0,0.0,0.0,0.0
2025/04/05 15:58:45.747393428,1743861525,745476513,mA1/imu,0.7181345213327015,0.6959040246500383,0.0005764798588785993,0.00025576767393625154,0.0,0.0,0.0,0.0,0.0,0.0,0.0,0.0,0.0,0.000797347147113966,-0.004829573128551415,-0.006031812009572465,0.0,0.0,0.0,0.0,0.0,0.0,0.0,0.0,0.0,0.009396634266224602,0.5704051135908302,9.811243243556504,0.0,0.0,0.0,0.0,0.0,0.0,0.0,0.0,0.0
2025/04/05 15:58:45.795672671,1743861525,795346950,mA1/imu,0.7180288532222941,0.6960131136101374,0.0004518466235638004,0.0003278073024474523,0.0,0.0,0.0,0.0,0.0,0.0,0.0,0.0,0.0,0.0007362365315592908,-0.006035770877934174,-0.00608478982315014,0.0,0.0,0.0,0.0,0.0,0.0,0.0,0.0,0.0,0.008040040663781499,-0.04212556781388446,9.809854758342727,0.0,0.0,0.0,0.0,0.0,0.0,0.0,0.0,0.0
2025/04/05 15:58:45.846693135,1743861525,846297659,mA1/imu,0.7179232116502435,0.6961221141885072,0.000305250789891581,0.0004136828227237101,0.0,0.0,0.0,0.0,0.0,0.0,0.0,0.0,0.0,0.0022581208188940964,-0.006928787558540316,-0.0060459788682545295,0.0,0.0,0.0,0.0,0.0,0.0,0.0,0.0,0.0,0.008804614214163396,-0.5503119868996478,9.807767790582629,0.0,0.0,0.0,0.0,0.0,0.0,0.0,0.0,0.0
2025/04/05 15:58:45.896960850,1743861525,896766390,mA1/imu,0.7178183490217248,0.6962302233690622,0.00015379412730415226,0.0005198293542656217,0.0,0.0,0.0,0.0,0.0,0.0,0.0,0.0,0.0,0.0026046875947552364,-0.007509886796209412,-0.006029730372070881,0.0,0.0,0.0,0.0,0.0,0.0,0.0,0.0,0.0,0.009711789234078592,-0.5106147205930995,9.808567830228126,0.0,0.0,0.0,0.0,0.0,0.0,0.0,0.0,0.0
2025/04/05 15:58:45.950481433,1743861525,950061564,mA1/imu,0.7177137561080151,0.6963379640562327,3.3647770583295237e-06,0.0006356854753491895,0.0,0.0,0.0,0.0,0.0,0.0,0.0,0.0,0.0,0.000578740574396568,-0.007514919015489607,-0.005996713940184594,0.0,0.0,0.0,0.0,0.0,0.0,0.0,0.0,0.0,0.003848625175559891,0.6355606218597496,9.809630448085947,0.0,0.0,0.0,0.0,0.0,0.0,0.0,0.0,0.0
2025/04/05 15:58:45.991118860,1743861525,990837863,mA1/imu,0.7176097090498309,0.6964450511760008,-0.00012962493070369202,0.0007611617778455179,0.0,0.0,0.0,0.0,0.0,0.0,0.0,0.0,0.0,-0.000532960285535218,-0.007109983776190859,-0.005961528653801029,0.0,0.0,0.0,0.0,0.0,0.0,0.0,0.0,0.0,0.003333811927151941,0.0975638147457441,9.808385254128316,0.0,0.0,0.0,0.0,0.0,0.0,0.0,0.0,0.0
2025/04/05 15:58:46.42915506,1743861526,41842196,mA1/imu,0.71750606966845,0.6965516537511922,-0.00024813791640076457,0.0008786768385710799,0.0,0.0,0.0,0.0,0.0,0.0,0.0,0.0,0.0,0.0005203948884019473,-0.006331501993124954,-0.005944712547326805,0.0,0.0,0.0,0.0,0.0,0.0,0.0,0.0,0.0,0.003048934859224063,-0.5741710949214813,9.808854983889168,0.0,0.0,0.0,0.0,0.0,0.0,0.0,0.0,0.0
2025/04/05 15:58:46.92180397,1743861526,91720999,mA1/imu,0.7174026250482233,0.6966580142724933,-0.00034465750319289653,0.0009828199377790036,0.0,0.0,0.0,0.0,0.0,0.0,0.0,0.0,0.0,-3.477158307098095e-06,-0.005197167510110688,-0.005930971261394512,0.0,0.0,0.0,0.0,0.0,0.0,0.0,0.0,0.0,0.0031226664849589667,-0.5851469965531247,9.809240600618411,0.0,0.0,0.0,0.0,0.0,0.0,0.0,0.0,0.0
2025/04/05 15:58:46.143337198,1743861526,143101244,mA1/imu,0.7172986454958998,0.6967649071845474,-0.00040788591389323754,0.0010728070365534025,0.0,0.0,0.0,0.0,0.0,0.0,0.0,0.0,0.0,-0.0022729599197132853,-0.003682759877832006,-0.006029172511194158,0.0,0.0,0.0,0.0,0.0,0.0,0.0,0.0,0.0,-0.0021012602849186206,0.5376722946670166,9.80823739464227,0.0,0.0,0.0,0.0,0.0,0.0,0.0,0.0,0.0
2025/04/05 15:58:46.195958340,1743861526,195602576,mA1/imu,0.7171929505020762,0.6968735803715657,-0.0004376354249380262,0.0011371919259399112,0.0,0.0,0.0,0.0,0.0,0.0,0.0,0.0,0.0,-0.0025375015480376692,-0.0019162536571986535,-0.006062785913020167,0.0,0.0,0.0,0.0,0.0,0.0,0.0,0.0,0.0,-0.0026145977616925907,0.5506664968226105,9.809170506471029,0.0,0.0,0.0,0.0,0.0,0.0,0.0,0.0,0.0
2025/04/05 15:58:46.246911846,1743861526,246608094,mA1/imu,0.7170875875992372,0.6969819426192609,-0.00043035722099025634,0.0011739533423634546,0.0,0.0,0.0,0.0,0.0,0.0,0.0,0.0,0.0,-0.0005959974448054359,-6.261283955477023e-05,-0.006032119395738914,0.0,0.0,0.0,0.0,0.0,0.0,0.0,0.0,0.0,-0.0028850920348350954,-0.5442561050595401,9.808120478672882,0.0,0.0,0.0,0.0,0.0,0.0,0.0,0.0,0.0
2025/04/05 15:58:46.296601615,1743861526,296453293,mA1/imu,0.7169827200451915,0.6970898221155873,-0.0003786733477035187,0.001189817613451403,0.0,0.0,0.0,0.0,0.0,0.0,0.0,0.0,0.0,-0.001921261293960854,0.0017565118479320912,-0.006006183906300869,0.0,0.0,0.0,0.0,0.0,0.0,0.0,0.0,0.0,-0.0014814081349716068,-0.2845516765248209,9.8111519711292,0.0,0.0,0.0,0.0,0.0,0.0,0.0,0.0,0.0
2025/04/05 15:58:46.347732852,1743861526,347475628,mA1/imu,0.7168786346400347,0.6971969436702904,-0.00030649392093554437,0.0011623230712432507,0.0,0.0,0.0,0.0,0.0,0.0,0.0,0.0,0.0,-0.0026426676534853488,0.0035419079019509557,-0.00594909240537418,0.0,0.0,0.0,0.0,0.0,0.0,0.0,0.0,0.0,-0.0013818053566826034,-0.02565921507228293,9.809905986389843,0.0,0.0,0.0,0.0,0.0,0.0,0.0,0.0,0.0
2025/04/05 15:58:46.397586894,1743861526,397350419,mA1/imu,0.7167754430587491,0.6973031542503046,-0.00020127026970448913,0.001111211405726684,0.0,0.0,0.0,0.0,0.0,0.0,0.0,0.0,0.0,0.0005868157632339001,0.005015278326344587,-0.005898095988966075,0.0,0.0,0.0,0.0,0.0,0.0,0.0,0.0,0.0,-0.001176104880751632,-0.4609717969449325,9.809166823831472,0.0,0.0,0.0,0.0,0.0,0.0,0.0,0.0,0.0
2025/04/05 15:58:46.448552244,1743861526,448305792,mA1/imu,0.7166728342312485,0.6974087313975679,-6.139338297202679e-05,0.0010517966710507194,0.0,0.0,0.0,0.0,0.0,0.0,0.0,0.0,0.0,-0.001979211710676502,0.006010440455617301,-0.005853157995335346,0.0,0.0,0.0,0.0,0.0,0.0,0.0,0.0,0.0,0.008873026740647449,-0.14734058013511828,9.813646139449181,0.0,0.0,0.0,0.0,0.0,0.0,0.0,0.0,0.0
2025/04/05 15:58:46.498509247,1743861526,498126332,mA1/imu,0.7165709917842673,0.6975135032964807,7.186471537942517e-05,0.0009598374052259007,0.0,0.0,0.0,0.0,0.0,0.0,0.0,0.0,0.0,-0.0021959407770691477,0.006612820472615226,-0.005836710422326089,0.0,0.0,0.0,0.0,0.0,0.0,0.0,0.0,0.0,0.008408090015031882,0.5885061268460114,9.809096062540709,0.0,0.0,0.0,0.0,0.0,0.0,0.0,0.0,0.0
2025/04/05 15:58:46.549752469,1743861526,549500641,mA1/imu,0.7164684217888619,0.6976189438578346,0.00022255823317371073,0.0008719047477795186,0.0,0.0,0.0,0.0,0.0,0.0,0.0,0.0,0.0,-0.0002904662420805829,0.006835553018834633,-0.005936319664809494,0.0,0.0,0.0,0.0,0.0,0.0,0.0,0.0,0.0,0.007425569610288001,-0.5517090028032164,9.808803415757875,0.0,0.0,0.0,0.0,0.0,0.0,0.0,0.0,0.0
2025/04/05 15:58:46.599746835,1743861526,599460483,mA1/imu,0.7163646834164413,0.6977255279780027,0.00036381509587326806,0.0007717512910857584,0.0,0.0,0.0,0.0,0.0,0.0,0.0,0.0,0.0,-0.0016130470848354204,0.006789577887334511,-0.005942909412566131,0.0,0.0,0.0,0.0,0.0,0.0,0.0,0.0,0.0,0.00823865582575382,-0.09728681534178979,9.81087637414704,0.0,0.0,0.0,0.0,0.0,0.0,0.0,0.0,0.0
2025/04/05 15:58:46.650731009,1743861526,650410309,mA1/imu,0.7162608465567357,0.6978321665327817,0.0004816054306469947,0.0006596197400756403,0.0,0.0,0.0,0.0,0.0,0.0,0.0,0.0,0.0,5.275798083799912e-06,0.006295964045533183,-0.00595067047259075,0.0,0.0,0.0,0.0,0.0,0.0,0.0,0.0,0.0,0.009336082417919429,0.684961452692099,9.810595925670876,0.0,0.0,0.0,0.0,0.0,0.0,0.0,0.0,0.0
2025/04/05 15:58:46.690697070,1743861526,690282148,mA1/imu,0.7161568265538509,0.6979389002915619,0.0006013018885408144,0.0005741743302644173,0.0,0.0,0.0,0.0,0.0,0.0,0.0,0.0,0.0,0.0009435791231709003,0.005420574922495142,-0.005963024216376839,0.0,0.0,0.0,0.0,0.0,0.0,0.0,0.0,0.0,0.011748297461526655,-0.31546827413819795,9.812406201398625,0.0,0.0,0.0,0.0,0.0,0.0,0.0,0.0,0.0
2025/04/05 15:58:46.741442874,1743861526,741283964,mA1/imu,0.7160526650449135,0.6980457480228645,0.0006875067687657035,0.0004918167540556287,0.0,0.0,0.0,0.0,0.0,0.0,0.0,0.0,0.0,-0.00042507490263667423,0.004296662522104063,-0.005964410806850492,0.0,0.0,0.0,0.0,0.0,0.0,0.0,0.0,0.0,0.012292572770182215,-0.02930499258550512,9.809865358074138,0.0,0.0,0.0,0.0,0.0,0.0,0.0,0.0,0.0
2025/04/05 15:58:46.791364058,1743861526,791159715,mA1/imu,0.7159484696211257,0.6981526141450154,0.0007360921471857415,0.0004175859193000219,0.0,0.0,0.0,0.0,0.0,0.0,0.0,0.0,0.0,0.000980896911839406,0.002902152440212398,-0.005968089929324602,0.0,0.0,0.0,0.0,0.0,0.0,0.0,0.0,0.0,0.011784270117841398,0.043801988433475054,9.810254618315298,0.0,0.0,0.0,0.0,0.0,0.0,0.0,0.0,0.0
2025/04/05 15:58:46.842351417,1743861526,842128603,mA1/imu,0.715844416127294,0.6982592912036972,0.0007683067647659353,0.0003792779968070029,0.0,0.0,0.0,0.0,0.0,0.0,0.0,0.0,0.0,0.0017543085666523691,0.0013700309652116736,-0.005952499720813938,0.0,0.0,0.0,0.0,0.0,0.0,0.0,0.0,0.0,0.011641201078618168,-0.5570386345452585,9.812219159841376,0.0,0.0,0.0,0.0,0.0,0.0,0.0,0.0,0.0
2025/04/05 15:58:46.892890254,1743861526,891965419,mA1/imu,0.715740685586406,0.6983656509764399,0.000753117056293592,0.0003483493281810604,0.0,0.0,0.0,0.0,0.0,0.0,0.0,0.0,0.0,0.0009297569971303968,-0.00018261761115912644,-0.005933486801916875,0.0,0.0,0.0,0.0,0.0,0.0,0.0,0.0,0.0,0.010930036198190034,-0.0028655107618477515,9.80739142729028,0.0,0.0,0.0,0.0,0.0,0.0,0.0,0.0,0.0
2025/04/05 15:58:46.943397749,1743861526,943246886,mA1/imu,0.7156379736032284,0.6984709385360955,0.0007181700549993825,0.000350698364735639,0.0,0.0,0.0,0.0,0.0,0.0,0.0,0.0,0.0,0.0014306870129343764,-0.0016065680953759617,-0.005823070219303509,0.0,0.0,0.0,0.0,0.0,0.0,0.0,0.0,0.0,0.005208074946819064,-0.20113187005608044,9.808245149351084,0.0,0.0,0.0,0.0,0.0,0.0,0.0,0.0,0.0
2025/04/05 15:58:46.993283619,1743861526,993077612,mA1/imu,0.7155377113731342,0.6985737100623554,0.000649460992553271,0.0003652574886203001,0.0,0.0,0.0,0.0,0.0,0.0,0.0,0.0,0.0,0.0009374309969122187,-0.002861801263584504,-0.0056929248488439745,0.0,0.0,0.0,0.0,0.0,0.0,0.0,0.0,0.0,0.005168995150040951,-0.36535485899183373,9.80954133370149,0.0,0.0,0.0,0.0,0.0,0.0,0.0,0.0,0.0
2025/04/05 15:58:47.44378941,1743861527,44114683,mA1/imu,0.715439075396128,0.6986747944902673,0.0005526404573544939,0.00039437145024529924,0.0,0.0,0.0,0.0,0.0,0.0,0.0,0.0,0.0,0.002302987249849346,-0.004066274857678832,-0.005655435544316079,0.0,0.0,0.0,0.0,0.0,0.0,0.0,0.0,0.0,0.010199069465511572,-0.3078907939026682,9.809228765084429,0.0,0.0,0.0,0.0,0.0,0.0,0.0,0.0,0.0
2025/04/05 15:58:47.94193824,1743861527,93921684,mA1/imu,0.7153400924020239,0.6987761839202258,0.0004412279959912913,0.00044978439940442013,0.0,0.0,0.0,0.0,0.0,0.0,0.0,0.0,0.0,0.0017614093041895657,-0.005133790895238048,-0.005681532300161212,0.0,0.0,0.0,0.0,0.0,0.0,0.0,0.0,0.0,0.009860016928635326,-0.22085169648392644,9.809477822803947,0.0,0.0,0.0,0.0,0.0,0.0,0.0,0.0,0.0
2025/04/05 15:58:47.145499287,1743861527,145110285,mA1/imu,0.715240807383224,0.6988778324063492,0.00031069378297499096,0.0005160369851151965,0.0,0.0,0.0,0.0,0.0,0.0,0.0,0.0,0.0,0.0028753710597597716,-0.005827348412503241,-0.005680561161830814,0.0,0.0,0.0,0.0,0.0,0.0,0.0,0.0,0.0,0.00569123187856704,-0.5282032356893633,9.807466503405914,0.0,0.0,0.0,0.0,0.0,0.0,0.0,0.0,0.0
2025/04/05 15:58:47.195081532,1743861527,194886796,mA1/imu,0.715141835579331,0.6989790851960802,0.00018157503629468035,0.0006004108444229944,0.0,0.0,0.0,0.0,0.0,0.0,0.0,0.0,0.0,0.002209814354299925,-0.006176458606174298,-0.0056582605444901275,0.0,0.0,0.0,0.0,0.0,0.0,0.0,0.0,0.0,0.006541978714055356,-0.5676686573786215,9.809184349678448,0.0,0.0,0.0,0.0,0.0,0.0,0.0,0.0,0.0
2025/04/05 15:58:47.246048417,1743861527,245860182,mA1/imu,0.7150432516273862,0.6990798833732969,4.4353557043580005e-05,0.0006804393244264505,0.0,0.0,0.0,0.0,0.0,0.0,0.0,0.0,0.0,0.002356556333737884,-0.0061089184259882695,-0.005633465693305112,0.0,0.0,0.0,0.0,0.0,0.0,0.0,0.0,0.0,0.002953646042960354,-0.4130168479247563,9.808257451338216,0.0,0.0,0.0,0.0,0.0,0.0,0.0,0.0,0.0
2025/04/05 15:58:47.296970026,1743861527,296604606,mA1/imu,0.7149450777219332,0.6991801935468235,-7.836719548107081e-05,0.0007659318428082913,0.0,0.0,0.0,0.0,0.0,0.0,0.0,0.0,0.0,0.0008705971199409474,-0.005706414878178424,-0.005607168739171287,0.0,0.0,0.0,0.0,0.0,0.0,0.0,0.0,0.0,0.0028132130964182937,0.1257028600112643,9.80950782560794,0.0,0.0,0.0,0.0,0.0,0.0,0.0,0.0,0.0
2025/04/05 15:58:47.347798929,1743861527,347532155,mA1/imu,0.7148475125235667,0.6992798302864597,-0.0001820954221559786,0.0008483128353357488,0.0,0.0,0.0,0.0,0.0,0.0,0.0,0.0,0.0,-0.0004193772557113387,-0.004929076108203759,-0.005559654348461892,0.0,0.0,0.0,0.0,0.0,0.0,0.0,0.0,0.0,0.00011258272396003424,0.35758526912043315,9.810006071750822,0.0,0.0,0.0,0.0,0.0,0.0,0.0,0.0,0.0
2025/04/05 15:58:47.397612429,1743861527,397344621,mA1/imu,0.7147508670325642,0.6993785078111474,-0.00027369769508964116,0.0009088331102834173,0.0,0.0,0.0,0.0,0.0,0.0,0.0,0.0,0.0,0.0016116432949816201,-0.003866968129041723,-0.005505605849935801,0.0,0.0,0.0,0.0,0.0,0.0,0.0,0.0,0.0,-0.00047823623459245304,-0.5317905415834531,9.808212853796407,0.0,0.0,0.0,0.0,0.0,0.0,0.0,0.0,0.0
2025/04/05 15:58:47.448696037,1743861527,448335603,mA1/imu,0.7146551657234157,0.6994762012846655,-0.0003269475155847896,0.0009649075258549488,0.0,0.0,0.0,0.0,0.0,0.0,0.0,0.0,0.0,-0.00014479237312923232,-0.0025625126860919084,-0.005448235553000923,0.0,0.0,0.0,0.0,0.0,0.0,0.0,0.0,0.0,-0.0011513323112441326,-0.0014981147870747483,9.809299542908224,0.0,0.0,0.0,0.0,0.0,0.0,0.0,0.0,0.0
2025/04/05 15:58:47.499029784,1743861527,498525382,mA1/imu,0.7145604406065389,0.6995729098509109,-0.00035544998658943794,0.0009970848637594807,0.0,0.0,0.0,0.0,0.0,0.0,0.0,0.0,0.0,-0.000698894374192927,-0.0011418188276522848,-0.005392886235409586,0.0,0.0,0.0,0.0,0.0,0.0,0.0,0.0,0.0,-0.0006550204084527604,-0.019372892543896805,9.810121008473974,0.0,0.0,0.0,0.0,0.0,0.0,0.0,0.0,0.0
2025/04/05 15:58:47.549868216,1743861527,549563246,mA1/imu,0.714466624846906,0.6996687058329546,-0.0003526507785483538,0.001009799652021003,0.0,0.0,0.0,0.0,0.0,0.0,0.0,0.0,0.0,-0.0017697834025153306,0.00030922334031229664,-0.005342887910217004,0.0,0.0,0.0,0.0,0.0,0.0,0.0,0.0,0.0,0.00029867016423687845,0.23628301711791355,9.810497530838065,0.0,0.0,0.0,0.0,0.0,0.0,0.0,0.0,0.0
2025/04/05 15:58:47.599919422,1743861527,599574713,mA1/imu,0.7143736792587577,0.6997636358765783,-0.00032421385344947527,0.0009975833169134393,0.0,0.0,0.0,0.0,0.0,0.0,0.0,0.0,0.0,-0.0006528267908179814,0.0017171642877629207,-0.005294204484556573,0.0,0.0,0.0,0.0,0.0,0.0,0.0,0.0,0.0,0.00010968186890147197,0.02157368967883621,9.811733571307153,0.0,0.0,0.0,0.0,0.0,0.0,0.0,0.0,0.0
2025/04/05 15:58:47.641037240,1743861527,640632819,mA1/imu,0.7142812758333462,0.6998580193657622,-0.00026467246858957066,0.000970397755561579,0.0,0.0,0.0,0.0,0.0,0.0,0.0,0.0,0.0,-0.0008893346355932074,0.0029491605561618693,-0.005273889852352259,0.0,0.0,0.0,0.0,0.0,0.0,0.0,0.0,0.0,0.0026389997961899087,0.4866431972879845,9.811826827828915,0.0,0.0,0.0,0.0,0.0,0.0,0.0,0.0,0.0
2025/04/05 15:58:47.690546349,1743861527,690410880,mA1/imu,0.7141891833638931,0.6999520821589619,-0.00018096702293096987,0.0009275226606166493,0.0,0.0,0.0,0.0,0.0,0.0,0.0,0.0,0.0,-0.001630437024152734,0.003987236112798352,-0.005255598194677264,0.0,0.0,0.0,0.0,0.0,0.0,0.0,0.0,0.0,0.0041274697559209785,0.607968063481971,9.811930191477392,0.0,0.0,0.0,0.0,0.0,0.0,0.0,0.0,0.0
2025/04/05 15:58:47.743814132,1743861527,741404290,mA1/imu,0.7140972072312202,0.7000460062309457,-7.915721770935863e-05,0.0008726504508923355,0.0,0.0,0.0,0.0,0.0,0.0,0.0,0.0,0.0,-0.0012582830403001207,0.004717277611413421,-0.005256671178505762,0.0,0.0,0.0,0.0,0.0,0.0,0.0,0.0,0.0,0.006775303051420035,0.014513906756651254,9.810375304285351,0.0,0.0,0.0,0.0,0.0,0.0,0.0,0.0,0.0
2025/04/05 15:58:47.791682559,1743861527,791217919,mA1/imu,0.7140051191756,0.7001400123907994,3.2220351674328886e-05,0.0008073427386886308,0.0,0.0,0.0,0.0,0.0,0.0,0.0,0.0,0.0,-0.0005249383619416452,0.0051717651662557,-0.005262817144205895,0.0,0.0,0.0,0.0,0.0,0.0,0.0,0.0,0.0,0.006800770403862151,-0.5597318257867764,9.80967422840335,0.0,0.0,0.0,0.0,0.0,0.0,0.0,0.0,0.0
2025/04/05 15:58:47.842515902,1743861527,842227568,mA1/imu,0.7139128231173743,0.7002341808765781,0.0001522585784215244,0.0007414431964077803,0.0,0.0,0.0,0.0,0.0,0.0,0.0,0.0,0.0,-0.0015171657654375343,0.005293597289784801,-0.0052767066795175585,0.0,0.0,0.0,0.0,0.0,0.0,0.0,0.0,0.0,0.009892795508238485,-0.0027752626498060637,9.81061567200183,0.0,0.0,0.0,0.0,0.0,0.0,0.0,0.0,0.0
2025/04/05 15:58:47.893260224,1743861527,892986758,mA1/imu,0.7138202416607627,0.7003285974564121,0.0002642861363113408,0.0006695766896570307,0.0,0.0,0.0,0.0,0.0,0.0,0.0,0.0,0.0,-0.0008687746732051116,0.005113815936982525,-0.005292731932699878,0.0,0.0,0.0,0.0,0.0,0.0,0.0,0.0,0.0,0.010147234385789045,-0.5931754469115627,9.810686505897849,0.0,0.0,0.0,0.0,0.0,0.0,0.0,0.0,0.0
2025/04/05 15:58:47.944506243,1743861527,944118485,mA1/imu,0.7137275485709255,0.7004230767799563,0.0003678442983931275,0.0006038340904909838,0.0,0.0,0.0,0.0,0.0,0.0,0.0,0.0,0.0,-0.0008346240823009489,0.004531346237323242,-0.005272109134892271,0.0,0.0,0.0,0.0,0.0,0.0,0.0,0.0,0.0,0.015889744799986227,-0.08236559788735087,9.810689293827727,0.0,0.0,0.0,0.0,0.0,0.0,0.0,0.0,0.0
2025/04/05 15:58:47.994444331,1743861527,994046123,mA1/imu,0.7136353420934106,0.7005170084339577,0.0004600336556287684,0.0005547783296600208,0.0,0.0,0.0,0.0,0.0,0.0,0.0,0.0,0.0,-0.002203076549759101,0.0036439613645660035,-0.005265965751132188,0.0,0.0,0.0,0.0,0.0,0.0,0.0,0.0,0.0,0.015927380312281365,0.2773888483375149,9.810620879518083,0.0,0.0,0.0,0.0,0.0,0.0,0.0,0.0,0.0
2025/04/05 15:58:48.45293930,1743861528,45029478,mA1/imu,0.7135430571229849,0.7006110044113162,0.0005180931035837098,0.0005076503593888812,0.0,0.0,0.0,0.0,0.0,0.0,0.0,0.0,0.0,-0.0005531579801333963,0.0025414893232047872,-0.005264915106904341,0.0,0.0,0.0,0.0,0.0,0.0,0.0,0.0,0.0,0.0163501352981603,0.019330324794613434,9.809622211724282,0.0,0.0,0.0,0.0,0.0,0.0,0.0,0.0,0.0
2025/04/05 15:58:48.96873169,1743861528,94834491,mA1/imu,0.7134508195786149,0.7007049120822464,0.000562020153160909,0.00048822101709492243,0.0,0.0,0.0,0.0,0.0,0.0,0.0,0.0,0.0,0.00016837041700498243,0.001302320921015334,-0.005262626327409621,0.0,0.0,0.0,0.0,0.0,0.0,0.0,0.0,0.0,0.01590271069648186,-0.37844129284473244,9.808853829327887,0.0,0.0,0.0,0.0,0.0,0.0,0.0,0.0,0.0
2025/04/05 15:58:48.146050334,1743861528,145823526,mA1/imu,0.7133584392500901,0.7007989474289555,0.0005808159467710511,0.0004848566587357807,0.0,0.0,0.0,0.0,0.0,0.0,0.0,0.0,0.0,-0.0012663037354245631,0.0002191685523969438,-0.005308403978282056,0.0,0.0,0.0,0.0,0.0,0.0,0.0,0.0,0.0,0.00978737870894561,0.373505173515572,9.81071073668119,0.0,0.0,0.0,0.0,0.0,0.0,0.0,0.0,0.0
2025/04/05 15:58:48.196672499,1743861528,196452035,mA1/imu,0.7132653495985334,0.7008936968469176,0.00057163350373448,0.0004899157891829473,0.0,0.0,0.0,0.0,0.0,0.0,0.0,0.0,0.0,0.0012371174821703772,-0.0008207778425322104,-0.005293059748397328,0.0,0.0,0.0,0.0,0.0,0.0,0.0,0.0,0.0,0.009208255696956723,-0.5372896974425795,9.808278217004377,0.0,0.0,0.0,0.0,0.0,0.0,0.0,0.0,0.0
2025/04/05 15:58:48.248442621,1743861528,248155626,mA1/imu,0.7131734697052945,0.700987195949083,0.0005422488141480481,0.0005091072353450646,0.0,0.0,0.0,0.0,0.0,0.0,0.0,0.0,0.0,0.0012625131040343734,-0.001719645090077665,-0.005186486814068564,0.0,0.0,0.0,0.0,0.0,0.0,0.0,0.0,0.0,0.004309605170342021,-0.5049387995336164,9.80726654709156,0.0,0.0,0.0,0.0,0.0,0.0,0.0,0.0,0.0
2025/04/05 15:58:48.298194629,1743861528,297959936,mA1/imu,0.7130841408463016,0.7010780744722572,0.0004979933535186836,0.0005418213578171635,0.0,0.0,0.0,0.0,0.0,0.0,0.0,0.0,0.0,0.0008899511024080676,-0.0024646995028568086,-0.005040947782540377,0.0,0.0,0.0,0.0,0.0,0.0,0.0,0.0,0.0,0.004371692478202503,-0.22622734561582458,9.810700668805032,0.0,0.0,0.0,0.0,0.0,0.0,0.0,0.0,0.0
2025/04/05 15:58:48.349798444,1743861528,349526715,mA1/imu,0.7129972941128403,0.7011664047942406,0.00043831706158564736,0.0005824550115510075,0.0,0.0,0.0,0.0,0.0,0.0,0.0,0.0,0.0,-0.00014580869950362718,-0.0030673729578654637,-0.004898266711333394,0.0,0.0,0.0,0.0,0.0,0.0,0.0,0.0,0.0,0.00402527414826592,0.40305144742305066,9.809495710220009,0.0,0.0,0.0,0.0,0.0,0.0,0.0,0.0,0.0
2025/04/05 15:58:48.399552647,1743861528,399394836,mA1/imu,0.7129128520697687,0.7012522690607047,0.0003627038649611808,0.0006236480315577947,0.0,0.0,0.0,0.0,0.0,0.0,0.0,0.0,0.0,0.0014801991808211616,-0.0034352089333196563,-0.004766366906557188,0.0,0.0,0.0,0.0,0.0,0.0,0.0,0.0,0.0,0.0022168505139757177,-0.48148281356705286,9.80831863117188,0.0,0.0,0.0,0.0,0.0,0.0,0.0,0.0,0.0
2025/04/05 15:58:48.450716117,1743861528,450360437,mA1/imu,0.7128297868419908,0.7013366966794208,0.0002834646455844115,0.0006727030508305352,0.0,0.0,0.0,0.0,0.0,0.0,0.0,0.0,0.0,0.000847429928372347,-0.003780573762391034,-0.004750897541968303,0.0,0.0,0.0,0.0,0.0,0.0,0.0,0.0,0.0,0.009961365159216987,0.000292257661163935,9.808480488845662,0.0,0.0,0.0,0.0,0.0,0.0,0.0,0.0,0.0
2025/04/05 15:58:48.490637858,1743861528,490141425,mA1/imu,0.712746012710828,0.7014218143746229,0.000194481436000256,0.0007223996117396649,0.0,0.0,0.0,0.0,0.0,0.0,0.0,0.0,0.0,0.0015986292437030964,-0.004001720379570994,-0.00479769134547503,0.0,0.0,0.0,0.0,0.0,0.0,0.0,0.0,0.0,0.009360461519941656,-0.5843101710368469,9.807590051553714,0.0,0.0,0.0,0.0,0.0,0.0,0.0,0.0,0.0
2025/04/05 15:58:48.542530528,1743861528,542107683,mA1/imu,0.7126626146523012,0.701506520240755,0.0001023860340662143,0.0007676286555714652,0.0,0.0,0.0,0.0,0.0,0.0,0.0,0.0,0.0,0.000482998754511017,-0.0037386004296999418,-0.004692481470802717,0.0,0.0,0.0,0.0,0.0,0.0,0.0,0.0,0.0,-0.0006810369987048336,-0.042120110151774755,9.809226286961815,0.0,0.0,0.0,0.0,0.0,0.0,0.0,0.0,0.0
2025/04/05 15:58:48.592209755,1743861528,592006390,mA1/imu,0.712582119643012,0.7015882489834965,1.9882215479167804e-05,0.0008070056015030443,0.0,0.0,0.0,0.0,0.0,0.0,0.0,0.0,0.0,0.0001552181184144417,-0.003212151925982634,-0.004524412208973221,0.0,0.0,0.0,0.0,0.0,0.0,0.0,0.0,0.0,-0.0018474273128875618,0.5691815659597413,9.811228147395713,0.0,0.0,0.0,0.0,0.0,0.0,0.0,0.0,0.0
2025/04/05 15:58:48.643759428,1743861528,643476459,mA1/imu,0.7125043555770808,0.7016671810587803,-4.60489483775156e-05,0.0008415391899003271,0.0,0.0,0.0,0.0,0.0,0.0,0.0,0.0,0.0,0.0002524422818676601,-0.002582029791981446,-0.004384420732451745,0.0,0.0,0.0,0.0,0.0,0.0,0.0,0.0,0.0,0.0003343681086130437,-0.048578992167837606,9.810958051211239,0.0,0.0,0.0,0.0,0.0,0.0,0.0,0.0,0.0
2025/04/05 15:58:48.695544528,1743861528,694846147,mA1/imu,0.7124287228439224,0.701743946107781,-0.0001036592574354295,0.0008591989384156185,0.0,0.0,0.0,0.0,0.0,0.0,0.0,0.0,0.0,0.001027452073835054,-0.0018188155292799817,-0.004265963989837797,0.0,0.0,0.0,0.0,0.0,0.0,0.0,0.0,0.0,4.952832423315082e-06,-0.6112184450231525,9.809381186270178,0.0,0.0,0.0,0.0,0.0,0.0,0.0,0.0,0.0
2025/04/05 15:58:48.746020214,1743861528,745812916,mA1/imu,0.7123546436496911,0.7018191330514154,-0.00014731303238155392,0.0008628166383424694,0.0,0.0,0.0,0.0,0.0,0.0,0.0,0.0,0.0,0.002336294268505194,-0.0010510453408040421,-0.0042201377267211,0.0,0.0,0.0,0.0,0.0,0.0,0.0,0.0,0.0,0.004773042152384098,-0.5097872853836689,9.809076529486104,0.0,0.0,0.0,0.0,0.0,0.0,0.0,0.0,0.0
2025/04/05 15:58:48.796549480,1743861528,796422593,mA1/imu,0.7122805508893975,0.7018943256266198,-0.00016883844186109755,0.000862537784501126,0.0,0.0,0.0,0.0,0.0,0.0,0.0,0.0,0.0,0.0004291034936958642,-0.00030094932422778997,-0.004225313114590112,0.0,0.0,0.0,0.0,0.0,0.0,0.0,0.0,0.0,0.0057430644105605794,0.6257632717453797,9.81167349762993,0.0,0.0,0.0,0.0,0.0,0.0,0.0,0.0,0.0
2025/04/05 15:58:48.847667957,1743861528,847424109,mA1/imu,0.7122062790926704,0.7019696988375616,-0.00017291161978377138,0.000853250519031277,0.0,0.0,0.0,0.0,0.0,0.0,0.0,0.0,0.0,-0.0008455658883007732,0.00044513800019607155,-0.004238192123430139,0.0,0.0,0.0,0.0,0.0,0.0,0.0,0.0,0.0,0.006345990143024012,0.44879467732197964,9.810907107166804,0.0,0.0,0.0,0.0,0.0,0.0,0.0,0.0,0.0
2025/04/05 15:58:48.897487024,1743861528,897362045,mA1/imu,0.7121317168144131,0.7020453663049093,-0.00016161425134567716,0.0008339290112456315,0.0,0.0,0.0,0.0,0.0,0.0,0.0,0.0,0.0,-0.0007576376898872796,0.0011498085570036485,-0.00425746558072775,0.0,0.0,0.0,0.0,0.0,0.0,0.0,0.0,0.0,0.0061660539209465555,0.13745388281728088,9.810183662323388,0.0,0.0,0.0,0.0,0.0,0.0,0.0,0.0,0.0
2025/04/05 15:58:48.948597316,1743861528,948372493,mA1/imu,0.7120567437675571,0.7021214437942566,-0.00013294313824978305,0.0008087926397922064,0.0,0.0,0.0,0.0,0.0,0.0,0.0,0.0,0.0,-0.0013723654553528387,0.001763089933285066,-0.004284058157018414,0.0,0.0,0.0,0.0,0.0,0.0,0.0,0.0,0.0,0.00875333676491049,-0.08543085679613181,9.811912816249052,0.0,0.0,0.0,0.0,0.0,0.0,0.0,0.0,0.0
2025/04/05 15:58:48.998507954,1743861528,998278922,mA1/imu,0.7119813438223453,0.7021979523145743,-9.89900033551995e-05,0.0007694251914544274,0.0,0.0,0.0,0.0,0.0,0.0,0.0,0.0,0.0,-0.0019337110194450563,0.0022966082429988956,-0.004307451156864717,0.0,0.0,0.0,0.0,0.0,0.0,0.0,0.0,0.0,0.0073362836478768475,0.5257493294480432,9.81148350974821,0.0,0.0,0.0,0.0,0.0,0.0,0.0,0.0,0.0
2025/04/05 15:58:49.49668319,1743861529,49247705,mA1/imu,0.7119057675849445,0.7022746147755842,-4.3607820447279537e-05,0.0007359479966335151,0.0,0.0,0.0,0.0,0.0,0.0,0.0,0.0,0.0,-0.002356984322821014,0.002691282220038165,-0.00428906395256488,0.0,0.0,0.0,0.0,0.0,0.0,0.0,0.0,0.0,0.006142442003974465,0.41906247192598345,9.81132286602836,0.0,0.0,0.0,0.0,0.0,0.0,0.0,0.0,0.0
2025/04/05 15:58:49.99589541,1743861529,99349944,mA1/imu,0.7118309326740406,0.702350516913709,1.1242048374377107e-05,0.0006888781226220689,0.0,0.0,0.0,0.0,0.0,0.0,0.0,0.0,0.0,-0.0016976199207842093,0.0030097957474535435,-0.004245235202168063,0.0,0.0,0.0,0.0,0.0,0.0,0.0,0.0,0.0,0.0055640608572355265,0.5678501185501331,9.81196726303633,0.0,0.0,0.0,0.0,0.0,0.0,0.0,0.0,0.0
2025/04/05 15:58:49.150551216,1743861529,150278515,mA1/imu,0.7117564441359611,0.7024260440793322,7.090868362018184e-05,0.0006417179686418878,0.0,0.0,0.0,0.0,0.0,0.0,0.0,0.0,0.0,-4.9672442259101806e-05,0.003039555467923396,-0.004237050865027606,0.0,0.0,0.0,0.0,0.0,0.0,0.0,0.0,0.0,0.0078075333353392175,0.5141279925836263,9.80977840439263,0.0,0.0,0.0,0.0,0.0,0.0,0.0,0.0,0.0
2025/04/05 15:58:49.191037380,1743861529,190805191,mA1/imu,0.7116820793175935,0.7025013986714166,0.00015092779981239839,0.0006164930568510538,0.0,0.0,0.0,0.0,0.0,0.0,0.0,0.0,0.0,-0.0014129720773829178,0.002908179196471199,-0.004230947073412676,0.0,0.0,0.0,0.0,0.0,0.0,0.0,0.0,0.0,0.009705967049248643,-0.023795136452403533,9.812599491041125,0.0,0.0,0.0,0.0,0.0,0.0,0.0,0.0,0.0
2025/04/05 15:58:49.241335597,1743861529,241065880,mA1/imu,0.7116082637658733,0.7025761850287296,0.00021207666238998786,0.0005815445681781495,0.0,0.0,0.0,0.0,0.0,0.0,0.0,0.0,0.0,-0.0006276089590329452,0.002572263233207854,-0.004158121061765526,0.0,0.0,0.0,0.0,0.0,0.0,0.0,0.0,0.0,0.012722997784470797,-0.31959060585085947,9.808986627349778,0.0,0.0,0.0,0.0,0.0,0.0,0.0,0.0,0.0
2025/04/05 15:58:49.291101740,1743861529,290875011,mA1/imu,0.7115358570009706,0.7026495135595909,0.00026883977925638673,0.0005594832776076256,0.0,0.0,0.0,0.0,0.0,0.0,0.0,0.0,0.0,-0.00020724247728843193,0.00198382351762956,-0.004108250786647435,0.0,0.0,0.0,0.0,0.0,0.0,0.0,0.0,0.0,0.014475294621653348,-0.161661699578854,9.80965693908056,0.0,0.0,0.0,0.0,0.0,0.0,0.0,0.0,0.0
2025/04/05 15:58:49.342115308,1743861529,341906654,mA1/imu,0.7114637822913599,0.7027224771380572,0.0003176046300311015,0.0005529375408613104,0.0,0.0,0.0,0.0,0.0,0.0,0.0,0.0,0.0,-0.0019142998585002196,0.0012776635812635124,-0.00409973078963817,0.0,0.0,0.0,0.0,0.0,0.0,0.0,0.0,0.0,0.015617733939763467,0.5808078087052456,9.810579341909472,0.0,0.0,0.0,0.0,0.0,0.0,0.0,0.0,0.0
2025/04/05 15:58:49.391987674,1743861529,391716579,mA1/imu,0.7113917598241865,0.7027953648125318,0.00035352534497971747,0.0005605997661256822,0.0,0.0,0.0,0.0,0.0,0.0,0.0,0.0,0.0,-0.001852304942045138,0.0004951109319061087,-0.004096822170936207,0.0,0.0,0.0,0.0,0.0,0.0,0.0,0.0,0.0,0.015138231265069683,-0.04544312791273092,9.809799534014344,0.0,0.0,0.0,0.0,0.0,0.0,0.0,0.0,0.0
2025/04/05 15:58:49.443468892,1743861529,443269406,mA1/imu,0.7113199836245823,0.7028679942992904,0.00036699652171328864,0.0005734104725269143,0.0,0.0,0.0,0.0,0.0,0.0,0.0,0.0,0.0,-0.0003890212750967963,-0.000272718543661019,-0.004073788370084908,0.0,0.0,0.0,0.0,0.0,0.0,0.0,0.0,0.0,0.013968146748701945,-0.4699884118428072,9.809655069208087,0.0,0.0,0.0,0.0,0.0,0.0,0.0,0.0,0.0
2025/04/05 15:58:49.494149460,1743861529,493803081,mA1/imu,0.7112486737605073,0.702940131187978,0.00036823615222960384,0.0006003677903895861,0.0,0.0,0.0,0.0,0.0,0.0,0.0,0.0,0.0,0.00011525156061823502,-0.001003882704958798,-0.004046897159920173,0.0,0.0,0.0,0.0,0.0,0.0,0.0,0.0,0.0,0.013244383853645823,-0.2164990849295148,9.808581685893765,0.0,0.0,0.0,0.0,0.0,0.0,0.0,0.0,0.0
2025/04/05 15:58:49.545175995,1743861529,544827035,mA1/imu,0.7111771601903215,0.7030124550758802,0.00035704703362957865,0.000638239162827132,0.0,0.0,0.0,0.0,0.0,0.0,0.0,0.0,0.0,0.000337075908503755,-0.00161794721649119,-0.004126825922265967,0.0,0.0,0.0,0.0,0.0,0.0,0.0,0.0,0.0,0.00932053417589421,-0.3526542102807581,9.810359414530685,0.0,0.0,0.0,0.0,0.0,0.0,0.0,0.0,0.0
2025/04/05 15:58:49.596893606,1743861529,596488953,mA1/imu,0.7111040368007504,0.7030863885118322,0.0003353021051228448,0.0006831599842853401,0.0,0.0,0.0,0.0,0.0,0.0,0.0,0.0,0.0,-0.000888662270169726,-0.0020374860430652127,-0.004155118426924615,0.0,0.0,0.0,0.0,0.0,0.0,0.0,0.0,0.0,0.00919068422279292,0.6120064956873914,9.809943450830747,0.0,0.0,0.0,0.0,0.0,0.0,0.0,0.0,0.0
2025/04/05 15:58:49.647756540,1743861529,647427923,mA1/imu,0.7110309944830678,0.7031602155480157,0.0003078030010280409,0.0007358071761832719,0.0,0.0,0.0,0.0,0.0,0.0,0.0,0.0,0.0,-0.00027057205762902315,-0.002393153085244028,-0.004156565289400693,0.0,0.0,0.0,0.0,0.0,0.0,0.0,0.0,0.0,0.008451664934782976,0.016647921108251328,9.808643616054413,0.0,0.0,0.0,0.0,0.0,0.0,0.0,0.0,0.0
2025/04/05 15:58:49.698398400,1743861529,697316970,mA1/imu,0.7109579468130026,0.7032340333269382,0.00027050262534540853,0.0007868052465644002,0.0,0.0,0.0,0.0,0.0,0.0,0.0,0.0,0.0,-0.0018593124738206868,-0.0025472982964735145,-0.0041558218032631995,0.0,0.0,0.0,0.0,0.0,0.0,0.0,0.0,0.0,0.00885441510380713,0.29335445428749457,9.8106148404922,0.0,0.0,0.0,0.0,0.0,0.0,0.0,0.0,0.0
2025/04/05 15:58:49.741604977,1743861529,741374617,mA1/imu,0.7108852197446649,0.7033075255840802,0.0002180313007839876,0.0008253894412505786,0.0,0.0,0.0,0.0,0.0,0.0,0.0,0.0,0.0,0.0011879208052540562,-0.002537972670885383,-0.00412356530870849,0.0,0.0,0.0,0.0,0.0,0.0,0.0,0.0,0.0,0.004756756394362158,0.08873412590884895,9.808274068880475,0.0,0.0,0.0,0.0,0.0,0.0,0.0,0.0,0.0
2025/04/05 15:58:49.791213964,1743861529,790948487,mA1/imu,0.7108130884437779,0.7033803895359335,0.00017342252497820187,0.0008665090444508226,0.0,0.0,0.0,0.0,0.0,0.0,0.0,0.0,0.0,5.602469620573771e-05,-0.0023356064458652584,-0.004088855001078559,0.0,0.0,0.0,0.0,0.0,0.0,0.0,0.0,0.0,0.005905395601896901,0.621073461308595,9.811148053646583,0.0,0.0,0.0,0.0,0.0,0.0,0.0,0.0,0.0
2025/04/05 15:58:49.845369507,1743861529,843389461,mA1/imu,0.7107414170076627,0.7034527728291157,0.00013392169925330078,0.0009036669446873316,0.0,0.0,0.0,0.0,0.0,0.0,0.0,0.0,0.0,-0.0012314435279037555,-0.002039108824268891,-0.004069957050771685,0.0,0.0,0.0,0.0,0.0,0.0,0.0,0.0,0.0,0.006389604252066879,0.5203620620747718,9.810539511588324,0.0,0.0,0.0,0.0,0.0,0.0,0.0,0.0,0.0
2025/04/05 15:58:49.893613938,1743861529,893225910,mA1/imu,0.7106700349867863,0.7035248706652266,8.831933860858708e-05,0.0009219148825331436,0.0,0.0,0.0,0.0,0.0,0.0,0.0,0.0,0.0,7.281859455388195e-05,-0.0016309828720896338,-0.004053127095162362,0.0,0.0,0.0,0.0,0.0,0.0,0.0,0.0,0.0,0.005765894649724982,0.2587982441745364,9.81133245676376,0.0,0.0,0.0,0.0,0.0,0.0,0.0,0.0,0.0
2025/04/05 15:58:49.944475612,1743861529,944160794,mA1/imu,0.7105989471451921,0.7035966605667626,5.3046370136065196e-05,0.0009342063620612711,0.0,0.0,0.0,0.0,0.0,0.0,0.0,0.0,0.0,0.001131013385124856,-0.0011390337008962796,-0.0040364685485307335,0.0,0.0,0.0,0.0,0.0,0.0,0.0,0.0,0.0,0.005385120548653657,-0.06219263593360495,9.812495710131966,0.0,0.0,0.0,0.0,0.0,0.0,0.0,0.0,0.0
2025/04/05 15:58:49.995531934,1743861529,994541024,mA1/imu,0.710528136638425,0.7036681760893808,2.025819087741299e-05,0.0009298353497961978,0.0,0.0,0.0,0.0,0.0,0.0,0.0,0.0,0.0,0.002574069474539618,-0.0005821471844463658,-0.004020652205976552,0.0,0.0,0.0,0.0,0.0,0.0,0.0,0.0,0.0,0.005275197156178255,-0.5071709529747404,9.80960906214866,0.0,0.0,0.0,0.0,0.0,0.0,0.0,0.0,0.0
2025/04/05 15:58:50.45797639,1743861530,45509267,mA1/imu,0.7104576150767165,0.7037393909232605,3.3397440999691306e-06,0.0009202343770626591,0.0,0.0,0.0,0.0,0.0,0.0,0.0,0.0,0.0,0.0017673328872024607,2.084599754168623e-05,-0.0040007657974508466,0.0,0.0,0.0,0.0,0.0,0.0,0.0,0.0,0.0,0.00533325896471862,-0.4537747203665975,9.810018707550881,0.0,0.0,0.0,0.0,0.0,0.0,0.0,0.0,0.0
2025/04/05 15:58:50.96438760,1743861530,96025229,mA1/imu,0.7103874810317642,0.7038102163310005,-5.852816722101662e-06,0.0008978570039542277,0.0,0.0,0.0,0.0,0.0,0.0,0.0,0.0,0.0,0.0005116228514319691,0.0005961407088125116,-0.003978004890430879,0.0,0.0,0.0,0.0,0.0,0.0,0.0,0.0,0.0,0.005949747336324586,-0.029568888248712365,9.81115218887706,0.0,0.0,0.0,0.0,0.0,0.0,0.0,0.0,0.0
2025/04/05 15:58:50.147335968,1743861530,147151854,mA1/imu,0.7103174370180099,0.7038809487903397,-6.880780120683183e-06,0.0008651883213962511,0.0,0.0,0.0,0.0,0.0,0.0,0.0,0.0,0.0,-0.0009523976557200303,0.0010896904443639455,-0.003984115142840725,0.0,0.0,0.0,0.0,0.0,0.0,0.0,0.0,0.0,0.00822923555502372,0.4986943982859319,9.811252573527742,0.0,0.0,0.0,0.0,0.0,0.0,0.0,0.0,0.0
2025/04/05 15:58:50.198566773,1743861530,197009488,mA1/imu,0.7102473010643756,0.7039517733607372,-4.711271384220722e-06,0.0008198114704147394,0.0,0.0,0.0,0.0,0.0,0.0,0.0,0.0,0.0,0.0004896357504513235,0.0015137390449793844,-0.003989404410303835,0.0,0.0,0.0,0.0,0.0,0.0,0.0,0.0,0.0,0.0071485964419191,-0.024307324530071672,9.811140352523347,0.0,0.0,0.0,0.0,0.0,0.0,0.0,0.0,0.0
