time,header_stamp_secs,header_stamp_nsecs,header_frame_id,child_frame_id,pose_pose_position_x,pose_pose_position_y,pose_pose_position_z,pose_pose_orientation_x,pose_pose_orientation_y,pose_pose_orientation_z,pose_pose_orientation_w,pose_covariance_0,pose_covariance_1,pose_covariance_2,pose_covariance_3,pose_covariance_4,pose_covariance_5,pose_covariance_6,pose_covariance_7,pose_covariance_8,pose_covariance_9,pose_covariance_10,pose_covariance_11,pose_covariance_12,pose_covariance_13,pose_covariance_14,pose_covariance_15,pose_covariance_16,pose_covariance_17,pose_covariance_18,pose_covariance_19,pose_covariance_20,pose_covariance_21,pose_covariance_22,pose_covariance_23,pose_covariance_24,pose_covariance_25,pose_covariance_26,pose_covariance_27,pose_covariance_28,pose_covariance_29,pose_covariance_30,pose_covariance_31,pose_covariance_32,pose_covariance_33,pose_covariance_34,pose_covariance_35,twist_twist_linear_x,twist_twist_linear_y,twist_twist_linear_z,twist_twist_angular_x,twist_twist_angular_y,twist_twist_angular_z,twist_covariance_0,twist_covariance_1,twist_covariance_2,twist_covariance_3,twist_covariance_4,twist_covariance_5,twist_covariance_6,twist_covariance_7,twist_covariance_8,twist_covariance_9,twist_covariance_10,twist_covariance_11,twist_covariance_12,twist_covariance_13,twist_covariance_14,twist_covariance_15,twist_covariance_16,twist_covariance_17,twist_covariance_18,twist_covariance_19,twist_covariance_20,twist_covariance_21,twist_covariance_22,twist_covariance_23,twist_covariance_24,twist_covariance_25,twist_covariance_26,twist_covariance_27,twist_covariance_28,twist_covariance_29,twist_covariance_30,twist_covariance_31,twist_covariance_32,twist_covariance_33,twist_covariance_34,twist_covariance_35
2025/04/05 15:58:42.506752326,1743861522,506204651,world_ned,mA1/odom,243.70381721082074,10.459008117221329,0.43365825667280544,-0.0013633380146620346,0.00022239963942455532,-0.020640605078556033,0.9997860057381526,0.0,0.0,0.0,0.0,0.0,0.0,0.0,0.0,0.0,0.0,0.0,0.0,0.0,0.0,0.0,0.0,0.0,0.0,0.0,0.0,0.0,0.0,0.0,0.0,0.0,0.0,0.0,0.0,0.0,0.0,0.0,0.0,0.0,0.0,0.0,0.0,0.2287190031352861,0.01231600209077415,0.00017039124023058137,0.004674065020207779,0.0022319919598142494,-0.001415363821285863,0.0,0.0,0.0,0.0,0.0,0.0,0.0,0.0,0.0,0.0,0.0,0.0,0.0,0.0,0.0,0.0,0.0,0.0,0.0,0.0,0.0,0.0,0.0,0.0,0.0,0.0,0.0,0.0,0.0,0.0,0.0,0.0,0.0,0.0,0.0,0.0
2025/04/05 15:58:42.608196613,1743861522,607892182,world_ned,mA1/odom,243.7277502777747,10.45915655633816,0.4336654120899122,-0.001030120719753678,0.00022825060724710518,-0.020703787856343955,0.9997850968690034,0.0,0.0,0.0,0.0,0.0,0.0,0.0,0.0,0.0,0.0,0.0,0.0,0.0,0.0,0.0,0.0,0.0,0.0,0.0,0.0,0.0,0.0,0.0,0.0,0.0,0.0,0.0,0.0,0.0,0.0,0.0,0.0,0.0,0.0,0.0,0.0,0.24261167484612042,0.01082162265339267,0.0002008325165945297,0.007992636817556515,-3.213748112926286e-06,-0.0011169799420226397,0.0,0.0,0.0,0.0,0.0,0.0,0.0,0.0,0.0,0.0,0.0,0.0,0.0,0.0,0.0,0.0,0.0,0.0,0.0,0.0,0.0,0.0,0.0,0.0,0.0,0.0,0.0,0.0,0.0,0.0,0.0,0.0,0.0,0.0,0.0,0.0
2025/04/05 15:58:42.709156552,1743861522,708786192,world_ned,mA1/odom,243.75190784754145,10.45917798501639,0.43367615876086363,-0.0005714592336563101,0.00027447354663551383,-0.020751280522129163,0.9997844680006328,0.0,0.0,0.0,0.0,0.0,0.0,0.0,0.0,0.0,0.0,0.0,0.0,0.0,0.0,0.0,0.0,0.0,0.0,0.0,0.0,0.0,0.0,0.0,0.0,0.0,0.0,0.0,0.0,0.0,0.0,0.0,0.0,0.0,0.0,0.0,0.0,0.2407159857073593,0.009882307229028222,0.0002544604905789047,0.009804955850399854,0.001905856340487089,-0.0008754415471437703,0.0,0.0,0.0,0.0,0.0,0.0,0.0,0.0,0.0,0.0,0.0,0.0,0.0,0.0,0.0,0.0,0.0,0.0,0.0,0.0,0.0,0.0,0.0,0.0,0.0,0.0,0.0,0.0,0.0,0.0,0.0,0.0,0.0,0.0,0.0,0.0
2025/04/05 15:58:42.811024875,1743861522,810656730,world_ned,mA1/odom,243.77645026123807,10.459147194409145,0.433687924011102,-8.034379019118099e-05,0.0003270174903633049,-0.020794076893555585,0.9997837230974413,0.0,0.0,0.0,0.0,0.0,0.0,0.0,0.0,0.0,0.0,0.0,0.0,0.0,0.0,0.0,0.0,0.0,0.0,0.0,0.0,0.0,0.0,0.0,0.0,0.0,0.0,0.0,0.0,0.0,0.0,0.0,0.0,0.0,0.0,0.0,0.0,0.25250486933099614,0.010087147626003446,0.0002621344837907138,0.009467757154803618,-0.0002953912178645572,-0.0008327283263378703,0.0,0.0,0.0,0.0,0.0,0.0,0.0,0.0,0.0,0.0,0.0,0.0,0.0,0.0,0.0,0.0,0.0,0.0,0.0,0.0,0.0,0.0,0.0,0.0,0.0,0.0,0.0,0.0,0.0,0.0,0.0,0.0,0.0,0.0,0.0,0.0
2025/04/05 15:58:42.901969649,1743861522,901561345,world_ned,mA1/odom,243.80142266330265,10.459229140513575,0.43369634069878893,0.0003195628920703845,0.00037074940527949965,-0.02082570861841361,0.9997830015983356,0.0,0.0,0.0,0.0,0.0,0.0,0.0,0.0,0.0,0.0,0.0,0.0,0.0,0.0,0.0,0.0,0.0,0.0,0.0,0.0,0.0,0.0,0.0,0.0,0.0,0.0,0.0,0.0,0.0,0.0,0.0,0.0,0.0,0.0,0.0,0.0,0.25235705172781076,0.012332827233731017,0.0002491823021475465,0.006456839442400023,0.0005940990602613195,-0.0004401858903182137,0.0,0.0,0.0,0.0,0.0,0.0,0.0,0.0,0.0,0.0,0.0,0.0,0.0,0.0,0.0,0.0,0.0,0.0,0.0,0.0,0.0,0.0,0.0,0.0,0.0,0.0,0.0,0.0,0.0,0.0,0.0,0.0,0.0,0.0,0.0,0.0
2025/04/05 15:58:43.2920997,1743861523,2366732,world_ned,mA1/odom,243.82669627266517,10.459572791370906,0.43370152612522206,0.000525459395208475,0.0004135473453926298,-0.02083644997769116,0.9997826739963762,0.0,0.0,0.0,0.0,0.0,0.0,0.0,0.0,0.0,0.0,0.0,0.0,0.0,0.0,0.0,0.0,0.0,0.0,0.0,0.0,0.0,0.0,0.0,0.0,0.0,0.0,0.0,0.0,0.0,0.0,0.0,0.0,0.0,0.0,0.0,0.0,0.25479621846533557,0.01536770590410889,0.000249317555697368,0.002017671077260771,0.0004814987738773734,-3.1385810617166977e-05,0.0,0.0,0.0,0.0,0.0,0.0,0.0,0.0,0.0,0.0,0.0,0.0,0.0,0.0,0.0,0.0,0.0,0.0,0.0,0.0,0.0,0.0,0.0,0.0,0.0,0.0,0.0,0.0,0.0,0.0,0.0,0.0,0.0,0.0,0.0,0.0
2025/04/05 15:58:43.105167701,1743861523,103930211,world_ned,mA1/odom,243.85217341193155,10.460232180210154,0.4337021167741938,0.0004926229728229284,0.00045813789707143456,-0.020831152959846375,0.9997827816574145,0.0,0.0,0.0,0.0,0.0,0.0,0.0,0.0,0.0,0.0,0.0,0.0,0.0,0.0,0.0,0.0,0.0,0.0,0.0,0.0,0.0,0.0,0.0,0.0,0.0,0.0,0.0,0.0,0.0,0.0,0.0,0.0,0.0,0.0,0.0,0.0,0.25300311600836733,0.0187002617486144,0.00019848857967430959,-0.0028818992397268914,0.001356110585762558,0.00023532179333266825,0.0,0.0,0.0,0.0,0.0,0.0,0.0,0.0,0.0,0.0,0.0,0.0,0.0,0.0,0.0,0.0,0.0,0.0,0.0,0.0,0.0,0.0,0.0,0.0,0.0,0.0,0.0,0.0,0.0,0.0,0.0,0.0,0.0,0.0,0.0,0.0
2025/04/05 15:58:43.205645439,1743861523,205398455,world_ned,mA1/odom,243.87800963236,10.461196997234252,0.4336945283888281,0.0002255000575322498,0.0004619940745209483,-0.02080035503439228,0.9997835170383849,0.0,0.0,0.0,0.0,0.0,0.0,0.0,0.0,0.0,0.0,0.0,0.0,0.0,0.0,0.0,0.0,0.0,0.0,0.0,0.0,0.0,0.0,0.0,0.0,0.0,0.0,0.0,0.0,0.0,0.0,0.0,0.0,0.0,0.0,0.0,0.0,0.25842761859045693,0.02150851849200837,0.00011631894638527488,-0.007057833006451364,-0.00026082359666308003,0.0008420397011420688,0.0,0.0,0.0,0.0,0.0,0.0,0.0,0.0,0.0,0.0,0.0,0.0,0.0,0.0,0.0,0.0,0.0,0.0,0.0,0.0,0.0,0.0,0.0,0.0,0.0,0.0,0.0,0.0,0.0,0.0,0.0,0.0,0.0,0.0,0.0,0.0
2025/04/05 15:58:43.306707446,1743861523,306422178,world_ned,mA1/odom,243.9040904426533,10.462360345554522,0.4336822947040424,-0.00019993168543591019,0.00043649053291970976,-0.02075195762701404,0.9997845396674138,0.0,0.0,0.0,0.0,0.0,0.0,0.0,0.0,0.0,0.0,0.0,0.0,0.0,0.0,0.0,0.0,0.0,0.0,0.0,0.0,0.0,0.0,0.0,0.0,0.0,0.0,0.0,0.0,0.0,0.0,0.0,0.0,0.0,0.0,0.0,0.0,0.26459609032402287,0.023069582806103103,0.00012438922966362512,-0.009376753915751147,-0.0019248379042581805,0.0010879585594135857,0.0,0.0,0.0,0.0,0.0,0.0,0.0,0.0,0.0,0.0,0.0,0.0,0.0,0.0,0.0,0.0,0.0,0.0,0.0,0.0,0.0,0.0,0.0,0.0,0.0,0.0,0.0,0.0,0.0,0.0,0.0,0.0,0.0,0.0,0.0,0.0
2025/04/05 15:58:43.408772869,1743861523,408386758,world_ned,mA1/odom,243.9304532639911,10.463601755243728,0.4336687563799964,-0.0006832349270562961,0.0003782709777514204,-0.020688513417881544,0.9997856647870382,0.0,0.0,0.0,0.0,0.0,0.0,0.0,0.0,0.0,0.0,0.0,0.0,0.0,0.0,0.0,0.0,0.0,0.0,0.0,0.0,0.0,0.0,0.0,0.0,0.0,0.0,0.0,0.0,0.0,0.0,0.0,0.0,0.0,0.0,0.0,0.0,0.261733381612178,0.02330240674371146,9.158127627920638e-05,-0.00948799201788644,-0.0009590425701328735,0.0014020364894932755,0.0,0.0,0.0,0.0,0.0,0.0,0.0,0.0,0.0,0.0,0.0,0.0,0.0,0.0,0.0,0.0,0.0,0.0,0.0,0.0,0.0,0.0,0.0,0.0,0.0,0.0,0.0,0.0,0.0,0.0,0.0,0.0,0.0,0.0,0.0,0.0
2025/04/05 15:58:43.510433448,1743861523,510061416,world_ned,mA1/odom,243.9569570378262,10.46477926613198,0.43366080719593597,-0.001104643150676362,0.00031060360829739445,-0.02060238438404891,0.9997870898579357,0.0,0.0,0.0,0.0,0.0,0.0,0.0,0.0,0.0,0.0,0.0,0.0,0.0,0.0,0.0,0.0,0.0,0.0,0.0,0.0,0.0,0.0,0.0,0.0,0.0,0.0,0.0,0.0,0.0,0.0,0.0,0.0,0.0,0.0,0.0,0.0,0.26906057911751124,0.021977295633428356,0.00015434692860965288,-0.007183048579031248,-0.0026778620989960254,0.0018949495623246865,0.0,0.0,0.0,0.0,0.0,0.0,0.0,0.0,0.0,0.0,0.0,0.0,0.0,0.0,0.0,0.0,0.0,0.0,0.0,0.0,0.0,0.0,0.0,0.0,0.0,0.0,0.0,0.0,0.0,0.0,0.0,0.0,0.0,0.0,0.0,0.0
2025/04/05 15:58:43.602135406,1743861523,601774243,world_ned,mA1/odom,243.9838340791423,10.465748669410942,0.43365904219097784,-0.0013621052786886385,0.00021365703032005698,-0.02049926816777365,0.9997889172342674,0.0,0.0,0.0,0.0,0.0,0.0,0.0,0.0,0.0,0.0,0.0,0.0,0.0,0.0,0.0,0.0,0.0,0.0,0.0,0.0,0.0,0.0,0.0,0.0,0.0,0.0,0.0,0.0,0.0,0.0,0.0,0.0,0.0,0.0,0.0,0.0,0.2694635566440632,0.019619599954552817,0.00015075590373863927,-0.003245581316407655,-0.0020697297287486185,0.002193084631385224,0.0,0.0,0.0,0.0,0.0,0.0,0.0,0.0,0.0,0.0,0.0,0.0,0.0,0.0,0.0,0.0,0.0,0.0,0.0,0.0,0.0,0.0,0.0,0.0,0.0,0.0,0.0,0.0,0.0,0.0,0.0,0.0,0.0,0.0,0.0,0.0
2025/04/05 15:58:43.705624933,1743861523,704153877,world_ned,mA1/odom,244.01080513536914,10.466463945288849,0.4336625748688814,-0.0014008788676572836,0.0001444569166278364,-0.020381237863060495,0.9997912891267691,0.0,0.0,0.0,0.0,0.0,0.0,0.0,0.0,0.0,0.0,0.0,0.0,0.0,0.0,0.0,0.0,0.0,0.0,0.0,0.0,0.0,0.0,0.0,0.0,0.0,0.0,0.0,0.0,0.0,0.0,0.0,0.0,0.0,0.0,0.0,0.0,0.2634007034364551,0.01700050061163497,0.00015772146879879686,0.001285010962692176,0.0007293333245950465,0.0024931686097160273,0.0,0.0,0.0,0.0,0.0,0.0,0.0,0.0,0.0,0.0,0.0,0.0,0.0,0.0,0.0,0.0,0.0,0.0,0.0,0.0,0.0,0.0,0.0,0.0,0.0,0.0,0.0,0.0,0.0,0.0,0.0,0.0,0.0,0.0,0.0,0.0
2025/04/05 15:58:43.805778784,1743861523,805551531,world_ned,mA1/odom,244.03813672475397,10.466921417578963,0.4336765282000759,-0.0012178212069504648,7.929315696430654e-05,-0.020238088782533383,0.9997944440666459,0.0,0.0,0.0,0.0,0.0,0.0,0.0,0.0,0.0,0.0,0.0,0.0,0.0,0.0,0.0,0.0,0.0,0.0,0.0,0.0,0.0,0.0,0.0,0.0,0.0,0.0,0.0,0.0,0.0,0.0,0.0,0.0,0.0,0.0,0.0,0.0,0.27286210850822945,0.014598329603041223,0.0002282722122767481,0.005528711281330252,-0.0005925807315268196,0.0030677931460960962,0.0,0.0,0.0,0.0,0.0,0.0,0.0,0.0,0.0,0.0,0.0,0.0,0.0,0.0,0.0,0.0,0.0,0.0,0.0,0.0,0.0,0.0,0.0,0.0,0.0,0.0,0.0,0.0,0.0,0.0,0.0,0.0,0.0,0.0,0.0,0.0
2025/04/05 15:58:43.907903444,1743861523,906560989,world_ned,mA1/odom,244.06576252426092,10.467183961334154,0.4336944939786704,-0.0008597729431967006,4.5890707298910016e-05,-0.02008131380176369,0.9997979793540914,0.0,0.0,0.0,0.0,0.0,0.0,0.0,0.0,0.0,0.0,0.0,0.0,0.0,0.0,0.0,0.0,0.0,0.0,0.0,0.0,0.0,0.0,0.0,0.0,0.0,0.0,0.0,0.0,0.0,0.0,0.0,0.0,0.0,0.0,0.0,0.0,0.27311222840154137,0.013292851143952225,0.00023223327140565978,0.008203721491301589,0.0010332292989899464,0.003156564612334151,0.0,0.0,0.0,0.0,0.0,0.0,0.0,0.0,0.0,0.0,0.0,0.0,0.0,0.0,0.0,0.0,0.0,0.0,0.0,0.0,0.0,0.0,0.0,0.0,0.0,0.0,0.0,0.0,0.0,0.0,0.0,0.0,0.0,0.0,0.0,0.0
2025/04/05 15:58:44.8383535,1743861524,7972119,world_ned,mA1/odom,244.09374428445315,10.467385546315576,0.43371040525690163,-0.00042413049104533427,3.9205751751453e-05,-0.01991127202519256,0.9998016602419574,0.0,0.0,0.0,0.0,0.0,0.0,0.0,0.0,0.0,0.0,0.0,0.0,0.0,0.0,0.0,0.0,0.0,0.0,0.0,0.0,0.0,0.0,0.0,0.0,0.0,0.0,0.0,0.0,0.0,0.0,0.0,0.0,0.0,0.0,0.0,0.0,0.2818700025179935,0.013213653902278874,0.00016569634834682906,0.00887984007586911,7.084862076368295e-05,0.0035374337505349063,0.0,0.0,0.0,0.0,0.0,0.0,0.0,0.0,0.0,0.0,0.0,0.0,0.0,0.0,0.0,0.0,0.0,0.0,0.0,0.0,0.0,0.0,0.0,0.0,0.0,0.0,0.0,0.0,0.0,0.0,0.0,0.0,0.0,0.0,0.0,0.0
2025/04/05 15:58:44.109400561,1743861524,109110191,world_ned,mA1/odom,244.12190567776307,10.467638858438962,0.433719346101934,-6.304746022136526e-06,8.441580056029904e-05,-0.019726867864077527,0.9998054028252178,0.0,0.0,0.0,0.0,0.0,0.0,0.0,0.0,0.0,0.0,0.0,0.0,0.0,0.0,0.0,0.0,0.0,0.0,0.0,0.0,0.0,0.0,0.0,0.0,0.0,0.0,0.0,0.0,0.0,0.0,0.0,0.0,0.0,0.0,0.0,0.0,0.2843077145673419,0.014255263456016024,9.764655323899984e-05,0.00758116360713119,0.0008586331362823551,0.0038133308644947204,0.0,0.0,0.0,0.0,0.0,0.0,0.0,0.0,0.0,0.0,0.0,0.0,0.0,0.0,0.0,0.0,0.0,0.0,0.0,0.0,0.0,0.0,0.0,0.0,0.0,0.0,0.0,0.0,0.0,0.0,0.0,0.0,0.0,0.0,0.0,0.0
2025/04/05 15:58:44.202853748,1743861524,202455974,world_ned,mA1/odom,244.15047459329338,10.468048278941225,0.4337188232728094,0.000296967677728302,0.00014103332915960584,-0.019528800614614292,0.9998092407386286,0.0,0.0,0.0,0.0,0.0,0.0,0.0,0.0,0.0,0.0,0.0,0.0,0.0,0.0,0.0,0.0,0.0,0.0,0.0,0.0,0.0,0.0,0.0,0.0,0.0,0.0,0.0,0.0,0.0,0.0,0.0,0.0,0.0,0.0,0.0,0.0,0.28833647489224873,0.016268204510628412,2.157724506780514e-05,0.00456831369183244,0.0008922267382771517,0.004082208173858391,0.0,0.0,0.0,0.0,0.0,0.0,0.0,0.0,0.0,0.0,0.0,0.0,0.0,0.0,0.0,0.0,0.0,0.0,0.0,0.0,0.0,0.0,0.0,0.0,0.0,0.0,0.0,0.0,0.0,0.0,0.0,0.0,0.0,0.0,0.0,0.0
2025/04/05 15:58:44.303722973,1743861524,303446291,world_ned,mA1/odom,244.1791933550262,10.468694440131415,0.4337089547295096,0.0004207644893122345,0.00022770875268698075,-0.0193179156352657,0.9998132771880344,0.0,0.0,0.0,0.0,0.0,0.0,0.0,0.0,0.0,0.0,0.0,0.0,0.0,0.0,0.0,0.0,0.0,0.0,0.0,0.0,0.0,0.0,0.0,0.0,0.0,0.0,0.0,0.0,0.0,0.0,0.0,0.0,0.0,0.0,0.0,0.0,0.2858175945777053,0.018731518891327695,-1.4412424798961913e-05,0.0006224026823227922,0.0023192482299077806,0.004328164045350805,0.0,0.0,0.0,0.0,0.0,0.0,0.0,0.0,0.0,0.0,0.0,0.0,0.0,0.0,0.0,0.0,0.0,0.0,0.0,0.0,0.0,0.0,0.0,0.0,0.0,0.0,0.0,0.0,0.0,0.0,0.0,0.0,0.0,0.0,0.0,0.0
2025/04/05 15:58:44.404930075,1743861524,404198570,world_ned,mA1/odom,244.20819604829012,10.469596424147525,0.4336928621012748,0.0003402531063456643,0.0002985368896481642,-0.019085480735126094,0.9998177531573733,0.0,0.0,0.0,0.0,0.0,0.0,0.0,0.0,0.0,0.0,0.0,0.0,0.0,0.0,0.0,0.0,0.0,0.0,0.0,0.0,0.0,0.0,0.0,0.0,0.0,0.0,0.0,0.0,0.0,0.0,0.0,0.0,0.0,0.0,0.0,0.0,0.2896911881890186,0.021069381854102388,-1.162952214772185e-05,-0.003290130468316229,0.0013942245773146367,0.004818099517817849,0.0,0.0,0.0,0.0,0.0,0.0,0.0,0.0,0.0,0.0,0.0,0.0,0.0,0.0,0.0,0.0,0.0,0.0,0.0,0.0,0.0,0.0,0.0,0.0,0.0,0.0,0.0,0.0,0.0,0.0,0.0,0.0,0.0,0.0,0.0,0.0
2025/04/05 15:58:44.505303037,1743861524,505007768,world_ned,mA1/odom,244.23734689565913,10.470697331323217,0.4336756325846099,8.966346387118852e-05,0.0003572636930914654,-0.018841019458118745,0.9998224243878988,0.0,0.0,0.0,0.0,0.0,0.0,0.0,0.0,0.0,0.0,0.0,0.0,0.0,0.0,0.0,0.0,0.0,0.0,0.0,0.0,0.0,0.0,0.0,0.0,0.0,0.0,0.0,0.0,0.0,0.0,0.0,0.0,0.0,0.0,0.0,0.0,0.29424395614916987,0.02275007154152104,2.256768119531034e-05,-0.006287790040826021,8.74450229946922e-05,0.0049644361743792255,0.0,0.0,0.0,0.0,0.0,0.0,0.0,0.0,0.0,0.0,0.0,0.0,0.0,0.0,0.0,0.0,0.0,0.0,0.0,0.0,0.0,0.0,0.0,0.0,0.0,0.0,0.0,0.0,0.0,0.0,0.0,0.0,0.0,0.0,0.0,0.0
2025/04/05 15:58:44.606249169,1743861524,605804114,world_ned,mA1/odom,244.2667046761235,10.471923078272743,0.4336609621106997,-0.0002724647513244251,0.00037829546604268476,-0.018587978702450436,0.9998271199078653,0.0,0.0,0.0,0.0,0.0,0.0,0.0,0.0,0.0,0.0,0.0,0.0,0.0,0.0,0.0,0.0,0.0,0.0,0.0,0.0,0.0,0.0,0.0,0.0,0.0,0.0,0.0,0.0,0.0,0.0,0.0,0.0,0.0,0.0,0.0,0.0,0.2958494001652541,0.023431313174127298,0.00010994864549778279,-0.007748427370483014,-0.00070356657197873,0.005130659794942584,0.0,0.0,0.0,0.0,0.0,0.0,0.0,0.0,0.0,0.0,0.0,0.0,0.0,0.0,0.0,0.0,0.0,0.0,0.0,0.0,0.0,0.0,0.0,0.0,0.0,0.0,0.0,0.0,0.0,0.0,0.0,0.0,0.0,0.0,0.0,0.0
2025/04/05 15:58:44.710523815,1743861524,710235487,world_ned,mA1/odom,244.2961862446222,10.473160819768347,0.43365211270399073,-0.0006559975769690148,0.000364427645386132,-0.0183276823813745,0.9998317523054555,0.0,0.0,0.0,0.0,0.0,0.0,0.0,0.0,0.0,0.0,0.0,0.0,0.0,0.0,0.0,0.0,0.0,0.0,0.0,0.0,0.0,0.0,0.0,0.0,0.0,0.0,0.0,0.0,0.0,0.0,0.0,0.0,0.0,0.0,0.0,0.0,0.29133729240689715,0.022918416107315803,0.00018692230082216,-0.007315281015629284,0.00022199566855661112,0.005260485372600773,0.0,0.0,0.0,0.0,0.0,0.0,0.0,0.0,0.0,0.0,0.0,0.0,0.0,0.0,0.0,0.0,0.0,0.0,0.0,0.0,0.0,0.0,0.0,0.0,0.0,0.0,0.0,0.0,0.0,0.0,0.0,0.0,0.0,0.0,0.0,0.0
2025/04/05 15:58:44.801541953,1743861524,801110780,world_ned,mA1/odom,244.32575846695158,10.474303354802286,0.43365143134632467,-0.0009705979367115353,0.00032204719234502435,-0.0180610848651475,0.9998363623307291,0.0,0.0,0.0,0.0,0.0,0.0,0.0,0.0,0.0,0.0,0.0,0.0,0.0,0.0,0.0,0.0,0.0,0.0,0.0,0.0,0.0,0.0,0.0,0.0,0.0,0.0,0.0,0.0,0.0,0.0,0.0,0.0,0.0,0.0,0.0,0.0,0.2921141565864428,0.02143489563952385,0.0002455124735856892,-0.00520190459100175,-0.00018610976648454982,0.005390736627683175,0.0,0.0,0.0,0.0,0.0,0.0,0.0,0.0,0.0,0.0,0.0,0.0,0.0,0.0,0.0,0.0,0.0,0.0,0.0,0.0,0.0,0.0,0.0,0.0,0.0,0.0,0.0,0.0,0.0,0.0,0.0,0.0,0.0,0.0,0.0,0.0
2025/04/05 15:58:44.907474853,1743861524,906406603,world_ned,mA1/odom,244.3556371897022,10.475268378991245,0.4336581064935007,-0.001147702193524987,0.00023170637317129829,-0.017787531941116694,0.9998411037756326,0.0,0.0,0.0,0.0,0.0,0.0,0.0,0.0,0.0,0.0,0.0,0.0,0.0,0.0,0.0,0.0,0.0,0.0,0.0,0.0,0.0,0.0,0.0,0.0,0.0,0.0,0.0,0.0,0.0,0.0,0.0,0.0,0.0,0.0,0.0,0.0,0.2992946832049501,0.019389707336223756,0.00027162235906039297,-0.0020138859649378666,-0.0021011721970054776,0.005527694209523652,0.0,0.0,0.0,0.0,0.0,0.0,0.0,0.0,0.0,0.0,0.0,0.0,0.0,0.0,0.0,0.0,0.0,0.0,0.0,0.0,0.0,0.0,0.0,0.0,0.0,0.0,0.0,0.0,0.0,0.0,0.0,0.0,0.0,0.0,0.0,0.0
2025/04/05 15:58:45.7468414,1743861525,7276159,world_ned,mA1/odom,244.38563573602227,10.476024230492756,0.43367255294331675,-0.0011507927513458556,0.00013685021466005817,-0.017508224072791692,0.9998460476682793,0.0,0.0,0.0,0.0,0.0,0.0,0.0,0.0,0.0,0.0,0.0,0.0,0.0,0.0,0.0,0.0,0.0,0.0,0.0,0.0,0.0,0.0,0.0,0.0,0.0,0.0,0.0,0.0,0.0,0.0,0.0,0.0,0.0,0.0,0.0,0.0,0.3035520353689957,0.01709708628021256,0.00028045878476334527,0.001598291713864079,-0.002759479668367023,0.005623030990665587,0.0,0.0,0.0,0.0,0.0,0.0,0.0,0.0,0.0,0.0,0.0,0.0,0.0,0.0,0.0,0.0,0.0,0.0,0.0,0.0,0.0,0.0,0.0,0.0,0.0,0.0,0.0,0.0,0.0,0.0,0.0,0.0,0.0,0.0,0.0,0.0
2025/04/05 15:58:45.108384036,1743861525,108097686,world_ned,mA1/odom,244.41578704813088,10.476566034211867,0.4336917450083174,-0.0009771933999641001,5.432172118857179e-05,-0.017218750492490373,0.9998512673261394,0.0,0.0,0.0,0.0,0.0,0.0,0.0,0.0,0.0,0.0,0.0,0.0,0.0,0.0,0.0,0.0,0.0,0.0,0.0,0.0,0.0,0.0,0.0,0.0,0.0,0.0,0.0,0.0,0.0,0.0,0.0,0.0,0.0,0.0,0.0,0.0,0.3016502468050609,0.014895421147345801,0.00024261295905671812,0.004950641617113036,-0.0012710651551613025,0.005860518901628829,0.0,0.0,0.0,0.0,0.0,0.0,0.0,0.0,0.0,0.0,0.0,0.0,0.0,0.0,0.0,0.0,0.0,0.0,0.0,0.0,0.0,0.0,0.0,0.0,0.0,0.0,0.0,0.0,0.0,0.0,0.0,0.0,0.0,0.0,0.0,0.0
2025/04/05 15:58:45.209188854,1743861525,208906641,world_ned,mA1/odom,244.44624388499236,10.476925611937096,0.4337097458789345,-0.0006653858255746877,-1.597087610391223e-05,-0.01692298004429007,0.9998565745911034,0.0,0.0,0.0,0.0,0.0,0.0,0.0,0.0,0.0,0.0,0.0,0.0,0.0,0.0,0.0,0.0,0.0,0.0,0.0,0.0,0.0,0.0,0.0,0.0,0.0,0.0,0.0,0.0,0.0,0.0,0.0,0.0,0.0,0.0,0.0,0.0,0.3034326567609742,0.013363550977536994,0.00015914344772769074,0.007114734595144061,-0.0004341883781701495,0.005956101590701766,0.0,0.0,0.0,0.0,0.0,0.0,0.0,0.0,0.0,0.0,0.0,0.0,0.0,0.0,0.0,0.0,0.0,0.0,0.0,0.0,0.0,0.0,0.0,0.0,0.0,0.0,0.0,0.0,0.0,0.0,0.0,0.0,0.0,0.0,0.0,0.0
2025/04/05 15:58:45.310058191,1743861525,309852257,world_ned,mA1/odom,244.4769555743586,10.477182266641302,0.43372080881826797,-0.00028529394816346354,-5.144907783275956e-05,-0.016625941926307695,0.9998617374494428,0.0,0.0,0.0,0.0,0.0,0.0,0.0,0.0,0.0,0.0,0.0,0.0,0.0,0.0,0.0,0.0,0.0,0.0,0.0,0.0,0.0,0.0,0.0,0.0,0.0,0.0,0.0,0.0,0.0,0.0,0.0,0.0,0.0,0.0,0.0,0.0,0.31016690628651966,0.012620550666812743,4.4982025324969265e-05,0.007731260230807971,-0.0008330993976736072,0.005926831604766212,0.0,0.0,0.0,0.0,0.0,0.0,0.0,0.0,0.0,0.0,0.0,0.0,0.0,0.0,0.0,0.0,0.0,0.0,0.0,0.0,0.0,0.0,0.0,0.0,0.0,0.0,0.0,0.0,0.0,0.0,0.0,0.0,0.0,0.0,0.0,0.0
2025/04/05 15:58:45.401843353,1743861525,401565014,world_ned,mA1/odom,244.50789983502546,10.477445059156553,0.43372284337935113,7.267419761612384e-05,-4.3185357084352505e-05,-0.016328991513898602,0.9998666695563089,0.0,0.0,0.0,0.0,0.0,0.0,0.0,0.0,0.0,0.0,0.0,0.0,0.0,0.0,0.0,0.0,0.0,0.0,0.0,0.0,0.0,0.0,0.0,0.0,0.0,0.0,0.0,0.0,0.0,0.0,0.0,0.0,0.0,0.0,0.0,0.0,0.3087275557757079,0.01312715557167754,-5.082240231746272e-05,0.00642217212385515,0.0010848218685529949,0.005951502126314075,0.0,0.0,0.0,0.0,0.0,0.0,0.0,0.0,0.0,0.0,0.0,0.0,0.0,0.0,0.0,0.0,0.0,0.0,0.0,0.0,0.0,0.0,0.0,0.0,0.0,0.0,0.0,0.0,0.0,0.0,0.0,0.0,0.0,0.0,0.0,0.0
2025/04/05 15:58:45.503520391,1743861525,503125730,world_ned,mA1/odom,244.53906637213012,10.477807784399495,0.43371531832451826,0.00032723026025211307,7.057855707150204e-06,-0.01603263207697213,0.99987141552263,0.0,0.0,0.0,0.0,0.0,0.0,0.0,0.0,0.0,0.0,0.0,0.0,0.0,0.0,0.0,0.0,0.0,0.0,0.0,0.0,0.0,0.0,0.0,0.0,0.0,0.0,0.0,0.0,0.0,0.0,0.0,0.0,0.0,0.0,0.0,0.0,0.31341441740087994,0.014277650013454497,-0.00012099036256947183,0.0037822558983516136,0.0010827718117264798,0.005908412080325467,0.0,0.0,0.0,0.0,0.0,0.0,0.0,0.0,0.0,0.0,0.0,0.0,0.0,0.0,0.0,0.0,0.0,0.0,0.0,0.0,0.0,0.0,0.0,0.0,0.0,0.0,0.0,0.0,0.0,0.0,0.0,0.0,0.0,0.0,0.0,0.0
2025/04/05 15:58:45.606558658,1743861525,604028790,world_ned,mA1/odom,244.5705064192676,10.478335119522292,0.43370032130089664,0.00042082033269380347,8.027755614249854e-05,-0.01573629705421437,0.999876085032932,0.0,0.0,0.0,0.0,0.0,0.0,0.0,0.0,0.0,0.0,0.0,0.0,0.0,0.0,0.0,0.0,0.0,0.0,0.0,0.0,0.0,0.0,0.0,0.0,0.0,0.0,0.0,0.0,0.0,0.0,0.0,0.0,0.0,0.0,0.0,0.0,0.31154419594298755,0.016071436696387553,-0.0001322873090410256,0.00020107278253015125,0.0026275066121517897,0.005941460793745998,0.0,0.0,0.0,0.0,0.0,0.0,0.0,0.0,0.0,0.0,0.0,0.0,0.0,0.0,0.0,0.0,0.0,0.0,0.0,0.0,0.0,0.0,0.0,0.0,0.0,0.0,0.0,0.0,0.0,0.0,0.0,0.0,0.0,0.0,0.0,0.0
2025/04/05 15:58:45.705812676,1743861525,705256376,world_ned,mA1/odom,244.6021388170824,10.479072904643827,0.43368165123642594,0.00032668167610352836,0.00017168806384290132,-0.015440413143117362,0.9998807216084632,0.0,0.0,0.0,0.0,0.0,0.0,0.0,0.0,0.0,0.0,0.0,0.0,0.0,0.0,0.0,0.0,0.0,0.0,0.0,0.0,0.0,0.0,0.0,0.0,0.0,0.0,0.0,0.0,0.0,0.0,0.0,0.0,0.0,0.0,0.0,0.0,0.319836167567624,0.01815237760420459,-8.986835701281223e-05,-0.0035896219430943737,0.0009492499220681963,0.005917676635577716,0.0,0.0,0.0,0.0,0.0,0.0,0.0,0.0,0.0,0.0,0.0,0.0,0.0,0.0,0.0,0.0,0.0,0.0,0.0,0.0,0.0,0.0,0.0,0.0,0.0,0.0,0.0,0.0,0.0,0.0,0.0,0.0,0.0,0.0,0.0,0.0
2025/04/05 15:58:45.806247866,1743861525,806032032,world_ned,mA1/odom,244.63393757944417,10.479990659620212,0.4336638821573527,6.917546818317416e-05,0.0002567785648884407,-0.01513889524104756,0.9998853649946097,0.0,0.0,0.0,0.0,0.0,0.0,0.0,0.0,0.0,0.0,0.0,0.0,0.0,0.0,0.0,0.0,0.0,0.0,0.0,0.0,0.0,0.0,0.0,0.0,0.0,0.0,0.0,0.0,0.0,0.0,0.0,0.0,0.0,0.0,0.0,0.0,0.31522914699401966,0.0193145698943464,6.839429640309895e-07,-0.0062424189283348,0.002283530542428614,0.006077417424515197,0.0,0.0,0.0,0.0,0.0,0.0,0.0,0.0,0.0,0.0,0.0,0.0,0.0,0.0,0.0,0.0,0.0,0.0,0.0,0.0,0.0,0.0,0.0,0.0,0.0,0.0,0.0,0.0,0.0,0.0,0.0,0.0,0.0,0.0,0.0,0.0
2025/04/05 15:58:45.907620005,1743861525,907393173,world_ned,mA1/odom,244.66586161424593,10.480998321225451,0.43365125709307906,-0.00028415146028822167,0.00032457374675567486,-0.014837127028390984,0.9998898307170515,0.0,0.0,0.0,0.0,0.0,0.0,0.0,0.0,0.0,0.0,0.0,0.0,0.0,0.0,0.0,0.0,0.0,0.0,0.0,0.0,0.0,0.0,0.0,0.0,0.0,0.0,0.0,0.0,0.0,0.0,0.0,0.0,0.0,0.0,0.0,0.0,0.3200677241426093,0.019757842573959464,0.00012312078317783,-0.007536438052174401,0.0007996269252454866,0.006011669632727643,0.0,0.0,0.0,0.0,0.0,0.0,0.0,0.0,0.0,0.0,0.0,0.0,0.0,0.0,0.0,0.0,0.0,0.0,0.0,0.0,0.0,0.0,0.0,0.0,0.0,0.0,0.0,0.0,0.0,0.0,0.0,0.0,0.0,0.0,0.0,0.0
2025/04/05 15:58:46.1746549,1743861526,1478872,world_ned,mA1/odom,244.6979555966764,10.482002353149566,0.433647255956245,-0.0006526948865522899,0.00035402307557380716,-0.014538322842501382,0.9998940372989401,0.0,0.0,0.0,0.0,0.0,0.0,0.0,0.0,0.0,0.0,0.0,0.0,0.0,0.0,0.0,0.0,0.0,0.0,0.0,0.0,0.0,0.0,0.0,0.0,0.0,0.0,0.0,0.0,0.0,0.0,0.0,0.0,0.0,0.0,0.0,0.0,0.31898838886253744,0.01904665799072527,0.00024466555997464725,-0.0069873654334593836,0.0007153329387898192,0.00594407192343157,0.0,0.0,0.0,0.0,0.0,0.0,0.0,0.0,0.0,0.0,0.0,0.0,0.0,0.0,0.0,0.0,0.0,0.0,0.0,0.0,0.0,0.0,0.0,0.0,0.0,0.0,0.0,0.0,0.0,0.0,0.0,0.0,0.0,0.0,0.0,0.0
2025/04/05 15:58:46.102619112,1743861526,102341968,world_ned,mA1/odom,244.73016624767996,10.48290472010285,0.4336519131150073,-0.000951504860548842,0.00034494534374504934,-0.014241665395992548,0.9998980701141286,0.0,0.0,0.0,0.0,0.0,0.0,0.0,0.0,0.0,0.0,0.0,0.0,0.0,0.0,0.0,0.0,0.0,0.0,0.0,0.0,0.0,0.0,0.0,0.0,0.0,0.0,0.0,0.0,0.0,0.0,0.0,0.0,0.0,0.0,0.0,0.0,0.32070461697398445,0.017529975162878308,0.0003310526791678927,-0.004931348034655638,-0.0001589768281768349,0.005920929377499468,0.0,0.0,0.0,0.0,0.0,0.0,0.0,0.0,0.0,0.0,0.0,0.0,0.0,0.0,0.0,0.0,0.0,0.0,0.0,0.0,0.0,0.0,0.0,0.0,0.0,0.0,0.0,0.0,0.0,0.0,0.0,0.0,0.0,0.0,0.0,0.0
2025/04/05 15:58:46.206561231,1743861526,206256616,world_ned,mA1/odom,244.7624939916592,10.483619692253658,0.4336641228637629,-0.0011099039532992702,0.00029746066001778184,-0.013940447953744542,0.9999021669849602,0.0,0.0,0.0,0.0,0.0,0.0,0.0,0.0,0.0,0.0,0.0,0.0,0.0,0.0,0.0,0.0,0.0,0.0,0.0,0.0,0.0,0.0,0.0,0.0,0.0,0.0,0.0,0.0,0.0,0.0,0.0,0.0,0.0,0.0,0.0,0.0,0.32240477993622163,0.015098713637294366,0.00037317625791053344,-0.0015678314015700528,-0.0009408826681932944,0.006054184054860253,0.0,0.0,0.0,0.0,0.0,0.0,0.0,0.0,0.0,0.0,0.0,0.0,0.0,0.0,0.0,0.0,0.0,0.0,0.0,0.0,0.0,0.0,0.0,0.0,0.0,0.0,0.0,0.0,0.0,0.0,0.0,0.0,0.0,0.0,0.0,0.0
2025/04/05 15:58:46.307312505,1743861526,307077377,world_ned,mA1/odom,244.79497570559346,10.484088017712983,0.4336814202751466,-0.0010872943278568362,0.00022086965758559495,-0.01363917151597898,0.9999063666203934,0.0,0.0,0.0,0.0,0.0,0.0,0.0,0.0,0.0,0.0,0.0,0.0,0.0,0.0,0.0,0.0,0.0,0.0,0.0,0.0,0.0,0.0,0.0,0.0,0.0,0.0,0.0,0.0,0.0,0.0,0.0,0.0,0.0,0.0,0.0,0.0,0.32082891799640256,0.01245447140448986,0.00032929780552425547,0.002105848580887235,-0.00042770701212142554,0.005997641384047815,0.0,0.0,0.0,0.0,0.0,0.0,0.0,0.0,0.0,0.0,0.0,0.0,0.0,0.0,0.0,0.0,0.0,0.0,0.0,0.0,0.0,0.0,0.0,0.0,0.0,0.0,0.0,0.0,0.0,0.0,0.0,0.0,0.0,0.0,0.0,0.0
2025/04/05 15:58:46.408500712,1743861526,408011151,world_ned,mA1/odom,244.82753313319313,10.484321745105031,0.43369951295567327,-0.0008908306838593002,0.00014666142387705514,-0.013342033244423176,0.9999105835323597,0.0,0.0,0.0,0.0,0.0,0.0,0.0,0.0,0.0,0.0,0.0,0.0,0.0,0.0,0.0,0.0,0.0,0.0,0.0,0.0,0.0,0.0,0.0,0.0,0.0,0.0,0.0,0.0,0.0,0.0,0.0,0.0,0.0,0.0,0.0,0.0,0.325680905602283,0.01016204760875095,0.00027457945038301555,0.005257797220308356,-0.0012410463381204286,0.00591266371642201,0.0,0.0,0.0,0.0,0.0,0.0,0.0,0.0,0.0,0.0,0.0,0.0,0.0,0.0,0.0,0.0,0.0,0.0,0.0,0.0,0.0,0.0,0.0,0.0,0.0,0.0,0.0,0.0,0.0,0.0,0.0,0.0,0.0,0.0,0.0,0.0
2025/04/05 15:58:46.511404610,1743861526,508793140,world_ned,mA1/odom,244.86045859978154,10.484415406522437,0.43371382762207544,-0.0005839035256256541,5.63080166524988e-05,-0.01304885098410152,0.9999146880479728,0.0,0.0,0.0,0.0,0.0,0.0,0.0,0.0,0.0,0.0,0.0,0.0,0.0,0.0,0.0,0.0,0.0,0.0,0.0,0.0,0.0,0.0,0.0,0.0,0.0,0.0,0.0,0.0,0.0,0.0,0.0,0.0,0.0,0.0,0.0,0.0,0.3318425283001547,0.009309645848208191,0.0001750479517564381,0.006673018019567447,-0.002050190793968371,0.005838853453514886,0.0,0.0,0.0,0.0,0.0,0.0,0.0,0.0,0.0,0.0,0.0,0.0,0.0,0.0,0.0,0.0,0.0,0.0,0.0,0.0,0.0,0.0,0.0,0.0,0.0,0.0,0.0,0.0,0.0,0.0,0.0,0.0,0.0,0.0,0.0,0.0
2025/04/05 15:58:46.610514770,1743861526,610140183,world_ned,mA1/odom,244.89358969460477,10.484473440396082,0.43371604861501145,-0.0002445758170658456,-1.4297257609221908e-05,-0.01275218787169705,0.9999186575330731,0.0,0.0,0.0,0.0,0.0,0.0,0.0,0.0,0.0,0.0,0.0,0.0,0.0,0.0,0.0,0.0,0.0,0.0,0.0,0.0,0.0,0.0,0.0,0.0,0.0,0.0,0.0,0.0,0.0,0.0,0.0,0.0,0.0,0.0,0.0,0.0,0.3336169314207764,0.009088503344872292,-3.577432991157443e-05,0.006696337347453952,-0.0014559314975807465,0.005956240933974015,0.0,0.0,0.0,0.0,0.0,0.0,0.0,0.0,0.0,0.0,0.0,0.0,0.0,0.0,0.0,0.0,0.0,0.0,0.0,0.0,0.0,0.0,0.0,0.0,0.0,0.0,0.0,0.0,0.0,0.0,0.0,0.0,0.0,0.0,0.0,0.0
2025/04/05 15:58:46.701366897,1743861526,700922927,world_ned,mA1/odom,244.92682450959455,10.484576337201135,0.43370963844060784,5.550687845147556e-05,-3.1138736532593804e-05,-0.012454001425921405,0.9999224438914494,0.0,0.0,0.0,0.0,0.0,0.0,0.0,0.0,0.0,0.0,0.0,0.0,0.0,0.0,0.0,0.0,0.0,0.0,0.0,0.0,0.0,0.0,0.0,0.0,0.0,0.0,0.0,0.0,0.0,0.0,0.0,0.0,0.0,0.0,0.0,0.0,0.3306447602043276,0.009783653478830178,-0.00013558794413135285,0.005206396776196494,0.0008251491958224443,0.005973666178489509,0.0,0.0,0.0,0.0,0.0,0.0,0.0,0.0,0.0,0.0,0.0,0.0,0.0,0.0,0.0,0.0,0.0,0.0,0.0,0.0,0.0,0.0,0.0,0.0,0.0,0.0,0.0,0.0,0.0,0.0,0.0,0.0,0.0,0.0,0.0,0.0
2025/04/05 15:58:46.802148134,1743861526,801861982,world_ned,mA1/odom,244.96040837604806,10.484797093520095,0.43369680039126374,0.00024817557435399796,-2.2331294102068393e-05,-0.01215539958280963,0.9999260893541981,0.0,0.0,0.0,0.0,0.0,0.0,0.0,0.0,0.0,0.0,0.0,0.0,0.0,0.0,0.0,0.0,0.0,0.0,0.0,0.0,0.0,0.0,0.0,0.0,0.0,0.0,0.0,0.0,0.0,0.0,0.0,0.0,0.0,0.0,0.0,0.0,0.34056347134455955,0.011096040389630439,-0.00016809494383586632,0.0025955325196606186,-0.0005125426388859734,0.005971374955918278,0.0,0.0,0.0,0.0,0.0,0.0,0.0,0.0,0.0,0.0,0.0,0.0,0.0,0.0,0.0,0.0,0.0,0.0,0.0,0.0,0.0,0.0,0.0,0.0,0.0,0.0,0.0,0.0,0.0,0.0,0.0,0.0,0.0,0.0,0.0,0.0
2025/04/05 15:58:46.903966957,1743861526,903147746,world_ned,mA1/odom,244.9942266855078,10.485178131013653,0.43368117595083894,0.0002935427802014298,2.2333169854382886e-05,-0.011857992369160686,0.9999296482007315,0.0,0.0,0.0,0.0,0.0,0.0,0.0,0.0,0.0,0.0,0.0,0.0,0.0,0.0,0.0,0.0,0.0,0.0,0.0,0.0,0.0,0.0,0.0,0.0,0.0,0.0,0.0,0.0,0.0,0.0,0.0,0.0,0.0,0.0,0.0,0.0,0.3396071454283816,0.012590972767371278,-0.00012923466570048548,-0.0005044120143142947,0.0010035890608820234,0.0059293761256184775,0.0,0.0,0.0,0.0,0.0,0.0,0.0,0.0,0.0,0.0,0.0,0.0,0.0,0.0,0.0,0.0,0.0,0.0,0.0,0.0,0.0,0.0,0.0,0.0,0.0,0.0,0.0,0.0,0.0,0.0,0.0,0.0,0.0,0.0,0.0,0.0
2025/04/05 15:58:47.4119052,1743861527,3776824,world_ned,mA1/odom,245.02825888195287,10.485691763272017,0.4336654669779023,0.0001951849300691182,9.145035614685871e-05,-0.011568759268601861,0.9999330564336097,0.0,0.0,0.0,0.0,0.0,0.0,0.0,0.0,0.0,0.0,0.0,0.0,0.0,0.0,0.0,0.0,0.0,0.0,0.0,0.0,0.0,0.0,0.0,0.0,0.0,0.0,0.0,0.0,0.0,0.0,0.0,0.0,0.0,0.0,0.0,0.0,0.33727754397006593,0.013442731447212032,-7.29124308525309e-05,-0.003102051997318233,0.0025212019356329624,0.005659920005930533,0.0,0.0,0.0,0.0,0.0,0.0,0.0,0.0,0.0,0.0,0.0,0.0,0.0,0.0,0.0,0.0,0.0,0.0,0.0,0.0,0.0,0.0,0.0,0.0,0.0,0.0,0.0,0.0,0.0,0.0,0.0,0.0,0.0,0.0,0.0,0.0
2025/04/05 15:58:47.105430653,1743861527,104762396,world_ned,mA1/odom,245.0624649002122,10.486311140059536,0.43365535547341666,-2.308796396650598e-05,0.00017516886213226072,-0.011285921762076977,0.9999362963473203,0.0,0.0,0.0,0.0,0.0,0.0,0.0,0.0,0.0,0.0,0.0,0.0,0.0,0.0,0.0,0.0,0.0,0.0,0.0,0.0,0.0,0.0,0.0,0.0,0.0,0.0,0.0,0.0,0.0,0.0,0.0,0.0,0.0,0.0,0.0,0.0,0.34236860470929226,0.014408196591037967,5.025504131336451e-05,-0.005306993479385952,0.0017278760234347005,0.005678344625054088,0.0,0.0,0.0,0.0,0.0,0.0,0.0,0.0,0.0,0.0,0.0,0.0,0.0,0.0,0.0,0.0,0.0,0.0,0.0,0.0,0.0,0.0,0.0,0.0,0.0,0.0,0.0,0.0,0.0,0.0,0.0,0.0,0.0,0.0,0.0,0.0
2025/04/05 15:58:47.205765469,1743861527,205545297,world_ned,mA1/odom,245.09684446246473,10.486999403481885,0.43365236091782117,-0.0003177624693829027,0.00025575378393776193,-0.011002662682659103,0.9999393856784053,0.0,0.0,0.0,0.0,0.0,0.0,0.0,0.0,0.0,0.0,0.0,0.0,0.0,0.0,0.0,0.0,0.0,0.0,0.0,0.0,0.0,0.0,0.0,0.0,0.0,0.0,0.0,0.0,0.0,0.0,0.0,0.0,0.0,0.0,0.0,0.0,0.34070723806880615,0.014490665507952647,0.0001766084970216453,-0.006187921036570839,0.0023927288946278542,0.005643856804958341,0.0,0.0,0.0,0.0,0.0,0.0,0.0,0.0,0.0,0.0,0.0,0.0,0.0,0.0,0.0,0.0,0.0,0.0,0.0,0.0,0.0,0.0,0.0,0.0,0.0,0.0,0.0,0.0,0.0,0.0,0.0,0.0,0.0,0.0,0.0,0.0
2025/04/05 15:58:47.307372331,1743861527,307205667,world_ned,mA1/odom,245.13141983795094,10.487660656816434,0.43365666816333703,-0.0006159088332752969,0.000312254486721252,-0.010721816976176784,0.9999422812313589,0.0,0.0,0.0,0.0,0.0,0.0,0.0,0.0,0.0,0.0,0.0,0.0,0.0,0.0,0.0,0.0,0.0,0.0,0.0,0.0,0.0,0.0,0.0,0.0,0.0,0.0,0.0,0.0,0.0,0.0,0.0,0.0,0.0,0.0,0.0,0.0,0.3480716508676644,0.013674838978676591,0.0003094200046825566,-0.0055855134389465825,0.0003216495659166202,0.005593172145676241,0.0,0.0,0.0,0.0,0.0,0.0,0.0,0.0,0.0,0.0,0.0,0.0,0.0,0.0,0.0,0.0,0.0,0.0,0.0,0.0,0.0,0.0,0.0,0.0,0.0,0.0,0.0,0.0,0.0,0.0,0.0,0.0,0.0,0.0,0.0,0.0
2025/04/05 15:58:47.410229272,1743861527,408029735,world_ned,mA1/odom,245.16610131970674,10.488208187372656,0.43366829314218874,-0.0008454586620733088,0.00034704159191312894,-0.010444970766108787,0.9999450321630081,0.0,0.0,0.0,0.0,0.0,0.0,0.0,0.0,0.0,0.0,0.0,0.0,0.0,0.0,0.0,0.0,0.0,0.0,0.0,0.0,0.0,0.0,0.0,0.0,0.0,0.0,0.0,0.0,0.0,0.0,0.0,0.0,0.0,0.0,0.0,0.0,0.3491355974399896,0.011992040714917598,0.000399177352641491,-0.00361623487082268,-0.00013417114699744938,0.005489042900495328,0.0,0.0,0.0,0.0,0.0,0.0,0.0,0.0,0.0,0.0,0.0,0.0,0.0,0.0,0.0,0.0,0.0,0.0,0.0,0.0,0.0,0.0,0.0,0.0,0.0,0.0,0.0,0.0,0.0,0.0,0.0,0.0,0.0,0.0,0.0,0.0
2025/04/05 15:58:47.509652613,1743861527,509152358,world_ned,mA1/odom,245.20101719103243,10.488574164471226,0.4336847976616733,-0.0009521650228134757,0.00033953401589855163,-0.01017349093739767,0.9999477377246113,0.0,0.0,0.0,0.0,0.0,0.0,0.0,0.0,0.0,0.0,0.0,0.0,0.0,0.0,0.0,0.0,0.0,0.0,0.0,0.0,0.0,0.0,0.0,0.0,0.0,0.0,0.0,0.0,0.0,0.0,0.0,0.0,0.0,0.0,0.0,0.0,0.3505965939074949,0.00989003178305712,0.0004178774135914857,-0.0008656776088473635,-0.0006981094820244743,0.005381376893477478,0.0,0.0,0.0,0.0,0.0,0.0,0.0,0.0,0.0,0.0,0.0,0.0,0.0,0.0,0.0,0.0,0.0,0.0,0.0,0.0,0.0,0.0,0.0,0.0,0.0,0.0,0.0,0.0,0.0,0.0,0.0,0.0,0.0,0.0,0.0,0.0
2025/04/05 15:58:47.610424619,1743861527,610203325,world_ned,mA1/odom,245.23603610743768,10.488745922824581,0.43369991651663264,-0.0009165816763228283,0.0003097680881338034,-0.009906989397703998,0.9999504565141395,0.0,0.0,0.0,0.0,0.0,0.0,0.0,0.0,0.0,0.0,0.0,0.0,0.0,0.0,0.0,0.0,0.0,0.0,0.0,0.0,0.0,0.0,0.0,0.0,0.0,0.0,0.0,0.0,0.0,0.0,0.0,0.0,0.0,0.0,0.0,0.0,0.35551686123472187,0.007842603978830914,0.0003547893659096328,0.0019626932050586542,-0.0021336264363571414,0.005292835497622726,0.0,0.0,0.0,0.0,0.0,0.0,0.0,0.0,0.0,0.0,0.0,0.0,0.0,0.0,0.0,0.0,0.0,0.0,0.0,0.0,0.0,0.0,0.0,0.0,0.0,0.0,0.0,0.0,0.0,0.0,0.0,0.0,0.0,0.0,0.0,0.0
2025/04/05 15:58:47.701430681,1743861527,701117304,world_ned,mA1/odom,245.27121162543813,10.488755067468153,0.4337114107236195,-0.0007550454519328835,0.00026053989361439364,-0.009643329810971877,0.9999531830118279,0.0,0.0,0.0,0.0,0.0,0.0,0.0,0.0,0.0,0.0,0.0,0.0,0.0,0.0,0.0,0.0,0.0,0.0,0.0,0.0,0.0,0.0,0.0,0.0,0.0,0.0,0.0,0.0,0.0,0.0,0.0,0.0,0.0,0.0,0.0,0.0,0.354316318679173,0.006325272276048612,0.0002702763147256099,0.004144457492783669,-0.0015961990104152346,0.005259743859854882,0.0,0.0,0.0,0.0,0.0,0.0,0.0,0.0,0.0,0.0,0.0,0.0,0.0,0.0,0.0,0.0,0.0,0.0,0.0,0.0,0.0,0.0,0.0,0.0,0.0,0.0,0.0,0.0,0.0,0.0,0.0,0.0,0.0,0.0,0.0,0.0
2025/04/05 15:58:47.802048212,1743861527,801860693,world_ned,mA1/odom,245.30659875747813,10.488668490772117,0.43371631628333357,-0.0005141781933366752,0.00019716406254112717,-0.009380039774155987,0.9999558548260784,0.0,0.0,0.0,0.0,0.0,0.0,0.0,0.0,0.0,0.0,0.0,0.0,0.0,0.0,0.0,0.0,0.0,0.0,0.0,0.0,0.0,0.0,0.0,0.0,0.0,0.0,0.0,0.0,0.0,0.0,0.0,0.0,0.0,0.0,0.0,0.0,0.35422381305531825,0.005580270689601605,0.00016705434928170762,0.005214997314759762,-0.0010895734785264354,0.005272631855056011,0.0,0.0,0.0,0.0,0.0,0.0,0.0,0.0,0.0,0.0,0.0,0.0,0.0,0.0,0.0,0.0,0.0,0.0,0.0,0.0,0.0,0.0,0.0,0.0,0.0,0.0,0.0,0.0,0.0,0.0,0.0,0.0,0.0,0.0,0.0,0.0
2025/04/05 15:58:47.904751408,1743861527,904369476,world_ned,mA1/odom,245.3422358436564,10.488564490881291,0.4337150962214095,-0.00025384856182447435,0.0001312982571785245,-0.009115596668917453,0.9999584112447102,0.0,0.0,0.0,0.0,0.0,0.0,0.0,0.0,0.0,0.0,0.0,0.0,0.0,0.0,0.0,0.0,0.0,0.0,0.0,0.0,0.0,0.0,0.0,0.0,0.0,0.0,0.0,0.0,0.0,0.0,0.0,0.0,0.0,0.0,0.0,0.0,0.3563394578659849,0.005627690809768847,5.2260539605052194e-05,0.005024572516163373,-0.0009080926798698107,0.005303775593559769,0.0,0.0,0.0,0.0,0.0,0.0,0.0,0.0,0.0,0.0,0.0,0.0,0.0,0.0,0.0,0.0,0.0,0.0,0.0,0.0,0.0,0.0,0.0,0.0,0.0,0.0,0.0,0.0,0.0,0.0,0.0,0.0,0.0,0.0,0.0,0.0
2025/04/05 15:58:48.4944743,1743861528,4728091,world_ned,mA1/odom,245.3781301445374,10.488537297980535,0.43370552737782714,-4.255658299978044e-05,7.616280368405588e-05,-0.008851599277614981,0.9999608200216612,0.0,0.0,0.0,0.0,0.0,0.0,0.0,0.0,0.0,0.0,0.0,0.0,0.0,0.0,0.0,0.0,0.0,0.0,0.0,0.0,0.0,0.0,0.0,0.0,0.0,0.0,0.0,0.0,0.0,0.0,0.0,0.0,0.0,0.0,0.0,0.0,0.3584673730797969,0.00673312328167444,-8.076264373061212e-05,0.003407997112135465,-0.0004846687862050963,0.00527381236753461,0.0,0.0,0.0,0.0,0.0,0.0,0.0,0.0,0.0,0.0,0.0,0.0,0.0,0.0,0.0,0.0,0.0,0.0,0.0,0.0,0.0,0.0,0.0,0.0,0.0,0.0,0.0,0.0,0.0,0.0,0.0,0.0,0.0,0.0,0.0,0.0
2025/04/05 15:58:48.108362536,1743861528,105494485,world_ned,mA1/odom,245.414217035811,10.488662773695369,0.4336892939296719,6.457122272583238e-05,4.893286534638762e-05,-0.00858820925786012,0.9999631173687733,0.0,0.0,0.0,0.0,0.0,0.0,0.0,0.0,0.0,0.0,0.0,0.0,0.0,0.0,0.0,0.0,0.0,0.0,0.0,0.0,0.0,0.0,0.0,0.0,0.0,0.0,0.0,0.0,0.0,0.0,0.0,0.0,0.0,0.0,0.0,0.0,0.3640607907092761,0.008230616125889512,-0.00014028104145029992,0.0010455712484260702,-0.0009317597340562496,0.005263510790506537,0.0,0.0,0.0,0.0,0.0,0.0,0.0,0.0,0.0,0.0,0.0,0.0,0.0,0.0,0.0,0.0,0.0,0.0,0.0,0.0,0.0,0.0,0.0,0.0,0.0,0.0,0.0,0.0,0.0,0.0,0.0,0.0,0.0,0.0,0.0,0.0
2025/04/05 15:58:48.207367335,1743861528,207082659,world_ned,mA1/odom,245.45049225459314,10.488923619204453,0.4336728378764156,5.9712886706881375e-05,5.118108361610168e-05,-0.0083234591793406,0.9999653563209866,0.0,0.0,0.0,0.0,0.0,0.0,0.0,0.0,0.0,0.0,0.0,0.0,0.0,0.0,0.0,0.0,0.0,0.0,0.0,0.0,0.0,0.0,0.0,0.0,0.0,0.0,0.0,0.0,0.0,0.0,0.0,0.0,0.0,0.0,0.0,0.0,0.36069163897292256,0.009117334715743216,-0.00011293814179038695,-0.0010204098394391964,0.0010997243584024768,0.00528461467839687,0.0,0.0,0.0,0.0,0.0,0.0,0.0,0.0,0.0,0.0,0.0,0.0,0.0,0.0,0.0,0.0,0.0,0.0,0.0,0.0,0.0,0.0,0.0,0.0,0.0,0.0,0.0,0.0,0.0,0.0,0.0,0.0,0.0,0.0,0.0,0.0
2025/04/05 15:58:48.308937389,1743861528,308635290,world_ned,mA1/odom,245.48705976683385,10.489259646508154,0.43365989731059684,-3.715972864802837e-05,6.646305195763141e-05,-0.008066385315260176,0.9999674632855626,0.0,0.0,0.0,0.0,0.0,0.0,0.0,0.0,0.0,0.0,0.0,0.0,0.0,0.0,0.0,0.0,0.0,0.0,0.0,0.0,0.0,0.0,0.0,0.0,0.0,0.0,0.0,0.0,0.0,0.0,0.0,0.0,0.0,0.0,0.0,0.0,0.3643905116644952,0.0094533516935241,-6.699410403216314e-05,-0.002599671164191855,0.0010619607024792957,0.0050116124386625155,0.0,0.0,0.0,0.0,0.0,0.0,0.0,0.0,0.0,0.0,0.0,0.0,0.0,0.0,0.0,0.0,0.0,0.0,0.0,0.0,0.0,0.0,0.0,0.0,0.0,0.0,0.0,0.0,0.0,0.0,0.0,0.0,0.0,0.0,0.0,0.0
2025/04/05 15:58:48.410299016,1743861528,410035134,world_ned,mA1/odom,245.52384503505152,10.489620908693423,0.4336535377051379,-0.00019540282174052882,9.929996649554267e-05,-0.007823566583745532,0.9999693714125266,0.0,0.0,0.0,0.0,0.0,0.0,0.0,0.0,0.0,0.0,0.0,0.0,0.0,0.0,0.0,0.0,0.0,0.0,0.0,0.0,0.0,0.0,0.0,0.0,0.0,0.0,0.0,0.0,0.0,0.0,0.0,0.0,0.0,0.0,0.0,0.0,0.37138702194960305,0.009372812236860349,5.530557843041938e-05,-0.003499518827409372,4.8812591895084255e-05,0.004740719455195575,0.0,0.0,0.0,0.0,0.0,0.0,0.0,0.0,0.0,0.0,0.0,0.0,0.0,0.0,0.0,0.0,0.0,0.0,0.0,0.0,0.0,0.0,0.0,0.0,0.0,0.0,0.0,0.0,0.0,0.0,0.0,0.0,0.0,0.0,0.0,0.0
2025/04/05 15:58:48.503134279,1743861528,500883510,world_ned,mA1/odom,245.56080787696334,10.489998829506314,0.43365808130822575,-0.00038685816250995977,0.00015597633177240195,-0.00758557773893876,0.9999711420948669,0.0,0.0,0.0,0.0,0.0,0.0,0.0,0.0,0.0,0.0,0.0,0.0,0.0,0.0,0.0,0.0,0.0,0.0,0.0,0.0,0.0,0.0,0.0,0.0,0.0,0.0,0.0,0.0,0.0,0.0,0.0,0.0,0.0,0.0,0.0,0.0,0.3693505936525984,0.00950834135703196,0.00022369141272576907,-0.0040123915028752385,0.001540131125259562,0.004796748603438478,0.0,0.0,0.0,0.0,0.0,0.0,0.0,0.0,0.0,0.0,0.0,0.0,0.0,0.0,0.0,0.0,0.0,0.0,0.0,0.0,0.0,0.0,0.0,0.0,0.0,0.0,0.0,0.0,0.0,0.0,0.0,0.0,0.0,0.0,0.0,0.0
2025/04/05 15:58:48.603066189,1743861528,602654054,world_ned,mA1/odom,245.59800363967517,10.490334385725161,0.43366938402432287,-0.0005657914903926088,0.00021347578646293392,-0.00735371646223958,0.9999727782106226,0.0,0.0,0.0,0.0,0.0,0.0,0.0,0.0,0.0,0.0,0.0,0.0,0.0,0.0,0.0,0.0,0.0,0.0,0.0,0.0,0.0,0.0,0.0,0.0,0.0,0.0,0.0,0.0,0.0,0.0,0.0,0.0,0.0,0.0,0.0,0.0,0.3753605055277969,0.008296904355337332,0.0002904889549025957,-0.0031005240415427388,0.0003050852538925901,0.004482210514413968,0.0,0.0,0.0,0.0,0.0,0.0,0.0,0.0,0.0,0.0,0.0,0.0,0.0,0.0,0.0,0.0,0.0,0.0,0.0,0.0,0.0,0.0,0.0,0.0,0.0,0.0,0.0,0.0,0.0,0.0,0.0,0.0,0.0,0.0,0.0,0.0
2025/04/05 15:58:48.708711237,1743861528,706784902,world_ned,mA1/odom,245.63527708791915,10.490550843410844,0.4336840070741503,-0.0006829142184644608,0.0002747003488582462,-0.007136471246832738,0.9999742641418486,0.0,0.0,0.0,0.0,0.0,0.0,0.0,0.0,0.0,0.0,0.0,0.0,0.0,0.0,0.0,0.0,0.0,0.0,0.0,0.0,0.0,0.0,0.0,0.0,0.0,0.0,0.0,0.0,0.0,0.0,0.0,0.0,0.0,0.0,0.0,0.0,0.36855439807763724,0.006915876255668496,0.0003642480696515943,-0.0016571134766853889,0.002460353021131779,0.004240154886065968,0.0,0.0,0.0,0.0,0.0,0.0,0.0,0.0,0.0,0.0,0.0,0.0,0.0,0.0,0.0,0.0,0.0,0.0,0.0,0.0,0.0,0.0,0.0,0.0,0.0,0.0,0.0,0.0,0.0,0.0,0.0,0.0,0.0,0.0,0.0,0.0
2025/04/05 15:58:48.807297474,1743861528,807075944,world_ned,mA1/odom,245.67285854825712,10.490653105279069,0.43369825328421124,-0.0007241378963706036,0.0003020756836729895,-0.006925455646082594,0.9999757109243617,0.0,0.0,0.0,0.0,0.0,0.0,0.0,0.0,0.0,0.0,0.0,0.0,0.0,0.0,0.0,0.0,0.0,0.0,0.0,0.0,0.0,0.0,0.0,0.0,0.0,0.0,0.0,0.0,0.0,0.0,0.0,0.0,0.0,0.0,0.0,0.0,0.3808024875096593,0.00583317960815855,0.00036059962035091215,-0.0001587490015620608,-0.0008037631470724533,0.004227470714460811,0.0,0.0,0.0,0.0,0.0,0.0,0.0,0.0,0.0,0.0,0.0,0.0,0.0,0.0,0.0,0.0,0.0,0.0,0.0,0.0,0.0,0.0,0.0,0.0,0.0,0.0,0.0,0.0,0.0,0.0,0.0,0.0,0.0,0.0,0.0,0.0
2025/04/05 15:58:48.909271978,1743861528,908218209,world_ned,mA1/odom,245.71051305717486,10.490670487684437,0.43370819436802455,-0.0006917969693047987,0.0003252557196674955,-0.006713223752586064,0.9999771738657427,0.0,0.0,0.0,0.0,0.0,0.0,0.0,0.0,0.0,0.0,0.0,0.0,0.0,0.0,0.0,0.0,0.0,0.0,0.0,0.0,0.0,0.0,0.0,0.0,0.0,0.0,0.0,0.0,0.0,0.0,0.0,0.0,0.0,0.0,0.0,0.0,0.3753404972552897,0.004893581922748892,0.0003193827817586938,0.0012633144093708905,0.0008194952733823488,0.004262615652981884,0.0,0.0,0.0,0.0,0.0,0.0,0.0,0.0,0.0,0.0,0.0,0.0,0.0,0.0,0.0,0.0,0.0,0.0,0.0,0.0,0.0,0.0,0.0,0.0,0.0,0.0,0.0,0.0,0.0,0.0,0.0,0.0,0.0,0.0,0.0,0.0
2025/04/05 15:58:49.9531589,1743861529,8995223,world_ned,mA1/odom,245.7483924791714,10.490619496775182,0.43371042774171764,-0.0005966987394875042,0.0003185937058060687,-0.006498659497779204,0.9999786547088877,0.0,0.0,0.0,0.0,0.0,0.0,0.0,0.0,0.0,0.0,0.0,0.0,0.0,0.0,0.0,0.0,0.0,0.0,0.0,0.0,0.0,0.0,0.0,0.0,0.0,0.0,0.0,0.0,0.0,0.0,0.0,0.0,0.0,0.0,0.0,0.0,0.3811061619205045,0.0042001660815558315,0.0002189936037971432,0.0023488601601486868,-0.0007647010464805541,0.004315478387449636,0.0,0.0,0.0,0.0,0.0,0.0,0.0,0.0,0.0,0.0,0.0,0.0,0.0,0.0,0.0,0.0,0.0,0.0,0.0,0.0,0.0,0.0,0.0,0.0,0.0,0.0,0.0,0.0,0.0,0.0,0.0,0.0,0.0,0.0,0.0,0.0
2025/04/05 15:58:49.110162045,1743861529,109965218,world_ned,mA1/odom,245.7864190042061,10.490518933319814,0.4337028664342108,-0.00045869797231885747,0.0002934616442342278,-0.0062846424484930665,0.9999801031749223,0.0,0.0,0.0,0.0,0.0,0.0,0.0,0.0,0.0,0.0,0.0,0.0,0.0,0.0,0.0,0.0,0.0,0.0,0.0,0.0,0.0,0.0,0.0,0.0,0.0,0.0,0.0,0.0,0.0,0.0,0.0,0.0,0.0,0.0,0.0,0.0,0.3843188380740981,0.003608246112136396,0.00010027142457983074,0.0030096609605474466,-0.0015782773130943505,0.004249916178731239,0.0,0.0,0.0,0.0,0.0,0.0,0.0,0.0,0.0,0.0,0.0,0.0,0.0,0.0,0.0,0.0,0.0,0.0,0.0,0.0,0.0,0.0,0.0,0.0,0.0,0.0,0.0,0.0,0.0,0.0,0.0,0.0,0.0,0.0,0.0,0.0
2025/04/05 15:58:49.201078652,1743861529,200718932,world_ned,mA1/odom,245.82458840649394,10.490404711095595,0.4336894564429016,-0.00030968983897706104,0.00025424050907291835,-0.006072664087111278,0.9999814809309482,0.0,0.0,0.0,0.0,0.0,0.0,0.0,0.0,0.0,0.0,0.0,0.0,0.0,0.0,0.0,0.0,0.0,0.0,0.0,0.0,0.0,0.0,0.0,0.0,0.0,0.0,0.0,0.0,0.0,0.0,0.0,0.0,0.0,0.0,0.0,0.0,0.3788315080875134,0.0036017999793425677,3.236602963964635e-05,0.0028471030925170428,0.00010599236415491735,0.004233249932054375,0.0,0.0,0.0,0.0,0.0,0.0,0.0,0.0,0.0,0.0,0.0,0.0,0.0,0.0,0.0,0.0,0.0,0.0,0.0,0.0,0.0,0.0,0.0,0.0,0.0,0.0,0.0,0.0,0.0,0.0,0.0,0.0,0.0,0.0,0.0,0.0
2025/04/05 15:58:49.303679735,1743861529,301550497,world_ned,mA1/odom,245.86296549110855,10.490337537415213,0.43367317352552676,-0.00019120350661473232,0.00020143940732947243,-0.005865071431005645,0.9999827617516681,0.0,0.0,0.0,0.0,0.0,0.0,0.0,0.0,0.0,0.0,0.0,0.0,0.0,0.0,0.0,0.0,0.0,0.0,0.0,0.0,0.0,0.0,0.0,0.0,0.0,0.0,0.0,0.0,0.0,0.0,0.0,0.0,0.0,0.0,0.0,0.0,0.3872239347754817,0.004250084189543612,-8.138258551622883e-06,0.0018549339006832801,-0.001837654193901936,0.004105680338021306,0.0,0.0,0.0,0.0,0.0,0.0,0.0,0.0,0.0,0.0,0.0,0.0,0.0,0.0,0.0,0.0,0.0,0.0,0.0,0.0,0.0,0.0,0.0,0.0,0.0,0.0,0.0,0.0,0.0,0.0,0.0,0.0,0.0,0.0,0.0,0.0
2025/04/05 15:58:49.403631040,1743861529,402364038,world_ned,mA1/odom,245.90151767976639,10.49037753962212,0.43365965277018026,-0.00013993731096649412,0.00014876419792948467,-0.005660046010803768,0.9999839609543335,0.0,0.0,0.0,0.0,0.0,0.0,0.0,0.0,0.0,0.0,0.0,0.0,0.0,0.0,0.0,0.0,0.0,0.0,0.0,0.0,0.0,0.0,0.0,0.0,0.0,0.0,0.0,0.0,0.0,0.0,0.0,0.0,0.0,0.0,0.0,0.0,0.383556040525177,0.00533132674218531,3.4495373908664936e-06,0.00031799717812350074,-0.00024280273591557395,0.004096352351661127,0.0,0.0,0.0,0.0,0.0,0.0,0.0,0.0,0.0,0.0,0.0,0.0,0.0,0.0,0.0,0.0,0.0,0.0,0.0,0.0,0.0,0.0,0.0,0.0,0.0,0.0,0.0,0.0,0.0,0.0,0.0,0.0,0.0,0.0,0.0,0.0
2025/04/05 15:58:49.504782659,1743861529,504436937,world_ned,mA1/odom,245.94025110314482,10.49053243684247,0.4336535580597033,-0.00016515087038484731,0.00010405517318544674,-0.005456799171964845,0.9999850925091373,0.0,0.0,0.0,0.0,0.0,0.0,0.0,0.0,0.0,0.0,0.0,0.0,0.0,0.0,0.0,0.0,0.0,0.0,0.0,0.0,0.0,0.0,0.0,0.0,0.0,0.0,0.0,0.0,0.0,0.0,0.0,0.0,0.0,0.0,0.0,0.0,0.39067338289846903,0.006245336172230402,6.740301139658698e-05,-0.001138683011649335,-0.0014898792492848859,0.0040395954194818425,0.0,0.0,0.0,0.0,0.0,0.0,0.0,0.0,0.0,0.0,0.0,0.0,0.0,0.0,0.0,0.0,0.0,0.0,0.0,0.0,0.0,0.0,0.0,0.0,0.0,0.0,0.0,0.0,0.0,0.0,0.0,0.0,0.0,0.0,0.0,0.0
2025/04/05 15:58:49.607436645,1743861529,607125061,world_ned,mA1/odom,245.9791439022772,10.490770249615704,0.433657913825595,-0.00025203929525382987,7.226171937029756e-05,-0.0052506123479074875,0.9999861810667233,0.0,0.0,0.0,0.0,0.0,0.0,0.0,0.0,0.0,0.0,0.0,0.0,0.0,0.0,0.0,0.0,0.0,0.0,0.0,0.0,0.0,0.0,0.0,0.0,0.0,0.0,0.0,0.0,0.0,0.0,0.0,0.0,0.0,0.0,0.0,0.0,0.39069123349504103,0.006674973231499329,0.0001433743161367724,-0.002118416562558565,-0.0008095555305628497,0.004151256353361469,0.0,0.0,0.0,0.0,0.0,0.0,0.0,0.0,0.0,0.0,0.0,0.0,0.0,0.0,0.0,0.0,0.0,0.0,0.0,0.0,0.0,0.0,0.0,0.0,0.0,0.0,0.0,0.0,0.0,0.0,0.0,0.0,0.0,0.0,0.0,0.0
2025/04/05 15:58:49.708170397,1743861529,707940797,world_ned,mA1/odom,246.01827813004385,10.491043987528448,0.4336687871886403,-0.0003736160438766731,4.7631252376390096e-05,-0.005043028510914285,0.9999872129211221,0.0,0.0,0.0,0.0,0.0,0.0,0.0,0.0,0.0,0.0,0.0,0.0,0.0,0.0,0.0,0.0,0.0,0.0,0.0,0.0,0.0,0.0,0.0,0.0,0.0,0.0,0.0,0.0,0.0,0.0,0.0,0.0,0.0,0.0,0.0,0.0,0.3917954152956028,0.006752737317982479,0.00016016759161552183,-0.0025796954155497685,-0.00025408259342893857,0.004146681549709424,0.0,0.0,0.0,0.0,0.0,0.0,0.0,0.0,0.0,0.0,0.0,0.0,0.0,0.0,0.0,0.0,0.0,0.0,0.0,0.0,0.0,0.0,0.0,0.0,0.0,0.0,0.0,0.0,0.0,0.0,0.0,0.0,0.0,0.0,0.0,0.0
2025/04/05 15:58:49.802757004,1743861529,802525306,world_ned,mA1/odom,246.05749631327012,10.491310244149926,0.433683303805915,-0.0004973295410548932,5.600206169319335e-05,-0.004837546669483362,0.9999881737647287,0.0,0.0,0.0,0.0,0.0,0.0,0.0,0.0,0.0,0.0,0.0,0.0,0.0,0.0,0.0,0.0,0.0,0.0,0.0,0.0,0.0,0.0,0.0,0.0,0.0,0.0,0.0,0.0,0.0,0.0,0.0,0.0,0.0,0.0,0.0,0.0,0.3979183817327126,0.00628504004449283,0.00021282079972706198,-0.002285815064356119,-0.0010459727182767556,0.004078495753257475,0.0,0.0,0.0,0.0,0.0,0.0,0.0,0.0,0.0,0.0,0.0,0.0,0.0,0.0,0.0,0.0,0.0,0.0,0.0,0.0,0.0,0.0,0.0,0.0,0.0,0.0,0.0,0.0,0.0,0.0,0.0,0.0,0.0,0.0,0.0,0.0
2025/04/05 15:58:49.904258429,1743861529,903868185,world_ned,mA1/odom,246.09693693428488,10.491532378925504,0.4336992506531893,-0.0005931394558587945,7.861413895146049e-05,-0.004634466100805218,0.9999890818050783,0.0,0.0,0.0,0.0,0.0,0.0,0.0,0.0,0.0,0.0,0.0,0.0,0.0,0.0,0.0,0.0,0.0,0.0,0.0,0.0,0.0,0.0,0.0,0.0,0.0,0.0,0.0,0.0,0.0,0.0,0.0,0.0,0.0,0.0,0.0,0.0,0.3998700060432034,0.0056336572596905185,0.0002081184196713254,-0.0015478857579554505,-0.0007279639436141744,0.004046929809988112,0.0,0.0,0.0,0.0,0.0,0.0,0.0,0.0,0.0,0.0,0.0,0.0,0.0,0.0,0.0,0.0,0.0,0.0,0.0,0.0,0.0,0.0,0.0,0.0,0.0,0.0,0.0,0.0,0.0,0.0,0.0,0.0,0.0,0.0,0.0,0.0
2025/04/05 15:58:50.5356186,1743861530,5133616,world_ned,mA1/odom,246.1364627831896,10.491693352773341,0.43371139881408577,-0.0006415120958049779,0.0001289958958649213,-0.004432991757417217,0.999989960152785,0.0,0.0,0.0,0.0,0.0,0.0,0.0,0.0,0.0,0.0,0.0,0.0,0.0,0.0,0.0,0.0,0.0,0.0,0.0,0.0,0.0,0.0,0.0,0.0,0.0,0.0,0.0,0.0,0.0,0.0,0.0,0.0,0.0,0.0,0.0,0.0,0.39698824280613276,0.004794574068533442,0.0002045494025365834,-0.0004555643714811779,0.000843758227662226,0.004017422589024024,0.0,0.0,0.0,0.0,0.0,0.0,0.0,0.0,0.0,0.0,0.0,0.0,0.0,0.0,0.0,0.0,0.0,0.0,0.0,0.0,0.0,0.0,0.0,0.0,0.0,0.0,0.0,0.0,0.0,0.0,0.0,0.0,0.0,0.0,0.0,0.0
2025/04/05 15:58:50.109242072,1743861530,106777825,world_ned,mA1/odom,246.1762826817872,10.491779998532493,0.4337159984376228,-0.0006317983151677984,0.000169946341618051,-0.0042332783798610125,0.9999908256095595,0.0,0.0,0.0,0.0,0.0,0.0,0.0,0.0,0.0,0.0,0.0,0.0,0.0,0.0,0.0,0.0,0.0,0.0,0.0,0.0,0.0,0.0,0.0,0.0,0.0,0.0,0.0,0.0,0.0,0.0,0.0,0.0,0.0,0.0,0.0,0.0,0.39886911576057005,0.003942821574338997,0.00013314183665869085,0.0006860958170842657,0.0008239227729994087,0.003980298363420108,0.0,0.0,0.0,0.0,0.0,0.0,0.0,0.0,0.0,0.0,0.0,0.0,0.0,0.0,0.0,0.0,0.0,0.0,0.0,0.0,0.0,0.0,0.0,0.0,0.0,0.0,0.0,0.0,0.0,0.0,0.0,0.0,0.0,0.0,0.0,0.0
2025/04/05 15:58:50.208755948,1743861530,207876381,world_ned,mA1/odom,246.21616422828572,10.491810735401108,0.4337106620479446,-0.0005715113176633757,0.00022272637118567616,-0.004033953096418556,0.9999916754604476,0.0,0.0,0.0,0.0,0.0,0.0,0.0,0.0,0.0,0.0,0.0,0.0,0.0,0.0,0.0,0.0,0.0,0.0,0.0,0.0,0.0,0.0,0.0,0.0,0.0,0.0,0.0,0.0,0.0,0.0,0.0,0.0,0.0,0.0,0.0,0.0,0.401235497412225,0.003344745349662261,8.892263982468987e-05,0.0015733701146056329,0.0005120299082753082,0.00399275329761954,0.0,0.0,0.0,0.0,0.0,0.0,0.0,0.0,0.0,0.0,0.0,0.0,0.0,0.0,0.0,0.0,0.0,0.0,0.0,0.0,0.0,0.0,0.0,0.0,0.0,0.0,0.0,0.0,0.0,0.0,0.0,0.0,0.0,0.0,0.0,0.0
2025/04/05 15:58:50.308954780,1743861530,308728081,world_ned,mA1/odom,246.25619524545687,10.491806127005777,0.4336978342527943,-0.0004762118052513581,0.00026523488750481366,-0.0038347589343314956,0.9999924987202087,0.0,0.0,0.0,0.0,0.0,0.0,0.0,0.0,0.0,0.0,0.0,0.0,0.0,0.0,0.0,0.0,0.0,0.0,0.0,0.0,0.0,0.0,0.0,0.0,0.0,0.0,0.0,0.0,0.0,0.0,0.0,0.0,0.0,0.0,0.0,0.0,0.4031291681941811,0.0029191139330812924,5.6406350055655065e-05,0.0021139418694171024,0.00010615790509858428,0.003973612035693424,0.0,0.0,0.0,0.0,0.0,0.0,0.0,0.0,0.0,0.0,0.0,0.0,0.0,0.0,0.0,0.0,0.0,0.0,0.0,0.0,0.0,0.0,0.0,0.0,0.0,0.0,0.0,0.0,0.0,0.0,0.0,0.0,0.0,0.0,0.0,0.0
2025/04/05 15:58:50.412329804,1743861530,409438093,world_ned,mA1/odom,246.29632101467624,10.491781397319182,0.4336803565516848,-0.0003640562019015271,0.00029720549442570116,-0.00363815954884837,0.9999932714408998,0.0,0.0,0.0,0.0,0.0,0.0,0.0,0.0,0.0,0.0,0.0,0.0,0.0,0.0,0.0,0.0,0.0,0.0,0.0,0.0,0.0,0.0,0.0,0.0,0.0,0.0,0.0,0.0,0.0,0.0,0.0,0.0,0.0,0.0,0.0,0.0,0.3986691279807993,0.0026619957584114603,6.192341130116597e-05,0.0022501146724306217,0.0013552839159750242,0.0039041869305647806,0.0,0.0,0.0,0.0,0.0,0.0,0.0,0.0,0.0,0.0,0.0,0.0,0.0,0.0,0.0,0.0,0.0,0.0,0.0,0.0,0.0,0.0,0.0,0.0,0.0,0.0,0.0,0.0,0.0,0.0,0.0,0.0,0.0,0.0,0.0,0.0
2025/04/05 15:58:50.501097542,1743861530,500764911,world_ned,mA1/odom,246.3366778611829,10.491769438722807,0.43366428365360726,-0.00026237595584370114,0.0002926912054824127,-0.0034437373091457785,0.9999939930639892,0.0,0.0,0.0,0.0,0.0,0.0,0.0,0.0,0.0,0.0,0.0,0.0,0.0,0.0,0.0,0.0,0.0,0.0,0.0,0.0,0.0,0.0,0.0,0.0,0.0,0.0,0.0,0.0,0.0,0.0,0.0,0.0,0.0,0.0,0.0,0.0,0.40618094939842264,0.002832743840803122,9.560332141592229e-05,0.0017779990705277346,-0.0008809331164277773,0.0038747295090474925,0.0,0.0,0.0,0.0,0.0,0.0,0.0,0.0,0.0,0.0,0.0,0.0,0.0,0.0,0.0,0.0,0.0,0.0,0.0,0.0,0.0,0.0,0.0,0.0,0.0,0.0,0.0,0.0,0.0,0.0,0.0,0.0,0.0,0.0,0.0,0.0
2025/04/05 15:58:50.603637482,1743861530,601532010,world_ned,mA1/odom,246.37708831435694,10.491803353207954,0.4336538066541938,-0.00019591206854217965,0.00027567224413189165,-0.0032507810120804962,0.9999946590087803,0.0,0.0,0.0,0.0,0.0,0.0,0.0,0.0,0.0,0.0,0.0,0.0,0.0,0.0,0.0,0.0,0.0,0.0,0.0,0.0,0.0,0.0,0.0,0.0,0.0,0.0,0.0,0.0,0.0,0.0,0.0,0.0,0.0,0.0,0.0,0.0,0.40852505171209685,0.003227421387125017,0.0001473802727044306,0.0009179745884078346,-0.0016162166765128403,0.003848571988882503,0.0,0.0,0.0,0.0,0.0,0.0,0.0,0.0,0.0,0.0,0.0,0.0,0.0,0.0,0.0,0.0,0.0,0.0,0.0,0.0,0.0,0.0,0.0,0.0,0.0,0.0,0.0,0.0,0.0,0.0,0.0,0.0,0.0,0.0,0.0,0.0
2025/04/05 15:58:50.702609825,1743861530,702279530,world_ned,mA1/odom,246.4175695278299,10.491896309199426,0.4336504287602035,-0.00017874772110556224,0.0002450021860600494,-0.003059746562147772,0.9999952729759058,0.0,0.0,0.0,0.0,0.0,0.0,0.0,0.0,0.0,0.0,0.0,0.0,0.0,0.0,0.0,0.0,0.0,0.0,0.0,0.0,0.0,0.0,0.0,0.0,0.0,0.0,0.0,0.0,0.0,0.0,0.0,0.0,0.0,0.0,0.0,0.0,0.40496767529090694,0.0036748333377019772,0.000211978673637016,-0.0001214016542663056,-0.0006555075123237786,0.0037969820718712502,0.0,0.0,0.0,0.0,0.0,0.0,0.0,0.0,0.0,0.0,0.0,0.0,0.0,0.0,0.0,0.0,0.0,0.0,0.0,0.0,0.0,0.0,0.0,0.0,0.0,0.0,0.0,0.0,0.0,0.0,0.0,0.0,0.0,0.0,0.0,0.0
2025/04/05 15:58:50.809315447,1743861530,804542386,world_ned,mA1/odom,246.45820857852183,10.49201643592592,0.43365619024344915,-0.0002021051803848115,0.00019396502994066607,-0.002877619400771889,0.9999958204100893,0.0,0.0,0.0,0.0,0.0,0.0,0.0,0.0,0.0,0.0,0.0,0.0,0.0,0.0,0.0,0.0,0.0,0.0,0.0,0.0,0.0,0.0,0.0,0.0,0.0,0.0,0.0,0.0,0.0,0.0,0.0,0.0,0.0,0.0,0.0,0.0,0.40895463273417565,0.0035014075234445874,0.00025635806565654106,-0.0006949211752617391,-0.0016712790347046074,0.0035031696191231603,0.0,0.0,0.0,0.0,0.0,0.0,0.0,0.0,0.0,0.0,0.0,0.0,0.0,0.0,0.0,0.0,0.0,0.0,0.0,0.0,0.0,0.0,0.0,0.0,0.0,0.0,0.0,0.0,0.0,0.0,0.0,0.0,0.0,0.0,0.0,0.0
2025/04/05 15:58:50.906969542,1743861530,906348612,world_ned,mA1/odom,246.49891015490434,10.492161427258987,0.43367001046923714,-0.0002607087242369903,0.00014752000748802596,-0.002703018784921777,0.9999963019722907,0.0,0.0,0.0,0.0,0.0,0.0,0.0,0.0,0.0,0.0,0.0,0.0,0.0,0.0,0.0,0.0,0.0,0.0,0.0,0.0,0.0,0.0,0.0,0.0,0.0,0.0,0.0,0.0,0.0,0.0,0.0,0.0,0.0,0.0,0.0,0.0,0.40625416741623177,0.00390953759587973,0.0002818216861270839,-0.0015406692610785311,-0.0005214223292376025,0.0035082659957273383,0.0,0.0,0.0,0.0,0.0,0.0,0.0,0.0,0.0,0.0,0.0,0.0,0.0,0.0,0.0,0.0,0.0,0.0,0.0,0.0,0.0,0.0,0.0,0.0,0.0,0.0,0.0,0.0,0.0,0.0,0.0,0.0,0.0,0.0,0.0,0.0
2025/04/05 15:58:51.9451988,1743861531,9137711,world_ned,mA1/odom,246.5398139383303,10.492319996041333,0.433686902389921,-0.00034345528511253503,9.448280385868847e-05,-0.0025348663747303915,0.9999967237765978,0.0,0.0,0.0,0.0,0.0,0.0,0.0,0.0,0.0,0.0,0.0,0.0,0.0,0.0,0.0,0.0,0.0,0.0,0.0,0.0,0.0,0.0,0.0,0.0,0.0,0.0,0.0,0.0,0.0,0.0,0.0,0.0,0.0,0.0,0.0,0.0,0.4054243876512807,0.003472282460622031,0.0002589684505680962,-0.0016428811217241192,0.0001728270753044347,0.003217542431382906,0.0,0.0,0.0,0.0,0.0,0.0,0.0,0.0,0.0,0.0,0.0,0.0,0.0,0.0,0.0,0.0,0.0,0.0,0.0,0.0,0.0,0.0,0.0,0.0,0.0,0.0,0.0,0.0,0.0,0.0,0.0,0.0,0.0,0.0,0.0,0.0
2025/04/05 15:58:51.110295280,1743861531,109993951,world_ned,mA1/odom,246.5808493000502,10.492461254419549,0.433704043502128,-0.00042792112809628076,5.5366621442132086e-05,-0.0023747328696489345,0.9999970872266795,0.0,0.0,0.0,0.0,0.0,0.0,0.0,0.0,0.0,0.0,0.0,0.0,0.0,0.0,0.0,0.0,0.0,0.0,0.0,0.0,0.0,0.0,0.0,0.0,0.0,0.0,0.0,0.0,0.0,0.0,0.0,0.0,0.0,0.0,0.0,0.0,0.41541435130447174,0.003386141750235547,0.0001948298551350894,-0.0016965580982609462,-0.0018559841701645105,0.0032073377766041336,0.0,0.0,0.0,0.0,0.0,0.0,0.0,0.0,0.0,0.0,0.0,0.0,0.0,0.0,0.0,0.0,0.0,0.0,0.0,0.0,0.0,0.0,0.0,0.0,0.0,0.0,0.0,0.0,0.0,0.0,0.0,0.0,0.0,0.0,0.0,0.0
2025/04/05 15:58:51.202393157,1743861531,202136076,world_ned,mA1/odom,246.62196879599034,10.492596788671568,0.4337151879475828,-0.0005062759802403205,4.483344853692374e-05,-0.002215014325303576,0.999997417689732,0.0,0.0,0.0,0.0,0.0,0.0,0.0,0.0,0.0,0.0,0.0,0.0,0.0,0.0,0.0,0.0,0.0,0.0,0.0,0.0,0.0,0.0,0.0,0.0,0.0,0.0,0.0,0.0,0.0,0.0,0.0,0.0,0.0,0.0,0.0,0.0,0.4147035523265836,0.0030724809684020095,0.00011749147050129646,-0.0013919249171389602,-0.000815844299043879,0.0031829263986194282,0.0,0.0,0.0,0.0,0.0,0.0,0.0,0.0,0.0,0.0,0.0,0.0,0.0,0.0,0.0,0.0,0.0,0.0,0.0,0.0,0.0,0.0,0.0,0.0,0.0,0.0,0.0,0.0,0.0,0.0,0.0,0.0,0.0,0.0,0.0,0.0
2025/04/05 15:58:51.303871101,1743861531,303592091,world_ned,mA1/odom,246.66325243562142,10.4927019174378,0.43371904258753985,-0.0005593127617551948,5.479544824973742e-05,-0.00205667246363645,0.9999977271299524,0.0,0.0,0.0,0.0,0.0,0.0,0.0,0.0,0.0,0.0,0.0,0.0,0.0,0.0,0.0,0.0,0.0,0.0,0.0,0.0,0.0,0.0,0.0,0.0,0.0,0.0,0.0,0.0,0.0,0.0,0.0,0.0,0.0,0.0,0.0,0.0,0.4109402953095829,0.0025737539637636655,5.7684564618900826e-05,-0.000756550831407651,0.001111587832811319,0.0031540320690085603,0.0,0.0,0.0,0.0,0.0,0.0,0.0,0.0,0.0,0.0,0.0,0.0,0.0,0.0,0.0,0.0,0.0,0.0,0.0,0.0,0.0,0.0,0.0,0.0,0.0,0.0,0.0,0.0,0.0,0.0,0.0,0.0,0.0,0.0,0.0,0.0
2025/04/05 15:58:51.405719402,1743861531,405176286,world_ned,mA1/odom,246.70476379797896,10.492761890261729,0.43371584425813015,-0.0005745731220370911,7.417034596202181e-05,-0.0018999408656668432,0.9999980272926513,0.0,0.0,0.0,0.0,0.0,0.0,0.0,0.0,0.0,0.0,0.0,0.0,0.0,0.0,0.0,0.0,0.0,0.0,0.0,0.0,0.0,0.0,0.0,0.0,0.0,0.0,0.0,0.0,0.0,0.0,0.0,0.0,0.0,0.0,0.0,0.0,0.41727276361718085,0.0019615652627985405,-1.2060826618508048e-05,6.319270257053093e-05,0.00011374058237442328,0.0031191459352622607,0.0,0.0,0.0,0.0,0.0,0.0,0.0,0.0,0.0,0.0,0.0,0.0,0.0,0.0,0.0,0.0,0.0,0.0,0.0,0.0,0.0,0.0,0.0,0.0,0.0,0.0,0.0,0.0,0.0,0.0,0.0,0.0,0.0,0.0,0.0,0.0
2025/04/05 15:58:51.507696774,1743861531,506309015,world_ned,mA1/odom,246.74629360299832,10.49278127407283,0.43370595072116314,-0.0005513913609721092,0.0001262026972874777,-0.0017440095101509284,0.9999983192342249,0.0,0.0,0.0,0.0,0.0,0.0,0.0,0.0,0.0,0.0,0.0,0.0,0.0,0.0,0.0,0.0,0.0,0.0,0.0,0.0,0.0,0.0,0.0,0.0,0.0,0.0,0.0,0.0,0.0,0.0,0.0,0.0,0.0,0.0,0.0,0.0,0.4197635471036372,0.0014971220777673822,-1.3495621635075574e-05,0.0007740647044347737,5.505173820866991e-05,0.003119562981780241,0.0,0.0,0.0,0.0,0.0,0.0,0.0,0.0,0.0,0.0,0.0,0.0,0.0,0.0,0.0,0.0,0.0,0.0,0.0,0.0,0.0,0.0,0.0,0.0,0.0,0.0,0.0,0.0,0.0,0.0,0.0,0.0,0.0,0.0,0.0,0.0
2025/04/05 15:58:51.612059255,1743861531,609741211,world_ned,mA1/odom,246.78799745916044,10.492771599999767,0.433691331253364,-0.0004971984033970525,0.00017935833771777748,-0.0015884314968660684,0.9999985987538753,0.0,0.0,0.0,0.0,0.0,0.0,0.0,0.0,0.0,0.0,0.0,0.0,0.0,0.0,0.0,0.0,0.0,0.0,0.0,0.0,0.0,0.0,0.0,0.0,0.0,0.0,0.0,0.0,0.0,0.0,0.0,0.0,0.0,0.0,0.0,0.0,0.4148872740915625,0.0011317753950825986,1.7539010025482407e-07,0.0012986650788287593,0.001835176033944987,0.0031035265441247107,0.0,0.0,0.0,0.0,0.0,0.0,0.0,0.0,0.0,0.0,0.0,0.0,0.0,0.0,0.0,0.0,0.0,0.0,0.0,0.0,0.0,0.0,0.0,0.0,0.0,0.0,0.0,0.0,0.0,0.0,0.0,0.0,0.0,0.0,0.0,0.0
