time,header_stamp_secs,header_stamp_nsecs,header_frame_id,name_0,name_1,name_2,name_3,position_0,position_1,position_2,position_3
2025/04/05 15:58:39.997044788,0,0,,mA1/azimuth_1_joint,mA1/azimuth_2_joint,mA1/azimuth_3_joint,mA1/azimuth_4_joint,1.5533430342749532,-5.078908123303499,0.0,0.08726646259971647
2025/04/05 15:58:40.96511650,0,0,,mA1/azimuth_1_joint,mA1/azimuth_2_joint,mA1/azimuth_3_joint,mA1/azimuth_4_joint,1.5533430342749532,-5.777039824101231,0.0,0.06981317007977318
2025/04/05 15:58:40.196996373,0,0,,mA1/azimuth_1_joint,mA1/azimuth_2_joint,mA1/azimuth_3_joint,mA1/azimuth_4_joint,1.5533430342749532,-5.1487212933832724,0.0,0.08726646259971647
2025/04/05 15:58:40.296422298,0,0,,mA1/azimuth_1_joint,mA1/azimuth_2_joint,mA1/azimuth_3_joint,mA1/azimuth_4_joint,1.5533430342749532,-5.044001538263612,0.0,0.06981317007977318
2025/04/05 15:58:40.396680577,0,0,,mA1/azimuth_1_joint,mA1/azimuth_2_joint,mA1/azimuth_3_joint,mA1/azimuth_4_joint,1.5533430342749532,-5.235987755982989,0.0,0.06981317007977318
2025/04/05 15:58:40.497822607,0,0,,mA1/azimuth_1_joint,mA1/azimuth_2_joint,mA1/azimuth_3_joint,mA1/azimuth_4_joint,1.5707963267948966,-0.9773843811168246,0.0,0.08726646259971647
2025/04/05 15:58:40.596179669,0,0,,mA1/azimuth_1_joint,mA1/azimuth_2_joint,mA1/azimuth_3_joint,mA1/azimuth_4_joint,1.5707963267948966,-0.9599310885968813,0.0,0.06981317007977318
2025/04/05 15:58:40.695781042,0,0,,mA1/azimuth_1_joint,mA1/azimuth_2_joint,mA1/azimuth_3_joint,mA1/azimuth_4_joint,1.5533430342749532,-5.235987755982989,0.0,0.05235987755982989
2025/04/05 15:58:40.798049023,0,0,,mA1/azimuth_1_joint,mA1/azimuth_2_joint,mA1/azimuth_3_joint,mA1/azimuth_4_joint,1.5707963267948966,-1.2566370614359172,0.0,0.06981317007977318
2025/04/05 15:58:40.902354061,0,0,,mA1/azimuth_1_joint,mA1/azimuth_2_joint,mA1/azimuth_3_joint,mA1/azimuth_4_joint,1.5707963267948966,-1.2566370614359172,0.0,0.06981317007977318
2025/04/05 15:58:41.3607670,0,0,,mA1/azimuth_1_joint,mA1/azimuth_2_joint,mA1/azimuth_3_joint,mA1/azimuth_4_joint,1.5533430342749532,-0.2792526803190927,0.0,0.05235987755982989
2025/04/05 15:58:41.96787544,0,0,,mA1/azimuth_1_joint,mA1/azimuth_2_joint,mA1/azimuth_3_joint,mA1/azimuth_4_joint,1.5533430342749532,-5.951572749300664,0.0,0.05235987755982989
2025/04/05 15:58:41.197343522,0,0,,mA1/azimuth_1_joint,mA1/azimuth_2_joint,mA1/azimuth_3_joint,mA1/azimuth_4_joint,1.5533430342749532,-5.934119456780721,0.0,0.05235987755982989
2025/04/05 15:58:41.601891722,0,0,,mA1/azimuth_1_joint,mA1/azimuth_2_joint,mA1/azimuth_3_joint,mA1/azimuth_4_joint,1.5533430342749532,-5.288347633542818,0.0,0.03490658503988659
2025/04/05 15:58:41.602096729,0,0,,mA1/azimuth_1_joint,mA1/azimuth_2_joint,mA1/azimuth_3_joint,mA1/azimuth_4_joint,1.5533430342749532,-5.305800926062762,0.0,0.03490658503988659
2025/04/05 15:58:41.603222246,0,0,,mA1/azimuth_1_joint,mA1/azimuth_2_joint,mA1/azimuth_3_joint,mA1/azimuth_4_joint,1.5707963267948966,-1.0995574287564276,0.0,0.03490658503988659
2025/04/05 15:58:41.607541049,0,0,,mA1/azimuth_1_joint,mA1/azimuth_2_joint,mA1/azimuth_3_joint,mA1/azimuth_4_joint,1.5707963267948966,-1.064650843716541,0.0,0.03490658503988659
2025/04/05 15:58:41.698756101,0,0,,mA1/azimuth_1_joint,mA1/azimuth_2_joint,mA1/azimuth_3_joint,mA1/azimuth_4_joint,1.5533430342749532,-5.1312680008633285,0.0,0.05235987755982989
2025/04/05 15:58:41.795855496,0,0,,mA1/azimuth_1_joint,mA1/azimuth_2_joint,mA1/azimuth_3_joint,mA1/azimuth_4_joint,1.5533430342749532,-5.8643062867009474,0.0,0.03490658503988659
2025/04/05 15:58:41.896725332,0,0,,mA1/azimuth_1_joint,mA1/azimuth_2_joint,mA1/azimuth_3_joint,mA1/azimuth_4_joint,1.5707963267948966,-1.0821041362364843,0.0,0.03490658503988659
2025/04/05 15:58:41.997230044,0,0,,mA1/azimuth_1_joint,mA1/azimuth_2_joint,mA1/azimuth_3_joint,mA1/azimuth_4_joint,1.5707963267948966,-0.9948376736367679,0.0,0.03490658503988659
2025/04/05 15:58:42.95917257,0,0,,mA1/azimuth_1_joint,mA1/azimuth_2_joint,mA1/azimuth_3_joint,mA1/azimuth_4_joint,1.5707963267948966,-1.064650843716541,0.0,0.03490658503988659
2025/04/05 15:58:42.196304533,0,0,,mA1/azimuth_1_joint,mA1/azimuth_2_joint,mA1/azimuth_3_joint,mA1/azimuth_4_joint,1.5707963267948966,-1.064650843716541,0.0,0.03490658503988659
2025/04/05 15:58:42.297755268,0,0,,mA1/azimuth_1_joint,mA1/azimuth_2_joint,mA1/azimuth_3_joint,mA1/azimuth_4_joint,1.5707963267948966,-1.064650843716541,0.0,0.03490658503988659
2025/04/05 15:58:42.413283319,0,0,,mA1/azimuth_1_joint,mA1/azimuth_2_joint,mA1/azimuth_3_joint,mA1/azimuth_4_joint,1.5707963267948966,-1.0297442586766545,0.0,0.03490658503988659
2025/04/05 15:58:42.496379530,0,0,,mA1/azimuth_1_joint,mA1/azimuth_2_joint,mA1/azimuth_3_joint,mA1/azimuth_4_joint,1.5533430342749532,-5.8643062867009474,0.0,0.03490658503988659
2025/04/05 15:58:42.596528985,0,0,,mA1/azimuth_1_joint,mA1/azimuth_2_joint,mA1/azimuth_3_joint,mA1/azimuth_4_joint,1.5707963267948966,-1.0995574287564276,0.0,0.017453292519943295
2025/04/05 15:58:42.697979213,0,0,,mA1/azimuth_1_joint,mA1/azimuth_2_joint,mA1/azimuth_3_joint,mA1/azimuth_4_joint,1.5707963267948966,-1.117010721276371,0.0,0.017453292519943295
2025/04/05 15:58:42.797003091,0,0,,mA1/azimuth_1_joint,mA1/azimuth_2_joint,mA1/azimuth_3_joint,mA1/azimuth_4_joint,1.5533430342749532,-5.8643062867009474,0.0,0.017453292519943295
2025/04/05 15:58:42.896282120,0,0,,mA1/azimuth_1_joint,mA1/azimuth_2_joint,mA1/azimuth_3_joint,mA1/azimuth_4_joint,1.5533430342749532,-5.8643062867009474,0.0,0.017453292519943295
2025/04/05 15:58:42.996854136,0,0,,mA1/azimuth_1_joint,mA1/azimuth_2_joint,mA1/azimuth_3_joint,mA1/azimuth_4_joint,1.5533430342749532,-5.8643062867009474,0.0,0.03490658503988659
2025/04/05 15:58:43.97431166,0,0,,mA1/azimuth_1_joint,mA1/azimuth_2_joint,mA1/azimuth_3_joint,mA1/azimuth_4_joint,1.5533430342749532,-5.8817595792208905,0.0,0.017453292519943295
2025/04/05 15:58:43.200334421,0,0,,mA1/azimuth_1_joint,mA1/azimuth_2_joint,mA1/azimuth_3_joint,mA1/azimuth_4_joint,1.5533430342749532,-5.8643062867009474,0.0,0.03490658503988659
2025/04/05 15:58:43.296086840,0,0,,mA1/azimuth_1_joint,mA1/azimuth_2_joint,mA1/azimuth_3_joint,mA1/azimuth_4_joint,1.5533430342749532,-5.8817595792208905,0.0,0.03490658503988659
2025/04/05 15:58:43.395762900,0,0,,mA1/azimuth_1_joint,mA1/azimuth_2_joint,mA1/azimuth_3_joint,mA1/azimuth_4_joint,1.5533430342749532,-5.619960191421741,0.0,0.017453292519943295
2025/04/05 15:58:43.495685962,0,0,,mA1/azimuth_1_joint,mA1/azimuth_2_joint,mA1/azimuth_3_joint,mA1/azimuth_4_joint,1.5533430342749532,-5.899212871740834,0.0,0.017453292519943295
2025/04/05 15:58:43.596157270,0,0,,mA1/azimuth_1_joint,mA1/azimuth_2_joint,mA1/azimuth_3_joint,mA1/azimuth_4_joint,1.5533430342749532,-5.6374134839416845,0.0,0.017453292519943295
2025/04/05 15:58:43.700316429,0,0,,mA1/azimuth_1_joint,mA1/azimuth_2_joint,mA1/azimuth_3_joint,mA1/azimuth_4_joint,1.5533430342749532,-5.916666164260777,0.0,0.0
2025/04/05 15:58:43.797660685,0,0,,mA1/azimuth_1_joint,mA1/azimuth_2_joint,mA1/azimuth_3_joint,mA1/azimuth_4_joint,1.5533430342749532,-5.480333851262195,0.0,0.03490658503988659
2025/04/05 15:58:43.896154829,0,0,,mA1/azimuth_1_joint,mA1/azimuth_2_joint,mA1/azimuth_3_joint,mA1/azimuth_4_joint,1.5533430342749532,-5.619960191421741,0.0,0.017453292519943295
2025/04/05 15:58:43.995772656,0,0,,mA1/azimuth_1_joint,mA1/azimuth_2_joint,mA1/azimuth_3_joint,mA1/azimuth_4_joint,1.5533430342749532,-5.6374134839416845,0.0,0.017453292519943295
2025/04/05 15:58:44.95878111,0,0,,mA1/azimuth_1_joint,mA1/azimuth_2_joint,mA1/azimuth_3_joint,mA1/azimuth_4_joint,1.5533430342749532,-5.672320068981571,0.0,0.017453292519943295
2025/04/05 15:58:44.197582160,0,0,,mA1/azimuth_1_joint,mA1/azimuth_2_joint,mA1/azimuth_3_joint,mA1/azimuth_4_joint,1.5533430342749532,-5.654866776461628,0.0,0.017453292519943295
2025/04/05 15:58:44.295950652,0,0,,mA1/azimuth_1_joint,mA1/azimuth_2_joint,mA1/azimuth_3_joint,mA1/azimuth_4_joint,1.5533430342749532,-5.672320068981571,0.0,0.0
2025/04/05 15:58:44.395740844,0,0,,mA1/azimuth_1_joint,mA1/azimuth_2_joint,mA1/azimuth_3_joint,mA1/azimuth_4_joint,1.5533430342749532,-5.759586531581287,0.0,0.017453292519943295
2025/04/05 15:58:44.495800341,0,0,,mA1/azimuth_1_joint,mA1/azimuth_2_joint,mA1/azimuth_3_joint,mA1/azimuth_4_joint,1.5533430342749532,-5.672320068981571,0.0,0.017453292519943295
2025/04/05 15:58:44.596205495,0,0,,mA1/azimuth_1_joint,mA1/azimuth_2_joint,mA1/azimuth_3_joint,mA1/azimuth_4_joint,1.5533430342749532,-5.724679946541401,0.0,0.017453292519943295
2025/04/05 15:58:44.696558071,0,0,,mA1/azimuth_1_joint,mA1/azimuth_2_joint,mA1/azimuth_3_joint,mA1/azimuth_4_joint,1.5533430342749532,-5.672320068981571,0.0,0.017453292519943295
2025/04/05 15:58:44.796137979,0,0,,mA1/azimuth_1_joint,mA1/azimuth_2_joint,mA1/azimuth_3_joint,mA1/azimuth_4_joint,1.5533430342749532,-5.689773361501515,0.0,0.017453292519943295
2025/04/05 15:58:44.901679088,0,0,,mA1/azimuth_1_joint,mA1/azimuth_2_joint,mA1/azimuth_3_joint,mA1/azimuth_4_joint,1.5533430342749532,-5.585053606381854,0.0,0.017453292519943295
2025/04/05 15:58:44.996193844,0,0,,mA1/azimuth_1_joint,mA1/azimuth_2_joint,mA1/azimuth_3_joint,mA1/azimuth_4_joint,1.5533430342749532,-5.689773361501515,0.0,0.0
2025/04/05 15:58:45.95910877,0,0,,mA1/azimuth_1_joint,mA1/azimuth_2_joint,mA1/azimuth_3_joint,mA1/azimuth_4_joint,1.5533430342749532,-5.567600313861911,0.0,0.0
2025/04/05 15:58:45.196399767,0,0,,mA1/azimuth_1_joint,mA1/azimuth_2_joint,mA1/azimuth_3_joint,mA1/azimuth_4_joint,1.5533430342749532,-5.585053606381854,0.0,0.0
2025/04/05 15:58:45.296630367,0,0,,mA1/azimuth_1_joint,mA1/azimuth_2_joint,mA1/azimuth_3_joint,mA1/azimuth_4_joint,1.5533430342749532,-5.6374134839416845,0.0,0.0
2025/04/05 15:58:45.396511782,0,0,,mA1/azimuth_1_joint,mA1/azimuth_2_joint,mA1/azimuth_3_joint,mA1/azimuth_4_joint,1.5533430342749532,-6.073745796940266,0.0,0.0
2025/04/05 15:58:45.496741718,0,0,,mA1/azimuth_1_joint,mA1/azimuth_2_joint,mA1/azimuth_3_joint,mA1/azimuth_4_joint,1.5533430342749532,-5.759586531581287,0.0,0.0
2025/04/05 15:58:45.597550489,0,0,,mA1/azimuth_1_joint,mA1/azimuth_2_joint,mA1/azimuth_3_joint,mA1/azimuth_4_joint,1.5533430342749532,-5.567600313861911,0.0,0.017453292519943295
2025/04/05 15:58:45.696400806,0,0,,mA1/azimuth_1_joint,mA1/azimuth_2_joint,mA1/azimuth_3_joint,mA1/azimuth_4_joint,1.5707963267948966,-4.834562028024293,0.0,0.0
2025/04/05 15:58:45.801865033,0,0,,mA1/azimuth_1_joint,mA1/azimuth_2_joint,mA1/azimuth_3_joint,mA1/azimuth_4_joint,1.5533430342749532,-5.480333851262195,0.0,0.017453292519943295
2025/04/05 15:58:45.896530495,0,0,,mA1/azimuth_1_joint,mA1/azimuth_2_joint,mA1/azimuth_3_joint,mA1/azimuth_4_joint,1.5707963267948966,-4.642575810304916,0.0,0.017453292519943295
2025/04/05 15:58:45.995794436,0,0,,mA1/azimuth_1_joint,mA1/azimuth_2_joint,mA1/azimuth_3_joint,mA1/azimuth_4_joint,1.5707963267948966,-4.904375198104066,0.0,0.017453292519943295
2025/04/05 15:58:46.98562026,0,0,,mA1/azimuth_1_joint,mA1/azimuth_2_joint,mA1/azimuth_3_joint,mA1/azimuth_4_joint,1.5533430342749532,-5.427973973702365,0.0,0.0
2025/04/05 15:58:46.197573399,0,0,,mA1/azimuth_1_joint,mA1/azimuth_2_joint,mA1/azimuth_3_joint,mA1/azimuth_4_joint,1.5707963267948966,-6.213372137099813,0.0,0.0
2025/04/05 15:58:46.295888478,0,0,,mA1/azimuth_1_joint,mA1/azimuth_2_joint,mA1/azimuth_3_joint,mA1/azimuth_4_joint,1.5533430342749532,-5.1661745859032155,0.0,0.0
2025/04/05 15:58:46.396372068,0,0,,mA1/azimuth_1_joint,mA1/azimuth_2_joint,mA1/azimuth_3_joint,mA1/azimuth_4_joint,1.5707963267948966,-4.118977034706618,0.0,0.017453292519943295
2025/04/05 15:58:46.496272785,0,0,,mA1/azimuth_1_joint,mA1/azimuth_2_joint,mA1/azimuth_3_joint,mA1/azimuth_4_joint,1.5707963267948966,-4.4505895925855405,0.0,0.0
2025/04/05 15:58:46.596194519,0,0,,mA1/azimuth_1_joint,mA1/azimuth_2_joint,mA1/azimuth_3_joint,mA1/azimuth_4_joint,1.5533430342749532,-4.782202150464463,0.0,0.0
2025/04/05 15:58:46.696779850,0,0,,mA1/azimuth_1_joint,mA1/azimuth_2_joint,mA1/azimuth_3_joint,mA1/azimuth_4_joint,1.5533430342749532,-5.235987755982989,0.0,0.0
2025/04/05 15:58:46.796604405,0,0,,mA1/azimuth_1_joint,mA1/azimuth_2_joint,mA1/azimuth_3_joint,mA1/azimuth_4_joint,1.5707963267948966,-4.520402762665314,0.0,0.0
2025/04/05 15:58:46.898831857,0,0,,mA1/azimuth_1_joint,mA1/azimuth_2_joint,mA1/azimuth_3_joint,mA1/azimuth_4_joint,1.5707963267948966,-0.7330382858376184,0.0,0.0
2025/04/05 15:58:46.995758247,0,0,,mA1/azimuth_1_joint,mA1/azimuth_2_joint,mA1/azimuth_3_joint,mA1/azimuth_4_joint,1.5707963267948966,-4.153883619746504,0.0,0.0
2025/04/05 15:58:47.96439887,0,0,,mA1/azimuth_1_joint,mA1/azimuth_2_joint,mA1/azimuth_3_joint,mA1/azimuth_4_joint,1.5533430342749532,-5.619960191421741,0.0,0.0
2025/04/05 15:58:47.196498372,0,0,,mA1/azimuth_1_joint,mA1/azimuth_2_joint,mA1/azimuth_3_joint,mA1/azimuth_4_joint,1.5533430342749532,-5.532693728822025,0.0,0.0
2025/04/05 15:58:47.296953371,0,0,,mA1/azimuth_1_joint,mA1/azimuth_2_joint,mA1/azimuth_3_joint,mA1/azimuth_4_joint,1.5533430342749532,-5.654866776461628,0.0,0.0
2025/04/05 15:58:47.396052060,0,0,,mA1/azimuth_1_joint,mA1/azimuth_2_joint,mA1/azimuth_3_joint,mA1/azimuth_4_joint,1.5533430342749532,-5.480333851262195,0.0,0.0
2025/04/05 15:58:47.498232197,0,0,,mA1/azimuth_1_joint,mA1/azimuth_2_joint,mA1/azimuth_3_joint,mA1/azimuth_4_joint,1.5707963267948966,-4.590215932745087,0.0,0.0
2025/04/05 15:58:47.596466750,0,0,,mA1/azimuth_1_joint,mA1/azimuth_2_joint,mA1/azimuth_3_joint,mA1/azimuth_4_joint,1.5533430342749532,-5.550147021341968,0.0,0.0
2025/04/05 15:58:47.696750976,0,0,,mA1/azimuth_1_joint,mA1/azimuth_2_joint,mA1/azimuth_3_joint,mA1/azimuth_4_joint,1.5533430342749532,-5.8643062867009474,0.0,0.0
2025/04/05 15:58:47.796544834,0,0,,mA1/azimuth_1_joint,mA1/azimuth_2_joint,mA1/azimuth_3_joint,mA1/azimuth_4_joint,1.5533430342749532,-5.777039824101231,0.0,0.0
2025/04/05 15:58:47.897699432,0,0,,mA1/azimuth_1_joint,mA1/azimuth_2_joint,mA1/azimuth_3_joint,mA1/azimuth_4_joint,1.5533430342749532,-5.8643062867009474,0.0,0.017453292519943295
2025/04/05 15:58:47.997024683,0,0,,mA1/azimuth_1_joint,mA1/azimuth_2_joint,mA1/azimuth_3_joint,mA1/azimuth_4_joint,1.5533430342749532,-5.497787143782138,0.0,0.017453292519943295
2025/04/05 15:58:48.96859094,0,0,,mA1/azimuth_1_joint,mA1/azimuth_2_joint,mA1/azimuth_3_joint,mA1/azimuth_4_joint,1.5533430342749532,-6.056292504420323,0.0,0.0
2025/04/05 15:58:48.195975603,0,0,,mA1/azimuth_1_joint,mA1/azimuth_2_joint,mA1/azimuth_3_joint,mA1/azimuth_4_joint,1.5707963267948966,-0.8901179185171081,0.0,0.0
2025/04/05 15:58:48.295864582,0,0,,mA1/azimuth_1_joint,mA1/azimuth_2_joint,mA1/azimuth_3_joint,mA1/azimuth_4_joint,1.5533430342749532,-0.17453292519943295,0.0,0.0
2025/04/05 15:58:48.396086564,0,0,,mA1/azimuth_1_joint,mA1/azimuth_2_joint,mA1/azimuth_3_joint,mA1/azimuth_4_joint,1.5533430342749532,-5.532693728822025,0.0,0.0
2025/04/05 15:58:48.496521305,0,0,,mA1/azimuth_1_joint,mA1/azimuth_2_joint,mA1/azimuth_3_joint,mA1/azimuth_4_joint,1.5533430342749532,-0.24434609527920614,0.0,0.0
2025/04/05 15:58:48.595757675,0,0,,mA1/azimuth_1_joint,mA1/azimuth_2_joint,mA1/azimuth_3_joint,mA1/azimuth_4_joint,1.5707963267948966,-0.9075712110370514,0.0,0.0
2025/04/05 15:58:48.696378284,0,0,,mA1/azimuth_1_joint,mA1/azimuth_2_joint,mA1/azimuth_3_joint,mA1/azimuth_4_joint,1.5707963267948966,-4.590215932745087,0.0,0.0
2025/04/05 15:58:48.795804956,0,0,,mA1/azimuth_1_joint,mA1/azimuth_2_joint,mA1/azimuth_3_joint,mA1/azimuth_4_joint,1.5533430342749532,-5.480333851262195,0.0,0.0
2025/04/05 15:58:48.896347093,0,0,,mA1/azimuth_1_joint,mA1/azimuth_2_joint,mA1/azimuth_3_joint,mA1/azimuth_4_joint,1.5533430342749532,-5.654866776461628,0.0,0.0
2025/04/05 15:58:48.996311682,0,0,,mA1/azimuth_1_joint,mA1/azimuth_2_joint,mA1/azimuth_3_joint,mA1/azimuth_4_joint,1.5533430342749532,-5.672320068981571,0.0,0.0
2025/04/05 15:58:49.97927544,0,0,,mA1/azimuth_1_joint,mA1/azimuth_2_joint,mA1/azimuth_3_joint,mA1/azimuth_4_joint,1.5533430342749532,-5.445427266222308,0.0,0.0
2025/04/05 15:58:49.195862562,0,0,,mA1/azimuth_1_joint,mA1/azimuth_2_joint,mA1/azimuth_3_joint,mA1/azimuth_4_joint,1.5533430342749532,-5.619960191421741,0.0,0.017453292519943295
2025/04/05 15:58:49.296164123,0,0,,mA1/azimuth_1_joint,mA1/azimuth_2_joint,mA1/azimuth_3_joint,mA1/azimuth_4_joint,1.5533430342749532,-5.305800926062762,0.0,0.017453292519943295
2025/04/05 15:58:49.396180885,0,0,,mA1/azimuth_1_joint,mA1/azimuth_2_joint,mA1/azimuth_3_joint,mA1/azimuth_4_joint,1.5533430342749532,-5.602506898901797,0.0,0.017453292519943295
2025/04/05 15:58:49.496563903,0,0,,mA1/azimuth_1_joint,mA1/azimuth_2_joint,mA1/azimuth_3_joint,mA1/azimuth_4_joint,1.5533430342749532,-5.567600313861911,0.0,0.0
2025/04/05 15:58:49.596879228,0,0,,mA1/azimuth_1_joint,mA1/azimuth_2_joint,mA1/azimuth_3_joint,mA1/azimuth_4_joint,1.5533430342749532,-5.602506898901797,0.0,0.0
2025/04/05 15:58:49.698381795,0,0,,mA1/azimuth_1_joint,mA1/azimuth_2_joint,mA1/azimuth_3_joint,mA1/azimuth_4_joint,1.5533430342749532,-5.585053606381854,0.0,0.0
2025/04/05 15:58:49.796277793,0,0,,mA1/azimuth_1_joint,mA1/azimuth_2_joint,mA1/azimuth_3_joint,mA1/azimuth_4_joint,1.5533430342749532,-5.6374134839416845,0.0,0.0
2025/04/05 15:58:49.895944853,0,0,,mA1/azimuth_1_joint,mA1/azimuth_2_joint,mA1/azimuth_3_joint,mA1/azimuth_4_joint,1.5533430342749532,-5.567600313861911,0.0,0.0
2025/04/05 15:58:49.995991754,0,0,,mA1/azimuth_1_joint,mA1/azimuth_2_joint,mA1/azimuth_3_joint,mA1/azimuth_4_joint,1.5533430342749532,-5.550147021341968,0.0,0.0
2025/04/05 15:58:50.96423676,0,0,,mA1/azimuth_1_joint,mA1/azimuth_2_joint,mA1/azimuth_3_joint,mA1/azimuth_4_joint,1.5533430342749532,-5.550147021341968,0.0,0.0
2025/04/05 15:58:50.198550909,0,0,,mA1/azimuth_1_joint,mA1/azimuth_2_joint,mA1/azimuth_3_joint,mA1/azimuth_4_joint,1.5533430342749532,-5.567600313861911,0.0,0.0
2025/04/05 15:58:50.298535631,0,0,,mA1/azimuth_1_joint,mA1/azimuth_2_joint,mA1/azimuth_3_joint,mA1/azimuth_4_joint,1.5533430342749532,-5.497787143782138,0.0,0.0
2025/04/05 15:58:50.396306293,0,0,,mA1/azimuth_1_joint,mA1/azimuth_2_joint,mA1/azimuth_3_joint,mA1/azimuth_4_joint,1.5533430342749532,-5.550147021341968,0.0,0.0
2025/04/05 15:58:50.496181294,0,0,,mA1/azimuth_1_joint,mA1/azimuth_2_joint,mA1/azimuth_3_joint,mA1/azimuth_4_joint,1.5533430342749532,-5.515240436302081,0.0,0.0
2025/04/05 15:58:50.597229271,0,0,,mA1/azimuth_1_joint,mA1/azimuth_2_joint,mA1/azimuth_3_joint,mA1/azimuth_4_joint,1.5533430342749532,-5.532693728822025,0.0,0.0
2025/04/05 15:58:50.696677986,0,0,,mA1/azimuth_1_joint,mA1/azimuth_2_joint,mA1/azimuth_3_joint,mA1/azimuth_4_joint,5.515240436302081,-1.5533430342749532,0.0,0.0
2025/04/05 15:58:50.796113346,0,0,,mA1/azimuth_1_joint,mA1/azimuth_2_joint,mA1/azimuth_3_joint,mA1/azimuth_4_joint,1.5533430342749532,-5.672320068981571,0.0,0.0
2025/04/05 15:58:50.900162739,0,0,,mA1/azimuth_1_joint,mA1/azimuth_2_joint,mA1/azimuth_3_joint,mA1/azimuth_4_joint,5.585053606381854,-1.5533430342749532,0.0,0.0
2025/04/05 15:58:50.996676287,0,0,,mA1/azimuth_1_joint,mA1/azimuth_2_joint,mA1/azimuth_3_joint,mA1/azimuth_4_joint,1.5533430342749532,-4.537856055185257,0.0,0.0
2025/04/05 15:58:51.96127933,0,0,,mA1/azimuth_1_joint,mA1/azimuth_2_joint,mA1/azimuth_3_joint,mA1/azimuth_4_joint,1.5533430342749532,-5.619960191421741,0.0,0.0
2025/04/05 15:58:51.201478476,0,0,,mA1/azimuth_1_joint,mA1/azimuth_2_joint,mA1/azimuth_3_joint,mA1/azimuth_4_joint,1.5533430342749532,-5.480333851262195,0.0,0.0
2025/04/05 15:58:51.295899404,0,0,,mA1/azimuth_1_joint,mA1/azimuth_2_joint,mA1/azimuth_3_joint,mA1/azimuth_4_joint,1.5533430342749532,-5.550147021341968,0.0,0.0
2025/04/05 15:58:51.396129763,0,0,,mA1/azimuth_1_joint,mA1/azimuth_2_joint,mA1/azimuth_3_joint,mA1/azimuth_4_joint,1.5533430342749532,-5.445427266222308,0.0,0.0
2025/04/05 15:58:51.495852430,0,0,,mA1/azimuth_1_joint,mA1/azimuth_2_joint,mA1/azimuth_3_joint,mA1/azimuth_4_joint,1.5533430342749532,-5.410520681182422,0.0,0.0
2025/04/05 15:58:51.595893034,0,0,,mA1/azimuth_1_joint,mA1/azimuth_2_joint,mA1/azimuth_3_joint,mA1/azimuth_4_joint,1.5533430342749532,-5.480333851262195,0.0,0.0
2025/04/05 15:58:51.702547302,0,0,,mA1/azimuth_1_joint,mA1/azimuth_2_joint,mA1/azimuth_3_joint,mA1/azimuth_4_joint,1.5533430342749532,-5.462880558742252,0.0,0.0
2025/04/05 15:58:51.795650001,0,0,,mA1/azimuth_1_joint,mA1/azimuth_2_joint,mA1/azimuth_3_joint,mA1/azimuth_4_joint,1.5533430342749532,-5.3930673886624785,0.0,0.0
2025/04/05 15:58:51.896046287,0,0,,mA1/azimuth_1_joint,mA1/azimuth_2_joint,mA1/azimuth_3_joint,mA1/azimuth_4_joint,5.410520681182422,-1.5533430342749532,0.0,0.0
2025/04/05 15:58:51.996366999,0,0,,mA1/azimuth_1_joint,mA1/azimuth_2_joint,mA1/azimuth_3_joint,mA1/azimuth_4_joint,1.5533430342749532,-5.497787143782138,0.0,0.0
2025/04/05 15:58:52.96294313,0,0,,mA1/azimuth_1_joint,mA1/azimuth_2_joint,mA1/azimuth_3_joint,mA1/azimuth_4_joint,1.5533430342749532,-5.445427266222308,0.0,0.0
2025/04/05 15:58:52.195965910,0,0,,mA1/azimuth_1_joint,mA1/azimuth_2_joint,mA1/azimuth_3_joint,mA1/azimuth_4_joint,1.5533430342749532,-4.904375198104066,0.0,0.0
2025/04/05 15:58:52.296110837,0,0,,mA1/azimuth_1_joint,mA1/azimuth_2_joint,mA1/azimuth_3_joint,mA1/azimuth_4_joint,1.5533430342749532,-5.427973973702365,0.0,0.0
2025/04/05 15:58:52.397001280,0,0,,mA1/azimuth_1_joint,mA1/azimuth_2_joint,mA1/azimuth_3_joint,mA1/azimuth_4_joint,1.5533430342749532,-5.6374134839416845,0.0,0.0
2025/04/05 15:58:52.496260022,0,0,,mA1/azimuth_1_joint,mA1/azimuth_2_joint,mA1/azimuth_3_joint,mA1/azimuth_4_joint,1.5533430342749532,-4.956735075663896,0.0,0.0
2025/04/05 15:58:52.595795111,0,0,,mA1/azimuth_1_joint,mA1/azimuth_2_joint,mA1/azimuth_3_joint,mA1/azimuth_4_joint,5.270894341022875,-1.5533430342749532,0.0,0.0
2025/04/05 15:58:52.695903604,0,0,,mA1/azimuth_1_joint,mA1/azimuth_2_joint,mA1/azimuth_3_joint,mA1/azimuth_4_joint,1.5533430342749532,-5.323254218582705,0.0,0.0
2025/04/05 15:58:52.795718407,0,0,,mA1/azimuth_1_joint,mA1/azimuth_2_joint,mA1/azimuth_3_joint,mA1/azimuth_4_joint,1.5533430342749532,-5.201081170943102,0.0,0.0
2025/04/05 15:58:52.897321534,0,0,,mA1/azimuth_1_joint,mA1/azimuth_2_joint,mA1/azimuth_3_joint,mA1/azimuth_4_joint,5.305800926062762,-1.5533430342749532,0.0,0.0
2025/04/05 15:58:52.996108835,0,0,,mA1/azimuth_1_joint,mA1/azimuth_2_joint,mA1/azimuth_3_joint,mA1/azimuth_4_joint,5.497787143782138,-1.5533430342749532,0.0,0.0
2025/04/05 15:58:53.95681156,0,0,,mA1/azimuth_1_joint,mA1/azimuth_2_joint,mA1/azimuth_3_joint,mA1/azimuth_4_joint,4.71238898038469,-1.5533430342749532,0.0,0.0
2025/04/05 15:58:53.197810052,0,0,,mA1/azimuth_1_joint,mA1/azimuth_2_joint,mA1/azimuth_3_joint,mA1/azimuth_4_joint,4.76474885794452,-1.5533430342749532,0.0,0.0
2025/04/05 15:58:53.296951454,0,0,,mA1/azimuth_1_joint,mA1/azimuth_2_joint,mA1/azimuth_3_joint,mA1/azimuth_4_joint,4.5553093477052,-1.5707963267948966,0.0,0.0
2025/04/05 15:58:53.395787983,0,0,,mA1/azimuth_1_joint,mA1/azimuth_2_joint,mA1/azimuth_3_joint,mA1/azimuth_4_joint,5.497787143782138,-1.5533430342749532,0.0,0.0
2025/04/05 15:58:53.496265525,0,0,,mA1/azimuth_1_joint,mA1/azimuth_2_joint,mA1/azimuth_3_joint,mA1/azimuth_4_joint,4.4156830075456535,-1.5707963267948966,0.0,0.0
2025/04/05 15:58:53.596179122,0,0,,mA1/azimuth_1_joint,mA1/azimuth_2_joint,mA1/azimuth_3_joint,mA1/azimuth_4_joint,5.096361415823442,-1.5533430342749532,0.0,0.0
2025/04/05 15:58:53.696311273,0,0,,mA1/azimuth_1_joint,mA1/azimuth_2_joint,mA1/azimuth_3_joint,mA1/azimuth_4_joint,5.253441048502932,-1.5533430342749532,0.0,0.0
2025/04/05 15:58:53.796456968,0,0,,mA1/azimuth_1_joint,mA1/azimuth_2_joint,mA1/azimuth_3_joint,mA1/azimuth_4_joint,1.5533430342749532,-4.729842272904633,0.0,0.0
2025/04/05 15:58:53.896333515,0,0,,mA1/azimuth_1_joint,mA1/azimuth_2_joint,mA1/azimuth_3_joint,mA1/azimuth_4_joint,1.5707963267948966,-4.642575810304916,0.0,0.0
2025/04/05 15:58:53.996088283,0,0,,mA1/azimuth_1_joint,mA1/azimuth_2_joint,mA1/azimuth_3_joint,mA1/azimuth_4_joint,4.71238898038469,-1.5533430342749532,0.0,0.0
2025/04/05 15:58:54.95832947,0,0,,mA1/azimuth_1_joint,mA1/azimuth_2_joint,mA1/azimuth_3_joint,mA1/azimuth_4_joint,5.235987755982989,-1.5533430342749532,0.0,0.0
2025/04/05 15:58:54.195725720,0,0,,mA1/azimuth_1_joint,mA1/azimuth_2_joint,mA1/azimuth_3_joint,mA1/azimuth_4_joint,4.60766922526503,-1.5707963267948966,0.0,0.0
2025/04/05 15:58:54.296299785,0,0,,mA1/azimuth_1_joint,mA1/azimuth_2_joint,mA1/azimuth_3_joint,mA1/azimuth_4_joint,5.253441048502932,-1.5533430342749532,0.0,0.0
2025/04/05 15:58:54.397154553,0,0,,mA1/azimuth_1_joint,mA1/azimuth_2_joint,mA1/azimuth_3_joint,mA1/azimuth_4_joint,1.5533430342749532,-5.235987755982989,0.0,0.0
2025/04/05 15:58:54.497443016,0,0,,mA1/azimuth_1_joint,mA1/azimuth_2_joint,mA1/azimuth_3_joint,mA1/azimuth_4_joint,1.5533430342749532,-4.974188368183839,0.0,0.0
2025/04/05 15:58:54.596464692,0,0,,mA1/azimuth_1_joint,mA1/azimuth_2_joint,mA1/azimuth_3_joint,mA1/azimuth_4_joint,1.5533430342749532,-5.253441048502932,0.0,0.0
2025/04/05 15:58:54.696364628,0,0,,mA1/azimuth_1_joint,mA1/azimuth_2_joint,mA1/azimuth_3_joint,mA1/azimuth_4_joint,1.5533430342749532,-5.1487212933832724,0.0,0.0
2025/04/05 15:58:54.796578044,0,0,,mA1/azimuth_1_joint,mA1/azimuth_2_joint,mA1/azimuth_3_joint,mA1/azimuth_4_joint,1.5533430342749532,-5.1312680008633285,0.0,0.0
2025/04/05 15:58:54.895607064,0,0,,mA1/azimuth_1_joint,mA1/azimuth_2_joint,mA1/azimuth_3_joint,mA1/azimuth_4_joint,1.5533430342749532,-5.323254218582705,0.0,0.0
2025/04/05 15:58:54.996445473,0,0,,mA1/azimuth_1_joint,mA1/azimuth_2_joint,mA1/azimuth_3_joint,mA1/azimuth_4_joint,4.974188368183839,-1.5533430342749532,0.0,0.0
2025/04/05 15:58:55.96885822,0,0,,mA1/azimuth_1_joint,mA1/azimuth_2_joint,mA1/azimuth_3_joint,mA1/azimuth_4_joint,5.270894341022875,-1.5533430342749532,0.0,0.0
2025/04/05 15:58:55.195732657,0,0,,mA1/azimuth_1_joint,mA1/azimuth_2_joint,mA1/azimuth_3_joint,mA1/azimuth_4_joint,5.1661745859032155,-1.5533430342749532,0.0,0.0
2025/04/05 15:58:55.297093957,0,0,,mA1/azimuth_1_joint,mA1/azimuth_2_joint,mA1/azimuth_3_joint,mA1/azimuth_4_joint,1.5707963267948966,-4.363323129985824,0.0,0.0
2025/04/05 15:58:55.396395031,0,0,,mA1/azimuth_1_joint,mA1/azimuth_2_joint,mA1/azimuth_3_joint,mA1/azimuth_4_joint,1.5707963267948966,-4.642575810304916,0.0,0.0
2025/04/05 15:58:55.496143373,0,0,,mA1/azimuth_1_joint,mA1/azimuth_2_joint,mA1/azimuth_3_joint,mA1/azimuth_4_joint,1.5707963267948966,-4.520402762665314,0.0,0.017453292519943295
2025/04/05 15:58:55.596137504,0,0,,mA1/azimuth_1_joint,mA1/azimuth_2_joint,mA1/azimuth_3_joint,mA1/azimuth_4_joint,1.5533430342749532,-5.1661745859032155,0.0,0.0
2025/04/05 15:58:55.696198178,0,0,,mA1/azimuth_1_joint,mA1/azimuth_2_joint,mA1/azimuth_3_joint,mA1/azimuth_4_joint,1.5533430342749532,-4.869468613064179,0.0,0.017453292519943295
2025/04/05 15:58:55.799215459,0,0,,mA1/azimuth_1_joint,mA1/azimuth_2_joint,mA1/azimuth_3_joint,mA1/azimuth_4_joint,1.5533430342749532,-5.096361415823442,0.0,0.017453292519943295
2025/04/05 15:58:55.896828208,0,0,,mA1/azimuth_1_joint,mA1/azimuth_2_joint,mA1/azimuth_3_joint,mA1/azimuth_4_joint,1.5533430342749532,-4.886921905584122,0.0,0.017453292519943295
2025/04/05 15:58:55.995615680,0,0,,mA1/azimuth_1_joint,mA1/azimuth_2_joint,mA1/azimuth_3_joint,mA1/azimuth_4_joint,1.5533430342749532,-4.939281783143953,0.0,0.0
2025/04/05 15:58:56.96466469,0,0,,mA1/azimuth_1_joint,mA1/azimuth_2_joint,mA1/azimuth_3_joint,mA1/azimuth_4_joint,4.694935687864747,-1.5707963267948966,0.0,0.0
2025/04/05 15:58:56.196046682,0,0,,mA1/azimuth_1_joint,mA1/azimuth_2_joint,mA1/azimuth_3_joint,mA1/azimuth_4_joint,1.5533430342749532,-4.904375198104066,0.0,0.0
2025/04/05 15:58:56.296974092,0,0,,mA1/azimuth_1_joint,mA1/azimuth_2_joint,mA1/azimuth_3_joint,mA1/azimuth_4_joint,4.380776422505767,-1.5707963267948966,0.0,0.0
2025/04/05 15:58:56.397168766,0,0,,mA1/azimuth_1_joint,mA1/azimuth_2_joint,mA1/azimuth_3_joint,mA1/azimuth_4_joint,1.5533430342749532,-4.9218284906240095,0.0,0.0
2025/04/05 15:58:56.495861463,0,0,,mA1/azimuth_1_joint,mA1/azimuth_2_joint,mA1/azimuth_3_joint,mA1/azimuth_4_joint,4.6600291028248595,-1.5707963267948966,0.0,0.0
2025/04/05 15:58:56.595770164,0,0,,mA1/azimuth_1_joint,mA1/azimuth_2_joint,mA1/azimuth_3_joint,mA1/azimuth_4_joint,1.5533430342749532,-5.113814708343385,0.0,0.0
2025/04/05 15:58:56.696622957,0,0,,mA1/azimuth_1_joint,mA1/azimuth_2_joint,mA1/azimuth_3_joint,mA1/azimuth_4_joint,4.904375198104066,-1.5533430342749532,0.0,0.0
2025/04/05 15:58:56.797497683,0,0,,mA1/azimuth_1_joint,mA1/azimuth_2_joint,mA1/azimuth_3_joint,mA1/azimuth_4_joint,4.276056667386108,-1.5707963267948966,0.0,0.0
2025/04/05 15:58:56.898433541,0,0,,mA1/azimuth_1_joint,mA1/azimuth_2_joint,mA1/azimuth_3_joint,mA1/azimuth_4_joint,4.991641660703783,-1.5533430342749532,0.0,0.0
2025/04/05 15:58:56.996197911,0,0,,mA1/azimuth_1_joint,mA1/azimuth_2_joint,mA1/azimuth_3_joint,mA1/azimuth_4_joint,1.5533430342749532,-5.1661745859032155,0.0,0.0
2025/04/05 15:58:57.95825182,0,0,,mA1/azimuth_1_joint,mA1/azimuth_2_joint,mA1/azimuth_3_joint,mA1/azimuth_4_joint,1.5707963267948966,-4.50294947014537,0.0,0.0
2025/04/05 15:58:57.196411023,0,0,,mA1/azimuth_1_joint,mA1/azimuth_2_joint,mA1/azimuth_3_joint,mA1/azimuth_4_joint,1.5533430342749532,-5.1661745859032155,0.0,0.0
2025/04/05 15:58:57.296125394,0,0,,mA1/azimuth_1_joint,mA1/azimuth_2_joint,mA1/azimuth_3_joint,mA1/azimuth_4_joint,1.5707963267948966,-4.4505895925855405,0.0,0.0
2025/04/05 15:58:57.400227473,0,0,,mA1/azimuth_1_joint,mA1/azimuth_2_joint,mA1/azimuth_3_joint,mA1/azimuth_4_joint,1.5707963267948966,-4.6600291028248595,0.0,0.0
2025/04/05 15:58:57.495903364,0,0,,mA1/azimuth_1_joint,mA1/azimuth_2_joint,mA1/azimuth_3_joint,mA1/azimuth_4_joint,1.5533430342749532,-4.71238898038469,0.0,0.0
2025/04/05 15:58:57.598201983,0,0,,mA1/azimuth_1_joint,mA1/azimuth_2_joint,mA1/azimuth_3_joint,mA1/azimuth_4_joint,1.5533430342749532,-4.747295565424577,0.0,0.0
2025/04/05 15:58:57.696025547,0,0,,mA1/azimuth_1_joint,mA1/azimuth_2_joint,mA1/azimuth_3_joint,mA1/azimuth_4_joint,4.956735075663896,-1.5533430342749532,0.0,0.0
2025/04/05 15:58:57.798470385,0,0,,mA1/azimuth_1_joint,mA1/azimuth_2_joint,mA1/azimuth_3_joint,mA1/azimuth_4_joint,1.5707963267948966,-4.60766922526503,0.0,0.017453292519943295
2025/04/05 15:58:57.898591388,0,0,,mA1/azimuth_1_joint,mA1/azimuth_2_joint,mA1/azimuth_3_joint,mA1/azimuth_4_joint,1.5533430342749532,-5.183627878423159,0.0,0.0
2025/04/05 15:58:57.996274356,0,0,,mA1/azimuth_1_joint,mA1/azimuth_2_joint,mA1/azimuth_3_joint,mA1/azimuth_4_joint,1.5533430342749532,-5.218534463463046,0.0,0.0
2025/04/05 15:58:58.95906274,0,0,,mA1/azimuth_1_joint,mA1/azimuth_2_joint,mA1/azimuth_3_joint,mA1/azimuth_4_joint,1.5533430342749532,-5.061454830783556,0.0,0.0
2025/04/05 15:58:58.196516681,0,0,,mA1/azimuth_1_joint,mA1/azimuth_2_joint,mA1/azimuth_3_joint,mA1/azimuth_4_joint,1.5533430342749532,-5.113814708343385,0.0,0.0
2025/04/05 15:58:58.295707696,0,0,,mA1/azimuth_1_joint,mA1/azimuth_2_joint,mA1/azimuth_3_joint,mA1/azimuth_4_joint,1.5533430342749532,-5.235987755982989,0.0,0.0
2025/04/05 15:58:58.396790040,0,0,,mA1/azimuth_1_joint,mA1/azimuth_2_joint,mA1/azimuth_3_joint,mA1/azimuth_4_joint,1.5533430342749532,-5.1661745859032155,0.0,0.0
2025/04/05 15:58:58.496915475,0,0,,mA1/azimuth_1_joint,mA1/azimuth_2_joint,mA1/azimuth_3_joint,mA1/azimuth_4_joint,1.5707963267948966,-4.590215932745087,0.0,0.0
2025/04/05 15:58:58.596276709,0,0,,mA1/azimuth_1_joint,mA1/azimuth_2_joint,mA1/azimuth_3_joint,mA1/azimuth_4_joint,1.5533430342749532,-5.253441048502932,0.0,0.0
2025/04/05 15:58:58.696219992,0,0,,mA1/azimuth_1_joint,mA1/azimuth_2_joint,mA1/azimuth_3_joint,mA1/azimuth_4_joint,1.5533430342749532,-5.235987755982989,0.0,0.0
2025/04/05 15:58:58.796566019,0,0,,mA1/azimuth_1_joint,mA1/azimuth_2_joint,mA1/azimuth_3_joint,mA1/azimuth_4_joint,1.5533430342749532,-5.061454830783556,0.0,0.0
2025/04/05 15:58:58.897594452,0,0,,mA1/azimuth_1_joint,mA1/azimuth_2_joint,mA1/azimuth_3_joint,mA1/azimuth_4_joint,1.5533430342749532,-5.044001538263612,0.0,0.017453292519943295
2025/04/05 15:58:58.996349979,0,0,,mA1/azimuth_1_joint,mA1/azimuth_2_joint,mA1/azimuth_3_joint,mA1/azimuth_4_joint,1.5533430342749532,-4.886921905584122,0.0,0.0
2025/04/05 15:58:59.96295479,0,0,,mA1/azimuth_1_joint,mA1/azimuth_2_joint,mA1/azimuth_3_joint,mA1/azimuth_4_joint,1.5533430342749532,-4.904375198104066,0.0,0.0
2025/04/05 15:58:59.197971927,0,0,,mA1/azimuth_1_joint,mA1/azimuth_2_joint,mA1/azimuth_3_joint,mA1/azimuth_4_joint,1.5533430342749532,-5.096361415823442,0.0,0.0
2025/04/05 15:58:59.296155744,0,0,,mA1/azimuth_1_joint,mA1/azimuth_2_joint,mA1/azimuth_3_joint,mA1/azimuth_4_joint,1.5707963267948966,-4.590215932745087,0.0,0.0
2025/04/05 15:58:59.396326282,0,0,,mA1/azimuth_1_joint,mA1/azimuth_2_joint,mA1/azimuth_3_joint,mA1/azimuth_4_joint,4.939281783143953,-1.5533430342749532,0.0,0.0
2025/04/05 15:58:59.495702643,0,0,,mA1/azimuth_1_joint,mA1/azimuth_2_joint,mA1/azimuth_3_joint,mA1/azimuth_4_joint,4.625122517784973,-1.5882496193148399,0.0,0.0
2025/04/05 15:58:59.596948965,0,0,,mA1/azimuth_1_joint,mA1/azimuth_2_joint,mA1/azimuth_3_joint,mA1/azimuth_4_joint,4.5553093477052,-1.5707963267948966,0.0,0.0
2025/04/05 15:58:59.695924221,0,0,,mA1/azimuth_1_joint,mA1/azimuth_2_joint,mA1/azimuth_3_joint,mA1/azimuth_4_joint,4.4156830075456535,-1.5707963267948966,0.0,0.0
2025/04/05 15:58:59.795909276,0,0,,mA1/azimuth_1_joint,mA1/azimuth_2_joint,mA1/azimuth_3_joint,mA1/azimuth_4_joint,4.886921905584122,-1.5533430342749532,0.0,0.0
2025/04/05 15:58:59.895662861,0,0,,mA1/azimuth_1_joint,mA1/azimuth_2_joint,mA1/azimuth_3_joint,mA1/azimuth_4_joint,4.729842272904633,-1.5533430342749532,0.0,0.0
2025/04/05 15:58:59.995910685,0,0,,mA1/azimuth_1_joint,mA1/azimuth_2_joint,mA1/azimuth_3_joint,mA1/azimuth_4_joint,1.5533430342749532,-4.869468613064179,0.0,0.0
2025/04/05 15:59:00.95719590,0,0,,mA1/azimuth_1_joint,mA1/azimuth_2_joint,mA1/azimuth_3_joint,mA1/azimuth_4_joint,1.5707963267948966,-4.34586983746588,0.0,0.0
2025/04/05 15:59:00.196359621,0,0,,mA1/azimuth_1_joint,mA1/azimuth_2_joint,mA1/azimuth_3_joint,mA1/azimuth_4_joint,1.5533430342749532,-5.044001538263612,0.0,0.0
2025/04/05 15:59:00.296554030,0,0,,mA1/azimuth_1_joint,mA1/azimuth_2_joint,mA1/azimuth_3_joint,mA1/azimuth_4_joint,4.485496177625427,-1.5707963267948966,0.0,0.0
2025/04/05 15:59:00.396055461,0,0,,mA1/azimuth_1_joint,mA1/azimuth_2_joint,mA1/azimuth_3_joint,mA1/azimuth_4_joint,4.241150082346221,-1.5707963267948966,0.0,0.0
2025/04/05 15:59:00.495782469,0,0,,mA1/azimuth_1_joint,mA1/azimuth_2_joint,mA1/azimuth_3_joint,mA1/azimuth_4_joint,4.2062434973063345,-1.5707963267948966,0.0,0.0
2025/04/05 15:59:00.596271348,0,0,,mA1/azimuth_1_joint,mA1/azimuth_2_joint,mA1/azimuth_3_joint,mA1/azimuth_4_joint,4.6774823953448035,-1.5707963267948966,0.0,0.0
2025/04/05 15:59:00.696512243,0,0,,mA1/azimuth_1_joint,mA1/azimuth_2_joint,mA1/azimuth_3_joint,mA1/azimuth_4_joint,1.5707963267948966,-4.223696789826278,0.0,0.0
2025/04/05 15:59:00.797964257,0,0,,mA1/azimuth_1_joint,mA1/azimuth_2_joint,mA1/azimuth_3_joint,mA1/azimuth_4_joint,1.5707963267948966,-4.153883619746504,0.0,0.0
2025/04/05 15:59:00.896933539,0,0,,mA1/azimuth_1_joint,mA1/azimuth_2_joint,mA1/azimuth_3_joint,mA1/azimuth_4_joint,1.5707963267948966,-4.084070449666731,0.0,0.0
2025/04/05 15:59:00.996734461,0,0,,mA1/azimuth_1_joint,mA1/azimuth_2_joint,mA1/azimuth_3_joint,mA1/azimuth_4_joint,1.5707963267948966,-4.136430327226561,0.0,0.0
2025/04/05 15:59:01.97789484,0,0,,mA1/azimuth_1_joint,mA1/azimuth_2_joint,mA1/azimuth_3_joint,mA1/azimuth_4_joint,1.5707963267948966,-4.2062434973063345,0.0,0.0
2025/04/05 15:59:01.197394257,0,0,,mA1/azimuth_1_joint,mA1/azimuth_2_joint,mA1/azimuth_3_joint,mA1/azimuth_4_joint,1.5707963267948966,-4.084070449666731,0.0,0.0
2025/04/05 15:59:01.295813882,0,0,,mA1/azimuth_1_joint,mA1/azimuth_2_joint,mA1/azimuth_3_joint,mA1/azimuth_4_joint,1.5533430342749532,-4.904375198104066,0.0,0.0
2025/04/05 15:59:01.397508582,0,0,,mA1/azimuth_1_joint,mA1/azimuth_2_joint,mA1/azimuth_3_joint,mA1/azimuth_4_joint,1.5533430342749532,-4.991641660703783,0.0,0.0
2025/04/05 15:59:01.496177363,0,0,,mA1/azimuth_1_joint,mA1/azimuth_2_joint,mA1/azimuth_3_joint,mA1/azimuth_4_joint,1.5707963267948966,-3.9968039870670147,0.0,0.0
2025/04/05 15:59:01.595911306,0,0,,mA1/azimuth_1_joint,mA1/azimuth_2_joint,mA1/azimuth_3_joint,mA1/azimuth_4_joint,1.5707963267948966,-4.6600291028248595,0.0,0.017453292519943295
2025/04/05 15:59:01.695603435,0,0,,mA1/azimuth_1_joint,mA1/azimuth_2_joint,mA1/azimuth_3_joint,mA1/azimuth_4_joint,1.5707963267948966,-4.572762640225143,0.0,0.0
2025/04/05 15:59:01.800505289,0,0,,mA1/azimuth_1_joint,mA1/azimuth_2_joint,mA1/azimuth_3_joint,mA1/azimuth_4_joint,3.9793506945470716,-1.5882496193148399,0.0,0.0
2025/04/05 15:59:01.895970184,0,0,,mA1/azimuth_1_joint,mA1/azimuth_2_joint,mA1/azimuth_3_joint,mA1/azimuth_4_joint,1.5707963267948966,-3.9793506945470716,0.0,0.0
2025/04/05 15:59:01.996365453,0,0,,mA1/azimuth_1_joint,mA1/azimuth_2_joint,mA1/azimuth_3_joint,mA1/azimuth_4_joint,1.5533430342749532,-5.009094953223726,0.0,0.0
2025/04/05 15:59:02.96240380,0,0,,mA1/azimuth_1_joint,mA1/azimuth_2_joint,mA1/azimuth_3_joint,mA1/azimuth_4_joint,1.5707963267948966,-3.944444109507185,0.0,0.0
2025/04/05 15:59:02.196389332,0,0,,mA1/azimuth_1_joint,mA1/azimuth_2_joint,mA1/azimuth_3_joint,mA1/azimuth_4_joint,1.5533430342749532,-4.71238898038469,0.0,0.0
2025/04/05 15:59:02.296890960,0,0,,mA1/azimuth_1_joint,mA1/azimuth_2_joint,mA1/azimuth_3_joint,mA1/azimuth_4_joint,1.5707963267948966,-4.2062434973063345,0.0,0.0
2025/04/05 15:59:02.396155098,0,0,,mA1/azimuth_1_joint,mA1/azimuth_2_joint,mA1/azimuth_3_joint,mA1/azimuth_4_joint,1.5533430342749532,-4.886921905584122,0.0,0.0
2025/04/05 15:59:02.496043579,0,0,,mA1/azimuth_1_joint,mA1/azimuth_2_joint,mA1/azimuth_3_joint,mA1/azimuth_4_joint,1.5707963267948966,-3.9095375244672983,0.0,0.0
2025/04/05 15:59:02.595744427,0,0,,mA1/azimuth_1_joint,mA1/azimuth_2_joint,mA1/azimuth_3_joint,mA1/azimuth_4_joint,1.5707963267948966,-4.590215932745087,0.0,0.0
2025/04/05 15:59:02.695725307,0,0,,mA1/azimuth_1_joint,mA1/azimuth_2_joint,mA1/azimuth_3_joint,mA1/azimuth_4_joint,1.5707963267948966,-3.8920842319473548,0.0,0.0
2025/04/05 15:59:02.797643503,0,0,,mA1/azimuth_1_joint,mA1/azimuth_2_joint,mA1/azimuth_3_joint,mA1/azimuth_4_joint,1.5707963267948966,-4.590215932745087,0.0,0.0
2025/04/05 15:59:02.896293825,0,0,,mA1/azimuth_1_joint,mA1/azimuth_2_joint,mA1/azimuth_3_joint,mA1/azimuth_4_joint,1.5707963267948966,-3.8746309394274117,0.0,0.0
2025/04/05 15:59:02.996549830,0,0,,mA1/azimuth_1_joint,mA1/azimuth_2_joint,mA1/azimuth_3_joint,mA1/azimuth_4_joint,1.5707963267948966,-4.590215932745087,0.0,0.0
2025/04/05 15:59:03.96722279,0,0,,mA1/azimuth_1_joint,mA1/azimuth_2_joint,mA1/azimuth_3_joint,mA1/azimuth_4_joint,1.5707963267948966,-3.839724354387525,0.0,0.0
2025/04/05 15:59:03.196543420,0,0,,mA1/azimuth_1_joint,mA1/azimuth_2_joint,mA1/azimuth_3_joint,mA1/azimuth_4_joint,1.5533430342749532,-4.852015320544236,0.0,0.0
2025/04/05 15:59:03.298488986,0,0,,mA1/azimuth_1_joint,mA1/azimuth_2_joint,mA1/azimuth_3_joint,mA1/azimuth_4_joint,1.5707963267948966,-3.8920842319473548,0.0,0.0
2025/04/05 15:59:03.398021662,0,0,,mA1/azimuth_1_joint,mA1/azimuth_2_joint,mA1/azimuth_3_joint,mA1/azimuth_4_joint,4.904375198104066,-1.5533430342749532,0.0,0.0
2025/04/05 15:59:03.495559982,0,0,,mA1/azimuth_1_joint,mA1/azimuth_2_joint,mA1/azimuth_3_joint,mA1/azimuth_4_joint,1.5707963267948966,-3.8920842319473548,0.0,0.0
2025/04/05 15:59:03.595948156,0,0,,mA1/azimuth_1_joint,mA1/azimuth_2_joint,mA1/azimuth_3_joint,mA1/azimuth_4_joint,1.5533430342749532,-4.817108735504349,0.0,0.0
2025/04/05 15:59:03.697288171,0,0,,mA1/azimuth_1_joint,mA1/azimuth_2_joint,mA1/azimuth_3_joint,mA1/azimuth_4_joint,1.5707963267948966,-4.363323129985824,0.0,0.0
2025/04/05 15:59:03.799366490,0,0,,mA1/azimuth_1_joint,mA1/azimuth_2_joint,mA1/azimuth_3_joint,mA1/azimuth_4_joint,4.118977034706618,-1.5707963267948966,0.0,0.0
2025/04/05 15:59:03.896202829,0,0,,mA1/azimuth_1_joint,mA1/azimuth_2_joint,mA1/azimuth_3_joint,mA1/azimuth_4_joint,3.8920842319473548,-1.5707963267948966,0.0,0.0
2025/04/05 15:59:03.996606367,0,0,,mA1/azimuth_1_joint,mA1/azimuth_2_joint,mA1/azimuth_3_joint,mA1/azimuth_4_joint,3.9095375244672983,-1.5707963267948966,0.0,0.0
2025/04/05 15:59:04.95881604,0,0,,mA1/azimuth_1_joint,mA1/azimuth_2_joint,mA1/azimuth_3_joint,mA1/azimuth_4_joint,1.5707963267948966,-3.857177646907468,0.0,0.0
2025/04/05 15:59:04.195906640,0,0,,mA1/azimuth_1_joint,mA1/azimuth_2_joint,mA1/azimuth_3_joint,mA1/azimuth_4_joint,1.5707963267948966,-4.363323129985824,0.0,0.0
2025/04/05 15:59:04.296505118,0,0,,mA1/azimuth_1_joint,mA1/azimuth_2_joint,mA1/azimuth_3_joint,mA1/azimuth_4_joint,1.5707963267948966,-4.153883619746504,0.0,0.017453292519943295
2025/04/05 15:59:04.395878232,0,0,,mA1/azimuth_1_joint,mA1/azimuth_2_joint,mA1/azimuth_3_joint,mA1/azimuth_4_joint,1.5707963267948966,-4.537856055185257,0.0,0.0
2025/04/05 15:59:04.496736142,0,0,,mA1/azimuth_1_joint,mA1/azimuth_2_joint,mA1/azimuth_3_joint,mA1/azimuth_4_joint,1.5707963267948966,-3.735004599267865,0.0,0.0
2025/04/05 15:59:04.595675048,0,0,,mA1/azimuth_1_joint,mA1/azimuth_2_joint,mA1/azimuth_3_joint,mA1/azimuth_4_joint,1.5533430342749532,-4.939281783143953,0.0,0.0
2025/04/05 15:59:04.696369369,0,0,,mA1/azimuth_1_joint,mA1/azimuth_2_joint,mA1/azimuth_3_joint,mA1/azimuth_4_joint,1.5707963267948966,-3.7699111843077517,0.0,0.0
2025/04/05 15:59:04.797435670,0,0,,mA1/azimuth_1_joint,mA1/azimuth_2_joint,mA1/azimuth_3_joint,mA1/azimuth_4_joint,1.5533430342749532,-4.76474885794452,0.0,0.017453292519943295
2025/04/05 15:59:04.896017990,0,0,,mA1/azimuth_1_joint,mA1/azimuth_2_joint,mA1/azimuth_3_joint,mA1/azimuth_4_joint,1.5707963267948966,-4.625122517784973,0.0,0.0
2025/04/05 15:59:04.995827172,0,0,,mA1/azimuth_1_joint,mA1/azimuth_2_joint,mA1/azimuth_3_joint,mA1/azimuth_4_joint,1.5707963267948966,-3.9968039870670147,0.0,0.0
2025/04/05 15:59:05.95851112,0,0,,mA1/azimuth_1_joint,mA1/azimuth_2_joint,mA1/azimuth_3_joint,mA1/azimuth_4_joint,1.5707963267948966,-3.7699111843077517,0.0,0.0
2025/04/05 15:59:05.195698156,0,0,,mA1/azimuth_1_joint,mA1/azimuth_2_joint,mA1/azimuth_3_joint,mA1/azimuth_4_joint,1.5707963267948966,-4.537856055185257,0.0,0.0
2025/04/05 15:59:05.296810220,0,0,,mA1/azimuth_1_joint,mA1/azimuth_2_joint,mA1/azimuth_3_joint,mA1/azimuth_4_joint,1.5707963267948966,-3.8048177693476384,0.0,0.0
2025/04/05 15:59:05.396552183,0,0,,mA1/azimuth_1_joint,mA1/azimuth_2_joint,mA1/azimuth_3_joint,mA1/azimuth_4_joint,4.9218284906240095,-1.5533430342749532,0.0,0.0
2025/04/05 15:59:05.497981825,0,0,,mA1/azimuth_1_joint,mA1/azimuth_2_joint,mA1/azimuth_3_joint,mA1/azimuth_4_joint,4.014257279586958,-1.5707963267948966,0.0,0.0
2025/04/05 15:59:05.596198512,0,0,,mA1/azimuth_1_joint,mA1/azimuth_2_joint,mA1/azimuth_3_joint,mA1/azimuth_4_joint,4.956735075663896,-1.5533430342749532,0.0,0.0
2025/04/05 15:59:05.696460785,0,0,,mA1/azimuth_1_joint,mA1/azimuth_2_joint,mA1/azimuth_3_joint,mA1/azimuth_4_joint,4.939281783143953,-1.5533430342749532,0.0,0.0
2025/04/05 15:59:05.796053741,0,0,,mA1/azimuth_1_joint,mA1/azimuth_2_joint,mA1/azimuth_3_joint,mA1/azimuth_4_joint,3.8920842319473548,-1.5707963267948966,0.0,0.0
2025/04/05 15:59:05.896327618,0,0,,mA1/azimuth_1_joint,mA1/azimuth_2_joint,mA1/azimuth_3_joint,mA1/azimuth_4_joint,1.5707963267948966,-3.822271061867582,0.0,0.0
2025/04/05 15:59:05.995943944,0,0,,mA1/azimuth_1_joint,mA1/azimuth_2_joint,mA1/azimuth_3_joint,mA1/azimuth_4_joint,1.5707963267948966,-3.8746309394274117,0.0,0.0
2025/04/05 15:59:06.96494567,0,0,,mA1/azimuth_1_joint,mA1/azimuth_2_joint,mA1/azimuth_3_joint,mA1/azimuth_4_joint,1.5707963267948966,-3.735004599267865,0.0,0.0
2025/04/05 15:59:06.196715678,0,0,,mA1/azimuth_1_joint,mA1/azimuth_2_joint,mA1/azimuth_3_joint,mA1/azimuth_4_joint,1.5707963267948966,-3.8048177693476384,0.0,0.0
2025/04/05 15:59:06.296232860,0,0,,mA1/azimuth_1_joint,mA1/azimuth_2_joint,mA1/azimuth_3_joint,mA1/azimuth_4_joint,1.5707963267948966,-4.694935687864747,0.0,0.0
2025/04/05 15:59:06.396022454,0,0,,mA1/azimuth_1_joint,mA1/azimuth_2_joint,mA1/azimuth_3_joint,mA1/azimuth_4_joint,1.5707963267948966,-3.822271061867582,0.0,0.0
2025/04/05 15:59:06.498359400,0,0,,mA1/azimuth_1_joint,mA1/azimuth_2_joint,mA1/azimuth_3_joint,mA1/azimuth_4_joint,1.5533430342749532,-5.061454830783556,0.0,0.0
2025/04/05 15:59:06.596372067,0,0,,mA1/azimuth_1_joint,mA1/azimuth_2_joint,mA1/azimuth_3_joint,mA1/azimuth_4_joint,1.5533430342749532,-5.270894341022875,0.0,0.0
2025/04/05 15:59:06.696583291,0,0,,mA1/azimuth_1_joint,mA1/azimuth_2_joint,mA1/azimuth_3_joint,mA1/azimuth_4_joint,1.5533430342749532,-4.817108735504349,0.0,0.0
2025/04/05 15:59:06.795649881,0,0,,mA1/azimuth_1_joint,mA1/azimuth_2_joint,mA1/azimuth_3_joint,mA1/azimuth_4_joint,1.5707963267948966,-4.363323129985824,0.0,0.0
2025/04/05 15:59:06.896307928,0,0,,mA1/azimuth_1_joint,mA1/azimuth_2_joint,mA1/azimuth_3_joint,mA1/azimuth_4_joint,1.5707963267948966,-4.258603374866164,0.0,0.0
2025/04/05 15:59:06.995878173,0,0,,mA1/azimuth_1_joint,mA1/azimuth_2_joint,mA1/azimuth_3_joint,mA1/azimuth_4_joint,1.5707963267948966,-4.276056667386108,0.0,0.0
2025/04/05 15:59:07.95989044,0,0,,mA1/azimuth_1_joint,mA1/azimuth_2_joint,mA1/azimuth_3_joint,mA1/azimuth_4_joint,1.5707963267948966,-3.8746309394274117,0.0,0.0
2025/04/05 15:59:07.196321826,0,0,,mA1/azimuth_1_joint,mA1/azimuth_2_joint,mA1/azimuth_3_joint,mA1/azimuth_4_joint,1.5707963267948966,-3.944444109507185,0.0,0.0
2025/04/05 15:59:07.298607342,0,0,,mA1/azimuth_1_joint,mA1/azimuth_2_joint,mA1/azimuth_3_joint,mA1/azimuth_4_joint,1.5533430342749532,-5.445427266222308,0.0,0.0
2025/04/05 15:59:07.398552568,0,0,,mA1/azimuth_1_joint,mA1/azimuth_2_joint,mA1/azimuth_3_joint,mA1/azimuth_4_joint,1.5707963267948966,-3.857177646907468,0.0,0.0
2025/04/05 15:59:07.496403667,0,0,,mA1/azimuth_1_joint,mA1/azimuth_2_joint,mA1/azimuth_3_joint,mA1/azimuth_4_joint,1.5707963267948966,-4.468042885105484,0.0,0.0
2025/04/05 15:59:07.596950577,0,0,,mA1/azimuth_1_joint,mA1/azimuth_2_joint,mA1/azimuth_3_joint,mA1/azimuth_4_joint,1.5707963267948966,-4.171336912266447,0.0,0.0
2025/04/05 15:59:07.697885293,0,0,,mA1/azimuth_1_joint,mA1/azimuth_2_joint,mA1/azimuth_3_joint,mA1/azimuth_4_joint,1.5707963267948966,-4.1887902047863905,0.0,0.0
2025/04/05 15:59:07.795928752,0,0,,mA1/azimuth_1_joint,mA1/azimuth_2_joint,mA1/azimuth_3_joint,mA1/azimuth_4_joint,1.5707963267948966,-3.8048177693476384,0.0,0.017453292519943295
2025/04/05 15:59:07.896869029,0,0,,mA1/azimuth_1_joint,mA1/azimuth_2_joint,mA1/azimuth_3_joint,mA1/azimuth_4_joint,1.5707963267948966,-4.590215932745087,0.0,0.0
2025/04/05 15:59:07.995842775,0,0,,mA1/azimuth_1_joint,mA1/azimuth_2_joint,mA1/azimuth_3_joint,mA1/azimuth_4_joint,1.5707963267948966,-4.153883619746504,0.0,0.0
2025/04/05 15:59:08.96399799,0,0,,mA1/azimuth_1_joint,mA1/azimuth_2_joint,mA1/azimuth_3_joint,mA1/azimuth_4_joint,1.5707963267948966,-3.8048177693476384,0.0,0.0
2025/04/05 15:59:08.198503471,0,0,,mA1/azimuth_1_joint,mA1/azimuth_2_joint,mA1/azimuth_3_joint,mA1/azimuth_4_joint,1.5707963267948966,-3.7524578917878086,0.0,0.0
2025/04/05 15:59:08.295859954,0,0,,mA1/azimuth_1_joint,mA1/azimuth_2_joint,mA1/azimuth_3_joint,mA1/azimuth_4_joint,1.5707963267948966,-3.7524578917878086,0.0,0.0
2025/04/05 15:59:08.395677849,0,0,,mA1/azimuth_1_joint,mA1/azimuth_2_joint,mA1/azimuth_3_joint,mA1/azimuth_4_joint,1.5707963267948966,-3.735004599267865,0.0,0.0
2025/04/05 15:59:08.496366247,0,0,,mA1/azimuth_1_joint,mA1/azimuth_2_joint,mA1/azimuth_3_joint,mA1/azimuth_4_joint,1.5707963267948966,-3.7699111843077517,0.0,0.0
2025/04/05 15:59:08.595665170,0,0,,mA1/azimuth_1_joint,mA1/azimuth_2_joint,mA1/azimuth_3_joint,mA1/azimuth_4_joint,1.5707963267948966,-3.717551306747922,0.0,0.0
2025/04/05 15:59:08.696025502,0,0,,mA1/azimuth_1_joint,mA1/azimuth_2_joint,mA1/azimuth_3_joint,mA1/azimuth_4_joint,1.5707963267948966,-3.7873644768276953,0.0,0.0
2025/04/05 15:59:08.795578802,0,0,,mA1/azimuth_1_joint,mA1/azimuth_2_joint,mA1/azimuth_3_joint,mA1/azimuth_4_joint,1.5707963267948966,-3.7699111843077517,0.0,0.0
2025/04/05 15:59:08.897479752,0,0,,mA1/azimuth_1_joint,mA1/azimuth_2_joint,mA1/azimuth_3_joint,mA1/azimuth_4_joint,1.5707963267948966,-3.8746309394274117,0.0,0.0
2025/04/05 15:59:08.997648663,0,0,,mA1/azimuth_1_joint,mA1/azimuth_2_joint,mA1/azimuth_3_joint,mA1/azimuth_4_joint,5.1487212933832724,-1.5533430342749532,0.0,0.0
2025/04/05 15:59:09.95957693,0,0,,mA1/azimuth_1_joint,mA1/azimuth_2_joint,mA1/azimuth_3_joint,mA1/azimuth_4_joint,1.5707963267948966,-3.7873644768276953,0.0,0.0
2025/04/05 15:59:09.195895111,0,0,,mA1/azimuth_1_joint,mA1/azimuth_2_joint,mA1/azimuth_3_joint,mA1/azimuth_4_joint,1.5707963267948966,-4.1887902047863905,0.0,0.0
2025/04/05 15:59:09.295784312,0,0,,mA1/azimuth_1_joint,mA1/azimuth_2_joint,mA1/azimuth_3_joint,mA1/azimuth_4_joint,3.9095375244672983,-1.5707963267948966,0.0,0.0
2025/04/05 15:59:09.395967324,0,0,,mA1/azimuth_1_joint,mA1/azimuth_2_joint,mA1/azimuth_3_joint,mA1/azimuth_4_joint,4.276056667386108,-1.5707963267948966,0.0,0.0
2025/04/05 15:59:09.496622672,0,0,,mA1/azimuth_1_joint,mA1/azimuth_2_joint,mA1/azimuth_3_joint,mA1/azimuth_4_joint,1.5707963267948966,-4.153883619746504,0.0,0.0
2025/04/05 15:59:09.596706870,0,0,,mA1/azimuth_1_joint,mA1/azimuth_2_joint,mA1/azimuth_3_joint,mA1/azimuth_4_joint,1.5707963267948966,-3.735004599267865,0.0,0.0
2025/04/05 15:59:09.696405691,0,0,,mA1/azimuth_1_joint,mA1/azimuth_2_joint,mA1/azimuth_3_joint,mA1/azimuth_4_joint,1.5533430342749532,-5.270894341022875,0.0,0.0
2025/04/05 15:59:09.796812519,0,0,,mA1/azimuth_1_joint,mA1/azimuth_2_joint,mA1/azimuth_3_joint,mA1/azimuth_4_joint,1.5707963267948966,-3.8048177693476384,0.0,0.0
2025/04/05 15:59:09.898817919,0,0,,mA1/azimuth_1_joint,mA1/azimuth_2_joint,mA1/azimuth_3_joint,mA1/azimuth_4_joint,1.5707963267948966,-3.7699111843077517,0.0,0.0
2025/04/05 15:59:09.996858439,0,0,,mA1/azimuth_1_joint,mA1/azimuth_2_joint,mA1/azimuth_3_joint,mA1/azimuth_4_joint,1.5707963267948966,-4.066617157146788,0.0,0.0
2025/04/05 15:59:10.96502815,0,0,,mA1/azimuth_1_joint,mA1/azimuth_2_joint,mA1/azimuth_3_joint,mA1/azimuth_4_joint,5.410520681182422,-1.53588974175501,0.0,0.0
2025/04/05 15:59:10.196257554,0,0,,mA1/azimuth_1_joint,mA1/azimuth_2_joint,mA1/azimuth_3_joint,mA1/azimuth_4_joint,1.5533430342749532,-5.270894341022875,0.0,0.0
2025/04/05 15:59:10.296010549,0,0,,mA1/azimuth_1_joint,mA1/azimuth_2_joint,mA1/azimuth_3_joint,mA1/azimuth_4_joint,4.6600291028248595,-1.5707963267948966,0.0,0.0
2025/04/05 15:59:10.397553542,0,0,,mA1/azimuth_1_joint,mA1/azimuth_2_joint,mA1/azimuth_3_joint,mA1/azimuth_4_joint,1.5707963267948966,-4.4331363000655974,0.0,0.0
2025/04/05 15:59:10.496616451,0,0,,mA1/azimuth_1_joint,mA1/azimuth_2_joint,mA1/azimuth_3_joint,mA1/azimuth_4_joint,1.5707963267948966,-3.9968039870670147,0.0,0.0
2025/04/05 15:59:10.596902074,0,0,,mA1/azimuth_1_joint,mA1/azimuth_2_joint,mA1/azimuth_3_joint,mA1/azimuth_4_joint,4.71238898038469,-1.5533430342749532,0.0,0.0
2025/04/05 15:59:10.696121184,0,0,,mA1/azimuth_1_joint,mA1/azimuth_2_joint,mA1/azimuth_3_joint,mA1/azimuth_4_joint,3.9095375244672983,-1.5707963267948966,0.0,0.0
2025/04/05 15:59:10.796019005,0,0,,mA1/azimuth_1_joint,mA1/azimuth_2_joint,mA1/azimuth_3_joint,mA1/azimuth_4_joint,1.5533430342749532,-4.904375198104066,0.0,0.0
2025/04/05 15:59:10.896201710,0,0,,mA1/azimuth_1_joint,mA1/azimuth_2_joint,mA1/azimuth_3_joint,mA1/azimuth_4_joint,1.5707963267948966,-3.8920842319473548,0.0,0.0
2025/04/05 15:59:10.995715497,0,0,,mA1/azimuth_1_joint,mA1/azimuth_2_joint,mA1/azimuth_3_joint,mA1/azimuth_4_joint,1.5707963267948966,-3.822271061867582,0.0,0.0
2025/04/05 15:59:11.96370879,0,0,,mA1/azimuth_1_joint,mA1/azimuth_2_joint,mA1/azimuth_3_joint,mA1/azimuth_4_joint,1.5707963267948966,-3.944444109507185,0.0,0.0
2025/04/05 15:59:11.195891513,0,0,,mA1/azimuth_1_joint,mA1/azimuth_2_joint,mA1/azimuth_3_joint,mA1/azimuth_4_joint,1.5707963267948966,-3.857177646907468,0.0,0.0
2025/04/05 15:59:11.299478431,0,0,,mA1/azimuth_1_joint,mA1/azimuth_2_joint,mA1/azimuth_3_joint,mA1/azimuth_4_joint,1.5707963267948966,-4.153883619746504,0.0,0.0
2025/04/05 15:59:11.396421089,0,0,,mA1/azimuth_1_joint,mA1/azimuth_2_joint,mA1/azimuth_3_joint,mA1/azimuth_4_joint,3.9269908169872414,-1.5707963267948966,0.0,0.0
2025/04/05 15:59:11.495631910,0,0,,mA1/azimuth_1_joint,mA1/azimuth_2_joint,mA1/azimuth_3_joint,mA1/azimuth_4_joint,4.4505895925855405,-1.5707963267948966,0.0,0.0
2025/04/05 15:59:11.597030712,0,0,,mA1/azimuth_1_joint,mA1/azimuth_2_joint,mA1/azimuth_3_joint,mA1/azimuth_4_joint,3.944444109507185,-1.5707963267948966,0.0,0.0
2025/04/05 15:59:11.697837838,0,0,,mA1/azimuth_1_joint,mA1/azimuth_2_joint,mA1/azimuth_3_joint,mA1/azimuth_4_joint,1.5707963267948966,-4.50294947014537,0.0,0.0
2025/04/05 15:59:11.797565924,0,0,,mA1/azimuth_1_joint,mA1/azimuth_2_joint,mA1/azimuth_3_joint,mA1/azimuth_4_joint,1.5533430342749532,-5.061454830783556,0.0,0.0
2025/04/05 15:59:11.897749775,0,0,,mA1/azimuth_1_joint,mA1/azimuth_2_joint,mA1/azimuth_3_joint,mA1/azimuth_4_joint,4.1887902047863905,-1.5707963267948966,0.0,0.0
2025/04/05 15:59:11.996031929,0,0,,mA1/azimuth_1_joint,mA1/azimuth_2_joint,mA1/azimuth_3_joint,mA1/azimuth_4_joint,1.5533430342749532,-4.869468613064179,0.0,0.0
2025/04/05 15:59:12.97094740,0,0,,mA1/azimuth_1_joint,mA1/azimuth_2_joint,mA1/azimuth_3_joint,mA1/azimuth_4_joint,5.1661745859032155,-1.5533430342749532,0.0,0.0
2025/04/05 15:59:12.195823208,0,0,,mA1/azimuth_1_joint,mA1/azimuth_2_joint,mA1/azimuth_3_joint,mA1/azimuth_4_joint,4.6774823953448035,-1.5707963267948966,0.0,0.0
2025/04/05 15:59:12.297777061,0,0,,mA1/azimuth_1_joint,mA1/azimuth_2_joint,mA1/azimuth_3_joint,mA1/azimuth_4_joint,1.5533430342749532,-5.044001538263612,0.0,0.0
2025/04/05 15:59:12.395711057,0,0,,mA1/azimuth_1_joint,mA1/azimuth_2_joint,mA1/azimuth_3_joint,mA1/azimuth_4_joint,1.5533430342749532,-5.340707511102648,0.0,0.0
2025/04/05 15:59:12.497766800,0,0,,mA1/azimuth_1_joint,mA1/azimuth_2_joint,mA1/azimuth_3_joint,mA1/azimuth_4_joint,5.201081170943102,-1.5533430342749532,0.0,0.0
2025/04/05 15:59:12.598772970,0,0,,mA1/azimuth_1_joint,mA1/azimuth_2_joint,mA1/azimuth_3_joint,mA1/azimuth_4_joint,1.5533430342749532,-5.1487212933832724,0.0,0.0
2025/04/05 15:59:12.696422234,0,0,,mA1/azimuth_1_joint,mA1/azimuth_2_joint,mA1/azimuth_3_joint,mA1/azimuth_4_joint,1.5533430342749532,-4.747295565424577,0.0,0.0
2025/04/05 15:59:12.796999359,0,0,,mA1/azimuth_1_joint,mA1/azimuth_2_joint,mA1/azimuth_3_joint,mA1/azimuth_4_joint,1.5533430342749532,-4.904375198104066,0.0,0.0
2025/04/05 15:59:12.897850085,0,0,,mA1/azimuth_1_joint,mA1/azimuth_2_joint,mA1/azimuth_3_joint,mA1/azimuth_4_joint,4.153883619746504,-1.5707963267948966,0.0,0.0
2025/04/05 15:59:12.996901945,0,0,,mA1/azimuth_1_joint,mA1/azimuth_2_joint,mA1/azimuth_3_joint,mA1/azimuth_4_joint,4.642575810304916,-1.5707963267948966,0.0,0.0
2025/04/05 15:59:13.96506203,0,0,,mA1/azimuth_1_joint,mA1/azimuth_2_joint,mA1/azimuth_3_joint,mA1/azimuth_4_joint,1.5533430342749532,-4.939281783143953,0.0,0.0
2025/04/05 15:59:13.195827100,0,0,,mA1/azimuth_1_joint,mA1/azimuth_2_joint,mA1/azimuth_3_joint,mA1/azimuth_4_joint,1.5533430342749532,-4.747295565424577,0.0,0.0
2025/04/05 15:59:13.300481727,0,0,,mA1/azimuth_1_joint,mA1/azimuth_2_joint,mA1/azimuth_3_joint,mA1/azimuth_4_joint,1.5707963267948966,-4.625122517784973,0.0,0.0
2025/04/05 15:59:13.395940390,0,0,,mA1/azimuth_1_joint,mA1/azimuth_2_joint,mA1/azimuth_3_joint,mA1/azimuth_4_joint,3.9793506945470716,-1.5707963267948966,0.0,0.0
2025/04/05 15:59:13.496437892,0,0,,mA1/azimuth_1_joint,mA1/azimuth_2_joint,mA1/azimuth_3_joint,mA1/azimuth_4_joint,3.9968039870670147,-1.5707963267948966,0.0,0.0
2025/04/05 15:59:13.597559287,0,0,,mA1/azimuth_1_joint,mA1/azimuth_2_joint,mA1/azimuth_3_joint,mA1/azimuth_4_joint,1.5533430342749532,-5.235987755982989,0.0,0.0
2025/04/05 15:59:13.696282037,0,0,,mA1/azimuth_1_joint,mA1/azimuth_2_joint,mA1/azimuth_3_joint,mA1/azimuth_4_joint,5.096361415823442,-1.5533430342749532,0.0,0.0
2025/04/05 15:59:13.798554746,0,0,,mA1/azimuth_1_joint,mA1/azimuth_2_joint,mA1/azimuth_3_joint,mA1/azimuth_4_joint,1.5533430342749532,-5.270894341022875,0.0,0.0
2025/04/05 15:59:13.897633959,0,0,,mA1/azimuth_1_joint,mA1/azimuth_2_joint,mA1/azimuth_3_joint,mA1/azimuth_4_joint,1.5533430342749532,-5.061454830783556,0.0,0.0
2025/04/05 15:59:13.996146143,0,0,,mA1/azimuth_1_joint,mA1/azimuth_2_joint,mA1/azimuth_3_joint,mA1/azimuth_4_joint,1.5533430342749532,-5.462880558742252,0.0,0.0
2025/04/05 15:59:14.95680758,0,0,,mA1/azimuth_1_joint,mA1/azimuth_2_joint,mA1/azimuth_3_joint,mA1/azimuth_4_joint,4.485496177625427,-1.5707963267948966,0.0,0.0
2025/04/05 15:59:14.195936775,0,0,,mA1/azimuth_1_joint,mA1/azimuth_2_joint,mA1/azimuth_3_joint,mA1/azimuth_4_joint,1.5533430342749532,-5.515240436302081,0.0,0.0
2025/04/05 15:59:14.296527351,0,0,,mA1/azimuth_1_joint,mA1/azimuth_2_joint,mA1/azimuth_3_joint,mA1/azimuth_4_joint,1.5533430342749532,-5.183627878423159,0.0,0.0
2025/04/05 15:59:14.398008435,0,0,,mA1/azimuth_1_joint,mA1/azimuth_2_joint,mA1/azimuth_3_joint,mA1/azimuth_4_joint,1.5707963267948966,-4.241150082346221,0.0,0.0
2025/04/05 15:59:14.495635961,0,0,,mA1/azimuth_1_joint,mA1/azimuth_2_joint,mA1/azimuth_3_joint,mA1/azimuth_4_joint,1.5707963267948966,-4.50294947014537,0.0,0.0
2025/04/05 15:59:14.596323714,0,0,,mA1/azimuth_1_joint,mA1/azimuth_2_joint,mA1/azimuth_3_joint,mA1/azimuth_4_joint,1.5707963267948966,-3.857177646907468,0.0,0.0
2025/04/05 15:59:14.699167665,0,0,,mA1/azimuth_1_joint,mA1/azimuth_2_joint,mA1/azimuth_3_joint,mA1/azimuth_4_joint,1.5533430342749532,-5.567600313861911,0.0,0.0
2025/04/05 15:59:14.796933310,0,0,,mA1/azimuth_1_joint,mA1/azimuth_2_joint,mA1/azimuth_3_joint,mA1/azimuth_4_joint,1.5533430342749532,-5.218534463463046,0.0,0.0
2025/04/05 15:59:14.897340386,0,0,,mA1/azimuth_1_joint,mA1/azimuth_2_joint,mA1/azimuth_3_joint,mA1/azimuth_4_joint,4.380776422505767,-1.5707963267948966,0.0,0.0
2025/04/05 15:59:14.996593797,0,0,,mA1/azimuth_1_joint,mA1/azimuth_2_joint,mA1/azimuth_3_joint,mA1/azimuth_4_joint,4.60766922526503,-1.5707963267948966,0.0,0.0
2025/04/05 15:59:15.95859250,0,0,,mA1/azimuth_1_joint,mA1/azimuth_2_joint,mA1/azimuth_3_joint,mA1/azimuth_4_joint,1.5533430342749532,-5.8643062867009474,0.0,0.0
2025/04/05 15:59:15.197807262,0,0,,mA1/azimuth_1_joint,mA1/azimuth_2_joint,mA1/azimuth_3_joint,mA1/azimuth_4_joint,4.6774823953448035,-1.5707963267948966,0.0,0.0
2025/04/05 15:59:15.298126944,0,0,,mA1/azimuth_1_joint,mA1/azimuth_2_joint,mA1/azimuth_3_joint,mA1/azimuth_4_joint,5.707226654021458,-1.5533430342749532,0.0,0.0
2025/04/05 15:59:15.396217757,0,0,,mA1/azimuth_1_joint,mA1/azimuth_2_joint,mA1/azimuth_3_joint,mA1/azimuth_4_joint,1.5707963267948966,-4.4505895925855405,0.0,0.0
2025/04/05 15:59:15.496290803,0,0,,mA1/azimuth_1_joint,mA1/azimuth_2_joint,mA1/azimuth_3_joint,mA1/azimuth_4_joint,1.5533430342749532,-4.939281783143953,0.0,0.0
2025/04/05 15:59:15.596890771,0,0,,mA1/azimuth_1_joint,mA1/azimuth_2_joint,mA1/azimuth_3_joint,mA1/azimuth_4_joint,1.5533430342749532,-4.76474885794452,0.0,0.0
2025/04/05 15:59:15.697413642,0,0,,mA1/azimuth_1_joint,mA1/azimuth_2_joint,mA1/azimuth_3_joint,mA1/azimuth_4_joint,1.5707963267948966,-4.223696789826278,0.0,0.0
2025/04/05 15:59:15.796163809,0,0,,mA1/azimuth_1_joint,mA1/azimuth_2_joint,mA1/azimuth_3_joint,mA1/azimuth_4_joint,1.5533430342749532,-5.707226654021458,0.0,0.0
2025/04/05 15:59:15.896939624,0,0,,mA1/azimuth_1_joint,mA1/azimuth_2_joint,mA1/azimuth_3_joint,mA1/azimuth_4_joint,1.5533430342749532,-5.707226654021458,0.0,0.0
2025/04/05 15:59:15.998094747,0,0,,mA1/azimuth_1_joint,mA1/azimuth_2_joint,mA1/azimuth_3_joint,mA1/azimuth_4_joint,1.5533430342749532,-5.811946409141117,0.0,0.0
2025/04/05 15:59:16.96259350,0,0,,mA1/azimuth_1_joint,mA1/azimuth_2_joint,mA1/azimuth_3_joint,mA1/azimuth_4_joint,1.5533430342749532,-5.6374134839416845,0.0,0.0
