time,header_stamp_secs,header_stamp_nsecs,header_frame_id,status_status,status_service,latitude,longitude,altitude,position_covariance_0,position_covariance_1,position_covariance_2,position_covariance_3,position_covariance_4,position_covariance_5,position_covariance_6,position_covariance_7,position_covariance_8,position_covariance_type
2025/04/05 15:42:02.223866318,1743860521,993671812,mA1/gps,0,1,63.43649523161438,10.393075671753342,0.0,1.4400000000000002e-10,0.0,0.0,0.0,1.4400000000000002e-10,0.0,0.0,0.0,1.0,2
2025/04/05 15:42:02.223966019,1743860522,47736625,mA1/gps,0,1,63.43649523242114,10.393075616975727,0.0,1.4400000000000002e-10,0.0,0.0,0.0,1.4400000000000002e-10,0.0,0.0,0.0,1.0,2
2025/04/05 15:42:02.224045830,1743860522,92050173,mA1/gps,0,1,63.436495234322116,10.3930755578558,0.0,1.4400000000000002e-10,0.0,0.0,0.0,1.4400000000000002e-10,0.0,0.0,0.0,1.0,2
2025/04/05 15:42:02.224092946,1743860522,146477118,mA1/gps,0,1,63.43649523637921,10.393075500324182,0.0,1.4400000000000002e-10,0.0,0.0,0.0,1.4400000000000002e-10,0.0,0.0,0.0,1.0,2
2025/04/05 15:42:02.224123596,1743860522,196027993,mA1/gps,0,1,63.43649523869493,10.393075454232225,0.0,1.4400000000000002e-10,0.0,0.0,0.0,1.4400000000000002e-10,0.0,0.0,0.0,1.0,2
2025/04/05 15:42:02.318545669,1743860522,248878970,mA1/gps,0,1,63.43649524067875,10.393075423402793,0.0,1.4400000000000002e-10,0.0,0.0,0.0,1.4400000000000002e-10,0.0,0.0,0.0,1.0,2
2025/04/05 15:42:02.318639210,1743860522,299819524,mA1/gps,0,1,63.43649524342494,10.393075410376401,0.0,1.4400000000000002e-10,0.0,0.0,0.0,1.4400000000000002e-10,0.0,0.0,0.0,1.0,2
2025/04/05 15:42:02.367311272,1743860522,344876043,mA1/gps,0,1,63.43649524541375,10.393075416342445,0.0,1.4400000000000002e-10,0.0,0.0,0.0,1.4400000000000002e-10,0.0,0.0,0.0,1.0,2
2025/04/05 15:42:02.396957173,1743860522,394617719,mA1/gps,0,1,63.43649524646121,10.393075441792,0.0,1.4400000000000002e-10,0.0,0.0,0.0,1.4400000000000002e-10,0.0,0.0,0.0,1.0,2
2025/04/05 15:42:02.448218388,1743860522,446856869,mA1/gps,0,1,63.43649524841633,10.393075484235437,0.0,1.4400000000000002e-10,0.0,0.0,0.0,1.4400000000000002e-10,0.0,0.0,0.0,1.0,2
2025/04/05 15:42:02.497969011,1743860522,496653319,mA1/gps,0,1,63.43649524951258,10.393075541270068,0.0,1.4400000000000002e-10,0.0,0.0,0.0,1.4400000000000002e-10,0.0,0.0,0.0,1.0,2
2025/04/05 15:42:02.548260123,1743860522,547600369,mA1/gps,0,1,63.436495249896566,10.393075610453762,0.0,1.4400000000000002e-10,0.0,0.0,0.0,1.4400000000000002e-10,0.0,0.0,0.0,1.0,2
2025/04/05 15:42:02.603338255,1743860522,599149167,mA1/gps,0,1,63.43649525220619,10.393075686047412,0.0,1.4400000000000002e-10,0.0,0.0,0.0,1.4400000000000002e-10,0.0,0.0,0.0,1.0,2
2025/04/05 15:42:02.650976852,1743860522,650204481,mA1/gps,0,1,63.43649525334875,10.393075763614977,0.0,1.4400000000000002e-10,0.0,0.0,0.0,1.4400000000000002e-10,0.0,0.0,0.0,1.0,2
2025/04/05 15:42:02.694170784,1743860522,693182458,mA1/gps,0,1,63.436495254164825,10.393075839816545,0.0,1.4400000000000002e-10,0.0,0.0,0.0,1.4400000000000002e-10,0.0,0.0,0.0,1.0,2
2025/04/05 15:42:02.746921180,1743860522,746189712,mA1/gps,0,1,63.43649525388257,10.39307590991077,0.0,1.4400000000000002e-10,0.0,0.0,0.0,1.4400000000000002e-10,0.0,0.0,0.0,1.0,2
2025/04/05 15:42:02.797014554,1743860522,796180239,mA1/gps,0,1,63.43649525401637,10.393075971051859,0.0,1.4400000000000002e-10,0.0,0.0,0.0,1.4400000000000002e-10,0.0,0.0,0.0,1.0,2
2025/04/05 15:42:02.850631085,1743860522,849223461,mA1/gps,0,1,63.436495254962956,10.393076020707278,0.0,1.4400000000000002e-10,0.0,0.0,0.0,1.4400000000000002e-10,0.0,0.0,0.0,1.0,2
2025/04/05 15:42:02.893578673,1743860522,890929662,mA1/gps,0,1,63.43649525723624,10.393076056912124,0.0,1.4400000000000002e-10,0.0,0.0,0.0,1.4400000000000002e-10,0.0,0.0,0.0,1.0,2
2025/04/05 15:42:02.945939423,1743860522,944629322,mA1/gps,0,1,63.43649525863527,10.393076078207928,0.0,1.4400000000000002e-10,0.0,0.0,0.0,1.4400000000000002e-10,0.0,0.0,0.0,1.0,2
2025/04/05 15:42:02.999327477,1743860522,996462607,mA1/gps,0,1,63.436495258787275,10.393076084307072,0.0,1.4400000000000002e-10,0.0,0.0,0.0,1.4400000000000002e-10,0.0,0.0,0.0,1.0,2
2025/04/05 15:42:03.56453614,1743860523,51340599,mA1/gps,0,1,63.4364952598607,10.39307607681213,0.0,1.4400000000000002e-10,0.0,0.0,0.0,1.4400000000000002e-10,0.0,0.0,0.0,1.0,2
2025/04/05 15:42:03.94692491,1743860523,91318304,mA1/gps,0,1,63.43649526116108,10.393076058269095,0.0,1.4400000000000002e-10,0.0,0.0,0.0,1.4400000000000002e-10,0.0,0.0,0.0,1.0,2
2025/04/05 15:42:03.144349178,1743860523,142892730,mA1/gps,0,1,63.43649526295608,10.393076028766805,0.0,1.4400000000000002e-10,0.0,0.0,0.0,1.4400000000000002e-10,0.0,0.0,0.0,1.0,2
2025/04/05 15:42:03.195716408,1743860523,193527645,mA1/gps,0,1,63.43649526640407,10.393075990113129,0.0,1.4400000000000002e-10,0.0,0.0,0.0,1.4400000000000002e-10,0.0,0.0,0.0,1.0,2
2025/04/05 15:42:03.246274949,1743860523,245211058,mA1/gps,0,1,63.43649526886116,10.393075945532251,0.0,1.4400000000000002e-10,0.0,0.0,0.0,1.4400000000000002e-10,0.0,0.0,0.0,1.0,2
2025/04/05 15:42:03.298649455,1743860523,296063289,mA1/gps,0,1,63.43649526996929,10.393075897812482,0.0,1.4400000000000002e-10,0.0,0.0,0.0,1.4400000000000002e-10,0.0,0.0,0.0,1.0,2
2025/04/05 15:42:03.347532697,1743860523,346967967,mA1/gps,0,1,63.4364952711901,10.393075850350865,0.0,1.4400000000000002e-10,0.0,0.0,0.0,1.4400000000000002e-10,0.0,0.0,0.0,1.0,2
2025/04/05 15:42:03.398140592,1743860523,397377294,mA1/gps,0,1,63.436495273375385,10.393075808013867,0.0,1.4400000000000002e-10,0.0,0.0,0.0,1.4400000000000002e-10,0.0,0.0,0.0,1.0,2
2025/04/05 15:42:03.449178457,1743860523,448281401,mA1/gps,0,1,63.436495275040365,10.393075775222572,0.0,1.4400000000000002e-10,0.0,0.0,0.0,1.4400000000000002e-10,0.0,0.0,0.0,1.0,2
2025/04/05 15:42:03.500518047,1743860523,498127058,mA1/gps,0,1,63.43649527685897,10.393075752344034,0.0,1.4400000000000002e-10,0.0,0.0,0.0,1.4400000000000002e-10,0.0,0.0,0.0,1.0,2
2025/04/05 15:42:03.549861766,1743860523,549073270,mA1/gps,0,1,63.436495278442315,10.393075740755018,0.0,1.4400000000000002e-10,0.0,0.0,0.0,1.4400000000000002e-10,0.0,0.0,0.0,1.0,2
2025/04/05 15:42:03.600558151,1743860523,599384572,mA1/gps,0,1,63.43649527946418,10.393075741424965,0.0,1.4400000000000002e-10,0.0,0.0,0.0,1.4400000000000002e-10,0.0,0.0,0.0,1.0,2
2025/04/05 15:42:03.643409388,1743860523,642706364,mA1/gps,0,1,63.43649527916147,10.393075756947848,0.0,1.4400000000000002e-10,0.0,0.0,0.0,1.4400000000000002e-10,0.0,0.0,0.0,1.0,2
2025/04/05 15:42:03.693269004,1743860523,691786946,mA1/gps,0,1,63.436495278718354,10.393075785342425,0.0,1.4400000000000002e-10,0.0,0.0,0.0,1.4400000000000002e-10,0.0,0.0,0.0,1.0,2
2025/04/05 15:42:03.746345959,1743860523,743235455,mA1/gps,0,1,63.43649527910003,10.393075825890442,0.0,1.4400000000000002e-10,0.0,0.0,0.0,1.4400000000000002e-10,0.0,0.0,0.0,1.0,2
2025/04/05 15:42:03.793916599,1743860523,792791372,mA1/gps,0,1,63.43649528029764,10.393075873949307,0.0,1.4400000000000002e-10,0.0,0.0,0.0,1.4400000000000002e-10,0.0,0.0,0.0,1.0,2
2025/04/05 15:42:03.844560426,1743860523,843765434,mA1/gps,0,1,63.43649528027251,10.393075926567006,0.0,1.4400000000000002e-10,0.0,0.0,0.0,1.4400000000000002e-10,0.0,0.0,0.0,1.0,2
2025/04/05 15:42:03.895066580,1743860523,893865867,mA1/gps,0,1,63.436495279186545,10.393075984357699,0.0,1.4400000000000002e-10,0.0,0.0,0.0,1.4400000000000002e-10,0.0,0.0,0.0,1.0,2
2025/04/05 15:42:03.945088200,1743860523,944540148,mA1/gps,0,1,63.436495277881065,10.39307604885627,0.0,1.4400000000000002e-10,0.0,0.0,0.0,1.4400000000000002e-10,0.0,0.0,0.0,1.0,2
2025/04/05 15:42:04.6873296,1743860524,1286397,mA1/gps,0,1,63.43649527754525,10.393076113082671,0.0,1.4400000000000002e-10,0.0,0.0,0.0,1.4400000000000002e-10,0.0,0.0,0.0,1.0,2
2025/04/05 15:42:04.45018257,1743860524,43526532,mA1/gps,0,1,63.436495277325726,10.393076168844537,0.0,1.4400000000000002e-10,0.0,0.0,0.0,1.4400000000000002e-10,0.0,0.0,0.0,1.0,2
2025/04/05 15:42:04.95469301,1743860524,94566613,mA1/gps,0,1,63.43649527782302,10.39307621290225,0.0,1.4400000000000002e-10,0.0,0.0,0.0,1.4400000000000002e-10,0.0,0.0,0.0,1.0,2
2025/04/05 15:42:04.150164443,1743860524,147123220,mA1/gps,0,1,63.43649527830584,10.393076243059374,0.0,1.4400000000000002e-10,0.0,0.0,0.0,1.4400000000000002e-10,0.0,0.0,0.0,1.0,2
2025/04/05 15:42:04.203641973,1743860524,201056163,mA1/gps,0,1,63.43649527958105,10.393076257413227,0.0,1.4400000000000002e-10,0.0,0.0,0.0,1.4400000000000002e-10,0.0,0.0,0.0,1.0,2
2025/04/05 15:42:04.244173471,1743860524,242168030,mA1/gps,0,1,63.43649527999975,10.39307625618551,0.0,1.4400000000000002e-10,0.0,0.0,0.0,1.4400000000000002e-10,0.0,0.0,0.0,1.0,2
2025/04/05 15:42:04.295460614,1743860524,294670544,mA1/gps,0,1,63.436495280226104,10.393076241151741,0.0,1.4400000000000002e-10,0.0,0.0,0.0,1.4400000000000002e-10,0.0,0.0,0.0,1.0,2
2025/04/05 15:42:04.348543357,1743860524,347480954,mA1/gps,0,1,63.43649528238389,10.393076213246076,0.0,1.4400000000000002e-10,0.0,0.0,0.0,1.4400000000000002e-10,0.0,0.0,0.0,1.0,2
2025/04/05 15:42:04.401141462,1743860524,398543842,mA1/gps,0,1,63.436495285897976,10.393076174663559,0.0,1.4400000000000002e-10,0.0,0.0,0.0,1.4400000000000002e-10,0.0,0.0,0.0,1.0,2
2025/04/05 15:42:04.452140054,1743860524,450473652,mA1/gps,0,1,63.43649528883448,10.393076129040837,0.0,1.4400000000000002e-10,0.0,0.0,0.0,1.4400000000000002e-10,0.0,0.0,0.0,1.0,2
2025/04/05 15:42:04.502560813,1743860524,500971836,mA1/gps,0,1,63.43649529111385,10.393076076559199,0.0,1.4400000000000002e-10,0.0,0.0,0.0,1.4400000000000002e-10,0.0,0.0,0.0,1.0,2
2025/04/05 15:42:04.547706029,1743860524,544980351,mA1/gps,0,1,63.43649529254946,10.393076022819773,0.0,1.4400000000000002e-10,0.0,0.0,0.0,1.4400000000000002e-10,0.0,0.0,0.0,1.0,2
2025/04/05 15:42:04.597058907,1743860524,595655880,mA1/gps,0,1,63.436495295415966,10.393075968060048,0.0,1.4400000000000002e-10,0.0,0.0,0.0,1.4400000000000002e-10,0.0,0.0,0.0,1.0,2
2025/04/05 15:42:04.647698365,1743860524,646791248,mA1/gps,0,1,63.43649529806012,10.393075914255688,0.0,1.4400000000000002e-10,0.0,0.0,0.0,1.4400000000000002e-10,0.0,0.0,0.0,1.0,2
2025/04/05 15:42:04.701295077,1743860524,697908169,mA1/gps,0,1,63.43649530196489,10.393075863703594,0.0,1.4400000000000002e-10,0.0,0.0,0.0,1.4400000000000002e-10,0.0,0.0,0.0,1.0,2
2025/04/05 15:42:04.749686971,1743860524,748839501,mA1/gps,0,1,63.43649530402988,10.393075820095124,0.0,1.4400000000000002e-10,0.0,0.0,0.0,1.4400000000000002e-10,0.0,0.0,0.0,1.0,2
2025/04/05 15:42:04.800676619,1743860524,798916797,mA1/gps,0,1,63.43649530732549,10.393075785793009,0.0,1.4400000000000002e-10,0.0,0.0,0.0,1.4400000000000002e-10,0.0,0.0,0.0,1.0,2
2025/04/05 15:42:04.850410920,1743860524,849593788,mA1/gps,0,1,63.436495309954346,10.393075763247875,0.0,1.4400000000000002e-10,0.0,0.0,0.0,1.4400000000000002e-10,0.0,0.0,0.0,1.0,2
2025/04/05 15:42:04.902125224,1743860524,899374869,mA1/gps,0,1,63.43649531156316,10.393075753727695,0.0,1.4400000000000002e-10,0.0,0.0,0.0,1.4400000000000002e-10,0.0,0.0,0.0,1.0,2
2025/04/05 15:42:04.949756487,1743860524,943555282,mA1/gps,0,1,63.43649531384292,10.393075757648917,0.0,1.4400000000000002e-10,0.0,0.0,0.0,1.4400000000000002e-10,0.0,0.0,0.0,1.0,2
2025/04/05 15:42:04.996103164,1743860524,994493371,mA1/gps,0,1,63.43649531533251,10.39307577610569,0.0,1.4400000000000002e-10,0.0,0.0,0.0,1.4400000000000002e-10,0.0,0.0,0.0,1.0,2
2025/04/05 15:42:05.46085333,1743860525,45226115,mA1/gps,0,1,63.4364953180634,10.39307580880814,0.0,1.4400000000000002e-10,0.0,0.0,0.0,1.4400000000000002e-10,0.0,0.0,0.0,1.0,2
2025/04/05 15:42:05.102657125,1743860525,97591626,mA1/gps,0,1,63.436495321734995,10.393075854021877,0.0,1.4400000000000002e-10,0.0,0.0,0.0,1.4400000000000002e-10,0.0,0.0,0.0,1.0,2
2025/04/05 15:42:05.151498725,1743860525,149456744,mA1/gps,0,1,63.43649532566455,10.393075910388358,0.0,1.4400000000000002e-10,0.0,0.0,0.0,1.4400000000000002e-10,0.0,0.0,0.0,1.0,2
2025/04/05 15:42:05.201655207,1743860525,199892409,mA1/gps,0,1,63.43649532955985,10.393075974306228,0.0,1.4400000000000002e-10,0.0,0.0,0.0,1.4400000000000002e-10,0.0,0.0,0.0,1.0,2
2025/04/05 15:42:05.243496506,1743860525,240993019,mA1/gps,0,1,63.436495335019416,10.393076042646637,0.0,1.4400000000000002e-10,0.0,0.0,0.0,1.4400000000000002e-10,0.0,0.0,0.0,1.0,2
2025/04/05 15:42:05.296083214,1743860525,293718635,mA1/gps,0,1,63.43649534114828,10.393076111471979,0.0,1.4400000000000002e-10,0.0,0.0,0.0,1.4400000000000002e-10,0.0,0.0,0.0,1.0,2
2025/04/05 15:42:05.346455588,1743860525,345194948,mA1/gps,0,1,63.43649535071928,10.39307617873516,0.0,1.4400000000000002e-10,0.0,0.0,0.0,1.4400000000000002e-10,0.0,0.0,0.0,1.0,2
2025/04/05 15:42:05.395877355,1743860525,395033861,mA1/gps,0,1,63.436495360872804,10.393076240778688,0.0,1.4400000000000002e-10,0.0,0.0,0.0,1.4400000000000002e-10,0.0,0.0,0.0,1.0,2
2025/04/05 15:42:05.448184685,1743860525,446868511,mA1/gps,0,1,63.436495371063,10.393076293561187,0.0,1.4400000000000002e-10,0.0,0.0,0.0,1.4400000000000002e-10,0.0,0.0,0.0,1.0,2
2025/04/05 15:42:05.500924138,1743860525,499990642,mA1/gps,0,1,63.43649538616273,10.393076335961203,0.0,1.4400000000000002e-10,0.0,0.0,0.0,1.4400000000000002e-10,0.0,0.0,0.0,1.0,2
2025/04/05 15:42:05.552182009,1743860525,549761202,mA1/gps,0,1,63.43649540264158,10.393076367291547,0.0,1.4400000000000002e-10,0.0,0.0,0.0,1.4400000000000002e-10,0.0,0.0,0.0,1.0,2
2025/04/05 15:42:05.596609377,1743860525,591039519,mA1/gps,0,1,63.436495422297924,10.3930763856846,0.0,1.4400000000000002e-10,0.0,0.0,0.0,1.4400000000000002e-10,0.0,0.0,0.0,1.0,2
2025/04/05 15:42:05.644519177,1743860525,642118509,mA1/gps,0,1,63.43649544370896,10.393076390901237,0.0,1.4400000000000002e-10,0.0,0.0,0.0,1.4400000000000002e-10,0.0,0.0,0.0,1.0,2
2025/04/05 15:42:05.693429460,1743860525,692217050,mA1/gps,0,1,63.436495466523816,10.393076386336773,0.0,1.4400000000000002e-10,0.0,0.0,0.0,1.4400000000000002e-10,0.0,0.0,0.0,1.0,2
2025/04/05 15:42:05.744955908,1743860525,743332132,mA1/gps,0,1,63.43649549330857,10.393076373849182,0.0,1.4400000000000002e-10,0.0,0.0,0.0,1.4400000000000002e-10,0.0,0.0,0.0,1.0,2
2025/04/05 15:42:05.796631177,1743860525,794411306,mA1/gps,0,1,63.43649552166164,10.39307635605264,0.0,1.4400000000000002e-10,0.0,0.0,0.0,1.4400000000000002e-10,0.0,0.0,0.0,1.0,2
2025/04/05 15:42:05.845399859,1743860525,844299403,mA1/gps,0,1,63.43649555323696,10.39307633540526,0.0,1.4400000000000002e-10,0.0,0.0,0.0,1.4400000000000002e-10,0.0,0.0,0.0,1.0,2
2025/04/05 15:42:05.896305412,1743860525,894390376,mA1/gps,0,1,63.43649558812339,10.393076315370402,0.0,1.4400000000000002e-10,0.0,0.0,0.0,1.4400000000000002e-10,0.0,0.0,0.0,1.0,2
2025/04/05 15:42:05.947196006,1743860525,945406477,mA1/gps,0,1,63.43649562169011,10.393076298367124,0.0,1.4400000000000002e-10,0.0,0.0,0.0,1.4400000000000002e-10,0.0,0.0,0.0,1.0,2
2025/04/05 15:42:05.999800327,1743860525,998724573,mA1/gps,0,1,63.43649566040026,10.393076285746991,0.0,1.4400000000000002e-10,0.0,0.0,0.0,1.4400000000000002e-10,0.0,0.0,0.0,1.0,2
2025/04/05 15:42:06.50906650,1743860526,49117300,mA1/gps,0,1,63.43649569990755,10.393076281488463,0.0,1.4400000000000002e-10,0.0,0.0,0.0,1.4400000000000002e-10,0.0,0.0,0.0,1.0,2
2025/04/05 15:42:06.101675199,1743860526,99454838,mA1/gps,0,1,63.436495740111816,10.393076286778099,0.0,1.4400000000000002e-10,0.0,0.0,0.0,1.4400000000000002e-10,0.0,0.0,0.0,1.0,2
2025/04/05 15:42:06.151260769,1743860526,149857698,mA1/gps,0,1,63.43649578286246,10.393076302214066,0.0,1.4400000000000002e-10,0.0,0.0,0.0,1.4400000000000002e-10,0.0,0.0,0.0,1.0,2
2025/04/05 15:42:06.203493005,1743860526,201470774,mA1/gps,0,1,63.436495827074424,10.39307632960165,0.0,1.4400000000000002e-10,0.0,0.0,0.0,1.4400000000000002e-10,0.0,0.0,0.0,1.0,2
2025/04/05 15:42:06.242091299,1743860526,241358120,mA1/gps,0,1,63.436495873347816,10.39307636778119,0.0,1.4400000000000002e-10,0.0,0.0,0.0,1.4400000000000002e-10,0.0,0.0,0.0,1.0,2
2025/04/05 15:42:06.293348221,1743860526,291719053,mA1/gps,0,1,63.43649591903696,10.393076416499909,0.0,1.4400000000000002e-10,0.0,0.0,0.0,1.4400000000000002e-10,0.0,0.0,0.0,1.0,2
2025/04/05 15:42:06.343271840,1743860526,342591917,mA1/gps,0,1,63.436495964357995,10.393076473564491,0.0,1.4400000000000002e-10,0.0,0.0,0.0,1.4400000000000002e-10,0.0,0.0,0.0,1.0,2
2025/04/05 15:42:06.393401419,1743860526,392442194,mA1/gps,0,1,63.43649601322366,10.39307653792206,0.0,1.4400000000000002e-10,0.0,0.0,0.0,1.4400000000000002e-10,0.0,0.0,0.0,1.0,2
2025/04/05 15:42:06.444476303,1743860526,443497517,mA1/gps,0,1,63.43649606234907,10.393076607129045,0.0,1.4400000000000002e-10,0.0,0.0,0.0,1.4400000000000002e-10,0.0,0.0,0.0,1.0,2
2025/04/05 15:42:06.496870886,1743860526,494054081,mA1/gps,0,1,63.43649611167179,10.39307667840547,0.0,1.4400000000000002e-10,0.0,0.0,0.0,1.4400000000000002e-10,0.0,0.0,0.0,1.0,2
2025/04/05 15:42:06.545112192,1743860526,544191652,mA1/gps,0,1,63.43649616222546,10.393076749435314,0.0,1.4400000000000002e-10,0.0,0.0,0.0,1.4400000000000002e-10,0.0,0.0,0.0,1.0,2
2025/04/05 15:42:06.598001774,1743860526,596537962,mA1/gps,0,1,63.436496214201405,10.393076817444236,0.0,1.4400000000000002e-10,0.0,0.0,0.0,1.4400000000000002e-10,0.0,0.0,0.0,1.0,2
2025/04/05 15:42:06.648495872,1743860526,647528729,mA1/gps,0,1,63.43649626607861,10.393076880849032,0.0,1.4400000000000002e-10,0.0,0.0,0.0,1.4400000000000002e-10,0.0,0.0,0.0,1.0,2
2025/04/05 15:42:06.700968275,1743860526,698756314,mA1/gps,0,1,63.43649631971293,10.393076936711756,0.0,1.4400000000000002e-10,0.0,0.0,0.0,1.4400000000000002e-10,0.0,0.0,0.0,1.0,2
2025/04/05 15:42:06.749134981,1743860526,748031653,mA1/gps,0,1,63.43649637382693,10.393076983437435,0.0,1.4400000000000002e-10,0.0,0.0,0.0,1.4400000000000002e-10,0.0,0.0,0.0,1.0,2
2025/04/05 15:42:06.799461997,1743860526,798592473,mA1/gps,0,1,63.43649642949074,10.393077022076767,0.0,1.4400000000000002e-10,0.0,0.0,0.0,1.4400000000000002e-10,0.0,0.0,0.0,1.0,2
2025/04/05 15:42:06.850240199,1743860526,849489386,mA1/gps,0,1,63.43649648664996,10.39307704988899,0.0,1.4400000000000002e-10,0.0,0.0,0.0,1.4400000000000002e-10,0.0,0.0,0.0,1.0,2
2025/04/05 15:42:06.900816697,1743860526,900225062,mA1/gps,0,1,63.436496546340656,10.39307706929813,0.0,1.4400000000000002e-10,0.0,0.0,0.0,1.4400000000000002e-10,0.0,0.0,0.0,1.0,2
2025/04/05 15:42:06.943847615,1743860526,942858709,mA1/gps,0,1,63.43649660697006,10.393077079243653,0.0,1.4400000000000002e-10,0.0,0.0,0.0,1.4400000000000002e-10,0.0,0.0,0.0,1.0,2
2025/04/05 15:42:06.993873935,1743860526,992560065,mA1/gps,0,1,63.436496668746,10.393077082256234,0.0,1.4400000000000002e-10,0.0,0.0,0.0,1.4400000000000002e-10,0.0,0.0,0.0,1.0,2
2025/04/05 15:42:07.45660546,1743860527,44256697,mA1/gps,0,1,63.43649673412442,10.393077079252206,0.0,1.4400000000000002e-10,0.0,0.0,0.0,1.4400000000000002e-10,0.0,0.0,0.0,1.0,2
2025/04/05 15:42:07.96292326,1743860527,95040346,mA1/gps,0,1,63.43649679976625,10.39307707130037,0.0,1.4400000000000002e-10,0.0,0.0,0.0,1.4400000000000002e-10,0.0,0.0,0.0,1.0,2
2025/04/05 15:42:07.147691453,1743860527,146063111,mA1/gps,0,1,63.436496868433295,10.393077059704734,0.0,1.4400000000000002e-10,0.0,0.0,0.0,1.4400000000000002e-10,0.0,0.0,0.0,1.0,2
2025/04/05 15:42:07.199819186,1743860527,198166356,mA1/gps,0,1,63.436496939448894,10.393077047839276,0.0,1.4400000000000002e-10,0.0,0.0,0.0,1.4400000000000002e-10,0.0,0.0,0.0,1.0,2
2025/04/05 15:42:07.251154219,1743860527,248498382,mA1/gps,0,1,63.43649701209995,10.393077035280362,0.0,1.4400000000000002e-10,0.0,0.0,0.0,1.4400000000000002e-10,0.0,0.0,0.0,1.0,2
2025/04/05 15:42:07.300569250,1743860527,299089220,mA1/gps,0,1,63.436497085880994,10.393077024720096,0.0,1.4400000000000002e-10,0.0,0.0,0.0,1.4400000000000002e-10,0.0,0.0,0.0,1.0,2
2025/04/05 15:42:07.350588480,1743860527,349896965,mA1/gps,0,1,63.43649716234577,10.393077016449102,0.0,1.4400000000000002e-10,0.0,0.0,0.0,1.4400000000000002e-10,0.0,0.0,0.0,1.0,2
2025/04/05 15:42:07.399539350,1743860527,398649091,mA1/gps,0,1,63.43649724064426,10.393077012335086,0.0,1.4400000000000002e-10,0.0,0.0,0.0,1.4400000000000002e-10,0.0,0.0,0.0,1.0,2
2025/04/05 15:42:07.451766487,1743860527,449843115,mA1/gps,0,1,63.43649732070891,10.39307701342768,0.0,1.4400000000000002e-10,0.0,0.0,0.0,1.4400000000000002e-10,0.0,0.0,0.0,1.0,2
2025/04/05 15:42:07.503696496,1743860527,501016504,mA1/gps,0,1,63.436497402987044,10.393077019061835,0.0,1.4400000000000002e-10,0.0,0.0,0.0,1.4400000000000002e-10,0.0,0.0,0.0,1.0,2
2025/04/05 15:42:07.544387821,1743860527,541012365,mA1/gps,0,1,63.43649748539349,10.393077032118992,0.0,1.4400000000000002e-10,0.0,0.0,0.0,1.4400000000000002e-10,0.0,0.0,0.0,1.0,2
2025/04/05 15:42:07.592277437,1743860527,590984701,mA1/gps,0,1,63.436497569272795,10.393077051826939,0.0,1.4400000000000002e-10,0.0,0.0,0.0,1.4400000000000002e-10,0.0,0.0,0.0,1.0,2
2025/04/05 15:42:07.643214917,1743860527,642222140,mA1/gps,0,1,63.43649765499725,10.393077077121283,0.0,1.4400000000000002e-10,0.0,0.0,0.0,1.4400000000000002e-10,0.0,0.0,0.0,1.0,2
2025/04/05 15:42:07.693710385,1743860527,692151630,mA1/gps,0,1,63.436497741892495,10.393077109122391,0.0,1.4400000000000002e-10,0.0,0.0,0.0,1.4400000000000002e-10,0.0,0.0,0.0,1.0,2
2025/04/05 15:42:07.743816566,1743860527,743034990,mA1/gps,0,1,63.43649782836991,10.39307714541582,0.0,1.4400000000000002e-10,0.0,0.0,0.0,1.4400000000000002e-10,0.0,0.0,0.0,1.0,2
2025/04/05 15:42:07.795349058,1743860527,792922244,mA1/gps,0,1,63.43649791769557,10.393077184445595,0.0,1.4400000000000002e-10,0.0,0.0,0.0,1.4400000000000002e-10,0.0,0.0,0.0,1.0,2
2025/04/05 15:42:07.844848240,1743860527,843814626,mA1/gps,0,1,63.43649800552856,10.393077223588032,0.0,1.4400000000000002e-10,0.0,0.0,0.0,1.4400000000000002e-10,0.0,0.0,0.0,1.0,2
2025/04/05 15:42:07.896275850,1743860527,894380181,mA1/gps,0,1,63.43649809485429,10.393077262964546,0.0,1.4400000000000002e-10,0.0,0.0,0.0,1.4400000000000002e-10,0.0,0.0,0.0,1.0,2
2025/04/05 15:42:07.946195806,1743860527,945276433,mA1/gps,0,1,63.43649818514787,10.39307729959832,0.0,1.4400000000000002e-10,0.0,0.0,0.0,1.4400000000000002e-10,0.0,0.0,0.0,1.0,2
2025/04/05 15:42:07.998339896,1743860527,996219271,mA1/gps,0,1,63.43649827638027,10.393077333511297,0.0,1.4400000000000002e-10,0.0,0.0,0.0,1.4400000000000002e-10,0.0,0.0,0.0,1.0,2
2025/04/05 15:42:08.48855127,1743860528,47199875,mA1/gps,0,1,63.43649836634407,10.39307736259688,0.0,1.4400000000000002e-10,0.0,0.0,0.0,1.4400000000000002e-10,0.0,0.0,0.0,1.0,2
2025/04/05 15:42:08.101666771,1743860528,98180322,mA1/gps,0,1,63.43649845883601,10.393077384405501,0.0,1.4400000000000002e-10,0.0,0.0,0.0,1.4400000000000002e-10,0.0,0.0,0.0,1.0,2
2025/04/05 15:42:08.151163330,1743860528,149215628,mA1/gps,0,1,63.43649855092225,10.393077399453318,0.0,1.4400000000000002e-10,0.0,0.0,0.0,1.4400000000000002e-10,0.0,0.0,0.0,1.0,2
2025/04/05 15:42:08.200671151,1743860528,199421662,mA1/gps,0,1,63.43649864443992,10.393077406858133,0.0,1.4400000000000002e-10,0.0,0.0,0.0,1.4400000000000002e-10,0.0,0.0,0.0,1.0,2
2025/04/05 15:42:08.251253583,1743860528,250249447,mA1/gps,0,1,63.43649873793303,10.393077406877994,0.0,1.4400000000000002e-10,0.0,0.0,0.0,1.4400000000000002e-10,0.0,0.0,0.0,1.0,2
2025/04/05 15:42:08.304295783,1743860528,300102990,mA1/gps,0,1,63.4364988330859,10.393077400876065,0.0,1.4400000000000002e-10,0.0,0.0,0.0,1.4400000000000002e-10,0.0,0.0,0.0,1.0,2
2025/04/05 15:42:08.341520168,1743860528,340989226,mA1/gps,0,1,63.436498929133364,10.393077388211436,0.0,1.4400000000000002e-10,0.0,0.0,0.0,1.4400000000000002e-10,0.0,0.0,0.0,1.0,2
2025/04/05 15:42:08.393155010,1743860528,390823563,mA1/gps,0,1,63.43649902593267,10.393077371586687,0.0,1.4400000000000002e-10,0.0,0.0,0.0,1.4400000000000002e-10,0.0,0.0,0.0,1.0,2
2025/04/05 15:42:08.443096723,1743860528,441771806,mA1/gps,0,1,63.436499125478356,10.393077351895586,0.0,1.4400000000000002e-10,0.0,0.0,0.0,1.4400000000000002e-10,0.0,0.0,0.0,1.0,2
2025/04/05 15:42:08.493950057,1743860528,492188087,mA1/gps,0,1,63.43649922535539,10.393077330496792,0.0,1.4400000000000002e-10,0.0,0.0,0.0,1.4400000000000002e-10,0.0,0.0,0.0,1.0,2
2025/04/05 15:42:08.544724864,1743860528,543121636,mA1/gps,0,1,63.436499326970754,10.393077309482795,0.0,1.4400000000000002e-10,0.0,0.0,0.0,1.4400000000000002e-10,0.0,0.0,0.0,1.0,2
2025/04/05 15:42:08.595312566,1743860528,594068104,mA1/gps,0,1,63.43649942907662,10.393077290471984,0.0,1.4400000000000002e-10,0.0,0.0,0.0,1.4400000000000002e-10,0.0,0.0,0.0,1.0,2
2025/04/05 15:42:08.645694678,1743860528,644867810,mA1/gps,0,1,63.43649953431175,10.393077274461836,0.0,1.4400000000000002e-10,0.0,0.0,0.0,1.4400000000000002e-10,0.0,0.0,0.0,1.0,2
2025/04/05 15:42:08.697106622,1743860528,694920509,mA1/gps,0,1,63.436499639643756,10.393077262871426,0.0,1.4400000000000002e-10,0.0,0.0,0.0,1.4400000000000002e-10,0.0,0.0,0.0,1.0,2
2025/04/05 15:42:08.746042748,1743860528,744913538,mA1/gps,0,1,63.43649974735691,10.393077256667034,0.0,1.4400000000000002e-10,0.0,0.0,0.0,1.4400000000000002e-10,0.0,0.0,0.0,1.0,2
2025/04/05 15:42:08.800450349,1743860528,799651244,mA1/gps,0,1,63.43649985578359,10.393077257231178,0.0,1.4400000000000002e-10,0.0,0.0,0.0,1.4400000000000002e-10,0.0,0.0,0.0,1.0,2
2025/04/05 15:42:08.850289262,1743860528,848812745,mA1/gps,0,1,63.436499965719136,10.393077263399226,0.0,1.4400000000000002e-10,0.0,0.0,0.0,1.4400000000000002e-10,0.0,0.0,0.0,1.0,2
2025/04/05 15:42:08.901370604,1743860528,898937520,mA1/gps,0,1,63.43650007830843,10.393077275325515,0.0,1.4400000000000002e-10,0.0,0.0,0.0,1.4400000000000002e-10,0.0,0.0,0.0,1.0,2
2025/04/05 15:42:08.951162047,1743860528,949782832,mA1/gps,0,1,63.436500189875744,10.393077292367199,0.0,1.4400000000000002e-10,0.0,0.0,0.0,1.4400000000000002e-10,0.0,0.0,0.0,1.0,2
2025/04/05 15:42:09.1661119,1743860528,999670795,mA1/gps,0,1,63.43650030322129,10.39307731535925,0.0,1.4400000000000002e-10,0.0,0.0,0.0,1.4400000000000002e-10,0.0,0.0,0.0,1.0,2
2025/04/05 15:42:09.42501248,1743860529,41277512,mA1/gps,0,1,63.43650041783134,10.393077342118623,0.0,1.4400000000000002e-10,0.0,0.0,0.0,1.4400000000000002e-10,0.0,0.0,0.0,1.0,2
2025/04/05 15:42:09.96647234,1743860529,91806559,mA1/gps,0,1,63.43650053362372,10.39307736936728,0.0,1.4400000000000002e-10,0.0,0.0,0.0,1.4400000000000002e-10,0.0,0.0,0.0,1.0,2
2025/04/05 15:42:09.145456933,1743860529,144461321,mA1/gps,0,1,63.43650064830084,10.393077397949893,0.0,1.4400000000000002e-10,0.0,0.0,0.0,1.4400000000000002e-10,0.0,0.0,0.0,1.0,2
2025/04/05 15:42:09.194706388,1743860529,194092105,mA1/gps,0,1,63.436500764252706,10.393077424964604,0.0,1.4400000000000002e-10,0.0,0.0,0.0,1.4400000000000002e-10,0.0,0.0,0.0,1.0,2
2025/04/05 15:42:09.246926791,1743860529,245029693,mA1/gps,0,1,63.436500881180635,10.393077449468931,0.0,1.4400000000000002e-10,0.0,0.0,0.0,1.4400000000000002e-10,0.0,0.0,0.0,1.0,2
2025/04/05 15:42:09.300094753,1743860529,297269898,mA1/gps,0,1,63.436500997944805,10.393077470784196,0.0,1.4400000000000002e-10,0.0,0.0,0.0,1.4400000000000002e-10,0.0,0.0,0.0,1.0,2
2025/04/05 15:42:09.349604734,1743860529,348062007,mA1/gps,0,1,63.43650111495215,10.39307748820737,0.0,1.4400000000000002e-10,0.0,0.0,0.0,1.4400000000000002e-10,0.0,0.0,0.0,1.0,2
2025/04/05 15:42:09.405137925,1743860529,400127934,mA1/gps,0,1,63.43650123212946,10.3930775021622,0.0,1.4400000000000002e-10,0.0,0.0,0.0,1.4400000000000002e-10,0.0,0.0,0.0,1.0,2
2025/04/05 15:42:09.441845868,1743860529,441253437,mA1/gps,0,1,63.436501349792714,10.393077510446368,0.0,1.4400000000000002e-10,0.0,0.0,0.0,1.4400000000000002e-10,0.0,0.0,0.0,1.0,2
2025/04/05 15:42:09.493073506,1743860529,490889799,mA1/gps,0,1,63.43650146652732,10.393077512261824,0.0,1.4400000000000002e-10,0.0,0.0,0.0,1.4400000000000002e-10,0.0,0.0,0.0,1.0,2
2025/04/05 15:42:09.542945143,1743860529,541970350,mA1/gps,0,1,63.436501584459634,10.393077508464472,0.0,1.4400000000000002e-10,0.0,0.0,0.0,1.4400000000000002e-10,0.0,0.0,0.0,1.0,2
2025/04/05 15:42:09.593384297,1743860529,592037418,mA1/gps,0,1,63.436501701541545,10.393077501009328,0.0,1.4400000000000002e-10,0.0,0.0,0.0,1.4400000000000002e-10,0.0,0.0,0.0,1.0,2
2025/04/05 15:42:09.646495135,1743860529,643990054,mA1/gps,0,1,63.436501819654026,10.393077489541387,0.0,1.4400000000000002e-10,0.0,0.0,0.0,1.4400000000000002e-10,0.0,0.0,0.0,1.0,2
2025/04/05 15:42:09.695529291,1743860529,693697271,mA1/gps,0,1,63.436501939082184,10.393077476035902,0.0,1.4400000000000002e-10,0.0,0.0,0.0,1.4400000000000002e-10,0.0,0.0,0.0,1.0,2
2025/04/05 15:42:09.748206552,1743860529,746341213,mA1/gps,0,1,63.43650205941966,10.39307746181456,0.0,1.4400000000000002e-10,0.0,0.0,0.0,1.4400000000000002e-10,0.0,0.0,0.0,1.0,2
2025/04/05 15:42:09.797661163,1743860529,796516446,mA1/gps,0,1,63.436502179003774,10.393077447398449,0.0,1.4400000000000002e-10,0.0,0.0,0.0,1.4400000000000002e-10,0.0,0.0,0.0,1.0,2
2025/04/05 15:42:09.849045402,1743860529,847975195,mA1/gps,0,1,63.43650229960892,10.393077434049037,0.0,1.4400000000000002e-10,0.0,0.0,0.0,1.4400000000000002e-10,0.0,0.0,0.0,1.0,2
2025/04/05 15:42:09.899131355,1743860529,897921510,mA1/gps,0,1,63.436502421803404,10.393077422974539,0.0,1.4400000000000002e-10,0.0,0.0,0.0,1.4400000000000002e-10,0.0,0.0,0.0,1.0,2
2025/04/05 15:42:09.949709989,1743860529,948824736,mA1/gps,0,1,63.43650254568398,10.393077414988905,0.0,1.4400000000000002e-10,0.0,0.0,0.0,1.4400000000000002e-10,0.0,0.0,0.0,1.0,2
2025/04/05 15:42:10.421836,1743860529,999711773,mA1/gps,0,1,63.43650266929544,10.393077410896897,0.0,1.4400000000000002e-10,0.0,0.0,0.0,1.4400000000000002e-10,0.0,0.0,0.0,1.0,2
2025/04/05 15:42:10.52856607,1743860530,50800625,mA1/gps,0,1,63.43650279439211,10.393077410637547,0.0,1.4400000000000002e-10,0.0,0.0,0.0,1.4400000000000002e-10,0.0,0.0,0.0,1.0,2
2025/04/05 15:42:10.94031436,1743860530,90404743,mA1/gps,0,1,63.43650292136174,10.393077413009788,0.0,1.4400000000000002e-10,0.0,0.0,0.0,1.4400000000000002e-10,0.0,0.0,0.0,1.0,2
2025/04/05 15:42:10.144172347,1743860530,143472377,mA1/gps,0,1,63.43650304868322,10.393077418760948,0.0,1.4400000000000002e-10,0.0,0.0,0.0,1.4400000000000002e-10,0.0,0.0,0.0,1.0,2
2025/04/05 15:42:10.195085078,1743860530,193217709,mA1/gps,0,1,63.43650317805225,10.393077428927443,0.0,1.4400000000000002e-10,0.0,0.0,0.0,1.4400000000000002e-10,0.0,0.0,0.0,1.0,2
2025/04/05 15:42:10.248214426,1743860530,244195100,mA1/gps,0,1,63.43650330790589,10.393077442899592,0.0,1.4400000000000002e-10,0.0,0.0,0.0,1.4400000000000002e-10,0.0,0.0,0.0,1.0,2
2025/04/05 15:42:10.296500545,1743860530,295450341,mA1/gps,0,1,63.43650343880635,10.393077460691986,0.0,1.4400000000000002e-10,0.0,0.0,0.0,1.4400000000000002e-10,0.0,0.0,0.0,1.0,2
2025/04/05 15:42:10.346520663,1743860530,345586958,mA1/gps,0,1,63.436503571154,10.393077480704038,0.0,1.4400000000000002e-10,0.0,0.0,0.0,1.4400000000000002e-10,0.0,0.0,0.0,1.0,2
2025/04/05 15:42:10.396931790,1743860530,395909682,mA1/gps,0,1,63.43650370417537,10.393077501644248,0.0,1.4400000000000002e-10,0.0,0.0,0.0,1.4400000000000002e-10,0.0,0.0,0.0,1.0,2
2025/04/05 15:42:10.447588797,1743860530,446806363,mA1/gps,0,1,63.436503837016275,10.393077523151796,0.0,1.4400000000000002e-10,0.0,0.0,0.0,1.4400000000000002e-10,0.0,0.0,0.0,1.0,2
2025/04/05 15:42:10.500918831,1743860530,499863717,mA1/gps,0,1,63.43650397171223,10.393077544665728,0.0,1.4400000000000002e-10,0.0,0.0,0.0,1.4400000000000002e-10,0.0,0.0,0.0,1.0,2
2025/04/05 15:42:10.541922205,1743860530,541325343,mA1/gps,0,1,63.436504106677745,10.393077563848427,0.0,1.4400000000000002e-10,0.0,0.0,0.0,1.4400000000000002e-10,0.0,0.0,0.0,1.0,2
2025/04/05 15:42:10.596624822,1743860530,591631034,mA1/gps,0,1,63.43650424225811,10.393077580342561,0.0,1.4400000000000002e-10,0.0,0.0,0.0,1.4400000000000002e-10,0.0,0.0,0.0,1.0,2
2025/04/05 15:42:10.647565497,1743860530,644559380,mA1/gps,0,1,63.43650437743645,10.393077592823147,0.0,1.4400000000000002e-10,0.0,0.0,0.0,1.4400000000000002e-10,0.0,0.0,0.0,1.0,2
2025/04/05 15:42:10.695300940,1743860530,694287898,mA1/gps,0,1,63.43650451396279,10.393077602358975,0.0,1.4400000000000002e-10,0.0,0.0,0.0,1.4400000000000002e-10,0.0,0.0,0.0,1.0,2
2025/04/05 15:42:10.748900690,1743860530,745140239,mA1/gps,0,1,63.43650465005299,10.393077606728719,0.0,1.4400000000000002e-10,0.0,0.0,0.0,1.4400000000000002e-10,0.0,0.0,0.0,1.0,2
2025/04/05 15:42:10.796003651,1743860530,794988939,mA1/gps,0,1,63.436504786372,10.39307760775934,0.0,1.4400000000000002e-10,0.0,0.0,0.0,1.4400000000000002e-10,0.0,0.0,0.0,1.0,2
2025/04/05 15:42:10.847547741,1743860530,845978551,mA1/gps,0,1,63.43650492223516,10.39307760436211,0.0,1.4400000000000002e-10,0.0,0.0,0.0,1.4400000000000002e-10,0.0,0.0,0.0,1.0,2
2025/04/05 15:42:10.898268303,1743860530,895789383,mA1/gps,0,1,63.4365050592694,10.393077598974868,0.0,1.4400000000000002e-10,0.0,0.0,0.0,1.4400000000000002e-10,0.0,0.0,0.0,1.0,2
2025/04/05 15:42:10.949117099,1743860530,947874387,mA1/gps,0,1,63.436505195831735,10.393077592342657,0.0,1.4400000000000002e-10,0.0,0.0,0.0,1.4400000000000002e-10,0.0,0.0,0.0,1.0,2
2025/04/05 15:42:11.748086,1743860530,999065591,mA1/gps,0,1,63.43650533232632,10.393077583745328,0.0,1.4400000000000002e-10,0.0,0.0,0.0,1.4400000000000002e-10,0.0,0.0,0.0,1.0,2
2025/04/05 15:42:11.51387320,1743860531,49855573,mA1/gps,0,1,63.43650546881812,10.39307757387515,0.0,1.4400000000000002e-10,0.0,0.0,0.0,1.4400000000000002e-10,0.0,0.0,0.0,1.0,2
2025/04/05 15:42:11.93596897,1743860531,90776067,mA1/gps,0,1,63.43650560482283,10.393077563441755,0.0,1.4400000000000002e-10,0.0,0.0,0.0,1.4400000000000002e-10,0.0,0.0,0.0,1.0,2
2025/04/05 15:42:11.147134048,1743860531,145361645,mA1/gps,0,1,63.43650574335905,10.393077553272065,0.0,1.4400000000000002e-10,0.0,0.0,0.0,1.4400000000000002e-10,0.0,0.0,0.0,1.0,2
2025/04/05 15:42:11.198404079,1743860531,195270760,mA1/gps,0,1,63.436505881662164,10.393077545339198,0.0,1.4400000000000002e-10,0.0,0.0,0.0,1.4400000000000002e-10,0.0,0.0,0.0,1.0,2
2025/04/05 15:42:11.246873867,1743860531,246121729,mA1/gps,0,1,63.43650601930593,10.393077538853662,0.0,1.4400000000000002e-10,0.0,0.0,0.0,1.4400000000000002e-10,0.0,0.0,0.0,1.0,2
2025/04/05 15:42:11.297671461,1743860531,296473660,mA1/gps,0,1,63.43650615852169,10.393077535558772,0.0,1.4400000000000002e-10,0.0,0.0,0.0,1.4400000000000002e-10,0.0,0.0,0.0,1.0,2
2025/04/05 15:42:11.348602844,1743860531,347468662,mA1/gps,0,1,63.43650629798581,10.393077533859792,0.0,1.4400000000000002e-10,0.0,0.0,0.0,1.4400000000000002e-10,0.0,0.0,0.0,1.0,2
2025/04/05 15:42:11.400330990,1743860531,397428214,mA1/gps,0,1,63.43650643766338,10.393077534617644,0.0,1.4400000000000002e-10,0.0,0.0,0.0,1.4400000000000002e-10,0.0,0.0,0.0,1.0,2
2025/04/05 15:42:11.452622249,1743860531,448186458,mA1/gps,0,1,63.43650657835142,10.393077537358371,0.0,1.4400000000000002e-10,0.0,0.0,0.0,1.4400000000000002e-10,0.0,0.0,0.0,1.0,2
2025/04/05 15:42:11.500521447,1743860531,498215108,mA1/gps,0,1,63.43650672015531,10.393077542210376,0.0,1.4400000000000002e-10,0.0,0.0,0.0,1.4400000000000002e-10,0.0,0.0,0.0,1.0,2
2025/04/05 15:42:11.549916819,1743860531,549259228,mA1/gps,0,1,63.43650686242132,10.393077548940603,0.0,1.4400000000000002e-10,0.0,0.0,0.0,1.4400000000000002e-10,0.0,0.0,0.0,1.0,2
2025/04/05 15:42:11.600333477,1743860531,599113865,mA1/gps,0,1,63.436507005777976,10.39307755703633,0.0,1.4400000000000002e-10,0.0,0.0,0.0,1.4400000000000002e-10,0.0,0.0,0.0,1.0,2
2025/04/05 15:42:11.650778318,1743860531,650111156,mA1/gps,0,1,63.43650715021176,10.393077567219912,0.0,1.4400000000000002e-10,0.0,0.0,0.0,1.4400000000000002e-10,0.0,0.0,0.0,1.0,2
2025/04/05 15:42:11.702292171,1743860531,699981510,mA1/gps,0,1,63.43650729502208,10.393077577992598,0.0,1.4400000000000002e-10,0.0,0.0,0.0,1.4400000000000002e-10,0.0,0.0,0.0,1.0,2
2025/04/05 15:42:11.742498521,1743860531,741791255,mA1/gps,0,1,63.43650744094581,10.393077588664962,0.0,1.4400000000000002e-10,0.0,0.0,0.0,1.4400000000000002e-10,0.0,0.0,0.0,1.0,2
2025/04/05 15:42:11.796700110,1743860531,794887751,mA1/gps,0,1,63.436507587753496,10.393077598953962,0.0,1.4400000000000002e-10,0.0,0.0,0.0,1.4400000000000002e-10,0.0,0.0,0.0,1.0,2
2025/04/05 15:42:11.849322290,1743860531,848115654,mA1/gps,0,1,63.43650773494704,10.393077609147754,0.0,1.4400000000000002e-10,0.0,0.0,0.0,1.4400000000000002e-10,0.0,0.0,0.0,1.0,2
2025/04/05 15:42:11.900041245,1743860531,898856765,mA1/gps,0,1,63.43650788357081,10.393077616889038,0.0,1.4400000000000002e-10,0.0,0.0,0.0,1.4400000000000002e-10,0.0,0.0,0.0,1.0,2
2025/04/05 15:42:11.950734198,1743860531,948655893,mA1/gps,0,1,63.4365080321192,10.393077623413772,0.0,1.4400000000000002e-10,0.0,0.0,0.0,1.4400000000000002e-10,0.0,0.0,0.0,1.0,2
2025/04/05 15:42:12.208213,1743860531,998510287,mA1/gps,0,1,63.436508181288126,10.393077627176995,0.0,1.4400000000000002e-10,0.0,0.0,0.0,1.4400000000000002e-10,0.0,0.0,0.0,1.0,2
2025/04/05 15:42:12.51540549,1743860532,49585083,mA1/gps,0,1,63.43650833094756,10.393077628016977,0.0,1.4400000000000002e-10,0.0,0.0,0.0,1.4400000000000002e-10,0.0,0.0,0.0,1.0,2
2025/04/05 15:42:12.100974188,1743860532,99431040,mA1/gps,0,1,63.436508481632,10.393077628310714,0.0,1.4400000000000002e-10,0.0,0.0,0.0,1.4400000000000002e-10,0.0,0.0,0.0,1.0,2
2025/04/05 15:42:12.153245501,1743860532,150422680,mA1/gps,0,1,63.436508632082365,10.39307762615833,0.0,1.4400000000000002e-10,0.0,0.0,0.0,1.4400000000000002e-10,0.0,0.0,0.0,1.0,2
2025/04/05 15:42:12.193529994,1743860532,190385248,mA1/gps,0,1,63.43650878364841,10.393077622432692,0.0,1.4400000000000002e-10,0.0,0.0,0.0,1.4400000000000002e-10,0.0,0.0,0.0,1.0,2
2025/04/05 15:42:12.242350026,1743860532,241696237,mA1/gps,0,1,63.43650893480526,10.393077617878014,0.0,1.4400000000000002e-10,0.0,0.0,0.0,1.4400000000000002e-10,0.0,0.0,0.0,1.0,2
2025/04/05 15:42:12.294033319,1743860532,292289380,mA1/gps,0,1,63.43650908668927,10.393077612872794,0.0,1.4400000000000002e-10,0.0,0.0,0.0,1.4400000000000002e-10,0.0,0.0,0.0,1.0,2
2025/04/05 15:42:12.344491272,1743860532,342770277,mA1/gps,0,1,63.436509238614065,10.393077608224381,0.0,1.4400000000000002e-10,0.0,0.0,0.0,1.4400000000000002e-10,0.0,0.0,0.0,1.0,2
2025/04/05 15:42:12.394177278,1743860532,392710304,mA1/gps,0,1,63.43650938968006,10.393077602789727,0.0,1.4400000000000002e-10,0.0,0.0,0.0,1.4400000000000002e-10,0.0,0.0,0.0,1.0,2
2025/04/05 15:42:12.444381960,1743860532,443607078,mA1/gps,0,1,63.43650954155724,10.393077597750798,0.0,1.4400000000000002e-10,0.0,0.0,0.0,1.4400000000000002e-10,0.0,0.0,0.0,1.0,2
2025/04/05 15:42:12.495279970,1743860532,493514632,mA1/gps,0,1,63.43650969346307,10.393077592637257,0.0,1.4400000000000002e-10,0.0,0.0,0.0,1.4400000000000002e-10,0.0,0.0,0.0,1.0,2
2025/04/05 15:42:12.546786931,1743860532,544397868,mA1/gps,0,1,63.43650984569705,10.393077588255556,0.0,1.4400000000000002e-10,0.0,0.0,0.0,1.4400000000000002e-10,0.0,0.0,0.0,1.0,2
2025/04/05 15:42:12.597441460,1743860532,595007167,mA1/gps,0,1,63.436509997430605,10.393077583795518,0.0,1.4400000000000002e-10,0.0,0.0,0.0,1.4400000000000002e-10,0.0,0.0,0.0,1.0,2
2025/04/05 15:42:12.647827679,1743860532,646002700,mA1/gps,0,1,63.436510149958245,10.393077579996719,0.0,1.4400000000000002e-10,0.0,0.0,0.0,1.4400000000000002e-10,0.0,0.0,0.0,1.0,2
2025/04/05 15:42:12.702646158,1743860532,698477772,mA1/gps,0,1,63.436510302188154,10.393077578623501,0.0,1.4400000000000002e-10,0.0,0.0,0.0,1.4400000000000002e-10,0.0,0.0,0.0,1.0,2
2025/04/05 15:42:12.750228634,1743860532,749305874,mA1/gps,0,1,63.43651045606121,10.393077578324942,0.0,1.4400000000000002e-10,0.0,0.0,0.0,1.4400000000000002e-10,0.0,0.0,0.0,1.0,2
2025/04/05 15:42:12.796497177,1743860532,794655973,mA1/gps,0,1,63.436510608853986,10.393077579924793,0.0,1.4400000000000002e-10,0.0,0.0,0.0,1.4400000000000002e-10,0.0,0.0,0.0,1.0,2
2025/04/05 15:42:12.845931857,1743860532,844586001,mA1/gps,0,1,63.43651076400903,10.393077583048928,0.0,1.4400000000000002e-10,0.0,0.0,0.0,1.4400000000000002e-10,0.0,0.0,0.0,1.0,2
2025/04/05 15:42:12.898725084,1743860532,896728942,mA1/gps,0,1,63.43651091900452,10.393077587241677,0.0,1.4400000000000002e-10,0.0,0.0,0.0,1.4400000000000002e-10,0.0,0.0,0.0,1.0,2
2025/04/05 15:42:12.951243600,1743860532,950523847,mA1/gps,0,1,63.43651107362764,10.39307759215362,0.0,1.4400000000000002e-10,0.0,0.0,0.0,1.4400000000000002e-10,0.0,0.0,0.0,1.0,2
2025/04/05 15:42:12.991911558,1743860532,990410034,mA1/gps,0,1,63.436511228888136,10.393077597529853,0.0,1.4400000000000002e-10,0.0,0.0,0.0,1.4400000000000002e-10,0.0,0.0,0.0,1.0,2
2025/04/05 15:42:13.42267575,1743860533,41399817,mA1/gps,0,1,63.436511386011034,10.393077602971035,0.0,1.4400000000000002e-10,0.0,0.0,0.0,1.4400000000000002e-10,0.0,0.0,0.0,1.0,2
2025/04/05 15:42:13.92934013,1743860533,91292604,mA1/gps,0,1,63.43651154215675,10.3930776085129,0.0,1.4400000000000002e-10,0.0,0.0,0.0,1.4400000000000002e-10,0.0,0.0,0.0,1.0,2
2025/04/05 15:42:13.144079383,1743860533,142131382,mA1/gps,0,1,63.43651170154489,10.39307761273212,0.0,1.4400000000000002e-10,0.0,0.0,0.0,1.4400000000000002e-10,0.0,0.0,0.0,1.0,2
2025/04/05 15:42:13.196281006,1743860533,192979476,mA1/gps,0,1,63.43651186033671,10.393077616083726,0.0,1.4400000000000002e-10,0.0,0.0,0.0,1.4400000000000002e-10,0.0,0.0,0.0,1.0,2
2025/04/05 15:42:13.244653359,1743860533,243888288,mA1/gps,0,1,63.43651201971417,10.393077618456063,0.0,1.4400000000000002e-10,0.0,0.0,0.0,1.4400000000000002e-10,0.0,0.0,0.0,1.0,2
2025/04/05 15:42:13.294555289,1743860533,293735499,mA1/gps,0,1,63.436512180874,10.393077619364302,0.0,1.4400000000000002e-10,0.0,0.0,0.0,1.4400000000000002e-10,0.0,0.0,0.0,1.0,2
2025/04/05 15:42:13.346363732,1743860533,344620100,mA1/gps,0,1,63.43651234154114,10.39307761810197,0.0,1.4400000000000002e-10,0.0,0.0,0.0,1.4400000000000002e-10,0.0,0.0,0.0,1.0,2
2025/04/05 15:42:13.397118565,1743860533,395045094,mA1/gps,0,1,63.43651250370813,10.393077615809194,0.0,1.4400000000000002e-10,0.0,0.0,0.0,1.4400000000000002e-10,0.0,0.0,0.0,1.0,2
2025/04/05 15:42:13.447479223,1743860533,445884795,mA1/gps,0,1,63.43651266547692,10.393077612313524,0.0,1.4400000000000002e-10,0.0,0.0,0.0,1.4400000000000002e-10,0.0,0.0,0.0,1.0,2
2025/04/05 15:42:13.497990867,1743860533,495891052,mA1/gps,0,1,63.436512829279245,10.393077606468427,0.0,1.4400000000000002e-10,0.0,0.0,0.0,1.4400000000000002e-10,0.0,0.0,0.0,1.0,2
2025/04/05 15:42:13.551653127,1743860533,547233425,mA1/gps,0,1,63.43651299185893,10.39307760089555,0.0,1.4400000000000002e-10,0.0,0.0,0.0,1.4400000000000002e-10,0.0,0.0,0.0,1.0,2
2025/04/05 15:42:13.601856485,1743860533,597689149,mA1/gps,0,1,63.436513154988326,10.393077593418676,0.0,1.4400000000000002e-10,0.0,0.0,0.0,1.4400000000000002e-10,0.0,0.0,0.0,1.0,2
2025/04/05 15:42:13.650138776,1743860533,649052178,mA1/gps,0,1,63.43651331865864,10.393077584165333,0.0,1.4400000000000002e-10,0.0,0.0,0.0,1.4400000000000002e-10,0.0,0.0,0.0,1.0,2
2025/04/05 15:42:13.692840941,1743860533,691044236,mA1/gps,0,1,63.43651348311285,10.393077575331418,0.0,1.4400000000000002e-10,0.0,0.0,0.0,1.4400000000000002e-10,0.0,0.0,0.0,1.0,2
2025/04/05 15:42:13.744224630,1743860533,742182787,mA1/gps,0,1,63.43651364709347,10.393077565178075,0.0,1.4400000000000002e-10,0.0,0.0,0.0,1.4400000000000002e-10,0.0,0.0,0.0,1.0,2
2025/04/05 15:42:13.793203364,1743860533,792127185,mA1/gps,0,1,63.436513810746405,10.393077555166778,0.0,1.4400000000000002e-10,0.0,0.0,0.0,1.4400000000000002e-10,0.0,0.0,0.0,1.0,2
2025/04/05 15:42:13.844101257,1743860533,843022194,mA1/gps,0,1,63.436513974278704,10.39307754424498,0.0,1.4400000000000002e-10,0.0,0.0,0.0,1.4400000000000002e-10,0.0,0.0,0.0,1.0,2
2025/04/05 15:42:13.895230540,1743860533,893881503,mA1/gps,0,1,63.436514139668624,10.393077533475898,0.0,1.4400000000000002e-10,0.0,0.0,0.0,1.4400000000000002e-10,0.0,0.0,0.0,1.0,2
2025/04/05 15:42:13.945199637,1743860533,943696329,mA1/gps,0,1,63.43651430322639,10.393077521793531,0.0,1.4400000000000002e-10,0.0,0.0,0.0,1.4400000000000002e-10,0.0,0.0,0.0,1.0,2
2025/04/05 15:42:13.994957886,1743860533,993644777,mA1/gps,0,1,63.436514467143255,10.39307751050352,0.0,1.4400000000000002e-10,0.0,0.0,0.0,1.4400000000000002e-10,0.0,0.0,0.0,1.0,2
2025/04/05 15:42:14.46242073,1743860534,44569273,mA1/gps,0,1,63.4365146298748,10.393077499987491,0.0,1.4400000000000002e-10,0.0,0.0,0.0,1.4400000000000002e-10,0.0,0.0,0.0,1.0,2
2025/04/05 15:42:14.96699416,1743860534,94447309,mA1/gps,0,1,63.43651479480087,10.39307748940447,0.0,1.4400000000000002e-10,0.0,0.0,0.0,1.4400000000000002e-10,0.0,0.0,0.0,1.0,2
2025/04/05 15:42:14.146388444,1743860534,145395723,mA1/gps,0,1,63.43651496002851,10.39307747970515,0.0,1.4400000000000002e-10,0.0,0.0,0.0,1.4400000000000002e-10,0.0,0.0,0.0,1.0,2
2025/04/05 15:42:14.196986429,1743860534,195976495,mA1/gps,0,1,63.43651512446349,10.393077471061583,0.0,1.4400000000000002e-10,0.0,0.0,0.0,1.4400000000000002e-10,0.0,0.0,0.0,1.0,2
2025/04/05 15:42:14.247782227,1743860534,246981460,mA1/gps,0,1,63.436515290235384,10.393077462586366,0.0,1.4400000000000002e-10,0.0,0.0,0.0,1.4400000000000002e-10,0.0,0.0,0.0,1.0,2
2025/04/05 15:42:14.300220929,1743860534,296956784,mA1/gps,0,1,63.436515456344495,10.393077455928726,0.0,1.4400000000000002e-10,0.0,0.0,0.0,1.4400000000000002e-10,0.0,0.0,0.0,1.0,2
2025/04/05 15:42:14.348439411,1743860534,347761154,mA1/gps,0,1,63.4365156226764,10.3930774502935,0.0,1.4400000000000002e-10,0.0,0.0,0.0,1.4400000000000002e-10,0.0,0.0,0.0,1.0,2
2025/04/05 15:42:14.398638133,1743860534,397693288,mA1/gps,0,1,63.436515789861744,10.393077445765721,0.0,1.4400000000000002e-10,0.0,0.0,0.0,1.4400000000000002e-10,0.0,0.0,0.0,1.0,2
2025/04/05 15:42:14.450586776,1743860534,448554653,mA1/gps,0,1,63.43651595789503,10.393077441744325,0.0,1.4400000000000002e-10,0.0,0.0,0.0,1.4400000000000002e-10,0.0,0.0,0.0,1.0,2
2025/04/05 15:42:14.501648261,1743860534,498439867,mA1/gps,0,1,63.43651612748934,10.39307743928712,0.0,1.4400000000000002e-10,0.0,0.0,0.0,1.4400000000000002e-10,0.0,0.0,0.0,1.0,2
2025/04/05 15:42:14.551315307,1743860534,550573558,mA1/gps,0,1,63.43651629693824,10.393077437201624,0.0,1.4400000000000002e-10,0.0,0.0,0.0,1.4400000000000002e-10,0.0,0.0,0.0,1.0,2
2025/04/05 15:42:14.601427991,1743860534,600356264,mA1/gps,0,1,63.436516467760626,10.393077436870112,0.0,1.4400000000000002e-10,0.0,0.0,0.0,1.4400000000000002e-10,0.0,0.0,0.0,1.0,2
2025/04/05 15:42:14.653115530,1743860534,650250453,mA1/gps,0,1,63.436516638629485,10.393077437034856,0.0,1.4400000000000002e-10,0.0,0.0,0.0,1.4400000000000002e-10,0.0,0.0,0.0,1.0,2
2025/04/05 15:42:14.702395679,1743860534,700103769,mA1/gps,0,1,63.436516811470966,10.393077437266225,0.0,1.4400000000000002e-10,0.0,0.0,0.0,1.4400000000000002e-10,0.0,0.0,0.0,1.0,2
2025/04/05 15:42:14.742433641,1743860534,741099891,mA1/gps,0,1,63.4365169849321,10.393077436880573,0.0,1.4400000000000002e-10,0.0,0.0,0.0,1.4400000000000002e-10,0.0,0.0,0.0,1.0,2
2025/04/05 15:42:14.795900796,1743860534,793779382,mA1/gps,0,1,63.4365171585537,10.393077435714128,0.0,1.4400000000000002e-10,0.0,0.0,0.0,1.4400000000000002e-10,0.0,0.0,0.0,1.0,2
2025/04/05 15:42:14.846553426,1743860534,844975510,mA1/gps,0,1,63.436517333686446,10.393077433012197,0.0,1.4400000000000002e-10,0.0,0.0,0.0,1.4400000000000002e-10,0.0,0.0,0.0,1.0,2
2025/04/05 15:42:14.897534457,1743860534,895662649,mA1/gps,0,1,63.4365175073326,10.393077431221919,0.0,1.4400000000000002e-10,0.0,0.0,0.0,1.4400000000000002e-10,0.0,0.0,0.0,1.0,2
2025/04/05 15:42:14.948018113,1743860534,947058025,mA1/gps,0,1,63.43651768300195,10.393077427700982,0.0,1.4400000000000002e-10,0.0,0.0,0.0,1.4400000000000002e-10,0.0,0.0,0.0,1.0,2
2025/04/05 15:42:14.998429946,1743860534,996956168,mA1/gps,0,1,63.436517859456494,10.393077422722794,0.0,1.4400000000000002e-10,0.0,0.0,0.0,1.4400000000000002e-10,0.0,0.0,0.0,1.0,2
2025/04/05 15:42:15.48870063,1743860535,47943000,mA1/gps,0,1,63.436518034091,10.39307741593326,0.0,1.4400000000000002e-10,0.0,0.0,0.0,1.4400000000000002e-10,0.0,0.0,0.0,1.0,2
2025/04/05 15:42:15.98434323,1743860535,97721794,mA1/gps,0,1,63.43651820891916,10.393077407525762,0.0,1.4400000000000002e-10,0.0,0.0,0.0,1.4400000000000002e-10,0.0,0.0,0.0,1.0,2
2025/04/05 15:42:15.151036265,1743860535,148680559,mA1/gps,0,1,63.436518385383344,10.393077397692146,0.0,1.4400000000000002e-10,0.0,0.0,0.0,1.4400000000000002e-10,0.0,0.0,0.0,1.0,2
2025/04/05 15:42:15.200061642,1743860535,198440643,mA1/gps,0,1,63.43651856048241,10.393077386922073,0.0,1.4400000000000002e-10,0.0,0.0,0.0,1.4400000000000002e-10,0.0,0.0,0.0,1.0,2
2025/04/05 15:42:15.250287994,1743860535,249723959,mA1/gps,0,1,63.43651873606033,10.39307737439508,0.0,1.4400000000000002e-10,0.0,0.0,0.0,1.4400000000000002e-10,0.0,0.0,0.0,1.0,2
2025/04/05 15:42:15.292946493,1743860535,291837320,mA1/gps,0,1,63.43651891182474,10.393077361597667,0.0,1.4400000000000002e-10,0.0,0.0,0.0,1.4400000000000002e-10,0.0,0.0,0.0,1.0,2
2025/04/05 15:42:15.344462635,1743860535,342710033,mA1/gps,0,1,63.436519087082445,10.393077347256991,0.0,1.4400000000000002e-10,0.0,0.0,0.0,1.4400000000000002e-10,0.0,0.0,0.0,1.0,2
2025/04/05 15:42:15.397156144,1743860535,393644046,mA1/gps,0,1,63.43651926157579,10.39307733154942,0.0,1.4400000000000002e-10,0.0,0.0,0.0,1.4400000000000002e-10,0.0,0.0,0.0,1.0,2
2025/04/05 15:42:15.444811652,1743860535,443842705,mA1/gps,0,1,63.436519435575384,10.393077315264941,0.0,1.4400000000000002e-10,0.0,0.0,0.0,1.4400000000000002e-10,0.0,0.0,0.0,1.0,2
2025/04/05 15:42:15.495627776,1743860535,493751952,mA1/gps,0,1,63.43651960916482,10.393077298554466,0.0,1.4400000000000002e-10,0.0,0.0,0.0,1.4400000000000002e-10,0.0,0.0,0.0,1.0,2
2025/04/05 15:42:15.545305645,1743860535,544696700,mA1/gps,0,1,63.436519783851644,10.39307728222387,0.0,1.4400000000000002e-10,0.0,0.0,0.0,1.4400000000000002e-10,0.0,0.0,0.0,1.0,2
2025/04/05 15:42:15.596673586,1743860535,594594342,mA1/gps,0,1,63.436519958106516,10.393077265562916,0.0,1.4400000000000002e-10,0.0,0.0,0.0,1.4400000000000002e-10,0.0,0.0,0.0,1.0,2
2025/04/05 15:42:15.647869752,1743860535,645801756,mA1/gps,0,1,63.43652013240557,10.393077250950958,0.0,1.4400000000000002e-10,0.0,0.0,0.0,1.4400000000000002e-10,0.0,0.0,0.0,1.0,2
2025/04/05 15:42:15.696547649,1743860535,695379290,mA1/gps,0,1,63.43652030748376,10.393077236500824,0.0,1.4400000000000002e-10,0.0,0.0,0.0,1.4400000000000002e-10,0.0,0.0,0.0,1.0,2
2025/04/05 15:42:15.747251412,1743860535,746246518,mA1/gps,0,1,63.436520482418466,10.39307722440208,0.0,1.4400000000000002e-10,0.0,0.0,0.0,1.4400000000000002e-10,0.0,0.0,0.0,1.0,2
2025/04/05 15:42:15.797600246,1743860535,796314713,mA1/gps,0,1,63.43652065792348,10.393077212987132,0.0,1.4400000000000002e-10,0.0,0.0,0.0,1.4400000000000002e-10,0.0,0.0,0.0,1.0,2
2025/04/05 15:42:15.848053379,1743860535,847306264,mA1/gps,0,1,63.43652083456583,10.393077203735968,0.0,1.4400000000000002e-10,0.0,0.0,0.0,1.4400000000000002e-10,0.0,0.0,0.0,1.0,2
2025/04/05 15:42:15.901954773,1743860535,899623476,mA1/gps,0,1,63.436521011650385,10.3930771951623,0.0,1.4400000000000002e-10,0.0,0.0,0.0,1.4400000000000002e-10,0.0,0.0,0.0,1.0,2
2025/04/05 15:42:15.952192646,1743860535,950574725,mA1/gps,0,1,63.43652118891992,10.393077188207009,0.0,1.4400000000000002e-10,0.0,0.0,0.0,1.4400000000000002e-10,0.0,0.0,0.0,1.0,2
2025/04/05 15:42:15.992003158,1743860535,990198518,mA1/gps,0,1,63.43652136815056,10.393077182601115,0.0,1.4400000000000002e-10,0.0,0.0,0.0,1.4400000000000002e-10,0.0,0.0,0.0,1.0,2
2025/04/05 15:42:16.41823708,1743860536,41140464,mA1/gps,0,1,63.43652154671331,10.393077177525267,0.0,1.4400000000000002e-10,0.0,0.0,0.0,1.4400000000000002e-10,0.0,0.0,0.0,1.0,2
2025/04/05 15:42:16.92798680,1743860536,91424855,mA1/gps,0,1,63.43652172735683,10.39307717293339,0.0,1.4400000000000002e-10,0.0,0.0,0.0,1.4400000000000002e-10,0.0,0.0,0.0,1.0,2
2025/04/05 15:42:16.143021916,1743860536,142014686,mA1/gps,0,1,63.43652190813206,10.393077167675042,0.0,1.4400000000000002e-10,0.0,0.0,0.0,1.4400000000000002e-10,0.0,0.0,0.0,1.0,2
2025/04/05 15:42:16.193616496,1743860536,191996004,mA1/gps,0,1,63.43652209016415,10.393077162063202,0.0,1.4400000000000002e-10,0.0,0.0,0.0,1.4400000000000002e-10,0.0,0.0,0.0,1.0,2
2025/04/05 15:42:16.244466765,1743860536,242835035,mA1/gps,0,1,63.436522272887785,10.393077155750712,0.0,1.4400000000000002e-10,0.0,0.0,0.0,1.4400000000000002e-10,0.0,0.0,0.0,1.0,2
2025/04/05 15:42:16.294927318,1743860536,293937931,mA1/gps,0,1,63.43652245576491,10.393077149286912,0.0,1.4400000000000002e-10,0.0,0.0,0.0,1.4400000000000002e-10,0.0,0.0,0.0,1.0,2
2025/04/05 15:42:16.344100011,1743860536,343479071,mA1/gps,0,1,63.4365226399857,10.393077141449343,0.0,1.4400000000000002e-10,0.0,0.0,0.0,1.4400000000000002e-10,0.0,0.0,0.0,1.0,2
2025/04/05 15:42:16.398631307,1743860536,394592370,mA1/gps,0,1,63.4365228236037,10.39307713321939,0.0,1.4400000000000002e-10,0.0,0.0,0.0,1.4400000000000002e-10,0.0,0.0,0.0,1.0,2
2025/04/05 15:42:16.446342043,1743860536,445376355,mA1/gps,0,1,63.43652300717518,10.393077124798443,0.0,1.4400000000000002e-10,0.0,0.0,0.0,1.4400000000000002e-10,0.0,0.0,0.0,1.0,2
2025/04/05 15:42:16.497998880,1743860536,496731527,mA1/gps,0,1,63.43652319118112,10.39307711504692,0.0,1.4400000000000002e-10,0.0,0.0,0.0,1.4400000000000002e-10,0.0,0.0,0.0,1.0,2
2025/04/05 15:42:16.547401703,1743860536,546752737,mA1/gps,0,1,63.436523375807845,10.393077104424451,0.0,1.4400000000000002e-10,0.0,0.0,0.0,1.4400000000000002e-10,0.0,0.0,0.0,1.0,2
2025/04/05 15:42:16.597447425,1743860536,596826098,mA1/gps,0,1,63.43652356026315,10.39307709366965,0.0,1.4400000000000002e-10,0.0,0.0,0.0,1.4400000000000002e-10,0.0,0.0,0.0,1.0,2
2025/04/05 15:42:16.649490345,1743860536,648064815,mA1/gps,0,1,63.43652374436808,10.393077082073908,0.0,1.4400000000000002e-10,0.0,0.0,0.0,1.4400000000000002e-10,0.0,0.0,0.0,1.0,2
2025/04/05 15:42:16.698858421,1743860536,698004936,mA1/gps,0,1,63.43652392746038,10.39307706925816,0.0,1.4400000000000002e-10,0.0,0.0,0.0,1.4400000000000002e-10,0.0,0.0,0.0,1.0,2
2025/04/05 15:42:16.751761544,1743860536,750513752,mA1/gps,0,1,63.43652411061597,10.39307705519602,0.0,1.4400000000000002e-10,0.0,0.0,0.0,1.4400000000000002e-10,0.0,0.0,0.0,1.0,2
2025/04/05 15:42:16.794680758,1743860536,792446004,mA1/gps,0,1,63.43652429446086,10.393077040129445,0.0,1.4400000000000002e-10,0.0,0.0,0.0,1.4400000000000002e-10,0.0,0.0,0.0,1.0,2
2025/04/05 15:42:16.844832213,1743860536,843335032,mA1/gps,0,1,63.43652447746856,10.393077024303356,0.0,1.4400000000000002e-10,0.0,0.0,0.0,1.4400000000000002e-10,0.0,0.0,0.0,1.0,2
2025/04/05 15:42:16.898030550,1743860536,893350911,mA1/gps,0,1,63.43652465948448,10.393077008800885,0.0,1.4400000000000002e-10,0.0,0.0,0.0,1.4400000000000002e-10,0.0,0.0,0.0,1.0,2
2025/04/05 15:42:16.945909516,1743860536,944156103,mA1/gps,0,1,63.436524842302234,10.393076993660733,0.0,1.4400000000000002e-10,0.0,0.0,0.0,1.4400000000000002e-10,0.0,0.0,0.0,1.0,2
2025/04/05 15:42:16.996909075,1743860536,995260077,mA1/gps,0,1,63.43652502372964,10.393076977964324,0.0,1.4400000000000002e-10,0.0,0.0,0.0,1.4400000000000002e-10,0.0,0.0,0.0,1.0,2
2025/04/05 15:42:17.46021563,1743860537,45016605,mA1/gps,0,1,63.436525204739894,10.393076961178911,0.0,1.4400000000000002e-10,0.0,0.0,0.0,1.4400000000000002e-10,0.0,0.0,0.0,1.0,2
2025/04/05 15:42:17.96670364,1743860537,94872077,mA1/gps,0,1,63.43652538645655,10.393076945586245,0.0,1.4400000000000002e-10,0.0,0.0,0.0,1.4400000000000002e-10,0.0,0.0,0.0,1.0,2
2025/04/05 15:42:17.147278012,1743860537,146101299,mA1/gps,0,1,63.436525568916196,10.393076929489245,0.0,1.4400000000000002e-10,0.0,0.0,0.0,1.4400000000000002e-10,0.0,0.0,0.0,1.0,2
2025/04/05 15:42:17.196961038,1743860537,195947136,mA1/gps,0,1,63.436525751718804,10.39307691425163,0.0,1.4400000000000002e-10,0.0,0.0,0.0,1.4400000000000002e-10,0.0,0.0,0.0,1.0,2
2025/04/05 15:42:17.249101997,1743860537,246869220,mA1/gps,0,1,63.43652593213923,10.393076899293305,0.0,1.4400000000000002e-10,0.0,0.0,0.0,1.4400000000000002e-10,0.0,0.0,0.0,1.0,2
2025/04/05 15:42:17.298444123,1743860537,296639262,mA1/gps,0,1,63.43652611557274,10.393076885481637,0.0,1.4400000000000002e-10,0.0,0.0,0.0,1.4400000000000002e-10,0.0,0.0,0.0,1.0,2
2025/04/05 15:42:17.348469745,1743860537,347663497,mA1/gps,0,1,63.4365262994666,10.393076871572806,0.0,1.4400000000000002e-10,0.0,0.0,0.0,1.4400000000000002e-10,0.0,0.0,0.0,1.0,2
2025/04/05 15:42:17.399493892,1743860537,397481604,mA1/gps,0,1,63.43652648463983,10.393076860105811,0.0,1.4400000000000002e-10,0.0,0.0,0.0,1.4400000000000002e-10,0.0,0.0,0.0,1.0,2
2025/04/05 15:42:17.449287101,1743860537,448361410,mA1/gps,0,1,63.436526669422136,10.393076849442165,0.0,1.4400000000000002e-10,0.0,0.0,0.0,1.4400000000000002e-10,0.0,0.0,0.0,1.0,2
2025/04/05 15:42:17.501895552,1743860537,499980433,mA1/gps,0,1,63.436526853793374,10.393076839189407,0.0,1.4400000000000002e-10,0.0,0.0,0.0,1.4400000000000002e-10,0.0,0.0,0.0,1.0,2
2025/04/05 15:42:17.549938056,1743860537,549248257,mA1/gps,0,1,63.43652704088179,10.393076828577627,0.0,1.4400000000000002e-10,0.0,0.0,0.0,1.4400000000000002e-10,0.0,0.0,0.0,1.0,2
2025/04/05 15:42:17.602480386,1743860537,600004057,mA1/gps,0,1,63.436527229101394,10.39307681746502,0.0,1.4400000000000002e-10,0.0,0.0,0.0,1.4400000000000002e-10,0.0,0.0,0.0,1.0,2
2025/04/05 15:42:17.645224203,1743860537,644534176,mA1/gps,0,1,63.43652741559777,10.393076805524702,0.0,1.4400000000000002e-10,0.0,0.0,0.0,1.4400000000000002e-10,0.0,0.0,0.0,1.0,2
2025/04/05 15:42:17.698959005,1743860537,694427507,mA1/gps,0,1,63.43652760379682,10.393076792620526,0.0,1.4400000000000002e-10,0.0,0.0,0.0,1.4400000000000002e-10,0.0,0.0,0.0,1.0,2
2025/04/05 15:42:17.746938151,1743860537,745785888,mA1/gps,0,1,63.43652779316358,10.393076779046003,0.0,1.4400000000000002e-10,0.0,0.0,0.0,1.4400000000000002e-10,0.0,0.0,0.0,1.0,2
2025/04/05 15:42:17.797257965,1743860537,795522920,mA1/gps,0,1,63.43652798304044,10.393076765135982,0.0,1.4400000000000002e-10,0.0,0.0,0.0,1.4400000000000002e-10,0.0,0.0,0.0,1.0,2
2025/04/05 15:42:17.847589806,1743860537,846606537,mA1/gps,0,1,63.43652817366076,10.393076750594751,0.0,1.4400000000000002e-10,0.0,0.0,0.0,1.4400000000000002e-10,0.0,0.0,0.0,1.0,2
2025/04/05 15:42:17.901818026,1743860537,898948807,mA1/gps,0,1,63.43652836333164,10.393076735809874,0.0,1.4400000000000002e-10,0.0,0.0,0.0,1.4400000000000002e-10,0.0,0.0,0.0,1.0,2
2025/04/05 15:42:17.950701468,1743860537,949783404,mA1/gps,0,1,63.436528552533325,10.39307672014704,0.0,1.4400000000000002e-10,0.0,0.0,0.0,1.4400000000000002e-10,0.0,0.0,0.0,1.0,2
2025/04/05 15:42:18.1827494,1743860537,999782388,mA1/gps,0,1,63.436528742467814,10.393076704666218,0.0,1.4400000000000002e-10,0.0,0.0,0.0,1.4400000000000002e-10,0.0,0.0,0.0,1.0,2
2025/04/05 15:42:18.41676557,1743860538,40747397,mA1/gps,0,1,63.43652893244419,10.393076689044188,0.0,1.4400000000000002e-10,0.0,0.0,0.0,1.4400000000000002e-10,0.0,0.0,0.0,1.0,2
2025/04/05 15:42:18.91538175,1743860538,90525256,mA1/gps,0,1,63.43652912249498,10.393076673307291,0.0,1.4400000000000002e-10,0.0,0.0,0.0,1.4400000000000002e-10,0.0,0.0,0.0,1.0,2
2025/04/05 15:42:18.142362466,1743860538,141535709,mA1/gps,0,1,63.43652931232926,10.393076657300677,0.0,1.4400000000000002e-10,0.0,0.0,0.0,1.4400000000000002e-10,0.0,0.0,0.0,1.0,2
2025/04/05 15:42:18.193840282,1743860538,191579762,mA1/gps,0,1,63.43652950138247,10.393076643172847,0.0,1.4400000000000002e-10,0.0,0.0,0.0,1.4400000000000002e-10,0.0,0.0,0.0,1.0,2
2025/04/05 15:42:18.244795849,1743860538,242728192,mA1/gps,0,1,63.436529690406914,10.393076628599891,0.0,1.4400000000000002e-10,0.0,0.0,0.0,1.4400000000000002e-10,0.0,0.0,0.0,1.0,2
2025/04/05 15:42:18.293864198,1743860538,292529794,mA1/gps,0,1,63.43652987814827,10.393076615251186,0.0,1.4400000000000002e-10,0.0,0.0,0.0,1.4400000000000002e-10,0.0,0.0,0.0,1.0,2
2025/04/05 15:42:18.345210273,1743860538,343373653,mA1/gps,0,1,63.43653006571773,10.393076602255533,0.0,1.4400000000000002e-10,0.0,0.0,0.0,1.4400000000000002e-10,0.0,0.0,0.0,1.0,2
2025/04/05 15:42:18.394963305,1743860538,393955695,mA1/gps,0,1,63.43653025438724,10.393076589917179,0.0,1.4400000000000002e-10,0.0,0.0,0.0,1.4400000000000002e-10,0.0,0.0,0.0,1.0,2
2025/04/05 15:42:18.445619783,1743860538,444971586,mA1/gps,0,1,63.436530442066754,10.393076578114846,0.0,1.4400000000000002e-10,0.0,0.0,0.0,1.4400000000000002e-10,0.0,0.0,0.0,1.0,2
