time,header_stamp_secs,header_stamp_nsecs,header_frame_id,quaternion_x,quaternion_y,quaternion_z,quaternion_w
2025/04/05 15:42:02.223840902,1743860522,9953574,,-3.616394429803532e-05,0.00014483776291617003,0.01887744578063228,0.999821793998806
2025/04/05 15:42:02.223945889,1743860522,106547142,,-0.0012092616422721052,0.00012220294651374826,0.01920490319122104,0.9998148300791183
2025/04/05 15:42:02.224026834,1743860522,210185976,,-0.002297600191593707,6.734560736491968e-05,0.019654397116256696,0.9998041914154617
2025/04/05 15:42:02.320026811,1743860522,313447462,,-0.0028278340654153047,1.537666104092847e-06,0.02007610654848344,0.9997944555247283
2025/04/05 15:42:02.411218785,1743860522,410806974,,-0.002686356300234371,-4.17623553921947e-05,0.02043141551085493,0.9997876469560707
2025/04/05 15:42:02.509166504,1743860522,509031598,,-0.001946678710766868,-6.707527296717285e-05,0.020721025764376445,0.9997833990591046
2025/04/05 15:42:02.614143145,1743860522,613590422,,-0.0008387855065147378,-6.59966237084974e-05,0.02095877530936859,0.9997799867075011
2025/04/05 15:42:02.705905456,1743860522,704453206,,0.00030295900179352415,-6.069444791673972e-05,0.021182472598337516,0.9997755785108215
2025/04/05 15:42:02.809361783,1743860522,808231957,,0.0012240062476653593,-3.8397237448913124e-05,0.021384483979664862,0.9997705757719024
2025/04/05 15:42:02.905493252,1743860522,904957365,,0.001730512814756673,-1.274630963002892e-05,0.021570262846030534,0.9997658370456968
2025/04/05 15:42:03.8841852,1743860523,8592319,,0.0017176075748226859,-1.0336600075615599e-05,0.021773527711077375,0.9997614531518949
2025/04/05 15:42:03.102958292,1743860523,102805506,,0.0012838235754827146,-1.8363574364780979e-06,0.021932571715415555,0.9997586279155599
2025/04/05 15:42:03.204496962,1743860523,204348303,,0.0005003745719419168,2.505517417024482e-06,0.022076507966778285,0.9997561589782795
2025/04/05 15:42:03.307550677,1743860523,307384579,,-0.0004778393476947495,-1.855860044181714e-05,0.022258339294239225,0.9997521381107413
2025/04/05 15:42:03.409338849,1743860523,408766278,,-0.0014023534299614437,-4.255249659093199e-05,0.02246641859573552,0.9997466137125065
2025/04/05 15:42:03.510180473,1743860523,509662241,,-0.001994863158723011,-5.446132260718797e-05,0.02263808839789083,0.9997417339036275
2025/04/05 15:42:03.615753039,1743860523,615118848,,-0.002193672664931354,-7.943697371272719e-05,0.022827629655933736,0.9997370058241807
2025/04/05 15:42:03.703978946,1743860523,702947442,,-0.0019008674685602593,-5.891145844850828e-05,0.022963794354090135,0.9997344884423914
2025/04/05 15:42:03.804384445,1743860523,804246723,,-0.0012238908282427542,-3.4123753952383976e-05,0.02305559751577738,0.9997334346464564
2025/04/05 15:42:03.905567098,1743860523,905337737,,-0.0003673669162055228,-1.5870707393836262e-05,0.023141804862191938,0.9997321249501737
2025/04/05 15:42:04.7725823,1743860524,7613614,,0.0007154827315301233,1.9741740443340606e-05,0.023046938590280553,0.9997341278141606
2025/04/05 15:42:04.108820477,1743860524,108441340,,0.0015103043344073337,5.218291933635693e-05,0.02292559095747355,0.9997360319289342
2025/04/05 15:42:04.213842854,1743860524,213539785,,0.00180893311073709,5.512837852615521e-05,0.022801180611990712,0.9997383812200881
2025/04/05 15:42:04.311070263,1743860524,308354933,,0.001586237753118535,6.735277138969983e-05,0.02266412665655498,0.9997418750238936
2025/04/05 15:42:04.410554882,1743860524,409792023,,0.0009643005060985374,4.933955408752427e-05,0.022495856233512482,0.9997464699324842
2025/04/05 15:42:04.507564304,1743860524,506959147,,0.00010763256536069762,1.6865844865844957e-05,0.022295820381843696,0.9997514113639824
2025/04/05 15:42:04.607319890,1743860524,607080402,,-0.0008150826936907422,-1.1495671968068658e-05,0.0220695444961778,0.999756105614656
2025/04/05 15:42:04.709835185,1743860524,709662911,,-0.0017263196953509288,-3.0295785777465814e-05,0.021847210916599236,0.9997598302980774
2025/04/05 15:42:04.810522215,1743860524,810095413,,-0.0024241129735628167,-3.546062187014714e-05,0.02162650138729293,0.9997631803865259
2025/04/05 15:42:04.910891776,1743860524,910685778,,-0.002768581442844385,-8.561734943081484e-06,0.02139207914689243,0.9997673298489325
2025/04/05 15:42:05.6018218,1743860525,5690068,,-0.002678535671604705,5.9798477190292054e-05,0.0211455500712986,0.9997728179856563
2025/04/05 15:42:05.114209356,1743860525,110310252,,-0.0021419943856791634,0.00016136523389655779,0.02084807503374626,0.9997803476707773
2025/04/05 15:42:05.214508404,1743860525,213874719,,-0.0012837476089094305,0.00028023597458997387,0.020485937563897667,0.9997892777090597
2025/04/05 15:42:05.304390698,1743860525,303604067,,-0.0003282887553613792,0.00041844474352894915,0.02003783786271076,0.9997990809078979
2025/04/05 15:42:05.407040899,1743860525,406891831,,0.0005050194874989412,0.0005470451027656264,0.0194596679675052,0.9998103655291674
2025/04/05 15:42:05.511543681,1743860525,509990293,,0.0010091408078330723,0.0006832341446511628,0.018752349863694857,0.999823416509397
2025/04/05 15:42:05.605102237,1743860525,602649087,,0.0010548593995844784,0.0007709991743476479,0.017946372548465157,0.9998380971658721
2025/04/05 15:42:05.704953675,1743860525,703951594,,0.0006502266572298665,0.0007969065895150846,0.017089636475087083,0.9998534324941487
2025/04/05 15:42:05.805270842,1743860525,804751200,,-2.6037490328168596e-05,0.00075934381151746,0.016165281584545766,0.999869044620503
2025/04/05 15:42:05.905914460,1743860525,905722133,,-0.0007942758165245367,0.0006515614634844205,0.015187567255678111,0.9998841344848116
2025/04/05 15:42:06.9906852,1743860526,9579371,,-0.001466402415719137,0.0005260405439407839,0.01418055273824135,0.9998982372568417
2025/04/05 15:42:06.110693158,1743860526,110545187,,-0.001877334678698952,0.000363387958712113,0.013158494772246973,0.9999115948817797
2025/04/05 15:42:06.204151690,1743860526,203804480,,-0.0019248762883812525,0.00021679123769478744,0.012124670772755674,0.9999246172644646
2025/04/05 15:42:06.303365422,1743860526,303191800,,-0.0016069778958020984,9.403563196388823e-05,0.011087625144586857,0.9999372347042566
2025/04/05 15:42:06.403903331,1743860526,403764000,,-0.0009999930216342814,3.799594005830913e-05,0.01004856567031063,0.9999490111491859
2025/04/05 15:42:06.505333207,1743860526,505064025,,-0.000248769247991664,3.05713588836325e-05,0.00901146269030303,0.9999593645340967
2025/04/05 15:42:06.606754200,1743860526,606600326,,0.00047768434250898984,8.173340969221324e-05,0.007989737450384345,0.999967964103247
2025/04/05 15:42:06.708621215,1743860526,708387373,,0.0010191606120204962,0.0001824069513854504,0.006994306806651506,0.9999750035434113
2025/04/05 15:42:06.810068729,1743860526,809965937,,0.001273892017771362,0.00030591001825099555,0.006039817671969593,0.9999809019279704
2025/04/05 15:42:06.912320935,1743860526,911988219,,0.0012248934527083685,0.00041445225259040535,0.0051303785764027455,0.9999860034425595
2025/04/05 15:42:07.5111034,1743860527,3877637,,0.0009205548317396859,0.0005139122473969857,0.004264318477978643,0.999990351983919
2025/04/05 15:42:07.107062800,1743860527,106747763,,0.00044884637550099367,0.0005721599486000041,0.0034322756051616693,0.9999938453081072
2025/04/05 15:42:07.209590734,1743860527,208474579,,-8.88635699288991e-05,0.0005829664195280882,0.002628662734269804,0.9999963711862404
2025/04/05 15:42:07.309414626,1743860527,309279583,,-0.0005774651985614967,0.000538400455369354,0.0018463155751005029,0.9999979838868133
2025/04/05 15:42:07.410326891,1743860527,410141989,,-0.0009523950835848091,0.00045923657283020506,0.0011034902839967425,0.9999988321766021
2025/04/05 15:42:07.511428768,1743860527,511047168,,-0.001142409954294121,0.00034182189619884134,0.00040159672047157,0.9999992083883675
2025/04/05 15:42:07.603069929,1743860527,602693774,,-0.0010973172579605808,0.00023207221857433595,-0.0002673147817085168,0.9999993352898432
2025/04/05 15:42:07.704017556,1743860527,703508448,,-0.0008164096198526554,0.00011960300450282831,-0.0009153105521988475,0.9999992406882352
2025/04/05 15:42:07.807176163,1743860527,805374629,,-0.0003777379934698552,4.782725552842775e-05,-0.001547552174500931,0.9999987300536082
2025/04/05 15:42:07.906455676,1743860527,906161640,,9.376720172586214e-05,2.8163331512530034e-05,-0.002150015865593703,0.999997683920476
2025/04/05 15:42:08.9122652,1743860528,8029820,,0.0005056618597410696,3.500193657421337e-05,-0.0027359366085075937,0.9999961288584183
2025/04/05 15:42:08.110081736,1743860528,109777206,,0.0007563254675068331,0.00010327759207114514,-0.0033074028096155795,0.999994239179497
2025/04/05 15:42:08.211037073,1743860528,210903753,,0.000763924074006989,0.00019891701777290766,-0.003846076168558344,0.9999922922453627
2025/04/05 15:42:08.302086036,1743860528,301801005,,0.0005400365313077419,0.0003029455826144256,-0.0043517152785393165,0.9999903395326644
2025/04/05 15:42:08.404179921,1743860528,403078389,,0.00014056460934352562,0.00040211627951554076,-0.004829224238364719,0.9999882484996231
2025/04/05 15:42:08.503741423,1743860528,503519026,,-0.00034100235417925144,0.000468613291601824,-0.005276408054221337,0.9999859117192715
2025/04/05 15:42:08.604798568,1743860528,604354569,,-0.0007939065518364934,0.0004957535080200451,-0.005694570930952672,0.9999833477627308
2025/04/05 15:42:08.705738290,1743860528,705266620,,-0.0011169261877739132,0.0004853555741329085,-0.0060853938623654374,0.9999807422582685
2025/04/05 15:42:08.809383453,1743860528,809164914,,-0.0012415293016399382,0.0004358332847682007,-0.00645242641173871,0.9999783171887989
2025/04/05 15:42:08.910881300,1743860528,910603731,,-0.001153775714241888,0.00035117886456190477,-0.0067997312380300235,0.9999761542807393
2025/04/05 15:42:09.13652256,1743860529,13168006,,-0.0008734925025469382,0.0002489837639990247,-0.007136925322653566,0.9999741193225313
2025/04/05 15:42:09.104811327,1743860529,103325464,,-0.00047522743757451167,0.000133646181236943,-0.007467976378503472,0.9999719924209832
2025/04/05 15:42:09.205499925,1743860529,205329811,,-9.818295784043467e-05,6.867354569645574e-05,-0.007754686168391584,0.9999699247909812
2025/04/05 15:42:09.309981165,1743860529,308716018,,0.00019333343084111893,2.4550160583371213e-05,-0.008003711147444642,0.9999679508000956
2025/04/05 15:42:09.405049082,1743860529,401891580,,0.000358280883867335,3.163743246773587e-05,-0.00823130777348469,0.9999660575270639
2025/04/05 15:42:09.502685783,1743860529,502475414,,0.00033556700918550245,8.210155514261247e-05,-0.008425666753640914,0.9999644437648139
2025/04/05 15:42:09.604785355,1743860529,603259869,,0.0001198932735758926,0.0001689702242628558,-0.008571907689222006,0.9999632390609335
2025/04/05 15:42:09.705406183,1743860529,705168254,,-0.00019191651816890685,0.0002612867928214068,-0.008696925811586481,0.9999621284722185
2025/04/05 15:42:09.810059258,1743860529,808997429,,-0.0005242853643287164,0.00037047920066280533,-0.008801934713113878,0.9999610561493506
2025/04/05 15:42:09.910666773,1743860529,909084590,,-0.000801990814629667,0.0004530003565838959,-0.008886822275210357,0.9999600871991137
2025/04/05 15:42:10.11308216,1743860530,11071636,,-0.0009618336323534724,0.0005098418038215364,-0.008954491170870438,0.9999593151850077
2025/04/05 15:42:10.103256168,1743860530,101819777,,-0.0010103579554786993,0.0005257243843824339,-0.008987817905819527,0.9999589601178467
2025/04/05 15:42:10.206154878,1743860530,204597573,,-0.0009313580585531408,0.0004970773493335785,-0.008989258051830153,0.9999590385240553
2025/04/05 15:42:10.306217777,1743860530,305974443,,-0.0007205579465681946,0.00042952171051056085,-0.00897878787388624,0.9999593380111321
2025/04/05 15:42:10.408657660,1743860530,407602193,,-0.00043415884657832196,0.0003492926303854621,-0.008954198144277706,0.999959755108348
2025/04/05 15:42:10.513526572,1743860530,511298003,,-0.00014171413490905886,0.0002549705931898569,-0.008915558387092425,0.9999602130713736
2025/04/05 15:42:10.604487041,1743860530,602945662,,8.613458420058138e-05,0.00017116637935330714,-0.00886163358717686,0.9999607165949423
2025/04/05 15:42:10.706024365,1743860530,705803529,,0.0001865327859295175,0.00010700535002621935,-0.008783396526962289,0.9999614021055138
2025/04/05 15:42:10.806993071,1743860530,806767120,,0.00014255770853680304,6.662449602891672e-05,-0.008676513212281415,0.9999623459695637
2025/04/05 15:42:10.910197288,1743860530,908397880,,-2.6648294413274573e-06,7.077979755173071e-05,-0.008559268102905795,0.9999633662853162
2025/04/05 15:42:11.12021867,1743860531,10301781,,-0.00020047184416214822,8.021428695150691e-05,-0.008443012930964226,0.9999643338186395
2025/04/05 15:42:11.108627762,1743860531,106668267,,-0.0004210631971389821,0.00014455406766762432,-0.008316057703727339,0.9999653218958015
2025/04/05 15:42:11.207105919,1743860531,206998536,,-0.0006117982035792535,0.00020253218316341388,-0.008179623320092482,0.9999663386564641
2025/04/05 15:42:11.308214400,1743860531,308039622,,-0.0007168719969142203,0.00026505886638887284,-0.008046935644498767,0.999967330798897
2025/04/05 15:42:11.409206987,1743860531,409045282,,-0.000736148730894287,0.00031991268073768524,-0.007908674227786896,0.999968403807281
2025/04/05 15:42:11.511552432,1743860531,509896130,,-0.0006867417227843167,0.0003585851742288649,-0.007751477143374225,0.9999696567419307
2025/04/05 15:42:11.611081151,1743860531,610745241,,-0.0005765802985053409,0.00037461077381141565,-0.007573612602976764,0.9999710833889486
2025/04/05 15:42:11.712925409,1743860531,711640162,,-0.0004206443684620973,0.00036107531936624816,-0.007388785016424531,0.9999725488926734
2025/04/05 15:42:11.807065197,1743860531,806916088,,-0.0002624460238330572,0.000331696597366437,-0.007194070869356531,0.9999740328847437
2025/04/05 15:42:11.910340592,1743860531,909138823,,-0.00013791525462949716,0.00027081306724951624,-0.006991068754871092,0.9999755159989318
2025/04/05 15:42:12.11117326,1743860532,9974021,,-8.356684191371875e-05,0.0002119603413551489,-0.006772408101926804,0.9999770410253915
2025/04/05 15:42:12.114074081,1743860532,113752129,,-0.00010562549264995388,0.0001336660804743249,-0.006536183966486957,0.9999786244094373
2025/04/05 15:42:12.202673238,1743860532,202510013,,-0.00018257166104108398,8.37984570467427e-05,-0.00629597791721455,0.9999801599569229
2025/04/05 15:42:12.306648480,1743860532,305488644,,-0.0002803526364177208,3.946000412544155e-05,-0.0060574054986914485,0.9999816136729374
2025/04/05 15:42:12.404611059,1743860532,404388066,,-0.00037081948969752915,2.781164071771645e-05,-0.00582545263435276,0.9999829627653781
2025/04/05 15:42:12.506711972,1743860532,505444180,,-0.0004575880035680305,4.2520806494364875e-05,-0.00559068394468452,0.9999842664053423
2025/04/05 15:42:12.606708885,1743860532,606559835,,-0.0005361085213879976,8.104534714522967e-05,-0.005342211748174673,0.9999855832925506
2025/04/05 15:42:12.708502677,1743860532,707742713,,-0.0005766759151700252,0.00014742338409688392,-0.005081203636168534,0.9999869134547924
2025/04/05 15:42:12.809374966,1743860532,809121927,,-0.0005430965905678616,0.00021292582533738506,-0.0048276581209373655,0.9999881766429809
2025/04/05 15:42:12.909189784,1743860532,908906381,,-0.00046524561050166456,0.0002656826003550554,-0.004575635640602492,0.999989388202576
2025/04/05 15:42:13.3010830,1743860533,2776001,,-0.0003603946537831588,0.00031523481785825097,-0.004327463767663623,0.9999905218551037
2025/04/05 15:42:13.103097705,1743860533,102750993,,-0.0002453715918138811,0.00034374624584433477,-0.004090761061018484,0.9999915436168658
2025/04/05 15:42:13.205296453,1743860533,204682847,,-0.00014987697489049837,0.0003340206333249149,-0.003863274570449374,0.9999924705100045
2025/04/05 15:42:13.306277133,1743860533,305924833,,-9.347402085668459e-05,0.0003004461439741554,-0.0036371254161555863,0.999993336134511
2025/04/05 15:42:13.407505832,1743860533,406460326,,-8.019592751301416e-05,0.00024029259599451518,-0.0034181574172285757,0.9999941259967243
2025/04/05 15:42:13.508143971,1743860533,507510472,,-9.780372699218654e-05,0.00017634162722683538,-0.0032183116070123446,0.9999948008907155
2025/04/05 15:42:13.609442235,1743860533,609293473,,-0.00014478866925853804,0.00010750518763720534,-0.003041896231612884,0.999995357162318
2025/04/05 15:42:13.705264228,1743860533,705099004,,-0.00021520523161405936,5.4559483893543186e-05,-0.0028805592595481087,0.9999958265354527
2025/04/05 15:42:13.804242087,1743860533,804085380,,-0.00028644658179390156,3.3118415107557184e-05,-0.0027464136022288333,0.9999961870246565
2025/04/05 15:42:13.904965835,1743860533,904669769,,-0.0003689056416378495,4.485786166265174e-05,-0.002621169665493592,0.9999964956768521
2025/04/05 15:42:14.5541768,1743860534,5048329,,-0.0004472765614731303,8.320555139067546e-05,-0.0025022511819412572,0.9999967658745383
2025/04/05 15:42:14.106182712,1743860534,105905518,,-0.0005191904317977005,0.00015571796996948777,-0.002377590983346919,0.9999970266227421
2025/04/05 15:42:14.207985590,1743860534,207643284,,-0.0005698323668131536,0.00023105418947831071,-0.0022464021514270825,0.9999972877875266
2025/04/05 15:42:14.308903401,1743860534,308656064,,-0.0005885112014281453,0.0003150859357244925,-0.0021085643175049683,0.9999975541629779
2025/04/05 15:42:14.411647771,1743860534,409034506,,-0.0005685419711637723,0.00038079961274799516,-0.001966919424082469,0.9999978314874793
2025/04/05 15:42:14.512078220,1743860534,510526774,,-0.0005226364534052572,0.00041926297161387356,-0.0018234496339394391,0.999998113048785
2025/04/05 15:42:14.611928430,1743860534,611693131,,-0.0004330862013053068,0.00041076026809380766,-0.0016943315290938205,0.9999983864752052
2025/04/05 15:42:14.703999024,1743860534,703737153,,-0.0003186332328066296,0.0003777005104629145,-0.001586018430226054,0.9999986201794112
2025/04/05 15:42:14.805757669,1743860534,805267474,,-0.00022588177105533673,0.00030815469810936604,-0.0014782568235223081,0.9999988343867563
2025/04/05 15:42:14.909760945,1743860534,909211676,,-0.00014761649742846345,0.0002170492360628863,-0.0013798040689433056,0.9999990136193786
2025/04/05 15:42:15.8741402,1743860535,8612118,,-9.29766091043907e-05,0.00011863308750906244,-0.0013020623869021313,0.9999991409571717
2025/04/05 15:42:15.109192388,1743860535,109047518,,-9.59280682198662e-05,5.502877156927097e-05,-0.0012251668115048856,0.9999992433676758
2025/04/05 15:42:15.211422441,1743860535,209824709,,-0.00012973969070453396,1.3913622679374905e-06,-0.0011657458243494487,0.9999993121009383
2025/04/05 15:42:15.304560634,1743860535,303304139,,-0.00018741704774682445,-1.4672709204242418e-05,-0.0011310838407003476,0.9999993426542375
2025/04/05 15:42:15.406529157,1743860535,404799246,,-0.0002853965027997889,1.4881276199922752e-05,-0.0011037785500373066,0.9999993499999369
2025/04/05 15:42:15.505712207,1743860535,505435476,,-0.0004009811367304204,8.737971917285453e-05,-0.001083948063491521,0.9999993283175286
2025/04/05 15:42:15.607708880,1743860535,606578046,,-0.0005076783302367004,0.00017784029817340016,-0.0010709509306464807,0.9999992818495649
2025/04/05 15:42:15.706887252,1743860535,706673802,,-0.0005792664326581215,0.0002818485806076433,-0.0010641792833441634,0.9999992262668159
2025/04/05 15:42:15.810021604,1743860535,809693609,,-0.0006010697025839898,0.00036951250199631524,-0.001063091370614842,0.9999991860058993
2025/04/05 15:42:15.911700568,1743860535,911476134,,-0.0005729377660193884,0.00043446540579578904,-0.0010656374039266273,0.999999173699184
2025/04/05 15:42:16.3116005,1743860536,1560544,,-0.0005002305076883743,0.0004659415069344142,-0.0010733933917737683,0.999999190246961
2025/04/05 15:42:16.102949183,1743860536,102506661,,-0.00040322240373237507,0.0004484634151873886,-0.0010869659834330779,0.9999992273983062
2025/04/05 15:42:16.203360311,1743860536,203219421,,-0.0003243277894218437,0.00039233850726358606,-0.0010975376023941365,0.9999992681463282
2025/04/05 15:42:16.304282461,1743860536,304085874,,-0.00026576378157007404,0.00029904963789888667,-0.0011065686304956633,0.9999993077221566
2025/04/05 15:42:16.407503764,1743860536,405983037,,-0.0002251426843878479,0.0001989445689115237,-0.0011142805767789434,0.9999993340550914
2025/04/05 15:42:16.508190933,1743860536,507598832,,-0.00020522207445783526,9.95341424665766e-05,-0.0011245968755104684,0.9999993416291444
2025/04/05 15:42:16.611116681,1743860536,610452765,,-0.00019792470268517715,1.638356716249073e-05,-0.0011482296051641952,0.9999993210628518
2025/04/05 15:42:16.710182240,1743860536,710045504,,-0.0002076612217158079,-3.430285737622126e-05,-0.0011920741448371056,0.9999992673294137
2025/04/05 15:42:16.805631042,1743860536,803821842,,-0.00025622262779038165,-3.916669468357055e-05,-0.001237156369712749,0.9999992011297069
2025/04/05 15:42:16.905998351,1743860536,904474396,,-0.0003137100574189919,-9.634683350147716e-07,-0.0012899419789791275,0.999999118816993
2025/04/05 15:42:17.8630712,1743860537,8452166,,-0.0003649740174185404,6.142909001973228e-05,-0.0013604635465937144,0.999999006079192
2025/04/05 15:42:17.108694147,1743860537,107204248,,-0.0004194720630149384,0.00015977937784293278,-0.00143452563772162,0.9999988703243287
2025/04/05 15:42:17.208648316,1743860537,207353555,,-0.0004633151997681657,0.00025424117962188116,-0.0015124546704882464,0.9999987165898354
2025/04/05 15:42:17.309589241,1743860537,308113261,,-0.0004851435841702603,0.00034726813667155593,-0.0015946154441373339,0.9999985506200143
2025/04/05 15:42:17.409889680,1743860537,409622884,,-0.00046307513459109746,0.0003914666404937907,-0.0016867898556124194,0.9999983935263457
2025/04/05 15:42:17.510932318,1743860537,510341492,,-0.0004035070227667005,0.00041031121253142763,-0.0017980394465287948,0.9999982179388822
2025/04/05 15:42:17.614289908,1743860537,612171170,,-0.000352082562660788,0.00036941781102372445,-0.0019081950959957015,0.9999980491780099
2025/04/05 15:42:17.705928037,1743860537,705657169,,-0.00033719458157071067,0.0003060691412679124,-0.0020113093821799415,0.9999978736257713
2025/04/05 15:42:17.808384335,1743860537,807225424,,-0.0003475575640504178,0.00021544609353089188,-0.0021100985976359797,0.9999976901326466
2025/04/05 15:42:17.910711131,1743860537,910400809,,-0.00037808475281347746,0.00011512713406557621,-0.002203883469232001,0.9999974933445167
2025/04/05 15:42:18.12568197,1743860538,11494465,,-0.000422501681002761,3.63397969238383e-05,-0.002291653787085948,0.9999972842436468
2025/04/05 15:42:18.102901371,1743860538,101731574,,-0.0004713655654051964,-2.091598810179912e-05,-0.002372891727656331,0.9999970733766544
2025/04/05 15:42:18.206492375,1743860538,203320211,,-0.000511345619500829,-4.320227067959358e-05,-0.002447677701674962,0.9999968727616552
2025/04/05 15:42:18.303887767,1743860538,303745081,,-0.0005353349896862685,-1.6484054834921353e-05,-0.002515230082555598,0.9999966933757114
2025/04/05 15:42:18.407036479,1743860538,406782020,,-0.0005404808827053617,4.234775047772829e-05,-0.002574290992913224,0.9999965395504963
2025/04/05 15:42:18.506815453,1743860538,506499517,,-0.0005134631330318513,0.000129515126986952,-0.0026353610265450233,0.9999963872203252
2025/04/05 15:42:18.613998303,1743860538,612251416,,-0.0004692637621931356,0.0002231784028750434,-0.0026916901832525235,0.9999962423863799
2025/04/05 15:42:18.711232284,1743860538,710518818,,-0.0004188928259557436,0.0003110513446184095,-0.0027432451492308157,0.9999961011833559
2025/04/05 15:42:18.811493800,1743860538,811146394,,-0.0003839315298792226,0.0003735363363999087,-0.0027911109284412287,0.9999959613753302
2025/04/05 15:42:18.904145131,1743860538,903010710,,-0.00037749474388380853,0.00040810092825345696,-0.0028334189496337647,0.9999958313355144
2025/04/05 15:42:19.6520852,1743860539,4628237,,-0.00039884316343636597,0.0004032745286162388,-0.0028689402393495857,0.999995723728701
2025/04/05 15:42:19.106456223,1743860539,106183185,,-0.00042079398599865315,0.00035686310349605115,-0.002904032358550599,0.9999956310790599
2025/04/05 15:42:19.206889160,1743860539,206733422,,-0.0004259319893672982,0.00028222509484547163,-0.0029453054809644953,0.9999955320432987
2025/04/05 15:42:19.307682372,1743860539,307555848,,-0.0004168130455038928,0.00018929432495627677,-0.0029906125904656995,0.9999954233249657
2025/04/05 15:42:19.408775924,1743860539,408543425,,-0.00040527343289920324,0.00010323845027107072,-0.0030335959798253966,0.9999953111843566
2025/04/05 15:42:19.511289077,1743860539,510134847,,-0.00040798620569734543,2.6901482788831014e-05,-0.003073296818595687,0.9999951938235658
2025/04/05 15:42:19.608513053,1743860539,606187835,,-0.00042802265042856367,-9.839865747834022e-06,-0.0031077976956439208,0.9999950791345279
2025/04/05 15:42:19.705718557,1743860539,705514880,,-0.0004607311771140081,-1.6051591368013263e-05,-0.003135657159313329,0.9999949775490415
2025/04/05 15:42:19.806023237,1743860539,805865618,,-0.0004781291633900486,2.018298635899099e-05,-0.0031639228204518263,0.9999948802756624
2025/04/05 15:42:19.906903287,1743860539,906666723,,-0.0004896503971617479,8.520471000615725e-05,-0.003189731410865912,0.9999947892845105
2025/04/05 15:42:20.7895396,1743860540,7745561,,-0.0005001736568595084,0.00016289417872557223,-0.003209334570105191,0.9999947117177254
2025/04/05 15:42:20.108388921,1743860540,108095932,,-0.0005064096298375713,0.00026425318456655225,-0.0032231125058162047,0.9999946426183073
2025/04/05 15:42:20.210355678,1743860540,210074864,,-0.0005041840125445932,0.00034083596066199136,-0.003230760353806209,0.9999945958938307
2025/04/05 15:42:20.311177159,1743860540,310073204,,-0.0004731576858279538,0.00039930708318215735,-0.003239062705812369,0.9999945625594399
2025/04/05 15:42:20.403854388,1743860540,402381943,,-0.0004136984164462748,0.0004136820694447355,-0.0032532549409009723,0.9999945370116055
2025/04/05 15:42:20.505043853,1743860540,504120472,,-0.0003422863290126375,0.00038447072956010925,-0.0032733799957103634,0.9999945099877953
2025/04/05 15:42:20.609362357,1743860540,608243544,,-0.00029557260534574057,0.0003222581987488125,-0.0032905335057694385,0.999994490572691
2025/04/05 15:42:20.707841890,1743860540,707323858,,-0.0002680937602193994,0.0002403179844992549,-0.0033085175099875916,0.9999944620271095
2025/04/05 15:42:20.808915227,1743860540,807381973,,-0.0002569669412482808,0.00014420154316372908,-0.0033330628144003643,0.9999944019174214
2025/04/05 15:42:20.908665418,1743860540,908520199,,-0.0002653788022776702,5.941120733816227e-05,-0.0033642846223644386,0.9999943038004664
2025/04/05 15:42:21.12569172,1743860541,10730239,,-0.00029345844430926036,-1.2481383343065839e-05,-0.0034005007385154787,0.9999941751435775
2025/04/05 15:42:21.102297903,1743860541,101919754,,-0.0003454352862322557,-3.8582529319863424e-05,-0.003432597732388524,0.9999940482116176
2025/04/05 15:42:21.204010309,1743860541,203717848,,-0.00041018374833365877,-3.0782372568026395e-05,-0.0034597028966200107,0.9999939306103839
2025/04/05 15:42:21.306837132,1743860541,306716161,,-0.0004725287957520767,2.39223423017053e-05,-0.0034821074005020243,0.9999938255170929
2025/04/05 15:42:21.408445802,1743860541,408207159,,-0.0005171766321243416,9.948830232355191e-05,-0.0035016368485458684,0.999993730565242
2025/04/05 15:42:21.508549739,1743860541,508373713,,-0.0005474550101689638,0.00019495040299833888,-0.0035184743423003328,0.9999936412926108
2025/04/05 15:42:21.612572534,1743860541,611333618,,-0.0005616485843041223,0.0002918479737353581,-0.0035308281404357778,0.999993566293439
2025/04/05 15:42:21.703500219,1743860541,703129528,,-0.0005572461211013371,0.0003655016981561949,-0.0035387335448157243,0.9999935166040668
2025/04/05 15:42:21.804451796,1743860541,803651800,,-0.0005359463675633024,0.0004069810118569466,-0.003542270913715147,0.9999934997012335
2025/04/05 15:42:21.907584902,1743860541,905360871,,-0.0005027947534733389,0.00040778960317249864,-0.0035404515883614342,0.9999935230328374
2025/04/05 15:42:22.10196600,1743860542,8625289,,-0.000464391575197666,0.0003735592442685729,-0.0035325485929440614,0.9999935829266078
2025/04/05 15:42:22.110792418,1743860542,110559347,,-0.0004284504963940786,0.0003007967794522112,-0.0035183036905809197,0.9999936737252944
2025/04/05 15:42:22.213182337,1743860542,211407363,,-0.00037944179220904587,0.00021220420801388486,-0.0035054061118054303,0.9999937615411867
2025/04/05 15:42:22.302857190,1743860542,301769842,,-0.00031921598698117677,0.00011614585063283466,-0.0034990147891110195,0.9999938207343086
2025/04/05 15:42:22.403038746,1743860542,402826275,,-0.0002636133362234602,2.5500784362465714e-05,-0.0035006973337059918,0.99999383746896
2025/04/05 15:42:22.508478838,1743860542,506938396,,-0.00025024829204166343,-3.184640627544126e-05,-0.00350052781502899,0.9999938413143428
2025/04/05 15:42:22.615325107,1743860542,614657023,,-0.0002669997625090189,-5.081414577407898e-05,-0.0035021903598364615,0.9999938303768343
2025/04/05 15:42:22.707496474,1743860542,704951128,,-0.00029460745488102077,-4.352776273257164e-05,-0.0035139355988684636,0.999993781764861
2025/04/05 15:42:22.807327143,1743860542,806136317,,-0.00033165575367245835,2.407245164240503e-05,-0.0035341165631446628,0.9999936997027012
2025/04/05 15:42:22.907409151,1743860542,906899842,,-0.00039326916732195275,0.00010177156043815014,-0.003551742585327614,0.9999936100328437
2025/04/05 15:42:23.9338571,1743860543,8936907,,-0.00045096647984114286,0.0001895005760413527,-0.0035710033554666796,0.9999935043058035
2025/04/05 15:42:23.111966094,1743860543,110574982,,-0.0005076816735770051,0.00028462627848288075,-0.0035866102781548885,0.9999933987151678
2025/04/05 15:42:23.213214499,1743860543,212984049,,-0.0005348886760801838,0.000366465626706127,-0.003602458622465761,0.9999933009220222
2025/04/05 15:42:23.303668654,1743860543,302105644,,-0.0005171423373099242,0.00039864187498607067,-0.003625561204922244,0.9999932144541821
2025/04/05 15:42:23.403949238,1743860543,403548938,,-0.0004840113433079758,0.0003890057869299865,-0.0036470986078426058,0.9999931565162143
2025/04/05 15:42:23.506666324,1743860543,504543221,,-0.0004447317990722588,0.00035695352582628233,-0.0036635164995372383,0.9999931266987113
2025/04/05 15:42:23.609043901,1743860543,608381325,,-0.0003881514046115711,0.0002838487639360831,-0.00368000743281615,0.9999931131331159
2025/04/05 15:42:23.713231727,1743860543,712679007,,-0.00032159857809384735,0.00020108448396105396,-0.003702057969340183,0.9999930754291134
2025/04/05 15:42:23.813457197,1743860543,812523701,,-0.0002835292054133102,0.00010903486932781197,-0.0037227281968999866,0.9999930244843506
2025/04/05 15:42:23.905409230,1743860543,905155539,,-0.0002883833433468887,3.601439064837418e-05,-0.003738504326651622,0.9999929695369916
2025/04/05 15:42:24.7514169,1743860544,5271955,,-0.00033446547901480643,-2.1885252044971355e-05,-0.0037474358077063427,0.9999929221643252
2025/04/05 15:42:24.108677576,1743860544,107520086,,-0.0003918128418927226,-2.7914795444232882e-05,-0.0037560185417516148,0.9999928689886619
2025/04/05 15:42:24.207780352,1743860544,207636673,,-0.00045794221202231277,-1.078250800830136e-05,-0.003761344929955561,0.9999928212027254
2025/04/05 15:42:24.309207702,1743860544,308976585,,-0.0005069278062619054,5.469556138207231e-05,-0.003766510859541899,0.9999927766881818
2025/04/05 15:42:24.411240025,1743860544,410135012,,-0.0005378180430099564,0.00012746815059548448,-0.003770622156188726,0.999992738429724
2025/04/05 15:42:24.503352675,1743860544,502695585,,-0.0005509605164856305,0.00022583488147489544,-0.0037699408781019348,0.9999927164669207
2025/04/05 15:42:24.604600455,1743860544,604229499,,-0.0005441592992041137,0.0002995799242470537,-0.0037647204398731865,0.9999927204847722
2025/04/05 15:42:24.710255244,1743860544,709507062,,-0.0005193328659154797,0.00036875676297057656,-0.0037547754070159497,0.9999927479604375
2025/04/05 15:42:24.809720029,1743860544,808109117,,-0.0004823189469552111,0.0003889460224944109,-0.003739984848836577,0.9999928142755604
2025/04/05 15:42:24.908389615,1743860544,908168649,,-0.00044312387658200964,0.00037509061386493665,-0.003720102045232333,0.9999929118693964
2025/04/05 15:42:25.11138378,1743860545,9862216,,-0.00040832312809047186,0.00032335434200107414,-0.0036949372966130567,0.999993038052049
2025/04/05 15:42:25.109855574,1743860545,109645976,,-0.0003861151612792671,0.0002520107983002283,-0.0036644421421349474,0.9999931796114545
2025/04/05 15:42:25.210561443,1743860545,210378132,,-0.0003836798041023707,0.00015872326976305601,-0.0036275069744207853,0.9999933343727258
2025/04/05 15:42:25.314246942,1743860545,313100865,,-0.0004004887009325376,7.686935213506302e-05,-0.003583468556474467,0.9999934962053543
2025/04/05 15:42:25.402305585,1743860545,401884036,,-0.0004106314499961972,4.401357608698531e-06,-0.0035412842075782176,0.9999936453141097
2025/04/05 15:42:25.506494043,1743860545,505338036,,-0.00042551602134961595,-3.586404885615289e-05,-0.0034975344421090027,0.999993792432089
2025/04/05 15:42:25.610681738,1743860545,608582540,,-0.00044807468137835876,-4.551487739777819e-05,-0.003447376571273373,0.999993956357863
2025/04/05 15:42:25.710208707,1743860545,710011978,,-0.000447938013701655,-1.4236846956743951e-05,-0.0033985314603535367,0.9999941245491201
2025/04/05 15:42:25.811616563,1743860545,810341766,,-0.00041461526050559525,4.596432828356649e-05,-0.0033567609839850166,0.9999942790522167
2025/04/05 15:42:25.902389532,1743860545,902103700,,-0.00035891291486347455,0.00013786888195294433,-0.003321267951899288,0.999994410660821
2025/04/05 15:42:26.4647976,1743860546,3913529,,-0.0002963362594482908,0.0002166254693328946,-0.003293079688117639,0.9999945104271298
2025/04/05 15:42:26.105218682,1743860546,104613683,,-0.00026654352767249885,0.00030024657569956603,-0.0032633649359273395,0.9999945946133092
2025/04/05 15:42:26.210992335,1743860546,209744285,,-0.0002821794793609874,0.0003564206244965219,-0.00322806870564327,0.9999946864416388
2025/04/05 15:42:26.311273772,1743860546,311058925,,-0.0003362631363789514,0.0003831100925494376,-0.0031867246849264213,0.999994792456212
2025/04/05 15:42:26.411849623,1743860546,411585342,,-0.00041656457851532426,0.0003763629857997291,-0.003139222331743489,0.999994915041075
2025/04/05 15:42:26.504701131,1743860546,502272029,,-0.000506604244693603,0.00033053378212534354,-0.003085840409475573,0.9999950558320403
2025/04/05 15:42:26.605723329,1743860546,605101241,,-0.0005852397378678996,0.0002571337184391073,-0.0030271766120919673,0.9999952137777757
2025/04/05 15:42:26.705693228,1743860546,705464264,,-0.0006333084102782508,0.00016334618057046145,-0.0029637242168740973,0.9999953942780182
2025/04/05 15:42:26.813300986,1743860546,812521122,,-0.0006377906749537601,6.886372563944082e-05,-0.0028957378457316603,0.9999956015819125
2025/04/05 15:42:26.916551162,1743860546,914076884,,-0.0005988338437632998,-1.887446557169133e-06,-0.0028229495975756933,0.9999958361663486
2025/04/05 15:42:27.10500192,1743860547,8914812,,-0.000526087174878297,-5.090030182814851e-05,-0.0027452422844788382,0.9999960921354859
2025/04/05 15:42:27.117569905,1743860547,111260980,,-0.00043827067248146113,-5.726173355529989e-05,-0.0026626607833442014,0.999996357432098
2025/04/05 15:42:27.210641918,1743860547,206026657,,-0.00035583371437229955,-3.2634835478011074e-05,-0.002575015694957938,0.9999966208000435
2025/04/05 15:42:27.308485022,1743860547,308171194,,-0.0002975651951011884,3.854460571519337e-05,-0.002481951314453355,0.9999968749385874
2025/04/05 15:42:27.409062907,1743860547,408850720,,-0.00027744303072228875,0.00011592184804311665,-0.0023833219688197695,0.9999971146777789
2025/04/05 15:42:27.510612865,1743860547,509512868,,-0.00029911635601963043,0.00020671524447542333,-0.002279757666774931,0.9999973352480466
2025/04/05 15:42:27.612967213,1743860547,612746010,,-0.00035024191057243196,0.0002812228300421665,-0.002174988767597574,0.9999975338310514
2025/04/05 15:42:27.710724831,1743860547,709179788,,-0.0004015498581342974,0.00032952631630980107,-0.0020801254678556153,0.9999977016214369
2025/04/05 15:42:27.808365953,1743860547,808226800,,-0.000418072728059628,0.00033103159275509514,-0.002004215146714293,0.9999978493751496
2025/04/05 15:42:27.910013891,1743860547,909348981,,-0.0003910842937626885,0.0003068996258352001,-0.001960090260244919,0.9999979554538432
2025/04/05 15:42:28.11166106,1743860548,10523621,,-0.00035872687496406054,0.00024337503334709008,-0.0019255862612181473,0.9999980520986893
2025/04/05 15:42:28.101939464,1743860548,101781255,,-0.00032258581602766825,0.00017592785503521314,-0.0018949055388861108,0.9999981371586548
2025/04/05 15:42:28.203831684,1743860548,202195163,,-0.0002818937580708767,9.616540376002929e-05,-0.001871394319692782,0.9999982045841005
2025/04/05 15:42:28.306198180,1743860548,306007472,,-0.0002301889094867669,2.882645276084317e-05,-0.0018672452444346206,0.9999982297870825
2025/04/05 15:42:28.408684802,1743860548,408456231,,-0.00018644161764507902,-1.8102821781425214e-05,-0.0018875375709158958,0.9999982010552466
2025/04/05 15:42:28.511344291,1743860548,510256166,,-0.00017125121139202463,-3.5308482339951584e-05,-0.0019195053190751037,0.9999981424611066
2025/04/05 15:42:28.615116742,1743860548,614707038,,-0.00018368866974187006,-2.101107864173197e-05,-0.0019712812260756214,0.9999980399317465
2025/04/05 15:42:28.703749596,1743860548,703467917,,-0.00023781362110913455,2.7955159427882275e-05,-0.002022490866852965,0.9999979260947915
2025/04/05 15:42:28.805944502,1743860548,804003307,,-0.0003020777932530826,8.774575959856313e-05,-0.0020874851807149717,0.9999977717251718
2025/04/05 15:42:28.904980034,1743860548,904701288,,-0.0003657313009622908,0.00016240906047481919,-0.0021716288631034577,0.9999975619430247
2025/04/05 15:42:29.6491409,1743860549,6283923,,-0.00045001060851402843,0.0002235343652162088,-0.0022509986348076645,0.9999973402604558
2025/04/05 15:42:29.107663143,1743860549,106156592,,-0.0005262494724890906,0.00028463076991081323,-0.002332638144078637,0.9999971004188494
2025/04/05 15:42:29.207547449,1743860549,207364786,,-0.0005896093164604798,0.0003056545086544197,-0.002407711054353125,0.9999968809269627
2025/04/05 15:42:29.308260944,1743860549,307956535,,-0.0006264180447826311,0.00031762319178135605,-0.0024751937896321653,0.9999966900603446
2025/04/05 15:42:29.409952946,1743860549,409755344,,-0.0006279760271183569,0.0002884380421531504,-0.0025352628222768624,0.9999965474400535
2025/04/05 15:42:29.512626788,1743860549,511846060,,-0.0005951645638877992,0.00025249611936702777,-0.0025877218932552097,0.9999964428538007
2025/04/05 15:42:29.602349922,1743860549,601835786,,-0.0005343389550694914,0.0001844120842953964,-0.0026332084462362933,0.9999963733370951
2025/04/05 15:42:29.705663630,1743860549,705205537,,-0.00045797351246330115,0.0001308505816273124,-0.002673502509611809,0.9999963127545612
2025/04/05 15:42:29.808895356,1743860549,808331882,,-0.00037040389168344735,6.642141051535198e-05,-0.0027176544335535116,0.999996236364684
2025/04/05 15:42:29.909550620,1743860549,908058570,,-0.0003044404444580818,3.5070259064987535e-05,-0.0027564290883332256,0.9999961540849913
2025/04/05 15:42:30.9558248,1743860550,8838322,,-0.00027824590567827645,1.0734052884431337e-05,-0.0027878531846148415,0.9999960751616064
2025/04/05 15:42:30.109434467,1743860550,109280813,,-0.0002957231930362049,3.226351522887587e-05,-0.00281233759377018,0.9999960011240632
2025/04/05 15:42:30.210952970,1743860550,210468864,,-0.0003463856297001309,6.235876965437574e-05,-0.002833012095275256,0.9999959250771212
2025/04/05 15:42:30.308036190,1743860550,307118256,,-0.0004062231761857359,0.00012674908168848017,-0.002858526214616339,0.9999958238639208
2025/04/05 15:42:30.409882827,1743860550,408900445,,-0.0004758737958810165,0.00018324425287381585,-0.0028786018453469003,0.999995726799415
2025/04/05 15:42:30.513540748,1743860550,508511396,,-0.0005361946423140003,0.0002547176781286005,-0.0028946351485767663,0.9999956343412538
2025/04/05 15:42:30.609830468,1743860550,606330584,,-0.0005597639742404048,0.00029449142222573855,-0.00291621029789476,0.999995547818386
2025/04/05 15:42:30.709575141,1743860550,705927277,,-0.0005553724435462193,0.00033068385781639926,-0.0029335245043465613,0.9999954883116311
2025/04/05 15:42:30.804902727,1743860550,804712343,,-0.0005228180403468653,0.0003247251665717107,-0.00294764206254163,0.9999954663002898
2025/04/05 15:42:30.905359401,1743860550,905017896,,-0.0004594872140938016,0.0003009001378195277,-0.002967195156015131,0.9999954470313919
2025/04/05 15:42:31.10073831,1743860551,9006036,,-0.0003954335395377638,0.00024285308585805186,-0.0029813665302476566,0.9999954480437933
2025/04/05 15:42:31.109744332,1743860551,109482752,,-0.00034609913533048943,0.00017921986167199018,-0.0029886384678350962,0.9999954580575545
2025/04/05 15:42:31.210181555,1743860551,209896133,,-0.00032307983996204413,0.0001187333606307054,-0.00298925964494579,0.9999954729140433
2025/04/05 15:42:31.312465984,1743860551,310949134,,-0.0003332284702552634,7.03273264261673e-05,-0.0029820782891414955,0.9999954956008208
2025/04/05 15:42:31.404774706,1743860551,404429509,,-0.00037036476122497073,3.058717302540751e-05,-0.002967856653454361,0.999995526850622
2025/04/05 15:42:31.505644127,1743860551,504669879,,-0.00042640726069342264,1.7591967922684194e-05,-0.0029467530049133383,0.9999955672472247
2025/04/05 15:42:31.607581545,1743860551,606555817,,-0.00048783730976297165,4.4456531128192746e-05,-0.00291895297017252,0.9999956198663742
2025/04/05 15:42:31.706139106,1743860551,705974977,,-0.0005375356144772155,8.110319472765e-05,-0.0028863266037997305,0.9999956867889337
2025/04/05 15:42:31.811874851,1743860551,811481333,,-0.0005639174640836815,0.00013530918332829646,-0.0028488889726926477,0.9999957737511393
2025/04/05 15:42:31.910661664,1743860551,910436836,,-0.0005651980714907369,0.00019242708701334543,-0.0028049959433720686,0.9999958877519016
2025/04/05 15:42:32.13594393,1743860552,11185770,,-0.0005355157659927832,0.00023992302275617052,-0.002757928904489873,0.9999960247360813
2025/04/05 15:42:32.102666947,1743860552,101545797,,-0.0004760115665588591,0.00027883589312029805,-0.00271145471637942,0.9999961718310997
2025/04/05 15:42:32.206508338,1743860552,203928557,,-0.00040113196502902153,0.00029199042588185387,-0.002663932187953227,0.9999963286432785
2025/04/05 15:42:32.305436283,1743860552,305158011,,-0.00031650448146876005,0.0002798479196348468,-0.002617471763556316,0.999996485169634
2025/04/05 15:42:32.406300644,1743860552,406109124,,-0.0002585867796782061,0.000243993132937812,-0.0025684555250470027,0.9999966383125717
2025/04/05 15:42:32.507874660,1743860552,507746101,,-0.00023911566231523513,0.0001950006394195574,-0.002518456082553432,0.9999967810835247
2025/04/05 15:42:32.614714128,1743860552,611432951,,-0.0002592800246488858,0.0001383537750202327,-0.0024688852999703117,0.9999969091139619
2025/04/05 15:42:32.703988313,1743860552,703711613,,-0.00031369883421685895,8.701730488033003e-05,-0.002419586511922397,0.9999970198066299
2025/04/05 15:42:32.804307977,1743860552,803997342,,-0.00039260585062605405,4.62729509622339e-05,-0.0023687161128051605,0.9999971164475611
2025/04/05 15:42:32.907651466,1743860552,907378318,,-0.00047307105129443467,2.5913543415689702e-05,-0.002318432753011671,0.9999972001969998
2025/04/05 15:42:33.6639289,1743860553,5897639,,-0.0005358210880073095,2.7306219203125868e-05,-0.0022692075749612276,0.9999972814198616
2025/04/05 15:42:33.109030229,1743860553,107859975,,-0.0005658532886830301,5.220981737227051e-05,-0.0022221401255121532,0.9999973695852671
2025/04/05 15:42:33.208590042,1743860553,208349415,,-0.0005474415275700431,9.203818575207187e-05,-0.0021850226880810986,0.9999974587530704
2025/04/05 15:42:33.304540390,1743860553,303282873,,-0.0004994292668604374,0.00014428362120680425,-0.002147412459384745,0.9999975591832079
2025/04/05 15:42:33.408106322,1743860553,407201012,,-0.00042151302663184765,0.000194979772962049,-0.0021186501827905116,0.9999976478127633
2025/04/05 15:42:33.512543979,1743860553,512207467,,-0.00034500500440967614,0.0002397584494909602,-0.002089031704856672,0.9999977297144074
2025/04/05 15:42:33.610186599,1743860553,609665433,,-0.0002752811767611626,0.0002675967916457243,-0.002067895884127087,0.9999977882069756
2025/04/05 15:42:33.712333976,1743860553,711784608,,-0.00024069269674161675,0.00027813630486336086,-0.0020455685838467763,0.9999978401758628
2025/04/05 15:42:33.802895215,1743860553,802755314,,-0.00023564721124484848,0.0002631754893575803,-0.0020298372935185368,0.9999978774825552
2025/04/05 15:42:33.908318813,1743860553,907285830,,-0.0002561137750665053,0.0002294025122504871,-0.002015960843983785,0.9999979088388621
2025/04/05 15:42:34.8471810,1743860554,6238797,,-0.000313134493689216,0.0001839600032900292,-0.002000134958857623,0.9999979337806916
2025/04/05 15:42:34.110166808,1743860554,109544173,,-0.00039788034493177084,0.00013759625142994463,-0.001979858909132597,0.999997951456503
2025/04/05 15:42:34.210272157,1743860554,209943559,,-0.0004833202284112008,9.672893264560944e-05,-0.001959782946393012,0.9999979581458521
2025/04/05 15:42:34.312081417,1743860554,310938337,,-0.0005486561609805801,6.647160405941269e-05,-0.0019405469229018344,0.9999979644157196
2025/04/05 15:42:34.404991565,1743860554,404705415,,-0.0005771597990180285,5.269045956705048e-05,-0.0019237266100056805,0.9999979816910691
2025/04/05 15:42:34.506544404,1743860554,505935353,,-0.0005557900401386657,5.801577487706341e-05,-0.001915253938876035,0.9999980097649949
2025/04/05 15:42:34.612179358,1743860554,610477464,,-0.0005050078779469369,8.034584012826545e-05,-0.0019048317924818447,0.9999980550618244
2025/04/05 15:42:34.710361029,1743860554,707924210,,-0.00041972314452603745,0.00011552977935324078,-0.0019053636345718187,0.9999980900355621
2025/04/05 15:42:34.809227043,1743860554,808103408,,-0.0003227410385253291,0.00015509378052157196,-0.0019161106821234983,0.9999981001501929
2025/04/05 15:42:34.911397393,1743860554,911217420,,-0.00025186378564244776,0.00019709131520144395,-0.0019249900754772157,0.9999980960646156
2025/04/05 15:42:35.3756771,1743860555,2071888,,-0.0002104882565257072,0.0002295329657549936,-0.001941524103144055,0.9999980667448655
2025/04/05 15:42:35.104572779,1743860555,103315921,,-0.00021983369045133628,0.00025150603865489686,-0.0019559832897811016,0.9999980312716776
2025/04/05 15:42:35.205877811,1743860555,204965455,,-0.000264375272977063,0.0002556743959529747,-0.0019779055309718714,0.9999979763109668
2025/04/05 15:42:35.306442762,1743860555,306295989,,-0.00034998764981590774,0.0002500595022490461,-0.0019941978869685837,0.9999979190746738
2025/04/05 15:42:35.407509744,1743860555,407121633,,-0.0004540151218054455,0.00022670569570313644,-0.002005869418277974,0.9999978594790458
2025/04/05 15:42:35.510553589,1743860555,510407790,,-0.0005377338005868474,0.00018887049265917227,-0.0020233491155921763,0.9999977906118859
2025/04/05 15:42:35.611728267,1743860555,611315444,,-0.0005916823718913715,0.00015130867010523626,-0.0020387108035646202,0.9999977353353939
2025/04/05 15:42:35.704982210,1743860555,704610545,,-0.0005904860926775757,0.00010708602945907652,-0.00206225514077873,0.9999976934785855
2025/04/05 15:42:35.804066275,1743860555,802649210,,-0.0005335259302826182,8.402133942812524e-05,-0.0020956720718619515,0.9999976582217898
2025/04/05 15:42:35.905245896,1743860555,903896986,,-0.00043506506141651266,7.031411260115138e-05,-0.002140107447871151,0.9999976128543655
2025/04/05 15:42:36.6798485,1743860556,5388018,,-0.0003186108110641835,5.593461564585381e-05,-0.0021958636904889943,0.9999975367675276
2025/04/05 15:42:36.106584875,1743860556,105827379,,-0.00021228731656375044,6.0426725198326405e-05,-0.0022625741460761167,0.9999974160171313
2025/04/05 15:42:36.208716804,1743860556,207151500,,-0.00014084864758327957,7.651612851735314e-05,-0.0023398996358043925,0.9999972495845351
2025/04/05 15:42:36.310685845,1743860556,308710415,,-0.0001260237289597001,9.995424971649444e-05,-0.0024234845550094876,0.9999970504205397
2025/04/05 15:42:36.410053275,1743860556,409201913,,-0.00018958801764813054,0.00012907325981077985,-0.002499578429957698,0.9999968497471128
2025/04/05 15:42:36.511243863,1743860556,511085552,,-0.00030533353039309915,0.00015805619944173773,-0.0025766996704152238,0.9999966211985326
2025/04/05 15:42:36.603979275,1743860556,603186042,,-0.0004631747294376592,0.00018414842220066714,-0.0026408736202906406,0.9999963886660043
2025/04/05 15:42:36.706755083,1743860556,705051312,,-0.0006277414735800618,0.00021385957065187693,-0.002690614413607948,0.9999961603920305
2025/04/05 15:42:36.805167656,1743860556,804958987,,-0.0007569179925625185,0.00021565496254833403,-0.0027272898554770667,0.9999959712209514
2025/04/05 15:42:36.906685777,1743860556,906458649,,-0.0008227386087164671,0.00022466237799500074,-0.002749876499187414,0.9999958553950296
2025/04/05 15:42:37.7456373,1743860557,7306900,,-0.0008106941383746621,0.00021831164448629151,-0.002759552951347333,0.9999958399826214
2025/04/05 15:42:37.108682119,1743860557,108406400,,-0.0007197499816285419,0.00020192566192014306,-0.0027593827685680706,0.999995913488014
2025/04/05 15:42:37.210588685,1743860557,208462999,,-0.0005613032782112526,0.00018088174009100262,-0.002755885765295837,0.9999960286491515
2025/04/05 15:42:37.311985908,1743860557,310171943,,-0.00036074467802767543,0.00015230608353762734,-0.002756437828352428,0.999996124350806
2025/04/05 15:42:37.413318516,1743860557,413149352,,-0.00016144760252312943,0.00012411260638075941,-0.002756176770582284,0.9999961810028786
2025/04/05 15:42:37.511621802,1743860557,511437575,,-2.2468396936473164e-05,0.00010196180917664336,-0.0027537511958153856,0.9999962029694474
2025/04/05 15:42:37.602225747,1743860557,602001898,,2.0854519354277314e-05,9.363585258277205e-05,-0.0027470762617687293,0.9999962221775781
2025/04/05 15:42:37.703171480,1743860557,703021610,,-3.4580171863171336e-05,9.820366378967537e-05,-0.00273933424969136,0.9999962425970013
2025/04/05 15:42:37.806705251,1743860557,805759380,,-0.00017278881148685265,0.00011684420750379832,-0.0027310485882685795,0.9999962489254979
2025/04/05 15:42:37.906128361,1743860557,905901093,,-0.00035810388884700286,0.00014169743001199697,-0.0027236460258290456,0.9999962167107279
2025/04/05 15:42:38.9085621,1743860558,6574647,,-0.000540994419272545,0.0001689047288917697,-0.0027220337599041843,0.99999613465675
2025/04/05 15:42:38.107392987,1743860558,107266363,,-0.0006933042471747673,0.00019276358557720086,-0.0027164307946317117,0.9999960515797844
2025/04/05 15:42:38.210210998,1743860558,208960476,,-0.0007767167556856897,0.00021190661885002056,-0.0027091198922410895,0.9999960062300628
2025/04/05 15:42:38.311010549,1743860558,310664330,,-0.0007727714691617355,0.00022075256447546336,-0.002700777823872119,0.9999960299379732
2025/04/05 15:42:38.412063509,1743860558,410816342,,-0.0006836345106667403,0.0002220340741569299,-0.002691841926632775,0.9999961186583515
2025/04/05 15:42:38.512873159,1743860558,511717069,,-0.000529711965069626,0.00021499961157737452,-0.002683801589015559,0.999996235187629
2025/04/05 15:42:38.604197640,1743860558,603936112,,-0.0003414370320907888,0.00018973654710368975,-0.002682006704305797,0.9999963271236719
2025/04/05 15:42:38.708298683,1743860558,706273418,,-0.00017761618024587662,0.0001583383429913728,-0.002675662485954183,0.999996392099353
2025/04/05 15:42:38.810853967,1743860558,810591907,,-7.202843297090282e-05,0.00014682173739035006,-0.0026667149100235484,0.9999964309370664
2025/04/05 15:42:38.910551869,1743860558,910355016,,-4.360117618553004e-05,0.00011713116159218576,-0.0026577116008221014,0.9999964604678735
2025/04/05 15:42:39.11458878,1743860559,11141514,,-8.952830650392313e-05,0.00011042757452347508,-0.002654756231938373,0.9999964660236466
2025/04/05 15:42:39.103865985,1743860559,103541632,,-0.000205769818782836,0.00011474924511867951,-0.0026518616359242093,0.9999964560543484
2025/04/05 15:42:39.206884318,1743860559,205267220,,-0.0003536862074253658,0.0001197150749976745,-0.002654400702126093,0.9999964073591865
2025/04/05 15:42:39.306472425,1743860559,306234917,,-0.0004955851137334388,0.00012770981868928885,-0.0026566899148073755,0.9999963400354492
2025/04/05 15:42:39.408550858,1743860559,407044894,,-0.0006124462870459723,0.000160180632037552,-0.002657097516268767,0.9999962695352916
2025/04/05 15:42:39.509042106,1743860559,508784962,,-0.000681216799541488,0.0001705724790884359,-0.0026546903933751947,0.9999962297267009
2025/04/05 15:42:39.610468101,1743860559,610256616,,-0.0006720644801121485,0.00019270353687282865,-0.0026610110110996824,0.9999962151003774
2025/04/05 15:42:39.715494876,1743860559,714374116,,-0.000591562834474684,0.00021091201604529303,-0.0026745448626172338,0.9999962261825353
2025/04/05 15:42:39.802294726,1743860559,801973996,,-0.00046985982992659803,0.0002154824346823274,-0.0026878038793918943,0.9999962542476679
2025/04/05 15:42:39.906769975,1743860559,905074763,,-0.0003271071359339309,0.00020724198631557182,-0.0027077045577371087,0.9999962591868575
2025/04/05 15:42:40.6271564,1743860560,6058349,,-0.00021012356546278745,0.00021348683524969667,-0.0027243334217400736,0.9999962441323795
2025/04/05 15:42:40.109409287,1743860560,109189436,,-0.00013252779217115545,0.0001776554884573135,-0.00274780201137249,0.9999962002222899
2025/04/05 15:42:40.211540947,1743860560,208131496,,-0.00011201104194474898,0.00015902257831834247,-0.0027781139053841327,0.9999961221167184
2025/04/05 15:42:40.310295065,1743860560,308742099,,-0.0001641735781938208,0.00012502213279411362,-0.0028057183371464974,0.9999960426727273
2025/04/05 15:42:40.410032189,1743860560,409883279,,-0.000264024270450123,0.0001131341477502192,-0.0028388902792033225,0.9999959290886298
2025/04/05 15:42:40.512467074,1743860560,511468290,,-0.000397918353531274,9.316859150323334e-05,-0.0028693287065413102,0.9999957999578655
2025/04/05 15:42:40.604853129,1743860560,603218426,,-0.0005227480999228473,0.00010016656197597884,-0.0029051791299182497,0.9999956383081413
2025/04/05 15:42:40.703358121,1743860560,703188216,,-0.0006201889818052618,0.00010163027419909461,-0.002939011025180957,0.9999954836153552
2025/04/05 15:42:40.805871720,1743860560,804127094,,-0.0006581526817690284,0.00012952929780797056,-0.0029786371853690774,0.9999953388780002
2025/04/05 15:42:40.905073477,1743860560,904853001,,-0.0006402002434680051,0.00014697629354200903,-0.003015723413016738,0.9999952369656135
2025/04/05 15:42:41.7662131,1743860561,6086293,,-0.0005611823375377804,0.00018172462886825662,-0.0030580092606899106,0.9999951503031926
2025/04/05 15:42:41.109353488,1743860561,108244798,,-0.0004517982250229264,0.00019583325128878342,-0.0030977666298885593,0.9999950806727043
2025/04/05 15:42:41.209967873,1743860561,208886031,,-0.0003280244189119702,0.00021942559042597992,-0.0031427441038242875,0.9999949836933627
2025/04/05 15:42:41.310705442,1743860561,310326793,,-0.00023346719961034142,0.00021388339583681685,-0.0031817010341053486,0.9999948882496796
2025/04/05 15:42:41.411072188,1743860561,410666935,,-0.00018977217003485615,0.00021560123476361192,-0.0032138236475320703,0.9999947944065477
2025/04/05 15:42:41.505420464,1743860561,505275176,,-0.00020997555544478486,0.00019302007864398015,-0.003236885051824009,0.9999947206004023
2025/04/05 15:42:41.607309763,1743860561,607096536,,-0.0002770761683230729,0.00018392647584282928,-0.003257396829084062,0.999994639368505
2025/04/05 15:42:41.708460621,1743860561,706945886,,-0.0003596080351155284,0.00015267689251677275,-0.003286663854199558,0.9999945225912675
2025/04/05 15:42:41.810297326,1743860561,810033757,,-0.0004412032966673069,0.00013816513841551482,-0.003322992598206157,0.9999943719692815
2025/04/05 15:42:41.904374921,1743860561,903554447,,-0.0005204609989064453,0.00011197081360656253,-0.0033535555484567885,0.9999942351074175
2025/04/05 15:42:42.4037663,1743860562,3831441,,-0.0005803231021858893,0.00011273566835565298,-0.003377295499669375,0.9999941221781626
2025/04/05 15:42:42.104220292,1743860562,103952919,,-0.0005999199119641268,0.00010697508244967404,-0.003399278748354969,0.9999940367604309
2025/04/05 15:42:42.204801950,1743860562,204500937,,-0.0005651940491495425,0.00012733222912685464,-0.0034272534131277,0.9999939591198701
2025/04/05 15:42:42.306237266,1743860562,306036691,,-0.0005012365501309975,0.000139016940083344,-0.0034500416503305373,0.9999939133058872
2025/04/05 15:42:42.407453106,1743860562,407205052,,-0.0004203505066935877,0.00017344727145908928,-0.0034699292460249674,0.9999938763875122
2025/04/05 15:42:42.511080879,1743860562,510608440,,-0.00033008458693967267,0.00018757218011898497,-0.003495427292635831,0.9999938189053393
2025/04/05 15:42:42.611692855,1743860562,610445644,,-0.00026305874381933234,0.00021322267163777987,-0.003517805357015582,0.9999937551713309
2025/04/05 15:42:42.711630227,1743860562,711343439,,-0.00022862548894258958,0.00021198430234952893,-0.003542480432969424,0.9999936767927202
2025/04/05 15:42:42.805675479,1743860562,802884673,,-0.00023784979205206935,0.00021936961900479316,-0.0035647334687344233,0.9999935939693532
2025/04/05 15:42:42.905153330,1743860562,904745518,,-0.00027724393075724476,0.00019896651283162137,-0.0035924333953624454,0.999993488964018
2025/04/05 15:42:43.7364012,1743860563,5702611,,-0.0003500869611342276,0.00018900508609501522,-0.003615809470750053,0.9999933837971471
2025/04/05 15:42:43.107220707,1743860563,107005388,,-0.0004372564145712304,0.000160199818456285,-0.003635816429147344,0.9999932819683038
2025/04/05 15:42:43.209593283,1743860563,208507217,,-0.0005163942715152029,0.00014793553066538517,-0.003653472384204244,0.9999931817725424
2025/04/05 15:42:43.309587448,1743860563,309352373,,-0.0005674789107691177,0.00012272852572597424,-0.0036699416227901262,0.9999930971931157
2025/04/05 15:42:43.411568683,1743860563,411398495,,-0.000582077821232044,0.00012376614181027574,-0.003683780302968533,0.9999930377907796
2025/04/05 15:42:43.503642507,1743860563,503184294,,-0.0005539890982638549,0.0001164828151624505,-0.0036975932248355693,0.9999930036416137
2025/04/05 15:42:43.605383490,1743860563,605191096,,-0.0004832570145614572,0.00013361983904344626,-0.003717682913038367,0.9999929636963225
2025/04/05 15:42:43.707494574,1743860563,707020801,,-0.00040101198569762205,0.00014003653914916272,-0.0037336222730666494,0.9999929397970153
2025/04/05 15:42:43.809518123,1743860563,807574970,,-0.0003232587712874969,0.0001678881861726954,-0.0037472040836088487,0.999992912864326
2025/04/05 15:42:43.911341427,1743860563,910091077,,-0.00027298850218607755,0.00017933287825237483,-0.0037557115314811847,0.9999928939486964
2025/04/05 15:42:44.11709154,1743860564,11301276,,-0.00025755159333838267,0.00020568198463445035,-0.0037610345492826935,0.9999928729652112
2025/04/05 15:42:44.105243135,1743860564,104156866,,-0.00028081560308553655,0.00020906909877704393,-0.0037632232871250607,0.9999928577660944
2025/04/05 15:42:44.206220836,1743860564,204518825,,-0.000328002569700876,0.0002209287070405054,-0.0037691135702422815,0.9999928186680719
2025/04/05 15:42:44.306303536,1743860564,305975015,,-0.0003950585901743805,0.00020690440678516913,-0.0037716531231568335,0.9999927878499901
2025/04/05 15:42:44.407657031,1743860564,407189250,,-0.0004645379925503601,0.00020231604444092134,-0.003771783822079307,0.9999927584335154
2025/04/05 15:42:44.511123985,1743860564,510748486,,-0.0005234461953418725,0.00017509312172119587,-0.003768001141470226,0.9999927487306481
2025/04/05 15:42:44.606492559,1743860564,605594272,,-0.0005547613425767752,0.00016207260203292877,-0.003762283608334559,0.9999927555709466
2025/04/05 15:42:44.710474297,1743860564,710134567,,-0.0005533556820638175,0.00013291796181158762,-0.003753918329016691,0.9999927920877648
2025/04/05 15:42:44.815876811,1743860564,814351679,,-0.0005155629528393779,0.00012609784152407022,-0.0037460251426812458,0.9999928427692902
