time,header_stamp_secs,header_stamp_nsecs,header_frame_id,child_frame_id,pose_position_x,pose_position_y,pose_position_z,pose_orientation_x,pose_orientation_y,pose_orientation_z,pose_orientation_w,twist_linear_x,twist_linear_y,twist_linear_z,twist_angular_x,twist_angular_y,twist_angular_z,gps_status
2025/04/10 10:33:49.481240473,1744274029,478712142,piren,vessel_center,-479.9564944931528,-310.03745113642435,2.30559584122739,0.0015576060112814489,0.0004608474168830521,0.0025049176809359896,0.9999955434253613,0.00046415803835764605,-0.04425711973526601,-0.01901736544607057,0.0006871925702000816,-0.000673560440409473,0.0,0
2025/04/10 10:33:49.551966510,1744274029,549615847,piren,vessel_center,-479.95644939711724,-310.0223961062319,2.3126616667594435,0.0020086386071108096,0.00044802952740563307,0.0025115948459161317,0.9999947282520136,0.0005118041422974151,-0.005783682795208432,-0.0011591955073386659,0.0008103886690685734,-0.000641278437155696,0.000183110116495456,0
2025/04/10 10:33:49.625590818,1744274029,621286222,piren,vessel_center,-479.9563559659919,-310.0124771137987,2.317409559783542,-0.003190780747577933,0.00046581827742433205,0.00251698439655991,0.9999916333255497,0.0006037564242432657,0.0175682726618564,0.009654834684693909,-0.0006316629600564788,-0.00045265896580266385,2.1780469161618323e-05,0
2025/04/10 10:33:49.765742062,1744274029,763410642,piren,vessel_center,-479.95631368037215,-309.9954115627487,2.3250348086297166,0.0015575343849263056,0.00035167975412902684,0.0025131992995147253,0.9999955671088104,0.0005083597841348186,0.04998608279247521,0.023573646063730365,0.000668488468580265,3.437636740629877e-05,2.217618559189391e-05,0
2025/04/10 10:33:49.906747834,1744274029,904473356,piren,vessel_center,-479.95639217428084,-309.9890209469938,2.3280411444691023,-0.0031842118900577737,0.0004088704472983576,0.0025149389624174122,0.9999916843162308,0.00016035623357304795,0.0471241103765354,0.022207247394890047,-0.0006637482461033664,0.000586337661847795,1.761628271142025e-05,0
2025/04/10 10:33:50.47943745,1744274030,44555333,piren,vessel_center,-479.95642080942145,-309.9787048498546,2.33240312723569,0.02791684199218222,0.0004555854585412976,0.0025050269925528936,0.9996070063854295,6.0593751004426325e-05,0.059437825161831215,0.02689996438932259,-0.0009497395844749373,0.0008330955782307761,3.302300138301407e-05,0
2025/04/10 10:33:50.119514658,1744274030,116914024,piren,vessel_center,-479.9562515813872,-310.0226821402249,2.312434248615053,0.0019898672779970145,0.00038400787082123946,0.00251744302896325,0.9999947777097474,0.0004226681821818878,-0.05205625266589746,-0.02370580454877586,0.0007528543535673131,0.0008732714828078974,3.758333301346527e-05,0
2025/04/10 10:33:50.259032141,1744274030,255651078,piren,vessel_center,-479.9562749580054,-310.0163522458085,2.315220506510098,-0.0034400737426210147,0.0004722215423930462,0.002520860755505898,0.9999907940378809,0.00023866653309590255,-0.02172518483157515,-0.010107418354987801,-0.0008086022923518577,0.0005687125489969272,4.6626848327049535e-05,0
2025/04/10 10:33:50.401801977,1744274030,399342366,piren,vessel_center,-479.9562159061532,-309.99989064429195,2.3222591624268225,0.0015322542085986967,0.0004776114651849672,0.002530946457802776,0.9999955091870946,0.0003145996874990764,0.019898653412838335,0.007879746841427787,0.0006261946535165909,9.592142174270561e-05,0.00028372516077333483,0
2025/04/10 10:33:50.473173946,1744274030,470933572,piren,vessel_center,-479.9560851524033,-309.9949321105967,2.324472591953274,-0.029646513424405985,0.0003784890666471841,0.0025535703397620204,0.999557112058297,0.0005347860406345083,0.026465302915312655,0.011035456295488726,0.0009027192969214856,-0.00036798326743583753,7.119024823218577e-05,0
2025/04/10 10:33:50.613970054,1744274030,611915107,piren,vessel_center,-479.9562399311566,-309.93759649803627,2.3468635446580226,0.02792534103184591,0.00046933796260912794,0.002515999821494466,0.9996067350688621,9.50509675015415e-06,0.14492562461550762,0.05705977834704559,-0.0009246856956383824,-0.0007461803512730865,4.085142563630109e-05,0
2025/04/10 10:33:50.754877656,1744274030,751435049,piren,vessel_center,-479.95603182430403,-309.99076981594743,2.323569635796841,0.0019997119834642215,0.00034484142888063476,0.0025285395584084954,0.9999947443482259,0.00046991191106820254,-0.00570765339321011,-0.007489469097581206,0.0008005660206152148,-0.0007705197801837381,7.988296117688302e-05,0
2025/04/10 10:33:50.824426925,1744274030,822103688,piren,vessel_center,-479.9561213065945,-309.9916057907333,2.3239903234845145,-0.003202426079227942,0.00025306954270973677,0.002534993253136569,0.9999916270810573,0.00016581961122022254,-0.006287512614562419,-0.004877475136281531,-0.0006247708154256464,-0.000478638880057542,7.722755268578246e-05,0
2025/04/10 10:33:50.965679042,1744274030,962970690,piren,vessel_center,-479.95641261640526,-309.9835946930562,2.327943001658803,0.0015545519262229236,0.00035712161269975856,0.0025407375690047274,0.99999550023241,-0.0005336362255093896,0.013489705237498437,0.00543759894216241,0.0006973073026160766,0.0001062193865587493,4.944884127599614e-05,0
2025/04/10 10:33:51.108008301,1744274031,105180358,piren,vessel_center,-479.9563969794294,-309.98446555561776,2.328115414181788,-0.003180882417497924,0.00040598087910309236,0.0025393358660294523,0.9999916344349744,-0.0003185741514244633,0.006995031870610856,0.003984314377357564,-0.0006247744797783835,0.0003981718998855282,2.9051975252815998e-05,0
2025/04/10 10:33:51.252485369,1744274031,248162506,piren,vessel_center,-479.95632440414414,-309.9778584450153,2.3312663005105696,0.027915645881132264,0.0004704611381377859,0.002527485550794751,0.999606976365285,-8.564807667432397e-05,0.02010698472486214,0.010091531313131171,-0.0009122674762840078,0.0004965911080339916,5.141365676659942e-05,0
2025/04/10 10:33:51.324474705,1744274031,322066544,piren,vessel_center,-479.95603443256755,-310.0243130056266,2.3105662340669753,0.0019849070934680178,0.00038750639099925383,0.0025411002083473746,0.9999947263822737,0.0005779977765541209,-0.08764196948413851,-0.038174732886954194,0.0007807024300572938,0.00046602503605495894,5.5670697132962164e-05,0
2025/04/10 10:33:51.398158765,1744274031,395246902,piren,vessel_center,-479.95603308685395,-310.01519352054265,2.3149296071915586,-0.029634753462389956,0.00032951953927336377,0.002552140986660563,0.9995574817790525,0.000516220603640186,-0.05755303119744863,-0.024199392217856348,0.0009109491018916769,0.0004081194017873855,0.0,0
2025/04/10 10:33:51.471661249,1744274031,469108289,piren,vessel_center,-479.95621415833676,-309.9565553909851,2.338110214119939,-0.0034311845880998604,0.0004770379137940322,0.0025442451104243026,0.9999907630693242,-1.9282178528281157e-06,0.0856729133902266,0.03274466539131124,-0.0007991136140091167,0.00021963336284399669,7.028074057835417e-05,0
2025/04/10 10:33:51.567656107,1744274031,565289690,piren,vessel_center,-479.9560465969867,-309.95428123493764,2.339693658875008,0.001555652628054399,0.0004511465747347178,0.002541877941161675,0.9999954576237841,0.00037091037661405625,0.07150255047108688,0.02891609688698315,0.0006271990331895831,-0.00010666040845663729,0.0,0
2025/04/10 10:33:51.709501775,1744274031,707122342,piren,vessel_center,-479.9558509046,-309.95977076249255,2.337913837720963,-0.003196618683422498,0.00034720036259522157,0.0025695421387014043,0.9999915292311723,0.000680803641716857,0.03519831227386051,0.015212729816558317,-0.0006921903519037375,-0.00033017798798872845,0.0003399224078815633,0
2025/04/10 10:33:51.851409649,1744274031,848658906,piren,vessel_center,-479.95592389571283,-309.95998209321107,2.3382713606431964,0.02792256064072851,0.0004083772177888636,0.002550889681319881,0.9996067510762153,0.0003658787033600039,0.02683842352262248,0.012597761276211566,-0.0009617582922683514,-0.0003047425570278193,0.00011258848062685356,0
2025/04/10 10:33:51.923041739,1744274031,920529913,piren,vessel_center,-479.9557643657642,-310.0122978374154,2.3152055086435346,0.00196196728613858,0.00033816012289811226,0.0025514640158654407,0.9999947631680254,0.0006385071775184133,-0.09544097214129549,-0.04148608954272761,0.000750256155407363,-0.00025804373531935896,4.049782014464122e-05,0
2025/04/10 10:33:52.63419393,1744274032,61308726,piren,vessel_center,-479.95579910471935,-310.01310279623584,2.315413153021495,-0.003489500075215972,0.00043485574111318156,0.002554886967923885,0.9999905533765261,0.0003617308438151031,-0.06739946648112861,-0.028057918730228847,-0.0007899100164375327,-0.00010773495566594695,2.114095146510572e-05,0
2025/04/10 10:33:52.205132447,1744274032,203173063,piren,vessel_center,-479.9557169735922,-310.00241805891307,2.320361368233601,0.001993402297182738,0.0004356106828972268,0.00255095911642977,0.9999946645848671,0.00042201705646214584,-0.020874863787593928,-0.007578294409575803,0.0008042247346037017,-0.00010179088519782144,1.3501928056155476e-05,0
2025/04/10 10:33:52.346901335,1744274032,344055059,piren,vessel_center,-479.95560351260355,-309.9995458688031,2.3219342716321654,-0.003193911937418624,0.000461800115557962,0.0025540858928147156,0.9999915311203598,0.0005795258746729179,-0.009806689745300608,-0.002381640930574292,-0.0006221594163714687,-5.083857412526545e-05,3.196278444753652e-05,0
2025/04/10 10:33:52.419699840,1744274032,417429159,piren,vessel_center,-479.9555374303606,-309.9882500853434,2.326906776917037,0.02792998715456448,0.0004871275392748093,0.002542197512982992,0.9996065304689197,0.0005960403469998074,0.01750457417156242,0.009205692153045873,-0.0008857880574489511,5.6561613262932416e-05,3.799824948576762e-05,0
2025/04/10 10:33:52.564258706,1744274032,561744903,piren,vessel_center,-479.9552899651942,-310.0302489691595,2.3080125501768887,-0.02963649774083374,0.00029913020564417914,0.0025660510602862584,0.9995574040067602,0.000944006510826448,-0.08177330963048887,-0.03590800035348153,0.0009637355305316771,0.00018835202985311255,3.58787381040125e-05,0
2025/04/10 10:33:52.710763779,1744274032,707556954,piren,vessel_center,-479.95562727080465,-309.97009940492904,2.331755902138691,0.027918497786645388,0.00046789875694569353,0.002547600785890191,0.999606846856466,-0.00012427559795475632,0.07951292052039236,0.028982566596418582,-0.0009101734432481718,0.0003034155003180404,2.2786250747946043e-05,0
2025/04/10 10:33:52.855694243,1744274032,851873220,piren,vessel_center,-479.9554385482998,-310.01501966766614,2.3121039675133384,0.001996361991801718,0.00047943914205364734,0.002559439717224085,0.9999946169581317,0.00032312470452773606,-0.038211966677726805,-0.021214747219404168,0.0007821945971225214,0.00016143173870960157,4.754741156383878e-05,0
2025/04/10 10:33:52.928106909,1744274032,925119546,piren,vessel_center,-479.95532108971616,-310.0082030242076,2.3158871612341363,-0.0031931679899616632,0.00037854599055229393,0.0025635569235633086,0.9999915442427605,0.0005180884156742924,-0.015244710546494091,-0.008466562976490061,-0.000677170818801312,0.00011537552957909165,5.9309005640650074e-05,0
2025/04/10 10:33:53.838199,1744274032,997811600,piren,vessel_center,-479.9554519823337,-309.99334273421965,2.3229192043256144,-0.0034376710158708756,0.00034001824833657584,0.002563500909747835,0.9999907475915281,0.0001695257289610983,0.01947909509308404,0.008104483858666916,-0.0008032758988375644,0.00010640450716230436,0.0,0
2025/04/10 10:33:53.73233663,1744274033,71284262,piren,vessel_center,-479.9556347484728,-309.98163554806183,2.3283828569517007,0.0015468216403156673,0.0004305774730424788,0.002562269059794683,0.999995428351109,-0.0002747122477558785,0.041133182131898434,0.01843139698344685,0.0006178078171185,1.3136862106562276e-05,4.343534110080346e-05,0
2025/04/10 10:33:53.145403559,1744274033,142822528,piren,vessel_center,-479.95557696374095,-309.9824119035997,2.328474406809155,0.001998437944705393,0.0004284123983542827,0.0025620733965927493,0.9999946292298317,-0.00011519261497603092,0.03475252690905138,0.016548935727508356,0.0007367360830648532,-7.459753563519308e-05,0.0,0
2025/04/10 10:33:53.218168917,1744274033,215992436,piren,vessel_center,-479.9554784559759,-309.9827417441548,2.328679405921227,-0.0031847033404672404,0.0004122803772946115,0.0025652893313534513,0.9999915534544132,0.00012958939510092948,0.026236961668883237,0.013298765148337416,-0.0007010191413750074,-0.00016876556975681172,3.8748349995375695e-05,0
2025/04/10 10:33:53.360907619,1744274033,357861525,piren,vessel_center,-479.9554925954387,-309.9739398789173,2.332654657987493,0.001545998748826809,0.0003645493199149548,0.0025666277541802067,0.9999954446964414,5.475845819085423e-05,0.03701087077879522,0.0176792641165273,0.0006321865767274071,-0.00018030562373816207,3.805482339726568e-05,0
2025/04/10 10:33:53.505249927,1744274033,501589894,piren,vessel_center,-479.95551317185664,-309.9763588235317,2.331758968147158,-0.029637221392455945,0.0003027689421251742,0.002584189344282096,0.9995573347259952,-3.3444332530687638e-06,0.02327295318032186,0.011694347165770785,0.000908430061776348,-0.000159309826669541,0.0001794696746079149,0
2025/04/10 10:33:53.577089448,1744274033,574106264,piren,vessel_center,-479.955736884601,-309.9259011292849,2.3511984188838717,-0.003474983144333982,0.00032574653256215363,0.0025813387075514734,0.9999905774915182,-0.0004998281739518187,0.13020691854776517,0.0522806088691459,-0.0007810847911402286,-6.425870949260653e-05,4.731736032025031e-05,0
2025/04/10 10:33:53.649414945,1744274033,647189780,piren,vessel_center,-479.95576982013927,-309.93526782532143,2.347710194617342,0.027906147086601992,0.00043282771138055054,0.002569096244558451,0.9996071525151465,-0.000515749323449263,0.09446553223529039,0.03853583483189261,-0.0009216798334386599,-1.1673909496933035e-05,0.0,0
2025/04/10 10:33:53.722893993,1744274033,720809285,piren,vessel_center,-479.9555136915845,-309.99151173453487,2.322935816101901,0.0019927828600148465,0.0003432974387662969,0.0025692935391173903,0.9999946548327402,0.00016912821920407627,-0.05171720043358588,-0.02516581503403522,0.0008101769705431654,8.355028461441966e-05,3.635785752655902e-05,0
2025/04/10 10:33:53.794919248,1744274033,792239005,piren,vessel_center,-479.9555411858138,-309.99198878485635,2.323432237165789,-0.029643329114837476,0.000192539888067704,0.0025766396609817506,0.9995572004119816,9.306746446775837e-05,-0.04820508187053717,-0.021837535944682573,0.0009545843311769474,0.0001467277081219934,0.0,0
2025/04/10 10:33:53.868590367,1744274033,865397804,piren,vessel_center,-479.9559216135153,-309.94039691462484,2.3437063912581455,-0.0034327459757414517,0.0004159453481210515,0.00257136990701731,0.9999907156075675,-0.0007733495875527932,0.07729512936280146,0.028131274300475288,-0.0007353021240163797,0.00029332368958624635,2.222792551759572e-05,0
2025/04/10 10:33:54.35315799,1744274034,33051097,piren,vessel_center,-479.9557915326945,-309.9412285338169,2.343893307061576,0.0019927667755062655,0.00041543065543479097,0.002570380481805866,0.999994624706617,-0.00022337316149793874,0.04937440242474652,0.019057774407818178,0.0008220099326932028,0.00011096733020236565,4.798077648970243e-06,0
2025/04/10 10:33:54.109262375,1744274034,106099845,piren,vessel_center,-479.95556286322517,-309.95527818041825,2.338713623494436,-0.0016304809229888736,0.0008370672152933244,0.0026097204749250978,0.9999949150918117,0.00033482300827920885,0.007100795206861521,0.0032814559236547247,-0.00013700132044259445,-0.002963581466445144,0.000463060459304991,0
2025/04/10 10:33:54.257546356,1744274034,251925214,piren,vessel_center,-479.9546129622353,-309.9610378892022,2.3369264132776864,0.031238651070751373,0.0007886572077288796,0.002850913311137527,0.9995075772561112,0.00237110511425265,-0.007294045139041982,-0.0014269912807280682,0.0007403009211508351,-0.0019561296160421566,0.0034602538657932886,0
2025/04/10 10:33:54.328575859,1744274034,326315688,piren,vessel_center,-479.9535234610506,-310.02007289809444,2.310786248124615,0.027289517315696028,-0.0003751459684227183,0.003130493857610558,0.9996225995436409,0.00426097147610556,-0.13686720981745534,-0.059204991627792726,0.002476319741733947,-0.00020654454563680797,0.004005733383008201,0
2025/04/10 10:33:54.405795584,1744274034,401939276,piren,vessel_center,-479.95417571402237,-310.05956331306714,2.293489744786683,0.037261506194574655,-0.0003920226005630188,0.0031432325723878035,0.9993005286516105,0.0018570219489901594,-0.19398568546284845,-0.08438858481533998,0.00465326005359305,0.001959617960822654,0.0,0
2025/04/10 10:33:54.551748941,1744274034,548698375,piren,vessel_center,-479.95419961174326,-310.1046774535479,2.2726089783590995,-0.02301472008679702,0.0001383612621523247,0.003446733468236221,0.9997291750988797,0.0013772393330327125,-0.24975937109579685,-0.11144279940691014,0.006673687060153356,0.0037354481387881586,0.007622584496663077,0
2025/04/10 10:33:54.624772375,1744274034,622373247,piren,vessel_center,-479.95252905155314,-310.0344978867295,2.3020051898760037,0.0038288457991859197,-0.00034997082486519813,0.0035127708432381027,0.9999864388586831,0.004810144577049805,-0.04300308682636539,-0.023450772968249975,0.004886101775547403,0.004170925896548549,0.002980480886299355,0
2025/04/10 10:33:54.698918990,1744274034,695486418,piren,vessel_center,-479.9514104550786,-310.021501223793,2.308618547064638,0.005733305936771045,0.0005821679741880681,0.0035091986087868116,0.9999772376452424,0.006760142929533622,-0.009326003827208912,-0.006139363861757528,0.004909137438164565,0.00373657454897779,0.0,0
2025/04/10 10:33:54.772919107,1744274034,770584661,piren,vessel_center,-479.94725509209974,-310.0152639042083,2.3118366653696176,0.03250918182927711,0.0005253062909660793,0.003438256405940841,0.999465384864818,0.0144809281472589,0.006630924293449719,0.00239133543126171,0.001242968447908614,0.0022986142185005896,0.0027946389544832606,0
2025/04/10 10:33:54.848430483,1744274034,844157420,piren,vessel_center,-479.9435463650617,-310.0545262508277,2.293873150488096,0.034727831993350056,7.020141635856911e-05,0.003456028850153133,0.9993908287658987,0.021061622958904926,-0.08139259514141456,-0.037807903074570756,0.0006119593925909056,0.001598338004619593,0.0,0
2025/04/10 10:33:54.921319494,1744274034,918244803,piren,vessel_center,-479.93857587631237,-310.0886640528787,2.2780577487981564,0.036410847545256524,0.0005630261585754209,0.0035063994214173597,0.9993305951213934,0.027384181676416056,-0.1390206835601472,-0.06448340445447599,-0.001668652773025882,-0.00016128652007700337,0.0026891635921775002,0
2025/04/10 10:33:55.64824919,1744274035,62327510,piren,vessel_center,-479.9285656651925,-310.1217079914538,2.262764988361812,0.006369810427280862,0.0001137544009982603,0.003939516007735666,0.9999719460008273,0.04045229809989899,-0.16585965678818834,-0.07685605724447285,-0.00454983605113356,-0.0027706796882610595,0.002173685184718005,0
2025/04/10 10:33:55.206436531,1744274035,204363309,piren,vessel_center,-479.9156922920551,-310.096845987676,2.27491434978043,-0.008957152658251803,-0.00041954435164163345,0.003941769700494615,0.9999520267744959,0.0553291685974272,-0.054293304725433394,-0.023760928005613878,-0.007082141789031836,-0.0038068799564221134,0.0,0
2025/04/10 10:33:55.352959004,1744274035,349991611,piren,vessel_center,-479.9048188795769,-310.04294076981483,2.299362138958856,0.03584779868701108,0.0005349553070900842,0.0040155939382762705,0.999349050210905,0.06709541469899698,0.0776824639048303,0.03590103444168505,-0.006536719856830736,-0.0035797500187048446,0.005922186410126252,0
2025/04/10 10:33:55.428236889,1744274035,425712521,piren,vessel_center,-479.89104577344256,-310.0750111951917,2.285191163956767,0.0018701047703086426,0.0004261522166068572,0.0041205271793981115,0.9999896711257573,0.0840496937110401,-0.009407694147602938,-0.00290221570816606,-0.0055343804175921165,-0.0016203675114203485,0.0025888923927634834,0
2025/04/10 10:33:55.507987304,1744274035,501313325,piren,vessel_center,-479.87673299133695,-310.0448559229732,2.299812342177267,0.0094777621401991,0.0004133501151470782,0.004027044717483538,0.9999468906283672,0.09701019716671902,0.05972497690677332,0.030245528230234194,-0.0024675508416212573,-0.00047883619216740114,0.0015307956421618536,0
2025/04/10 10:33:55.655600717,1744274035,652447824,piren,vessel_center,-479.85715907938595,-310.0319640882257,2.3068025991816556,-0.02817789849103853,0.00012565832454180777,0.004089599136816272,0.999594550518116,0.10788106464506193,0.06828715153428706,0.03560771643582597,0.001452640244286615,0.0012733834826937904,0.0015903453375467002,0
2025/04/10 10:33:55.801628757,1744274035,798620769,piren,vessel_center,-479.84360733418424,-309.96135486466017,2.3358882057204498,0.024245672515405124,0.00040403621201370047,0.004472879274740668,0.9996959425095255,0.11381527071503109,0.20991075806446163,0.09226923514207874,0.003063182620054612,0.0024214909759743743,0.009657359313621683,0
2025/04/10 10:33:55.876235271,1744274035,873775780,piren,vessel_center,-479.8291959302323,-309.99489304290756,2.3217339521283167,-0.025225638075154547,-0.00019169285595787452,0.004732194616460115,0.9996705641218323,0.12028162865776715,0.0882293072165797,0.04008907007688463,0.006399423566566883,0.00277944839731915,0.00198138514117035,0
2025/04/10 10:33:55.953010248,1744274035,949311009,piren,vessel_center,-479.8224413460427,-309.94398087269593,2.3426492158558867,0.02661804669424033,0.0006012326062438694,0.0047250032115166265,0.9996343293695888,0.12166500118346442,0.19138871594136647,0.0820325420975893,0.0046207522282939424,0.002808375585562944,0.0,0
2025/04/10 10:33:56.26927160,1744274036,24521680,piren,vessel_center,-479.80816004421376,-309.98865201067593,2.323520610277924,-0.01590217416902733,0.00030162290154008605,0.004263277731077871,0.9998644179804135,0.12614053731572306,0.04921858010525315,0.02113644315276935,0.006856062218231418,0.002268550860058136,0.00203935938740262,0
2025/04/10 10:33:56.100771169,1744274036,98591240,piren,vessel_center,-479.8016884626771,-309.9570048100399,2.3372645034670487,0.0026863979001438354,7.203508697019858e-05,0.004258013644188613,0.9999873236181918,0.12649938665545044,0.11408197875107393,0.049332129378133006,0.0056288647427220175,0.0018513026524670116,0.0,0
2025/04/10 10:33:56.176246344,1744274036,172842410,piren,vessel_center,-479.78896181176873,-309.96232919623174,2.3359327336405613,0.022356679733574036,0.0005596595648249121,0.0043927982821273985,0.9997402507530216,0.12645105265601153,0.07669624451814375,0.03532278493498018,0.0037177159323820547,0.0005697776774214778,0.002324973092193058,0
2025/04/10 10:33:56.318600924,1744274036,316807850,piren,vessel_center,-479.76780158797465,-309.99857471870433,2.3206967896306483,0.00033553480644713717,0.0004291881604321167,0.00457996708105842,0.999989363501159,0.13084711087358294,-0.02971511466876077,-0.010447112702168374,-0.00014898083418588175,-0.001583230659922709,0.0012351027636054786,0
2025/04/10 10:33:56.417455047,1744274036,414488344,piren,vessel_center,-479.75255321440045,-309.9948953071004,2.3231337065113697,-0.0004193600469426725,0.000499223149641436,0.004599739338417895,0.9999892085974811,0.13540747150686905,-0.01487480158266376,-0.002688221949249018,-0.0029167166103098506,-0.0020771639975828682,0.0025462692438956145,0
2025/04/10 10:33:56.561203312,1744274036,559203185,piren,vessel_center,-479.7294619969313,-309.99132807668326,2.3256546053701626,-0.028118365999626593,0.00033102781026995976,0.0049268121557877916,0.9995924041508527,0.14427492018844526,-0.002282979758546983,0.003757343766517913,-0.004724181060879306,-0.0028526387698366035,0.0018878593028197781,0
2025/04/10 10:33:56.709078028,1744274036,706073839,piren,vessel_center,-479.70318430929154,-309.9415186953075,2.3459776317676617,-0.0009233852606065634,0.0003713597863406195,0.004876320989741178,0.9999876153958981,0.15399769388168347,0.10922813605188852,0.047672949413560976,-0.007100306521908084,-0.0018462391222951356,0.0013878941692236837,0
2025/04/10 10:33:56.855243232,1744274036,852703252,piren,vessel_center,-479.67488298691256,-309.9453890224984,2.3454669041281027,-0.02735619280006977,-0.0004014123558337329,0.004972400415935745,0.9996133016410444,0.16534152451217773,0.06405795328159943,0.030577507908098617,-0.004128429556331905,-3.619167979324594e-05,0.002672413614896516,0
2025/04/10 10:33:57.2422479,1744274036,999788665,piren,vessel_center,-479.6554341556361,-309.9094398932761,2.3598362174150087,0.016675786944462544,0.0003650990455763301,0.005595193579753691,0.9998452273433499,0.1710687068087736,0.12942644109584794,0.05557834827886608,-0.004481256152277435,0.0013827919353044998,0.014896941416291906,0
2025/04/10 10:33:57.76032005,1744274037,74051518,piren,vessel_center,-479.6337551282284,-309.9563649290224,2.3405154896069043,0.002707882889302066,0.00025916808399413125,0.005999799968700881,0.999978301065827,0.180867479656581,-0.00390497445796395,0.00016745157131253796,-0.0002267951113101147,0.0022570513496158215,0.003104000240739868,0
2025/04/10 10:33:57.150331688,1744274037,147940843,piren,vessel_center,-479.62171962817877,-309.9716008635754,2.33482215727549,0.002476724327061732,0.0004401214442841576,0.00599972172465842,0.999978837510549,0.18713667743700166,-0.03732744807912208,-0.012505995630633891,0.0009446263487363977,0.002491526009792556,0.0,0
2025/04/10 10:33:57.225080574,1744274037,222900424,piren,vessel_center,-479.6008809576297,-309.98312210776476,2.330529548330786,-0.006754408790596482,0.0003568233411590921,0.005240784050156794,0.9999633917406838,0.19154708016758373,-0.05457580962461147,-0.019246273951458337,0.0018945137838859963,0.0025943206101991093,0.002977316726277563,0
2025/04/10 10:33:57.299077901,1744274037,296384473,piren,vessel_center,-479.5913313791317,-309.9858429844163,2.3295700254618743,0.0022650360041634125,0.00048815860623446653,0.0052374320088256635,0.9999836001750368,0.19154708016758373,-0.05457580962461147,-0.019246273951458337,0.004221101928148359,0.0023930244580376223,0.0,0
2025/04/10 10:33:57.374913790,1744274037,371336605,piren,vessel_center,-479.57191242790174,-309.99290976252684,2.326881249316065,-0.022424966116812526,-0.00040813514282562476,0.005474939186163596,0.9997334541572933,0.19173997781508656,-0.058039840900982784,-0.020904947840287992,0.007715629549365959,0.0016994315303113419,0.0037160209014759837,0
2025/04/10 10:33:57.517821257,1744274037,515327007,piren,vessel_center,-479.54617776783715,-309.95753781248004,2.3410019598975085,0.026071821969964392,0.0008403644471228124,0.005700431251113984,0.9996434659268842,0.18855528229923943,0.03885438855127209,0.017062593031123036,0.0035077338233101153,-0.00012584556376625465,0.001937237415079956,0
2025/04/10 10:33:57.660423799,1744274037,658624919,piren,vessel_center,-479.5160236011399,-310.00748769210816,2.319250962215704,0.030528902351200808,0.0007173257938279073,0.0059330852636978616,0.9995160179127647,0.19234300650227845,-0.08518933902028006,-0.03700106961993456,0.002752782526658356,-0.0020951148937571468,0.002602939687128334,0
2025/04/10 10:33:57.805707267,1744274037,803209310,piren,vessel_center,-479.485123579321,-310.05950337121794,2.296495745769442,-0.027946495158256392,0.0003033495266717151,0.005974848345333416,0.9995915178585124,0.19529351323785699,-0.17168979459065634,-0.07493338270954283,0.0008526736198253,-0.002751591574967731,0.0,0
2025/04/10 10:33:57.955436219,1744274037,949170135,piren,vessel_center,-479.46532484605115,-309.9980015959666,2.322015982107012,0.01180269427307095,0.0005451631306022068,0.006134933330102468,0.9999113769720258,0.1955268720651929,0.003488491103280783,-0.0014157702834870084,-0.001457234887868069,-0.002675855301050984,0.006540334614402884,0
2025/04/10 10:33:58.27237716,1744274038,24933561,piren,vessel_center,-479.4435521109989,-310.0147973156092,2.316278598324821,0.002410405853735489,0.000607788336419093,0.006269151396038693,0.9999772588802868,0.2000145884659559,-0.03462643562065718,-0.013850244767460553,-0.003968715496194095,-0.0015833154364556852,0.0031937266439702448,0
2025/04/10 10:33:58.105538147,1744274038,99659690,piren,vessel_center,-479.4316692509688,-310.01136916761374,2.319071124810239,0.003051481371805353,0.0005577981293122957,0.006268744515314286,0.999975539783292,0.2042642102143872,-0.023170717815309806,-0.006109143745839576,-0.004504330664630822,-0.0011907307354963135,0.0,0
2025/04/10 10:33:58.178256117,1744274038,175970892,piren,vessel_center,-479.4089125996315,-310.01082391316567,2.320450339815558,0.0014996015941489821,0.00026594396453510043,0.006229131691073649,0.9999794389822432,0.20905468815644773,-0.01676487847039393,-0.0016742955226371394,-0.005626072245859489,-0.00013744456163816013,0.003015124114812822,0
2025/04/10 10:33:58.254683414,1744274038,250223465,piren,vessel_center,-479.3969994938123,-310.0069955130295,2.322775436385857,-0.00013071195877637488,0.00043418014972896473,0.006229575777208418,0.9999804932035512,0.21185238593775457,-0.006356592777956072,0.0036832520826253845,-0.006148774747375632,0.0005183228893278108,0.0,0
2025/04/10 10:33:58.327219278,1744274038,325224843,piren,vessel_center,-479.37373023832794,-310.00168393843643,2.3257036291488955,0.031231529797686102,0.0006531494855572944,0.006269988539887933,0.9994922972119172,0.21596654489835593,0.0068770469561971834,0.009363720098767044,-0.0055313779983176305,0.0015880513744163556,0.002510423497682659,0
2025/04/10 10:33:58.401768504,1744274038,399409419,piren,vessel_center,-479.35085914668264,-310.0492776270914,2.30424180513828,0.031520977082921245,0.0007175109778230799,0.00627424918961473,0.9994831399172481,0.2233246067750314,-0.10028140016265719,-0.04021873233075703,-0.0037478904019648805,0.0022496512431355925,0.0,0
2025/04/10 10:33:58.553704402,1744274038,547221210,piren,vessel_center,-479.32573576070877,-310.0869968538906,2.287114542239495,-0.02428625356577909,0.0003118470093755117,0.006553975003928316,0.9996835129433862,0.22871795379546703,-0.16146272374467083,-0.06920033461061281,0.0003055249215166647,0.002391534933717675,0.004782830978997964,0
2025/04/10 10:33:58.630243939,1744274038,625818930,piren,vessel_center,-479.30226037346085,-310.0215843981691,2.314136629198989,-0.0032724312304373434,0.0008724342474144158,0.006631348279119997,0.9999722772518882,0.22966476222072735,0.020104802178093767,0.0063656930190324895,0.00016635611543283003,0.0029811054883374447,0.0022193628640217525,0
2025/04/10 10:33:58.706847095,1744274038,703142407,piren,vessel_center,-479.2779909614054,-310.00353847376044,2.3225307492706007,0.001549136638157576,0.0008492670872838253,0.00662740509458453,0.9999764779347577,0.23216253425403002,0.055708962686913166,0.023595928058581545,0.003724612482258837,0.0016219247594373002,0.0,0
2025/04/10 10:33:58.854513681,1744274038,852145634,piren,vessel_center,-479.2431426612406,-309.9961280027743,2.3263986156086935,-0.028562002342323582,0.0004802987999211969,0.006593289316646861,0.9995701625555091,0.2318396914476579,0.0535164801654449,0.02428777152925134,0.006319937909899642,-0.0006396253339886473,0.0019008179077338752,0
2025/04/10 10:33:58.954364166,1744274038,952055011,piren,vessel_center,-479.22126259983577,-309.94250530643313,2.34793020201171,0.031040090783452608,0.0008656291830126511,0.006707105661517269,0.999495261711589,0.22851971052496076,0.16070106781544413,0.06669939476492727,0.005226270200079518,-0.001925256491245855,0.005237454872590155,0
2025/04/10 10:33:59.102770241,1744274039,99101483,piren,vessel_center,-479.1983023830378,-310.0014612890523,2.322379980874319,0.0007410874942228849,0.0005572825194820116,0.006774783012774074,0.9999766209970358,0.22838990561831443,-0.006327443106237868,-0.005027708002032741,0.004843903067183956,-0.002762643648097619,0.0050617282801084795,0
2025/04/10 10:33:59.177857183,1744274039,175700847,piren,vessel_center,-479.175795498671,-310.0002847575164,2.3242686681894136,-0.022271566738345107,0.0029943955369673664,0.0069726729777511275,0.9997231580502339,0.22637419686579952,-0.0022706160076264754,0.0003158510955048235,0.004006445142298661,-0.003566877536164319,0.0010805939300440623,0
2025/04/10 10:33:59.253620926,1744274039,250844032,piren,vessel_center,-479.160787634929,-309.96044308283496,2.341107838127387,0.031393113636155136,0.00032841133582309,0.006891457774286428,0.9994833026979327,0.23406465067841956,0.08653912712129601,0.03770686239805647,0.0015628994421704291,-0.0037378795610797997,0.0,0
2025/04/10 10:33:59.329028234,1744274039,326439581,piren,vessel_center,-479.1403467099144,-310.01970150891765,2.3156933055792415,-0.0010701551958676935,0.00034514684792853306,0.006728467015860982,0.9999767314158499,0.2321117880510882,-0.06310723046794885,-0.026593137523428623,-0.0009456394696853898,-0.002052846233983863,0.0023927622316982583,0
2025/04/10 10:33:59.403730559,1744274039,401391863,piren,vessel_center,-479.117430006513,-310.0133417311865,2.319883228483367,-0.025344432102588733,0.00010449396535806919,0.006873349943090838,0.9996551434884774,0.23128286148912583,-0.03490036585544623,-0.01135113021414378,-0.0010909516301410651,-0.0005016323586518865,0.002081396088212701,0
2025/04/10 10:33:59.555489618,1744274039,548181045,piren,vessel_center,-479.0940439910991,-309.96634235048987,2.339497393804852,-0.03137936925019557,0.0001984568028757745,0.006933600142377756,0.9994834770967568,0.2314044735278002,0.07738164445913788,0.034786776377388244,-0.004634347237730284,0.0010844024822171173,0.002129828950549355,0
2025/04/10 10:33:59.625859651,1744274039,623842880,piren,vessel_center,-479.069483609503,-309.9185065182005,2.358688077946583,0.027539213020501774,0.0006106766737228519,0.006988150772822493,0.9995961107212192,0.23406085348910882,0.1663300287537371,0.06963097775277821,-0.007130905728496324,0.0024244345375659293,0.002086596290035609,0
2025/04/10 10:33:59.701782251,1744274039,699387986,piren,vessel_center,-479.0550569277275,-309.9864071803014,2.3299853776015156,0.0011918495524036647,-0.0021027833540883537,0.0070049904085063616,0.9999725435761659,0.24018194848704288,-0.003019779203031814,-0.0018806018079549763,-0.005612437353340933,0.0035087868736403314,0.0,0
2025/04/10 10:33:59.782322597,1744274039,777217767,piren,vessel_center,-479.0329555207351,-309.9913907217108,2.329033758548266,0.025189713194402524,0.0015155933463332502,0.006977107747188499,0.9996571918880375,0.235262058958915,-0.013425443811956594,-0.0035739648112082436,-0.0074153816001703374,0.004112983137288848,0.0016688256271076497,0
2025/04/10 10:33:59.860994586,1744274039,858860575,piren,vessel_center,-479.0033437361768,-310.0346988438441,2.310400344435886,0.0013094460333434787,0.0006593643808370482,0.007012649441965998,0.9999743363394399,0.2483214603938449,-0.10666746214878878,-0.044185382844087844,-0.0036235038088173045,0.0031709361890148737,0.0,0
2025/04/10 10:34:00.11811751,1744274040,8032638,piren,vessel_center,-478.9629625796174,-310.0321535692697,2.3122139210890995,-0.001120438812746815,0.0006860943253881004,0.007071832815474707,0.9999741312014394,0.2538373612851955,-0.06482552519187232,-0.025165470588343,-0.0008977526279664887,0.0008589603906626075,0.0008195941614269142,0
2025/04/10 10:34:00.157814872,1744274040,155104229,piren,vessel_center,-478.92308141158827,-310.0224288453248,2.3169685874100017,-0.0025474003598770873,0.000706996318696185,0.0071966214026583965,0.9999706093420939,0.2574263509411139,-0.02149284062734262,-0.006166651531122176,0.002223541965811225,-0.0015878158529989356,0.0014975597840341049,0
2025/04/10 10:34:00.305660267,1744274040,303101093,piren,vessel_center,-478.88529876690365,-310.0100453336593,2.3228702533434005,0.03326877510665258,0.0007861690145543362,0.007216575710806972,0.9994200776331211,0.2599525950177394,0.012829625334916606,0.008900882299499294,0.005683105235687739,-0.0035417591632793664,0.0006872666941622004,0
2025/04/10 10:34:00.455909598,1744274040,450915214,piren,vessel_center,-478.8454696333307,-310.05884481354417,2.3010990534581155,-0.018825489468778576,0.00026282356753923433,0.007280792452196491,0.9997962402066239,0.2611233889907907,-0.09994374494412989,-0.042478999646985635,0.006277400122942681,-0.003539726755087077,0.0011541532501648097,0
2025/04/10 10:34:00.602236910,1744274040,598092101,piren,vessel_center,-478.8207559421726,-310.0113187086521,2.3213773409295615,0.023329983267059123,0.00043775603256930714,0.00745820944432671,0.9996999026519405,0.2575538364458224,0.02807481361774114,0.01210666060767683,0.002662834579998736,-0.002311121522835056,0.005265638750366616,0
2025/04/10 10:34:00.676018714,1744274040,674100891,piren,vessel_center,-478.79474652025846,-310.0433570809913,2.3079862183968207,-0.026795573763445924,-0.0020804279930789955,0.007580716715406721,0.9996100248497581,0.256876717090381,-0.04950512616455818,-0.020404047252053012,0.0038467558675120994,-0.00021330031030829876,0.0013119798623212149,0
2025/04/10 10:34:00.751818202,1744274040,748778472,piren,vessel_center,-478.7866859266086,-309.98317811130414,2.3328403533467155,-0.0014019165216181,0.0005923827075664535,0.007634523010630798,0.9999696984265045,0.24577561789592425,0.08987606716555127,0.03715617929184579,0.0008982072392050549,0.0013195462560860495,0.0,0
2025/04/10 10:34:00.827598113,1744274040,825080267,piren,vessel_center,-478.7594642438131,-309.9801454321733,2.3351924336026926,-0.028876544296676767,0.0002307407483904731,0.007262688397643788,0.9995565743395558,0.25119174403557726,0.07647318506255978,0.03405618969422744,-0.00033660422120797257,0.002539125082495324,-0.00015332329956363496,0
2025/04/10 10:34:00.903309971,1744274040,901085788,piren,vessel_center,-478.7459691937265,-309.93475985459986,2.353291634363817,-0.0007915374059618638,0.0005351033200936689,0.00725330255723664,0.9999732380093904,0.25276720852320966,0.16869313198021735,0.07042964092965409,-0.0026477945803257885,0.002958975321168097,0.0,0
2025/04/10 10:34:00.980970820,1744274040,977269482,piren,vessel_center,-478.7182301287665,-309.9447176621874,2.3500014129724103,0.02858035552252572,0.0006868915522748987,0.007262623486315785,0.9995648782136644,0.25779107253051725,0.10877113732522083,0.04733939830694833,-0.005394898614980265,0.0032452637200843354,1.8658424047911006e-05,0
2025/04/10 10:34:01.56511646,1744274041,54070408,piren,vessel_center,-478.6906272274996,-310.00394544664306,2.3241715629170936,-0.028912484014384347,0.0002370574024379473,0.007281509166132261,0.9995553970121763,0.2662420504491364,-0.04518125624131207,-0.01978096780751154,-0.004749994104520719,0.002877953034546152,0.0,0
2025/04/10 10:34:01.208081909,1744274041,205728154,piren,vessel_center,-478.64799191185836,-309.9560260154964,2.3432290601099894,0.005276944097266326,0.0005094402369431291,0.0073267412441023185,0.9999591057610213,0.2711776601288874,0.07656587500532659,0.02924918876049195,-0.005950972580604494,0.0009752422559913995,0.0005134693432937961,0
2025/04/10 10:34:01.388627006,1744274041,380783797,piren,vessel_center,-478.6038107570525,-309.97149354663304,2.3375357618614174,-0.010578316509608844,0.0004413135674284161,0.007477933303712323,0.999915988958904,0.2785336546940924,0.016529042557340654,0.006793376185566493,-0.0029635985386584187,-0.0007423053830865159,0.0008317991569902423,0
2025/04/10 10:34:01.463995699,1744274041,457601974,piren,vessel_center,-478.57326667497466,-309.9612114707343,2.342502885224805,0.01514919343782549,0.0006036117139852748,0.007461752753938003,0.9998572197253572,0.2829616135762534,0.035615247712349085,0.01628511373528544,-0.0022217294156476925,-0.0018065876853639354,0.0,0
2025/04/10 10:34:01.607967029,1744274041,605892165,piren,vessel_center,-478.52860926352105,-309.9957010803524,2.3285800742362492,-0.03202810251559218,0.0002306550909415227,0.007840716299721346,0.9994561874416442,0.2858766669035048,-0.05317572506196447,-0.020207793621767486,0.0024782254844991744,-0.0026528083585680624,0.005425059274728362,0
2025/04/10 10:34:01.758229513,1744274041,755142586,piren,vessel_center,-478.4862919647889,-309.94182057078547,2.349962131919212,0.029190433474166444,0.0006205032289595284,0.007828741039279141,0.9995430177751596,0.2843655327812484,0.07066789853711307,0.02866888092292489,0.00410005366159169,-0.002129275868246706,0.0026452415869382077,0
2025/04/10 10:34:01.908404879,1744274041,905052774,piren,vessel_center,-478.44472975884554,-310.0579368784772,2.300680587973301,-0.02848821806646535,0.00011601778949847225,0.0077822487099438176,0.9995638271647722,0.28699934831506646,-0.17833134738229964,-0.07661360816792903,0.0063354815713927495,-0.0006357511579502487,0.0009513156017387161,0
2025/04/10 10:34:02.56532911,1744274042,53854240,piren,vessel_center,-478.40309264067065,-310.00545882696025,2.322450327359215,-0.022401540273742408,0.00022758653968932594,0.007789837001125227,0.9997186792479306,0.2833237846083647,-0.0017934007883464997,-0.0024953445878400926,0.0039029523091666297,0.0013791150665049166,0.0016959580897765868,0
2025/04/10 10:34:02.204898230,1744274042,202904852,piren,vessel_center,-478.3608355649817,-309.9648718454032,2.3398021535082862,0.008623805067425458,0.0007328290842140686,0.008478905944329977,0.9999265978569025,0.2815545029007807,0.08901405701526562,0.036910621710730666,-0.0008115104113962894,0.002667957409170715,0.010294012818625645,0
2025/04/10 10:34:02.355768855,1744274042,353508448,piren,vessel_center,-478.316564712097,-309.98210057134355,2.3336520939691954,0.016889698345516575,0.0005228230827525287,0.008296328912117594,0.9998228021366604,0.2856113156508399,0.020895932963867728,0.01087401260114031,-0.0031810825899111373,0.0021936987623789447,0.0027410236373061046,0
2025/04/10 10:34:02.506587081,1744274042,504140002,piren,vessel_center,-478.27126529361857,-310.0131763038008,2.3210612385135057,-0.03171498098556,0.00030301164625963956,0.008387425906143268,0.9994617147503434,0.2896795821347041,-0.055236073054356544,-0.020786537363805913,-0.005013259297194238,0.0008197359641990448,0.007182719998683782,0
2025/04/10 10:34:02.655964365,1744274042,653663307,piren,vessel_center,-478.22585269245354,-309.9584516364595,2.342833693819181,-0.00010329857459043098,0.0005880814767953412,0.008374149959657361,0.9999647579300155,0.2935566447196379,0.08489523362000034,0.03456685111318425,-0.004772927289318447,-0.0009800822737870362,0.0032069035776496452,0
2025/04/10 10:34:02.809654077,1744274042,804580240,piren,vessel_center,-478.1936325539838,-309.96649916013865,2.340512651441306,-0.027586360897446715,0.0003281904401530937,0.008450364368105938,0.9995836514897176,0.2993824165549995,0.047985614465097005,0.021662304423686683,-0.002988579864466838,-0.002017658864389649,0.008920936697603972,0
2025/04/10 10:34:02.883508538,1744274042,881251595,piren,vessel_center,-478.16178159910413,-309.92766241321067,2.3562006182701927,0.027915752445790403,0.000593694178830706,0.008669571762407067,0.999572507033914,0.30312055376557506,0.12355856592403178,0.05167935210105607,-0.003577923901987144,-0.002485220079288755,0.0020629225550464103,0
2025/04/10 10:34:02.959707437,1744274042,957473697,piren,vessel_center,-478.12865688995004,-309.99120734771265,2.329209241477246,0.0043320920190788,0.0003186049864295711,0.008680497124672462,0.9999528891099168,0.3088251977499112,-0.04537911808451972,-0.019898656648367742,0.0008631857643749363,-0.0022232153728620487,0.0,0
2025/04/10 10:34:03.109444164,1744274043,106920473,piren,vessel_center,-478.0836122921958,-310.00526849743716,2.3246147369300165,-0.028082427696403962,-5.5812707608639544e-05,0.008342294708475062,0.9995707980221386,0.3116430248978758,-0.062333618880984064,-0.02384098565129076,0.003925560681326003,-0.0008957379078726186,0.0015239411266169689,0
2025/04/10 10:34:03.259341565,1744274043,256945080,piren,vessel_center,-478.03743354758217,-309.96130632416475,2.3426356521203853,0.026106885367635228,-0.0005119730457842229,0.008587389054277486,0.9996221411959781,0.3099325850083459,0.056240343435866084,0.024191927556060297,0.003145364316164887,0.0009834828414652674,0.0027255122936052697,0
2025/04/10 10:34:03.410341585,1744274043,408129332,piren,vessel_center,-477.99157919572565,-310.0124379069163,2.32097605952936,0.0012692483378222033,0.00048318739826325754,0.008743342265553868,0.999960853986106,0.3073790566461411,-0.07635179478652351,-0.03209887479736029,0.005063299083714321,0.001967270700417094,0.0014060636530064212,0
2025/04/10 10:34:03.561576872,1744274043,558462602,piren,vessel_center,-477.9446090542943,-310.0165356891694,2.3202294326739814,-0.010346698978102748,0.0004772656555489405,0.008810359389915503,0.999907543528486,0.3087353023218383,-0.05986471895248503,-0.022998055490636736,0.003867839039572132,0.0018462065732985486,0.002664458565980341,0
2025/04/10 10:34:03.712469950,1744274043,710047395,piren,vessel_center,-477.897319935418,-309.99787920670303,2.3285890369999254,0.01122419254420065,0.0007052569211542939,0.008995497380715584,0.9998962951932963,0.309568704677531,0.0018166794144239412,0.0033480009349299046,-0.0012911450700821303,0.0007038329787626413,0.0015531104286185535,0
2025/04/10 10:34:03.863256647,1744274043,860517721,piren,vessel_center,-477.84859701198224,-310.0161196857278,2.321325824624618,0.023795846733503326,0.0007400193355976722,0.009079512117690133,0.99967533355051,0.3142041171473465,-0.03933295500305538,-0.013916281480561035,-0.0060096053397765085,-0.0007076106229078925,0.0029606716872024852,0
2025/04/10 10:34:03.963823574,1744274043,959100736,piren,vessel_center,-477.8146907040463,-310.0513861946627,2.305898049428868,-0.022872323548473895,0.0003070422317974663,0.009661926702137974,0.9996916573188778,0.319114472258343,-0.10889745577373976,-0.04508591009218943,-0.0036426836386653397,-0.0014689937367709782,0.014097699412156892,0
2025/04/10 10:34:04.117559623,1744274044,111318755,piren,vessel_center,-477.7653609865846,-310.0040480446279,2.3253635831263235,-0.019923972542906336,0.0003532168567563358,0.010047082553365772,0.9997509523316933,0.32114584316186656,0.033049978396320887,0.013386692860731658,-0.005857654165580161,-0.0019350634941963272,0.0017027992494596492,0
2025/04/10 10:34:04.264842327,1744274044,262606480,piren,vessel_center,-477.71691239505606,-309.9654605047437,2.3415551587880077,0.00042963630945538027,0.0004161113320037181,0.009598265401739862,0.9999537567134187,0.32799660260343433,0.1084355999920721,0.04517008242142015,-0.004168688387702023,-0.0016076689886231844,0.0024030726857310874,0
2025/04/10 10:34:04.415446415,1744274044,412661191,piren,vessel_center,-477.6653229455665,-309.96777259875904,2.341478512989963,-0.006560785313682227,0.0003193271743029221,0.009665415416675668,0.9999317146040757,0.33199561977862674,0.06668767677756515,0.02975089140138944,-0.0031038369323158565,-0.0004156992024812124,0.0017790189431569907,0
2025/04/10 10:34:04.566782314,1744274044,564257196,piren,vessel_center,-477.61558768835386,-309.9615020055876,2.344745645144295,-0.029613741700209566,8.791560576841979e-05,0.00992765226137931,0.9995121111291932,0.3313475086979905,0.05829027077502398,0.027048503802019924,0.0031051799928684984,0.0010645603901888437,0.002475855527037632,0
2025/04/10 10:34:04.719478883,1744274044,714825260,piren,vessel_center,-477.56785421908125,-309.9186816893749,2.3613892961181624,-0.03287853266024621,0.00012515788820817604,0.009964991773523479,0.9994096684366056,0.3248184978475818,0.133646834650472,0.05484584150288629,0.004811673018755922,0.0020992744657151534,0.0017727920374453158,0
2025/04/10 10:34:04.869677336,1744274044,867555891,piren,vessel_center,-477.5229024838726,-309.87814703983213,2.3766308177093016,0.025212862849336975,0.000604417472655123,0.010241581423331552,0.9996294594680615,0.3159120974429696,0.1789638905611813,0.07034700208093855,0.004050177237818925,0.0016894243655614883,0.002690588911328919,0
2025/04/10 10:34:05.19678489,1744274045,17231712,piren,vessel_center,-477.4776678307382,-309.94515615972847,2.347908869931,-0.032513499696559235,9.891442606684399e-05,0.010343953076486698,0.9994177630941776,0.30998700275913493,-0.03026817959853323,-0.01719177943405814,0.004689454206549832,0.0008753402353293906,0.0020561397194522376,0
2025/04/10 10:34:05.170472890,1744274045,167466401,piren,vessel_center,-477.43601012767596,-309.91120603110255,2.3608349950942205,0.022146321197977083,0.0007534059377791197,0.010665199967872062,0.9996975674405406,0.2985038057465771,0.05534819919980728,0.017308369485325943,-0.0001691791376582064,-0.0005829939519495228,0.003282553548119257,0
2025/04/10 10:34:05.248492236,1744274045,245120773,piren,vessel_center,-477.42359690065217,-309.9770362794854,2.3338526861953377,-0.021288288964124803,0.00027829618646388576,0.010688494115992727,0.9997162034286255,0.2970239286233208,-0.09635672073968597,-0.04434830433548651,0.00012072897782536015,-0.0009402261951654201,0.0,0
2025/04/10 10:34:05.324341637,1744274045,321999625,piren,vessel_center,-477.39611315048376,-309.954271995261,2.3437566381954102,-0.003724934206667761,0.0004510670850143685,0.010640214004279067,0.9999363515992326,0.2910885282283742,-0.023978092543620363,-0.012310987749247285,-0.002191754088434923,-0.0014493636285808308,0.0043526163319061026,0
2025/04/10 10:34:05.401214844,1744274045,398425068,piren,vessel_center,-477.38278342621913,-309.96401369653705,2.340997380565606,-0.02213415102425383,0.00043852520430934504,0.01065259061436404,0.9996981591296863,0.2882674633735404,-0.04295640253535529,-0.017071214067110145,-0.002344727104364749,-0.0016378327615888671,0.0,0
2025/04/10 10:34:05.479296125,1744274045,476704173,piren,vessel_center,-477.3547961832754,-309.94119759898234,2.3506243142541456,-0.03110818531115911,0.00011769699425228884,0.01095348165884146,0.9994559961266998,0.28482628545953037,0.017544716123484613,0.00821641839739708,-0.003223152311528789,-0.0015443877693846065,0.004804840134988268,0
2025/04/10 10:34:05.556443047,1744274045,552819446,piren,vessel_center,-477.3418973336876,-309.9078867945114,2.3636671765297987,0.026997288817995693,0.0007265252974326275,0.010926970916276335,0.9995755198403294,0.2812600916258815,0.08959293924658632,0.03627452043419321,-0.005324286202097048,-0.0013937295856045356,0.0,0
2025/04/10 10:34:05.634644437,1744274045,630130807,piren,vessel_center,-477.31261788478224,-309.9790011684589,2.333714833122699,-0.009284341880058253,0.0003426270705260867,0.011036179675828742,0.9998959377558786,0.2833802577329151,-0.08850927629077848,-0.038412606997653316,-0.005249279951221854,-0.00092306083657081,0.004157741862948941,0
2025/04/10 10:34:05.711427959,1744274045,708184238,piren,vessel_center,-477.28505040018297,-309.9756393290108,2.3362676627779213,-0.0020578166828029813,0.0002686394203736864,0.01103324192543496,0.9999369784121281,0.281133168997212,-0.06119878993158598,-0.02412893918823062,-0.004111785984743668,-0.0006812195331249939,0.0,0
2025/04/10 10:34:05.862692646,1744274045,859544974,piren,vessel_center,-477.24588448677974,-309.9853867265142,2.3332642389692126,-0.0070414122488881535,0.00036843111491853883,0.011903647329458285,0.9999042883957998,0.27986306643456366,-0.0636371870731178,-0.023224068728450748,-0.002950709787789083,0.0004926457428360182,0.011148614995891747,0
2025/04/10 10:34:06.13043437,1744274046,10828164,piren,vessel_center,-477.20541882623024,-309.98365086636227,2.334685485838529,0.018116192385341096,0.0007133757352958273,0.012227190382935064,0.9997608666495489,0.27523944883510004,-0.038278057379374855,-0.012218614587612638,0.00021355470908301352,0.0008328786142458304,0.0025944683232634776,0
2025/04/10 10:34:06.166110170,1744274046,163099208,piren,vessel_center,-477.16566601174344,-310.0217693742175,2.3185349262910533,0.013527318660208563,0.0017362638762057263,0.012017992076085452,0.9998347688013638,0.2702268186219043,-0.11001124636641141,-0.043968149793508174,0.003013179278444155,0.0009382559839998484,0.00512819913311227,0
2025/04/10 10:34:06.316414691,1744274046,313979605,piren,vessel_center,-477.12792044791473,-310.0452426858241,2.3085746834429672,0.026303064597288497,0.0008657351156773171,0.012383486058439289,0.9995769347921855,0.2630289956978685,-0.12509862221736473,-0.05128423521292422,0.00455390213113884,0.0006965682603871283,0.002944998106876527,0
2025/04/10 10:34:06.419458876,1744274046,416676201,piren,vessel_center,-477.10618273732894,-310.0785506349746,2.2933561825059128,-0.004991493003645774,0.0006063761780584204,0.01239510068852488,0.9999105353902651,0.2524317720905855,-0.1711077766107788,-0.0736214559448724,0.0044920565906923495,0.0003419565388144306,0.004990970928547532,0
2025/04/10 10:34:06.570751524,1744274046,568523873,piren,vessel_center,-477.0748020962515,-310.05619571292476,2.3028877936573346,-0.009429092163593136,0.0005972917015514816,0.0130683172635784,0.9998699688196923,0.23748063130706204,-0.06398787460211643,-0.027724843139698932,0.0031864456912299756,-0.0006339470157316847,0.003892010659290568,0
2025/04/10 10:34:06.647547693,1744274046,645464493,piren,vessel_center,-477.0688247499476,-310.0194919480412,2.3183854059158926,-0.022257249075812516,0.0004016812463660258,0.013075043007445455,0.9996666928362209,0.22922094884652314,0.023392019138646344,0.009234134733011427,0.00281282978467764,-0.0008346422546913688,0.0,0
2025/04/10 10:34:06.725881978,1744274046,723245594,piren,vessel_center,-477.0496217333826,-309.97099213223555,2.337944255778807,0.01594781524278883,0.0009064389040129144,0.012761472834416508,0.9997909733382232,0.22054383158601912,0.12594205368427572,0.050634840602033826,-0.0010361856185480496,-0.0011172968215927045,0.005059082457216997,0
2025/04/10 10:34:06.803893228,1744274046,801335479,piren,vessel_center,-477.02899050090133,-309.99753128586326,2.3267260455704366,-0.035382872636910166,0.0001186368778642265,0.012791133380539568,0.9992919619190843,0.21693620469891348,0.03871562540425692,0.01434726249591503,-0.001902285422810729,-0.0012936063715283817,0.0,0
2025/04/10 10:34:06.959489996,1744274046,954919843,piren,vessel_center,-477.00034518124266,-309.93203863414806,2.352004231054749,-0.012744216425873898,9.88347912583576e-05,0.013591221326700733,0.999826411874693,0.20795107981771244,0.1713112052168984,0.06572468232873288,-0.004904909597439619,-0.00014933337940624002,0.009996290737106337,0
2025/04/10 10:34:07.111313937,1744274047,107764527,piren,vessel_center,-476.97119420295235,-309.9155660992633,2.359153789197403,0.0020416172084173167,0.0004377191615224088,0.013883616850873066,0.9999014378348738,0.20241624069808486,0.14998958556748254,0.059388584829072326,-0.004562664927461548,0.00043135145155148827,0.0025443721689938597,0
2025/04/10 10:34:07.263757153,1744274047,260102849,piren,vessel_center,-476.94126255259255,-309.93163562686937,2.35296424690279,0.013843309861032108,0.001473993145266278,0.013709901732884885,0.9998090961332438,0.20088453251078128,0.06384740937401182,0.02566542551760858,-0.003699616986897421,0.001235301957702648,0.004895726356620777,0
2025/04/10 10:34:07.415787141,1744274047,413895774,piren,vessel_center,-476.9108954700203,-309.9693073726285,2.3371786108786705,-0.0028879600302329114,0.0002991191047829801,0.014050865570247862,0.9998970663980128,0.20058918911659013,-0.04170107239360697,-0.018194365281362396,-3.224137853959217e-05,0.0014815952698849656,0.002662376071277627,0
2025/04/10 10:34:07.569052566,1744274047,566091499,piren,vessel_center,-476.884570701937,-309.9753715201603,2.3348503573354336,-0.009989778793548652,0.0013856129955840011,0.014329145050397932,0.9998464682131988,0.19193242026226465,-0.04121579723328034,-0.017276864680715136,0.0015144036710501344,0.00082222432144829,0.0033897557800170912,0
2025/04/10 10:34:07.722709370,1744274047,719620420,piren,vessel_center,-476.8596824672191,-309.96670293559635,2.3383638402937437,0.019547494008544032,0.0008359976690673329,0.014347883506111296,0.9997056240837991,0.18679318935114672,-0.008966576709371676,-0.004025816920095866,0.0029892279868924637,-0.00042936331653388064,0.0025460017119216284,0
2025/04/10 10:34:07.802233769,1744274047,799472361,piren,vessel_center,-476.8442478450111,-310.00724999951365,2.3207268275333406,0.018129763074540298,0.0007672235075647701,0.014348215924297077,0.9997323900718332,0.17924182424717394,-0.09707530290215764,-0.04232288996979587,0.004163353993315639,-0.0009395440177866421,0.0,0
2025/04/10 10:34:07.957066050,1744274047,953886755,piren,vessel_center,-476.8218903573667,-310.03958837366025,2.3067028555404647,0.0239815307346992,0.0008989243680549401,0.014898062852669675,0.9996009833137617,0.16892033313692983,-0.1364463826776042,-0.059321399635035195,0.0025554711319515206,-0.0014759829038023967,0.008795414204400807,0
2025/04/10 10:34:08.114243276,1744274048,111714413,piren,vessel_center,-476.8005509669304,-310.0737842124715,2.2915133483696506,0.023748216748001042,0.0008525777400842375,0.015177853451615332,0.999602384989696,0.15924972253615116,-0.16632481591223003,-0.0730281474466901,-7.387484099038058e-05,-0.0011861412075104356,0.002266549653879644,0
2025/04/10 10:34:08.268735157,1744274048,266000816,piren,vessel_center,-476.77985505307925,-310.09797810574514,2.2806669908734687,-0.011555782230762195,0.00032637553981062925,0.015226797536117647,0.9998172343047685,0.15161949372982228,-0.16408617700058092,-0.07254207351922072,-0.0013316262348280759,-0.0007537999005041328,0.0032659400064846906,0
2025/04/10 10:34:08.422158615,1744274048,419995273,piren,vessel_center,-476.7613267261407,-310.0541172322379,2.2992364060236703,0.009271558977351603,0.0006863913240416045,0.015281591744455937,0.9998400072085712,0.14147206112297675,-0.01106149435704501,-0.006715699398408673,-0.0041930831859467695,0.00040420362554362754,0.0023176747974893476,0
2025/04/10 10:34:08.576758263,1744274048,574029771,piren,vessel_center,-476.7417713117779,-310.0455847162678,2.3030009601944337,-0.030230329430323104,-2.267654107439808e-05,0.01560871551952032,0.9994210797597474,0.13738432753993943,0.011619446093391526,0.0039080178184646,-0.0030124492370522857,0.0011296443266311984,0.0030813265527380607,0
2025/04/10 10:34:08.655487161,1744274048,652566848,piren,vessel_center,-476.73203636001267,-309.9711811262964,2.3326209632642168,-0.001961390796782144,0.0004588269358469843,0.015602911697358238,0.9998762381267743,0.13134213971407002,0.17463601721228805,0.06894935283457837,-0.003483422976954361,0.0015982164063069718,0.0,0
2025/04/10 10:34:08.810110009,1744274048,807726784,piren,vessel_center,-476.7124854494809,-309.9543733728364,2.3398461174968843,0.025427180840160723,0.0009697293054806804,0.01557256157229934,0.9995549076592406,0.12978159047493132,0.15214217679622416,0.061377754292438344,-0.002674433291738751,0.001488716161214741,0.0020919134023410983,0
2025/04/10 10:34:08.966154246,1744274048,963368592,piren,vessel_center,-476.6922918315712,-309.9910622634569,2.3232949793160635,0.02900892172064481,0.0006769827246045911,0.016037813062198647,0.9994502552439406,0.13111561955051906,0.01955383778545222,0.003999220465201424,0.0011897845335165952,0.0007437404360216888,0.0028298149140570574,0
2025/04/10 10:34:09.68194558,1744274049,65896034,piren,vessel_center,-476.6795530933819,-310.033520761217,2.304196623835229,-0.033903145980836956,-0.00021303126619460084,0.016051344707964443,0.9992961951510412,0.12995829532569583,-0.0792041550290374,-0.039345340050095774,0.003113902063866068,0.0003978955555550015,0.0,0
2025/04/10 10:34:09.227397838,1744274049,223831160,piren,vessel_center,-476.6652058343294,-309.9636568742452,2.3315177910723976,0.002271290310634081,0.0005340096465025168,0.01601348619680812,0.9998690535934428,0.11800183010286669,0.10278656552909561,0.03464868904553863,0.0038503316397524943,-0.00043284145960810727,0.0018748278108386347,0
2025/04/10 10:34:09.306393620,1744274049,302846675,piren,vessel_center,-476.6607760536961,-309.9693065037595,2.3304691247868625,0.024734728496899,0.0020422392727064845,0.015967675136802563,0.999564433048547,0.11474905725381172,0.07882099760013299,0.028472053266539094,0.004014466663121712,-0.00104299908379378,0.0,0
