time,header_stamp_secs,header_stamp_nsecs,header_frame_id,pose_position_x,pose_position_y,pose_position_z,pose_orientation_x,pose_orientation_y,pose_orientation_z,pose_orientation_w
2025/04/10 10:33:49.479124564,1744274029,478712142,piren,-479.9564944931528,-310.03745113642435,2.30559584122739,0.0015576060112814489,0.0004608474168830521,0.0025049176809359896,0.9999955434253613
2025/04/10 10:33:49.550541496,1744274029,549615847,piren,-479.95644939711724,-310.0223961062319,2.3126616667594435,0.0020086386071108096,0.00044802952740563307,0.0025115948459161317,0.9999947282520136
2025/04/10 10:33:49.622210520,1744274029,621286222,piren,-479.9563559659919,-310.0124771137987,2.317409559783542,-0.003190780747577933,0.00046581827742433205,0.00251698439655991,0.9999916333255497
2025/04/10 10:33:49.764712896,1744274029,763410642,piren,-479.95631368037215,-309.9954115627487,2.3250348086297166,0.0015575343849263056,0.00035167975412902684,0.0025131992995147253,0.9999955671088104
2025/04/10 10:33:49.904920828,1744274029,904473356,piren,-479.95639217428084,-309.9890209469938,2.3280411444691023,-0.0031842118900577737,0.0004088704472983576,0.0025149389624174122,0.9999916843162308
2025/04/10 10:33:50.44868181,1744274030,44555333,piren,-479.95642080942145,-309.9787048498546,2.33240312723569,0.02791684199218222,0.0004555854585412976,0.0025050269925528936,0.9996070063854295
2025/04/10 10:33:50.117270347,1744274030,116914024,piren,-479.9562515813872,-310.0226821402249,2.312434248615053,0.0019898672779970145,0.00038400787082123946,0.00251744302896325,0.9999947777097474
2025/04/10 10:33:50.256000199,1744274030,255651078,piren,-479.9562749580054,-310.0163522458085,2.315220506510098,-0.0034400737426210147,0.0004722215423930462,0.002520860755505898,0.9999907940378809
2025/04/10 10:33:50.399867862,1744274030,399342366,piren,-479.9562159061532,-309.99989064429195,2.3222591624268225,0.0015322542085986967,0.0004776114651849672,0.002530946457802776,0.9999955091870946
2025/04/10 10:33:50.473102195,1744274030,470933572,piren,-479.9560851524033,-309.9949321105967,2.324472591953274,-0.029646513424405985,0.0003784890666471841,0.0025535703397620204,0.999557112058297
2025/04/10 10:33:50.612313761,1744274030,611915107,piren,-479.9562399311566,-309.93759649803627,2.3468635446580226,0.02792534103184591,0.00046933796260912794,0.002515999821494466,0.9996067350688621
2025/04/10 10:33:50.751892435,1744274030,751435049,piren,-479.95603182430403,-309.99076981594743,2.323569635796841,0.0019997119834642215,0.00034484142888063476,0.0025285395584084954,0.9999947443482259
2025/04/10 10:33:50.822451202,1744274030,822103688,piren,-479.9561213065945,-309.9916057907333,2.3239903234845145,-0.003202426079227942,0.00025306954270973677,0.002534993253136569,0.9999916270810573
2025/04/10 10:33:50.963454085,1744274030,962970690,piren,-479.95641261640526,-309.9835946930562,2.327943001658803,0.0015545519262229236,0.00035712161269975856,0.0025407375690047274,0.99999550023241
2025/04/10 10:33:51.105583885,1744274031,105180358,piren,-479.9563969794294,-309.98446555561776,2.328115414181788,-0.003180882417497924,0.00040598087910309236,0.0025393358660294523,0.9999916344349744
2025/04/10 10:33:51.250061441,1744274031,248162506,piren,-479.95632440414414,-309.9778584450153,2.3312663005105696,0.027915645881132264,0.0004704611381377859,0.002527485550794751,0.999606976365285
2025/04/10 10:33:51.322344431,1744274031,322066544,piren,-479.95603443256755,-310.0243130056266,2.3105662340669753,0.0019849070934680178,0.00038750639099925383,0.0025411002083473746,0.9999947263822737
2025/04/10 10:33:51.395623724,1744274031,395246902,piren,-479.95603308685395,-310.01519352054265,2.3149296071915586,-0.029634753462389956,0.00032951953927336377,0.002552140986660563,0.9995574817790525
2025/04/10 10:33:51.470783250,1744274031,469108289,piren,-479.95621415833676,-309.9565553909851,2.338110214119939,-0.0034311845880998604,0.0004770379137940322,0.0025442451104243026,0.9999907630693242
2025/04/10 10:33:51.566845624,1744274031,565289690,piren,-479.9560465969867,-309.95428123493764,2.339693658875008,0.001555652628054399,0.0004511465747347178,0.002541877941161675,0.9999954576237841
2025/04/10 10:33:51.707496881,1744274031,707122342,piren,-479.9558509046,-309.95977076249255,2.337913837720963,-0.003196618683422498,0.00034720036259522157,0.0025695421387014043,0.9999915292311723
2025/04/10 10:33:51.849001915,1744274031,848658906,piren,-479.95592389571283,-309.95998209321107,2.3382713606431964,0.02792256064072851,0.0004083772177888636,0.002550889681319881,0.9996067510762153
2025/04/10 10:33:51.920903329,1744274031,920529913,piren,-479.9557643657642,-310.0122978374154,2.3152055086435346,0.00196196728613858,0.00033816012289811226,0.0025514640158654407,0.9999947631680254
2025/04/10 10:33:52.62318625,1744274032,61308726,piren,-479.95579910471935,-310.01310279623584,2.315413153021495,-0.003489500075215972,0.00043485574111318156,0.002554886967923885,0.9999905533765261
2025/04/10 10:33:52.204445804,1744274032,203173063,piren,-479.9557169735922,-310.00241805891307,2.320361368233601,0.001993402297182738,0.0004356106828972268,0.00255095911642977,0.9999946645848671
2025/04/10 10:33:52.344484440,1744274032,344055059,piren,-479.95560351260355,-309.9995458688031,2.3219342716321654,-0.003193911937418624,0.000461800115557962,0.0025540858928147156,0.9999915311203598
2025/04/10 10:33:52.418141512,1744274032,417429159,piren,-479.9555374303606,-309.9882500853434,2.326906776917037,0.02792998715456448,0.0004871275392748093,0.002542197512982992,0.9996065304689197
2025/04/10 10:33:52.562099767,1744274032,561744903,piren,-479.9552899651942,-310.0302489691595,2.3080125501768887,-0.02963649774083374,0.00029913020564417914,0.0025660510602862584,0.9995574040067602
2025/04/10 10:33:52.709185297,1744274032,707556954,piren,-479.95562727080465,-309.97009940492904,2.331755902138691,0.027918497786645388,0.00046789875694569353,0.002547600785890191,0.999606846856466
2025/04/10 10:33:52.852586573,1744274032,851873220,piren,-479.9554385482998,-310.01501966766614,2.3121039675133384,0.001996361991801718,0.00047943914205364734,0.002559439717224085,0.9999946169581317
2025/04/10 10:33:52.925454117,1744274032,925119546,piren,-479.95532108971616,-310.0082030242076,2.3158871612341363,-0.0031931679899616632,0.00037854599055229393,0.0025635569235633086,0.9999915442427605
2025/04/10 10:33:53.44828,1744274032,997811600,piren,-479.9554519823337,-309.99334273421965,2.3229192043256144,-0.0034376710158708756,0.00034001824833657584,0.002563500909747835,0.9999907475915281
2025/04/10 10:33:53.71709146,1744274033,71284262,piren,-479.9556347484728,-309.98163554806183,2.3283828569517007,0.0015468216403156673,0.0004305774730424788,0.002562269059794683,0.999995428351109
2025/04/10 10:33:53.143276153,1744274033,142822528,piren,-479.95557696374095,-309.9824119035997,2.328474406809155,0.001998437944705393,0.0004284123983542827,0.0025620733965927493,0.9999946292298317
2025/04/10 10:33:53.216320322,1744274033,215992436,piren,-479.9554784559759,-309.9827417441548,2.328679405921227,-0.0031847033404672404,0.0004122803772946115,0.0025652893313534513,0.9999915534544132
2025/04/10 10:33:53.358221157,1744274033,357861525,piren,-479.9554925954387,-309.9739398789173,2.332654657987493,0.001545998748826809,0.0003645493199149548,0.0025666277541802067,0.9999954446964414
2025/04/10 10:33:53.502064399,1744274033,501589894,piren,-479.95551317185664,-309.9763588235317,2.331758968147158,-0.029637221392455945,0.0003027689421251742,0.002584189344282096,0.9995573347259952
2025/04/10 10:33:53.574443414,1744274033,574106264,piren,-479.955736884601,-309.9259011292849,2.3511984188838717,-0.003474983144333982,0.00032574653256215363,0.0025813387075514734,0.9999905774915182
2025/04/10 10:33:53.647724712,1744274033,647189780,piren,-479.95576982013927,-309.93526782532143,2.347710194617342,0.027906147086601992,0.00043282771138055054,0.002569096244558451,0.9996071525151465
2025/04/10 10:33:53.721222120,1744274033,720809285,piren,-479.9555136915845,-309.99151173453487,2.322935816101901,0.0019927828600148465,0.0003432974387662969,0.0025692935391173903,0.9999946548327402
2025/04/10 10:33:53.792677440,1744274033,792239005,piren,-479.9555411858138,-309.99198878485635,2.323432237165789,-0.029643329114837476,0.000192539888067704,0.0025766396609817506,0.9995572004119816
2025/04/10 10:33:53.865719893,1744274033,865397804,piren,-479.9559216135153,-309.94039691462484,2.3437063912581455,-0.0034327459757414517,0.0004159453481210515,0.00257136990701731,0.9999907156075675
2025/04/10 10:33:54.33509474,1744274034,33051097,piren,-479.9557915326945,-309.9412285338169,2.343893307061576,0.0019927667755062655,0.00041543065543479097,0.002570380481805866,0.999994624706617
2025/04/10 10:33:54.106550555,1744274034,106099845,piren,-479.95556286322517,-309.95527818041825,2.338713623494436,-0.0016304809229888736,0.0008370672152933244,0.0026097204749250978,0.9999949150918117
2025/04/10 10:33:54.252585848,1744274034,251925214,piren,-479.9546129622353,-309.9610378892022,2.3369264132776864,0.031238651070751373,0.0007886572077288796,0.002850913311137527,0.9995075772561112
2025/04/10 10:33:54.326813795,1744274034,326315688,piren,-479.9535234610506,-310.02007289809444,2.310786248124615,0.027289517315696028,-0.0003751459684227183,0.003130493857610558,0.9996225995436409
2025/04/10 10:33:54.403338587,1744274034,401939276,piren,-479.95417571402237,-310.05956331306714,2.293489744786683,0.037261506194574655,-0.0003920226005630188,0.0031432325723878035,0.9993005286516105
2025/04/10 10:33:54.549138662,1744274034,548698375,piren,-479.95419961174326,-310.1046774535479,2.2726089783590995,-0.02301472008679702,0.0001383612621523247,0.003446733468236221,0.9997291750988797
2025/04/10 10:33:54.624038317,1744274034,622373247,piren,-479.95252905155314,-310.0344978867295,2.3020051898760037,0.0038288457991859197,-0.00034997082486519813,0.0035127708432381027,0.9999864388586831
2025/04/10 10:33:54.698925771,1744274034,695486418,piren,-479.9514104550786,-310.021501223793,2.308618547064638,0.005733305936771045,0.0005821679741880681,0.0035091986087868116,0.9999772376452424
2025/04/10 10:33:54.771976788,1744274034,770584661,piren,-479.94725509209974,-310.0152639042083,2.3118366653696176,0.03250918182927711,0.0005253062909660793,0.003438256405940841,0.999465384864818
2025/04/10 10:33:54.844525402,1744274034,844157420,piren,-479.9435463650617,-310.0545262508277,2.293873150488096,0.034727831993350056,7.020141635856911e-05,0.003456028850153133,0.9993908287658987
2025/04/10 10:33:54.919045133,1744274034,918244803,piren,-479.93857587631237,-310.0886640528787,2.2780577487981564,0.036410847545256524,0.0005630261585754209,0.0035063994214173597,0.9993305951213934
2025/04/10 10:33:55.62687446,1744274035,62327510,piren,-479.9285656651925,-310.1217079914538,2.262764988361812,0.006369810427280862,0.0001137544009982603,0.003939516007735666,0.9999719460008273
2025/04/10 10:33:55.204832759,1744274035,204363309,piren,-479.9156922920551,-310.096845987676,2.27491434978043,-0.008957152658251803,-0.00041954435164163345,0.003941769700494615,0.9999520267744959
2025/04/10 10:33:55.350986848,1744274035,349991611,piren,-479.9048188795769,-310.04294076981483,2.299362138958856,0.03584779868701108,0.0005349553070900842,0.0040155939382762705,0.999349050210905
2025/04/10 10:33:55.426949071,1744274035,425712521,piren,-479.89104577344256,-310.0750111951917,2.285191163956767,0.0018701047703086426,0.0004261522166068572,0.0041205271793981115,0.9999896711257573
2025/04/10 10:33:55.501783648,1744274035,501313325,piren,-479.87673299133695,-310.0448559229732,2.299812342177267,0.0094777621401991,0.0004133501151470782,0.004027044717483538,0.9999468906283672
2025/04/10 10:33:55.652759883,1744274035,652447824,piren,-479.85715907938595,-310.0319640882257,2.3068025991816556,-0.02817789849103853,0.00012565832454180777,0.004089599136816272,0.999594550518116
2025/04/10 10:33:55.800097502,1744274035,798620769,piren,-479.84360733418424,-309.96135486466017,2.3358882057204498,0.024245672515405124,0.00040403621201370047,0.004472879274740668,0.9996959425095255
2025/04/10 10:33:55.874778975,1744274035,873775780,piren,-479.8291959302323,-309.99489304290756,2.3217339521283167,-0.025225638075154547,-0.00019169285595787452,0.004732194616460115,0.9996705641218323
2025/04/10 10:33:55.952350652,1744274035,949311009,piren,-479.8224413460427,-309.94398087269593,2.3426492158558867,0.02661804669424033,0.0006012326062438694,0.0047250032115166265,0.9996343293695888
2025/04/10 10:33:56.25082693,1744274036,24521680,piren,-479.80816004421376,-309.98865201067593,2.323520610277924,-0.01590217416902733,0.00030162290154008605,0.004263277731077871,0.9998644179804135
2025/04/10 10:33:56.98974578,1744274036,98591240,piren,-479.8016884626771,-309.9570048100399,2.3372645034670487,0.0026863979001438354,7.203508697019858e-05,0.004258013644188613,0.9999873236181918
2025/04/10 10:33:56.173211965,1744274036,172842410,piren,-479.78896181176873,-309.96232919623174,2.3359327336405613,0.022356679733574036,0.0005596595648249121,0.0043927982821273985,0.9997402507530216
2025/04/10 10:33:56.318049887,1744274036,316807850,piren,-479.76780158797465,-309.99857471870433,2.3206967896306483,0.00033553480644713717,0.0004291881604321167,0.00457996708105842,0.999989363501159
2025/04/10 10:33:56.414826258,1744274036,414488344,piren,-479.75255321440045,-309.9948953071004,2.3231337065113697,-0.0004193600469426725,0.000499223149641436,0.004599739338417895,0.9999892085974811
2025/04/10 10:33:56.559543201,1744274036,559203185,piren,-479.7294619969313,-309.99132807668326,2.3256546053701626,-0.028118365999626593,0.00033102781026995976,0.0049268121557877916,0.9995924041508527
2025/04/10 10:33:56.707739682,1744274036,706073839,piren,-479.70318430929154,-309.9415186953075,2.3459776317676617,-0.0009233852606065634,0.0003713597863406195,0.004876320989741178,0.9999876153958981
2025/04/10 10:33:56.854248667,1744274036,852703252,piren,-479.67488298691256,-309.9453890224984,2.3454669041281027,-0.02735619280006977,-0.0004014123558337329,0.004972400415935745,0.9996133016410444
2025/04/10 10:33:57.2428540,1744274036,999788665,piren,-479.6554341556361,-309.9094398932761,2.3598362174150087,0.016675786944462544,0.0003650990455763301,0.005595193579753691,0.9998452273433499
2025/04/10 10:33:57.75149774,1744274037,74051518,piren,-479.6337551282284,-309.9563649290224,2.3405154896069043,0.002707882889302066,0.00025916808399413125,0.005999799968700881,0.999978301065827
2025/04/10 10:33:57.148366261,1744274037,147940843,piren,-479.62171962817877,-309.9716008635754,2.33482215727549,0.002476724327061732,0.0004401214442841576,0.00599972172465842,0.999978837510549
2025/04/10 10:33:57.223970060,1744274037,222900424,piren,-479.6008809576297,-309.98312210776476,2.330529548330786,-0.006754408790596482,0.0003568233411590921,0.005240784050156794,0.9999633917406838
2025/04/10 10:33:57.297693367,1744274037,296384473,piren,-479.5913313791317,-309.9858429844163,2.3295700254618743,0.0022650360041634125,0.00048815860623446653,0.0052374320088256635,0.9999836001750368
2025/04/10 10:33:57.371742602,1744274037,371336605,piren,-479.57191242790174,-309.99290976252684,2.326881249316065,-0.022424966116812526,-0.00040813514282562476,0.005474939186163596,0.9997334541572933
2025/04/10 10:33:57.515644470,1744274037,515327007,piren,-479.54617776783715,-309.95753781248004,2.3410019598975085,0.026071821969964392,0.0008403644471228124,0.005700431251113984,0.9996434659268842
2025/04/10 10:33:57.659794680,1744274037,658624919,piren,-479.5160236011399,-310.00748769210816,2.319250962215704,0.030528902351200808,0.0007173257938279073,0.0059330852636978616,0.9995160179127647
2025/04/10 10:33:57.804345531,1744274037,803209310,piren,-479.485123579321,-310.05950337121794,2.296495745769442,-0.027946495158256392,0.0003033495266717151,0.005974848345333416,0.9995915178585124
2025/04/10 10:33:57.950889812,1744274037,949170135,piren,-479.46532484605115,-309.9980015959666,2.322015982107012,0.01180269427307095,0.0005451631306022068,0.006134933330102468,0.9999113769720258
2025/04/10 10:33:58.25343982,1744274038,24933561,piren,-479.4435521109989,-310.0147973156092,2.316278598324821,0.002410405853735489,0.000607788336419093,0.006269151396038693,0.9999772588802868
2025/04/10 10:33:58.100202174,1744274038,99659690,piren,-479.4316692509688,-310.01136916761374,2.319071124810239,0.003051481371805353,0.0005577981293122957,0.006268744515314286,0.999975539783292
2025/04/10 10:33:58.176363980,1744274038,175970892,piren,-479.4089125996315,-310.01082391316567,2.320450339815558,0.0014996015941489821,0.00026594396453510043,0.006229131691073649,0.9999794389822432
2025/04/10 10:33:58.254691293,1744274038,250223465,piren,-479.3969994938123,-310.0069955130295,2.322775436385857,-0.00013071195877637488,0.00043418014972896473,0.006229575777208418,0.9999804932035512
2025/04/10 10:33:58.325498251,1744274038,325224843,piren,-479.37373023832794,-310.00168393843643,2.3257036291488955,0.031231529797686102,0.0006531494855572944,0.006269988539887933,0.9994922972119172
2025/04/10 10:33:58.399766228,1744274038,399409419,piren,-479.35085914668264,-310.0492776270914,2.30424180513828,0.031520977082921245,0.0007175109778230799,0.00627424918961473,0.9994831399172481
2025/04/10 10:33:58.549676025,1744274038,547221210,piren,-479.32573576070877,-310.0869968538906,2.287114542239495,-0.02428625356577909,0.0003118470093755117,0.006553975003928316,0.9996835129433862
2025/04/10 10:33:58.626876946,1744274038,625818930,piren,-479.30226037346085,-310.0215843981691,2.314136629198989,-0.0032724312304373434,0.0008724342474144158,0.006631348279119997,0.9999722772518882
2025/04/10 10:33:58.703593777,1744274038,703142407,piren,-479.2779909614054,-310.00353847376044,2.3225307492706007,0.001549136638157576,0.0008492670872838253,0.00662740509458453,0.9999764779347577
2025/04/10 10:33:58.852523443,1744274038,852145634,piren,-479.2431426612406,-309.9961280027743,2.3263986156086935,-0.028562002342323582,0.0004802987999211969,0.006593289316646861,0.9995701625555091
2025/04/10 10:33:58.953304009,1744274038,952055011,piren,-479.22126259983577,-309.94250530643313,2.34793020201171,0.031040090783452608,0.0008656291830126511,0.006707105661517269,0.999495261711589
2025/04/10 10:33:59.99549277,1744274039,99101483,piren,-479.1983023830378,-310.0014612890523,2.322379980874319,0.0007410874942228849,0.0005572825194820116,0.006774783012774074,0.9999766209970358
2025/04/10 10:33:59.176055531,1744274039,175700847,piren,-479.175795498671,-310.0002847575164,2.3242686681894136,-0.022271566738345107,0.0029943955369673664,0.0069726729777511275,0.9997231580502339
2025/04/10 10:33:59.251146587,1744274039,250844032,piren,-479.160787634929,-309.96044308283496,2.341107838127387,0.031393113636155136,0.00032841133582309,0.006891457774286428,0.9994833026979327
2025/04/10 10:33:59.326708064,1744274039,326439581,piren,-479.1403467099144,-310.01970150891765,2.3156933055792415,-0.0010701551958676935,0.00034514684792853306,0.006728467015860982,0.9999767314158499
2025/04/10 10:33:59.403737477,1744274039,401391863,piren,-479.117430006513,-310.0133417311865,2.319883228483367,-0.025344432102588733,0.00010449396535806919,0.006873349943090838,0.9996551434884774
2025/04/10 10:33:59.548616044,1744274039,548181045,piren,-479.0940439910991,-309.96634235048987,2.339497393804852,-0.03137936925019557,0.0001984568028757745,0.006933600142377756,0.9994834770967568
2025/04/10 10:33:59.624331546,1744274039,623842880,piren,-479.069483609503,-309.9185065182005,2.358688077946583,0.027539213020501774,0.0006106766737228519,0.006988150772822493,0.9995961107212192
2025/04/10 10:33:59.699724559,1744274039,699387986,piren,-479.0550569277275,-309.9864071803014,2.3299853776015156,0.0011918495524036647,-0.0021027833540883537,0.0070049904085063616,0.9999725435761659
2025/04/10 10:33:59.778935669,1744274039,777217767,piren,-479.0329555207351,-309.9913907217108,2.329033758548266,0.025189713194402524,0.0015155933463332502,0.006977107747188499,0.9996571918880375
2025/04/10 10:33:59.859755922,1744274039,858860575,piren,-479.0033437361768,-310.0346988438441,2.310400344435886,0.0013094460333434787,0.0006593643808370482,0.007012649441965998,0.9999743363394399
2025/04/10 10:34:00.11818456,1744274040,8032638,piren,-478.9629625796174,-310.0321535692697,2.3122139210890995,-0.001120438812746815,0.0006860943253881004,0.007071832815474707,0.9999741312014394
2025/04/10 10:34:00.155446286,1744274040,155104229,piren,-478.92308141158827,-310.0224288453248,2.3169685874100017,-0.0025474003598770873,0.000706996318696185,0.0071966214026583965,0.9999706093420939
2025/04/10 10:34:00.304461662,1744274040,303101093,piren,-478.88529876690365,-310.0100453336593,2.3228702533434005,0.03326877510665258,0.0007861690145543362,0.007216575710806972,0.9994200776331211
2025/04/10 10:34:00.452344541,1744274040,450915214,piren,-478.8454696333307,-310.05884481354417,2.3010990534581155,-0.018825489468778576,0.00026282356753923433,0.007280792452196491,0.9997962402066239
2025/04/10 10:34:00.599296683,1744274040,598092101,piren,-478.8207559421726,-310.0113187086521,2.3213773409295615,0.023329983267059123,0.00043775603256930714,0.00745820944432671,0.9996999026519405
2025/04/10 10:34:00.674489894,1744274040,674100891,piren,-478.79474652025846,-310.0433570809913,2.3079862183968207,-0.026795573763445924,-0.0020804279930789955,0.007580716715406721,0.9996100248497581
2025/04/10 10:34:00.749061286,1744274040,748778472,piren,-478.7866859266086,-309.98317811130414,2.3328403533467155,-0.0014019165216181,0.0005923827075664535,0.007634523010630798,0.9999696984265045
2025/04/10 10:34:00.825435031,1744274040,825080267,piren,-478.7594642438131,-309.9801454321733,2.3351924336026926,-0.028876544296676767,0.0002307407483904731,0.007262688397643788,0.9995565743395558
2025/04/10 10:34:00.902387779,1744274040,901085788,piren,-478.7459691937265,-309.93475985459986,2.353291634363817,-0.0007915374059618638,0.0005351033200936689,0.00725330255723664,0.9999732380093904
2025/04/10 10:34:00.977834495,1744274040,977269482,piren,-478.7182301287665,-309.9447176621874,2.3500014129724103,0.02858035552252572,0.0006868915522748987,0.007262623486315785,0.9995648782136644
2025/04/10 10:34:01.54476683,1744274041,54070408,piren,-478.6906272274996,-310.00394544664306,2.3241715629170936,-0.028912484014384347,0.0002370574024379473,0.007281509166132261,0.9995553970121763
2025/04/10 10:34:01.206188468,1744274041,205728154,piren,-478.64799191185836,-309.9560260154964,2.3432290601099894,0.005276944097266326,0.0005094402369431291,0.0073267412441023185,0.9999591057610213
2025/04/10 10:34:01.381091720,1744274041,380783797,piren,-478.6038107570525,-309.97149354663304,2.3375357618614174,-0.010578316509608844,0.0004413135674284161,0.007477933303712323,0.999915988958904
2025/04/10 10:34:01.457995111,1744274041,457601974,piren,-478.57326667497466,-309.9612114707343,2.342502885224805,0.01514919343782549,0.0006036117139852748,0.007461752753938003,0.9998572197253572
2025/04/10 10:34:01.606321690,1744274041,605892165,piren,-478.52860926352105,-309.9957010803524,2.3285800742362492,-0.03202810251559218,0.0002306550909415227,0.007840716299721346,0.9994561874416442
2025/04/10 10:34:01.755642338,1744274041,755142586,piren,-478.4862919647889,-309.94182057078547,2.349962131919212,0.029190433474166444,0.0006205032289595284,0.007828741039279141,0.9995430177751596
2025/04/10 10:34:01.907329836,1744274041,905052774,piren,-478.44472975884554,-310.0579368784772,2.300680587973301,-0.02848821806646535,0.00011601778949847225,0.0077822487099438176,0.9995638271647722
2025/04/10 10:34:02.54186240,1744274042,53854240,piren,-478.40309264067065,-310.00545882696025,2.322450327359215,-0.022401540273742408,0.00022758653968932594,0.007789837001125227,0.9997186792479306
2025/04/10 10:34:02.203333341,1744274042,202904852,piren,-478.3608355649817,-309.9648718454032,2.3398021535082862,0.008623805067425458,0.0007328290842140686,0.008478905944329977,0.9999265978569025
2025/04/10 10:34:02.353960081,1744274042,353508448,piren,-478.316564712097,-309.98210057134355,2.3336520939691954,0.016889698345516575,0.0005228230827525287,0.008296328912117594,0.9998228021366604
2025/04/10 10:34:02.504510447,1744274042,504140002,piren,-478.27126529361857,-310.0131763038008,2.3210612385135057,-0.03171498098556,0.00030301164625963956,0.008387425906143268,0.9994617147503434
2025/04/10 10:34:02.654910222,1744274042,653663307,piren,-478.22585269245354,-309.9584516364595,2.342833693819181,-0.00010329857459043098,0.0005880814767953412,0.008374149959657361,0.9999647579300155
2025/04/10 10:34:02.804946800,1744274042,804580240,piren,-478.1936325539838,-309.96649916013865,2.340512651441306,-0.027586360897446715,0.0003281904401530937,0.008450364368105938,0.9995836514897176
2025/04/10 10:34:02.881618942,1744274042,881251595,piren,-478.16178159910413,-309.92766241321067,2.3562006182701927,0.027915752445790403,0.000593694178830706,0.008669571762407067,0.999572507033914
2025/04/10 10:34:02.958598463,1744274042,957473697,piren,-478.12865688995004,-309.99120734771265,2.329209241477246,0.0043320920190788,0.0003186049864295711,0.008680497124672462,0.9999528891099168
2025/04/10 10:34:03.108340382,1744274043,106920473,piren,-478.0836122921958,-310.00526849743716,2.3246147369300165,-0.028082427696403962,-5.5812707608639544e-05,0.008342294708475062,0.9995707980221386
2025/04/10 10:34:03.257229063,1744274043,256945080,piren,-478.03743354758217,-309.96130632416475,2.3426356521203853,0.026106885367635228,-0.0005119730457842229,0.008587389054277486,0.9996221411959781
2025/04/10 10:34:03.408421436,1744274043,408129332,piren,-477.99157919572565,-310.0124379069163,2.32097605952936,0.0012692483378222033,0.00048318739826325754,0.008743342265553868,0.999960853986106
2025/04/10 10:34:03.559088619,1744274043,558462602,piren,-477.9446090542943,-310.0165356891694,2.3202294326739814,-0.010346698978102748,0.0004772656555489405,0.008810359389915503,0.999907543528486
2025/04/10 10:34:03.710505190,1744274043,710047395,piren,-477.897319935418,-309.99787920670303,2.3285890369999254,0.01122419254420065,0.0007052569211542939,0.008995497380715584,0.9998962951932963
2025/04/10 10:34:03.861943576,1744274043,860517721,piren,-477.84859701198224,-310.0161196857278,2.321325824624618,0.023795846733503326,0.0007400193355976722,0.009079512117690133,0.99967533355051
2025/04/10 10:34:03.959484827,1744274043,959100736,piren,-477.8146907040463,-310.0513861946627,2.305898049428868,-0.022872323548473895,0.0003070422317974663,0.009661926702137974,0.9996916573188778
2025/04/10 10:34:04.111738828,1744274044,111318755,piren,-477.7653609865846,-310.0040480446279,2.3253635831263235,-0.019923972542906336,0.0003532168567563358,0.010047082553365772,0.9997509523316933
2025/04/10 10:34:04.263002606,1744274044,262606480,piren,-477.71691239505606,-309.9654605047437,2.3415551587880077,0.00042963630945538027,0.0004161113320037181,0.009598265401739862,0.9999537567134187
2025/04/10 10:34:04.413134827,1744274044,412661191,piren,-477.6653229455665,-309.96777259875904,2.341478512989963,-0.006560785313682227,0.0003193271743029221,0.009665415416675668,0.9999317146040757
2025/04/10 10:34:04.564663683,1744274044,564257196,piren,-477.61558768835386,-309.9615020055876,2.344745645144295,-0.029613741700209566,8.791560576841979e-05,0.00992765226137931,0.9995121111291932
2025/04/10 10:34:04.715286304,1744274044,714825260,piren,-477.56785421908125,-309.9186816893749,2.3613892961181624,-0.03287853266024621,0.00012515788820817604,0.009964991773523479,0.9994096684366056
2025/04/10 10:34:04.868811105,1744274044,867555891,piren,-477.5229024838726,-309.87814703983213,2.3766308177093016,0.025212862849336975,0.000604417472655123,0.010241581423331552,0.9996294594680615
2025/04/10 10:34:05.19187221,1744274045,17231712,piren,-477.4776678307382,-309.94515615972847,2.347908869931,-0.032513499696559235,9.891442606684399e-05,0.010343953076486698,0.9994177630941776
2025/04/10 10:34:05.167865067,1744274045,167466401,piren,-477.43601012767596,-309.91120603110255,2.3608349950942205,0.022146321197977083,0.0007534059377791197,0.010665199967872062,0.9996975674405406
2025/04/10 10:34:05.245494955,1744274045,245120773,piren,-477.42359690065217,-309.9770362794854,2.3338526861953377,-0.021288288964124803,0.00027829618646388576,0.010688494115992727,0.9997162034286255
2025/04/10 10:34:05.322426793,1744274045,321999625,piren,-477.39611315048376,-309.954271995261,2.3437566381954102,-0.003724934206667761,0.0004510670850143685,0.010640214004279067,0.9999363515992326
2025/04/10 10:34:05.399733695,1744274045,398425068,piren,-477.38278342621913,-309.96401369653705,2.340997380565606,-0.02213415102425383,0.00043852520430934504,0.01065259061436404,0.9996981591296863
2025/04/10 10:34:05.477306278,1744274045,476704173,piren,-477.3547961832754,-309.94119759898234,2.3506243142541456,-0.03110818531115911,0.00011769699425228884,0.01095348165884146,0.9994559961266998
2025/04/10 10:34:05.553162022,1744274045,552819446,piren,-477.3418973336876,-309.9078867945114,2.3636671765297987,0.026997288817995693,0.0007265252974326275,0.010926970916276335,0.9995755198403294
2025/04/10 10:34:05.630589325,1744274045,630130807,piren,-477.31261788478224,-309.9790011684589,2.333714833122699,-0.009284341880058253,0.0003426270705260867,0.011036179675828742,0.9998959377558786
2025/04/10 10:34:05.708620991,1744274045,708184238,piren,-477.28505040018297,-309.9756393290108,2.3362676627779213,-0.0020578166828029813,0.0002686394203736864,0.01103324192543496,0.9999369784121281
2025/04/10 10:34:05.860666866,1744274045,859544974,piren,-477.24588448677974,-309.9853867265142,2.3332642389692126,-0.0070414122488881535,0.00036843111491853883,0.011903647329458285,0.9999042883957998
2025/04/10 10:34:06.11304778,1744274046,10828164,piren,-477.20541882623024,-309.98365086636227,2.334685485838529,0.018116192385341096,0.0007133757352958273,0.012227190382935064,0.9997608666495489
2025/04/10 10:34:06.163749716,1744274046,163099208,piren,-477.16566601174344,-310.0217693742175,2.3185349262910533,0.013527318660208563,0.0017362638762057263,0.012017992076085452,0.9998347688013638
2025/04/10 10:34:06.315287304,1744274046,313979605,piren,-477.12792044791473,-310.0452426858241,2.3085746834429672,0.026303064597288497,0.0008657351156773171,0.012383486058439289,0.9995769347921855
2025/04/10 10:34:06.418104387,1744274046,416676201,piren,-477.10618273732894,-310.0785506349746,2.2933561825059128,-0.004991493003645774,0.0006063761780584204,0.01239510068852488,0.9999105353902651
2025/04/10 10:34:06.568943854,1744274046,568523873,piren,-477.0748020962515,-310.05619571292476,2.3028877936573346,-0.009429092163593136,0.0005972917015514816,0.0130683172635784,0.9998699688196923
2025/04/10 10:34:06.646889717,1744274046,645464493,piren,-477.0688247499476,-310.0194919480412,2.3183854059158926,-0.022257249075812516,0.0004016812463660258,0.013075043007445455,0.9996666928362209
2025/04/10 10:34:06.723671090,1744274046,723245594,piren,-477.0496217333826,-309.97099213223555,2.337944255778807,0.01594781524278883,0.0009064389040129144,0.012761472834416508,0.9997909733382232
2025/04/10 10:34:06.801796432,1744274046,801335479,piren,-477.02899050090133,-309.99753128586326,2.3267260455704366,-0.035382872636910166,0.0001186368778642265,0.012791133380539568,0.9992919619190843
2025/04/10 10:34:06.956283186,1744274046,954919843,piren,-477.00034518124266,-309.93203863414806,2.352004231054749,-0.012744216425873898,9.88347912583576e-05,0.013591221326700733,0.999826411874693
2025/04/10 10:34:07.108153614,1744274047,107764527,piren,-476.97119420295235,-309.9155660992633,2.359153789197403,0.0020416172084173167,0.0004377191615224088,0.013883616850873066,0.9999014378348738
2025/04/10 10:34:07.262548731,1744274047,260102849,piren,-476.94126255259255,-309.93163562686937,2.35296424690279,0.013843309861032108,0.001473993145266278,0.013709901732884885,0.9998090961332438
2025/04/10 10:34:07.414293056,1744274047,413895774,piren,-476.9108954700203,-309.9693073726285,2.3371786108786705,-0.0028879600302329114,0.0002991191047829801,0.014050865570247862,0.9998970663980128
2025/04/10 10:34:07.568024887,1744274047,566091499,piren,-476.884570701937,-309.9753715201603,2.3348503573354336,-0.009989778793548652,0.0013856129955840011,0.014329145050397932,0.9998464682131988
2025/04/10 10:34:07.720010316,1744274047,719620420,piren,-476.8596824672191,-309.96670293559635,2.3383638402937437,0.019547494008544032,0.0008359976690673329,0.014347883506111296,0.9997056240837991
2025/04/10 10:34:07.799841626,1744274047,799472361,piren,-476.8442478450111,-310.00724999951365,2.3207268275333406,0.018129763074540298,0.0007672235075647701,0.014348215924297077,0.9997323900718332
2025/04/10 10:34:07.954266289,1744274047,953886755,piren,-476.8218903573667,-310.03958837366025,2.3067028555404647,0.0239815307346992,0.0008989243680549401,0.014898062852669675,0.9996009833137617
2025/04/10 10:34:08.112013637,1744274048,111714413,piren,-476.8005509669304,-310.0737842124715,2.2915133483696506,0.023748216748001042,0.0008525777400842375,0.015177853451615332,0.999602384989696
2025/04/10 10:34:08.266430258,1744274048,266000816,piren,-476.77985505307925,-310.09797810574514,2.2806669908734687,-0.011555782230762195,0.00032637553981062925,0.015226797536117647,0.9998172343047685
2025/04/10 10:34:08.421005478,1744274048,419995273,piren,-476.7613267261407,-310.0541172322379,2.2992364060236703,0.009271558977351603,0.0006863913240416045,0.015281591744455937,0.9998400072085712
2025/04/10 10:34:08.574428918,1744274048,574029771,piren,-476.7417713117779,-310.0455847162678,2.3030009601944337,-0.030230329430323104,-2.267654107439808e-05,0.01560871551952032,0.9994210797597474
2025/04/10 10:34:08.652937238,1744274048,652566848,piren,-476.73203636001267,-309.9711811262964,2.3326209632642168,-0.001961390796782144,0.0004588269358469843,0.015602911697358238,0.9998762381267743
2025/04/10 10:34:08.808085388,1744274048,807726784,piren,-476.7124854494809,-309.9543733728364,2.3398461174968843,0.025427180840160723,0.0009697293054806804,0.01557256157229934,0.9995549076592406
2025/04/10 10:34:08.963709438,1744274048,963368592,piren,-476.6922918315712,-309.9910622634569,2.3232949793160635,0.02900892172064481,0.0006769827246045911,0.016037813062198647,0.9994502552439406
2025/04/10 10:34:09.67133817,1744274049,65896034,piren,-476.6795530933819,-310.033520761217,2.304196623835229,-0.033903145980836956,-0.00021303126619460084,0.016051344707964443,0.9992961951510412
2025/04/10 10:34:09.225125316,1744274049,223831160,piren,-476.6652058343294,-309.9636568742452,2.3315177910723976,0.002271290310634081,0.0005340096465025168,0.01601348619680812,0.9998690535934428
2025/04/10 10:34:09.303289443,1744274049,302846675,piren,-476.6607760536961,-309.9693065037595,2.3304691247868625,0.024734728496899,0.0020422392727064845,0.015967675136802563,0.999564433048547
2025/04/10 10:34:09.383235702,1744274049,382773341,piren,-476.64782202824756,-310.008213457791,2.3137323609099543,-0.0014774883763482539,0.00030656807147820975,0.01626549562877125,0.9998665694461766
2025/04/10 10:34:09.462252478,1744274049,461421326,piren,-476.6400001145235,-309.9961461826595,2.319730703606823,-0.03502783618880676,-0.0002985852055143394,0.016269217791449127,0.9992538586821967
2025/04/10 10:34:09.618902891,1744274049,617667451,piren,-476.6279383456718,-309.9290243082242,2.346065331575326,0.025843249422918567,0.0008069801760065717,0.0164023567011255,0.9995311090390882
2025/04/10 10:34:09.697349023,1744274049,696832134,piren,-476.622309007204,-309.9840944289251,2.32291854048913,-0.02988842716758382,-0.00016350246669551732,0.01642069709622714,0.9994183387827469
2025/04/10 10:34:09.776504993,1744274049,776113700,piren,-476.61479246931947,-309.929522702346,2.3450232936154234,0.027786652080297874,0.0006169531121347257,0.016622878702770582,0.9994754630498234
2025/04/10 10:34:09.854602604,1744274049,854254656,piren,-476.6034514209426,-309.9833215358334,2.322082419143849,-0.03291747061194678,-0.00022253069424296154,0.016631583529900903,0.999319659087066
2025/04/10 10:34:10.11913049,1744274050,11451906,piren,-476.5901045527456,-309.92546180330686,2.345026569868473,-0.002500639282896773,0.00022875995027664734,0.0167378220528825,0.9998567596335928
2025/04/10 10:34:10.166856895,1744274050,166545936,piren,-476.5745819029469,-309.92656249518876,2.345500916328229,0.02647824577416898,0.0016861759806050159,0.017004878011964278,0.9995033233737062
2025/04/10 10:34:10.326288804,1744274050,325006115,piren,-476.5554769394506,-309.97879837310603,2.3230332557010316,-0.002400298883239154,0.00026882963182950234,0.017086737568280056,0.9998510937610525
2025/04/10 10:34:10.404641728,1744274050,404282667,piren,-476.54634612102603,-309.9753477905735,2.325444271895242,-0.002668074029800404,0.0002965543384567415,0.017086979341459252,0.9998504030971236
2025/04/10 10:34:10.560570744,1744274050,559532226,piren,-476.5319692229343,-309.972963877171,2.327127533318739,0.001515880260210731,0.000483477071157788,0.017374045010020822,0.9998477938751219
2025/04/10 10:34:10.717794070,1744274050,716746592,piren,-476.51816814512534,-309.9764109341698,2.3262326076239015,-0.033283426427609765,-0.00018766123546827982,0.01750500350783785,0.9992926263916337
2025/04/10 10:34:10.872149120,1744274050,871772538,piren,-476.5074151521382,-309.91936733886644,2.3483191649438586,0.028009193822853454,0.0007795279323587471,0.01746524419189705,0.9994547726850445
2025/04/10 10:34:10.951539421,1744274050,951182241,piren,-476.50234718841176,-309.97980401156127,2.3221812385312894,-0.003632258987537692,0.00023431769665746254,0.017481364945881973,0.9998405641248477
2025/04/10 10:34:11.33888018,1744274051,30967675,piren,-476.495067466432,-309.97175790089784,2.326279379077909,0.0016608561283683499,0.0002891162612901671,0.017443768058289125,0.9998464246696275
2025/04/10 10:34:11.114162177,1744274051,112747315,piren,-476.4872659489098,-309.97354528390633,2.3260695818610593,-0.0034926532888633383,0.00010011451974132651,0.017568619176240117,0.9998395546138026
2025/04/10 10:34:11.269305832,1744274051,268969503,piren,-476.4752575665944,-309.9659434004238,2.329439946138882,-0.0005731624206903658,0.0003273192737794497,0.017784945860845915,0.9998416174813186
2025/04/10 10:34:11.429358728,1744274051,427935017,piren,-476.46229214163935,-309.9633765483487,2.3304213638908733,-0.001445583666397771,0.0004030068753877967,0.017717668620816605,0.9998419035487385
2025/04/10 10:34:11.509121791,1744274051,508701522,piren,-476.452336910844,-309.95994227418254,2.331602230014898,-0.0016073044752336581,0.0004006320493041528,0.017734261464642607,0.9998413634355146
2025/04/10 10:34:11.614433251,1744274051,614024796,piren,-476.44218955700114,-309.95686081649427,2.3325671860411337,-0.025672231278116367,-7.53816117637317e-05,0.017803343423911554,0.9995118667738497
2025/04/10 10:34:11.770618956,1744274051,770279170,piren,-476.4288378040874,-309.9129835303797,2.3492441510484925,-0.002951455246433365,0.00031185768404519784,0.017970547795313027,0.9998341117748731
2025/04/10 10:34:11.850776453,1744274051,850062522,piren,-476.41853640821375,-309.918127964241,2.347071474608079,0.003408415290059927,0.0004375791848262765,0.017967658425798484,0.9998326632393849
2025/04/10 10:34:12.7605616,1744274052,7181298,piren,-476.40374245044234,-309.93194075626565,2.3411946534775256,-0.02944653305412729,-0.0003540272218430886,0.018325425750118526,0.9993982965399207
2025/04/10 10:34:12.165593241,1744274052,165122519,piren,-476.3917973309911,-309.89045885103656,2.356880609677586,-0.002890795441216431,0.0001670359709268135,0.018268098503893385,0.9998289313566364
2025/04/10 10:34:12.325475244,1744274052,324182054,piren,-476.37864185689904,-309.90046304175297,2.352947262196089,0.02870721169754598,0.0007282241561683666,0.018096109336144736,0.9994237822430608
2025/04/10 10:34:12.407804099,1744274052,406601315,piren,-476.36816822793674,-309.96615220013837,2.3242344338853007,-0.0292227925852451,-0.00042688734209097255,0.018102678039489905,0.9994088949016391
2025/04/10 10:34:12.564872669,1744274052,564528034,piren,-476.35718589022616,-309.92423862339774,2.340477868489438,-0.0024107304803573392,0.0003116936486319691,0.01823676710966942,0.9998307414512759
2025/04/10 10:34:12.645291967,1744274052,644954250,piren,-476.3528708762855,-309.9316630628343,2.3384431995881565,-0.029147670160153464,-0.0001272092989814642,0.01824043961671057,0.9994086669149004
2025/04/10 10:34:12.725372899,1744274052,725092000,piren,-476.3447343451342,-309.8911055894434,2.354262384365087,0.030394402852888004,0.0010324344414081915,0.018397900648665668,0.9993681161644404
2025/04/10 10:34:12.808026057,1744274052,806740476,piren,-476.33194856065137,-309.95874733733643,2.324789600613178,0.0003305902623273472,0.00036314210223100854,0.01826411341859262,0.9998330765677463
2025/04/10 10:34:12.963209518,1744274052,962810887,piren,-476.31645657609073,-309.9655292679952,2.3225994393172478,-0.016506222834665712,0.000216666614077094,0.018399332154707244,0.9996944344346284
2025/04/10 10:34:13.124845748,1744274053,123643479,piren,-476.3009065077728,-309.9402410142527,2.3333482881770284,-0.003138138596667893,0.0003896844922305457,0.018361238253260127,0.9998264175155364
2025/04/10 10:34:13.205515057,1744274053,205180061,piren,-476.28947340583466,-309.9393373515582,2.3345275663717695,-0.010537554660692868,0.0001633037313387726,0.018364501155968323,0.9997758140558096
2025/04/10 10:34:13.364842053,1744274053,363838129,piren,-476.27348128486045,-309.9259780736546,2.340600245887774,-0.012637075558520807,-0.00013262488645877365,0.01855479060080071,0.9997479714796766
2025/04/10 10:34:13.526325039,1744274053,525638922,piren,-476.25832515824936,-309.91128599039894,2.3470226461434507,0.003954939220825637,0.0003400395216662044,0.018638580069029544,0.9998184065928643
2025/04/10 10:34:13.607786409,1744274053,607358188,piren,-476.2477479085157,-309.92991088720004,2.339565233666927,-0.03131707451813583,-0.00033602438221139343,0.018637363819138365,0.9993356676318089
2025/04/10 10:34:13.767555200,1744274053,765760771,piren,-476.23390186815374,-309.8846275003867,2.356807276757271,0.03373150353437654,0.0008857260531024203,0.018714614066815783,0.9992553049041067
2025/04/10 10:34:13.848165894,1744274053,847773069,piren,-476.22587666951955,-309.9614056962311,2.322909817970617,-0.0237017374341,-0.00019970942489622298,0.018794465427713035,0.9995423732028759
2025/04/10 10:34:13.929611864,1744274053,928455713,piren,-476.2169030704766,-309.92288238476067,2.338625952236715,-0.03273775556549277,-0.0002394694560188682,0.01895271720017744,0.9992842321009793
2025/04/10 10:34:14.10433355,1744274054,9203298,piren,-476.2078762816807,-309.87579177003914,2.3569792871214554,0.02636544105680898,0.0007689802789459471,0.01879503950890189,0.9994753717211192
2025/04/10 10:34:14.116271592,1744274054,114597086,piren,-476.19477497181094,-309.9383069707219,2.33045405535091,-0.02935034521750675,-0.00017079415597535816,0.018870085549777427,0.9993910385511336
2025/04/10 10:34:14.273815898,1744274054,273384115,piren,-476.17935866159917,-309.89669571855313,2.3470660352583157,0.02823201605686282,0.0010118268174984795,0.019057509692097595,0.9994192017367848
2025/04/10 10:34:14.356431656,1744274054,355076263,piren,-476.1645954376563,-309.9582624751272,2.321098785567443,-0.003907528534352666,0.00036952594492113504,0.019080492959695865,0.9998102467267198
2025/04/10 10:34:14.516942884,1744274054,515875634,piren,-476.1461288275754,-309.9570190633783,2.3229596679304336,-0.024895344246703494,-0.00026090113255207003,0.019052022540178237,0.9995084662985931
2025/04/10 10:34:14.677300075,1744274054,676938371,piren,-476.12886025971335,-309.9175844130032,2.3396548601679665,-0.029939694103147094,-0.00027388556360428393,0.01935509218287226,0.9993642579711867
2025/04/10 10:34:14.758971192,1744274054,758545551,piren,-476.11709142987314,-309.87512380211206,2.3570635194776726,0.03174692248695713,-3.3688402425717024e-05,0.019362606504286204,0.9993083714485028
2025/04/10 10:34:14.920735657,1744274054,919250914,piren,-476.0975831208197,-309.94230921101183,2.328381155564864,-0.0004680287786171941,0.0002500144799651107,0.01936125168039591,0.9998124125930777
2025/04/10 10:34:15.1435879,1744274055,963164,piren,-476.0837933214962,-309.9477010315519,2.327614627338817,0.0004036332630984171,0.00014254224496135036,0.01936112888667718,0.9998124641402161
2025/04/10 10:34:15.160949309,1744274055,160552648,piren,-476.064519877057,-309.95399821377686,2.3260922810292923,0.030298719872609084,0.0009901838434176406,0.019793295763604647,0.9993444013716453
2025/04/10 10:34:15.321308618,1744274055,319799913,piren,-476.0429949812807,-310.0067397107697,2.302945288471108,0.00123678421599558,0.00046876565061910693,0.02002207703126258,0.9997986632592195
2025/04/10 10:34:15.402144803,1744274055,401767691,piren,-476.036647176632,-309.9921174222752,2.3097847953767063,0.0022875268524694113,-0.0003776590273518631,0.020023671708198652,0.9997968179414658
2025/04/10 10:34:15.483965622,1744274055,483581445,piren,-476.0251149701748,-309.9861286262125,2.312810189966939,-0.008092071563859111,0.0005102454846592165,0.019949623709343684,0.9997681083837423
2025/04/10 10:34:15.566538023,1744274055,566212732,piren,-476.01213983371997,-309.96244196992774,2.3229395150751655,0.009610161057201303,0.0007678204037008382,0.019937701115400143,0.9997547415894137
2025/04/10 10:34:15.729300768,1744274055,728952609,piren,-475.9911851701417,-309.9726001644114,2.318868271913667,-0.0020829063404208827,0.000444787040188214,0.02009790852707483,0.999795748009814
2025/04/10 10:34:15.813074899,1744274055,812587215,piren,-475.9780726847191,-309.96106028744066,2.323911768209091,0.03072938154623749,0.0009706443325108563,0.02025899310924697,0.9993219381948767
2025/04/10 10:34:15.972148828,1744274055,971671949,piren,-475.95433109525595,-310.00598848170705,2.3034914514215337,-0.03264571297835412,-0.0003511869116554585,0.020760726532664142,0.9992512828741947
2025/04/10 10:34:16.54147539,1744274056,53798596,piren,-475.941617543999,-309.9353430272971,2.3314608598281263,-0.0016947171205395032,0.00024361083110046244,0.020761636352387175,0.9997829879746982
2025/04/10 10:34:16.240527466,1744274056,239225897,piren,-475.91937234021333,-309.9282929628876,2.3350285313505386,-0.024853199390764514,-8.447486983612205e-05,0.020642617278933875,0.9994779605853822
2025/04/10 10:34:16.322749025,1744274056,322400109,piren,-475.9055345577061,-309.8879393110484,2.3514021689032005,-0.0066124945524786575,0.00011407889907902714,0.020856053165430703,0.9997606148214477
2025/04/10 10:34:16.406011499,1744274056,404504259,piren,-475.89030800079166,-309.88690924595744,2.352586670567826,-0.027517242988998318,-0.0002554948488373944,0.020850429442384442,0.9994038201111375
2025/04/10 10:34:16.567577127,1744274056,567175534,piren,-475.87053328172846,-309.8309210256761,2.374253354652977,-3.1222554289948227e-06,8.606691374185358e-05,0.021427467639696766,0.9997704017489654
2025/04/10 10:34:16.650956140,1744274056,650602453,piren,-475.8557099962526,-309.86015942211566,2.362811223165252,-0.03067054570017804,-0.00041191250760400956,0.022110403526365337,0.9992848833092797
2025/04/10 10:34:16.813084543,1744274056,812605838,piren,-475.8348038476879,-309.82943432734766,2.374352550883593,-0.02469255799314705,-0.0004324607957417559,0.022781611036549243,0.9994353849829386
2025/04/10 10:34:16.973670508,1744274056,973274770,piren,-475.81270361733726,-309.81629074180034,2.379393491272854,0.029890284151645567,0.0008233213498285396,0.02205166539741381,0.9993095702075956
2025/04/10 10:34:17.55864365,1744274057,55410065,piren,-475.7938059835974,-309.9040377860823,2.3419509613100713,-0.006713925813861969,2.1267070769823078e-05,0.02206777371043165,0.9997339326597567
2025/04/10 10:34:17.217192700,1744274057,215971267,piren,-475.77030872506873,-309.91729837301443,2.3374878496203966,0.0181628762881614,0.000521217037563274,0.022140748307608697,0.999589728599749
2025/04/10 10:34:17.376846304,1744274057,376396978,piren,-475.74447683484937,-309.96658044462595,2.317388297389321,0.0017729237294060857,0.0004381609648359367,0.02285742950009624,0.9997370667695916
2025/04/10 10:34:17.458398246,1744274057,458021013,piren,-475.7267105858389,-309.97257930753113,2.3159617495882086,-0.006693472701757705,0.0002080070790373459,0.022860430348935482,0.9997162371795846
2025/04/10 10:34:17.619533536,1744274057,619231818,piren,-475.70231860262305,-309.9649166080856,2.3200326240377973,0.009924453013885656,0.0007145898995777517,0.022928873579502424,0.9996875818724696
2025/04/10 10:34:17.701326137,1744274057,700985824,piren,-475.683716914492,-309.97916419447074,2.314455196215036,0.003850476049451019,0.0005880665270132821,0.022932871738289506,0.999729419095881
2025/04/10 10:34:17.865527916,1744274057,864299659,piren,-475.65763296822695,-309.98205930869057,2.313750421284016,-0.0013205625386236981,0.00044186562590127314,0.02405084526758578,0.9997097667379593
2025/04/10 10:34:18.27067605,1744274058,26661685,piren,-475.63249925135165,-309.97261927257483,2.3179929949960556,-0.0032026605705246292,0.0004398940349170501,0.02449827712036072,0.99969464531758
2025/04/10 10:34:18.108975403,1744274058,108541655,piren,-475.6156450774643,-309.95812414308455,2.324038224672822,-0.010748263799870142,0.00027437033961341835,0.024500562393150713,0.9996419969112066
2025/04/10 10:34:18.270533335,1744274058,270163198,piren,-475.59192182918554,-309.9332337815209,2.334245335742021,0.004015385209235792,0.0005330593486403122,0.0249469550779164,0.9996805699630722
2025/04/10 10:34:18.352694175,1744274058,352353714,piren,-475.5757182870647,-309.93956374491324,2.331466343726271,-0.029574559718220733,-0.00029898752560102463,0.02588629811917853,0.9992272792481288
2025/04/10 10:34:18.459620677,1744274058,459219952,piren,-475.56030759513976,-309.8880133485608,2.3512472574706726,0.018647501285242788,0.0008570344903538085,0.027023106659657303,0.9994604984161005
2025/04/10 10:34:18.620572357,1744274058,620308187,piren,-475.531162073155,-309.9246221454012,2.3353828403622234,0.02916957799255349,0.001133527008586883,0.025483083091514362,0.9992489496178659
2025/04/10 10:34:18.704314336,1744274058,703053984,piren,-475.51109702158175,-309.97838236833536,2.3116688214366805,-0.029175747644417195,-0.0005335217448866023,0.025501152770385133,0.9992488090117089
2025/04/10 10:34:18.865239207,1744274058,864844983,piren,-475.4878930600413,-309.92640557452836,2.332386619379466,-0.001454160879221073,0.0004347601397517702,0.02633620710598709,0.9996519897419446
2025/04/10 10:34:19.29499704,1744274059,29076968,piren,-475.4608872713298,-309.92539487666556,2.3337060565177454,0.0012811815918094458,0.0005016272349906077,0.0268542460001119,0.9996384128351669
2025/04/10 10:34:19.113523438,1744274059,113069642,piren,-475.44216252519266,-309.93156029440314,2.3321173093416006,0.0002127328096494421,0.00032911370424408586,0.026854804914250754,0.9996392678771373
2025/04/10 10:34:19.198522948,1744274059,197965306,piren,-475.43196058004236,-309.9351922930337,2.3313630774862726,-0.0063779202902329805,0.00016360155719159162,0.026586148659072856,0.999626166157519
2025/04/10 10:34:19.282032664,1744274059,281478352,piren,-475.41384301828685,-309.9266506098431,2.3354604878341254,-0.025359155224159376,-0.0002556807744160977,0.026585881148369142,0.9993247914453155
2025/04/10 10:34:19.371237083,1744274059,366529534,piren,-475.39752221720255,-309.88769344288556,2.35094157700127,-0.0004802723674348167,-1.6866565202744857e-05,0.027160068232764362,0.999630981786561
2025/04/10 10:34:19.450939562,1744274059,450400402,piren,-475.38800279686114,-309.90280824717667,2.3451481619721424,-0.00032001806486131774,0.00040809280681953597,0.027160190778029697,0.9996309594473354
2025/04/10 10:34:19.534780491,1744274059,533550538,piren,-475.3692340188135,-309.9123186043156,2.3415543902655855,0.005063633383140165,0.0005717820363807374,0.027382839953116515,0.9996120311192568
2025/04/10 10:34:19.617593019,1744274059,617230596,piren,-475.35014851021725,-309.9295648410314,2.3345517523318624,-0.004752973457501096,0.00010869670745706246,0.027918874446664008,0.999598886492962
2025/04/10 10:34:19.779437546,1744274059,778949539,piren,-475.3236313207391,-309.92760027759437,2.3355808373928317,0.02964255532516857,0.0013451337619535292,0.02894099237387817,0.9991405949561714
2025/04/10 10:34:19.863438677,1744274059,862929733,piren,-475.30175985006514,-309.9819094262197,2.3111474913352414,-0.0010155843150005425,0.00042946699193758165,0.028968635033490252,0.9995797128448028
2025/04/10 10:34:20.27993266,1744274060,27648775,piren,-475.2760971006918,-309.97699221438825,2.313569519793492,0.021286699389519957,0.0010343367214809215,0.02865483037296448,0.9993621502102946
2025/04/10 10:34:20.111841181,1744274060,110769333,piren,-475.2555521376686,-310.0042334245228,2.301644948884299,-0.027122935249081652,-0.00027693847827515246,0.02922000691603123,0.9992049143616041
2025/04/10 10:34:20.276944967,1744274060,275597663,piren,-475.2299681850181,-309.94699141405965,2.324628791821211,-0.00044313648938571805,0.0005015429773946947,0.030454462153990315,0.9995359312298908
2025/04/10 10:34:20.359911501,1744274060,359076490,piren,-475.2095547820463,-309.9407978812358,2.3279329104150066,-0.002725708618272106,-0.0004715242091312064,0.03045309097459386,0.9995323693745699
2025/04/10 10:34:20.523451286,1744274060,523009433,piren,-475.18234407564586,-309.9311670439754,2.3325383529790065,0.005163674537293544,0.00046650530367983186,0.030136690630193756,0.9995323400050319
2025/04/10 10:34:20.606685194,1744274060,606272717,piren,-475.1618553682766,-309.93939014541417,2.329468535053153,-0.02067632706910577,-0.0002624344719837146,0.030138772548640752,0.9993318142720868
2025/04/10 10:34:20.715227598,1744274060,714737232,piren,-475.14427449093324,-309.9029369082993,2.3441901481322276,-0.0031414520036451487,0.00022741784656752368,0.03127691847247224,0.9995057948462821
2025/04/10 10:34:20.878641552,1744274060,878142977,piren,-475.1148305998288,-309.9009344665256,2.3452769016922947,0.02219879593737885,0.0010114741630880906,0.03302507214966694,0.9992074534291953
2025/04/10 10:34:20.963438560,1744274060,962861829,piren,-475.0912279065273,-309.9465766218952,2.3253002155859868,0.006741250992438274,0.0005972208543707184,0.03303666641568264,0.9994312270158698
2025/04/10 10:34:21.128990816,1744274061,128604563,piren,-475.0630158883898,-309.95898426253245,2.320245132173659,-0.024309115859905563,-0.00036232743678144897,0.03204558315248003,0.9991906806037353
2025/04/10 10:34:21.214470280,1744274061,213270205,piren,-475.0464182807184,-309.9140979320279,2.338155588234886,0.0049208996209116635,0.0006630477471146752,0.03263817762832163,0.9994548986701242
2025/04/10 10:34:21.378446476,1744274061,378048832,piren,-475.01650519043585,-309.92566812499115,2.3336436307867117,-5.88116679801661e-05,0.0003766071924773858,0.0340266320291817,0.9994208538053232
2025/04/10 10:34:21.463191034,1744274061,461767529,piren,-474.9961805864798,-309.92930487983443,2.3325750488773833,0.0022863452192799427,0.0003473244050382805,0.03402566354701734,0.9994182839089353
2025/04/10 10:34:21.626359199,1744274061,625923039,piren,-474.96684532742876,-309.9363366729757,2.3300405132482385,-0.0003833936311359933,0.0003231410504966999,0.03373592792570119,0.9994306558016804
2025/04/10 10:34:21.710481438,1744274061,710040037,piren,-474.94718856800955,-309.9372973204322,2.329929481705807,0.0028209141916713987,0.00041721287199984514,0.03373469686585635,0.999426754997039
2025/04/10 10:34:21.875420177,1744274061,874542931,piren,-474.9183378208183,-309.9434155302171,2.3275433348468604,-0.004027321196452258,0.000227805498314487,0.03559397610930121,0.999358192868486
2025/04/10 10:34:21.958932773,1744274061,958567136,piren,-474.89706190089845,-309.93586831235143,2.330674657159805,0.0017793650650364068,0.0004603177745599115,0.0374942159279984,0.9992951544661148
2025/04/10 10:34:22.125173705,1744274062,123822855,piren,-474.8656850910537,-309.93919203447354,2.3292070879911186,-0.0318979460668855,-0.0007716365468451455,0.0389552052602581,0.9987314041307026
2025/04/10 10:34:22.209691018,1744274062,209327321,piren,-474.8466931873216,-309.88431992406873,2.3499737772062095,0.030937679457521003,0.001610495149842069,0.03893113693954287,0.9987615495561243
2025/04/10 10:34:22.376381040,1744274062,375927196,piren,-474.81250935647165,-309.94269785144115,2.323678991315465,-0.022040022462785372,-0.0005039858578322422,0.0376671727075855,0.9990471297733216
2025/04/10 10:34:22.462307237,1744274062,460900513,piren,-474.79460789723845,-309.90626533223025,2.338669762681871,0.029017537822030027,0.0014440254521614867,0.03972777746989525,0.9987880661013844
2025/04/10 10:34:22.627282820,1744274062,626947618,piren,-474.7627093836365,-309.9609924217086,2.3147348112356623,0.02878268492203768,0.0016286028012575879,0.04089254934453967,0.9987475677615936
2025/04/10 10:34:22.712091248,1744274062,711697224,piren,-474.73693645110694,-310.0051737604897,2.295646535032498,-0.0006720846228893612,0.00031348284543796895,0.03825619839325925,0.9992676885175769
2025/04/10 10:34:22.901845859,1744274062,901459196,piren,-474.69786307993456,-310.0010309990181,2.298409983613827,-0.00018129295279673132,0.0006073563268405727,0.040231158229315146,0.9991901981898569
2025/04/10 10:34:23.67780187,1744274063,66686930,piren,-474.66849817470097,-309.98525371948375,2.3063271112248223,-0.014459306359953517,-6.890152210831666e-05,0.04057783649396881,0.9990717506253682
2025/04/10 10:34:23.153012138,1744274063,151489082,piren,-474.661326706903,-309.9435720097543,2.3244133364230652,0.027663881218418722,0.0016128651412643839,0.0405446870011355,0.998793390395606
2025/04/10 10:34:23.236052893,1744274063,235670720,piren,-474.63762259576686,-309.9813823658559,2.307929968512104,-0.032507741762067936,-0.0008059110236976831,0.04008493483390796,0.9986670091838991
2025/04/10 10:34:23.321381234,1744274063,320301892,piren,-474.62323793330216,-309.91123627361117,2.336236400752871,-0.0013089445281669158,0.0003844530053976114,0.04093147887642123,0.9991610245086114
2025/04/10 10:34:23.406655810,1744274063,406341107,piren,-474.60434401455274,-309.9094482123437,2.3380821093057427,-0.0014213696613792773,0.0004111830633712801,0.04093144712839646,0.9991608615597137
2025/04/10 10:34:23.574039588,1744274063,572801762,piren,-474.57394697652126,-309.9048319459442,2.34078749558388,-0.0009809916219388475,0.0003252999996675711,0.04274716603949384,0.9990853875575101
2025/04/10 10:34:23.658830788,1744274063,657084875,piren,-474.55215685950407,-309.90762220390656,2.34002429783245,-0.0008492607799568883,0.00036331498426271506,0.0449951416159744,0.9989867786859385
2025/04/10 10:34:23.824132501,1744274063,822943528,piren,-474.52141511877454,-309.9091059358898,2.3396843131968907,-0.0008601519943587893,0.00036950684047266404,0.04678005453721186,0.9989047752917878
2025/04/10 10:34:23.909621942,1744274063,907543191,piren,-474.49801077479117,-309.91306874014595,2.337922320899072,-0.0009665015306217947,0.00037848349752430646,0.04678009700541504,0.9989046727036557
2025/04/10 10:34:24.73649746,1744274064,73265461,piren,-474.468262384521,-309.91612080780175,2.336681038100868,-0.0010130587081203452,0.00040802300246105315,0.04491234163562738,0.9989903346870219
2025/04/10 10:34:24.157824274,1744274064,157454853,piren,-474.4480047332415,-309.9194040512127,2.3352089755161143,-0.0010789756001762158,0.0014989299186972597,0.047344043671964674,0.9988769346368651
2025/04/10 10:34:24.327111876,1744274064,324880124,piren,-474.41676474883917,-309.9221769954605,2.3339948771819743,-0.0007844701471686814,0.00030107059531550746,0.0491626287644756,0.9987904334223728
