time,header_stamp_secs,header_stamp_nsecs,header_frame_id,twist_linear_x,twist_linear_y,twist_linear_z,twist_angular_x,twist_angular_y,twist_angular_z
2025/04/10 10:33:49.340248908,1744274029,220274888,piren,0.00019527379564269012,-0.10184107633283146,-0.045448750338471816,0.0006727431912722863,-0.00033486573338591883,-5.769978637613e-06
2025/04/10 10:33:49.481120082,1744274029,478712142,piren,0.0002597483140674799,-0.04431796104187764,-0.0188790661410886,0.0006871925702000816,-0.000673560440409473,0.0
2025/04/10 10:33:49.551954090,1744274029,549615847,piren,0.0004837616934788517,-0.005790792505505187,-0.0011355004015870718,0.0008103886690685734,-0.000641278437155696,0.000183110116495456
2025/04/10 10:33:49.625580393,1744274029,621286222,piren,0.0006829838840582779,0.017503061510073803,0.00976733995101042,-0.0006316629600564788,-0.00045265896580266385,2.1780469161618323e-05
2025/04/10 10:33:49.765731826,1744274029,763410642,piren,0.0007432607379439381,0.05005612905057618,0.02341826635965688,0.000668488468580265,3.437636740629877e-05,2.217618559189391e-05
2025/04/10 10:33:49.906736963,1744274029,904473356,piren,0.0003787426993433603,0.046980373363456916,0.02250711892618135,-0.0006637482461033664,0.000586337661847795,1.761628271142025e-05
2025/04/10 10:33:50.47935051,1744274030,44555333,piren,0.0003390360984158738,0.060845526798415546,0.023540895031097853,-0.0009497395844749373,0.0008330955782307761,3.302300138301407e-05
2025/04/10 10:33:50.119505307,1744274030,116914024,piren,0.00017845604656172845,-0.05215169618952579,-0.02349821264070089,0.0007528543535673131,0.0008732714828078974,3.758333301346527e-05
2025/04/10 10:33:50.258614959,1744274030,255651078,piren,0.00013892374958615416,-0.021656082749060345,-0.010256476180468576,-0.0008086022923518577,0.0005687125489969272,4.6626848327049535e-05
2025/04/10 10:33:50.401794258,1744274030,399342366,piren,0.000407883273561366,0.0199208795373758,0.007819077988173523,0.0006261946535165909,9.592142174270561e-05,0.00028372516077333483
2025/04/10 10:33:50.473085797,1744274030,470933572,piren,0.0006592663826170192,0.02576167972456757,0.012584942421946603,0.0009027192969214856,-0.00036798326743583753,7.119024823218577e-05
2025/04/10 10:33:50.613912060,1744274030,611915107,piren,0.0006967612627172711,0.14788341809632805,0.04888010066934481,-0.0009246856956383824,-0.0007461803512730865,4.085142563630109e-05
2025/04/10 10:33:50.754868992,1744274030,751435049,piren,0.0004461236081803134,-0.005739876947960731,-0.007466261325007561,0.0008005660206152148,-0.0007705197801837381,7.988296117688302e-05
2025/04/10 10:33:50.824244893,1744274030,822103688,piren,0.00013649816493239433,-0.006256910818892828,-0.004917571553336393,-0.0006247708154256464,-0.000478638880057542,7.722755268578246e-05
2025/04/10 10:33:50.965670519,1744274030,962970690,piren,-0.00046890772531391967,0.013509092782614031,0.005395269688110215,0.0006973073026160766,0.0001062193865587493,4.944884127599614e-05
2025/04/10 10:33:51.107994058,1744274031,105180358,piren,-0.0002863622800280902,0.006971080006644358,0.004028493714029605,-0.0006247744797783835,0.0003981718998855282,2.9051975252815998e-05
2025/04/10 10:33:51.252478893,1744274031,248162506,piren,8.413903745854129e-06,0.02063904607494337,0.00895359597510257,-0.0009122674762840078,0.0004965911080339916,5.141365676659942e-05
2025/04/10 10:33:51.324301227,1744274031,322066544,piren,0.00016164426629332356,-0.0877947046225344,-0.03782621893411742,0.0007807024300572938,0.00046602503605495894,5.5670697132962164e-05
2025/04/10 10:33:51.398149156,1744274031,395246902,piren,0.00024330268948772075,-0.056020226383507905,-0.027566347367425685,0.0009109491018916769,0.0004081194017873855,0.0
2025/04/10 10:33:51.471643400,1744274031,469108289,piren,0.0004019207911758692,0.08544517237369896,0.0333319993667155,-0.0007991136140091167,0.00021963336284399669,7.028074057835417e-05
2025/04/10 10:33:51.567648907,1744274031,565289690,piren,0.0007086436649269515,0.07158942804096238,0.02869398150273382,0.0006271990331895831,-0.00010666040845663729,0.0
2025/04/10 10:33:51.709490084,1744274031,707122342,piren,0.0008507883663585057,0.03509639732425837,0.015437968875853978,-0.0006921903519037375,-0.00033017798798872845,0.0003399224078815633
2025/04/10 10:33:51.851338629,1744274031,848658906,piren,0.0004948651433382508,0.027497639589702336,0.011080314032661144,-0.0009617582922683514,-0.0003047425570278193,0.00011258848062685356
2025/04/10 10:33:51.923026598,1744274031,920529913,piren,0.00017898860000273683,-0.0956051115700454,-0.04111098496750883,0.000750256155407363,-0.00025804373531935896,4.049782014464122e-05
2025/04/10 10:33:52.63368679,1744274032,61308726,piren,4.24401006180924e-05,-0.0672030426130868,-0.02852744287519961,-0.0007899100164375327,-0.00010773495566594695,2.114095146510572e-05
2025/04/10 10:33:52.205123037,1744274032,203173063,piren,0.00032199913483551163,-0.020906808419078222,-0.007494682180711757,0.0008042247346037017,-0.00010179088519782144,1.3501928056155476e-05
2025/04/10 10:33:52.346877588,1744274032,344055059,piren,0.0005316916857738937,-0.009794115969162779,-0.0024437315433688423,-0.0006221594163714687,-5.083857412526545e-05,3.196278444753652e-05
2025/04/10 10:33:52.419679937,1744274032,417429159,piren,0.0006778159368638539,0.017988074932961833,0.008214613490695456,-0.0008857880574489511,5.6561613262932416e-05,3.799824948576762e-05
2025/04/10 10:33:52.564239686,1744274032,561744903,piren,0.0005528948922754273,-0.07950606786832551,-0.04068942473121524,0.0009637355305316771,0.00018835202985311255,3.58787381040125e-05
2025/04/10 10:33:52.710754787,1744274032,707556954,piren,0.0002597901369796699,0.08100629890994102,0.02449941196478676,-0.0009101734432481718,0.0003034155003180404,2.2786250747946043e-05
2025/04/10 10:33:52.855676226,1744274032,851873220,piren,0.0001475712316951214,-0.03829757110848451,-0.021061779992672638,0.0007821945971225214,0.00016143173870960157,4.754741156383878e-05
2025/04/10 10:33:52.928098920,1744274032,925119546,piren,0.00044650613148601305,-0.015192803397509069,-0.00856339074706385,-0.000677170818801312,0.00011537552957909165,5.9309005640650074e-05
2025/04/10 10:33:53.782107,1744274032,997811600,piren,0.0002636922216276062,0.019421802684677837,0.008238360888142554,-0.0008032758988375644,0.00010640450716230436,0.0
2025/04/10 10:33:53.73036413,1744274033,71284262,piren,-7.959226615561685e-05,0.041190913176532645,0.018303903152905043,0.0006178078171185,1.3136862106562276e-05,4.343534110080346e-05
2025/04/10 10:33:53.145394189,1744274033,142822528,piren,4.8934543208794775e-05,0.03481856315591031,0.016409873088615114,0.0007367360830648532,-7.459753563519308e-05,0.0
2025/04/10 10:33:53.218159725,1744274033,215992436,piren,0.00025294556574832804,0.02615074254376926,0.013465763567160607,-0.0007010191413750074,-0.00016876556975681172,3.8748349995375695e-05
2025/04/10 10:33:53.360882319,1744274033,357861525,piren,0.00023203526520823678,0.037064622283422596,0.017564847526188903,0.0006321865767274071,-0.00018030562373816207,3.805482339726568e-05
2025/04/10 10:33:53.505224936,1744274033,501589894,piren,0.00010759860146549344,0.022538924625331826,0.01305271679869106,0.000908430061776348,-0.000159309826669541,0.0001794696746079149
2025/04/10 10:33:53.577074713,1744274033,574106264,piren,0.00013709573919009428,0.12984136313534606,0.05318416261961773,-0.0007810847911402286,-6.425870949260653e-05,4.731736032025031e-05
2025/04/10 10:33:53.649407565,1744274033,647189780,piren,-5.608900670635975e-05,0.09646980524522941,0.03320522359543854,-0.0009216798334386599,-1.1673909496933035e-05,0.0
2025/04/10 10:33:53.722884895,1744274033,720809285,piren,-7.967580504815704e-05,-0.05181731958999115,-0.024959461405333037,0.0008101769705431654,8.355028461441966e-05,3.635785752655902e-05
2025/04/10 10:33:53.794906188,1744274033,792239005,piren,-0.00014294638922355152,-0.046826124457650435,-0.024655834815310477,0.0009545843311769474,0.0001467277081219934,0.0
2025/04/10 10:33:53.868526562,1744274033,865397804,piren,-0.00039995332374350324,0.07710319180725213,0.02866080140258256,-0.0007353021240163797,0.00029332368958624635,2.222792551759572e-05
2025/04/10 10:33:54.35308194,1744274034,33051097,piren,1.4893205204687425e-05,0.04945050148572463,0.01886075175469334,0.0008220099326932028,0.00011096733020236565,4.798077648970243e-06
2025/04/10 10:33:54.109255849,1744274034,106099845,piren,0.0003663390922762338,0.007088225925074096,0.0033051778923572465,-0.00013700132044259445,-0.002963581466445144,0.000463060459304991
2025/04/10 10:33:54.257498668,1744274034,251925214,piren,0.002331130853065614,-0.007382203956535728,-0.0009645889064699057,0.0007403009211508351,-0.0019561296160421566,0.0034602538657932886
2025/04/10 10:33:54.328377587,1744274034,326315688,piren,0.003352568627779468,-0.13991742012069958,-0.05165167824133326,0.002476319741733947,-0.00020654454563680797,0.004005733383008201
2025/04/10 10:33:54.405781366,1744274034,401939276,piren,0.0005581350288533387,-0.19973919006232213,-0.06970848141139746,0.00465326005359305,0.001959617960822654,0.0
2025/04/10 10:33:54.551728527,1744274034,548698375,piren,-0.00029393357172969215,-0.24437019908384214,-0.12281798394687969,0.006673687060153356,0.0037354481387881586,0.007622584496663077
2025/04/10 10:33:54.624764624,1744274034,622373247,piren,0.004490979284254107,-0.043214089689042993,-0.023123911383505055,0.004886101775547403,0.004170925896548549,0.002980480886299355
2025/04/10 10:33:54.698909614,1744274034,695486418,piren,0.006701358566718285,-0.009442981377113607,-0.006023916044538645,0.004909137438164565,0.00373657454897779,0.0
2025/04/10 10:33:54.772905016,1744274034,770584661,piren,0.014524401073215617,0.0066731275437842625,0.0019738450762674274,0.001242968447908614,0.0022986142185005896,0.0027946389544832606
2025/04/10 10:33:54.848420707,1744274034,844157420,piren,0.020494704828900555,-0.08396410770801563,-0.03205900390196838,0.0006119593925909056,0.001598338004619593,0.0
2025/04/10 10:33:54.921300522,1744274034,918244803,piren,0.02645961731894346,-0.1435323422721931,-0.054158182085906045,-0.001668652773025882,-0.00016128652007700337,0.0026891635921775002
2025/04/10 10:33:55.64773695,1744274035,62327510,piren,0.03915765187632306,-0.1671388650680208,-0.07472580404338948,-0.00454983605113356,-0.0027706796882610595,0.002173685184718005
2025/04/10 10:33:55.206418416,1744274035,204363309,piren,0.05488076011284966,-0.054292939810695696,-0.024779838408013975,-0.007082141789031836,-0.0038068799564221134,0.0
2025/04/10 10:33:55.352936781,1744274035,349991611,piren,0.06769161827314965,0.07951679777048389,0.03033426830877683,-0.006536719856830736,-0.0035797500187048446,0.005922186410126252
2025/04/10 10:33:55.428227872,1744274035,425712521,piren,0.0839716943716204,-0.01011069083185931,-0.0027941104797331515,-0.0055343804175921165,-0.0016203675114203485,0.0025888923927634834
2025/04/10 10:33:55.507921594,1744274035,501313325,piren,0.09746579641763278,0.05950517270969151,0.02919582415744672,-0.0024675508416212573,-0.00047883619216740114,0.0015307956421618536
2025/04/10 10:33:55.655575286,1744274035,652447824,piren,0.10841812498179569,0.06528779033110016,0.03940029508147037,0.001452640244286615,0.0012733834826937904,0.0015903453375467002
2025/04/10 10:33:55.801439682,1744274035,798620769,piren,0.11563750732104812,0.21311317358939216,0.08210235134312016,0.003063182620054612,0.0024214909759743743,0.009657359313621683
2025/04/10 10:33:55.876172459,1744274035,873775780,piren,0.12111764085587065,0.08495426421377042,0.044412886075070504,0.006399423566566883,0.00277944839731915,0.00198138514117035
2025/04/10 10:33:55.953001355,1744274035,949311009,piren,0.12339559910407075,0.19432950534335533,0.07190911305533201,0.0046207522282939424,0.002808375585562944,0.0
2025/04/10 10:33:56.26850278,1744274036,24521680,piren,0.12653945027572522,0.04744320443376669,0.022750008527468522,0.006856062218231418,0.002268550860058136,0.00203935938740262
2025/04/10 10:33:56.100709525,1744274036,98591240,piren,0.12746037677899294,0.1132640641316195,0.04873967394938164,0.0056288647427220175,0.0018513026524670116,0.0
2025/04/10 10:33:56.176235216,1744274036,172842410,piren,0.12708907056456467,0.07708828453616492,0.032025713214065034,0.0037177159323820547,0.0005697776774214778,0.002324973092193058
2025/04/10 10:33:56.318591448,1744274036,316807850,piren,0.13057831453766439,-0.03091941358653072,-0.010314565600206688,-0.00014898083418588175,-0.001583230659922709,0.0012351027636054786
2025/04/10 10:33:56.417391335,1744274036,414488344,piren,0.13526753589066856,-0.016117646025479732,-0.002566090395839867,-0.0029167166103098506,-0.0020771639975828682,0.0025462692438956145
2025/04/10 10:33:56.561190457,1744274036,559203185,piren,0.14424191290949903,-0.003914198459461878,0.0036785642264919507,-0.004724181060879306,-0.0028526387698366035,0.0018878593028197781
2025/04/10 10:33:56.707958362,1744274036,706073839,piren,0.155019666027762,0.10763291658711387,0.04798795623515375,-0.007100306521908084,-0.0018462391222951356,0.0013878941692236837
2025/04/10 10:33:56.855222304,1744274036,852703252,piren,0.1659877194837133,0.060646443709164194,0.03385721403978437,-0.004128429556331905,-3.619167979324594e-05,0.002672413614896516
2025/04/10 10:33:57.2413289,1744274036,999788665,piren,0.1724774284536657,0.12928797493911737,0.051388861745740984,-0.004481256152277435,0.0013827919353044998,0.014896941416291906
2025/04/10 10:33:57.75958848,1744274037,74051518,piren,0.18080748982056263,-0.006073765110627341,0.0002882100586456225,-0.0002267951113101147,0.0022570513496158215,0.003104000240739868
2025/04/10 10:33:57.150324793,1744274037,147940843,piren,0.18668578825608448,-0.039631395826738476,-0.012150854990582948,0.0009446263487363977,0.002491526009792556,0.0
2025/04/10 10:33:57.225064753,1744274037,222900424,piren,0.19097985045376015,-0.05631648263650741,-0.019858813711662975,0.0018945137838859963,0.0025943206101991093,0.002977316726277563
2025/04/10 10:33:57.299061556,1744274037,296384473,piren,0.19098302836463318,-0.056665512647257055,-0.01880756579200098,0.004221101928148359,0.0023930244580376223,0.0
2025/04/10 10:33:57.374203513,1744274037,371336605,piren,0.1910800706148055,-0.05913601840840141,-0.023689597066826506,0.007715629549365959,0.0016994315303113419,0.0037160209014759837
2025/04/10 10:33:57.517641880,1744274037,515327007,piren,0.1889636843334128,0.03754792971493848,0.015387301610392569,0.0035077338233101153,-0.00012584556376625465,0.001937237415079956
2025/04/10 10:33:57.660356791,1744274037,658624919,piren,0.1913548078041379,-0.08955581774292427,-0.03138833899244386,0.002752782526658356,-0.0020951148937571468,0.002602939687128334
2025/04/10 10:33:57.805699610,1744274037,803209310,piren,0.1933021095162321,-0.16955914244275852,-0.08435606317457309,0.0008526736198253,-0.002751591574967731,0.0
2025/04/10 10:33:57.955414986,1744274037,949170135,piren,0.1955562205003956,0.001057470432554671,-0.0012562066535909296,-0.001457234887868069,-0.002675855301050984,0.006540334614402884
2025/04/10 10:33:58.27226463,1744274038,24933561,piren,0.19958088738825394,-0.0371973853071169,-0.013434241279163444,-0.003968715496194095,-0.0015833154364556852,0.0031937266439702448
2025/04/10 10:33:58.105529307,1744274038,99659690,piren,0.20396403615473238,-0.0257659931995669,-0.005732096108956216,-0.004504330664630822,-0.0011907307354963135,0.0
2025/04/10 10:33:58.178237697,1744274038,175970892,piren,0.20883042396121634,-0.019372767110455904,-0.001508966028935884,-0.005626072245859489,-0.00013744456163816013,0.003015124114812822
2025/04/10 10:33:58.254672917,1744274038,250223465,piren,0.21175346328048023,-0.008996515680810786,0.0038651700474217816,-0.006148774747375632,0.0005183228893278108,0.0
2025/04/10 10:33:58.327196993,1744274038,325224843,piren,0.21602729657382047,0.004749727123892189,0.009282713585722715,-0.0055313779983176305,0.0015880513744163556,0.002510423497682659
2025/04/10 10:33:58.401708200,1744274038,399409419,piren,0.22208630408672728,-0.1053995886157433,-0.03341236143747186,-0.0037478904019648805,0.0022496512431355925,0.0
2025/04/10 10:33:58.553694316,1744274038,547221210,piren,0.22665010617989567,-0.16089903605770448,-0.07688972247314743,0.0003055249215166647,0.002391534933717675,0.004782830978997964
2025/04/10 10:33:58.630235052,1744274038,625818930,piren,0.22989935212367787,0.01701381461302622,0.0068881150950627435,0.00016635611543283003,0.0029811054883374447,0.0022193628640217525
2025/04/10 10:33:58.706429674,1744274038,703142407,piren,0.23284075294236523,0.05270058501945683,0.023822904182545398,0.003724612482258837,0.0016219247594373002,0.0
2025/04/10 10:33:58.854503817,1744274038,852145634,piren,0.23249088691580083,0.04897562737322656,0.027439523505410342,0.006319937909899642,-0.0006396253339886473,0.0019008179077338752
2025/04/10 10:33:58.954302227,1744274038,952055011,piren,0.23057439045208902,0.16146475348697248,0.057091894402640626,0.005226270200079518,-0.001925256491245855,0.005237454872590155
2025/04/10 10:33:59.102760641,1744274039,99101483,piren,0.2282886143842963,-0.009428668168420026,-0.004761526165723198,0.004843903067183956,-0.002762643648097619,0.0050617282801084795
2025/04/10 10:33:59.177747785,1744274039,175700847,piren,0.22631478349628453,-0.005468380854176034,0.0014993490147113752,0.004006445142298661,-0.003566877536164319,0.0010805939300440623
2025/04/10 10:33:59.253611011,1744274039,250844032,piren,0.23522785870425914,0.08550715285250844,0.03245720247494016,0.0015628994421704291,-0.0037378795610797997,0.0
2025/04/10 10:33:59.329014659,1744274039,326439581,piren,0.23126029245323235,-0.06616819098492237,-0.026571550372087804,-0.0009456394696853898,-0.002052846233983863,0.0023927622316982583
2025/04/10 10:33:59.403721332,1744274039,401391863,piren,0.23078791511574914,-0.0374565759630339,-0.013137308180592156,-0.0010909516301410651,-0.0005016323586518865,0.002081396088212701
2025/04/10 10:33:59.555483185,1744274039,548181045,piren,0.23242481709538637,0.07182970665676423,0.039563451800729454,-0.004634347237730284,0.0010844024822171173,0.002129828950549355
2025/04/10 10:33:59.625626633,1744274039,623842880,piren,0.23630894382478349,0.1666335902317226,0.06074507666452193,-0.007130905728496324,0.0024244345375659293,0.002086596290035609
2025/04/10 10:33:59.701760807,1744274039,699387986,piren,0.24010602212730506,-0.006389957516882412,-0.0028793557894464597,-0.005612437353340933,0.0035087868736403314,0.0
2025/04/10 10:33:59.782215172,1744274039,777217767,piren,0.2350593439974163,-0.016850976093899878,-0.0020979885116191215,-0.0074153816001703374,0.004112983137288848,0.0016688256271076497
2025/04/10 10:33:59.860930075,1744274039,858860575,piren,0.24685808765963638,-0.11025499204244527,-0.04357481517139705,-0.0036235038088173045,0.0031709361890148737,0.0
2025/04/10 10:34:00.11801705,1744274040,8032638,piren,0.2529299155927147,-0.06835321954848961,-0.024966993935672144,-0.0008977526279664887,0.0008589603906626075,0.0008195941614269142
2025/04/10 10:34:00.157777475,1744274040,155104229,piren,0.25709910895544164,-0.0251649995364977,-0.005921732925605355,0.002223541965811225,-0.0015878158529989356,0.0014975597840341049
2025/04/10 10:34:00.305406642,1744274040,303101093,piren,0.26010122010062314,0.009655728244765759,0.008561475493812015,0.005683105235687739,-0.0035417591632793664,0.0006872666941622004
2025/04/10 10:34:00.455900005,1744274040,450915214,piren,0.25967558399686247,-0.10206760111580407,-0.046145831023562955,0.006277400122942681,-0.003539726755087077,0.0011541532501648097
2025/04/10 10:34:00.602228464,1744274040,598092101,piren,0.25793792515173924,0.02477056734456368,0.011099136027009245,0.002662834579998736,-0.002311121522835056,0.005265638750366616
2025/04/10 10:34:00.675921756,1744274040,674100891,piren,0.2560125981845507,-0.052199113820428675,-0.02419777946676543,0.0038467558675120994,-0.00021330031030829876,0.0013119798623212149
2025/04/10 10:34:00.751724990,1744274040,748778472,piren,0.2470741104340183,0.08600834265416886,0.037694726527187215,0.0008982072392050549,0.0013195462560860495,0.0
2025/04/10 10:34:00.827417953,1744274040,825080267,piren,0.25224451448234547,0.07072133454065274,0.03842475915463317,-0.00033660422120797257,0.002539125082495324,-0.00015332329956363496
2025/04/10 10:34:00.903293738,1744274040,901085788,piren,0.2551112427005884,0.16489731480663755,0.07096547203191823,-0.0026477945803257885,0.002958975321168097,0.0
2025/04/10 10:34:00.980900074,1744274040,977269482,piren,0.2593017919584383,0.10755448696685938,0.041509385010607594,-0.005394898614980265,0.0032452637200843354,1.8658424047911006e-05
2025/04/10 10:34:01.56436899,1744274041,54070408,piren,0.2655744275471975,-0.047836884915847075,-0.02234542245811794,-0.004749994104520719,0.002877953034546152,0.0
2025/04/10 10:34:01.208073684,1744274041,205728154,piren,0.2722431891132867,0.07289021239693026,0.02873733685667779,-0.005950972580604494,0.0009752422559913995,0.0005134693432937961
2025/04/10 10:34:01.388563643,1744274041,380783797,piren,0.27874235606366243,0.012211863878869564,0.007343386261890686,-0.0029635985386584187,-0.0007423053830865159,0.0008317991569902423
2025/04/10 10:34:01.463971246,1744274041,457601974,piren,0.28344600261418607,0.03187142208406258,0.015604538219328891,-0.0022217294156476925,-0.0018065876853639354,0.0
2025/04/10 10:34:01.607928132,1744274041,605892165,piren,0.2850283207740667,-0.056251175705631616,-0.023582682782772663,0.0024782254844991744,-0.0026528083585680624,0.005425059274728362
2025/04/10 10:34:01.757209707,1744274041,755142586,piren,0.28541653350217633,0.06777192211922667,0.02497962823691212,0.00410005366159169,-0.002129275868246706,0.0026452415869382077
2025/04/10 10:34:01.908396402,1744274041,905052774,piren,0.28424306913134256,-0.17812410821920358,-0.08670651688815821,0.0063354815713927495,-0.0006357511579502487,0.0009513156017387161
2025/04/10 10:34:02.56466719,1744274042,53854240,piren,0.28326346213803244,-0.006095363707844885,-0.0025431308757669366,0.0039029523091666297,0.0013791150665049166,0.0016959580897765868
2025/04/10 10:34:02.204884463,1744274042,202904852,piren,0.2829755189342188,0.08485441115868028,0.035824838253906706,-0.0008115104113962894,0.002667957409170715,0.010294012818625645
2025/04/10 10:34:02.355505300,1744274042,353508448,piren,0.28591054848230796,0.016515314670022915,0.010540893708785077,-0.0031810825899111373,0.0021936987623789447,0.0027410236373061046
2025/04/10 10:34:02.506578377,1744274042,504140002,piren,0.2887374041894532,-0.058661794262815856,-0.02422539006049762,-0.005013259297194238,0.0008197359641990448,0.007182719998683782
2025/04/10 10:34:02.655957479,1744274042,653663307,piren,0.29489634532925263,0.07996008719169448,0.03492995153266072,-0.004772927289318447,-0.0009800822737870362,0.0032069035776496452
2025/04/10 10:34:02.809583892,1744274042,804580240,piren,0.30012506797428967,0.0416480806028512,0.02433283638162789,-0.002988579864466838,-0.002017658864389649,0.008920936697603972
2025/04/10 10:34:02.883236644,1744274042,881251595,piren,0.3051840309288745,0.1209884945896965,0.04521101862223374,-0.003577923901987144,-0.002485220079288755,0.0020629225550464103
2025/04/10 10:34:02.959514529,1744274042,957473697,piren,0.3080018621578829,-0.05090349106207852,-0.0192849984386719,0.0008631857643749363,-0.0022232153728620487,0.0
2025/04/10 10:34:03.109436196,1744274043,106920473,piren,0.31056839662768093,-0.06608458169436061,-0.02748357119290953,0.003925560681326003,-0.0008957379078726186,0.0015239411266169689
2025/04/10 10:34:03.259253312,1744274043,256945080,piren,0.31088636772439693,0.052088549932662945,0.021044765801997725,0.003145364316164887,0.0009834828414652674,0.0027255122936052697
2025/04/10 10:34:03.410217215,1744274043,408129332,piren,0.30602704206124537,-0.08179607927210673,-0.03160173631317801,0.005063299083714321,0.001967270700417094,0.0014060636530064212
2025/04/10 10:34:03.561558294,1744274043,558462602,piren,0.30765920474654296,-0.06480962133011056,-0.02399393150652404,0.003867839039572132,0.0018462065732985486,0.002664458565980341
2025/04/10 10:34:03.712336062,1744274043,710047395,piren,0.3095469601694414,-0.003672850743683219,0.00380551801367312,-0.0012911450700821303,0.0007038329787626413,0.0015531104286185535
2025/04/10 10:34:03.863192102,1744274043,860517721,piren,0.313451143726953,-0.045636919259426104,-0.011429066831360118,-0.0060096053397765085,-0.0007076106229078925,0.0029606716872024852
2025/04/10 10:34:03.963807248,1744274043,959100736,piren,0.3170002966707278,-0.11287075249058715,-0.049964454469498425,-0.0036426836386653397,-0.0014689937367709782,0.014097699412156892
2025/04/10 10:34:04.113785054,1744274044,111318755,piren,0.32172959487763275,0.02602779175533305,0.014791180957125082,-0.005857654165580161,-0.0019350634941963272,0.0017027992494596492
2025/04/10 10:34:04.264775595,1744274044,262606480,piren,0.32998036709169665,0.10215876432364258,0.04535340358660424,-0.004168688387702023,-0.0016076689886231844,0.0024030726857310874
2025/04/10 10:34:04.414841168,1744274044,412661191,piren,0.3331995101756955,0.05986060369365315,0.0307936335866481,-0.0031038369323158565,-0.0004156992024812124,0.0017790189431569907
2025/04/10 10:34:04.566719245,1744274044,564257196,piren,0.332418034488337,0.049997835542209476,0.030315268979894568,0.0031051799928684984,0.0010645603901888437,0.002475855527037632
2025/04/10 10:34:04.719458500,1744274044,714825260,piren,0.3273652255002168,0.12325463347169388,0.0633790481717777,0.004811673018755922,0.0020992744657151534,0.0017727920374453158
2025/04/10 10:34:04.869668326,1744274044,867555891,piren,0.31946676083625175,0.17578681931234974,0.06178358207668834,0.004050177237818925,0.0016894243655614883,0.002690588911328919
2025/04/10 10:34:05.19659732,1744274045,17231712,piren,0.3093099979890779,-0.03549170597387099,-0.01926981595582297,0.004689454206549832,0.0008753402353293906,0.0020561397194522376
2025/04/10 10:34:05.170454844,1744274045,167466401,piren,0.2995997522431343,0.049692676751297765,0.01543214784908061,-0.0001691791376582064,-0.0005829939519495228,0.003282553548119257
2025/04/10 10:34:05.248473701,1744274045,245120773,piren,0.29494278499882753,-0.10071116349494605,-0.04837994448735958,0.00012072897782536015,-0.0009402261951654201,0.0
2025/04/10 10:34:05.324256062,1744274045,321999625,piren,0.29052442940147183,-0.030075478967766148,-0.012249983402528824,-0.002191754088434923,-0.0014493636285808308,0.0043526163319061026
2025/04/10 10:34:05.401151078,1744274045,398425068,piren,0.2873108629623684,-0.04829456966629944,-0.018839104885482315,-0.002344727104364749,-0.0016378327615888671,0.0
2025/04/10 10:34:05.479219428,1744274045,476704173,piren,0.28513441283212454,0.010757282695538896,0.00916444061012203,-0.003223152311528789,-0.0015443877693846065,0.004804840134988268
2025/04/10 10:34:05.556434638,1744274045,552819446,piren,0.28312198841418434,0.08526631720755926,0.03196200186519667,-0.005324286202097048,-0.0013937295856045356,0.0
2025/04/10 10:34:05.634619502,1744274045,630130807,piren,0.2813925106244662,-0.09401557315348202,-0.039913879888190826,-0.005249279951221854,-0.00092306083657081,0.004157741862948941
2025/04/10 10:34:05.711361097,1744274045,708184238,piren,0.27972845185099904,-0.06728775569538432,-0.024242678572639634,-0.004111785984743668,-0.0006812195331249939,0.0
2025/04/10 10:34:05.862676647,1744274045,859544974,piren,0.2782901294841112,-0.06994961363712933,-0.023959137813635345,-0.002950709787789083,0.0004926457428360182,0.011148614995891747
2025/04/10 10:34:06.13023955,1744274046,10828164,piren,0.2742320537284666,-0.04540638983540422,-0.01031013502393106,0.00021355470908301352,0.0008328786142458304,0.0025944683232634776
2025/04/10 10:34:06.166092831,1744274046,163099208,piren,0.26763653064183457,-0.11761178790055332,-0.03995448458820092,0.003013179278444155,0.0009382559839998484,0.00512819913311227
2025/04/10 10:34:06.316388703,1744274046,313979605,piren,0.25990057996552557,-0.13408467502121557,-0.0440111247064337,0.00455390213113884,0.0006965682603871283,0.002944998106876527
2025/04/10 10:34:06.419396401,1744274046,416676201,piren,0.2482120255446713,-0.17657168598924236,-0.07505344518973195,0.0044920565906923495,0.0003419565388144306,0.004990970928547532
2025/04/10 10:34:06.570739709,1744274046,568523873,piren,0.23576780603820308,-0.06964111366244391,-0.02870230292162379,0.0031864456912299756,-0.0006339470157316847,0.003892010659290568
2025/04/10 10:34:06.647444933,1744274046,645464493,piren,0.22974079188547364,0.016953777849549337,0.010316838382674097,0.00281282978467764,-0.0008346422546913688,0.0
2025/04/10 10:34:06.725872943,1744274046,723245594,piren,0.2236178517940239,0.12183145927980213,0.047085257867283764,-0.0010361856185480496,-0.0011172968215927045,0.005059082457216997
2025/04/10 10:34:06.803853595,1744274046,801335479,piren,0.21783822995468988,0.03204387273357996,0.01690432758734039,-0.001902285422810729,-0.0012936063715283817,0.0
2025/04/10 10:34:06.959480615,1744274046,954919843,piren,0.21249390909281218,0.16386535581089284,0.07003854839198852,-0.004904909597439619,-0.00014933337940624002,0.009996290737106337
2025/04/10 10:34:07.111105831,1744274047,107764527,piren,0.20645416400781763,0.1445540848926091,0.058966168179250204,-0.004562664927461548,0.00043135145155148827,0.0025443721689938597
2025/04/10 10:34:07.263748032,1744274047,260102849,piren,0.2024951925620819,0.059011462340641654,0.024559019819856732,-0.003699616986897421,0.001235301957702648,0.004895726356620777
2025/04/10 10:34:07.415778910,1744274047,413895774,piren,0.1993506302346265,-0.04721565531945979,-0.018331537715938224,-3.224137853959217e-05,0.0014815952698849656,0.002662376071277627
2025/04/10 10:34:07.569002335,1744274047,566091499,piren,0.19072583148218636,-0.04635112456435869,-0.017621475521339074,0.0015144036710501344,0.00082222432144829,0.0033897557800170912
2025/04/10 10:34:07.722698504,1744274047,719620420,piren,0.1864629719576503,-0.01446596304380511,-0.0032555014465232004,0.0029892279868924637,-0.00042936331653388064,0.0025460017119216284
2025/04/10 10:34:07.802224267,1744274047,799472361,piren,0.1764230478219838,-0.10364388485272977,-0.03840997706627809,0.004163353993315639,-0.0009395440177866421,0.0
2025/04/10 10:34:07.956991654,1744274047,953886755,piren,0.16483946123181695,-0.14409843877261067,-0.05229067518836053,0.0025554711319515206,-0.0014759829038023967,0.008795414204400807
2025/04/10 10:34:08.113977994,1744274048,111714413,piren,0.15419431340721101,-0.17435543178546678,-0.06466703917264251,-7.387484099038058e-05,-0.0011861412075104356,0.002266549653879644
2025/04/10 10:34:08.267924754,1744274048,266000816,piren,0.1466271627589518,-0.1669083906961941,-0.0762703156443457,-0.0013316262348280759,-0.0007537999005041328,0.0032659400064846906
2025/04/10 10:34:08.422151954,1744274048,419995273,piren,0.14107500623632124,-0.015500421421831941,-0.0062754207326318045,-0.0041930831859467695,0.00040420362554362754,0.0023176747974893476
2025/04/10 10:34:08.576749019,1744274048,574029771,piren,0.13767640924810726,0.007070285106415771,0.00446710078795025,-0.0030124492370522857,0.0011296443266311984,0.0030813265527380607
2025/04/10 10:34:08.655465111,1744274048,652566848,piren,0.1366593216487295,0.17018182165231438,0.06974874059333978,-0.003483422976954361,0.0015982164063069718,0.0
2025/04/10 10:34:08.809733160,1744274048,807726784,piren,0.13439190217626687,0.15095958058611725,0.05392359008066466,-0.002674433291738751,0.001488716161214741,0.0020919134023410983
2025/04/10 10:34:08.966145851,1744274048,963368592,piren,0.1316739846611199,0.015544700743738406,0.0031584915444405988,0.0011897845335165952,0.0007437404360216888,0.0028298149140570574
2025/04/10 10:34:09.68067707,1744274049,65896034,piren,0.12737536719484674,-0.08048220785295375,-0.04481788183944154,0.003113902063866068,0.0003978955555550015,0.0
2025/04/10 10:34:09.226565158,1744274049,223831160,piren,0.12119852455110541,0.09911229576038913,0.03431781008758527,0.0038503316397524943,-0.00043284145960810727,0.0018748278108386347
2025/04/10 10:34:09.306385536,1744274049,302846675,piren,0.11711987623008849,0.07644273590363329,0.025103711676712208,0.004014466663121712,-0.00104299908379378,0.0
2025/04/10 10:34:09.386286397,1744274049,382773341,piren,0.11687252819387063,-0.029136775157984615,-0.015133110380638066,0.004573532641052117,-0.0017201974412539465,0.0036834729446838885
2025/04/10 10:34:09.465004311,1744274049,461421326,piren,0.1113023226671329,0.0028998124341117963,0.0015547972436201752,0.0029595064983025995,-0.0014542682597927996,0.0
2025/04/10 10:34:09.620005456,1744274049,617667451,piren,0.10542567960449341,0.15305924681874458,0.05162076101202664,-0.000447423884946861,-0.0006370086122592392,0.0017451161752155104
2025/04/10 10:34:09.699888985,1744274049,696832134,piren,0.10226089361981264,0.010667616590427783,0.0020522680162036976,0.0009548767497779914,-0.00034275597023989925,0.0
2025/04/10 10:34:09.779287945,1744274049,776113700,piren,0.10006192655431698,0.13158280234417088,0.042959524428973536,-0.002628256325674927,0.00033493084020321873,0.0032742697248429008
2025/04/10 10:34:09.858283383,1744274049,854254656,piren,0.0986969125079315,-0.019648093952977008,-0.013405102984298279,-0.0030852232439236263,0.0011091831204553908,0.0
2025/04/10 10:34:10.14028408,1744274050,11451906,piren,0.0993316462265707,0.11372422481031402,0.04356643533557065,-0.004325232862320114,0.0016829314578097904,0.0014357114339968253
2025/04/10 10:34:10.171280934,1744274050,166545936,piren,0.10044492382436711,0.0735965697344156,0.02599961180100311,-0.004331701537193424,0.0011379420351161405,0.0018564586274421816
2025/04/10 10:34:10.327953927,1744274050,325006115,piren,0.10495109526540092,-0.06965604082583615,-0.030622993437624497,-0.0012716305904046862,0.000201828486710224,0.0014598409157447108
2025/04/10 10:34:10.407504749,1744274050,404282667,piren,0.10425645406845323,-0.048596976251184185,-0.019036198944685282,0.0004341446995030985,-0.00034960830256615605,0.0
2025/04/10 10:34:10.561536715,1744274050,559532226,piren,0.10151938453203099,-0.028306088791718094,-0.008629623009206649,0.003915321332632091,-0.0012042492769959172,0.0048143409022385775
2025/04/10 10:34:10.718684764,1744274050,716746592,piren,0.0976824957652289,-0.026917840776383945,-0.009563263756244037,0.004200941938699684,-0.0014383138650643373,0.0010907432475596402
2025/04/10 10:34:10.873526330,1744274050,871772538,piren,0.09309080858331097,0.10992459120799514,0.03785082905644975,0.0028383319985680012,-0.0012985473603152901,0.0015872454991648322
2025/04/10 10:34:10.954398791,1744274050,951182241,piren,0.08914452621674186,-0.039058219992786164,-0.01940215997696997,0.002456585426396907,-0.000927019605994169,0.0
2025/04/10 10:34:11.33871214,1744274051,30967675,piren,0.08590154020041586,-0.013096272526839774,-0.005666849486060493,0.002524710343595375,-5.29726639137519e-05,0.0021481847080068277
2025/04/10 10:34:11.115326059,1744274051,112747315,piren,0.08363488993486427,-0.014677263005129282,-0.004993704813790835,-0.0005953208014660894,0.0009899076044857002,0.002009927868014097
2025/04/10 10:34:11.270950051,1744274051,268969503,piren,0.08291201635209679,0.006117576747203932,0.004281131011271125,-0.001979509030892378,0.0018128935647915454,0.0014346010851069423
2025/04/10 10:34:11.430821669,1744274051,427935017,piren,0.0857969404771901,0.008867714553563076,0.005170101747095969,-0.0038110849939799736,0.001686508010715903,0.0009573911731945707
2025/04/10 10:34:11.511188646,1744274051,508701522,piren,0.08897288236416973,0.01371397892053375,0.006680678019948735,-0.004000302022510931,0.0011088328005223074,0.0016714661573772386
2025/04/10 10:34:11.616482094,1744274051,614024796,piren,0.09181510907884675,0.016292558173772856,0.008151759510875172,-0.0012217009536096184,0.0002907919867640982,0.001587327162249511
2025/04/10 10:34:11.773160995,1744274051,770279170,piren,0.09419661171753396,0.10723353620988481,0.042583279398163705,-0.002050784095747002,-0.0008963613552066742,0.0011040089212714052
2025/04/10 10:34:11.852285295,1744274051,850062522,piren,0.09556200763379864,0.07133693500523647,0.027253603517015675,0.0009185315454035911,-0.0014607954407400603,0.0
2025/04/10 10:34:12.9442780,1744274052,7181298,piren,0.09512946354546592,0.014896223528708431,0.006203026897712348,0.0033617316265854903,-0.0015069676880744563,0.006894876588272624
2025/04/10 10:34:12.169058456,1744274052,165122519,piren,0.09306441039901361,0.10107276260937074,0.038996884652415076,0.003014930112549761,-0.0007663657602222135,0.0023620462558458515
2025/04/10 10:34:12.326452548,1744274052,324182054,piren,0.09004148463940057,0.04472639232624902,0.014168638639661942,0.0027357098857472453,-0.0001837924985218983,0.0005489192415566186
2025/04/10 10:34:12.409059789,1744274052,406601315,piren,0.08783927073691136,-0.10957660679477439,-0.057364045197513015,0.00351638667176804,0.0007251299949164117,0.0
2025/04/10 10:34:12.567753678,1744274052,564528034,piren,0.0861951928876251,0.017174972814624496,0.002396419464977092,-0.00019176715534582704,0.0015597897697622767,0.002850328594109554
2025/04/10 10:34:12.647002497,1744274052,644954250,piren,0.08734956636327076,-0.0010733709961576639,-0.0024704617764847465,0.0005603030141387106,0.0015454051705081659,0.007459180792813941
2025/04/10 10:34:12.728173806,1744274052,725092000,piren,0.0891321598324064,0.09033796473586188,0.02789520525113915,-0.0022421452187467994,0.001511677053812152,0.001489239329814888
2025/04/10 10:34:12.809105779,1744274052,806740476,piren,0.09210025363995054,-0.08263197326170253,-0.03958416298178548,-0.0028184906636231992,0.0009945028828307223,0.001243591794098292
2025/04/10 10:34:12.965104802,1744274052,962810887,piren,0.09510867369211361,-0.07021798615682617,-0.033511842756315524,-0.0022804770290949464,-6.66607502113831e-05,0.0008915968409467133
2025/04/10 10:34:13.125596809,1744274053,123643479,piren,0.09962403256871669,0.007639531830118399,0.0032999799493036255,-0.0037539485690376794,-0.001288785940148315,0.0006350353255812468
2025/04/10 10:34:13.207645407,1744274053,205180061,piren,0.10277431534552689,0.006908019955747817,0.005295431021502207,-0.0010548770595090826,-0.0017274656619780827,0.0
2025/04/10 10:34:13.365753368,1744274053,363838129,piren,0.10451257386306419,0.03252456004861327,0.017698169107337167,0.0008554903800980071,-0.0014323815459628185,0.002691568589420864
2025/04/10 10:34:13.531036392,1744274053,525638922,piren,0.10412689521238923,0.053406432930122025,0.025072609302726,0.0018166606353238132,-0.0004212275358599028,0.0007420324111904816
2025/04/10 10:34:13.609492590,1744274053,607358188,piren,0.10509140088433863,1.8414160918482983e-06,0.0037966710865039747,0.0036041732825495753,0.0003647093741647744,0.0
2025/04/10 10:34:13.769730834,1744274053,765760771,piren,0.10441034782397043,0.10210253520737558,0.03405360989457239,0.003913669113901344,0.001363314797133358,0.0028075245722582946
2025/04/10 10:34:13.850781780,1744274053,847773069,piren,0.10404184928519727,-0.08097220221153371,-0.04299002317342551,0.005449604189109143,0.0014961725519415652,0.008398951668891982
2025/04/10 10:34:13.930702598,1744274053,928455713,piren,0.10387660386950553,0.02008554616841125,0.00595089643999493,0.0019060841396114341,0.0015243431855993961,0.0016621066490274277
2025/04/10 10:34:14.11411078,1744274054,9203298,piren,0.10458686424807806,0.12189897780293836,0.03800499661657528,-0.0008515509387718177,0.0013632495514135118,0.0017421657907571444
2025/04/10 10:34:14.117134838,1744274054,114597086,piren,0.1050463299599887,-0.04553977656055099,-0.02720131815706822,2.1104794375100245e-05,0.0010632356444232622,0.0017719541925109753
2025/04/10 10:34:14.275968308,1744274054,273384115,piren,0.10755851262920196,0.060866449363907595,0.017282739353650517,-0.0037169057565032107,-0.00011482334731163263,0.001377101694942138
2025/04/10 10:34:14.357166989,1744274054,355076263,piren,0.11100031899379255,-0.09130616804465039,-0.04236594241639004,-0.0027606878433007382,-0.0010665995357567154,0.0
2025/04/10 10:34:14.517933555,1744274054,515875634,piren,0.11466807798001633,-0.05828166517910251,-0.026417472803495753,-0.002494868176554919,-0.0017880355017741239,0.0011294743978764177
2025/04/10 10:34:14.679155491,1744274054,676938371,piren,0.11797017005706564,0.04508047850678262,0.024265359506651363,-0.0013991334944353773,-0.0016846705592720047,0.0018456822870125946
2025/04/10 10:34:14.760811250,1744274054,758545551,piren,0.12143121932214786,0.13258126696210862,0.0468654390909813,-0.0006890106674701285,-0.0008861339863088586,0.0
2025/04/10 10:34:14.921739293,1744274054,919250914,piren,0.12070197514317144,-0.062253045111041724,-0.025828073867925367,0.0014016537563005952,0.0004366074804267085,0.0014278677931025402
2025/04/10 10:34:15.3074974,1744274055,963164,piren,0.12369119032715695,-0.06143822771528409,-0.02163867691375243,0.00268106643106301,0.001237440753379297,0.0
2025/04/10 10:34:15.163158417,1744274055,160552648,piren,0.12446858621846392,-0.05756822027752048,-0.014268112929986781,0.002726228759401608,0.0016096707954286827,0.00513449972577554
2025/04/10 10:34:15.323020467,1744274055,319799913,piren,0.12515990121636336,-0.15654894985203827,-0.06270113157108173,0.0029448674803433067,0.0010843070745791517,0.0016177080488643718
2025/04/10 10:34:15.405203915,1744274055,401767691,piren,0.126563482512918,-0.10728822453763319,-0.040594741900956466,0.0027822647446171123,0.0009923764504747533,0.0
2025/04/10 10:34:15.485907551,1744274055,483581445,piren,0.1244311526883927,-0.07041019132335341,-0.026049092798194562,0.0006236899495244668,0.0003750265130785063,0.0032392800044441926
2025/04/10 10:34:15.569166752,1744274055,566212732,piren,0.12742104182853745,-0.0034224469461282894,0.00327557364034751,-0.00043340161288219615,-0.0007044800286074149,0.0
2025/04/10 10:34:15.734532641,1744274055,728952609,piren,0.1300565243158644,-0.026737077873612153,-0.007004436855476638,-0.0028219411580644384,-0.001755175190513318,0.001698995014656925
2025/04/10 10:34:15.814878214,1744274055,812587215,piren,0.13373565459708903,0.0034323754206031284,0.005510040694141735,-0.0033959167159784832,-0.0016234768046880736,0.0037562315361342143
2025/04/10 10:34:15.973910721,1744274055,971671949,piren,0.13753413503006628,-0.0970665086763921,-0.047996114962033404,-0.0033218958085032345,-0.0011031614807132737,0.0025147640459687115
2025/04/10 10:34:16.55916406,1744274056,53798596,piren,0.14143071914199803,0.07801459208766418,0.030188174404903796,-0.0030369819059840515,-0.0004078599545061704,0.0
2025/04/10 10:34:16.241733132,1744274056,239225897,piren,0.14350909737067902,0.06381382586445307,0.03098970845878472,0.00043829434385271376,0.0006209032602313686,0.0019625636393645466
2025/04/10 10:34:16.324479761,1744274056,322400109,piren,0.145856298596261,0.13815878237425905,0.0597603215007837,0.0012466636127294176,0.001273151729422586,0.0037723448457739357
2025/04/10 10:34:16.408409402,1744274056,404504259,piren,0.1469273230086253,0.10889671643598725,0.054735005879570746,0.002887792433745249,0.0019025971164173382,0.0
2025/04/10 10:34:16.570671131,1744274056,567175534,piren,0.14698529072732358,0.18483464675375091,0.0759872328388396,0.0027210346849541505,0.0013784391235107918,0.007777192107353359
2025/04/10 10:34:16.654821488,1744274056,650602453,piren,0.1470635134153455,0.07808254939441299,0.03988940498839566,0.003245524070524733,0.0010138519301641576,0.02364422435602331
2025/04/10 10:34:16.815148911,1744274056,812605838,piren,0.14680267806811595,0.11654486351022966,0.054610447542199195,0.004247315507047609,0.00020122248779317053,0.002560697647378231
2025/04/10 10:34:16.975543344,1744274056,973274770,piren,0.14788750221521327,0.10879793270324885,0.03724252974047456,-6.361510021330916e-05,-0.0006941243176952911,0.0038382610341087305
2025/04/10 10:34:17.62876745,1744274057,55410065,piren,0.14813704465367644,-0.11347149286781916,-0.050840594291117695,0.00011226168558216205,-0.0010503101305796422,0.0
2025/04/10 10:34:17.218481920,1744274057,215971267,piren,0.1489954667544624,-0.10886851602754723,-0.038657180063704784,-0.003530702549678309,-0.0011091243838204689,0.003078782605286054
2025/04/10 10:34:17.378838885,1744274057,376396978,piren,0.15144434504600898,-0.18392773015745834,-0.07226887737417159,-0.0034093621748586544,-0.0005728695167333604,0.0044599356059880635
2025/04/10 10:34:17.460444737,1744274057,458021013,piren,0.15635998324170874,-0.15684382237610775,-0.0618457539972227,-0.0019474928697222748,-0.0005251700258077468,0.0
2025/04/10 10:34:17.622238103,1744274057,619231818,piren,0.16046937212303203,-0.09250991462293306,-0.02936549980218083,-0.002280692128576846,-0.00031239646124305254,0.0037560406889374943
2025/04/10 10:34:17.705437978,1744274057,700985824,piren,0.1643439894575201,-0.10510564262868921,-0.0357443717321874,0.000571637040266038,0.00033223447269154486,0.0
2025/04/10 10:34:17.866667842,1744274057,864299659,piren,0.16639341809557537,-0.07888500513494662,-0.0259589061774195,0.000841632162377124,0.00044727977555962593,0.013050356520474123
2025/04/10 10:34:18.29655520,1744274058,26661685,piren,0.16702656442518893,-0.0340825845045706,-0.007757964448785908,0.001586236196612115,0.0002483786157135765,0.003759332535707182
2025/04/10 10:34:18.111850556,1744274058,108541655,piren,0.1685829182662745,0.0037027171962001008,0.007716730797211193,0.0030019062469310233,0.0005036487132997619,0.0
2025/04/10 10:34:18.272438293,1744274058,270163198,piren,0.1675744761555295,0.055313999604341746,0.027345628229733746,0.003413759821977596,0.00011159350921713463,0.01387374390356833
2025/04/10 10:34:18.356435067,1744274058,352353714,piren,0.1691330639333454,0.026830327906758506,0.017673870960130504,0.0020947478303628433,-0.00014242119503806667,0.03725508245079707
2025/04/10 10:34:18.461240407,1744274058,459219952,piren,0.17155880236816948,0.1358410725940035,0.05137838849181613,0.0001267298025999817,-0.00032632508569449146,0.007746934834378075
2025/04/10 10:34:18.623001314,1744274058,620308187,piren,0.173992157118377,0.004600139727036897,0.0019179523745395562,-0.0021804118121483357,-0.0003770755448726376,0.003916448266722292
2025/04/10 10:34:18.705666501,1744274058,703053984,piren,0.1734308146277249,-0.11494726176194167,-0.05784710098237372,-0.0014317076427753624,-0.0001865534990027829,0.0
2025/04/10 10:34:18.866691986,1744274058,864844983,piren,0.17281336531553698,0.033821312832890554,0.012296330624357196,-0.003151260863410398,8.121676869161136e-06,0.014708192998457065
2025/04/10 10:34:19.31257505,1744274059,29076968,piren,0.17453288190535374,0.021353521465616927,0.011011401570818112,-0.0017106064305325915,-2.0822554276786956e-05,0.00425742996278722
2025/04/10 10:34:19.117210383,1744274059,113069642,piren,0.1788382322308603,0.0009470789880178191,0.005206087694481431,-0.0011144474004017488,0.0001398290073176789,0.0
2025/04/10 10:34:19.201098841,1744274059,197965306,piren,0.18107945997055802,-0.008378060564584,0.0028601053047393973,-0.0003734837229770774,0.00022230551099695653,0.015432868942890492
2025/04/10 10:34:19.286581263,1744274059,281478352,piren,0.18153493092837997,0.009759347156280969,0.011974312437792393,0.002017085142126738,0.000292199582481059,0.0
2025/04/10 10:34:19.371219968,1744274059,366529534,piren,0.18160821907852198,0.09230597909079542,0.043260398961513416,0.0013759715158402283,0.00038057588899415555,0.009009572675045015
2025/04/10 10:34:19.454330687,1744274059,450400402,piren,0.18031442208728404,0.047175681458968693,0.025584714757973324,0.0017780983306849778,0.00046949292482396796,0.0
2025/04/10 10:34:19.535836094,1744274059,533550538,piren,0.1803376259446785,0.013260636204276106,0.011734586374830696,0.0016340622835158574,0.0002902490241964612,0.008373075185709622
2025/04/10 10:34:19.620129544,1744274059,617230596,piren,0.17971325368545374,-0.030559251047973947,-0.0067078150421416545,0.0027497701774310385,-0.0003064026524239022,0.00842634595093955
2025/04/10 10:34:19.781554452,1744274059,778949539,piren,0.17856099218019744,-0.019745598108711994,-0.0006947807107840002,0.0012860771286611011,-5.9516768838710156e-05,0.006766422990946652
2025/04/10 10:34:19.865221263,1744274059,862929733,piren,0.18014700229012623,-0.1384648483344604,-0.055996916324496854,0.0007685963145602231,-0.0002843272553664168,0.0
2025/04/10 10:34:20.30152986,1744274060,27648775,piren,0.18104711834355403,-0.0885496184864447,-0.029007432352944857,-0.0016861470624565068,-0.0004657055466079883,0.004882394648576302
2025/04/10 10:34:20.114017559,1744274060,110769333,piren,0.18244447180265397,-0.12792680129158146,-0.058864026751472426,-5.966098549698745e-05,-0.0005522233729035678,0.009115774522626874
2025/04/10 10:34:20.277719376,1744274060,275597663,piren,0.18558181613319563,0.03612651677366845,0.016698706012393972,-0.0024524380292140955,-0.00048300118176862684,0.007069580341983672
2025/04/10 10:34:20.364961292,1744274060,359076490,piren,0.18981513863868685,0.03884524791250083,0.020164248695561122,-0.00316378291955832,-7.74626710692866e-05,0.0
2025/04/10 10:34:20.525423993,1744274060,523009433,piren,0.18738764195437366,0.04385671966094293,0.023217302989830258,-0.0013438584328199286,7.861685076177712e-05,0.0050515952430568115
2025/04/10 10:34:20.611524098,1744274060,606272717,piren,0.18969561936372784,0.012351413186731813,0.012103446713750519,-0.00045010580622883376,0.0004528391822508103,0.0
2025/04/10 10:34:20.717814978,1744274060,714737232,piren,0.1912434726048842,0.08777973319811211,0.042274070798502594,-0.0006597274360359462,0.0007848058440466483,0.018314530047629746
2025/04/10 10:34:20.880390982,1744274060,878142977,piren,0.19297607021413893,0.05950296762951933,0.027569619265539094,0.0009621868681623319,0.0009203271081541941,0.007645413936525992
2025/04/10 10:34:20.966356876,1744274060,962861829,piren,0.1953797689580077,-0.05980569910640321,-0.020115669340994683,0.0024882719247858536,0.0008151628026671271,0.0
2025/04/10 10:34:21.130932823,1744274061,128604563,piren,0.1942055747769718,-0.0705652080821123,-0.02891181056829518,0.002244410565424831,0.00020946350676277103,0.006132336600764503
2025/04/10 10:34:21.215488906,1744274061,213270205,piren,0.19351248462373585,0.041522238135208556,0.019770319746378474,0.0024340167703169693,-0.0003963923986078499,0.010265665347284597
2025/04/10 10:34:21.381522840,1744274061,378048832,piren,0.19324911788970472,-0.003091852246972296,0.003391217621315208,0.0008699616763771636,-0.0011162896319677085,0.008078954670265648
2025/04/10 10:34:21.464642961,1744274061,461767529,piren,0.19413702014991333,-0.013528475429707157,0.00030434264609364623,0.0004274420480623287,-0.0010478065634557385,0.0
2025/04/10 10:34:21.628401819,1744274061,625923039,piren,0.19215064713182184,-0.028841517119633817,-0.005434654027935852,-0.0023020357112502545,-0.0006259391768388163,0.006088837949974805
2025/04/10 10:34:21.712141265,1744274061,710040037,piren,0.1925630511422376,-0.02748647740733634,-0.004268247991362715,-0.001285441402717863,-0.00021683013404704391,0.0
2025/04/10 10:34:21.878025087,1744274061,874542931,piren,0.19533632631504866,-0.03743231015350146,-0.008586372023399886,-0.0032833490864207877,0.0004486133187512942,0.023003042466153454
2025/04/10 10:34:21.960888548,1744274061,958567136,piren,0.19979377844123353,-0.016473082954939704,0.0006383410149609101,-0.0017312993509232858,0.0007341264808548016,0.05980291509882811
2025/04/10 10:34:22.127445108,1744274062,123822855,piren,0.20110052866453046,-0.02385454858376596,-0.004322804102391628,-0.0003741478284121528,0.0008145151750748285,0.006536639559780111
2025/04/10 10:34:22.211438812,1744274062,209327321,piren,0.20752839601859663,0.10215407660239766,0.03775639590069811,0.00021544470170641223,0.0007518669332531576,0.0
2025/04/10 10:34:22.378172724,1744274062,375927196,piren,0.20374055492318796,-0.06720630477270124,-0.03217490620602301,0.002570572995161036,0.0002391990991039491,0.024450627131713233
2025/04/10 10:34:22.463135532,1744274062,460900513,piren,0.20283144617114196,0.0246732266429055,0.009433915401752684,0.0014402520691342608,-2.4844477395554645e-05,0.06618765338986263
2025/04/10 10:34:22.629450265,1744274062,626947618,piren,0.19940011000303906,-0.11337343566530717,-0.03922855972029505,0.001344880954666103,-0.000502586382883823,0.007582121458466402
2025/04/10 10:34:22.715046992,1744274062,711697224,piren,0.20472813389252922,-0.18738249789721587,-0.07811100107821488,0.0015923334447480958,-0.0007122686684623692,0.012853839222311439
2025/04/10 10:34:22.903826436,1744274062,901459196,piren,0.19989551714101025,-0.10171147818464565,-0.03669408752331425,0.00011259967044572304,-0.0009615425035755236,0.009941542747707569
2025/04/10 10:34:23.69352029,1744274063,66686930,piren,0.20073595074933653,-0.03784027766354692,-0.007824085434521483,-0.0005132596427547262,-0.0007729867803326603,0.010140672879901768
2025/04/10 10:34:23.154619955,1744274063,151489082,piren,0.20134025609278655,0.05911023945141338,0.03101724442949206,-0.0027010802588319626,-0.0005577556456289484,0.0
2025/04/10 10:34:23.242192843,1744274063,235670720,piren,0.20122857014880324,-0.04283929723523733,-0.012957815246187108,-0.002028746183083814,-6.594243895412855e-05,0.01310223022559037
2025/04/10 10:34:23.322383205,1744274063,320301892,piren,0.20021524553487113,0.11862746100703872,0.055387157957839696,-0.0023340439634767776,0.0004913918882839809,0.013419182619938949
2025/04/10 10:34:23.408460050,1744274063,406341107,piren,0.2020190334846412,0.09521529888317612,0.04839464256601082,-0.002039847135460219,0.0009244008152891378,0.0
2025/04/10 10:34:23.575263517,1744274063,572801762,piren,0.20261311027878612,0.06722244345278618,0.03813272293432269,-0.0008850430087768197,0.0013703843084563023,0.027333725017817487
2025/04/10 10:34:23.659720395,1744274063,657084875,piren,0.20509240046364896,0.0409226405013495,0.02790299423184737,6.543906047280117e-05,0.0012880149247630616,0.07405081943015913
2025/04/10 10:34:23.825212845,1744274063,822943528,piren,0.2037670817479071,0.01697397334431435,0.017782417901138593,0.0013295625307443422,0.0007082016178806877,0.007444223106484397
2025/04/10 10:34:23.912319138,1744274063,907543191,piren,0.20907933786253124,-0.00045440994913811816,0.009906774764739532,0.0018629000604627975,9.73996038754387e-05,0.0
2025/04/10 10:34:24.75750812,1744274064,73265461,piren,0.20365244542125172,-0.012467049118787831,0.003842683407817314,0.0020416245197535854,-0.0008371113496944918,0.02751814328597463
2025/04/10 10:34:24.161527012,1744274064,157454853,piren,0.2021547192428528,-0.021962659708219423,0.00016870971691538354,0.001689972332540182,-0.0015469339595203782,0.078189501915568
2025/04/10 10:34:24.328401399,1744274064,324880124,piren,0.20243383804634793,-0.02799297465162819,-0.0028778891223018702,0.000660550485934886,-0.0016447346562141942,0.008136844666321415
2025/04/10 10:34:24.413205700,1744274064,410033419,piren,0.20512957782542887,-0.03168423046199556,-0.004647639383858494,-0.00020384474250234393,-0.001073647141441736,0.0
2025/04/10 10:34:24.583685396,1744274064,579787171,piren,0.2006833296373236,-0.032165198777321866,-0.005322198662358667,-0.0014978130314297752,0.00011537801946321516,0.035500247068527654
2025/04/10 10:34:24.669796390,1744274064,666943712,piren,0.20154609715771313,-0.03111135379412997,-0.004954394576880571,-0.002016307116423338,0.0008507367041258927,0.016674521352494646
2025/04/10 10:34:24.756016132,1744274064,753350995,piren,0.2034507032184952,-0.02766448498869847,-0.0038786614306006583,-0.0022204318464839772,0.0014333688570688295,0.0
2025/04/10 10:34:24.925638305,1744274064,922931162,piren,0.20015561934494178,-0.02414306874967839,-0.0031430903557887586,-0.0017479937586886956,0.0015947918868078645,0.008598045151311831
2025/04/10 10:34:25.10867810,1744274065,8544432,piren,0.2012692465040964,-0.021716222134677766,-0.002417036218396413,-0.0011217298673978937,0.0012231943000470952,0.019028105652495693
2025/04/10 10:34:25.122920256,1744274065,118186948,piren,0.20305473540318503,-0.018283488287497502,-0.0023217688421352696,0.0002934420528102546,0.0005517660280686946,0.01609066093004307
2025/04/10 10:34:25.207594934,1744274065,202676801,piren,0.20453295015511078,0.09780562803367286,0.04325757698551453,0.0006344636435612297,-0.00020844501204438293,0.0
2025/04/10 10:34:25.375320894,1744274065,369797162,piren,0.2029675080758339,0.043831694171669405,0.022793093428954518,0.0022262205052152916,-0.001107989499850475,0.03255929662141661
2025/04/10 10:34:25.457807265,1744274065,455194849,piren,0.20372950787716962,-0.0033946201222652995,0.005262804261970025,0.001910638967572129,-0.0012584438353196513,0.08945807386333016
2025/04/10 10:34:25.627246349,1744274065,624989263,piren,0.2001283164128468,-0.004690944349961132,0.006378184769937239,0.001157726208625612,-0.001467407298289449,0.009120123793765453
2025/04/10 10:34:25.714579349,1744274065,712526617,piren,0.20492874655587048,-0.1382852713561507,-0.061386991316038184,0.0025828732852079296,-0.0008490313803895485,0.0
2025/04/10 10:34:25.885916516,1744274065,879920811,piren,0.19990703479304292,-0.0011057276342058935,0.0038796892911382433,0.0003585978919210021,0.00026421000859634994,0.034641162645053826
2025/04/10 10:34:25.969621430,1744274065,966926055,piren,0.1998889542176009,-0.021335328943626865,-0.001563687916544075,-0.0020771030129241377,0.0007713154260891573,0.019101240066651922
2025/04/10 10:34:26.138204892,1744274066,135435621,piren,0.20258896511611454,-0.014169979767124027,0.002877643423400599,-0.0011551436468574929,0.0012216615765146947,0.009631113838196868
2025/04/10 10:34:26.224739328,1744274066,221936285,piren,0.20263729414654075,0.03795913203893572,0.0276859299402011,-0.0018756961776448047,0.0012080440067099433,0.017521648521261358
2025/04/10 10:34:26.311531418,1744274066,308301776,piren,0.2021567261150809,0.11106847478870685,0.052995891732417484,-0.002027496975071772,0.0009957792340884897,0.0
2025/04/10 10:34:26.479056626,1744274066,476246423,piren,0.20081727919026113,0.03399159868957231,0.025342953536081528,0.0006614332671810537,0.00027580117405133633,0.035263323036012706
2025/04/10 10:34:26.566907632,1744274066,562714374,piren,0.2026813064035273,0.08074236565603157,0.03616568697457875,-0.0018054283793844982,-0.00017643286936900538,0.09381115262429755
2025/04/10 10:34:26.734626701,1744274066,732410368,piren,0.19824296854319315,-0.10087097831801597,-0.03986637886725339,0.0017988076534438912,-0.0008128452442194425,0.009730067244707168
2025/04/10 10:34:26.823337993,1744274066,818912753,piren,0.2047443372465887,-0.03982366328283644,-0.009320712320921182,0.0021358644506208366,-0.0009218995297705911,0.017765547257483676
2025/04/10 10:34:26.908287861,1744274066,905232825,piren,0.201127871315067,-0.07625305682967694,-0.022161779732743973,0.0021682733715096517,-0.0010052681474055946,0.0
2025/04/10 10:34:27.76605773,1744274067,73431625,piren,0.19500647795862483,-0.09712223726041705,-0.024247800929234148,0.0008359421176176795,-0.0007349227382211943,0.03551933908284049
2025/04/10 10:34:27.162740754,1744274067,159995236,piren,0.1956367920568552,-0.15743173050142742,-0.05460643039034754,0.0018798071604553812,-0.0004170318166200951,0.01952385075397834
2025/04/10 10:34:27.332643257,1744274067,329585742,piren,0.1973118716478841,-0.1058105621515461,-0.0392161360042836,0.0005796021433242626,0.0001724625423084113,0.009664820556554864
2025/04/10 10:34:27.446625963,1744274067,443790689,piren,0.19626920781645316,0.03561570033608022,0.021567944771282495,-0.0007275176162603711,0.0004548848667740344,0.017696090629715
2025/04/10 10:34:27.535849373,1744274067,533400149,piren,0.1948276337439655,-0.0618391394952585,-0.022180032095361627,-0.0013727916612709219,0.0005531845453016717,0.01784975541939659
2025/04/10 10:34:27.628339116,1744274067,621446453,piren,0.1948652419685236,0.07366754698147562,0.030669554710362663,-0.0020095337767620115,0.000525128765289763,0.01754760225818322
