time,header_stamp_secs,header_stamp_nsecs,header_frame_id,twist_linear_x,twist_linear_y,twist_linear_z,twist_angular_x,twist_angular_y,twist_angular_z
2025/04/10 10:33:49.480965067,1744274029,478712142,piren,0.00046415803835764605,-0.04425711973526601,-0.01901736544607057,0.0006871925702000816,-0.000673560440409473,0.0
2025/04/10 10:33:49.551973145,1744274029,549615847,piren,0.0005118041422974151,-0.005783682795208432,-0.0011591955073386659,0.0008103886690685734,-0.000641278437155696,0.000183110116495456
2025/04/10 10:33:49.625598219,1744274029,621286222,piren,0.0006037564242432657,0.0175682726618564,0.009654834684693909,-0.0006316629600564788,-0.00045265896580266385,2.1780469161618323e-05
2025/04/10 10:33:49.765748474,1744274029,763410642,piren,0.0005083597841348186,0.04998608279247521,0.023573646063730365,0.000668488468580265,3.437636740629877e-05,2.217618559189391e-05
2025/04/10 10:33:49.906676487,1744274029,904473356,piren,0.00016035623357304795,0.0471241103765354,0.022207247394890047,-0.0006637482461033664,0.000586337661847795,1.761628271142025e-05
2025/04/10 10:33:50.47950982,1744274030,44555333,piren,6.0593751004426325e-05,0.059437825161831215,0.02689996438932259,-0.0009497395844749373,0.0008330955782307761,3.302300138301407e-05
2025/04/10 10:33:50.119522178,1744274030,116914024,piren,0.0004226681821818878,-0.05205625266589746,-0.02370580454877586,0.0007528543535673131,0.0008732714828078974,3.758333301346527e-05
2025/04/10 10:33:50.257919313,1744274030,255651078,piren,0.00023866653309590255,-0.02172518483157515,-0.010107418354987801,-0.0008086022923518577,0.0005687125489969272,4.6626848327049535e-05
2025/04/10 10:33:50.401807803,1744274030,399342366,piren,0.0003145996874990764,0.019898653412838335,0.007879746841427787,0.0006261946535165909,9.592142174270561e-05,0.00028372516077333483
2025/04/10 10:33:50.473113216,1744274030,470933572,piren,0.0005347860406345083,0.026465302915312655,0.011035456295488726,0.0009027192969214856,-0.00036798326743583753,7.119024823218577e-05
2025/04/10 10:33:50.613696965,1744274030,611915107,piren,9.50509675015415e-06,0.14492562461550762,0.05705977834704559,-0.0009246856956383824,-0.0007461803512730865,4.085142563630109e-05
2025/04/10 10:33:50.754884374,1744274030,751435049,piren,0.00046991191106820254,-0.00570765339321011,-0.007489469097581206,0.0008005660206152148,-0.0007705197801837381,7.988296117688302e-05
2025/04/10 10:33:50.824270174,1744274030,822103688,piren,0.00016581961122022254,-0.006287512614562419,-0.004877475136281531,-0.0006247708154256464,-0.000478638880057542,7.722755268578246e-05
2025/04/10 10:33:50.965686277,1744274030,962970690,piren,-0.0005336362255093896,0.013489705237498437,0.00543759894216241,0.0006973073026160766,0.0001062193865587493,4.944884127599614e-05
2025/04/10 10:33:51.108015344,1744274031,105180358,piren,-0.0003185741514244633,0.006995031870610856,0.003984314377357564,-0.0006247744797783835,0.0003981718998855282,2.9051975252815998e-05
2025/04/10 10:33:51.252491366,1744274031,248162506,piren,-8.564807667432397e-05,0.02010698472486214,0.010091531313131171,-0.0009122674762840078,0.0004965911080339916,5.141365676659942e-05
2025/04/10 10:33:51.324313873,1744274031,322066544,piren,0.0005779977765541209,-0.08764196948413851,-0.038174732886954194,0.0007807024300572938,0.00046602503605495894,5.5670697132962164e-05
2025/04/10 10:33:51.398166162,1744274031,395246902,piren,0.000516220603640186,-0.05755303119744863,-0.024199392217856348,0.0009109491018916769,0.0004081194017873855,0.0
2025/04/10 10:33:51.471668517,1744274031,469108289,piren,-1.9282178528281157e-06,0.0856729133902266,0.03274466539131124,-0.0007991136140091167,0.00021963336284399669,7.028074057835417e-05
2025/04/10 10:33:51.567581967,1744274031,565289690,piren,0.00037091037661405625,0.07150255047108688,0.02891609688698315,0.0006271990331895831,-0.00010666040845663729,0.0
2025/04/10 10:33:51.709508467,1744274031,707122342,piren,0.000680803641716857,0.03519831227386051,0.015212729816558317,-0.0006921903519037375,-0.00033017798798872845,0.0003399224078815633
2025/04/10 10:33:51.851351601,1744274031,848658906,piren,0.0003658787033600039,0.02683842352262248,0.012597761276211566,-0.0009617582922683514,-0.0003047425570278193,0.00011258848062685356
2025/04/10 10:33:51.922454225,1744274031,920529913,piren,0.0006385071775184133,-0.09544097214129549,-0.04148608954272761,0.000750256155407363,-0.00025804373531935896,4.049782014464122e-05
2025/04/10 10:33:52.63376359,1744274032,61308726,piren,0.0003617308438151031,-0.06739946648112861,-0.028057918730228847,-0.0007899100164375327,-0.00010773495566594695,2.114095146510572e-05
2025/04/10 10:33:52.204827615,1744274032,203173063,piren,0.00042201705646214584,-0.020874863787593928,-0.007578294409575803,0.0008042247346037017,-0.00010179088519782144,1.3501928056155476e-05
2025/04/10 10:33:52.346908812,1744274032,344055059,piren,0.0005795258746729179,-0.009806689745300608,-0.002381640930574292,-0.0006221594163714687,-5.083857412526545e-05,3.196278444753652e-05
2025/04/10 10:33:52.419707452,1744274032,417429159,piren,0.0005960403469998074,0.01750457417156242,0.009205692153045873,-0.0008857880574489511,5.6561613262932416e-05,3.799824948576762e-05
2025/04/10 10:33:52.563504436,1744274032,561744903,piren,0.000944006510826448,-0.08177330963048887,-0.03590800035348153,0.0009637355305316771,0.00018835202985311255,3.58787381040125e-05
2025/04/10 10:33:52.710771177,1744274032,707556954,piren,-0.00012427559795475632,0.07951292052039236,0.028982566596418582,-0.0009101734432481718,0.0003034155003180404,2.2786250747946043e-05
2025/04/10 10:33:52.855701592,1744274032,851873220,piren,0.00032312470452773606,-0.038211966677726805,-0.021214747219404168,0.0007821945971225214,0.00016143173870960157,4.754741156383878e-05
2025/04/10 10:33:52.928113269,1744274032,925119546,piren,0.0005180884156742924,-0.015244710546494091,-0.008466562976490061,-0.000677170818801312,0.00011537552957909165,5.9309005640650074e-05
2025/04/10 10:33:53.51237,1744274032,997811600,piren,0.0001695257289610983,0.01947909509308404,0.008104483858666916,-0.0008032758988375644,0.00010640450716230436,0.0
2025/04/10 10:33:53.73047901,1744274033,71284262,piren,-0.0002747122477558785,0.041133182131898434,0.01843139698344685,0.0006178078171185,1.3136862106562276e-05,4.343534110080346e-05
2025/04/10 10:33:53.145411092,1744274033,142822528,piren,-0.00011519261497603092,0.03475252690905138,0.016548935727508356,0.0007367360830648532,-7.459753563519308e-05,0.0
2025/04/10 10:33:53.218176824,1744274033,215992436,piren,0.00012958939510092948,0.026236961668883237,0.013298765148337416,-0.0007010191413750074,-0.00016876556975681172,3.8748349995375695e-05
2025/04/10 10:33:53.360915339,1744274033,357861525,piren,5.475845819085423e-05,0.03701087077879522,0.0176792641165273,0.0006321865767274071,-0.00018030562373816207,3.805482339726568e-05
2025/04/10 10:33:53.505257762,1744274033,501589894,piren,-3.3444332530687638e-06,0.02327295318032186,0.011694347165770785,0.000908430061776348,-0.000159309826669541,0.0001794696746079149
2025/04/10 10:33:53.575970391,1744274033,574106264,piren,-0.0004998281739518187,0.13020691854776517,0.0522806088691459,-0.0007810847911402286,-6.425870949260653e-05,4.731736032025031e-05
2025/04/10 10:33:53.649293816,1744274033,647189780,piren,-0.000515749323449263,0.09446553223529039,0.03853583483189261,-0.0009216798334386599,-1.1673909496933035e-05,0.0
2025/04/10 10:33:53.722901183,1744274033,720809285,piren,0.00016912821920407627,-0.05171720043358588,-0.02516581503403522,0.0008101769705431654,8.355028461441966e-05,3.635785752655902e-05
2025/04/10 10:33:53.794926656,1744274033,792239005,piren,9.306746446775837e-05,-0.04820508187053717,-0.021837535944682573,0.0009545843311769474,0.0001467277081219934,0.0
2025/04/10 10:33:53.867436699,1744274033,865397804,piren,-0.0007733495875527932,0.07729512936280146,0.028131274300475288,-0.0007353021240163797,0.00029332368958624635,2.222792551759572e-05
2025/04/10 10:33:54.35243163,1744274034,33051097,piren,-0.00022337316149793874,0.04937440242474652,0.019057774407818178,0.0008220099326932028,0.00011096733020236565,4.798077648970243e-06
2025/04/10 10:33:54.109268658,1744274034,106099845,piren,0.00033482300827920885,0.007100795206861521,0.0032814559236547247,-0.00013700132044259445,-0.002963581466445144,0.000463060459304991
2025/04/10 10:33:54.257353956,1744274034,251925214,piren,0.00237110511425265,-0.007294045139041982,-0.0014269912807280682,0.0007403009211508351,-0.0019561296160421566,0.0034602538657932886
2025/04/10 10:33:54.328277323,1744274034,326315688,piren,0.00426097147610556,-0.13686720981745534,-0.059204991627792726,0.002476319741733947,-0.00020654454563680797,0.004005733383008201
2025/04/10 10:33:54.405803422,1744274034,401939276,piren,0.0018570219489901594,-0.19398568546284845,-0.08438858481533998,0.00465326005359305,0.001959617960822654,0.0
2025/04/10 10:33:54.551763533,1744274034,548698375,piren,0.0013772393330327125,-0.24975937109579685,-0.11144279940691014,0.006673687060153356,0.0037354481387881586,0.007622584496663077
2025/04/10 10:33:54.624710196,1744274034,622373247,piren,0.004810144577049805,-0.04300308682636539,-0.023450772968249975,0.004886101775547403,0.004170925896548549,0.002980480886299355
2025/04/10 10:33:54.698932575,1744274034,695486418,piren,0.006760142929533622,-0.009326003827208912,-0.006139363861757528,0.004909137438164565,0.00373657454897779,0.0
2025/04/10 10:33:54.772925888,1744274034,770584661,piren,0.0144809281472589,0.006630924293449719,0.00239133543126171,0.001242968447908614,0.0022986142185005896,0.0027946389544832606
2025/04/10 10:33:54.848437741,1744274034,844157420,piren,0.021061622958904926,-0.08139259514141456,-0.037807903074570756,0.0006119593925909056,0.001598338004619593,0.0
2025/04/10 10:33:54.921216451,1744274034,918244803,piren,0.027384181676416056,-0.1390206835601472,-0.06448340445447599,-0.001668652773025882,-0.00016128652007700337,0.0026891635921775002
2025/04/10 10:33:55.64263197,1744274035,62327510,piren,0.04045229809989899,-0.16585965678818834,-0.07685605724447285,-0.00454983605113356,-0.0027706796882610595,0.002173685184718005
2025/04/10 10:33:55.206443498,1744274035,204363309,piren,0.0553291685974272,-0.054293304725433394,-0.023760928005613878,-0.007082141789031836,-0.0038068799564221134,0.0
2025/04/10 10:33:55.352966040,1744274035,349991611,piren,0.06709541469899698,0.0776824639048303,0.03590103444168505,-0.006536719856830736,-0.0035797500187048446,0.005922186410126252
2025/04/10 10:33:55.428243856,1744274035,425712521,piren,0.0840496937110401,-0.009407694147602938,-0.00290221570816606,-0.0055343804175921165,-0.0016203675114203485,0.0025888923927634834
2025/04/10 10:33:55.507932010,1744274035,501313325,piren,0.09701019716671902,0.05972497690677332,0.030245528230234194,-0.0024675508416212573,-0.00047883619216740114,0.0015307956421618536
2025/04/10 10:33:55.655608847,1744274035,652447824,piren,0.10788106464506193,0.06828715153428706,0.03560771643582597,0.001452640244286615,0.0012733834826937904,0.0015903453375467002
2025/04/10 10:33:55.801458839,1744274035,798620769,piren,0.11381527071503109,0.20991075806446163,0.09226923514207874,0.003063182620054612,0.0024214909759743743,0.009657359313621683
2025/04/10 10:33:55.876182572,1744274035,873775780,piren,0.12028162865776715,0.0882293072165797,0.04008907007688463,0.006399423566566883,0.00277944839731915,0.00198138514117035
2025/04/10 10:33:55.953017681,1744274035,949311009,piren,0.12166500118346442,0.19138871594136647,0.0820325420975893,0.0046207522282939424,0.002808375585562944,0.0
2025/04/10 10:33:56.26872324,1744274036,24521680,piren,0.12614053731572306,0.04921858010525315,0.02113644315276935,0.006856062218231418,0.002268550860058136,0.00203935938740262
2025/04/10 10:33:56.100719053,1744274036,98591240,piren,0.12649938665545044,0.11408197875107393,0.049332129378133006,0.0056288647427220175,0.0018513026524670116,0.0
2025/04/10 10:33:56.174903802,1744274036,172842410,piren,0.12645105265601153,0.07669624451814375,0.03532278493498018,0.0037177159323820547,0.0005697776774214778,0.002324973092193058
2025/04/10 10:33:56.318419636,1744274036,316807850,piren,0.13084711087358294,-0.02971511466876077,-0.010447112702168374,-0.00014898083418588175,-0.001583230659922709,0.0012351027636054786
2025/04/10 10:33:56.417401180,1744274036,414488344,piren,0.13540747150686905,-0.01487480158266376,-0.002688221949249018,-0.0029167166103098506,-0.0020771639975828682,0.0025462692438956145
2025/04/10 10:33:56.561213217,1744274036,559203185,piren,0.14427492018844526,-0.002282979758546983,0.003757343766517913,-0.004724181060879306,-0.0028526387698366035,0.0018878593028197781
2025/04/10 10:33:56.707964870,1744274036,706073839,piren,0.15399769388168347,0.10922813605188852,0.047672949413560976,-0.007100306521908084,-0.0018462391222951356,0.0013878941692236837
2025/04/10 10:33:56.855250525,1744274036,852703252,piren,0.16534152451217773,0.06405795328159943,0.030577507908098617,-0.004128429556331905,-3.619167979324594e-05,0.002672413614896516
2025/04/10 10:33:57.2435242,1744274036,999788665,piren,0.1710687068087736,0.12942644109584794,0.05557834827886608,-0.004481256152277435,0.0013827919353044998,0.014896941416291906
2025/04/10 10:33:57.75980695,1744274037,74051518,piren,0.180867479656581,-0.00390497445796395,0.00016745157131253796,-0.0002267951113101147,0.0022570513496158215,0.003104000240739868
2025/04/10 10:33:57.150338147,1744274037,147940843,piren,0.18713667743700166,-0.03732744807912208,-0.012505995630633891,0.0009446263487363977,0.002491526009792556,0.0
2025/04/10 10:33:57.225087931,1744274037,222900424,piren,0.19154708016758373,-0.05457580962461147,-0.019246273951458337,0.0018945137838859963,0.0025943206101991093,0.002977316726277563
2025/04/10 10:33:57.299085002,1744274037,296384473,piren,0.19154708016758373,-0.05457580962461147,-0.019246273951458337,0.004221101928148359,0.0023930244580376223,0.0
2025/04/10 10:33:57.374121015,1744274037,371336605,piren,0.19173997781508656,-0.058039840900982784,-0.020904947840287992,0.007715629549365959,0.0016994315303113419,0.0037160209014759837
2025/04/10 10:33:57.517652922,1744274037,515327007,piren,0.18855528229923943,0.03885438855127209,0.017062593031123036,0.0035077338233101153,-0.00012584556376625465,0.001937237415079956
2025/04/10 10:33:57.660371720,1744274037,658624919,piren,0.19234300650227845,-0.08518933902028006,-0.03700106961993456,0.002752782526658356,-0.0020951148937571468,0.002602939687128334
2025/04/10 10:33:57.805601670,1744274037,803209310,piren,0.19529351323785699,-0.17168979459065634,-0.07493338270954283,0.0008526736198253,-0.002751591574967731,0.0
2025/04/10 10:33:57.955449703,1744274037,949170135,piren,0.1955268720651929,0.003488491103280783,-0.0014157702834870084,-0.001457234887868069,-0.002675855301050984,0.006540334614402884
2025/04/10 10:33:58.26674916,1744274038,24933561,piren,0.2000145884659559,-0.03462643562065718,-0.013850244767460553,-0.003968715496194095,-0.0015833154364556852,0.0031937266439702448
2025/04/10 10:33:58.105545724,1744274038,99659690,piren,0.2042642102143872,-0.023170717815309806,-0.006109143745839576,-0.004504330664630822,-0.0011907307354963135,0.0
2025/04/10 10:33:58.178263284,1744274038,175970892,piren,0.20905468815644773,-0.01676487847039393,-0.0016742955226371394,-0.005626072245859489,-0.00013744456163816013,0.003015124114812822
2025/04/10 10:33:58.254699040,1744274038,250223465,piren,0.21185238593775457,-0.006356592777956072,0.0036832520826253845,-0.006148774747375632,0.0005183228893278108,0.0
2025/04/10 10:33:58.327226111,1744274038,325224843,piren,0.21596654489835593,0.0068770469561971834,0.009363720098767044,-0.0055313779983176305,0.0015880513744163556,0.002510423497682659
2025/04/10 10:33:58.401718066,1744274038,399409419,piren,0.2233246067750314,-0.10028140016265719,-0.04021873233075703,-0.0037478904019648805,0.0022496512431355925,0.0
2025/04/10 10:33:58.553712537,1744274038,547221210,piren,0.22871795379546703,-0.16146272374467083,-0.06920033461061281,0.0003055249215166647,0.002391534933717675,0.004782830978997964
2025/04/10 10:33:58.630251065,1744274038,625818930,piren,0.22966476222072735,0.020104802178093767,0.0063656930190324895,0.00016635611543283003,0.0029811054883374447,0.0022193628640217525
2025/04/10 10:33:58.706440635,1744274038,703142407,piren,0.23216253425403002,0.055708962686913166,0.023595928058581545,0.003724612482258837,0.0016219247594373002,0.0
2025/04/10 10:33:58.854521126,1744274038,852145634,piren,0.2318396914476579,0.0535164801654449,0.02428777152925134,0.006319937909899642,-0.0006396253339886473,0.0019008179077338752
2025/04/10 10:33:58.954313996,1744274038,952055011,piren,0.22851971052496076,0.16070106781544413,0.06669939476492727,0.005226270200079518,-0.001925256491245855,0.005237454872590155
2025/04/10 10:33:59.102777660,1744274039,99101483,piren,0.22838990561831443,-0.006327443106237868,-0.005027708002032741,0.004843903067183956,-0.002762643648097619,0.0050617282801084795
2025/04/10 10:33:59.177409415,1744274039,175700847,piren,0.22637419686579952,-0.0022706160076264754,0.0003158510955048235,0.004006445142298661,-0.003566877536164319,0.0010805939300440623
2025/04/10 10:33:59.253628623,1744274039,250844032,piren,0.23406465067841956,0.08653912712129601,0.03770686239805647,0.0015628994421704291,-0.0037378795610797997,0.0
2025/04/10 10:33:59.329034605,1744274039,326439581,piren,0.2321117880510882,-0.06310723046794885,-0.026593137523428623,-0.0009456394696853898,-0.002052846233983863,0.0023927622316982583
2025/04/10 10:33:59.403744893,1744274039,401391863,piren,0.23128286148912583,-0.03490036585544623,-0.01135113021414378,-0.0010909516301410651,-0.0005016323586518865,0.002081396088212701
2025/04/10 10:33:59.555401977,1744274039,548181045,piren,0.2314044735278002,0.07738164445913788,0.034786776377388244,-0.004634347237730284,0.0010844024822171173,0.002129828950549355
2025/04/10 10:33:59.625654487,1744274039,623842880,piren,0.23406085348910882,0.1663300287537371,0.06963097775277821,-0.007130905728496324,0.0024244345375659293,0.002086596290035609
2025/04/10 10:33:59.701790053,1744274039,699387986,piren,0.24018194848704288,-0.003019779203031814,-0.0018806018079549763,-0.005612437353340933,0.0035087868736403314,0.0
2025/04/10 10:33:59.782227604,1744274039,777217767,piren,0.235262058958915,-0.013425443811956594,-0.0035739648112082436,-0.0074153816001703374,0.004112983137288848,0.0016688256271076497
2025/04/10 10:33:59.860937191,1744274039,858860575,piren,0.2483214603938449,-0.10666746214878878,-0.044185382844087844,-0.0036235038088173045,0.0031709361890148737,0.0
2025/04/10 10:34:00.11825932,1744274040,8032638,piren,0.2538373612851955,-0.06482552519187232,-0.025165470588343,-0.0008977526279664887,0.0008589603906626075,0.0008195941614269142
2025/04/10 10:34:00.157730122,1744274040,155104229,piren,0.2574263509411139,-0.02149284062734262,-0.006166651531122176,0.002223541965811225,-0.0015878158529989356,0.0014975597840341049
2025/04/10 10:34:00.305425804,1744274040,303101093,piren,0.2599525950177394,0.012829625334916606,0.008900882299499294,0.005683105235687739,-0.0035417591632793664,0.0006872666941622004
2025/04/10 10:34:00.455916993,1744274040,450915214,piren,0.2611233889907907,-0.09994374494412989,-0.042478999646985635,0.006277400122942681,-0.003539726755087077,0.0011541532501648097
2025/04/10 10:34:00.601976539,1744274040,598092101,piren,0.2575538364458224,0.02807481361774114,0.01210666060767683,0.002662834579998736,-0.002311121522835056,0.005265638750366616
2025/04/10 10:34:00.675946829,1744274040,674100891,piren,0.256876717090381,-0.04950512616455818,-0.020404047252053012,0.0038467558675120994,-0.00021330031030829876,0.0013119798623212149
2025/04/10 10:34:00.751731757,1744274040,748778472,piren,0.24577561789592425,0.08987606716555127,0.03715617929184579,0.0008982072392050549,0.0013195462560860495,0.0
2025/04/10 10:34:00.827336200,1744274040,825080267,piren,0.25119174403557726,0.07647318506255978,0.03405618969422744,-0.00033660422120797257,0.002539125082495324,-0.00015332329956363496
2025/04/10 10:34:00.903318396,1744274040,901085788,piren,0.25276720852320966,0.16869313198021735,0.07042964092965409,-0.0026477945803257885,0.002958975321168097,0.0
2025/04/10 10:34:00.980910008,1744274040,977269482,piren,0.25779107253051725,0.10877113732522083,0.04733939830694833,-0.005394898614980265,0.0032452637200843354,1.8658424047911006e-05
2025/04/10 10:34:01.56459891,1744274041,54070408,piren,0.2662420504491364,-0.04518125624131207,-0.01978096780751154,-0.004749994104520719,0.002877953034546152,0.0
2025/04/10 10:34:01.208088832,1744274041,205728154,piren,0.2711776601288874,0.07656587500532659,0.02924918876049195,-0.005950972580604494,0.0009752422559913995,0.0005134693432937961
2025/04/10 10:34:01.388573545,1744274041,380783797,piren,0.2785336546940924,0.016529042557340654,0.006793376185566493,-0.0029635985386584187,-0.0007423053830865159,0.0008317991569902423
2025/04/10 10:34:01.464008872,1744274041,457601974,piren,0.2829616135762534,0.035615247712349085,0.01628511373528544,-0.0022217294156476925,-0.0018065876853639354,0.0
2025/04/10 10:34:01.607810949,1744274041,605892165,piren,0.2858766669035048,-0.05317572506196447,-0.020207793621767486,0.0024782254844991744,-0.0026528083585680624,0.005425059274728362
2025/04/10 10:34:01.757236156,1744274041,755142586,piren,0.2843655327812484,0.07066789853711307,0.02866888092292489,0.00410005366159169,-0.002129275868246706,0.0026452415869382077
2025/04/10 10:34:01.908412617,1744274041,905052774,piren,0.28699934831506646,-0.17833134738229964,-0.07661360816792903,0.0063354815713927495,-0.0006357511579502487,0.0009513156017387161
2025/04/10 10:34:02.56477377,1744274042,53854240,piren,0.2833237846083647,-0.0017934007883464997,-0.0024953445878400926,0.0039029523091666297,0.0013791150665049166,0.0016959580897765868
2025/04/10 10:34:02.204769002,1744274042,202904852,piren,0.2815545029007807,0.08901405701526562,0.036910621710730666,-0.0008115104113962894,0.002667957409170715,0.010294012818625645
2025/04/10 10:34:02.355440558,1744274042,353508448,piren,0.2856113156508399,0.020895932963867728,0.01087401260114031,-0.0031810825899111373,0.0021936987623789447,0.0027410236373061046
2025/04/10 10:34:02.506343036,1744274042,504140002,piren,0.2896795821347041,-0.055236073054356544,-0.020786537363805913,-0.005013259297194238,0.0008197359641990448,0.007182719998683782
2025/04/10 10:34:02.655970889,1744274042,653663307,piren,0.2935566447196379,0.08489523362000034,0.03456685111318425,-0.004772927289318447,-0.0009800822737870362,0.0032069035776496452
2025/04/10 10:34:02.807085617,1744274042,804580240,piren,0.2993824165549995,0.047985614465097005,0.021662304423686683,-0.002988579864466838,-0.002017658864389649,0.008920936697603972
2025/04/10 10:34:02.883271177,1744274042,881251595,piren,0.30312055376557506,0.12355856592403178,0.05167935210105607,-0.003577923901987144,-0.002485220079288755,0.0020629225550464103
2025/04/10 10:34:02.959458299,1744274042,957473697,piren,0.3088251977499112,-0.04537911808451972,-0.019898656648367742,0.0008631857643749363,-0.0022232153728620487,0.0
2025/04/10 10:34:03.109450650,1744274043,106920473,piren,0.3116430248978758,-0.062333618880984064,-0.02384098565129076,0.003925560681326003,-0.0008957379078726186,0.0015239411266169689
2025/04/10 10:34:03.259393245,1744274043,256945080,piren,0.3099325850083459,0.056240343435866084,0.024191927556060297,0.003145364316164887,0.0009834828414652674,0.0027255122936052697
2025/04/10 10:34:03.410241444,1744274043,408129332,piren,0.3073790566461411,-0.07635179478652351,-0.03209887479736029,0.005063299083714321,0.001967270700417094,0.0014060636530064212
2025/04/10 10:34:03.560579892,1744274043,558462602,piren,0.3087353023218383,-0.05986471895248503,-0.022998055490636736,0.003867839039572132,0.0018462065732985486,0.002664458565980341
2025/04/10 10:34:03.712356761,1744274043,710047395,piren,0.309568704677531,0.0018166794144239412,0.0033480009349299046,-0.0012911450700821303,0.0007038329787626413,0.0015531104286185535
2025/04/10 10:34:03.863203923,1744274043,860517721,piren,0.3142041171473465,-0.03933295500305538,-0.013916281480561035,-0.0060096053397765085,-0.0007076106229078925,0.0029606716872024852
2025/04/10 10:34:03.963830655,1744274043,959100736,piren,0.319114472258343,-0.10889745577373976,-0.04508591009218943,-0.0036426836386653397,-0.0014689937367709782,0.014097699412156892
2025/04/10 10:34:04.113807687,1744274044,111318755,piren,0.32114584316186656,0.033049978396320887,0.013386692860731658,-0.005857654165580161,-0.0019350634941963272,0.0017027992494596492
2025/04/10 10:34:04.264785981,1744274044,262606480,piren,0.32799660260343433,0.1084355999920721,0.04517008242142015,-0.004168688387702023,-0.0016076689886231844,0.0024030726857310874
2025/04/10 10:34:04.414852970,1744274044,412661191,piren,0.33199561977862674,0.06668767677756515,0.02975089140138944,-0.0031038369323158565,-0.0004156992024812124,0.0017790189431569907
2025/04/10 10:34:04.566729558,1744274044,564257196,piren,0.3313475086979905,0.05829027077502398,0.027048503802019924,0.0031051799928684984,0.0010645603901888437,0.002475855527037632
2025/04/10 10:34:04.717105529,1744274044,714825260,piren,0.3248184978475818,0.133646834650472,0.05484584150288629,0.004811673018755922,0.0020992744657151534,0.0017727920374453158
2025/04/10 10:34:04.869686061,1744274044,867555891,piren,0.3159120974429696,0.1789638905611813,0.07034700208093855,0.004050177237818925,0.0016894243655614883,0.002690588911328919
2025/04/10 10:34:05.19685082,1744274045,17231712,piren,0.30998700275913493,-0.03026817959853323,-0.01719177943405814,0.004689454206549832,0.0008753402353293906,0.0020561397194522376
2025/04/10 10:34:05.170479634,1744274045,167466401,piren,0.2985038057465771,0.05534819919980728,0.017308369485325943,-0.0001691791376582064,-0.0005829939519495228,0.003282553548119257
2025/04/10 10:34:05.248500046,1744274045,245120773,piren,0.2970239286233208,-0.09635672073968597,-0.04434830433548651,0.00012072897782536015,-0.0009402261951654201,0.0
2025/04/10 10:34:05.324266566,1744274045,321999625,piren,0.2910885282283742,-0.023978092543620363,-0.012310987749247285,-0.002191754088434923,-0.0014493636285808308,0.0043526163319061026
2025/04/10 10:34:05.401161302,1744274045,398425068,piren,0.2882674633735404,-0.04295640253535529,-0.017071214067110145,-0.002344727104364749,-0.0016378327615888671,0.0
2025/04/10 10:34:05.479242582,1744274045,476704173,piren,0.28482628545953037,0.017544716123484613,0.00821641839739708,-0.003223152311528789,-0.0015443877693846065,0.004804840134988268
2025/04/10 10:34:05.556450129,1744274045,552819446,piren,0.2812600916258815,0.08959293924658632,0.03627452043419321,-0.005324286202097048,-0.0013937295856045356,0.0
2025/04/10 10:34:05.634651950,1744274045,630130807,piren,0.2833802577329151,-0.08850927629077848,-0.038412606997653316,-0.005249279951221854,-0.00092306083657081,0.004157741862948941
2025/04/10 10:34:05.711371577,1744274045,708184238,piren,0.281133168997212,-0.06119878993158598,-0.02412893918823062,-0.004111785984743668,-0.0006812195331249939,0.0
2025/04/10 10:34:05.862699247,1744274045,859544974,piren,0.27986306643456366,-0.0636371870731178,-0.023224068728450748,-0.002950709787789083,0.0004926457428360182,0.011148614995891747
2025/04/10 10:34:06.13050504,1744274046,10828164,piren,0.27523944883510004,-0.038278057379374855,-0.012218614587612638,0.00021355470908301352,0.0008328786142458304,0.0025944683232634776
2025/04/10 10:34:06.166117157,1744274046,163099208,piren,0.2702268186219043,-0.11001124636641141,-0.043968149793508174,0.003013179278444155,0.0009382559839998484,0.00512819913311227
2025/04/10 10:34:06.316421263,1744274046,313979605,piren,0.2630289956978685,-0.12509862221736473,-0.05128423521292422,0.00455390213113884,0.0006965682603871283,0.002944998106876527
2025/04/10 10:34:06.419406728,1744274046,416676201,piren,0.2524317720905855,-0.1711077766107788,-0.0736214559448724,0.0044920565906923495,0.0003419565388144306,0.004990970928547532
2025/04/10 10:34:06.570759426,1744274046,568523873,piren,0.23748063130706204,-0.06398787460211643,-0.027724843139698932,0.0031864456912299756,-0.0006339470157316847,0.003892010659290568
2025/04/10 10:34:06.647297496,1744274046,645464493,piren,0.22922094884652314,0.023392019138646344,0.009234134733011427,0.00281282978467764,-0.0008346422546913688,0.0
2025/04/10 10:34:06.725889547,1744274046,723245594,piren,0.22054383158601912,0.12594205368427572,0.050634840602033826,-0.0010361856185480496,-0.0011172968215927045,0.005059082457216997
2025/04/10 10:34:06.803756082,1744274046,801335479,piren,0.21693620469891348,0.03871562540425692,0.01434726249591503,-0.001902285422810729,-0.0012936063715283817,0.0
2025/04/10 10:34:06.959497542,1744274046,954919843,piren,0.20795107981771244,0.1713112052168984,0.06572468232873288,-0.004904909597439619,-0.00014933337940624002,0.009996290737106337
2025/04/10 10:34:07.111113106,1744274047,107764527,piren,0.20241624069808486,0.14998958556748254,0.059388584829072326,-0.004562664927461548,0.00043135145155148827,0.0025443721689938597
2025/04/10 10:34:07.263764703,1744274047,260102849,piren,0.20088453251078128,0.06384740937401182,0.02566542551760858,-0.003699616986897421,0.001235301957702648,0.004895726356620777
2025/04/10 10:34:07.415697539,1744274047,413895774,piren,0.20058918911659013,-0.04170107239360697,-0.018194365281362396,-3.224137853959217e-05,0.0014815952698849656,0.002662376071277627
2025/04/10 10:34:07.568057614,1744274047,566091499,piren,0.19193242026226465,-0.04121579723328034,-0.017276864680715136,0.0015144036710501344,0.00082222432144829,0.0033897557800170912
2025/04/10 10:34:07.721722683,1744274047,719620420,piren,0.18679318935114672,-0.008966576709371676,-0.004025816920095866,0.0029892279868924637,-0.00042936331653388064,0.0025460017119216284
2025/04/10 10:34:07.801964605,1744274047,799472361,piren,0.17924182424717394,-0.09707530290215764,-0.04232288996979587,0.004163353993315639,-0.0009395440177866421,0.0
2025/04/10 10:34:07.957004066,1744274047,953886755,piren,0.16892033313692983,-0.1364463826776042,-0.059321399635035195,0.0025554711319515206,-0.0014759829038023967,0.008795414204400807
2025/04/10 10:34:08.113882383,1744274048,111714413,piren,0.15924972253615116,-0.16632481591223003,-0.0730281474466901,-7.387484099038058e-05,-0.0011861412075104356,0.002266549653879644
2025/04/10 10:34:08.267945786,1744274048,266000816,piren,0.15161949372982228,-0.16408617700058092,-0.07254207351922072,-0.0013316262348280759,-0.0007537999005041328,0.0032659400064846906
2025/04/10 10:34:08.422095008,1744274048,419995273,piren,0.14147206112297675,-0.01106149435704501,-0.006715699398408673,-0.0041930831859467695,0.00040420362554362754,0.0023176747974893476
2025/04/10 10:34:08.576765630,1744274048,574029771,piren,0.13738432753993943,0.011619446093391526,0.0039080178184646,-0.0030124492370522857,0.0011296443266311984,0.0030813265527380607
2025/04/10 10:34:08.655494324,1744274048,652566848,piren,0.13134213971407002,0.17463601721228805,0.06894935283457837,-0.003483422976954361,0.0015982164063069718,0.0
2025/04/10 10:34:08.809615892,1744274048,807726784,piren,0.12978159047493132,0.15214217679622416,0.061377754292438344,-0.002674433291738751,0.001488716161214741,0.0020919134023410983
2025/04/10 10:34:08.966161410,1744274048,963368592,piren,0.13111561955051906,0.01955383778545222,0.003999220465201424,0.0011897845335165952,0.0007437404360216888,0.0028298149140570574
2025/04/10 10:34:09.68086509,1744274049,65896034,piren,0.12995829532569583,-0.0792041550290374,-0.039345340050095774,0.003113902063866068,0.0003978955555550015,0.0
2025/04/10 10:34:09.226578111,1744274049,223831160,piren,0.11800183010286669,0.10278656552909561,0.03464868904553863,0.0038503316397524943,-0.00043284145960810727,0.0018748278108386347
2025/04/10 10:34:09.306401044,1744274049,302846675,piren,0.11474905725381172,0.07882099760013299,0.028472053266539094,0.004014466663121712,-0.00104299908379378,0.0
2025/04/10 10:34:09.386296420,1744274049,382773341,piren,0.11774986319210252,-0.025364727654914154,-0.0151245116304553,0.004573532641052117,-0.0017201974412539465,0.0036834729446838885
2025/04/10 10:34:09.464694414,1744274049,461421326,piren,0.11114645799743808,0.006621216894109612,0.0012875166737769499,0.0029595064983025995,-0.0014542682597927996,0.0
2025/04/10 10:34:09.620020723,1744274049,617667451,piren,0.10048352698295271,0.15356819713474615,0.059382485280605996,-0.000447423884946861,-0.0006370086122592392,0.0017451161752155104
2025/04/10 10:34:09.699899321,1744274049,696832134,piren,0.10185302450940976,0.014122836708884645,0.0013442816792222576,0.0009548767497779914,-0.00034275597023989925,0.0
2025/04/10 10:34:09.779298482,1744274049,776113700,piren,0.09573145402650876,0.13224994579072735,0.05017354189202068,-0.002628256325674927,0.00033493084020321873,0.0032742697248429008
2025/04/10 10:34:09.855994519,1744274049,854254656,piren,0.09931576686003606,-0.017194284715332825,-0.012147425518766235,-0.0030852232439236263,0.0011091831204553908,0.0
2025/04/10 10:34:10.13262450,1744274050,11451906,piren,0.0954856855931666,0.1172018729682808,0.04294431694841359,-0.004325232862320114,0.0016829314578097904,0.0014357114339968253
2025/04/10 10:34:10.171292343,1744274050,166545936,piren,0.09800212512791401,0.07549951614787496,0.029614593436478542,-0.004331701537193424,0.0011379420351161405,0.0018564586274421816
2025/04/10 10:34:10.327970846,1744274050,325006115,piren,0.10725597179871325,-0.06617595907659925,-0.03035396352742891,-0.0012716305904046862,0.000201828486710224,0.0014598409157447108
2025/04/10 10:34:10.407520395,1744274050,404282667,piren,0.1058465836554205,-0.04510750706644977,-0.018848467329561396,0.0004341446995030985,-0.00034960830256615605,0.0
2025/04/10 10:34:10.561483827,1744274050,559532226,piren,0.10243264189621182,-0.024735639309437472,-0.008808661296920855,0.003915321332632091,-0.0012042492769959172,0.0048143409022385775
2025/04/10 10:34:10.718575504,1744274050,716746592,piren,0.09857874544100009,-0.024059122967400624,-0.007828517993605837,0.004200941938699684,-0.0014383138650643373,0.0010907432475596402
2025/04/10 10:34:10.873548767,1744274050,871772538,piren,0.08929708930349985,0.11082089847186616,0.043894851167433815,0.0028383319985680012,-0.0012985473603152901,0.0015872454991648322
2025/04/10 10:34:10.954411677,1744274050,951182241,piren,0.09044883524920802,-0.03605831362970058,-0.019171362377983503,0.002456585426396907,-0.000927019605994169,0.0
2025/04/10 10:34:11.33895092,1744274051,30967675,piren,0.08630245805866249,-0.010072951349047444,-0.005755130767507145,0.002524710343595375,-5.29726639137519e-05,0.0021481847080068277
2025/04/10 10:34:11.115272800,1744274051,112747315,piren,0.08409851849592084,-0.011764569914339162,-0.004918133083575261,-0.0005953208014660894,0.0009899076044857002,0.002009927868014097
2025/04/10 10:34:11.270961600,1744274051,268969503,piren,0.08264469322666625,0.009067332566747053,0.00421822772716157,-0.001979509030892378,0.0018128935647915454,0.0014346010851069423
2025/04/10 10:34:11.430263802,1744274051,427935017,piren,0.08543275714841908,0.011916792060447177,0.005071033596083817,-0.0038110849939799736,0.001686508010715903,0.0009573911731945707
2025/04/10 10:34:11.511138497,1744274051,508701522,piren,0.088435505349571,0.016881970667919077,0.0065604064478486865,-0.004000302022510931,0.0011088328005223074,0.0016714661573772386
2025/04/10 10:34:11.616497976,1744274051,614024796,piren,0.09116844706413754,0.019947067271050757,0.007234753439279538,-0.0012217009536096184,0.0002907919867640982,0.001587327162249511
2025/04/10 10:34:11.772441179,1744274051,770279170,piren,0.0903041430149187,0.11079900313211546,0.04188211182250948,-0.002050784095747002,-0.0008963613552066742,0.0011040089212714052
2025/04/10 10:34:11.852293436,1744274051,850062522,piren,0.09296458089838776,0.07453765502600654,0.02766837879633302,0.0009185315454035911,-0.0014607954407400603,0.0
2025/04/10 10:34:12.9458301,1744274052,7181298,piren,0.0945091425282953,0.018711861969359596,0.005279967117806612,0.0033617316265854903,-0.0015069676880744563,0.006894876588272624
2025/04/10 10:34:12.168244264,1744274052,165122519,piren,0.08931891614438424,0.10462882418537484,0.03837167191273261,0.003014930112549761,-0.0007663657602222135,0.0023620462558458515
2025/04/10 10:34:12.326463404,1744274052,324182054,piren,0.08840181783234581,0.04707142686284024,0.016675395783108175,0.0027357098857472453,-0.0001837924985218983,0.0005489192415566186
2025/04/10 10:34:12.409069479,1744274052,406601315,piren,0.09185348816022267,-0.10948688117764466,-0.050881858107418604,0.00351638667176804,0.0007251299949164117,0.0
2025/04/10 10:34:12.567231433,1744274052,564528034,piren,0.08551277379297059,0.020318110282324053,0.0022524891026746152,-0.00019176715534582704,0.0015597897697622767,0.002850328594109554
2025/04/10 10:34:12.647033231,1744274052,644954250,piren,0.0873338202374725,0.0019705997190161764,-0.0024743948779766926,0.0005603030141387106,0.0015454051705081659,0.007459180792813941
2025/04/10 10:34:12.728194498,1744274052,725092000,piren,0.08584410385342377,0.09169952289962602,0.03325085861439071,-0.0022421452187467994,0.001511677053812152,0.001489239329814888
2025/04/10 10:34:12.809121785,1744274052,806740476,piren,0.09502743735661166,-0.0791874644858577,-0.039705633131468535,-0.0028184906636231992,0.0009945028828307223,0.001243591794098292
2025/04/10 10:34:12.965120744,1744274052,962810887,piren,0.09763374821027351,-0.06774029566513454,-0.031275750189727905,-0.0022804770290949464,-6.66607502113831e-05,0.0008915968409467133
2025/04/10 10:34:13.125605423,1744274053,123643479,piren,0.09927850745143584,0.01131254796896465,0.003162972678825475,-0.0037539485690376794,-0.001288785940148315,0.0006350353255812468
2025/04/10 10:34:13.207666726,1744274053,205180061,piren,0.1024509756345196,0.010787032921371434,0.0050754050520738815,-0.0010548770595090826,-0.0017274656619780827,0.0
2025/04/10 10:34:13.365764146,1744274053,363838129,piren,0.1032210544414738,0.0368166739186112,0.016849235387730636,0.0008554903800980071,-0.0014323815459628185,0.002691568589420864
2025/04/10 10:34:13.531046629,1744274053,525638922,piren,0.10208493416344024,0.05705081846331305,0.02543940745478978,0.0018166606353238132,-0.0004212275358599028,0.0007420324111904816
2025/04/10 10:34:13.609504602,1744274053,607358188,piren,0.10501131948071812,0.0041562950580559255,0.003737010418985571,0.0036041732825495753,0.0003647093741647744,0.0
2025/04/10 10:34:13.769739825,1744274053,765760771,piren,0.10062764878166487,0.10341547584903348,0.04080946496757158,0.003913669113901344,0.001363314797133358,0.0028075245722582946
2025/04/10 10:34:13.849449099,1744274053,847773069,piren,0.10706530223924343,-0.07895062642510271,-0.03915565948396475,0.005449604189109143,0.0014961725519415652,0.008398951668891982
2025/04/10 10:34:13.930642614,1744274053,928455713,piren,0.10303124161591765,0.024353665961826143,0.0045445979016063495,0.0019060841396114341,0.0015243431855993961,0.0016621066490274277
2025/04/10 10:34:14.11422689,1744274054,9203298,piren,0.10003408930160727,0.12357510226424931,0.044322994127782574,-0.0008515509387718177,0.0013632495514135118,0.0017421657907571444
2025/04/10 10:34:14.117163924,1744274054,114597086,piren,0.10672810633232072,-0.04306136816558098,-0.024563067543670263,2.1104794375100245e-05,0.0010632356444232622,0.0017719541925109753
2025/04/10 10:34:14.275974845,1744274054,273384115,piren,0.10521861454517417,0.0638539494613273,0.02059047517970051,-0.0037169057565032107,-0.00011482334731163263,0.001377101694942138
2025/04/10 10:34:14.357120408,1744274054,355076263,piren,0.11437841459492117,-0.08733376654890851,-0.041751068389726094,-0.0027606878433007382,-0.0010665995357567154,0.0
2025/04/10 10:34:14.517811589,1744274054,515875634,piren,0.11684257443021122,-0.05511288712682433,-0.023532657012543576,-0.002494868176554919,-0.0017880355017741239,0.0011294743978764177
2025/04/10 10:34:14.679167928,1744274054,676938371,piren,0.11609713332782119,0.05098337592317004,0.021451555892740046,-0.0013991334944353773,-0.0016846705592720047,0.0018456822870125946
2025/04/10 10:34:14.760268217,1744274054,758545551,piren,0.11626365815814095,0.13393987388021777,0.05534053426892683,-0.0006890106674701285,-0.0008861339863088586,0.0
2025/04/10 10:34:14.921747923,1744274054,919250914,piren,0.12300917968232168,-0.05755779017154017,-0.025832931177828512,0.0014016537563005952,0.0004366074804267085,0.0014278677931025402
2025/04/10 10:34:15.3101948,1744274055,963164,piren,0.12597052096634795,-0.05658608341523139,-0.021721918403151932,0.00268106643106301,0.001237440753379297,0.0
2025/04/10 10:34:15.163167424,1744274055,160552648,piren,0.12659944512010948,-0.05162240587478626,-0.01782738608732032,0.002726228759401608,0.0016096707954286827,0.00513449972577554
2025/04/10 10:34:15.321413622,1744274055,319799913,piren,0.13126504593224123,-0.15125800938453685,-0.06320212643569739,0.0029448674803433067,0.0010843070745791517,0.0016177080488643718
2025/04/10 10:34:15.404985820,1744274055,401767691,piren,0.13078481340980938,-0.10194748574172044,-0.04097626181758919,0.0027822647446171123,0.0009923764504747533,0.0
2025/04/10 10:34:15.485939269,1744274055,483581445,piren,0.1271231211486792,-0.0658044096941463,-0.025074963038566128,0.0006236899495244668,0.0003750265130785063,0.0032392800044441926
2025/04/10 10:34:15.569180535,1744274055,566212732,piren,0.12746226038989328,0.0015996638861455748,0.0030622994942846975,-0.00043340161288219615,-0.0007044800286074149,0.0
2025/04/10 10:34:15.730862830,1744274055,728952609,piren,0.13102031191792768,-0.021518125216925543,-0.007020052569791917,-0.0028219411580644384,-0.001755175190513318,0.001698995014656925
2025/04/10 10:34:15.814898729,1744274055,812587215,piren,0.1335044011597346,0.008507884772825856,0.0056176354157178535,-0.0033959167159784832,-0.0016234768046880736,0.0037562315361342143
2025/04/10 10:34:15.973664982,1744274055,971671949,piren,0.14153938834201646,-0.09419713356846805,-0.04164941814471582,-0.0033218958085032345,-0.0011031614807132737,0.0025147640459687115
2025/04/10 10:34:16.55820888,1744274056,53798596,piren,0.1380825743796776,0.08392076737395689,0.029845572964432555,-0.0030369819059840515,-0.0004078599545061704,0.0
2025/04/10 10:34:16.241741938,1744274056,239225897,piren,0.14071683574957197,0.07114239916309123,0.02765788509473608,0.00043829434385271376,0.0006209032602313686,0.0019625636393645466
2025/04/10 10:34:16.324503042,1744274056,322400109,piren,0.1399648327810609,0.14489923089163348,0.05785553979351739,0.0012466636127294176,0.001273151729422586,0.0037723448457739357
2025/04/10 10:34:16.408356569,1744274056,404504259,piren,0.14217194486955115,0.11777246252199838,0.04856788166238224,0.002887792433745249,0.0019025971164173382,0.0
2025/04/10 10:34:16.570680834,1744274056,567175534,piren,0.1389441245089528,0.19096327159009013,0.0759614445184782,0.0027210346849541505,0.0013784391235107918,0.007777192107353359
2025/04/10 10:34:16.654839408,1744274056,650602453,piren,0.14338430298444102,0.08680601900700857,0.03494828822911891,0.003245524070524733,0.0010138519301641576,0.02364422435602331
2025/04/10 10:34:16.815169714,1744274056,812605838,piren,0.14123692141097302,0.12566427568622238,0.04875094179557933,0.004247315507047609,0.00020122248779317053,0.002560697647378231
2025/04/10 10:34:16.975482225,1744274056,973274770,piren,0.14306416822100795,0.11279933151699914,0.043630999002713146,-6.361510021330916e-05,-0.0006941243176952911,0.0038382610341087305
2025/04/10 10:34:17.57949768,1744274057,55410065,piren,0.15301249269823525,-0.10749696316361187,-0.049363039909677865,0.00011226168558216205,-0.0010503101305796422,0.0
2025/04/10 10:34:17.218420580,1744274057,215971267,piren,0.1535947563387253,-0.10068931004698206,-0.04262269505097528,-0.003530702549678309,-0.0011091243838204689,0.003078782605286054
2025/04/10 10:34:17.378854187,1744274057,376396978,piren,0.159622601259889,-0.17655797208676594,-0.07304449235806722,-0.0034093621748586544,-0.0005728695167333604,0.0044599356059880635
2025/04/10 10:34:17.460471372,1744274057,458021013,piren,0.16335918423865217,-0.15034766537237337,-0.05985551525414671,-0.0019474928697222748,-0.0005251700258077468,0.0
2025/04/10 10:34:17.622259327,1744274057,619231818,piren,0.1644848187420393,-0.08445395045691803,-0.031354599779829545,-0.002280692128576846,-0.00031239646124305254,0.0037560406889374943
2025/04/10 10:34:17.705453458,1744274057,700985824,piren,0.16894163998013023,-0.09718128133508763,-0.036719530670020935,0.000571637040266038,0.00033223447269154486,0.0
2025/04/10 10:34:17.866544434,1744274057,864299659,piren,0.16997306263147033,-0.07086127403263127,-0.02590977137583743,0.000841632162377124,0.00044727977555962593,0.013050356520474123
2025/04/10 10:34:18.29664891,1744274058,26661685,piren,0.16848992200025345,-0.025910062673437657,-0.007713406458151304,0.001586236196612115,0.0002483786157135765,0.003759332535707182
2025/04/10 10:34:18.110510071,1744274058,108541655,piren,0.16819927435235507,0.01212014457942167,0.007454165461012031,0.0030019062469310233,0.0005036487132997619,0.0
2025/04/10 10:34:18.272382044,1744274058,270163198,piren,0.1646417103059775,0.0633835499843375,0.027645249378756412,0.003413759821977596,0.00011159350921713463,0.01387374390356833
2025/04/10 10:34:18.355759661,1744274058,352353714,piren,0.16748121179534786,0.03654443049181316,0.015898862266573978,0.0020947478303628433,-0.00014242119503806667,0.03725508245079707
2025/04/10 10:34:18.461250644,1744274058,459219952,piren,0.16411439558060004,0.14290804665315626,0.056291330082878364,0.0001267298025999817,-0.00032632508569449146,0.007746934834378075
2025/04/10 10:34:18.622788958,1744274058,620308187,piren,0.17353895831074617,0.013347199131567677,0.002047630164024518,-0.0021804118121483357,-0.0003770755448726376,0.003916448266722292
2025/04/10 10:34:18.705682139,1744274058,703053984,piren,0.1792074989148204,-0.10912929664541443,-0.05111630353851226,-0.0014317076427753624,-0.0001865534990027829,0.0
2025/04/10 10:34:18.866736951,1744274058,864844983,piren,0.17080244809662867,0.04290939486809328,0.012035270520329315,-0.003151260863410398,8.121676869161136e-06,0.014708192998457065
2025/04/10 10:34:19.31278407,1744274059,29076968,piren,0.17314644275329552,0.030665477562570584,0.010903602957910645,-0.0017106064305325915,-2.0822554276786956e-05,0.00425742996278722
2025/04/10 10:34:19.118257281,1744274059,113069642,piren,0.17853288045685073,0.01054548245183504,0.005090875247849663,-0.0011144474004017488,0.0001398290073176789,0.0
2025/04/10 10:34:19.201115797,1744274059,197965306,piren,0.18126876513138082,0.0012953925121568215,0.0028459919871119117,-0.0003734837229770774,0.00022230551099695653,0.015432868942890492
2025/04/10 10:34:19.286598149,1744274059,281478352,piren,0.18073757624592868,0.019988111805060167,0.01131212100633206,0.002017085142126738,0.000292199582481059,0.0
2025/04/10 10:34:19.371244325,1744274059,366529534,piren,0.1763254763888653,0.10207259833964633,0.043173049180304936,0.0013759715158402283,0.00038057588899415555,0.009009572675045015
2025/04/10 10:34:19.454348570,1744274059,450400402,piren,0.17750709658084812,0.05691409376972876,0.0254053135553201,0.0017780983306849778,0.00046949292482396796,0.0
2025/04/10 10:34:19.535844159,1744274059,533550538,piren,0.179357865522752,0.022995169543446874,0.011712496492372321,0.0016340622835158574,0.0002902490241964612,0.008373075185709622
2025/04/10 10:34:19.620164004,1744274059,617230596,piren,0.1811391190684844,-0.02054343720601503,-0.006504067059992241,0.0027497701774310385,-0.0003064026524239022,0.00842634595093955
2025/04/10 10:34:19.781373581,1744274059,778949539,piren,0.1793985253244045,-0.00929589833449393,-0.0020383029380140307,0.0012860771286611011,-5.9516768838710156e-05,0.006766422990946652
2025/04/10 10:34:19.864720632,1744274059,862929733,piren,0.18781882552816564,-0.12791457129460432,-0.05588436743844042,0.0007685963145602231,-0.0002843272553664168,0.0
2025/04/10 10:34:20.30176261,1744274060,27648775,piren,0.18572167222641833,-0.0767144135861141,-0.032907208023044136,-0.0016861470624565068,-0.0004657055466079883,0.004882394648576302
2025/04/10 10:34:20.114031736,1744274060,110769333,piren,0.1897269573489211,-0.12005344946464866,-0.05202957190101557,-5.966098549698745e-05,-0.0005522233729035678,0.009115774522626874
2025/04/10 10:34:20.277750603,1744274060,275597663,piren,0.18305434761714418,0.04737305327689717,0.0164767144075428,-0.0024524380292140955,-0.00048300118176862684,0.007069580341983672
2025/04/10 10:34:20.364971369,1744274060,359076490,piren,0.18707592462633324,0.05043791154980716,0.020098571366152174,-0.00316378291955832,-7.74626710692866e-05,0.0
2025/04/10 10:34:20.525440166,1744274060,523009433,piren,0.18443411448438377,0.054825817157143665,0.023553567928730746,-0.0013438584328199286,7.861685076177712e-05,0.0050515952430568115
2025/04/10 10:34:20.611533796,1744274060,606272717,piren,0.18858566029252863,0.024247202117067337,0.011445556228307797,-0.00045010580622883376,0.0004528391822508103,0.0
2025/04/10 10:34:20.717835462,1744274060,714737232,piren,0.18539182674130636,0.09982916198332566,0.041598719107828475,-0.0006597274360359462,0.0007848058440466483,0.018314530047629746
2025/04/10 10:34:20.880335445,1744274060,878142977,piren,0.18872649314225776,0.07083797729328614,0.030078937775125925,0.0009621868681623319,0.0009203271081541941,0.007645413936525992
2025/04/10 10:34:20.966363223,1744274060,962861829,piren,0.19886900586620862,-0.04649583228278936,-0.021068270048652086,0.0024882719247858536,0.0008151628026671271,0.0
2025/04/10 10:34:21.131460490,1744274061,128604563,piren,0.19839033875514353,-0.05930050261231338,-0.025609969445690543,0.002244410565424831,0.00020946350676277103,0.006132336600764503
2025/04/10 10:34:21.215424287,1744274061,213270205,piren,0.19042391755342572,0.05386431711149304,0.019985256405691987,0.0024340167703169693,-0.0003963923986078499,0.010265665347284597
2025/04/10 10:34:21.381418032,1744274061,378048832,piren,0.19301439907467277,0.010059401111357481,0.003245253695011885,0.0008699616763771636,-0.0011162896319677085,0.008078954670265648
2025/04/10 10:34:21.464649589,1744274061,461767529,piren,0.1946077829946261,-0.000294487610153403,0.00013762103852542644,0.0004274420480623287,-0.0010478065634557385,0.0
2025/04/10 10:34:21.628417447,1744274061,625923039,piren,0.19365474892701962,-0.01582281043897604,-0.00554226083549224,-0.0023020357112502545,-0.0006259391768388163,0.006088837949974805
2025/04/10 10:34:21.712163088,1744274061,710040037,piren,0.19397369547086776,-0.014414414410975615,-0.004547875212832008,-0.001285441402717863,-0.00021683013404704391,0.0
2025/04/10 10:34:21.877955108,1744274061,874542931,piren,0.1975029907923271,-0.023509192661594742,-0.008430331826048697,-0.0032833490864207877,0.0004486133187512942,0.023003042466153454
2025/04/10 10:34:21.960908115,1744274061,958567136,piren,0.20046701252404084,-0.001456921156659182,0.0004220373748333398,-0.0017312993509232858,0.0007341264808548016,0.05980291509882811
2025/04/10 10:34:22.126665370,1744274062,123822855,piren,0.20236233728674044,-0.008350925826743724,-0.0029824886052205782,-0.0003741478284121528,0.0008145151750748285,0.006536639559780111
2025/04/10 10:34:22.211106488,1744274062,209327321,piren,0.19917674000002983,0.11547960740917948,0.0438420171471678,0.00021544470170641223,0.0007518669332531576,0.0
2025/04/10 10:34:22.378185777,1744274062,375927196,piren,0.20830475912148352,-0.05302744139112259,-0.029314561191120206,0.002570572995161036,0.0002391990991039491,0.024450627131713233
2025/04/10 10:34:22.463016399,1744274062,460900513,piren,0.2002833262309195,0.04012159228354936,0.010733568612914864,0.0014402520691342608,-2.4844477395554645e-05,0.06618765338986263
2025/04/10 10:34:22.629314738,1744274062,626947618,piren,0.20776223486877818,-0.09425004228537512,-0.04587595201239999,0.001344880954666103,-0.000502586382883823,0.007582121458466402
2025/04/10 10:34:22.715056705,1744274062,711697224,piren,0.2184105827826442,-0.17128795447647427,-0.07800251146321727,0.0015923334447480958,-0.0007122686684623692,0.012853839222311439
2025/04/10 10:34:22.903837793,1744274062,901459196,piren,0.20738162421121153,-0.0853263218264143,-0.036907714232138955,0.00011259967044572304,-0.0009615425035755236,0.009941542747707569
2025/04/10 10:34:23.69361514,1744274063,66686930,piren,0.20315318652565104,-0.021649711127474464,-0.006935247821962635,-0.0005132596427547262,-0.0007729867803326603,0.010140672879901768
2025/04/10 10:34:23.154651035,1744274063,151489082,piren,0.19606461138082515,0.07344026214018447,0.0340468007950546,-0.0027010802588319626,-0.0005577556456289484,0.0
2025/04/10 10:34:23.242202819,1744274063,235670720,piren,0.20406386575550634,-0.027330078473141492,-0.010346657009187729,-0.002028746183083814,-6.594243895412855e-05,0.01310223022559037
2025/04/10 10:34:23.322169796,1744274063,320301892,piren,0.1898777607875217,0.13475243959187572,0.054905120877441635,-0.0023340439634767776,0.0004913918882839809,0.013419182619938949
2025/04/10 10:34:23.408387225,1744274063,406341107,piren,0.19358800966815573,0.11155870588945652,0.04793768990642824,-0.002039847135460219,0.0009244008152891378,0.0
2025/04/10 10:34:23.575283599,1744274063,572801762,piren,0.19615225323095722,0.08435874812244071,0.03785404980481508,-0.0008850430087768197,0.0013703843084563023,0.027333725017817487
2025/04/10 10:34:23.659749070,1744274063,657084875,piren,0.20060108962670706,0.05924263496658602,0.027670297494617337,6.543906047280117e-05,0.0012880149247630616,0.07405081943015913
2025/04/10 10:34:23.825229652,1744274063,822943528,piren,0.2013005268659071,0.035974290846207055,0.017586985050974273,0.0013295625307443422,0.0007082016178806877,0.007444223106484397
2025/04/10 10:34:23.912093330,1744274063,907543191,piren,0.208213252438918,0.019106983601068692,0.009730615712868623,0.0018629000604627975,9.73996038754387e-05,0.0
2025/04/10 10:34:24.75760466,1744274064,73265461,piren,0.20395230674716908,0.005865568426361621,0.0036828976503853255,0.0020416245197535854,-0.0008371113496944918,0.02751814328597463
2025/04/10 10:34:24.161553686,1744274064,157454853,piren,0.20332539374417133,-0.0027442716856054383,-0.0004130717583722566,0.001689972332540182,-0.0015469339595203782,0.078189501915568
2025/04/10 10:34:24.328416300,1744274064,324880124,piren,0.20420284233755406,-0.007982031150185887,-0.002972208236895073,0.000660550485934886,-0.0016447346562141942,0.008136844666321415
2025/04/10 10:34:24.413222942,1744274064,410033419,piren,0.20724729695807578,-0.011392968515746926,-0.004732111856271574,-0.00020384474250234393,-0.001073647141441736,0.0
2025/04/10 10:34:24.582375650,1744274064,579787171,piren,0.2028301580965944,-0.012940757491696441,-0.005402625968965184,-0.0014978130314297752,0.00011537801946321516,0.035500247068527654
2025/04/10 10:34:24.669806477,1744274064,666943712,piren,0.20361757537034458,-0.011307657529323133,-0.00503105570778594,-0.002016307116423338,0.0008507367041258927,0.016674521352494646
2025/04/10 10:34:24.756032415,1744274064,753350995,piren,0.20517701121066234,-0.0076865858776269495,-0.00398332179078679,-0.0022204318464839772,0.0014333688570688295,0.0
2025/04/10 10:34:24.925653385,1744274064,922931162,piren,0.2015424942323079,-0.00499169693803162,-0.0032779141679656486,-0.0017479937586886956,0.0015947918868078645,0.008598045151311831
2025/04/10 10:34:25.10817017,1744274065,8544432,piren,0.20242472911186266,-0.0020982581778295037,-0.0025636522421392284,-0.0011217298673978937,0.0012231943000470952,0.019028105652495693
2025/04/10 10:34:25.122930520,1744274065,118186948,piren,0.20387752008277854,0.0017155229351832335,-0.0013841640538418444,0.0002934420528102546,0.0005517660280686946,0.01609066093004307
2025/04/10 10:34:25.207610878,1744274065,202676801,piren,0.193925110541204,0.11761048041576065,0.04279851561476966,0.0006344636435612297,-0.00020844501204438293,0.0
2025/04/10 10:34:25.375337719,1744274065,369797162,piren,0.19741329338562533,0.06442299400259832,0.022676448022467845,0.0022262205052152916,-0.001107989499850475,0.03255929662141661
2025/04/10 10:34:25.457826307,1744274065,455194849,piren,0.2028960728822312,0.01874143784730256,0.0051841152313611555,0.001910638967572129,-0.0012584438353196513,0.08945807386333016
2025/04/10 10:34:25.627273434,1744274065,624989263,piren,0.19943347136627376,0.017444886083513095,0.005999639857968966,0.001157726208625612,-0.001467407298289449,0.009120123793765453
2025/04/10 10:34:25.714508156,1744274065,712526617,piren,0.21949295972872274,-0.11764971483348712,-0.0535570291461751,0.0025828732852079296,-0.0008490313803895485,0.0
2025/04/10 10:34:25.885938845,1744274065,879920811,piren,0.198857563375941,0.020521389257965303,0.003693135991319131,0.0003585978919210021,0.00026421000859634994,0.034641162645053826
2025/04/10 10:34:25.968787888,1744274065,966926055,piren,0.2010223839287391,0.0009484210748727066,-0.001528743376300888,-0.0020771030129241377,0.0007713154260891573,0.019101240066651922
2025/04/10 10:34:26.138217536,1744274066,135435621,piren,0.2029112627830727,0.008246076459591089,0.003221739265150126,-0.0011551436468574929,0.0012216615765146947,0.009631113838196868
2025/04/10 10:34:26.224756318,1744274066,221936285,piren,0.1971111344404107,0.06147436524834152,0.02524643534764066,-0.0018756961776448047,0.0012080440067099433,0.017521648521261358
2025/04/10 10:34:26.311541458,1744274066,308301776,piren,0.1888027415580836,0.1326765980955773,0.05256003846942731,-0.002027496975071772,0.0009957792340884897,0.0
2025/04/10 10:34:26.479084081,1744274066,476246423,piren,0.19545990781730319,0.05810801391367054,0.02332716982070919,0.0006614332671810537,0.00027580117405133633,0.035263323036012706
2025/04/10 10:34:26.566929948,1744274066,562714374,piren,0.1917427687205872,0.10261135270625377,0.040157433068763515,-0.0018054283793844982,-0.00017643286936900538,0.09381115262429755
2025/04/10 10:34:26.734643875,1744274066,732410368,piren,0.20942922074964365,-0.07686920626592805,-0.03598727041443603,0.0017988076534438912,-0.0008128452442194425,0.009730067244707168
2025/04/10 10:34:26.821018321,1744274066,818912753,piren,0.20797779479189551,-0.01576309878132602,-0.009476553186116596,0.0021358644506208366,-0.0009218995297705911,0.017765547257483676
2025/04/10 10:34:26.908298715,1744274066,905232825,piren,0.20860806778755425,-0.052410759258600274,-0.022223414328202514,0.0021682733715096517,-0.0010052681474055946,0.0
2025/04/10 10:34:27.76619129,1744274067,73431625,piren,0.2051928885375218,-0.07198698296147053,-0.027603696200567858,0.0008359421176176795,-0.0007349227382211943,0.03551933908284049
2025/04/10 10:34:27.162761702,1744274067,159995236,piren,0.21364210970787093,-0.13226646711459547,-0.053879467810482355,0.0018798071604553812,-0.0004170318166200951,0.01952385075397834
2025/04/10 10:34:27.332585342,1744274067,329585742,piren,0.2090577260979898,-0.08293632505819881,-0.03289662936688828,0.0005796021433242626,0.0001724625423084113,0.009664820556554864
2025/04/10 10:34:27.446643741,1744274067,443790689,piren,0.19054374801248736,0.05859994381671674,0.0226800125003487,-0.0007275176162603711,0.0004548848667740344,0.017696090629715
2025/04/10 10:34:27.535868432,1744274067,533400149,piren,0.2011439938477451,-0.03846247687920333,-0.01831861017744267,-0.0013727916612709219,0.0005531845453016717,0.01784975541939659
2025/04/10 10:34:27.628356237,1744274067,621446453,piren,0.18438765346168107,0.09551548001663866,0.03489954039722014,-0.0020095337767620115,0.000525128765289763,0.01754760225818322
2025/04/10 10:34:27.713259916,1744274067,711017819,piren,0.20552821792621212,-0.06079191178537223,-0.03227952446800146,-0.001997684525437588,-4.636378399685138e-05,0.0
