time,header_stamp_secs,header_stamp_nsecs,header_frame_id,child_frame_id,pose_position_x,pose_position_y,pose_position_z,pose_orientation_x,pose_orientation_y,pose_orientation_z,pose_orientation_w,twist_linear_x,twist_linear_y,twist_linear_z,twist_angular_x,twist_angular_y,twist_angular_z,gps_status
2025/05/06 15:12:27.621616745,1746537147,606303228,piren,vessel_center,-478.5093269275836,-311.6724154502028,2.3238404053219597,-0.0005299188724863479,3.6543467559683786e-05,-0.09297709012394784,0.9956681066312443,-0.005980640972120333,-0.027007565758821808,-0.009856907151968996,0.0013372359154694982,6.971947879941989e-05,0.0005882375225352293,0
2025/05/06 15:12:27.969639314,1746537147,959469653,piren,vessel_center,-478.5072933125788,-311.6793172997587,2.3220190097292823,-0.003224184770677906,0.0004889926629141476,-0.0987339432389012,0.995108523715498,0.007834401333229955,-0.0003809859767893893,0.0014117248528738736,-0.0012112856702799451,-0.00047222404011164316,0.0014892850445478415,0
2025/05/06 15:12:28.345427819,1746537148,332273635,piren,vessel_center,-478.5038073924247,-311.6676376575501,2.327699423201438,-0.003138824277887774,0.0004543203233643895,-0.0984813651419135,0.9951338412972305,0.005190918175640156,0.02608057226111711,0.012163292686758807,-6.617362638246944e-05,-4.769660706166386e-06,0.0008711210534393988,0
2025/05/06 15:12:28.660574759,1746537148,656359116,piren,vessel_center,-478.5036876933736,-311.65356761400136,2.3338770917991787,0.028170488112561454,-0.0022779734651095116,-0.0988200340143275,0.9947038932837247,0.0018039035998755324,0.03595088002534837,0.01599950345821571,-0.0010839817910710883,0.0006880144388155297,0.0006347481798421159,0
2025/05/06 15:12:29.28545191,1746537149,19560123,piren,vessel_center,-478.51422033047936,-311.69506309542686,2.3149403154645163,0.001670693476250354,0.000312712588143909,-0.09881513566847165,0.9951043563149381,-0.023024788781412883,-0.08455891871367341,-0.03867589730642454,6.524611209496264e-05,-0.00078154279584555,0.000634764640539938,0
2025/05/06 15:12:29.333229055,1746537149,322508836,piren,vessel_center,-478.5171467795104,-311.7032729087642,2.311868160879196,-0.003129151104336593,0.00035542217622362975,-0.0987749043033295,0.9951048187845897,-0.014345372287379962,-0.04704042442258426,-0.019996933709027227,-0.0007836251271966879,-1.6568002367470655e-05,0.0006652378466941558,0
2025/05/06 15:12:29.645375987,1746537149,632296404,piren,vessel_center,-478.51681539364245,-311.6937984026548,2.316661143393713,0.0017333311025262042,-0.0002987583147519637,-0.0986871153798066,0.9951169577314876,-0.003825681654779931,0.006098957531958583,0.004293859092173339,0.0012672567281725626,0.0034568286243135903,0.0004661243295956898,0
2025/05/06 15:12:29.941687629,1746537149,935687402,piren,vessel_center,-478.51662556806156,-311.6856463109199,2.3210299573171707,-0.0028363012304719578,0.00014342526368213104,-0.0987762043412932,0.9951056206656914,-0.0009157111531293261,0.020250892007471044,0.011211222802735423,-7.070909132876535e-05,0.0003464029505180426,6.295139379828375e-05,0
2025/05/06 15:12:30.242362154,1746537150,234034691,piren,vessel_center,-478.514904392658,-311.6718957247886,2.3284257944297044,-0.01308665731727867,0.0009784343216256678,-0.09860819731456508,0.9950398009571829,0.003531886585233348,0.03707302830034721,0.0200424938031227,-8.067493705260705e-05,-0.003177553988630105,0.0007199314595648628,0
2025/05/06 15:12:30.536414099,1746537150,531201381,piren,vessel_center,-478.50973293514454,-311.6454615675979,2.3417009402231646,-0.004726307826321682,0.0002775822499002056,-0.09815030069205738,0.9951603405665261,0.012706476254788992,0.07147865275442243,0.03638534542464572,0.00018148440198374716,-0.0012072954686918006,0.0015630348970670912,0
2025/05/06 15:12:30.837649806,1746537150,830279508,piren,vessel_center,-478.50632074987465,-311.63770840731195,2.3477427480044866,-0.000244149185297238,-0.0004922771729388264,-0.09753332682978752,0.9952321077074806,0.011836345730807931,0.04115582670810952,0.025606166878384073,-0.0002828237964327814,0.0023383206196869004,0.0023920181342565344,0
2025/05/06 15:12:31.140679077,1746537151,132648333,piren,vessel_center,-478.504854384105,-311.64736308560083,2.34652824092727,-0.008198356760238428,0.0007897052142676349,-0.09721388800545633,0.9952294324882925,0.007017209909554492,-0.00844916545970547,0.005413481008714985,0.0005515050858585715,0.0020116386154872793,0.0017184181573651153,0
2025/05/06 15:12:31.443673909,1746537151,439620855,piren,vessel_center,-478.500115278268,-311.6529657169476,2.347267417911448,-0.0032466905687068667,0.00034075080756961065,-0.09739237217350265,0.9952407089401318,0.012963641509850401,-0.015378436091304609,0.0035051314089327296,0.0005489346947850259,-0.0020392778287573517,0.0006889671009316044,0
2025/05/06 15:12:31.742867089,1746537151,737688776,piren,vessel_center,-478.49604947393846,-311.67018659078,2.344016234988689,-0.0014564910983695908,0.0006849384899378757,-0.09767617688174217,0.9952169481890429,0.013209486595997202,-0.04327107620629205,-0.0061139083777215966,-0.0006122315894387273,-0.003971300864703159,-0.00011852049008597248,0
2025/05/06 15:12:32.85793687,1746537152,77081008,piren,vessel_center,-478.4903968999982,-311.6950792978294,2.3386692538476788,0.02720627107714118,-0.002029274621329586,-0.09782617932455075,0.9948295027276529,0.015554061017064793,-0.06512276416028681,-0.013268223240669993,-0.0010427765479485613,0.0007494430902623597,-0.00019689848044595292,0
2025/05/06 15:12:32.381400594,1746537152,377049099,piren,vessel_center,-478.49302571351234,-311.76287735290293,2.3126319798216532,-0.012676569795144295,0.002654449225438031,-0.09796605451103009,0.995105477143544,-0.0005931281006722761,-0.17265948251674626,-0.06234569721047503,0.00013809983910572594,0.0023861325268923397,-0.0005781748720226971,0
2025/05/06 15:12:32.680129152,1746537152,675850203,piren,vessel_center,-478.48036959628956,-311.7639187689827,2.3157036788374934,0.03015575383605288,-0.0017389522325983256,-0.0980605524230345,0.9947219383396556,0.027931017988248763,-0.06018500960039956,-0.014069187687520468,0.00027977101179619635,-0.0008561707522553743,-0.0003597947817721728,0
2025/05/06 15:12:32.989249690,1746537152,973000287,piren,vessel_center,-478.47768480883957,-311.8162153345511,2.2954705758634417,0.002719176512477913,0.0006932460446841798,-0.09792130308359764,0.9951902048811704,0.01503582370005473,-0.13608852390625498,-0.049665272446799136,-0.0005866182254136242,-0.001811499837199055,0.00021357933831404066,0
2025/05/06 15:12:33.273113146,1746537153,270188867,piren,vessel_center,-478.46594366599,-311.8214632399293,2.296689556754893,0.0317630062057598,-0.00239701539686572,-0.09764307702708837,0.9947116141187063,0.03130552888574142,-0.05882603657041682,-0.01450269739726115,-0.00015353266678043664,0.0008799110243702515,0.000686399697149202,0
2025/05/06 15:12:33.581167258,1746537153,575632848,piren,vessel_center,-478.4597303126582,-311.8597359204268,2.281773455972128,-0.004139436137069921,0.0011896731920440042,-0.09749696153931427,0.9952265029814895,0.0236422970255718,-0.1035434985506522,-0.0377086679925024,-0.0008722278075301343,0.0023403804665789183,0.0007214641571033359,0
2025/05/06 15:12:33.883035638,1746537153,877692404,piren,vessel_center,-478.4401436802068,-311.83529916655107,2.2949600644473414,-0.0034027465475091633,0.0010779923513188861,-0.09739889245262068,0.9952390240527281,0.05168420010736566,0.018610811629878737,0.016306242414609165,0.00111477556860715,-2.8899840808642e-05,0.0007928637890499636,0
2025/05/06 15:12:34.180676149,1746537154,177146311,piren,vessel_center,-478.4163924311133,-311.80028634439543,2.3131818776224544,0.004303155276906963,0.0001673821511852881,-0.097304912144611,0.9952453008733113,0.06938765106979201,0.08382530271701441,0.04574824288894073,0.0011060899080920688,-0.001967505671056814,0.0007056996430290889,0
2025/05/06 15:12:34.492041675,1746537154,476348958,piren,vessel_center,-478.39452857495667,-311.7809802161828,2.3248491345356754,-0.022386238842947253,0.0026994886302937823,-0.09719958970074094,0.9950094516302893,0.07247521586391496,0.07176023168694926,0.041676821402032355,0.000642848969219756,-0.0003097211571196902,0.0006838536349004758,0
2025/05/06 15:12:34.782730792,1746537154,778411795,piren,vessel_center,-478.36385197278673,-311.72812567426547,2.349691746306632,0.028276356292408374,-0.0019405294646990814,-0.0971221691623232,0.9948688186275749,0.09218281515609317,0.1412484793314438,0.06902007019728673,-0.001660966503229638,0.0014327525115075874,0.0006584967016995383,0
2025/05/06 15:12:35.126185165,1746537155,121327911,piren,vessel_center,-478.34447822077504,-311.7623932238749,2.3368297327809273,-0.005634895490420005,0.001757045738871394,-0.09706473110898972,0.9952605682522659,0.06359063600630191,-0.04472406496583928,-0.013223503722198063,-0.002104723788498741,-0.0011746290544411774,0.0005575051698887968,0
2025/05/06 15:12:35.429164212,1746537155,424570292,piren,vessel_center,-478.32119618851897,-311.77127296558723,2.335849164297276,-0.0026990012018100256,0.0012386156225176758,-0.09707024680841692,0.995273102423855,0.07325276076771854,-0.034861765414506876,-0.006651623030880575,-0.0005162433059605538,-0.001345207804267686,0.00034908068172907677,0
2025/05/06 15:12:35.737812206,1746537155,727640913,piren,vessel_center,-478.2976149223222,-311.7816006562339,2.334402330766071,8.81638146616443e-05,0.0010047630548048624,-0.0970457014167818,0.9952794152974683,0.0760200976027137,-0.034182773799693235,-0.005354007069152448,0.0003666416931307254,0.0009263171393492568,0.0005024789532016153,0
2025/05/06 15:12:36.33633998,1746537156,28715072,piren,vessel_center,-478.27504092519496,-311.7929889327219,2.331811940225808,0.019086374565042225,-0.00226130710451034,-0.09611696324418759,0.9951844684142019,0.07631839504783795,-0.03706864635792,-0.007599323628688995,-0.0008886071560376249,0.004388879587735288,0.003056508544835037,0
2025/05/06 15:12:36.334330067,1746537156,329606215,piren,vessel_center,-478.25979472592576,-311.832151710103,2.3155989261157033,0.002431915859690283,-0.0002860711950917231,-0.0955189804912994,0.9954245970009108,0.059411503754336195,-0.09943870941351589,-0.038575595754676936,0.0003649214284562575,0.0027008007215317017,0.002201112523477356,0
2025/05/06 15:12:36.641443309,1746537156,631584743,piren,vessel_center,-478.23903145939124,-311.8441233197446,2.3117173400315654,-0.0018566082779376378,9.898170507974488e-05,-0.09555330660876059,0.9954225780061735,0.0663285798616472,-0.0603416083296902,-0.021712142699245162,0.0011095807871356151,-0.004378461313681701,0.001495351088322292,0
2025/05/06 15:12:36.936000775,1746537156,932781369,piren,vessel_center,-478.2146836388836,-311.8415704884636,2.31531049950206,0.0038766013502525612,0.0007321750231159419,-0.09595556858412531,0.9953778000032972,0.07497432641034732,-0.01330396685684674,0.0011573293594549054,0.0017414336856773562,-0.005668366227868068,-0.0002159780284828937,0
2025/05/06 15:12:37.237300892,1746537157,231878768,piren,vessel_center,-478.18899357432616,-311.8434090814258,2.318128735115373,0.031561612899397774,-0.0021943033321417315,-0.09635739115246265,0.9948438584995972,0.08187263560894292,-0.0084662039303562,0.00666074615697677,-0.000940279455549334,0.00010200830033316456,-0.000619006293494399,0
2025/05/06 15:12:37.556896709,1746537157,538233896,piren,vessel_center,-478.17084636563726,-311.8895611301631,2.299808402953107,-0.003581926627242081,0.0015019403111963087,-0.09642853099266138,0.9953323326344503,0.06790360741429152,-0.10542980121654137,-0.03847645509089642,-0.002002218870087209,0.0053171225198777395,-0.0002812937662394245,0
2025/05/06 15:12:37.848619632,1746537157,843378225,piren,vessel_center,-478.1400125298735,-311.88075867515903,2.3059321841924554,0.014615803532119422,-9.394117382636319e-05,-0.09641956832770841,0.9952334581924308,0.09165639146108345,-0.01620608442071854,0.0005632626639358596,-0.0002551090032747123,0.0009373865376376984,-0.00024661339587254917,0
2025/05/06 15:12:38.161294156,1746537158,155399575,piren,vessel_center,-478.1111651916658,-311.8903039106089,2.3041300725728515,0.026583860563536624,-0.0015264841560923786,-0.09647721467095087,0.9949789521658209,0.0948686918443856,-0.026660651870269718,-0.0038199222842844154,0.00022420721845598117,-0.0044002817274555244,-0.00027851585839843584,0
2025/05/06 15:12:38.532741468,1746537158,510666413,piren,vessel_center,-478.0810160751657,-311.92134692663626,2.292730926570708,-0.007639813934702971,0.0014848425753022064,-0.0965533587937178,0.9952973813846901,0.08835522259169024,-0.07499189803524997,-0.026193860974694057,-0.00046476998039994473,-0.0005313688263947578,-0.000339877717491617,0
2025/05/06 15:12:38.820116915,1746537158,813274708,piren,vessel_center,-478.03886943153657,-311.896050892194,2.305643329833889,0.03155350164574895,-0.003208673827885574,-0.09633080259147322,0.9948439362122286,0.11364421302441782,0.03927772600905016,0.02278055891174421,-0.0014170416617003921,0.006873446990212823,2.9517781535197614e-05,0
2025/05/06 15:12:39.121868656,1746537159,115011140,piren,vessel_center,-478.01124004022466,-311.9194097071788,2.294851381772715,-0.006522157207804992,0.0008411829485335445,-0.09623374331517064,0.9953370386578376,0.09930721177420322,-0.03885234084491414,-0.016405883364794146,-4.6684792348909367e-05,0.002475538544949072,0.0005336878135055485,0
2025/05/06 15:12:39.430948071,1746537159,416676084,piren,vessel_center,-477.97092711704835,-311.8898669885968,2.3087929407885754,0.00121154035585189,-0.002607049844189017,-0.09627218164870775,0.9953508941582734,0.12084499385368884,0.053512244276908386,0.02585869732991358,0.0017532176594247486,-0.005388959579417799,0.00012931837680402555,0
2025/05/06 15:12:39.727118231,1746537159,723180384,piren,vessel_center,-477.93673212654875,-311.8693015685576,2.3202881505247093,0.002390393134033657,-7.566413960233802e-05,-0.09661138553516914,0.9953193057911505,0.11734791307503668,0.06401718709676105,0.034396369735480284,0.001419919395767984,-0.0037970465806951084,-0.000922274704339792,0
2025/05/06 15:12:40.29129402,1746537160,23811946,piren,vessel_center,-477.8983359321916,-311.8588727093406,2.328599435662676,0.0001909923836759948,-0.0006782306394610229,-0.09661074501347323,0.9953219918564298,0.12567215970716472,0.04518439219186847,0.030295437107850723,-0.00113889716166443,0.004739932428353126,0.0,0
2025/05/06 15:12:40.346435295,1746537160,326870362,piren,vessel_center,-477.85781034404374,-311.85271818129723,2.334770838363365,-0.027214127874396737,0.00100339744554123,-0.09715459029958853,0.9948966629863232,0.13149939164550245,0.028572659041856685,0.023702786081591844,0.0004353178685032525,0.006574978267112474,-0.0019520285440867856,0
2025/05/06 15:12:40.634821960,1746537160,631045129,piren,vessel_center,-477.8094760919118,-311.80862238479824,2.3554195204587165,0.02761852989565707,-0.0030789874472666547,-0.09741969433324278,0.994855336116121,0.15149707958780723,0.1075823217205202,0.053837077719865525,-0.0009155004967008313,-0.0018385203523740735,-0.0009743247834302881,0
2025/05/06 15:12:40.938726012,1746537160,932191133,piren,vessel_center,-477.7758956367847,-311.8613263906211,2.336077706023204,-0.017806494018823414,0.0022575655563974385,-0.09775990615283574,0.9950481560796467,0.12322339158481568,-0.08311888776856859,-0.02591977062778089,0.001395790161025525,-0.009065528304775456,-0.002302478859453871,0
2025/05/06 15:12:41.243599105,1746537161,235929654,piren,vessel_center,-477.72998260139804,-311.8636291956557,2.3410589417355405,-0.0003939823498901254,3.514476076688238e-06,-0.0983810690590708,0.995148737634908,0.14467326421836346,-0.03386931909403711,0.0021060359857423376,3.775459137273818e-05,-0.002216573366699599,-0.0025394221372046534,0
2025/05/06 15:12:41.585811849,1746537161,580154012,piren,vessel_center,-477.6786927112565,-311.8897154759825,2.337835534954049,0.030700909449189264,-0.0016961270427392275,-0.09887069149450729,0.9946251372630021,0.14363055851413278,-0.06491480229419676,-0.006732377751698137,-0.0013907960402434892,0.007796359965285916,-0.0025387997852136077,0
2025/05/06 15:12:41.886397522,1746537161,882653837,piren,vessel_center,-477.64309753355093,-311.96490667997136,2.310614917530777,0.026737997898095944,-0.0011676629967283417,-0.09942926684534824,0.9946846419474487,0.12917872830298635,-0.1897398384548064,-0.06284407558569238,-0.0025569711856674783,-0.0008306235366093891,-0.003836522358528839,0
2025/05/06 15:12:42.203123359,1746537162,186980680,piren,vessel_center,-477.604034524095,-312.03722115343174,2.285348688010044,-0.025017579792841912,0.003431119526412059,-0.09998094284800947,0.9946688691154093,0.1282345844112571,-0.22155541957149533,-0.07630418018704813,0.0025980216586940926,-0.006949145340610023,-0.003426326308833327,0
2025/05/06 15:12:42.496904087,1746537162,490291260,piren,vessel_center,-477.5466860070804,-312.0082908824264,2.303533703202535,0.013370703764684534,-0.0007437687644143944,-0.10034310409671553,0.9948627707121711,0.170912942373525,-0.01079097855722419,0.014555015996455825,0.00175727390855427,-0.0004537391251362499,-0.0032455430924489105,0
2025/05/06 15:12:42.822128463,1746537162,817639888,piren,vessel_center,-477.4877412102761,-312.016530448659,2.3066558930549594,-0.030061069922285293,0.0038119270187579562,-0.10072103292941038,0.994453153654391,0.1679179680007566,-0.020654613324449636,0.010077742388926683,-9.737525851257743e-05,0.007277422594130372,-0.0026931033539442043,0
2025/05/06 15:12:43.141601289,1746537163,125858931,piren,vessel_center,-477.4222922510664,-311.9535546774937,2.336661233824649,0.02297706546794808,-0.001453554957318647,-0.10102475805201155,0.9946174842123983,0.20361492112474494,0.13284922033490193,0.07019132540115589,-0.001843524265865771,0.0007976815196330854,-0.0024552839083736683,0
2025/05/06 15:12:43.452231486,1746537163,433067182,piren,vessel_center,-477.37036202107737,-311.97640226386227,2.3308849504728766,0.02820943696522663,-0.002339142857687544,-0.10119303410195807,0.9944640395338769,0.18148158430603886,-0.007682253198208394,0.009933379521410865,-0.001578561184040086,-0.006177722526125961,-0.0018935806068716308,0
2025/05/06 15:12:43.769967471,1746537163,765727339,piren,vessel_center,-477.314749713684,-312.0332044487242,2.311607785450724,-0.023514171768908788,0.002442725535400999,-0.1015353277173247,0.9945510012278488,0.16306711134652702,-0.12793759108239963,-0.040693015917675865,0.0005518798755823627,-4.9149600624334834e-05,-0.0021727912136124605,0
2025/05/06 15:12:44.84430763,1746537164,70027446,piren,vessel_center,-477.25167104918324,-312.0096384942573,2.326202040658491,0.002000551582580891,0.00013752087998539228,-0.10205131726564952,0.9947771144963674,0.1964195649932209,0.00826388577725129,0.018405504580258136,0.001111679657069132,0.006084866491282802,-0.0034413310648434116,0
2025/05/06 15:12:44.377327658,1746537164,373714657,piren,vessel_center,-477.1901078986234,-312.0143752344689,2.3297609619978283,-0.003420187462681854,0.0008964898376065062,-0.10289054241916011,0.9946864002812054,0.20035955002385905,-0.007853975325724148,0.013863393444623395,-0.002155198139819469,0.001305253734086865,-0.004119759793075193,0
2025/05/06 15:12:44.720460269,1746537164,715379700,piren,vessel_center,-477.1161295091872,-312.0182244842678,2.335363137310043,-0.0034439567282632247,0.0003905937757045148,-0.10377059799724923,0.9945952189659115,0.20995448059347852,-0.010340238175239845,0.015601813033739132,-0.0024481863720327954,-0.004960166305105412,-0.0047540132989679984,0
2025/05/06 15:12:45.25176738,1746537165,15521579,piren,vessel_center,-477.0508252422398,-312.0267050524916,2.338882706597152,-0.033269158164053084,0.003378591781213973,-0.10450721284575298,0.9939617652082215,0.21313720961761662,-0.022198011213594777,0.012874979657091968,-5.47133559037846e-05,-0.0007724283959407618,-0.006343753905800622,0
2025/05/06 15:12:45.329881907,1746537165,321873510,piren,vessel_center,-476.9761984160024,-311.9886644578753,2.3597025446093767,-0.029398303682842918,0.00323377445637413,-0.10606644892263464,0.9939191067970667,0.2386500247072037,0.07700294306073419,0.050683088183013786,0.0022218043552448595,0.004054235473703511,-0.006707476039912755,0
2025/05/06 15:12:45.629380469,1746537165,625716054,piren,vessel_center,-476.9014148406658,-311.95632719194356,2.377872211495969,0.03209045111576338,-0.002722557792447289,-0.106078051895114,0.9938361220706314,0.2482009492394356,0.09832915765118785,0.05779647902793325,0.0002683797549994511,0.0005240410018075555,0.0,0
2025/05/06 15:12:45.942625413,1746537165,928332225,piren,vessel_center,-476.8461126455486,-312.03854944046583,2.347554848317619,0.000955058871016708,0.00019700622945861257,-0.10717676971767492,0.9942395028784479,0.2035642155076859,-0.15084012627275978,-0.04862130803030833,-0.0012586637436533257,-0.0037643736210876432,-0.009884799317439845,0
2025/05/06 15:12:46.237753800,1746537166,230208952,piren,vessel_center,-476.7844387003376,-312.09491950947165,2.331283412029226,0.005660299868109009,-0.00033632365178611165,-0.10717821143123311,0.9942236563702386,0.20542262403791953,-0.1759321281169373,-0.05248934224262658,-0.00027386674891233807,-0.0011027530128431917,0.0,0
2025/05/06 15:12:46.538574353,1746537166,532240238,piren,vessel_center,-476.7188461513738,-312.14952386262235,2.3165578296474973,-0.00744467295276081,0.0012767488970433978,-0.1085354901302756,0.9940638782991067,0.2121068054504123,-0.17816356463749752,-0.049675480989869916,-0.00035454529651275353,0.002993364397083437,-0.00921082572022671,0
2025/05/06 15:12:46.852590756,1746537166,835837354,piren,vessel_center,-476.6455389295288,-312.1670573980828,2.317171008372828,-0.002922125813677393,0.0009558480533294448,-0.10969924583293138,0.9939600711290741,0.23533508390387411,-0.09978541569880645,-0.015593591935436177,0.00037887805904832214,0.0016122961545739934,-0.003798433493794436,0
2025/05/06 15:12:47.144709614,1746537167,138876411,piren,vessel_center,-476.5676597205654,-312.17726192244027,2.3208481479201186,0.0007034999049681359,0.0005367359272759225,-0.10925104923755853,0.9940137952980937,0.24925685056296076,-0.054974748603171524,0.003126117235748283,0.0002692488081296903,-0.0023822082566186857,-0.003021188089657572,0
2025/05/06 15:12:47.446290192,1746537167,442388477,piren,vessel_center,-476.48870665459145,-312.18767567509263,2.3242874823763144,0.029132108975933203,-0.002771639389388848,-0.10946273929073824,0.9935600369120517,0.2596544252814512,-0.0417106628985489,0.00869986270292894,-0.002208694180372433,-0.0012718828009726985,-0.002733590024298557,0
2025/05/06 15:12:47.798225574,1746537167,794191101,piren,vessel_center,-476.4042996080647,-312.2462110777086,2.3063266955698607,-0.00019187821865659493,-0.00030160069365963425,-0.10984579657450465,0.9939485767355791,0.24642430200533472,-0.1396032071905206,-0.037973506842329634,-0.0009719837443965839,0.003899021154164051,-0.002431949649704384,0
2025/05/06 15:12:48.100888798,1746537168,96084547,piren,vessel_center,-476.3213517157217,-312.25920666892057,2.3075575509082302,-0.0002994584702636446,0.0002714389652010113,-0.11014465777100148,0.993915484842661,0.26401077894438474,-0.07400104231905925,-0.00953570613862123,0.0008406473705199838,0.0019958872452115954,-0.002912860462804356,0
2025/05/06 15:12:48.411456920,1746537168,407940974,piren,vessel_center,-476.23582740981976,-312.26178600993364,2.3140414953899153,0.0013366567011896847,-0.00010951424805883685,-0.1105003128174311,0.9938751844284787,0.2787220367969441,-0.030578847519154358,0.01120900532247912,0.00191127310230951,-0.004545778726995584,-0.002676720670659607,0
2025/05/06 15:12:48.727435159,1746537168,722773264,piren,vessel_center,-476.1357894359105,-312.2687461260875,2.321348311724439,0.020493107095742587,-0.0007419338864930515,-0.11074725332120906,0.9936370202329815,0.28461208749745326,-0.02230128138780811,0.018744038070319498,-0.0008949969562185162,-0.003289871739215041,-0.002126721521757044,0
2025/05/06 15:12:49.39572695,1746537169,28922919,piren,vessel_center,-476.05432208696703,-312.30981509157084,2.3129369821370203,-0.029937353463503312,0.004689214675599417,-0.1108897581018508,0.993370639631271,0.27953966327477264,-0.0989956660179355,-0.012209929675926181,-0.00137651202475464,0.0007234715837219125,-0.0020682419460500002,0
2025/05/06 15:12:49.341822132,1746537169,336480048,piren,vessel_center,-475.9514708016649,-312.27409068115804,2.3363927748807622,0.006542403047350859,0.00038753956908891987,-0.1108169253244279,0.9938192269407392,0.3188069288790759,0.0474708923667099,0.04819899675818011,-0.0008506506777692379,0.0033876502262968015,-0.0005361840308891071,0
2025/05/06 15:12:49.644865330,1746537169,639979520,piren,vessel_center,-475.8633313928706,-312.29001799887715,2.3385589458282627,-0.02390059914945464,0.0022349929794215416,-0.10971984447489354,0.9936726432256673,0.30628974169035267,-0.01896199200996261,0.021504315247958882,0.0011011178153110582,-0.0013785551915326873,0.0024430593395344423,0
2025/05/06 15:12:49.946239633,1746537169,942158670,piren,vessel_center,-475.7670596607421,-312.2680416274276,2.355534041072746,-0.015655925633325327,0.0015389583194139373,-0.10849352131303613,0.9939726753955326,0.31333341903937273,0.042703752042235005,0.04470857865916156,0.0013683901890030237,0.0035223062618050713,0.003689005821485183,0
2025/05/06 15:12:50.249273491,1746537170,243237417,piren,vessel_center,-475.6750863920371,-312.2615292477146,2.3656379274938466,0.00020623363556226403,9.211629300261793e-05,-0.10779516412603304,0.9941730994013657,0.30666284198055127,0.02840069401127084,0.037041494088730184,2.465996773990426e-05,0.0016995482489589693,0.0034926917710887675,0
2025/05/06 15:12:50.557498418,1746537170,553087750,piren,vessel_center,-475.5914279404949,-312.29366582696434,2.3598354584450973,0.027366989626752124,-0.002803970439736105,-0.10729775654654708,0.9938462542408761,0.28668894302418285,-0.06209984137485616,-0.0007286010041279295,-0.0017740797886012685,-0.003225318377396983,0.003390817765398352,0
2025/05/06 15:12:50.873450602,1746537170,854864345,piren,vessel_center,-475.52151813183485,-312.3838719965227,2.3283887231535245,0.0027410808699267143,0.00017184600853294653,-0.10686979042023503,0.9942692315666561,0.2544115438510291,-0.22194460440518876,-0.07014578832810112,0.0001348231097274831,-0.003929674567465117,0.0033543848971505086,0
2025/05/06 15:12:51.203981308,1746537171,192730217,piren,vessel_center,-475.42881485068904,-312.4473357547679,2.311468645863119,0.02857854607085257,-0.0025635525916382867,-0.10610748862975763,0.9939405896527579,0.26411975967253076,-0.19172326112425206,-0.053620971628023165,7.094369543285578e-05,0.0027158245655098776,0.003597529664253952,0
2025/05/06 15:12:51.504073699,1746537171,497897656,piren,vessel_center,-475.3527129719321,-312.5233132598394,2.286215550874432,0.015704459600262153,-0.0007896647865674319,-0.10550754629051906,0.9942941738006628,0.25511900171854923,-0.23127517556285918,-0.07358137742957555,-0.00043926238781876435,0.003466007975539355,0.004524685597656293,0
2025/05/06 15:12:51.812467411,1746537171,807838972,piren,vessel_center,-475.26997896308836,-312.5649654739851,2.276276350632875,-0.003243214343477689,0.001162960806816562,-0.10476939893802965,0.9944905741780805,0.2672474667751432,-0.16803919250473834,-0.046089006406372465,-0.0011824378715964686,-0.0018888363077139657,0.0046755752705978275,0
2025/05/06 15:12:52.125187990,1746537172,109719465,piren,vessel_center,-475.165166731177,-312.56143644723386,2.287754792126218,-0.0036741945596853952,0.00071739547863238,-0.10400808873936489,0.994569405881183,0.29504065842479593,-0.03119237960490817,0.014805623406971453,-0.0018320109137763094,-0.002943695639812972,0.00491095497589573,0
2025/05/06 15:12:52.418423463,1746537172,411369066,piren,vessel_center,-475.0713637176594,-312.5334442986714,2.3083733042138053,-0.0026856005811316925,0.0005221633946635689,-0.10343975565441736,0.9946319579849938,0.3083933453175634,0.051654814398216786,0.050840962089639535,0.001314768790723152,0.002280046403233939,0.005779600971796657,0
2025/05/06 15:12:52.723231831,1746537172,716057929,piren,vessel_center,-474.97800989890465,-312.50597382972643,2.3279954854087155,0.0037283076635109863,9.613171746236855e-05,-0.10277620990826007,0.9946975123913564,0.3063209446873318,0.07763098808918631,0.05991308507811877,0.0011896659218502558,0.0036449075775099537,0.005456800664864161,0
2025/05/06 15:12:53.30580971,1746537173,20453010,piren,vessel_center,-474.8927154808263,-312.49975143741256,2.3375643434564495,0.001974517956915176,0.0003425549562033971,-0.10234186015643204,0.9947472682016579,0.2922829994341557,0.03985475128874942,0.041354239131789094,0.0015086787868109795,-0.0014314049569301142,0.00525045974783048,0
2025/05/06 15:12:53.329748876,1746537173,324980715,piren,vessel_center,-474.81108420739434,-312.50681052918367,2.341494541538847,0.028343488680790712,-0.0026200931425697893,-0.10192885612712682,0.9943843774164706,0.27701224679308345,-0.0026567170810717355,0.02225839899536245,-0.0008020085876288087,-0.003642586025072131,0.004646727117186341,0
2025/05/06 15:12:53.633534155,1746537173,629215208,piren,vessel_center,-474.7442250040252,-312.56868136034893,2.320241218252233,-0.008753522935262594,0.0009367492332688052,-0.10151087015228207,0.9947954772605384,0.24365770468971298,-0.13844149537148903,-0.03960653489997754,-0.0007023445299315763,0.002229545775285818,0.0033461192119941183,0
2025/05/06 15:12:53.976749474,1746537173,970809950,piren,vessel_center,-474.6548550815163,-312.58365584904686,2.3209472564792453,0.01996287869610649,-0.0016553309629228252,-0.1018286198095276,0.9946002591701123,0.253091208280239,-0.06422690118779381,-0.007284056282307688,-0.0008966786608971228,0.002701837299536388,0.0009436224416139177,0
2025/05/06 15:12:54.281720692,1746537174,275209412,piren,vessel_center,-474.58702060720566,-312.6273949345904,2.308083113937218,-0.03281764569311951,0.0036779315653660757,-0.10223779314740826,0.9942117021051952,0.23557463176180157,-0.11873188043327854,-0.03103104303304485,0.0017760717712278686,-0.002241093008144744,0.00026637249167183467,0
2025/05/06 15:12:54.584049108,1746537174,579155416,piren,vessel_center,-474.5033899220286,-312.5851326154326,2.3312824228269298,-0.003992524700057542,0.0005345626868986887,-0.10261211800700709,0.9947132889568578,0.2625825725847792,0.05526721489063721,0.04145681732843384,5.264431343068998e-05,-0.003226552153193742,-0.0006073010963841535,0
2025/05/06 15:12:54.891375205,1746537174,885286888,piren,vessel_center,-474.43125303472567,-312.57851767182433,2.34145595063046,0.00045126025585914066,-0.00033932332783180016,-0.10300863684921417,0.9946803013824731,0.25054130511907735,0.03369065450097015,0.036854297780154026,-0.0009766231317287352,0.004002500070686466,-0.001289009676478944,0
2025/05/06 15:12:55.197989705,1746537175,193490465,piren,vessel_center,-474.3625491145856,-312.59004888592017,2.3442404639306726,-1.0384441056844287e-05,0.00017204812633998896,-0.10368176468902195,0.9946105076674869,0.23211720040380918,-0.014949893480752041,0.01787090530668975,-0.000970855222141525,0.0030058195888076305,-0.0026685588308246527,0
2025/05/06 15:12:55.507893425,1746537175,503745496,piren,vessel_center,-474.2992180557603,-312.6122537403895,2.3425223696461877,-0.03323953721464974,0.0038061188840696055,-0.104196096595224,0.9939938732603512,0.22023819471610317,-0.054514483615912,0.002284837294640369,0.0007523110845761938,-0.002756186583329674,-0.0030813429823941,0
2025/05/06 15:12:55.815980767,1746537175,810471291,piren,vessel_center,-474.21550771247973,-312.5887729225653,2.3600808321256563,-0.00394318774939778,0.00039819639619019666,-0.10503362443957918,0.9944607737095961,0.23676232889574772,0.039818646677577375,0.03962007677111762,0.0009083935849613224,-0.0034381643500487127,-0.0037945107694720083,0
2025/05/06 15:12:56.139978450,1746537176,117865805,piren,vessel_center,-474.1533181042239,-312.60897306780106,2.3597218682534513,0.028528543306883217,-0.0029950735414746104,-0.10567654975703306,0.9939867295807916,0.214915347901024,-0.03200142523346538,0.012035048340947919,-0.00041659805656772344,0.002574767837092313,-0.005136078771169622,0
2025/05/06 15:12:56.431663412,1746537176,426103810,piren,vessel_center,-474.10696066370616,-312.69378067335236,2.3298257486599074,0.029476898836428816,-0.0028268726862419402,-0.10684967251532207,0.9938341253494827,0.1748364247082011,-0.19918440207688898,-0.06242603048703246,-0.0017998077136481085,0.0035237811574887817,-0.0052228516500614835,0
2025/05/06 15:12:56.778581438,1746537176,774950512,piren,vessel_center,-474.0536724925353,-312.79480557500983,2.293729388817768,-0.021677380388396186,0.0029973953030999695,-0.1075948596028806,0.9939539491283941,0.15794630335076387,-0.26954345048125056,-0.09433237474891017,-0.0006184411074103329,-0.002803189216580061,-0.004632199861455798,0
2025/05/06 15:12:57.88145144,1746537177,83993359,piren,vessel_center,-473.9878144726076,-312.7911359672738,2.302914861022072,-0.010841998306560775,0.0014587629815664858,-0.10836432382291263,0.9940510532189416,0.1972299743864826,-0.0786357251082331,-0.00995944847074301,0.0019356141356143969,-0.00428793322825917,-0.0059523412743256255,0
2025/05/06 15:12:57.395431702,1746537177,388536655,piren,vessel_center,-473.9231269302611,-312.77542186739004,2.3182511123805063,-0.003171500336452721,0.0006381985637753151,-0.10944380507762794,0.9939877201547006,0.21114927883750195,0.008060535012464731,0.030682691041651583,0.0010562403681091985,0.0017003504806962864,-0.0066175597268652835,0
2025/05/06 15:12:57.701380863,1746537177,695529230,piren,vessel_center,-473.86005601819494,-312.7663361612677,2.3307038385338577,0.020188267514315246,-0.0014450338642551855,-0.11052764343496187,0.9936669390538339,0.20842897799361734,0.022798152467749366,0.03759415188813489,-0.001649047001707517,0.0035850520815578096,-0.006917377305467042,0
2025/05/06 15:12:58.5458579,1746537178,1992345,piren,vessel_center,-473.8085190715736,-312.8013380365095,2.32264042557078,-0.000517724769857429,0.0008228904915225226,-0.11164520409828566,0.9937476557024695,0.18685195600860452,-0.06988351125451067,-0.004878801083840992,-0.0017020079024135865,-0.0008817562465117951,-0.007837799848290875,0
2025/05/06 15:12:58.316176795,1746537178,308255177,piren,vessel_center,-473.75054655444643,-312.81416014921945,2.3247656263948335,-0.024613720882664378,0.003318064189896628,-0.11289217735935875,0.993296789225358,0.18963425955225857,-0.05123212054158961,0.0031363606391761802,0.00012387088198124476,-0.0032402086034322196,-0.00815041476891862,0
2025/05/06 15:12:58.620603506,1746537178,614711402,piren,vessel_center,-473.6764091025083,-312.78695404509773,2.343683471410217,0.025654205815611265,-0.0007311209256338783,-0.11442000404605038,0.9931008961129097,0.20881637986112792,0.048846509273153566,0.04287844659241327,0.00014459203889760148,-0.0020335924348237862,-0.008878181477054126,0
2025/05/06 15:12:58.928427768,1746537178,922723776,piren,vessel_center,-473.62727042305227,-312.83546022713455,2.3281848789504402,0.014164486574038654,-0.0020541939093021047,-0.1147919572549978,0.9932864411422536,0.17530756335477263,-0.09257531082353074,-0.020972102883314275,0.00189346332522572,0.005990514462875928,-0.007750144462418407,0
2025/05/06 15:12:59.237465428,1746537179,232441230,piren,vessel_center,-473.5836725683506,-312.8780981393923,2.314488865530153,0.0008224785383573801,0.00014041035824950368,-0.11631270423424082,0.993212292839604,0.15707579429213211,-0.12654639487473052,-0.03764058987292056,-0.000208793367088134,0.0033162173284424544,-0.008196781075636319,0
2025/05/06 15:12:59.566233093,1746537179,542375288,piren,vessel_center,-473.5336488946443,-312.89604839915654,2.3122903272149595,0.0013153062835235471,-4.998071109354012e-05,-0.11727451687151083,0.9930986633582097,0.1636420942841599,-0.08215861937092034,-0.01745705668431927,-0.0005972468448574332,-0.0048444757990047955,-0.006790344998681702,0
2025/05/06 15:12:59.917594666,1746537179,901026341,piren,vessel_center,-473.4730563126974,-312.91105355354,2.3137662423915244,0.00024017874709498043,-0.00021389985363291802,-0.11842695753995579,0.992962714450473,0.16891534396440905,-0.050543405816051226,-0.00037314347582355703,0.0003719029002059342,-0.0037357641155218776,-0.007081837101702277,0
2025/05/06 15:13:00.230603097,1746537180,225732538,piren,vessel_center,-473.41303024856836,-312.91655342679957,2.319341730401008,-0.033421108631693064,0.00027025078461661526,-0.12030029758179193,0.9921747804011521,0.17312173809377812,-0.02410482683380854,0.012304680134482136,0.0014777200813197594,0.008881649793888738,-0.00802012584766213,0
2025/05/06 15:13:00.540925137,1746537180,532480078,piren,vessel_center,-473.3527508893461,-312.85998314340605,2.347005153410986,-0.0006257046460439276,-0.0008368355795851744,-0.12024504017052667,0.9927436922561116,0.18942714476943395,0.11803692923049361,0.06543468473229919,0.0006633961152237809,0.005578476233364163,0.0,0
2025/05/06 15:13:00.864069575,1746537180,841074774,piren,vessel_center,-473.3025138138259,-312.85898418704136,2.353661920430395,-0.0006077171387019542,-7.096193023712698e-05,-0.12252776680348446,0.9924648971154773,0.17627364787690597,0.04248483144879224,0.03711625392792979,-0.00089228625625542,-0.008868801996435399,-0.01662010662356853,0
2025/05/06 15:13:01.151926766,1746537181,148339412,piren,vessel_center,-473.2550729216426,-312.88212376436735,2.3527657336737025,-0.031507222175509615,0.003196851613621505,-0.1253232177533237,0.9916103903159228,0.16293556168325296,-0.037610858900461105,0.010102110033857175,-0.00025608271980132724,-0.0072375708693917,-0.008991370693139171,0
2025/05/06 15:13:01.462783078,1746537181,457241453,piren,vessel_center,-473.2006610340052,-312.86753413844013,2.367002674456221,-0.004654078821805652,-0.00030105102372927407,-0.12561646735430781,0.9920679170540824,0.17722822070377361,0.019434549011567055,0.03513389336390216,0.0015706171904627821,0.006019019982378451,-0.009445303790042298,0
2025/05/06 15:13:01.769495704,1746537181,762849195,piren,vessel_center,-473.1565290782348,-312.8965348634353,2.363668209369234,-0.002040841121645501,0.0002811065145277738,-0.12756951775659245,0.991827492100312,0.15615800546538622,-0.05814129312748214,0.004082104032905789,0.00042864065233932377,0.007300730923938337,-0.010291378866692926,0
2025/05/06 15:13:02.76763943,1746537182,69916783,piren,vessel_center,-473.10955345125853,-312.9448775198582,2.353893355486634,0.02605719260965947,-0.002645726379594118,-0.12992282197647093,0.9911781288824415,0.14023945117423892,-0.12078175247365783,-0.020786959031508685,-0.0014853442470349732,-0.008597088816068082,-0.011551752880722872,0
2025/05/06 15:13:02.380549053,1746537182,377151333,piren,vessel_center,-473.0831800038406,-313.0417754231206,2.3216840355085573,0.0034324108177780357,-0.000322940378862835,-0.13171891920347348,0.9912811107800645,0.10308116243427348,-0.2536492886097216,-0.07817507205258481,-0.00048480975788865006,-0.005993486426901502,-0.013256268701005988,0
2025/05/06 15:13:02.731082405,1746537182,727611786,piren,vessel_center,-473.0444478855337,-313.1067100456197,2.305025231070775,0.016316979411386774,-0.0018908715670135645,-0.13487769879644515,0.9907260908823291,0.11033724166163693,-0.20399377699022753,-0.05541578515924557,-0.0003335171506523195,0.007969781922131457,-0.012965971503640783,0
2025/05/06 15:13:03.53749263,1746537183,34821964,piren,vessel_center,-473.0118256351552,-313.15683900342543,2.291235851604684,0.02595740249193251,-0.0020525715368869004,-0.13484424100150577,0.9905246240627669,0.10815499664131521,-0.1773242276627565,-0.0485523690364174,-0.001195061176682164,0.004895941918156503,0.0,0
2025/05/06 15:13:03.356180102,1746537183,350521818,piren,vessel_center,-472.97872965133723,-313.2053918794563,2.276570046251655,-0.005070707368941627,0.0005154746582259456,-0.13656914096202435,0.9906174296616984,0.1102182024151719,-0.1680162193024893,-0.049052969313426203,-0.0006026183614850447,-0.0043905114312032464,-0.020707986616638956,0
2025/05/06 15:13:03.671392122,1746537183,665224454,piren,vessel_center,-472.9261727679857,-313.19914436876974,2.288315249036051,0.001030712499110535,-0.0004183603897111335,-0.13996058536744432,0.9901564508449819,0.1410676824285022,-0.02307611617429703,0.015315122083828694,0.00115246227580064,-0.0029308703103724273,-0.009738262693996991,0
2025/05/06 15:13:03.979699426,1746537183,974096914,piren,vessel_center,-472.88020423327396,-313.17781426084804,2.3055273001864482,-0.024243662539737306,0.004314583587362195,-0.13955061717611061,0.9899087101550799,0.148319447479071,0.03985716760098565,0.043265002784809194,0.0003912856731183076,0.003178860867927975,-0.011605524625764235,0
2025/05/06 15:13:04.286636969,1746537184,281384282,piren,vessel_center,-472.82099116817983,-313.1168295329778,2.338689930088002,0.026610258779807848,-0.003717765724308095,-0.14102841884383735,0.9896408729554869,0.18346704247824192,0.14947169895199347,0.08883172822048144,-0.0020010435493234887,0.0035169483946058066,-0.01128311496829292,0
2025/05/06 15:13:04.596032064,1746537184,590991766,piren,vessel_center,-472.7868648848225,-313.1447159537833,2.332902806734863,-0.0014132755128454064,0.0003417347240310246,-0.1424922748608386,0.9897948461548416,0.1344825403654798,-0.014208255077709897,0.015528129235437893,0.0001652022058231611,-0.0013776171464199966,-0.010573909104598017,0
2025/05/06 15:13:04.914244650,1746537184,908748858,piren,vessel_center,-472.74965152716476,-313.157165989566,2.3358521280882854,-0.0014599092527441142,0.00011100275004060085,-0.14386939545750255,0.989595600937098,0.1275079369490416,-0.03240535174827476,0.011727586603593698,0.0012287269408750726,-0.003830913767463719,-0.011133348236714453,0
2025/05/06 15:13:05.242395580,1746537185,219694296,piren,vessel_center,-472.70971524570945,-313.1779909920804,2.337359857014166,0.02642524570083273,-0.003885443151116126,-0.1456093796522382,0.9889815560860883,0.11838023770797038,-0.053813904330808716,0.006074976367452356,-0.0009161129429861436,0.000873836490820525,-0.011453211502335208,0
2025/05/06 15:13:05.535608216,1746537185,529173876,piren,vessel_center,-472.6905692043157,-313.24553699247775,2.3159569249482344,0.025631978439511295,-0.003601363643094046,-0.14784474351168392,0.9886718179846896,0.08094614028718781,-0.16758580085333907,-0.0456020825111191,-0.0024833691471477033,0.0029399566871230166,-0.01250288683950022,0
2025/05/06 15:13:05.882280062,1746537185,876076389,piren,vessel_center,-472.6693926234908,-313.32177867321155,2.291610179785767,-0.0316362945113648,0.005079700572521701,-0.14914984088797045,0.9882953336299716,0.06565324627604271,-0.2079291936024669,-0.06458184515241236,5.726476643839716e-05,-0.0009917811477822543,-0.009576757161793785,0
2025/05/06 15:13:06.197543040,1746537186,190050623,piren,vessel_center,-472.6213230634533,-313.2886220700169,2.31351213648461,0.023620978875278337,-0.0030971651423261793,-0.15021167186625076,0.9883667894866767,0.1277649334654146,0.007438953177189039,0.02810194291413394,-0.00014155349369958937,-0.0022759130123310377,-0.011494808127711203,0
2025/05/06 15:13:06.507194566,1746537186,500908839,piren,vessel_center,-472.59623944228713,-313.32251640628533,2.307116994907887,-0.013761652802428482,0.0024938529105852135,-0.15213698703183637,0.9882604589816799,0.09926730882352816,-0.07279378981602297,-0.004640336805674265,0.0004903851648320928,-0.0010170131079565963,-0.012622598460489387,0
2025/05/06 15:13:06.816965090,1746537186,811468581,piren,vessel_center,-472.5520606740712,-313.30892677423634,2.3238078955808104,0.001774021023561181,0.00017406369157494482,-0.1542014077651945,0.9880378274107078,0.12152583114152579,0.01313538763802223,0.0360236427456241,0.00041113400442933354,0.0019260828794679216,-0.012777763643694075,0
2025/05/06 15:13:07.130472818,1746537187,124655594,piren,vessel_center,-472.5196541373935,-313.3130918857701,2.3318616138769634,-0.003374443839189337,-4.961605547656111e-05,-0.15568166307055953,0.987801513691191,0.11104483345934599,-0.0050426714451982,0.029465699851369234,0.00046222079603652316,0.0005867260307188135,-0.01501004501185098,0
2025/05/06 15:13:07.453527725,1746537187,440027983,piren,vessel_center,-472.4907791453646,-313.31742466465926,2.339061513213527,-0.004390149758913053,0.0010649359208823707,-0.15847454887158322,0.9873527281860961,0.10251692388915247,-0.011371154433526886,0.026175817903383473,-0.0010529701092676722,-0.000990940328096429,-0.01386176010081528,0
2025/05/06 15:13:07.756564975,1746537187,752726729,piren,vessel_center,-472.46272031128245,-313.32658706562995,2.344063776121892,0.000633750470140784,0.00020052301343256707,-0.1595357719233046,0.9871919244137374,0.09494036880450979,-0.024014126325936944,0.019422925330801758,0.0016432460212843119,-0.0008224887259046258,-0.010317851026070636,0
2025/05/06 15:13:08.66912739,1746537188,61241568,piren,vessel_center,-472.4405166755428,-313.3493826938035,2.3422709348665562,0.02851682410721455,-0.0034137384148315744,-0.16054667625531524,0.9866103090259316,0.08186850273668854,-0.058992253052974244,0.0026305073571138704,0.00032672694925710733,0.00038410258015161446,-0.010622850860660794,0
2025/05/06 15:13:08.373239392,1746537188,369394693,piren,vessel_center,-472.42835997589384,-313.42467667388667,2.316927294838413,-0.02603601446743831,0.004484056639055422,-0.16241074256131682,0.98636948953594,0.045368539743094814,-0.18057668218316342,-0.055741694067057646,-0.00012030898966729137,0.0012416171042869098,-0.010530653640769327,0
2025/05/06 15:13:08.746517863,1746537188,723984304,piren,vessel_center,-472.39056474197685,-313.4192235968724,2.326575258311052,-0.0025362690230543794,0.0007144823120141081,-0.1652148715075836,0.9862540763348971,0.09430782529711934,-0.02872680454329332,0.008843155338054257,-0.0011038143551860278,-5.2917439204187384e-05,-0.012257104147636344,0
2025/05/06 15:13:09.41029125,1746537189,35632791,piren,vessel_center,-472.36356638243115,-313.42580820539956,2.331354607932022,0.026391552899698953,-0.004214736488664234,-0.16636338430834446,0.9857022604688231,0.09060659936280928,-0.023955600245744273,0.013492375594188512,-9.230029960170551e-05,-0.0012186212863510802,-0.010706442250311813,0
2025/05/06 15:13:09.352186310,1746537189,346603258,piren,vessel_center,-472.3557307823429,-313.48174463099514,2.3134776866070608,0.0025019848582434924,9.706763235210174e-05,-0.16771952408236657,0.9858315737950517,0.048390217838732784,-0.1325331999301392,-0.0351276044408865,0.0023797378955979025,-0.0012183150830207205,-0.010641629726491275,0
2025/05/06 15:13:09.664652438,1746537189,659178390,piren,vessel_center,-472.33685643616104,-313.5073226499608,2.3108008808765668,-0.028476419001572655,0.004835956548195773,-0.1691171587161616,0.9851726212765373,0.05736594101454131,-0.09905523644579209,-0.017133433189630284,0.0013836117180377767,0.002996619477205084,-0.009570120162167411,0
2025/05/06 15:13:09.973938139,1746537189,970552690,piren,vessel_center,-472.29511373343485,-313.4763235874588,2.3327808971578974,-0.0021144913615128613,0.00047822649267999814,-0.17082476932291665,0.985299040094669,0.10600072380189005,0.046062212847301054,0.04490231844799529,-0.001543734153984743,0.0006903349849197849,-0.01020021165692573,0
2025/05/06 15:13:10.284640881,1746537190,280980832,piren,vessel_center,-472.26787803451646,-313.4757757638844,2.3420633792562846,-0.002864123415554765,0.00017314866874442857,-0.17220936482460855,0.985056192043532,0.0946116553520372,0.016020506240602632,0.035065571080587554,-0.0007130775254209046,-0.002548800817707608,-0.011600698842082603,0
2025/05/06 15:13:10.611084772,1746537190,592061438,piren,vessel_center,-472.24655176031,-313.48754015932855,2.3463647594985346,-0.0036925786883846745,0.00038797516589879203,-0.17392053058017767,0.9847526914817802,0.07963975000766396,-0.02068863675408414,0.021509170534636846,0.0003026178937575836,-0.0002986984644420162,-0.012198148359573557,0
2025/05/06 15:13:10.905652938,1746537190,901696499,piren,vessel_center,-472.2285768901737,-313.5075194345981,2.347159219748288,-0.0016398179220735178,0.00024684117681297846,-0.1756588269125659,0.984449707498721,0.0667616567007829,-0.0513702803757946,0.009006954707197803,0.000900561109587776,0.0016520253378657116,-0.012457167239065757,0
2025/05/06 15:13:11.221145275,1746537191,213334962,piren,vessel_center,-472.2139174583067,-313.5364393132165,2.343857538342449,0.0043093781099203315,-0.0003960912146893515,-0.1773902951268377,0.9841310662543221,0.055186453811029705,-0.08167399170665651,-0.004289768481923646,-0.0014215193667491339,0.00011331075429005674,-0.012501689052668298,0
2025/05/06 15:13:11.541201555,1746537191,532108921,piren,vessel_center,-472.1999646906078,-313.5828239129953,2.334839225662147,-0.025150507954282784,0.0048032772176666,-0.18051839789275112,0.9832382663931699,0.042573641736271664,-0.12022886450058598,-0.02094988145895394,-0.0006474612895349246,-0.0024853334199174916,-0.012396575693345362,0
2025/05/06 15:13:11.891087902,1746537191,883424489,piren,vessel_center,-472.1702077168092,-313.5823058248807,2.3452914889817453,-0.012946832214048057,0.0026037687274965593,-0.18159793754450967,0.9832841852707769,0.075735891248178,-0.025961615889718306,0.018505752971725666,-1.6073653655301666e-05,0.0003722271015252688,-0.011042814909102762,0
2025/05/06 15:13:12.198162246,1746537192,194123848,piren,vessel_center,-472.1472013789017,-313.5870704605436,2.3523340510128463,0.024838233459224996,-0.004350544816845913,-0.1829735247076191,0.9827943956771895,0.07610481837491562,-0.01915023347764822,0.02175410030589985,-0.0005391229274018924,0.0030892750250158785,-0.013597065112710615,0
2025/05/06 15:13:12.510527975,1746537192,506002903,piren,vessel_center,-472.1498898679348,-313.6560472499692,2.3297681180442664,-0.02842839808534237,0.00628548549376808,-0.18538102318783242,0.9822353053602998,0.019359662759461854,-0.16007643141433567,-0.04303631865714928,0.001510427071465368,-0.002639221014791209,-0.015256998985988103,0
2025/05/06 15:13:12.841292366,1746537192,818408706,piren,vessel_center,-472.1221674104414,-313.6576707880588,2.3392672007614825,-0.014139572985186545,0.0032942070334689415,-0.18791607691507126,0.9820777813964973,0.06601984145136186,-0.039956422264458016,0.011343449301728849,-0.0002673466168482966,-0.0026793005663888515,-0.015055161829052553,0
2025/05/06 15:13:13.134925985,1746537193,130673164,piren,vessel_center,-472.1006082939504,-313.66096138878936,2.3479152819880404,0.028321070407363463,-0.004412585821393639,-0.1906528482898992,0.9812389808279626,0.07033054606545222,-0.020875416634361904,0.023073857719687875,-0.0012354807649552328,0.0033918645110606444,-0.016680765808986624,0
2025/05/06 15:13:13.447281662,1746537193,443388373,piren,vessel_center,-472.1067601666663,-313.73276806364004,2.324541952287994,-0.02770910486595396,0.006582935128095928,-0.1923412392121835,0.9809147354234967,0.008639654171884406,-0.16631896521812398,-0.044657830689543106,0.0017436694240625904,0.0015410990005009242,-0.01249870937865862,0
2025/05/06 15:13:13.761642070,1746537193,753595179,piren,vessel_center,-472.081955652224,-313.72443211074204,2.3367271717618965,0.01831041884889845,-0.0026942211960801913,-0.19358597078942866,0.9809087325777252,0.05813669934200364,-0.039338852536411145,0.011545438558500487,-0.0005973278658313912,-0.0021560164536237004,-0.012520068913536703,0
2025/05/06 15:13:14.71650180,1746537194,67535923,piren,vessel_center,-472.07919183737954,-313.77848117977953,2.323344939908909,0.0020134638634646948,0.0006050599657038686,-0.19582585210306155,0.9806364339110689,0.01905600131344757,-0.12886815892279577,-0.0271791437295923,0.0006684797779234743,-0.0006220563964759519,-0.012381878874135588,0
2025/05/06 15:13:14.384699434,1746537194,381256678,piren,vessel_center,-472.0715023412308,-313.8100632414789,2.319218260383537,-0.0036491777674618068,0.001727961004800972,-0.19740506252925857,0.9803136941511155,0.023456746706097265,-0.11322902342790206,-0.01824622081325545,-0.0016431355947277696,0.0008655765872474365,-0.014122944412261033,0
2025/05/06 15:13:14.740876746,1746537194,736816332,piren,vessel_center,-472.05521882943333,-313.8291923822001,2.3217597285154437,0.027490524914795127,-0.00466173803572342,-0.20087539441858832,0.9792199013273638,0.04151445883667323,-0.06820260602303227,0.001510180659078611,-0.000979657633968758,0.0008077797732373146,-0.013695568300360433,0
2025/05/06 15:13:15.59464705,1746537195,51172039,piren,vessel_center,-472.0594954171856,-313.8836180521411,2.304164257548217,0.0029385334063189205,0.000261657436263125,-0.20166519934251223,0.9794500721991657,0.003916814968306724,-0.14301464362806604,-0.038618786831376054,0.0020693012890141338,-0.00043044832952398134,-0.011227708933156246,0
2025/05/06 15:13:15.367593445,1746537195,363064724,piren,vessel_center,-472.0475790244961,-313.9062711849381,2.3029017525160924,-0.030161677657062822,0.00652668837515604,-0.20293682608459274,0.9787054307392378,0.02738399089935258,-0.08321920076218653,-0.011682844835506374,0.0012703099436007657,-0.0007849762707863818,-0.0109483210133198,0
2025/05/06 15:13:15.680769950,1746537195,677139892,piren,vessel_center,-472.0088833578582,-313.85831746858656,2.3303633767977354,-0.0010129332676087608,0.0006766688750087657,-0.2042198631476177,0.9789242889934836,0.09475267628604371,0.08053007051416947,0.05744551029400474,-0.0005570522367840864,0.002247917278271742,-0.011563652750218426,0
2025/05/06 15:13:15.994378322,1746537195,986257577,piren,vessel_center,-471.9863427167791,-313.84791018627504,2.341816891080895,-0.0009135731008001083,0.0007660730386490568,-0.2057732055535893,0.9785989813976352,0.08301845946402893,0.051109033188823136,0.045414569461706245,-0.0008009514247043431,0.001010796839451455,-0.012203615154700493,0
2025/05/06 15:13:16.301971773,1746537196,296656880,piren,vessel_center,-471.9690312460417,-313.8525187412331,2.3471697405198872,0.01040758022197933,-0.0015949854586806843,-0.20753861664356824,0.9781701594799259,0.06515358766496349,0.0060954410258096114,0.026467832059733833,-0.0018684308882825293,-0.0017630408605599846,-0.01210116003706253,0
2025/05/06 15:13:16.612068253,1746537196,607988120,piren,vessel_center,-471.9659307588964,-313.8882645305987,2.3384868114675097,0.025362962652327237,-0.004991096216109101,-0.20906716952703128,0.9775595775757169,0.028778901569149022,-0.07740076387894938,-0.01040701627753849,-0.0005427613174784006,-0.0018031016448869215,-0.012611158064439795,0
2025/05/06 15:13:16.926553967,1746537196,920638272,piren,vessel_center,-471.9761223079241,-313.95911233450795,2.3138725188450517,-0.0014717320699846094,0.0007859375609717324,-0.2110752684933729,0.977468386873619,-0.016081304828685167,-0.17520430123445244,-0.05710296819521887,0.0001366677848145883,0.0014983801247997067,-0.012600979651606562,0
2025/05/06 15:13:17.239319563,1746537197,231328874,piren,vessel_center,-471.96940387231734,-313.9843239275398,2.309904410667351,0.02660575732201207,-0.004476451219029308,-0.2133044314667221,0.9766131857488226,0.009507575663338066,-0.11514852000345804,-0.028085384889154467,-0.0018295566736280218,0.0004295839566454022,-0.013535999411952677,0
2025/05/06 15:13:17.555283582,1746537197,548963013,piren,vessel_center,-471.97497831320334,-314.0387706205405,2.2914867876727003,-3.5349277493908375e-06,0.00013178394626154846,-0.21430352378317633,0.9767671075105925,-0.009374351588894277,-0.15753075651496096,-0.04984173181964189,-0.0002874672306948381,0.0001225984810602296,-0.00906214676835255,0
2025/05/06 15:13:17.905661474,1746537197,900209160,piren,vessel_center,-471.9604383805434,-314.0515465890969,2.2941999466861387,0.00019859611967967475,0.00018907024095361053,-0.21527035742699893,0.976554452155781,0.0302393539625885,-0.06330286253814797,-0.005014019287426889,0.0007109991719701002,0.00038231085700470767,-0.009511909774763674,0
2025/05/06 15:13:18.224795053,1746537198,218638009,piren,vessel_center,-471.9375986745229,-314.04565429060733,2.305867832839791,-0.019766631974131397,0.004500346832114552,-0.21682393993945429,0.9760002080982985,0.0577674789057258,-0.0015580036255409616,0.024773954198893604,0.0017842115692820678,-0.00035037033984612875,-0.011581612600222462,0
2025/05/06 15:13:18.558163219,1746537198,533682215,piren,vessel_center,-471.90049981473055,-314.0026707908303,2.3328997091024584,0.00274194574353006,-0.0004236207984573999,-0.21935393505009634,0.9756414061821058,0.10111883363852059,0.09513644422959308,0.0681112205729986,0.0009783660884245275,-8.952553608667496e-05,-0.01283118493105184,0
2025/05/06 15:13:18.896804686,1746537198,877891574,piren,vessel_center,-471.87841810201996,-313.9961215458316,2.344801308967393,-0.02760562770948915,0.006478304308417806,-0.22068694218120938,0.9749324255776707,0.07336948146244168,0.037411104651619585,0.04281435065443529,0.0006732415357988704,-1.8187760246108804e-05,-0.009881112855841754,0
2025/05/06 15:13:19.204782788,1746537199,192267568,piren,vessel_center,-471.8456067405146,-313.96398339198123,2.3664253955628975,0.024708574429431175,-0.005209163733190944,-0.22168479481305148,0.974791363683307,0.09624858981706012,0.08332969776761323,0.061672359952254514,-0.0017208190921132532,0.000180509854797668,-0.011693085329965148,0
2025/05/06 15:13:19.518791849,1746537199,514449936,piren,vessel_center,-471.85225332700287,-314.0211745896715,2.3480708335661706,-0.005208394134821391,0.0015653760563087702,-0.22387711146028197,0.9746022066425559,0.00807901811931544,-0.10732706509957046,-0.02615190855262548,0.0008111784071669007,-0.0005146551440650855,-0.012784495537232408,0
2025/05/06 15:13:19.837195472,1746537199,826631525,piren,vessel_center,-471.8514654297064,-314.0571185647432,2.3401984297225784,-0.019042638946834983,0.004768463938602908,-0.22548868248317383,0.9740479935432387,0.0043288573956945745,-0.11413551412356304,-0.02584178197326339,0.0010651050991729,-0.00020427092019734445,-0.015360765018394583,0
2025/05/06 15:13:20.145297427,1746537200,140449300,piren,vessel_center,-471.83817036917895,-314.06536003966454,2.3447046599658297,-0.02861186194456422,0.007254008667280783,-0.22837449005017207,0.9731258053348725,0.031096268502006127,-0.05672854543636226,0.0013628770799817003,0.0007472433897093581,0.00027001933125198816,-0.014390398294853397,0
2025/05/06 15:13:20.464739633,1746537200,458107656,piren,vessel_center,-471.8144359420355,-314.05063776887545,2.358866312354969,-0.0011778182559111824,-9.421907690157857e-05,-0.2291217806428734,0.9733970482295294,0.06349441301513281,0.013564046086594825,0.03204585223576201,-0.00044310242689735407,-0.00015296741600961855,-0.00979156613028978,0
2025/05/06 15:13:20.819094420,1746537200,812011875,piren,vessel_center,-471.8086982887018,-314.0768512985786,2.356571591427176,0.028937510454763365,-0.006901170081330927,-0.22998069209203667,0.9727403947637092,0.025958550427822337,-0.055440302391934385,0.001565028339278511,-0.000397437943053611,0.002717763317940175,-0.009337180947022272,0
2025/05/06 15:13:21.131576236,1746537201,123999505,piren,vessel_center,-471.8321894988699,-314.1625150123892,2.325002488875816,-0.005203534289052353,0.001618621110736537,-0.23255215911958504,0.9725686590598228,-0.04619777653870157,-0.20328175235563267,-0.06981219604331684,0.002255690686433778,-0.0017410950629939686,-0.011555855330804768,0
2025/05/06 15:13:21.444354947,1746537201,438051738,piren,vessel_center,-471.83329563338873,-314.2000112760684,2.3169028648059085,-0.001269500641155042,0.000713770514917948,-0.2337151905711809,0.9723040103774389,-0.01725079320021875,-0.1484308936277552,-0.04035611534850489,9.543808481099459e-05,-0.0011680080355992058,-0.009594416168104875,0
2025/05/06 15:13:21.758081484,1746537201,754043799,piren,vessel_center,-471.82842752417156,-314.22599932745493,2.3148638338502576,-0.025578266436414636,0.005769424788998844,-0.23500973410469173,0.9716392802371434,0.005092977964432362,-0.10742176745270574,-0.018005441015647113,0.0015973546345310473,0.0010373619565951428,-0.010537984796376909,0
