time,header_stamp_secs,header_stamp_nsecs,header_frame_id,pose_position_x,pose_position_y,pose_position_z,pose_orientation_x,pose_orientation_y,pose_orientation_z,pose_orientation_w
2025/05/06 15:12:25.735798053,1746537145,679468660,piren,-478.48709770576016,-311.5741245073684,2.365864290501605,-0.001958312657679434,0.000371423275093582,-0.10251696145272532,0.994729259482592
2025/05/06 15:12:27.607271571,1746537147,606303228,piren,-478.5093269275836,-311.6724154502028,2.3238404053219597,-0.0005299188724863479,3.6543467559683786e-05,-0.09297709012394784,0.9956681066312443
2025/05/06 15:12:27.962106735,1746537147,959469653,piren,-478.5072933125788,-311.6793172997587,2.3220190097292823,-0.003224184770677906,0.0004889926629141476,-0.0987339432389012,0.995108523715498
2025/05/06 15:12:28.334912304,1746537148,332273635,piren,-478.5038073924247,-311.6676376575501,2.327699423201438,-0.003138824277887774,0.0004543203233643895,-0.0984813651419135,0.9951338412972305
2025/05/06 15:12:28.657596279,1746537148,656359116,piren,-478.5036876933736,-311.65356761400136,2.3338770917991787,0.028170488112561454,-0.0022779734651095116,-0.0988200340143275,0.9947038932837247
2025/05/06 15:12:29.20074472,1746537149,19560123,piren,-478.51422033047936,-311.69506309542686,2.3149403154645163,0.001670693476250354,0.000312712588143909,-0.09881513566847165,0.9951043563149381
2025/05/06 15:12:29.323655163,1746537149,322508836,piren,-478.5171467795104,-311.7032729087642,2.311868160879196,-0.003129151104336593,0.00035542217622362975,-0.0987749043033295,0.9951048187845897
2025/05/06 15:12:29.634330810,1746537149,632296404,piren,-478.51681539364245,-311.6937984026548,2.316661143393713,0.0017333311025262042,-0.0002987583147519637,-0.0986871153798066,0.9951169577314876
2025/05/06 15:12:29.938855818,1746537149,935687402,piren,-478.51662556806156,-311.6856463109199,2.3210299573171707,-0.0028363012304719578,0.00014342526368213104,-0.0987762043412932,0.9951056206656914
2025/05/06 15:12:30.236446260,1746537150,234034691,piren,-478.514904392658,-311.6718957247886,2.3284257944297044,-0.01308665731727867,0.0009784343216256678,-0.09860819731456508,0.9950398009571829
2025/05/06 15:12:30.534897624,1746537150,531201381,piren,-478.50973293514454,-311.6454615675979,2.3417009402231646,-0.004726307826321682,0.0002775822499002056,-0.09815030069205738,0.9951603405665261
2025/05/06 15:12:30.830730127,1746537150,830279508,piren,-478.50632074987465,-311.63770840731195,2.3477427480044866,-0.000244149185297238,-0.0004922771729388264,-0.09753332682978752,0.9952321077074806
2025/05/06 15:12:31.137821052,1746537151,132648333,piren,-478.504854384105,-311.64736308560083,2.34652824092727,-0.008198356760238428,0.0007897052142676349,-0.09721388800545633,0.9952294324882925
2025/05/06 15:12:31.440104586,1746537151,439620855,piren,-478.500115278268,-311.6529657169476,2.347267417911448,-0.0032466905687068667,0.00034075080756961065,-0.09739237217350265,0.9952407089401318
2025/05/06 15:12:31.739645443,1746537151,737688776,piren,-478.49604947393846,-311.67018659078,2.344016234988689,-0.0014564910983695908,0.0006849384899378757,-0.09767617688174217,0.9952169481890429
2025/05/06 15:12:32.78278320,1746537152,77081008,piren,-478.4903968999982,-311.6950792978294,2.3386692538476788,0.02720627107714118,-0.002029274621329586,-0.09782617932455075,0.9948295027276529
2025/05/06 15:12:32.378452061,1746537152,377049099,piren,-478.49302571351234,-311.76287735290293,2.3126319798216532,-0.012676569795144295,0.002654449225438031,-0.09796605451103009,0.995105477143544
2025/05/06 15:12:32.678482717,1746537152,675850203,piren,-478.48036959628956,-311.7639187689827,2.3157036788374934,0.03015575383605288,-0.0017389522325983256,-0.0980605524230345,0.9947219383396556
2025/05/06 15:12:32.976006669,1746537152,973000287,piren,-478.47768480883957,-311.8162153345511,2.2954705758634417,0.002719176512477913,0.0006932460446841798,-0.09792130308359764,0.9951902048811704
2025/05/06 15:12:33.270704725,1746537153,270188867,piren,-478.46594366599,-311.8214632399293,2.296689556754893,0.0317630062057598,-0.00239701539686572,-0.09764307702708837,0.9947116141187063
2025/05/06 15:12:33.577269593,1746537153,575632848,piren,-478.4597303126582,-311.8597359204268,2.281773455972128,-0.004139436137069921,0.0011896731920440042,-0.09749696153931427,0.9952265029814895
2025/05/06 15:12:33.881379778,1746537153,877692404,piren,-478.4401436802068,-311.83529916655107,2.2949600644473414,-0.0034027465475091633,0.0010779923513188861,-0.09739889245262068,0.9952390240527281
2025/05/06 15:12:34.177620101,1746537154,177146311,piren,-478.4163924311133,-311.80028634439543,2.3131818776224544,0.004303155276906963,0.0001673821511852881,-0.097304912144611,0.9952453008733113
2025/05/06 15:12:34.478043417,1746537154,476348958,piren,-478.39452857495667,-311.7809802161828,2.3248491345356754,-0.022386238842947253,0.0026994886302937823,-0.09719958970074094,0.9950094516302893
2025/05/06 15:12:34.778983274,1746537154,778411795,piren,-478.36385197278673,-311.72812567426547,2.349691746306632,0.028276356292408374,-0.0019405294646990814,-0.0971221691623232,0.9948688186275749
2025/05/06 15:12:35.125011749,1746537155,121327911,piren,-478.34447822077504,-311.7623932238749,2.3368297327809273,-0.005634895490420005,0.001757045738871394,-0.09706473110898972,0.9952605682522659
2025/05/06 15:12:35.425243014,1746537155,424570292,piren,-478.32119618851897,-311.77127296558723,2.335849164297276,-0.0026990012018100256,0.0012386156225176758,-0.09707024680841692,0.995273102423855
2025/05/06 15:12:35.737777664,1746537155,727640913,piren,-478.2976149223222,-311.7816006562339,2.334402330766071,8.81638146616443e-05,0.0010047630548048624,-0.0970457014167818,0.9952794152974683
2025/05/06 15:12:36.29192340,1746537156,28715072,piren,-478.27504092519496,-311.7929889327219,2.331811940225808,0.019086374565042225,-0.00226130710451034,-0.09611696324418759,0.9951844684142019
2025/05/06 15:12:36.330096424,1746537156,329606215,piren,-478.25979472592576,-311.832151710103,2.3155989261157033,0.002431915859690283,-0.0002860711950917231,-0.0955189804912994,0.9954245970009108
2025/05/06 15:12:36.640432563,1746537156,631584743,piren,-478.23903145939124,-311.8441233197446,2.3117173400315654,-0.0018566082779376378,9.898170507974488e-05,-0.09555330660876059,0.9954225780061735
2025/05/06 15:12:36.933259154,1746537156,932781369,piren,-478.2146836388836,-311.8415704884636,2.31531049950206,0.0038766013502525612,0.0007321750231159419,-0.09595556858412531,0.9953778000032972
2025/05/06 15:12:37.234815624,1746537157,231878768,piren,-478.18899357432616,-311.8434090814258,2.318128735115373,0.031561612899397774,-0.0021943033321417315,-0.09635739115246265,0.9948438584995972
2025/05/06 15:12:37.538727581,1746537157,538233896,piren,-478.17084636563726,-311.8895611301631,2.299808402953107,-0.003581926627242081,0.0015019403111963087,-0.09642853099266138,0.9953323326344503
2025/05/06 15:12:37.844607927,1746537157,843378225,piren,-478.1400125298735,-311.88075867515903,2.3059321841924554,0.014615803532119422,-9.394117382636319e-05,-0.09641956832770841,0.9952334581924308
2025/05/06 15:12:38.157073364,1746537158,155399575,piren,-478.1111651916658,-311.8903039106089,2.3041300725728515,0.026583860563536624,-0.0015264841560923786,-0.09647721467095087,0.9949789521658209
2025/05/06 15:12:38.532522567,1746537158,510666413,piren,-478.0810160751657,-311.92134692663626,2.292730926570708,-0.007639813934702971,0.0014848425753022064,-0.0965533587937178,0.9952973813846901
2025/05/06 15:12:38.815056028,1746537158,813274708,piren,-478.03886943153657,-311.896050892194,2.305643329833889,0.03155350164574895,-0.003208673827885574,-0.09633080259147322,0.9948439362122286
2025/05/06 15:12:39.119427998,1746537159,115011140,piren,-478.01124004022466,-311.9194097071788,2.294851381772715,-0.006522157207804992,0.0008411829485335445,-0.09623374331517064,0.9953370386578376
2025/05/06 15:12:39.418992894,1746537159,416676084,piren,-477.97092711704835,-311.8898669885968,2.3087929407885754,0.00121154035585189,-0.002607049844189017,-0.09627218164870775,0.9953508941582734
2025/05/06 15:12:39.724956968,1746537159,723180384,piren,-477.93673212654875,-311.8693015685576,2.3202881505247093,0.002390393134033657,-7.566413960233802e-05,-0.09661138553516914,0.9953193057911505
2025/05/06 15:12:40.24712827,1746537160,23811946,piren,-477.8983359321916,-311.8588727093406,2.328599435662676,0.0001909923836759948,-0.0006782306394610229,-0.09661074501347323,0.9953219918564298
2025/05/06 15:12:40.327589488,1746537160,326870362,piren,-477.85781034404374,-311.85271818129723,2.334770838363365,-0.027214127874396737,0.00100339744554123,-0.09715459029958853,0.9948966629863232
2025/05/06 15:12:40.634644279,1746537160,631045129,piren,-477.8094760919118,-311.80862238479824,2.3554195204587165,0.02761852989565707,-0.0030789874472666547,-0.09741969433324278,0.994855336116121
2025/05/06 15:12:40.933905230,1746537160,932191133,piren,-477.7758956367847,-311.8613263906211,2.336077706023204,-0.017806494018823414,0.0022575655563974385,-0.09775990615283574,0.9950481560796467
2025/05/06 15:12:41.241244061,1746537161,235929654,piren,-477.72998260139804,-311.8636291956557,2.3410589417355405,-0.0003939823498901254,3.514476076688238e-06,-0.0983810690590708,0.995148737634908
2025/05/06 15:12:41.580682213,1746537161,580154012,piren,-477.6786927112565,-311.8897154759825,2.337835534954049,0.030700909449189264,-0.0016961270427392275,-0.09887069149450729,0.9946251372630021
2025/05/06 15:12:41.883682758,1746537161,882653837,piren,-477.64309753355093,-311.96490667997136,2.310614917530777,0.026737997898095944,-0.0011676629967283417,-0.09942926684534824,0.9946846419474487
2025/05/06 15:12:42.188557105,1746537162,186980680,piren,-477.604034524095,-312.03722115343174,2.285348688010044,-0.025017579792841912,0.003431119526412059,-0.09998094284800947,0.9946688691154093
2025/05/06 15:12:42.491290390,1746537162,490291260,piren,-477.5466860070804,-312.0082908824264,2.303533703202535,0.013370703764684534,-0.0007437687644143944,-0.10034310409671553,0.9948627707121711
2025/05/06 15:12:42.818231292,1746537162,817639888,piren,-477.4877412102761,-312.016530448659,2.3066558930549594,-0.030061069922285293,0.0038119270187579562,-0.10072103292941038,0.994453153654391
2025/05/06 15:12:43.129598667,1746537163,125858931,piren,-477.4222922510664,-311.9535546774937,2.336661233824649,0.02297706546794808,-0.001453554957318647,-0.10102475805201155,0.9946174842123983
2025/05/06 15:12:43.436745521,1746537163,433067182,piren,-477.37036202107737,-311.97640226386227,2.3308849504728766,0.02820943696522663,-0.002339142857687544,-0.10119303410195807,0.9944640395338769
2025/05/06 15:12:43.767672686,1746537163,765727339,piren,-477.314749713684,-312.0332044487242,2.311607785450724,-0.023514171768908788,0.002442725535400999,-0.1015353277173247,0.9945510012278488
2025/05/06 15:12:44.70544798,1746537164,70027446,piren,-477.25167104918324,-312.0096384942573,2.326202040658491,0.002000551582580891,0.00013752087998539228,-0.10205131726564952,0.9947771144963674
2025/05/06 15:12:44.375164398,1746537164,373714657,piren,-477.1901078986234,-312.0143752344689,2.3297609619978283,-0.003420187462681854,0.0008964898376065062,-0.10289054241916011,0.9946864002812054
2025/05/06 15:12:44.716230187,1746537164,715379700,piren,-477.1161295091872,-312.0182244842678,2.335363137310043,-0.0034439567282632247,0.0003905937757045148,-0.10377059799724923,0.9945952189659115
2025/05/06 15:12:45.16984150,1746537165,15521579,piren,-477.0508252422398,-312.0267050524916,2.338882706597152,-0.033269158164053084,0.003378591781213973,-0.10450721284575298,0.9939617652082215
2025/05/06 15:12:45.322699674,1746537165,321873510,piren,-476.9761984160024,-311.9886644578753,2.3597025446093767,-0.029398303682842918,0.00323377445637413,-0.10606644892263464,0.9939191067970667
2025/05/06 15:12:45.629256053,1746537165,625716054,piren,-476.9014148406658,-311.95632719194356,2.377872211495969,0.03209045111576338,-0.002722557792447289,-0.106078051895114,0.9938361220706314
2025/05/06 15:12:45.930990180,1746537165,928332225,piren,-476.8461126455486,-312.03854944046583,2.347554848317619,0.000955058871016708,0.00019700622945861257,-0.10717676971767492,0.9942395028784479
2025/05/06 15:12:46.231189360,1746537166,230208952,piren,-476.7844387003376,-312.09491950947165,2.331283412029226,0.005660299868109009,-0.00033632365178611165,-0.10717821143123311,0.9942236563702386
2025/05/06 15:12:46.533888685,1746537166,532240238,piren,-476.7188461513738,-312.14952386262235,2.3165578296474973,-0.00744467295276081,0.0012767488970433978,-0.1085354901302756,0.9940638782991067
2025/05/06 15:12:46.836322400,1746537166,835837354,piren,-476.6455389295288,-312.1670573980828,2.317171008372828,-0.002922125813677393,0.0009558480533294448,-0.10969924583293138,0.9939600711290741
2025/05/06 15:12:47.140330596,1746537167,138876411,piren,-476.5676597205654,-312.17726192244027,2.3208481479201186,0.0007034999049681359,0.0005367359272759225,-0.10925104923755853,0.9940137952980937
2025/05/06 15:12:47.442819733,1746537167,442388477,piren,-476.48870665459145,-312.18767567509263,2.3242874823763144,0.029132108975933203,-0.002771639389388848,-0.10946273929073824,0.9935600369120517
2025/05/06 15:12:47.795854226,1746537167,794191101,piren,-476.4042996080647,-312.2462110777086,2.3063266955698607,-0.00019187821865659493,-0.00030160069365963425,-0.10984579657450465,0.9939485767355791
2025/05/06 15:12:48.96685639,1746537168,96084547,piren,-476.3213517157217,-312.25920666892057,2.3075575509082302,-0.0002994584702636446,0.0002714389652010113,-0.11014465777100148,0.993915484842661
2025/05/06 15:12:48.409064308,1746537168,407940974,piren,-476.23582740981976,-312.26178600993364,2.3140414953899153,0.0013366567011896847,-0.00010951424805883685,-0.1105003128174311,0.9938751844284787
2025/05/06 15:12:48.724261463,1746537168,722773264,piren,-476.1357894359105,-312.2687461260875,2.321348311724439,0.020493107095742587,-0.0007419338864930515,-0.11074725332120906,0.9936370202329815
2025/05/06 15:12:49.33911421,1746537169,28922919,piren,-476.05432208696703,-312.30981509157084,2.3129369821370203,-0.029937353463503312,0.004689214675599417,-0.1108897581018508,0.993370639631271
2025/05/06 15:12:49.337272109,1746537169,336480048,piren,-475.9514708016649,-312.27409068115804,2.3363927748807622,0.006542403047350859,0.00038753956908891987,-0.1108169253244279,0.9938192269407392
2025/05/06 15:12:49.640822168,1746537169,639979520,piren,-475.8633313928706,-312.29001799887715,2.3385589458282627,-0.02390059914945464,0.0022349929794215416,-0.10971984447489354,0.9936726432256673
2025/05/06 15:12:49.942529782,1746537169,942158670,piren,-475.7670596607421,-312.2680416274276,2.355534041072746,-0.015655925633325327,0.0015389583194139373,-0.10849352131303613,0.9939726753955326
2025/05/06 15:12:50.249157260,1746537170,243237417,piren,-475.6750863920371,-312.2615292477146,2.3656379274938466,0.00020623363556226403,9.211629300261793e-05,-0.10779516412603304,0.9941730994013657
2025/05/06 15:12:50.554472782,1746537170,553087750,piren,-475.5914279404949,-312.29366582696434,2.3598354584450973,0.027366989626752124,-0.002803970439736105,-0.10729775654654708,0.9938462542408761
2025/05/06 15:12:50.855410070,1746537170,854864345,piren,-475.52151813183485,-312.3838719965227,2.3283887231535245,0.0027410808699267143,0.00017184600853294653,-0.10686979042023503,0.9942692315666561
2025/05/06 15:12:51.194221150,1746537171,192730217,piren,-475.42881485068904,-312.4473357547679,2.311468645863119,0.02857854607085257,-0.0025635525916382867,-0.10610748862975763,0.9939405896527579
2025/05/06 15:12:51.503932486,1746537171,497897656,piren,-475.3527129719321,-312.5233132598394,2.286215550874432,0.015704459600262153,-0.0007896647865674319,-0.10550754629051906,0.9942941738006628
2025/05/06 15:12:51.808466620,1746537171,807838972,piren,-475.26997896308836,-312.5649654739851,2.276276350632875,-0.003243214343477689,0.001162960806816562,-0.10476939893802965,0.9944905741780805
2025/05/06 15:12:52.110417214,1746537172,109719465,piren,-475.165166731177,-312.56143644723386,2.287754792126218,-0.0036741945596853952,0.00071739547863238,-0.10400808873936489,0.994569405881183
2025/05/06 15:12:52.412851176,1746537172,411369066,piren,-475.0713637176594,-312.5334442986714,2.3083733042138053,-0.0026856005811316925,0.0005221633946635689,-0.10343975565441736,0.9946319579849938
2025/05/06 15:12:52.717946655,1746537172,716057929,piren,-474.97800989890465,-312.50597382972643,2.3279954854087155,0.0037283076635109863,9.613171746236855e-05,-0.10277620990826007,0.9946975123913564
2025/05/06 15:12:53.21763364,1746537173,20453010,piren,-474.8927154808263,-312.49975143741256,2.3375643434564495,0.001974517956915176,0.0003425549562033971,-0.10234186015643204,0.9947472682016579
2025/05/06 15:12:53.325605155,1746537173,324980715,piren,-474.81108420739434,-312.50681052918367,2.341494541538847,0.028343488680790712,-0.0026200931425697893,-0.10192885612712682,0.9943843774164706
2025/05/06 15:12:53.630717646,1746537173,629215208,piren,-474.7442250040252,-312.56868136034893,2.320241218252233,-0.008753522935262594,0.0009367492332688052,-0.10151087015228207,0.9947954772605384
2025/05/06 15:12:53.971221763,1746537173,970809950,piren,-474.6548550815163,-312.58365584904686,2.3209472564792453,0.01996287869610649,-0.0016553309629228252,-0.1018286198095276,0.9946002591701123
2025/05/06 15:12:54.275778249,1746537174,275209412,piren,-474.58702060720566,-312.6273949345904,2.308083113937218,-0.03281764569311951,0.0036779315653660757,-0.10223779314740826,0.9942117021051952
2025/05/06 15:12:54.580650910,1746537174,579155416,piren,-474.5033899220286,-312.5851326154326,2.3312824228269298,-0.003992524700057542,0.0005345626868986887,-0.10261211800700709,0.9947132889568578
2025/05/06 15:12:54.887869695,1746537174,885286888,piren,-474.43125303472567,-312.57851767182433,2.34145595063046,0.00045126025585914066,-0.00033932332783180016,-0.10300863684921417,0.9946803013824731
2025/05/06 15:12:55.193935132,1746537175,193490465,piren,-474.3625491145856,-312.59004888592017,2.3442404639306726,-1.0384441056844287e-05,0.00017204812633998896,-0.10368176468902195,0.9946105076674869
2025/05/06 15:12:55.505179282,1746537175,503745496,piren,-474.2992180557603,-312.6122537403895,2.3425223696461877,-0.03323953721464974,0.0038061188840696055,-0.104196096595224,0.9939938732603512
2025/05/06 15:12:55.810954440,1746537175,810471291,piren,-474.21550771247973,-312.5887729225653,2.3600808321256563,-0.00394318774939778,0.00039819639619019666,-0.10503362443957918,0.9944607737095961
2025/05/06 15:12:56.119628813,1746537176,117865805,piren,-474.1533181042239,-312.60897306780106,2.3597218682534513,0.028528543306883217,-0.0029950735414746104,-0.10567654975703306,0.9939867295807916
2025/05/06 15:12:56.427307482,1746537176,426103810,piren,-474.10696066370616,-312.69378067335236,2.3298257486599074,0.029476898836428816,-0.0028268726862419402,-0.10684967251532207,0.9938341253494827
2025/05/06 15:12:56.775470712,1746537176,774950512,piren,-474.0536724925353,-312.79480557500983,2.293729388817768,-0.021677380388396186,0.0029973953030999695,-0.1075948596028806,0.9939539491283941
2025/05/06 15:12:57.84717191,1746537177,83993359,piren,-473.9878144726076,-312.7911359672738,2.302914861022072,-0.010841998306560775,0.0014587629815664858,-0.10836432382291263,0.9940510532189416
2025/05/06 15:12:57.389070184,1746537177,388536655,piren,-473.9231269302611,-312.77542186739004,2.3182511123805063,-0.003171500336452721,0.0006381985637753151,-0.10944380507762794,0.9939877201547006
2025/05/06 15:12:57.698643875,1746537177,695529230,piren,-473.86005601819494,-312.7663361612677,2.3307038385338577,0.020188267514315246,-0.0014450338642551855,-0.11052764343496187,0.9936669390538339
2025/05/06 15:12:58.2954812,1746537178,1992345,piren,-473.8085190715736,-312.8013380365095,2.32264042557078,-0.000517724769857429,0.0008228904915225226,-0.11164520409828566,0.9937476557024695
2025/05/06 15:12:58.310035023,1746537178,308255177,piren,-473.75054655444643,-312.81416014921945,2.3247656263948335,-0.024613720882664378,0.003318064189896628,-0.11289217735935875,0.993296789225358
2025/05/06 15:12:58.619261464,1746537178,614711402,piren,-473.6764091025083,-312.78695404509773,2.343683471410217,0.025654205815611265,-0.0007311209256338783,-0.11442000404605038,0.9931008961129097
2025/05/06 15:12:58.924126802,1746537178,922723776,piren,-473.62727042305227,-312.83546022713455,2.3281848789504402,0.014164486574038654,-0.0020541939093021047,-0.1147919572549978,0.9932864411422536
2025/05/06 15:12:59.233051683,1746537179,232441230,piren,-473.5836725683506,-312.8780981393923,2.314488865530153,0.0008224785383573801,0.00014041035824950368,-0.11631270423424082,0.993212292839604
2025/05/06 15:12:59.542932763,1746537179,542375288,piren,-473.5336488946443,-312.89604839915654,2.3122903272149595,0.0013153062835235471,-4.998071109354012e-05,-0.11727451687151083,0.9930986633582097
2025/05/06 15:12:59.904603048,1746537179,901026341,piren,-473.4730563126974,-312.91105355354,2.3137662423915244,0.00024017874709498043,-0.00021389985363291802,-0.11842695753995579,0.992962714450473
2025/05/06 15:13:00.226966485,1746537180,225732538,piren,-473.41303024856836,-312.91655342679957,2.319341730401008,-0.033421108631693064,0.00027025078461661526,-0.12030029758179193,0.9921747804011521
2025/05/06 15:13:00.535037605,1746537180,532480078,piren,-473.3527508893461,-312.85998314340605,2.347005153410986,-0.0006257046460439276,-0.0008368355795851744,-0.12024504017052667,0.9927436922561116
2025/05/06 15:13:00.864659235,1746537180,841074774,piren,-473.3025138138259,-312.85898418704136,2.353661920430395,-0.0006077171387019542,-7.096193023712698e-05,-0.12252776680348446,0.9924648971154773
2025/05/06 15:13:01.151898101,1746537181,148339412,piren,-473.2550729216426,-312.88212376436735,2.3527657336737025,-0.031507222175509615,0.003196851613621505,-0.1253232177533237,0.9916103903159228
2025/05/06 15:13:01.459576168,1746537181,457241453,piren,-473.2006610340052,-312.86753413844013,2.367002674456221,-0.004654078821805652,-0.00030105102372927407,-0.12561646735430781,0.9920679170540824
2025/05/06 15:13:01.764312564,1746537181,762849195,piren,-473.1565290782348,-312.8965348634353,2.363668209369234,-0.002040841121645501,0.0002811065145277738,-0.12756951775659245,0.991827492100312
2025/05/06 15:13:02.71752225,1746537182,69916783,piren,-473.10955345125853,-312.9448775198582,2.353893355486634,0.02605719260965947,-0.002645726379594118,-0.12992282197647093,0.9911781288824415
2025/05/06 15:13:02.377744973,1746537182,377151333,piren,-473.0831800038406,-313.0417754231206,2.3216840355085573,0.0034324108177780357,-0.000322940378862835,-0.13171891920347348,0.9912811107800645
2025/05/06 15:13:02.728558777,1746537182,727611786,piren,-473.0444478855337,-313.1067100456197,2.305025231070775,0.016316979411386774,-0.0018908715670135645,-0.13487769879644515,0.9907260908823291
2025/05/06 15:13:03.37060190,1746537183,34821964,piren,-473.0118256351552,-313.15683900342543,2.291235851604684,0.02595740249193251,-0.0020525715368869004,-0.13484424100150577,0.9905246240627669
2025/05/06 15:13:03.351968294,1746537183,350521818,piren,-472.97872965133723,-313.2053918794563,2.276570046251655,-0.005070707368941627,0.0005154746582259456,-0.13656914096202435,0.9906174296616984
2025/05/06 15:13:03.665812748,1746537183,665224454,piren,-472.9261727679857,-313.19914436876974,2.288315249036051,0.001030712499110535,-0.0004183603897111335,-0.13996058536744432,0.9901564508449819
2025/05/06 15:13:03.975524317,1746537183,974096914,piren,-472.88020423327396,-313.17781426084804,2.3055273001864482,-0.024243662539737306,0.004314583587362195,-0.13955061717611061,0.9899087101550799
2025/05/06 15:13:04.282568443,1746537184,281384282,piren,-472.82099116817983,-313.1168295329778,2.338689930088002,0.026610258779807848,-0.003717765724308095,-0.14102841884383735,0.9896408729554869
2025/05/06 15:13:04.592443397,1746537184,590991766,piren,-472.7868648848225,-313.1447159537833,2.332902806734863,-0.0014132755128454064,0.0003417347240310246,-0.1424922748608386,0.9897948461548416
2025/05/06 15:13:04.909585836,1746537184,908748858,piren,-472.74965152716476,-313.157165989566,2.3358521280882854,-0.0014599092527441142,0.00011100275004060085,-0.14386939545750255,0.989595600937098
2025/05/06 15:13:05.221094134,1746537185,219694296,piren,-472.70971524570945,-313.1779909920804,2.337359857014166,0.02642524570083273,-0.003885443151116126,-0.1456093796522382,0.9889815560860883
2025/05/06 15:13:05.530521823,1746537185,529173876,piren,-472.6905692043157,-313.24553699247775,2.3159569249482344,0.025631978439511295,-0.003601363643094046,-0.14784474351168392,0.9886718179846896
2025/05/06 15:13:05.877388458,1746537185,876076389,piren,-472.6693926234908,-313.32177867321155,2.291610179785767,-0.0316362945113648,0.005079700572521701,-0.14914984088797045,0.9882953336299716
2025/05/06 15:13:06.190671238,1746537186,190050623,piren,-472.6213230634533,-313.2886220700169,2.31351213648461,0.023620978875278337,-0.0030971651423261793,-0.15021167186625076,0.9883667894866767
2025/05/06 15:13:06.501491192,1746537186,500908839,piren,-472.59623944228713,-313.32251640628533,2.307116994907887,-0.013761652802428482,0.0024938529105852135,-0.15213698703183637,0.9882604589816799
2025/05/06 15:13:06.811892657,1746537186,811468581,piren,-472.5520606740712,-313.30892677423634,2.3238078955808104,0.001774021023561181,0.00017406369157494482,-0.1542014077651945,0.9880378274107078
2025/05/06 15:13:07.125621573,1746537187,124655594,piren,-472.5196541373935,-313.3130918857701,2.3318616138769634,-0.003374443839189337,-4.961605547656111e-05,-0.15568166307055953,0.987801513691191
2025/05/06 15:13:07.440617556,1746537187,440027983,piren,-472.4907791453646,-313.31742466465926,2.339061513213527,-0.004390149758913053,0.0010649359208823707,-0.15847454887158322,0.9873527281860961
2025/05/06 15:13:07.753308820,1746537187,752726729,piren,-472.46272031128245,-313.32658706562995,2.344063776121892,0.000633750470140784,0.00020052301343256707,-0.1595357719233046,0.9871919244137374
2025/05/06 15:13:08.62505933,1746537188,61241568,piren,-472.4405166755428,-313.3493826938035,2.3422709348665562,0.02851682410721455,-0.0034137384148315744,-0.16054667625531524,0.9866103090259316
2025/05/06 15:13:08.369847773,1746537188,369394693,piren,-472.42835997589384,-313.42467667388667,2.316927294838413,-0.02603601446743831,0.004484056639055422,-0.16241074256131682,0.98636948953594
2025/05/06 15:13:08.728410094,1746537188,723984304,piren,-472.39056474197685,-313.4192235968724,2.326575258311052,-0.0025362690230543794,0.0007144823120141081,-0.1652148715075836,0.9862540763348971
2025/05/06 15:13:09.36194517,1746537189,35632791,piren,-472.36356638243115,-313.42580820539956,2.331354607932022,0.026391552899698953,-0.004214736488664234,-0.16636338430834446,0.9857022604688231
2025/05/06 15:13:09.347260093,1746537189,346603258,piren,-472.3557307823429,-313.48174463099514,2.3134776866070608,0.0025019848582434924,9.706763235210174e-05,-0.16771952408236657,0.9858315737950517
2025/05/06 15:13:09.660655476,1746537189,659178390,piren,-472.33685643616104,-313.5073226499608,2.3108008808765668,-0.028476419001572655,0.004835956548195773,-0.1691171587161616,0.9851726212765373
2025/05/06 15:13:09.971072172,1746537189,970552690,piren,-472.29511373343485,-313.4763235874588,2.3327808971578974,-0.0021144913615128613,0.00047822649267999814,-0.17082476932291665,0.985299040094669
2025/05/06 15:13:10.283705289,1746537190,280980832,piren,-472.26787803451646,-313.4757757638844,2.3420633792562846,-0.002864123415554765,0.00017314866874442857,-0.17220936482460855,0.985056192043532
2025/05/06 15:13:10.593087176,1746537190,592061438,piren,-472.24655176031,-313.48754015932855,2.3463647594985346,-0.0036925786883846745,0.00038797516589879203,-0.17392053058017767,0.9847526914817802
2025/05/06 15:13:10.902274980,1746537190,901696499,piren,-472.2285768901737,-313.5075194345981,2.347159219748288,-0.0016398179220735178,0.00024684117681297846,-0.1756588269125659,0.984449707498721
2025/05/06 15:13:11.213965632,1746537191,213334962,piren,-472.2139174583067,-313.5364393132165,2.343857538342449,0.0043093781099203315,-0.0003960912146893515,-0.1773902951268377,0.9841310662543221
2025/05/06 15:13:11.533570814,1746537191,532108921,piren,-472.1999646906078,-313.5828239129953,2.334839225662147,-0.025150507954282784,0.0048032772176666,-0.18051839789275112,0.9832382663931699
2025/05/06 15:13:11.884545252,1746537191,883424489,piren,-472.1702077168092,-313.5823058248807,2.3452914889817453,-0.012946832214048057,0.0026037687274965593,-0.18159793754450967,0.9832841852707769
2025/05/06 15:13:12.195476161,1746537192,194123848,piren,-472.1472013789017,-313.5870704605436,2.3523340510128463,0.024838233459224996,-0.004350544816845913,-0.1829735247076191,0.9827943956771895
2025/05/06 15:13:12.507768023,1746537192,506002903,piren,-472.1498898679348,-313.6560472499692,2.3297681180442664,-0.02842839808534237,0.00628548549376808,-0.18538102318783242,0.9822353053602998
2025/05/06 15:13:12.821921767,1746537192,818408706,piren,-472.1221674104414,-313.6576707880588,2.3392672007614825,-0.014139572985186545,0.0032942070334689415,-0.18791607691507126,0.9820777813964973
2025/05/06 15:13:13.132076811,1746537193,130673164,piren,-472.1006082939504,-313.66096138878936,2.3479152819880404,0.028321070407363463,-0.004412585821393639,-0.1906528482898992,0.9812389808279626
2025/05/06 15:13:13.444748588,1746537193,443388373,piren,-472.1067601666663,-313.73276806364004,2.324541952287994,-0.02770910486595396,0.006582935128095928,-0.1923412392121835,0.9809147354234967
2025/05/06 15:13:13.755077508,1746537193,753595179,piren,-472.081955652224,-313.72443211074204,2.3367271717618965,0.01831041884889845,-0.0026942211960801913,-0.19358597078942866,0.9809087325777252
2025/05/06 15:13:14.68907072,1746537194,67535923,piren,-472.07919183737954,-313.77848117977953,2.323344939908909,0.0020134638634646948,0.0006050599657038686,-0.19582585210306155,0.9806364339110689
2025/05/06 15:13:14.381849896,1746537194,381256678,piren,-472.0715023412308,-313.8100632414789,2.319218260383537,-0.0036491777674618068,0.001727961004800972,-0.19740506252925857,0.9803136941511155
2025/05/06 15:13:14.737183860,1746537194,736816332,piren,-472.05521882943333,-313.8291923822001,2.3217597285154437,0.027490524914795127,-0.00466173803572342,-0.20087539441858832,0.9792199013273638
2025/05/06 15:13:15.52565021,1746537195,51172039,piren,-472.0594954171856,-313.8836180521411,2.304164257548217,0.0029385334063189205,0.000261657436263125,-0.20166519934251223,0.9794500721991657
2025/05/06 15:13:15.365001393,1746537195,363064724,piren,-472.0475790244961,-313.9062711849381,2.3029017525160924,-0.030161677657062822,0.00652668837515604,-0.20293682608459274,0.9787054307392378
2025/05/06 15:13:15.677591516,1746537195,677139892,piren,-472.0088833578582,-313.85831746858656,2.3303633767977354,-0.0010129332676087608,0.0006766688750087657,-0.2042198631476177,0.9789242889934836
2025/05/06 15:13:15.988741727,1746537195,986257577,piren,-471.9863427167791,-313.84791018627504,2.341816891080895,-0.0009135731008001083,0.0007660730386490568,-0.2057732055535893,0.9785989813976352
2025/05/06 15:13:16.297128118,1746537196,296656880,piren,-471.9690312460417,-313.8525187412331,2.3471697405198872,0.01040758022197933,-0.0015949854586806843,-0.20753861664356824,0.9781701594799259
2025/05/06 15:13:16.609502985,1746537196,607988120,piren,-471.9659307588964,-313.8882645305987,2.3384868114675097,0.025362962652327237,-0.004991096216109101,-0.20906716952703128,0.9775595775757169
2025/05/06 15:13:16.921020879,1746537196,920638272,piren,-471.9761223079241,-313.95911233450795,2.3138725188450517,-0.0014717320699846094,0.0007859375609717324,-0.2110752684933729,0.977468386873619
2025/05/06 15:13:17.232554929,1746537197,231328874,piren,-471.96940387231734,-313.9843239275398,2.309904410667351,0.02660575732201207,-0.004476451219029308,-0.2133044314667221,0.9766131857488226
2025/05/06 15:13:17.552414716,1746537197,548963013,piren,-471.97497831320334,-314.0387706205405,2.2914867876727003,-3.5349277493908375e-06,0.00013178394626154846,-0.21430352378317633,0.9767671075105925
2025/05/06 15:13:17.902830449,1746537197,900209160,piren,-471.9604383805434,-314.0515465890969,2.2941999466861387,0.00019859611967967475,0.00018907024095361053,-0.21527035742699893,0.976554452155781
2025/05/06 15:13:18.220865747,1746537198,218638009,piren,-471.9375986745229,-314.04565429060733,2.305867832839791,-0.019766631974131397,0.004500346832114552,-0.21682393993945429,0.9760002080982985
2025/05/06 15:13:18.536436494,1746537198,533682215,piren,-471.90049981473055,-314.0026707908303,2.3328997091024584,0.00274194574353006,-0.0004236207984573999,-0.21935393505009634,0.9756414061821058
2025/05/06 15:13:18.879139340,1746537198,877891574,piren,-471.87841810201996,-313.9961215458316,2.344801308967393,-0.02760562770948915,0.006478304308417806,-0.22068694218120938,0.9749324255776707
2025/05/06 15:13:19.198103702,1746537199,192267568,piren,-471.8456067405146,-313.96398339198123,2.3664253955628975,0.024708574429431175,-0.005209163733190944,-0.22168479481305148,0.974791363683307
2025/05/06 15:13:19.518652910,1746537199,514449936,piren,-471.85225332700287,-314.0211745896715,2.3480708335661706,-0.005208394134821391,0.0015653760563087702,-0.22387711146028197,0.9746022066425559
2025/05/06 15:13:19.829891853,1746537199,826631525,piren,-471.8514654297064,-314.0571185647432,2.3401984297225784,-0.019042638946834983,0.004768463938602908,-0.22548868248317383,0.9740479935432387
2025/05/06 15:13:20.141189747,1746537200,140449300,piren,-471.83817036917895,-314.06536003966454,2.3447046599658297,-0.02861186194456422,0.007254008667280783,-0.22837449005017207,0.9731258053348725
2025/05/06 15:13:20.458858742,1746537200,458107656,piren,-471.8144359420355,-314.05063776887545,2.358866312354969,-0.0011778182559111824,-9.421907690157857e-05,-0.2291217806428734,0.9733970482295294
2025/05/06 15:13:20.814352810,1746537200,812011875,piren,-471.8086982887018,-314.0768512985786,2.356571591427176,0.028937510454763365,-0.006901170081330927,-0.22998069209203667,0.9727403947637092
2025/05/06 15:13:21.129686662,1746537201,123999505,piren,-471.8321894988699,-314.1625150123892,2.325002488875816,-0.005203534289052353,0.001618621110736537,-0.23255215911958504,0.9725686590598228
2025/05/06 15:13:21.439390684,1746537201,438051738,piren,-471.83329563338873,-314.2000112760684,2.3169028648059085,-0.001269500641155042,0.000713770514917948,-0.2337151905711809,0.9723040103774389
2025/05/06 15:13:21.754460438,1746537201,754043799,piren,-471.82842752417156,-314.22599932745493,2.3148638338502576,-0.025578266436414636,0.005769424788998844,-0.23500973410469173,0.9716392802371434
2025/05/06 15:13:22.68252885,1746537202,67580468,piren,-471.7994205475171,-314.2085464135739,2.3335981452093852,-0.0008307488483815832,0.00035048303843523656,-0.23731354397679835,0.971432688796894
2025/05/06 15:13:22.384958639,1746537202,381356300,piren,-471.786427317014,-314.2178647154389,2.340216611695305,0.001844665263729458,-0.00023334913053251637,-0.23932051407031493,0.9709388416905405
2025/05/06 15:13:22.696415512,1746537202,695547581,piren,-471.78197304455074,-314.24217716677947,2.3404343934212486,0.030099745411871805,-0.006496334126148787,-0.24185162905237892,0.9698245163398235
2025/05/06 15:13:23.12829607,1746537203,10619363,piren,-471.8042853327481,-314.3160766238566,2.3152237869557655,0.03210094000906575,-0.007152240175595555,-0.24387635573778993,0.9692485224250074
2025/05/06 15:13:23.328149922,1746537203,325978522,piren,-471.83183269495277,-314.40424902657753,2.2838858754834592,-0.02387684247073745,0.00716307651288637,-0.24737839712074422,0.9685982218476707
2025/05/06 15:13:23.639449058,1746537203,638754533,piren,-471.8067649058891,-314.3869895886355,2.301082328533649,-0.0238435989598889,0.007123680770172643,-0.24785756637341552,0.9684768261307921
2025/05/06 15:13:23.992736671,1746537203,990733000,piren,-471.7666592912599,-314.347800209618,2.330536948967772,-0.02737505022247489,0.007804655078861082,-0.24938336224509214,0.9679863803895953
2025/05/06 15:13:24.307864095,1746537204,307336680,piren,-471.7257568429245,-314.30071131696684,2.361810544607556,0.024249302877885983,-0.005867371727370699,-0.2505037797224178,0.9677940904984551
2025/05/06 15:13:24.626253084,1746537204,622550661,piren,-471.73047639231027,-314.3409417637062,2.352795233311279,0.02120079206946866,-0.004806090758221324,-0.25232441340063316,0.9673984795880534
2025/05/06 15:13:24.942393917,1746537204,940793936,piren,-471.7533526002749,-314.4093678322416,2.3285571217504546,-0.004241402578418862,0.0018577380974537203,-0.2543264445292755,0.9671073461237003
2025/05/06 15:13:25.254792933,1746537205,254250261,piren,-471.75717505475995,-314.4445187965621,2.321674555119938,-0.0009051761524790996,0.00011592686090063146,-0.25544778919215455,0.9668224212408071
2025/05/06 15:13:25.575270525,1746537205,574276917,piren,-471.7576768053828,-314.47578349084273,2.3179884740767,-0.003441067569187284,0.0010971507343810474,-0.25608176622725864,0.9666483767741909
2025/05/06 15:13:25.890249973,1746537205,889467322,piren,-471.74849167356103,-314.48645805775567,2.321924446975583,0.0014588445290603595,-0.0006689591758933748,-0.2571183197009543,0.9663785976212527
2025/05/06 15:13:26.206238848,1746537206,203773098,piren,-471.74074987991617,-314.4990250911232,2.324379255970921,-0.029880225986090386,0.008818833679526591,-0.25881567323227167,0.9654241801181899
2025/05/06 15:13:26.522940928,1746537206,521028018,piren,-471.70359161403684,-314.4686524245749,2.3481385561412287,-0.006729933959185653,0.0022365320034802728,-0.26092011631826584,0.9653343456098333
2025/05/06 15:13:26.876603995,1746537206,875146534,piren,-471.6854685242166,-314.4683883324817,2.358467845129967,-0.026183350525308294,0.006896261233212898,-0.2632547583344357,0.9643463101762509
2025/05/06 15:13:27.191044857,1746537207,189557008,piren,-471.66373369264494,-314.4532508639708,2.3729016007537815,-0.029761070125323807,0.00939644781648296,-0.26447769756196526,0.9638866805624764
2025/05/06 15:13:27.506997322,1746537207,505384852,piren,-471.64154997281844,-314.44079311442687,2.3860403928884937,-0.004355247829202807,0.0021273039037462073,-0.26628211723744155,0.9638829495504073
2025/05/06 15:13:27.821736105,1746537207,821317639,piren,-471.6466024993261,-314.47783309680693,2.3791069959128253,0.025245416344997443,-0.007148768675804792,-0.2682063894486325,0.9630041000530144
2025/05/06 15:13:28.135896204,1746537208,134551008,piren,-471.6920376689244,-314.57305225494525,2.3409275199222632,-0.020478783672685526,0.006071954529247406,-0.27083034659526634,0.9623900841917326
2025/05/06 15:13:28.452308654,1746537208,451653744,piren,-471.6987873807413,-314.60371101507104,2.334297286726667,-0.0005256920210904275,0.0015175608794527973,-0.27276159076683554,0.9620803164285306
2025/05/06 15:13:28.769688109,1746537208,767974738,piren,-471.71004059203403,-314.64788128753725,2.323721528129321,-0.0006289145661802488,0.0010981293671806383,-0.2743535038103834,0.9616280744265567
2025/05/06 15:13:29.84986483,1746537209,83613230,piren,-471.71305641907924,-314.67442799350613,2.3202631678758703,-0.000627747991939987,0.0018070293687189975,-0.2758530645440495,0.9611979126896686
2025/05/06 15:13:29.401319454,1746537209,400621785,piren,-471.7088666385656,-314.69152892866475,2.3209583037399066,-0.00047472249591248714,0.0012808906714178018,-0.27756329550799963,0.9607063812343388
2025/05/06 15:13:29.725603427,1746537209,722139636,piren,-471.7004284275251,-314.7042482119441,2.3237040814622727,-0.0007940328997554662,0.0005333430528724932,-0.27986960112717074,0.960037546881298
2025/05/06 15:13:30.78333191,1746537210,76935771,piren,-471.690592051713,-314.7112169055769,2.3277464408113997,-0.0008407106498045381,0.00031490100278788356,-0.28029031293619194,0.9599148579520442
2025/05/06 15:13:30.393691561,1746537210,393159713,piren,-471.6822720842916,-314.71621826114506,2.3310743757443335,-0.000638221889652122,0.00018806328133257825,-0.28119064440560076,0.9596516966086106
2025/05/06 15:13:30.708072377,1746537210,707324785,piren,-471.67516504602537,-314.72493392361594,2.3332733528192415,-0.0008441470946673758,0.00033188113780390204,-0.28307802240497765,0.9590964552649958
2025/05/06 15:13:31.26878463,1746537211,26481096,piren,-471.6686236530274,-314.7383294134015,2.3345810476580646,-0.0007327965644887828,0.0007438925859457057,-0.28597681426089366,0.9582359685057779
2025/05/06 15:13:31.343144737,1746537211,341448855,piren,-471.66507859156974,-314.7538305491404,2.3345191404923185,-0.0007434424725833666,0.0006980435205139969,-0.28702767754778186,0.9579217464647413
2025/05/06 15:13:31.656885934,1746537211,656300693,piren,-471.66303230907687,-314.77184156158586,2.333799493513397,-0.0007631987040051971,0.0005997806846469577,-0.28837972427880787,0.9575156355985772
2025/05/06 15:13:31.970419072,1746537211,969834457,piren,-471.6609712846068,-314.7943718318929,2.3328203412964053,-0.00047708121963962866,0.0011069662363226145,-0.29038954424784186,0.95690775919667
2025/05/06 15:13:32.286973824,1746537212,285327822,piren,-471.65884987509077,-314.8144692593464,2.3318752464132197,-0.0008366880886764398,-0.0003236129284431449,-0.29151625704538703,0.956565453644424
2025/05/06 15:13:32.608600726,1746537212,601120518,piren,-471.6579632190506,-314.8318635992379,2.3311459598463724,-0.0009112517475168534,-3.822608060788092e-05,-0.29298505745929593,0.9561165850797655
2025/05/06 15:13:32.958834002,1746537212,957311855,piren,-471.6560579449457,-314.8522197349597,2.3307464546976013,-0.0009874931790979588,0.00019351424451363714,-0.2961119781561104,0.9551527018241291
2025/05/06 15:13:33.273046386,1746537213,271806575,piren,-471.65495269137887,-314.8728506613553,2.3308570697830815,-0.0007184696441989744,0.0009360429271814924,-0.2976503866370742,0.954674214043623
2025/05/06 15:13:33.589629542,1746537213,589164600,piren,-471.6535529121354,-314.8922656312647,2.3312082714721867,0.024651574469872803,-0.007076601309048027,-0.299224576652626,0.9538379706832424
2025/05/06 15:13:33.910017955,1746537213,906472102,piren,-471.6792762640258,-314.9541102882328,2.3101185654921212,0.0013982978342695646,-0.0001140703598326303,-0.30176155144694267,0.953382398526139
2025/05/06 15:13:34.225495774,1746537214,223679710,piren,-471.6813940332946,-314.9769072857685,2.308007998071822,-0.0029395605616767792,0.0015602021056003385,-0.3044950617095155,0.9525081008304405
2025/05/06 15:13:34.539543571,1746537214,539007026,piren,-471.67270619388955,-314.9831261748745,2.314549346845915,0.0018394169092533228,0.0009205279952633805,-0.30450148190276183,0.9525096412596914
2025/05/06 15:13:34.857710839,1746537214,857124411,piren,-471.66332039086967,-314.992119441813,2.3206873371699435,-0.0028557772610360342,0.001969201136485593,-0.30806521336765497,0.9513589181249423
2025/05/06 15:13:35.174279883,1746537215,173722649,piren,-471.65040715127327,-314.9967834204991,2.3300545256879777,0.027134923219181338,-0.007329181343874883,-0.3122223129500999,0.9495931793872614
2025/05/06 15:13:35.492785648,1746537215,490091337,piren,-471.67157246118234,-315.04152855468675,2.313774338258868,-0.028297950297996092,0.009883391024242764,-0.3109162217676366,0.9499645507241478
2025/05/06 15:13:35.808065926,1746537215,806411383,piren,-471.6389197056008,-315.013331019978,2.3337703185673613,0.02692884370388248,-0.008054817737441189,-0.3123376621137793,0.9495552338401844
2025/05/06 15:13:36.165997057,1746537216,164524623,piren,-471.6541192767574,-315.05502621104176,2.319305760841905,0.001424312201156514,1.6571362993994676e-05,-0.3152200460781858,0.949017541255487
2025/05/06 15:13:36.483936134,1746537216,483337334,piren,-471.65643295328357,-315.0782000923724,2.316726053734531,-0.028524778317073566,0.009858065607818687,-0.31593708238426527,0.9483000134656498
2025/05/06 15:13:36.800297905,1746537216,798833273,piren,-471.6218828383772,-315.04983213966483,2.33896581854943,-0.0035668403416684387,0.0018219018303864052,-0.31723066658926985,0.9483399509137138
2025/05/06 15:13:37.115469172,1746537217,114858237,piren,-471.60627269625746,-315.0514472487929,2.3488054556863203,0.024436916304459474,-0.008067712438375953,-0.319024690489101,0.9473969579832278
2025/05/06 15:13:37.434162404,1746537217,433184655,piren,-471.63313299080477,-315.10427717973994,2.3290213828981616,-0.0014594629776594568,0.0005512563980351054,-0.32077700650876845,0.9471534607335149
2025/05/06 15:13:37.752922281,1746537217,752335560,piren,-471.640720156837,-315.131457704385,2.3238518199618796,0.02884099032151342,-0.00959024541168389,-0.32176847306247097,0.9463304254927366
2025/05/06 15:13:38.74175737,1746537218,72913636,piren,-471.675114229591,-315.1965695252077,2.298250774543022,-0.026191250365330078,0.008850915057899908,-0.3231585574517965,0.9459409212274372
2025/05/06 15:13:38.395126667,1746537218,393573963,piren,-471.64724975902527,-315.17713351455086,2.3160002322653326,0.006249446379103213,-0.0014445567490324303,-0.3251316593867252,0.945647006942965
2025/05/06 15:13:38.717348565,1746537218,716764270,piren,-471.64062766644486,-315.1895878892512,2.32061979678126,0.026599170863159945,-0.008650881135235934,-0.32752523460770977,0.9444283281753789
2025/05/06 15:13:39.80295095,1746537219,79863307,piren,-471.6610700372769,-315.235572916987,2.306309345533195,-0.026359637695610613,0.010453141529925145,-0.33034147670070624,0.9434354297480609
2025/05/06 15:13:39.398304503,1746537219,397593078,piren,-471.62779070437784,-315.21107828148433,2.3277434568716053,-0.004451661005562863,0.0025109435881318152,-0.33118813156505206,0.9435508992031318
2025/05/06 15:13:39.721088097,1746537219,719017715,piren,-471.60909076602707,-315.2071615967715,2.3405304384305152,0.00024687808754786264,-7.87874199571178e-05,-0.3323979628824873,0.9431391875621142
2025/05/06 15:13:40.41103563,1746537220,40539374,piren,-471.6060337405589,-315.2186615711042,2.3439016437476705,-0.031037306818667728,0.011154461546551387,-0.3347249678887843,0.9417385302964421
2025/05/06 15:13:40.360118352,1746537220,359084971,piren,-471.57544750303833,-315.19508404203225,2.363896042648007,0.015770285788807847,-0.005518018892486086,-0.33642370065225785,0.9415625009488651
2025/05/06 15:13:40.678050651,1746537220,677502596,piren,-471.5967740280446,-315.2386578991761,2.350879524327754,-0.02911246595104691,0.010649367749331,-0.3379893133131933,0.9406392929167188
2025/05/06 15:13:40.996777253,1746537220,996017679,piren,-471.58230797164686,-315.2375614339148,2.3601292224006225,-0.0021400787749705197,0.0016237332510292165,-0.3398859037192448,0.9404628413744579
2025/05/06 15:13:41.326912795,1746537221,323809945,piren,-471.59280535238844,-315.2714032504696,2.35440672991914,-0.0006992268498001483,0.000937961567903077,-0.3425317561796664,0.9395055227716244
2025/05/06 15:13:41.647227224,1746537221,645878502,piren,-471.6113033502749,-315.3112134234218,2.344520789067573,-0.0006642986550988407,0.0008108161436364156,-0.34534231893907263,0.9384762032328055
2025/05/06 15:13:41.964650651,1746537221,964098575,piren,-471.63143392771474,-315.3541728964893,2.3342772877175872,-0.0006136510285280711,0.0009657975161859363,-0.34702025621640387,0.9378569360212007
2025/05/06 15:13:42.326496448,1746537222,324336626,piren,-471.64583455023126,-315.3897180924054,2.3271406684546503,-0.0006112849347144284,0.0009963294669335738,-0.3492797302431858,0.9370177712826845
2025/05/06 15:13:42.652374097,1746537222,651785875,piren,-471.6524765360407,-315.4126272396778,2.3244970086261647,-0.0006363663849352451,0.0009065004842259582,-0.3504152521464387,0.9365937883404118
2025/05/06 15:13:42.975424364,1746537222,974985206,piren,-471.6553696620267,-315.4343705530933,2.324068722254251,-0.0006463337225928328,0.0009129980326144077,-0.35211566912875375,0.9359558238727518
2025/05/06 15:13:43.296905047,1746537223,296194925,piren,-471.6532250592482,-315.4471801379565,2.3261525667932634,-0.0006308179492249052,0.0009503274642205788,-0.35344711167370685,0.93545381403677
2025/05/06 15:13:43.630907505,1746537223,630379740,piren,-471.6494301983189,-315.4619737362022,2.3289485032307056,-0.000708469436387718,0.000997401173275967,-0.3568802320372161,0.9341493473974171
2025/05/06 15:13:43.956789166,1746537223,956268802,piren,-471.64695878975385,-315.4733390746582,2.331357329465438,-0.0009297891771201116,0.0002924021460503409,-0.35741369660478955,0.9339456619484726
2025/05/06 15:13:44.277865450,1746537224,276532153,piren,-471.64608602755834,-315.48841081108776,2.333267961987628,-0.0005636142781884445,0.0011365650770901138,-0.3592865726982777,0.9332264190631855
2025/05/06 15:13:44.596606701,1746537224,596066027,piren,-471.64642341345376,-315.5044976441362,2.3338824951651516,-0.0005889712707039181,0.0010297603269942674,-0.3608302836984342,0.9326307410077254
2025/05/06 15:13:44.917189395,1746537224,916619572,piren,-471.6477516779449,-315.5250727576306,2.333900185701273,-0.0003388119563464164,0.0018702350614824802,-0.36307939549552826,0.9317562664097704
2025/05/06 15:13:45.279464352,1746537225,277798888,piren,-471.648814242538,-315.547022734165,2.3333541191373777,-0.0007053857259169085,0.0008607132040194342,-0.36551431144873964,0.930805054632769
2025/05/06 15:13:45.598786970,1746537225,597377452,piren,-471.65149479218695,-315.5643893086233,2.3326227518885627,-0.0006364997323197039,0.0009029729001483058,-0.36626462314412667,0.9305100780438239
2025/05/06 15:13:45.920576553,1746537225,919318850,piren,-471.65409561612387,-315.58397484992435,2.3318882212124286,-0.00036620983007904884,0.0015823038025791177,-0.36777031341965744,0.9299152427894941
2025/05/06 15:13:46.242602733,1746537226,241327942,piren,-471.6553590500872,-315.60118073913236,2.3314590934609996,-0.000814151851301076,0.00043941740680143927,-0.36980433260882317,0.9291091968400963
2025/05/06 15:13:46.559934064,1746537226,559424695,piren,-471.65780094349884,-315.61925815774777,2.3312020105934272,-0.0007178898512514964,0.0006734780812351298,-0.37117471891868636,0.9285625229875852
2025/05/06 15:13:46.880373848,1746537226,879792348,piren,-471.6594257048279,-315.6341308332004,2.3312275592213982,-0.0006963569150056377,0.0007306930038629774,-0.3719519747066389,0.9282514259006623
2025/05/06 15:13:47.202977939,1746537227,201555482,piren,-471.6607111716239,-315.6493117796278,2.3313825461144213,-0.000721378076473612,0.0007107022557083029,-0.37380657836877745,0.9275061274645044
2025/05/06 15:13:47.531516176,1746537227,522801909,piren,-471.662891816553,-315.6682909230329,2.3315981949729183,-0.0007130463209794102,0.0006483688264883727,-0.37590938251109907,0.9266559271503816
2025/05/06 15:13:47.846773901,1746537227,846312567,piren,-471.6654565281906,-315.684812296079,2.331759289694164,-0.0006711758392966393,0.0007566614676982143,-0.37832658929937274,0.9256716312038086
2025/05/06 15:13:48.174199081,1746537228,173565018,piren,-471.66867330373526,-315.7038700010827,2.331881713805563,-0.0006889467026994158,0.0006365584110223767,-0.37995344650916146,0.9250051343812314
2025/05/06 15:13:48.536786334,1746537228,532825832,piren,-471.67228987950193,-315.7229704972597,2.3319067756058,-0.0006865085952243897,0.0006444462622665455,-0.3821426231799407,0.924102877900571
2025/05/06 15:13:48.855742345,1746537228,855029034,piren,-471.676219132597,-315.7396868288087,2.3318651429562776,-0.0006971836879461842,0.0006242604510600851,-0.3834241797408494,0.9235718827594588
2025/05/06 15:13:49.178472970,1746537229,177867880,piren,-471.6806248575349,-315.75984712251505,2.3318021880925466,-0.0005653694669224801,0.0009214054704173771,-0.38532709165032075,0.922779423161153
2025/05/06 15:13:49.502205140,1746537229,500026973,piren,-471.6841950887539,-315.7777565364143,2.3317381328423417,-0.000585807107772641,0.0008934146240245625,-0.38696999054879977,0.9220916901561385
2025/05/06 15:13:49.822508421,1746537229,821962236,piren,-471.6883121891299,-315.79866762066706,2.3316899405705067,-0.0007903733937910457,0.00047610223023834516,-0.3903331481262935,0.9206732222186012
2025/05/06 15:13:50.144477616,1746537230,144012997,piren,-471.6930710548424,-315.8151233869048,2.331691951427895,-0.000692840065495081,0.0006437801165408087,-0.3910603333071077,0.9203645588751987
2025/05/06 15:13:50.467042838,1746537230,466350042,piren,-471.69767187964317,-315.834653496871,2.3316956484010887,-0.0006684859334179806,0.0007029773463239,-0.3928004069274708,0.9196232376723746
2025/05/06 15:13:50.799289168,1746537230,797759122,piren,-471.70176031768807,-315.8520600252472,2.331708683369615,-0.0004778176769558317,0.0011528354122846735,-0.3945448585733012,0.9188758334150233
2025/05/06 15:13:51.120141478,1746537231,118699334,piren,-471.70660339099,-315.8741029980574,2.331724889822316,-0.0005523979403343802,0.0009854181445855094,-0.39716316949094727,0.9177473184964917
2025/05/06 15:13:51.479600766,1746537231,479024249,piren,-471.71193379459436,-315.8954939147703,2.331741853501973,-0.0005174591196715914,0.0010744722890793888,-0.40010278115277814,0.9164694988155208
2025/05/06 15:13:51.801733216,1746537231,799974629,piren,-471.716780715262,-315.91248224428097,2.3317562026273233,-0.0003271614648730494,0.0015480723695011987,-0.40116435590655447,0.916004724871763
2025/05/06 15:13:52.123859775,1746537232,121617501,piren,-471.72146379627327,-315.9329873666177,2.331776574802869,-0.000446589919494961,0.0012522350742130944,-0.40321651511498446,0.915103641345225
2025/05/06 15:13:52.446431479,1746537232,445827362,piren,-471.72617131700514,-315.95048421986246,2.331786060797859,-0.0005213462225702296,0.001078764069603817,-0.40583895922526936,0.9139438186459541
2025/05/06 15:13:52.769556973,1746537232,769108855,piren,-471.7318574098096,-315.9699518000854,2.3317916628117725,0.00016159139513541497,0.001233384382622603,-0.4073012119403132,0.9132930391737024
2025/05/06 15:13:53.91335487,1746537233,89507967,piren,-471.73575688867857,-315.98600552777293,2.331397188284276,-0.0005795440685891327,0.0009434939122977286,-0.4075899085315503,0.9131644103945097
2025/05/06 15:13:53.417727757,1746537233,415837951,piren,-471.7384941011676,-316.00353065504686,2.3313418220155575,-0.0005799386112049246,0.0009110937564721102,-0.40948764140502564,0.9123150251508102
2025/05/06 15:13:53.739819609,1746537233,738094585,piren,-471.7408280256165,-316.0185190097196,2.331427263613407,-0.0007738297774962719,0.000521552196481321,-0.41163406802478203,0.9113487385255717
2025/05/06 15:13:54.70959431,1746537234,67176030,piren,-471.74476636561866,-316.0357345050412,2.331590345229699,-0.0008755394210353371,0.000752648182881061,-0.4130534657035777,0.9107060455611891
2025/05/06 15:13:54.423529765,1746537234,421220771,piren,-471.74775720928113,-316.0526289376985,2.331871373410314,-0.0006261400895716066,0.0008415259832190723,-0.41404324120115515,0.9102566089835602
2025/05/06 15:13:54.786163608,1746537234,784754414,piren,-471.75078766420665,-316.0712124092595,2.331998755578399,-0.000487169615106065,0.0011054396970225648,-0.4171365464115195,0.908843024023793
2025/05/06 15:13:55.109142588,1746537235,108700451,piren,-471.75558395307115,-316.0907357823104,2.3320023513225103,-0.0005842465553396501,0.000878001755869356,-0.41861153498830617,0.9081647816027736
2025/05/06 15:13:55.440905963,1746537235,440273031,piren,-471.7607684899163,-316.1081447693786,2.331937417742453,-0.0005633892166458319,0.0009213248336365934,-0.42098276360446596,0.9070679944199815
2025/05/06 15:13:55.771307448,1746537235,770099492,piren,-471.76645389881764,-316.12689008671106,2.33184680247494,-0.0004494349311838237,0.001104293818235139,-0.4224419319507421,0.9063892059557696
2025/05/06 15:13:56.94790987,1746537236,94213121,piren,-471.7709337325584,-316.1427535597144,2.3317504293132747,-0.0005012267736229719,0.001000744198857924,-0.4233578659516078,0.9059618450131718
2025/05/06 15:13:56.421053334,1746537236,417777389,piren,-471.7760528481756,-316.1620503991108,2.3316692827103758,-0.0005653253364153363,0.0008584854848987716,-0.4255558500847073,0.9049315785564223
2025/05/06 15:13:56.745498508,1746537236,743491658,piren,-471.78070861581165,-316.17827179704665,2.3316341784712,-0.0008550213419725545,0.002339969665310802,-0.42780172447775505,0.9038691708506985
2025/05/06 15:13:57.69184341,1746537237,67734667,piren,-471.78331718179066,-316.19643173071194,2.33224577891672,-0.0011638802290550663,0.0019696242162174677,-0.428601395860828,0.9034907910042079
2025/05/06 15:13:57.388080677,1746537237,386862769,piren,-471.78437824903045,-316.2103024990688,2.333009182832482,-0.000606836721326111,0.0015017179246112188,-0.42832933375936677,0.9036212472234844
2025/05/06 15:13:57.753362082,1746537237,752493343,piren,-471.78561870059366,-316.22623250993473,2.333236437155777,0.00012956221010627892,0.0008100436506890814,-0.4291920267752248,0.9032128936167222
2025/05/06 15:13:58.76635850,1746537238,75170452,piren,-471.78844365842525,-316.2416582727076,2.3324609243040615,0.0005035206603331286,0.00039779898391703003,-0.4284700858724991,0.9035557391413804
2025/05/06 15:13:58.400647410,1746537238,399282273,piren,-471.7917953277185,-316.25446480560254,2.3310876957648086,-0.026167478901233734,0.012757994941057001,-0.42759588420734634,0.9035011103601229
2025/05/06 15:13:58.733151296,1746537238,726011149,piren,-471.75694658733306,-316.23756207938163,2.3489044410625364,0.008497686920607688,-0.003605230019431091,-0.4269443567373394,0.9042307824242912
2025/05/06 15:13:59.52761543,1746537239,50463188,piren,-471.7681920409099,-316.25696509928383,2.343027806909048,0.0010034987972196705,-0.000986251594411868,-0.42612521872477577,0.9046630965529205
2025/05/06 15:13:59.373576076,1746537239,373138582,piren,-471.78188028238105,-316.2777378609582,2.337292522071352,-0.002437638052338725,0.0007186497285182672,-0.425685629582617,0.9048675517611098
2025/05/06 15:13:59.699540434,1746537239,698954045,piren,-471.79341795152163,-316.29387517100406,2.333954400773515,-0.0010860816947070942,-0.0005175793833418809,-0.4256087861646625,0.9049064668116683
2025/05/06 15:14:00.32463623,1746537240,32021563,piren,-471.80858761793723,-316.31186924335225,2.33049038350858,0.007604775784023971,-0.0044466122022407085,-0.42539619481859375,0.9049643487226768
2025/05/06 15:14:00.356245302,1746537240,355820699,piren,-471.83340877990815,-316.336510328752,2.321973555831452,-0.0014391310382581386,-0.000704096539970227,-0.4258596455250115,0.9047878179237543
2025/05/06 15:14:00.679217628,1746537240,678605496,piren,-471.8491054970906,-316.35246924948916,2.320565843304397,-0.0015115169483038184,-0.0010460106293397138,-0.4265583056233779,0.9044581986371684
2025/05/06 15:14:01.44430819,1746537241,43884025,piren,-471.86162001827773,-316.364127141351,2.32281287190243,-0.00154122212202227,-0.0013040248414275992,-0.4276835659512523,0.9039262644534699
2025/05/06 15:14:01.367715185,1746537241,367158104,piren,-471.8745923266415,-316.3750799074296,2.326684137975872,-0.0015000935049919012,-0.0012646035419125107,-0.42864653050907475,0.903470144708662
2025/05/06 15:14:01.690871018,1746537241,689618062,piren,-471.88793517771455,-316.38622409578767,2.3302048784793365,-0.001558336595307572,-0.0008616053951242518,-0.42953069481539874,0.9030505032580403
2025/05/06 15:14:02.13045990,1746537242,12571964,piren,-471.9076515041095,-316.404028495423,2.333364827235422,-0.026706507394113406,0.011053540726486772,-0.4305494439827381,0.9021040727024633
2025/05/06 15:14:02.339485865,1746537242,338727110,piren,-471.89280606366856,-316.3937138226808,2.35275961538647,-0.004269265815076971,0.00026354564095715173,-0.43177695042607084,0.9019702705709639
2025/05/06 15:14:02.662380804,1746537242,661805889,piren,-471.91405431877394,-316.4126689125151,2.3576959880410553,-0.00012797267479485,-0.00020488123464837356,-0.4326221073264577,0.9015753179291729
