time,header_stamp_secs,header_stamp_nsecs,header_frame_id,twist_linear_x,twist_linear_y,twist_linear_z,twist_angular_x,twist_angular_y,twist_angular_z
2025/05/06 15:12:27.621624502,1746537147,606303228,piren,-0.005980640972120333,-0.027007565758821808,-0.009856907151968996,0.0013372359154694982,6.971947879941989e-05,0.0005882375225352293
2025/05/06 15:12:27.969646234,1746537147,959469653,piren,0.007834401333229955,-0.0003809859767893893,0.0014117248528738736,-0.0012112856702799451,-0.00047222404011164316,0.0014892850445478415
2025/05/06 15:12:28.345435493,1746537148,332273635,piren,0.005190918175640156,0.02608057226111711,0.012163292686758807,-6.617362638246944e-05,-4.769660706166386e-06,0.0008711210534393988
2025/05/06 15:12:28.660581406,1746537148,656359116,piren,0.0018039035998755324,0.03595088002534837,0.01599950345821571,-0.0010839817910710883,0.0006880144388155297,0.0006347481798421159
2025/05/06 15:12:29.28248383,1746537149,19560123,piren,-0.023024788781412883,-0.08455891871367341,-0.03867589730642454,6.524611209496264e-05,-0.00078154279584555,0.000634764640539938
2025/05/06 15:12:29.333776471,1746537149,322508836,piren,-0.014345372287379962,-0.04704042442258426,-0.019996933709027227,-0.0007836251271966879,-1.6568002367470655e-05,0.0006652378466941558
2025/05/06 15:12:29.645383166,1746537149,632296404,piren,-0.003825681654779931,0.006098957531958583,0.004293859092173339,0.0012672567281725626,0.0034568286243135903,0.0004661243295956898
2025/05/06 15:12:29.940803659,1746537149,935687402,piren,-0.0009157111531293261,0.020250892007471044,0.011211222802735423,-7.070909132876535e-05,0.0003464029505180426,6.295139379828375e-05
2025/05/06 15:12:30.241707835,1746537150,234034691,piren,0.003531886585233348,0.03707302830034721,0.0200424938031227,-8.067493705260705e-05,-0.003177553988630105,0.0007199314595648628
2025/05/06 15:12:30.536420924,1746537150,531201381,piren,0.012706476254788992,0.07147865275442243,0.03638534542464572,0.00018148440198374716,-0.0012072954686918006,0.0015630348970670912
2025/05/06 15:12:30.837664961,1746537150,830279508,piren,0.011836345730807931,0.04115582670810952,0.025606166878384073,-0.0002828237964327814,0.0023383206196869004,0.0023920181342565344
2025/05/06 15:12:31.137938610,1746537151,132648333,piren,0.007017209909554492,-0.00844916545970547,0.005413481008714985,0.0005515050858585715,0.0020116386154872793,0.0017184181573651153
2025/05/06 15:12:31.443293912,1746537151,439620855,piren,0.012963641509850401,-0.015378436091304609,0.0035051314089327296,0.0005489346947850259,-0.0020392778287573517,0.0006889671009316044
2025/05/06 15:12:31.742874049,1746537151,737688776,piren,0.013209486595997202,-0.04327107620629205,-0.0061139083777215966,-0.0006122315894387273,-0.003971300864703159,-0.00011852049008597248
2025/05/06 15:12:32.85800963,1746537152,77081008,piren,0.015554061017064793,-0.06512276416028681,-0.013268223240669993,-0.0010427765479485613,0.0007494430902623597,-0.00019689848044595292
2025/05/06 15:12:32.381408542,1746537152,377049099,piren,-0.0005931281006722761,-0.17265948251674626,-0.06234569721047503,0.00013809983910572594,0.0023861325268923397,-0.0005781748720226971
2025/05/06 15:12:32.680140149,1746537152,675850203,piren,0.027931017988248763,-0.06018500960039956,-0.014069187687520468,0.00027977101179619635,-0.0008561707522553743,-0.0003597947817721728
2025/05/06 15:12:32.989068807,1746537152,973000287,piren,0.01503582370005473,-0.13608852390625498,-0.049665272446799136,-0.0005866182254136242,-0.001811499837199055,0.00021357933831404066
2025/05/06 15:12:33.273034278,1746537153,270188867,piren,0.03130552888574142,-0.05882603657041682,-0.01450269739726115,-0.00015353266678043664,0.0008799110243702515,0.000686399697149202
2025/05/06 15:12:33.581174391,1746537153,575632848,piren,0.0236422970255718,-0.1035434985506522,-0.0377086679925024,-0.0008722278075301343,0.0023403804665789183,0.0007214641571033359
2025/05/06 15:12:33.882959971,1746537153,877692404,piren,0.05168420010736566,0.018610811629878737,0.016306242414609165,0.00111477556860715,-2.8899840808642e-05,0.0007928637890499636
2025/05/06 15:12:34.180170888,1746537154,177146311,piren,0.06938765106979201,0.08382530271701441,0.04574824288894073,0.0011060899080920688,-0.001967505671056814,0.0007056996430290889
2025/05/06 15:12:34.491642765,1746537154,476348958,piren,0.07247521586391496,0.07176023168694926,0.041676821402032355,0.000642848969219756,-0.0003097211571196902,0.0006838536349004758
2025/05/06 15:12:34.782737341,1746537154,778411795,piren,0.09218281515609317,0.1412484793314438,0.06902007019728673,-0.001660966503229638,0.0014327525115075874,0.0006584967016995383
2025/05/06 15:12:35.126191166,1746537155,121327911,piren,0.06359063600630191,-0.04472406496583928,-0.013223503722198063,-0.002104723788498741,-0.0011746290544411774,0.0005575051698887968
2025/05/06 15:12:35.429171614,1746537155,424570292,piren,0.07325276076771854,-0.034861765414506876,-0.006651623030880575,-0.0005162433059605538,-0.001345207804267686,0.00034908068172907677
2025/05/06 15:12:35.737819446,1746537155,727640913,piren,0.0760200976027137,-0.034182773799693235,-0.005354007069152448,0.0003666416931307254,0.0009263171393492568,0.0005024789532016153
2025/05/06 15:12:36.33640689,1746537156,28715072,piren,0.07631839504783795,-0.03706864635792,-0.007599323628688995,-0.0008886071560376249,0.004388879587735288,0.003056508544835037
2025/05/06 15:12:36.334337514,1746537156,329606215,piren,0.059411503754336195,-0.09943870941351589,-0.038575595754676936,0.0003649214284562575,0.0027008007215317017,0.002201112523477356
2025/05/06 15:12:36.641456520,1746537156,631584743,piren,0.0663285798616472,-0.0603416083296902,-0.021712142699245162,0.0011095807871356151,-0.004378461313681701,0.001495351088322292
2025/05/06 15:12:36.936007488,1746537156,932781369,piren,0.07497432641034732,-0.01330396685684674,0.0011573293594549054,0.0017414336856773562,-0.005668366227868068,-0.0002159780284828937
2025/05/06 15:12:37.234932525,1746537157,231878768,piren,0.08187263560894292,-0.0084662039303562,0.00666074615697677,-0.000940279455549334,0.00010200830033316456,-0.000619006293494399
2025/05/06 15:12:37.555357596,1746537157,538233896,piren,0.06790360741429152,-0.10542980121654137,-0.03847645509089642,-0.002002218870087209,0.0053171225198777395,-0.0002812937662394245
2025/05/06 15:12:37.848783802,1746537157,843378225,piren,0.09165639146108345,-0.01620608442071854,0.0005632626639358596,-0.0002551090032747123,0.0009373865376376984,-0.00024661339587254917
2025/05/06 15:12:38.160226219,1746537158,155399575,piren,0.0948686918443856,-0.026660651870269718,-0.0038199222842844154,0.00022420721845598117,-0.0044002817274555244,-0.00027851585839843584
2025/05/06 15:12:38.532748627,1746537158,510666413,piren,0.08835522259169024,-0.07499189803524997,-0.026193860974694057,-0.00046476998039994473,-0.0005313688263947578,-0.000339877717491617
2025/05/06 15:12:38.820128326,1746537158,813274708,piren,0.11364421302441782,0.03927772600905016,0.02278055891174421,-0.0014170416617003921,0.006873446990212823,2.9517781535197614e-05
2025/05/06 15:12:39.121248817,1746537159,115011140,piren,0.09930721177420322,-0.03885234084491414,-0.016405883364794146,-4.6684792348909367e-05,0.002475538544949072,0.0005336878135055485
2025/05/06 15:12:39.430859671,1746537159,416676084,piren,0.12084499385368884,0.053512244276908386,0.02585869732991358,0.0017532176594247486,-0.005388959579417799,0.00012931837680402555
2025/05/06 15:12:39.727125172,1746537159,723180384,piren,0.11734791307503668,0.06401718709676105,0.034396369735480284,0.001419919395767984,-0.0037970465806951084,-0.000922274704339792
2025/05/06 15:12:40.29142019,1746537160,23811946,piren,0.12567215970716472,0.04518439219186847,0.030295437107850723,-0.00113889716166443,0.004739932428353126,0.0
2025/05/06 15:12:40.346062827,1746537160,326870362,piren,0.13149939164550245,0.028572659041856685,0.023702786081591844,0.0004353178685032525,0.006574978267112474,-0.0019520285440867856
2025/05/06 15:12:40.634833253,1746537160,631045129,piren,0.15149707958780723,0.1075823217205202,0.053837077719865525,-0.0009155004967008313,-0.0018385203523740735,-0.0009743247834302881
2025/05/06 15:12:40.938196069,1746537160,932191133,piren,0.12322339158481568,-0.08311888776856859,-0.02591977062778089,0.001395790161025525,-0.009065528304775456,-0.002302478859453871
2025/05/06 15:12:41.243187968,1746537161,235929654,piren,0.14467326421836346,-0.03386931909403711,0.0021060359857423376,3.775459137273818e-05,-0.002216573366699599,-0.0025394221372046534
2025/05/06 15:12:41.585818192,1746537161,580154012,piren,0.14363055851413278,-0.06491480229419676,-0.006732377751698137,-0.0013907960402434892,0.007796359965285916,-0.0025387997852136077
2025/05/06 15:12:41.886404935,1746537161,882653837,piren,0.12917872830298635,-0.1897398384548064,-0.06284407558569238,-0.0025569711856674783,-0.0008306235366093891,-0.003836522358528839
2025/05/06 15:12:42.203130059,1746537162,186980680,piren,0.1282345844112571,-0.22155541957149533,-0.07630418018704813,0.0025980216586940926,-0.006949145340610023,-0.003426326308833327
2025/05/06 15:12:42.496910925,1746537162,490291260,piren,0.170912942373525,-0.01079097855722419,0.014555015996455825,0.00175727390855427,-0.0004537391251362499,-0.0032455430924489105
2025/05/06 15:12:42.821367255,1746537162,817639888,piren,0.1679179680007566,-0.020654613324449636,0.010077742388926683,-9.737525851257743e-05,0.007277422594130372,-0.0026931033539442043
2025/05/06 15:12:43.141608856,1746537163,125858931,piren,0.20361492112474494,0.13284922033490193,0.07019132540115589,-0.001843524265865771,0.0007976815196330854,-0.0024552839083736683
2025/05/06 15:12:43.452239061,1746537163,433067182,piren,0.18148158430603886,-0.007682253198208394,0.009933379521410865,-0.001578561184040086,-0.006177722526125961,-0.0018935806068716308
2025/05/06 15:12:43.769889444,1746537163,765727339,piren,0.16306711134652702,-0.12793759108239963,-0.040693015917675865,0.0005518798755823627,-4.9149600624334834e-05,-0.0021727912136124605
2025/05/06 15:12:44.84438008,1746537164,70027446,piren,0.1964195649932209,0.00826388577725129,0.018405504580258136,0.001111679657069132,0.006084866491282802,-0.0034413310648434116
2025/05/06 15:12:44.377335304,1746537164,373714657,piren,0.20035955002385905,-0.007853975325724148,0.013863393444623395,-0.002155198139819469,0.001305253734086865,-0.004119759793075193
2025/05/06 15:12:44.720184639,1746537164,715379700,piren,0.20995448059347852,-0.010340238175239845,0.015601813033739132,-0.0024481863720327954,-0.004960166305105412,-0.0047540132989679984
2025/05/06 15:12:45.21198798,1746537165,15521579,piren,0.21313720961761662,-0.022198011213594777,0.012874979657091968,-5.47133559037846e-05,-0.0007724283959407618,-0.006343753905800622
2025/05/06 15:12:45.329888195,1746537165,321873510,piren,0.2386500247072037,0.07700294306073419,0.050683088183013786,0.0022218043552448595,0.004054235473703511,-0.006707476039912755
2025/05/06 15:12:45.629387288,1746537165,625716054,piren,0.2482009492394356,0.09832915765118785,0.05779647902793325,0.0002683797549994511,0.0005240410018075555,0.0
2025/05/06 15:12:45.942558040,1746537165,928332225,piren,0.2035642155076859,-0.15084012627275978,-0.04862130803030833,-0.0012586637436533257,-0.0037643736210876432,-0.009884799317439845
2025/05/06 15:12:46.237761057,1746537166,230208952,piren,0.20542262403791953,-0.1759321281169373,-0.05248934224262658,-0.00027386674891233807,-0.0011027530128431917,0.0
2025/05/06 15:12:46.537282170,1746537166,532240238,piren,0.2121068054504123,-0.17816356463749752,-0.049675480989869916,-0.00035454529651275353,0.002993364397083437,-0.00921082572022671
2025/05/06 15:12:46.852597418,1746537166,835837354,piren,0.23533508390387411,-0.09978541569880645,-0.015593591935436177,0.00037887805904832214,0.0016122961545739934,-0.003798433493794436
2025/05/06 15:12:47.144716265,1746537167,138876411,piren,0.24925685056296076,-0.054974748603171524,0.003126117235748283,0.0002692488081296903,-0.0023822082566186857,-0.003021188089657572
2025/05/06 15:12:47.444916514,1746537167,442388477,piren,0.2596544252814512,-0.0417106628985489,0.00869986270292894,-0.002208694180372433,-0.0012718828009726985,-0.002733590024298557
2025/05/06 15:12:47.798232864,1746537167,794191101,piren,0.24642430200533472,-0.1396032071905206,-0.037973506842329634,-0.0009719837443965839,0.003899021154164051,-0.002431949649704384
2025/05/06 15:12:48.100895557,1746537168,96084547,piren,0.26401077894438474,-0.07400104231905925,-0.00953570613862123,0.0008406473705199838,0.0019958872452115954,-0.002912860462804356
2025/05/06 15:12:48.411466815,1746537168,407940974,piren,0.2787220367969441,-0.030578847519154358,0.01120900532247912,0.00191127310230951,-0.004545778726995584,-0.002676720670659607
2025/05/06 15:12:48.727020958,1746537168,722773264,piren,0.28461208749745326,-0.02230128138780811,0.018744038070319498,-0.0008949969562185162,-0.003289871739215041,-0.002126721521757044
2025/05/06 15:12:49.33921418,1746537169,28922919,piren,0.27953966327477264,-0.0989956660179355,-0.012209929675926181,-0.00137651202475464,0.0007234715837219125,-0.0020682419460500002
2025/05/06 15:12:49.341828427,1746537169,336480048,piren,0.3188069288790759,0.0474708923667099,0.04819899675818011,-0.0008506506777692379,0.0033876502262968015,-0.0005361840308891071
2025/05/06 15:12:49.644872580,1746537169,639979520,piren,0.30628974169035267,-0.01896199200996261,0.021504315247958882,0.0011011178153110582,-0.0013785551915326873,0.0024430593395344423
2025/05/06 15:12:49.945764349,1746537169,942158670,piren,0.31333341903937273,0.042703752042235005,0.04470857865916156,0.0013683901890030237,0.0035223062618050713,0.003689005821485183
2025/05/06 15:12:50.249280553,1746537170,243237417,piren,0.30666284198055127,0.02840069401127084,0.037041494088730184,2.465996773990426e-05,0.0016995482489589693,0.0034926917710887675
2025/05/06 15:12:50.557504740,1746537170,553087750,piren,0.28668894302418285,-0.06209984137485616,-0.0007286010041279295,-0.0017740797886012685,-0.003225318377396983,0.003390817765398352
2025/05/06 15:12:50.873459097,1746537170,854864345,piren,0.2544115438510291,-0.22194460440518876,-0.07014578832810112,0.0001348231097274831,-0.003929674567465117,0.0033543848971505086
2025/05/06 15:12:51.203988059,1746537171,192730217,piren,0.26411975967253076,-0.19172326112425206,-0.053620971628023165,7.094369543285578e-05,0.0027158245655098776,0.003597529664253952
2025/05/06 15:12:51.504081492,1746537171,497897656,piren,0.25511900171854923,-0.23127517556285918,-0.07358137742957555,-0.00043926238781876435,0.003466007975539355,0.004524685597656293
2025/05/06 15:12:51.812474813,1746537171,807838972,piren,0.2672474667751432,-0.16803919250473834,-0.046089006406372465,-0.0011824378715964686,-0.0018888363077139657,0.0046755752705978275
2025/05/06 15:12:52.124999798,1746537172,109719465,piren,0.29504065842479593,-0.03119237960490817,0.014805623406971453,-0.0018320109137763094,-0.002943695639812972,0.00491095497589573
2025/05/06 15:12:52.418431722,1746537172,411369066,piren,0.3083933453175634,0.051654814398216786,0.050840962089639535,0.001314768790723152,0.002280046403233939,0.005779600971796657
2025/05/06 15:12:52.723239559,1746537172,716057929,piren,0.3063209446873318,0.07763098808918631,0.05991308507811877,0.0011896659218502558,0.0036449075775099537,0.005456800664864161
2025/05/06 15:12:53.30472241,1746537173,20453010,piren,0.2922829994341557,0.03985475128874942,0.041354239131789094,0.0015086787868109795,-0.0014314049569301142,0.00525045974783048
2025/05/06 15:12:53.328881290,1746537173,324980715,piren,0.27701224679308345,-0.0026567170810717355,0.02225839899536245,-0.0008020085876288087,-0.003642586025072131,0.004646727117186341
2025/05/06 15:12:53.633469012,1746537173,629215208,piren,0.24365770468971298,-0.13844149537148903,-0.03960653489997754,-0.0007023445299315763,0.002229545775285818,0.0033461192119941183
2025/05/06 15:12:53.976467596,1746537173,970809950,piren,0.253091208280239,-0.06422690118779381,-0.007284056282307688,-0.0008966786608971228,0.002701837299536388,0.0009436224416139177
2025/05/06 15:12:54.280315641,1746537174,275209412,piren,0.23557463176180157,-0.11873188043327854,-0.03103104303304485,0.0017760717712278686,-0.002241093008144744,0.00026637249167183467
2025/05/06 15:12:54.584056683,1746537174,579155416,piren,0.2625825725847792,0.05526721489063721,0.04145681732843384,5.264431343068998e-05,-0.003226552153193742,-0.0006073010963841535
2025/05/06 15:12:54.891382293,1746537174,885286888,piren,0.25054130511907735,0.03369065450097015,0.036854297780154026,-0.0009766231317287352,0.004002500070686466,-0.001289009676478944
2025/05/06 15:12:55.197997855,1746537175,193490465,piren,0.23211720040380918,-0.014949893480752041,0.01787090530668975,-0.000970855222141525,0.0030058195888076305,-0.0026685588308246527
2025/05/06 15:12:55.507900718,1746537175,503745496,piren,0.22023819471610317,-0.054514483615912,0.002284837294640369,0.0007523110845761938,-0.002756186583329674,-0.0030813429823941
2025/05/06 15:12:55.815987784,1746537175,810471291,piren,0.23676232889574772,0.039818646677577375,0.03962007677111762,0.0009083935849613224,-0.0034381643500487127,-0.0037945107694720083
2025/05/06 15:12:56.138426450,1746537176,117865805,piren,0.214915347901024,-0.03200142523346538,0.012035048340947919,-0.00041659805656772344,0.002574767837092313,-0.005136078771169622
2025/05/06 15:12:56.431670849,1746537176,426103810,piren,0.1748364247082011,-0.19918440207688898,-0.06242603048703246,-0.0017998077136481085,0.0035237811574887817,-0.0052228516500614835
2025/05/06 15:12:56.778588808,1746537176,774950512,piren,0.15794630335076387,-0.26954345048125056,-0.09433237474891017,-0.0006184411074103329,-0.002803189216580061,-0.004632199861455798
2025/05/06 15:12:57.87974698,1746537177,83993359,piren,0.1972299743864826,-0.0786357251082331,-0.00995944847074301,0.0019356141356143969,-0.00428793322825917,-0.0059523412743256255
2025/05/06 15:12:57.395438229,1746537177,388536655,piren,0.21114927883750195,0.008060535012464731,0.030682691041651583,0.0010562403681091985,0.0017003504806962864,-0.0066175597268652835
2025/05/06 15:12:57.701387497,1746537177,695529230,piren,0.20842897799361734,0.022798152467749366,0.03759415188813489,-0.001649047001707517,0.0035850520815578096,-0.006917377305467042
2025/05/06 15:12:58.5465904,1746537178,1992345,piren,0.18685195600860452,-0.06988351125451067,-0.004878801083840992,-0.0017020079024135865,-0.0008817562465117951,-0.007837799848290875
2025/05/06 15:12:58.314674616,1746537178,308255177,piren,0.18963425955225857,-0.05123212054158961,0.0031363606391761802,0.00012387088198124476,-0.0032402086034322196,-0.00815041476891862
2025/05/06 15:12:58.620614238,1746537178,614711402,piren,0.20881637986112792,0.048846509273153566,0.04287844659241327,0.00014459203889760148,-0.0020335924348237862,-0.008878181477054126
2025/05/06 15:12:58.928434691,1746537178,922723776,piren,0.17530756335477263,-0.09257531082353074,-0.020972102883314275,0.00189346332522572,0.005990514462875928,-0.007750144462418407
2025/05/06 15:12:59.237472624,1746537179,232441230,piren,0.15707579429213211,-0.12654639487473052,-0.03764058987292056,-0.000208793367088134,0.0033162173284424544,-0.008196781075636319
2025/05/06 15:12:59.562421657,1746537179,542375288,piren,0.1636420942841599,-0.08215861937092034,-0.01745705668431927,-0.0005972468448574332,-0.0048444757990047955,-0.006790344998681702
2025/05/06 15:12:59.914676077,1746537179,901026341,piren,0.16891534396440905,-0.050543405816051226,-0.00037314347582355703,0.0003719029002059342,-0.0037357641155218776,-0.007081837101702277
2025/05/06 15:13:00.230609296,1746537180,225732538,piren,0.17312173809377812,-0.02410482683380854,0.012304680134482136,0.0014777200813197594,0.008881649793888738,-0.00802012584766213
2025/05/06 15:13:00.539954566,1746537180,532480078,piren,0.18942714476943395,0.11803692923049361,0.06543468473229919,0.0006633961152237809,0.005578476233364163,0.0
2025/05/06 15:13:00.864077600,1746537180,841074774,piren,0.17627364787690597,0.04248483144879224,0.03711625392792979,-0.00089228625625542,-0.008868801996435399,-0.01662010662356853
2025/05/06 15:13:01.151934018,1746537181,148339412,piren,0.16293556168325296,-0.037610858900461105,0.010102110033857175,-0.00025608271980132724,-0.0072375708693917,-0.008991370693139171
2025/05/06 15:13:01.462790077,1746537181,457241453,piren,0.17722822070377361,0.019434549011567055,0.03513389336390216,0.0015706171904627821,0.006019019982378451,-0.009445303790042298
2025/05/06 15:13:01.769042743,1746537181,762849195,piren,0.15615800546538622,-0.05814129312748214,0.004082104032905789,0.00042864065233932377,0.007300730923938337,-0.010291378866692926
2025/05/06 15:13:02.75745813,1746537182,69916783,piren,0.14023945117423892,-0.12078175247365783,-0.020786959031508685,-0.0014853442470349732,-0.008597088816068082,-0.011551752880722872
2025/05/06 15:13:02.380493489,1746537182,377151333,piren,0.10308116243427348,-0.2536492886097216,-0.07817507205258481,-0.00048480975788865006,-0.005993486426901502,-0.013256268701005988
2025/05/06 15:13:02.731090313,1746537182,727611786,piren,0.11033724166163693,-0.20399377699022753,-0.05541578515924557,-0.0003335171506523195,0.007969781922131457,-0.012965971503640783
2025/05/06 15:13:03.53595594,1746537183,34821964,piren,0.10815499664131521,-0.1773242276627565,-0.0485523690364174,-0.001195061176682164,0.004895941918156503,0.0
2025/05/06 15:13:03.355717517,1746537183,350521818,piren,0.1102182024151719,-0.1680162193024893,-0.049052969313426203,-0.0006026183614850447,-0.0043905114312032464,-0.020707986616638956
2025/05/06 15:13:03.669971754,1746537183,665224454,piren,0.1410676824285022,-0.02307611617429703,0.015315122083828694,0.00115246227580064,-0.0029308703103724273,-0.009738262693996991
2025/05/06 15:13:03.979705692,1746537183,974096914,piren,0.148319447479071,0.03985716760098565,0.043265002784809194,0.0003912856731183076,0.003178860867927975,-0.011605524625764235
2025/05/06 15:13:04.286577306,1746537184,281384282,piren,0.18346704247824192,0.14947169895199347,0.08883172822048144,-0.0020010435493234887,0.0035169483946058066,-0.01128311496829292
2025/05/06 15:13:04.596039590,1746537184,590991766,piren,0.1344825403654798,-0.014208255077709897,0.015528129235437893,0.0001652022058231611,-0.0013776171464199966,-0.010573909104598017
2025/05/06 15:13:04.913496593,1746537184,908748858,piren,0.1275079369490416,-0.03240535174827476,0.011727586603593698,0.0012287269408750726,-0.003830913767463719,-0.011133348236714453
2025/05/06 15:13:05.242402527,1746537185,219694296,piren,0.11838023770797038,-0.053813904330808716,0.006074976367452356,-0.0009161129429861436,0.000873836490820525,-0.011453211502335208
2025/05/06 15:13:05.534018086,1746537185,529173876,piren,0.08094614028718781,-0.16758580085333907,-0.0456020825111191,-0.0024833691471477033,0.0029399566871230166,-0.01250288683950022
2025/05/06 15:13:05.882287697,1746537185,876076389,piren,0.06565324627604271,-0.2079291936024669,-0.06458184515241236,5.726476643839716e-05,-0.0009917811477822543,-0.009576757161793785
2025/05/06 15:13:06.197550676,1746537186,190050623,piren,0.1277649334654146,0.007438953177189039,0.02810194291413394,-0.00014155349369958937,-0.0022759130123310377,-0.011494808127711203
2025/05/06 15:13:06.506458430,1746537186,500908839,piren,0.09926730882352816,-0.07279378981602297,-0.004640336805674265,0.0004903851648320928,-0.0010170131079565963,-0.012622598460489387
2025/05/06 15:13:06.815388070,1746537186,811468581,piren,0.12152583114152579,0.01313538763802223,0.0360236427456241,0.00041113400442933354,0.0019260828794679216,-0.012777763643694075
2025/05/06 15:13:07.129778379,1746537187,124655594,piren,0.11104483345934599,-0.0050426714451982,0.029465699851369234,0.00046222079603652316,0.0005867260307188135,-0.01501004501185098
2025/05/06 15:13:07.453534190,1746537187,440027983,piren,0.10251692388915247,-0.011371154433526886,0.026175817903383473,-0.0010529701092676722,-0.000990940328096429,-0.01386176010081528
2025/05/06 15:13:07.756576889,1746537187,752726729,piren,0.09494036880450979,-0.024014126325936944,0.019422925330801758,0.0016432460212843119,-0.0008224887259046258,-0.010317851026070636
2025/05/06 15:13:08.66770714,1746537188,61241568,piren,0.08186850273668854,-0.058992253052974244,0.0026305073571138704,0.00032672694925710733,0.00038410258015161446,-0.010622850860660794
2025/05/06 15:13:08.373248418,1746537188,369394693,piren,0.045368539743094814,-0.18057668218316342,-0.055741694067057646,-0.00012030898966729137,0.0012416171042869098,-0.010530653640769327
2025/05/06 15:13:08.745081240,1746537188,723984304,piren,0.09430782529711934,-0.02872680454329332,0.008843155338054257,-0.0011038143551860278,-5.2917439204187384e-05,-0.012257104147636344
2025/05/06 15:13:09.41035640,1746537189,35632791,piren,0.09060659936280928,-0.023955600245744273,0.013492375594188512,-9.230029960170551e-05,-0.0012186212863510802,-0.010706442250311813
2025/05/06 15:13:09.352121425,1746537189,346603258,piren,0.048390217838732784,-0.1325331999301392,-0.0351276044408865,0.0023797378955979025,-0.0012183150830207205,-0.010641629726491275
2025/05/06 15:13:09.664659106,1746537189,659178390,piren,0.05736594101454131,-0.09905523644579209,-0.017133433189630284,0.0013836117180377767,0.002996619477205084,-0.009570120162167411
2025/05/06 15:13:09.973945144,1746537189,970552690,piren,0.10600072380189005,0.046062212847301054,0.04490231844799529,-0.001543734153984743,0.0006903349849197849,-0.01020021165692573
2025/05/06 15:13:10.284589697,1746537190,280980832,piren,0.0946116553520372,0.016020506240602632,0.035065571080587554,-0.0007130775254209046,-0.002548800817707608,-0.011600698842082603
2025/05/06 15:13:10.611093202,1746537190,592061438,piren,0.07963975000766396,-0.02068863675408414,0.021509170534636846,0.0003026178937575836,-0.0002986984644420162,-0.012198148359573557
2025/05/06 15:13:10.905365614,1746537190,901696499,piren,0.0667616567007829,-0.0513702803757946,0.009006954707197803,0.000900561109587776,0.0016520253378657116,-0.012457167239065757
2025/05/06 15:13:11.221204997,1746537191,213334962,piren,0.055186453811029705,-0.08167399170665651,-0.004289768481923646,-0.0014215193667491339,0.00011331075429005674,-0.012501689052668298
2025/05/06 15:13:11.541209467,1746537191,532108921,piren,0.042573641736271664,-0.12022886450058598,-0.02094988145895394,-0.0006474612895349246,-0.0024853334199174916,-0.012396575693345362
2025/05/06 15:13:11.889963022,1746537191,883424489,piren,0.075735891248178,-0.025961615889718306,0.018505752971725666,-1.6073653655301666e-05,0.0003722271015252688,-0.011042814909102762
2025/05/06 15:13:12.198169643,1746537192,194123848,piren,0.07610481837491562,-0.01915023347764822,0.02175410030589985,-0.0005391229274018924,0.0030892750250158785,-0.013597065112710615
2025/05/06 15:13:12.510534505,1746537192,506002903,piren,0.019359662759461854,-0.16007643141433567,-0.04303631865714928,0.001510427071465368,-0.002639221014791209,-0.015256998985988103
2025/05/06 15:13:12.837842724,1746537192,818408706,piren,0.06601984145136186,-0.039956422264458016,0.011343449301728849,-0.0002673466168482966,-0.0026793005663888515,-0.015055161829052553
2025/05/06 15:13:13.134933567,1746537193,130673164,piren,0.07033054606545222,-0.020875416634361904,0.023073857719687875,-0.0012354807649552328,0.0033918645110606444,-0.016680765808986624
2025/05/06 15:13:13.447288914,1746537193,443388373,piren,0.008639654171884406,-0.16631896521812398,-0.044657830689543106,0.0017436694240625904,0.0015410990005009242,-0.01249870937865862
2025/05/06 15:13:13.761652384,1746537193,753595179,piren,0.05813669934200364,-0.039338852536411145,0.011545438558500487,-0.0005973278658313912,-0.0021560164536237004,-0.012520068913536703
2025/05/06 15:13:14.71658444,1746537194,67535923,piren,0.01905600131344757,-0.12886815892279577,-0.0271791437295923,0.0006684797779234743,-0.0006220563964759519,-0.012381878874135588
2025/05/06 15:13:14.384707154,1746537194,381256678,piren,0.023456746706097265,-0.11322902342790206,-0.01824622081325545,-0.0016431355947277696,0.0008655765872474365,-0.014122944412261033
2025/05/06 15:13:14.740564721,1746537194,736816332,piren,0.04151445883667323,-0.06820260602303227,0.001510180659078611,-0.000979657633968758,0.0008077797732373146,-0.013695568300360433
2025/05/06 15:13:15.59214758,1746537195,51172039,piren,0.003916814968306724,-0.14301464362806604,-0.038618786831376054,0.0020693012890141338,-0.00043044832952398134,-0.011227708933156246
2025/05/06 15:13:15.367600474,1746537195,363064724,piren,0.02738399089935258,-0.08321920076218653,-0.011682844835506374,0.0012703099436007657,-0.0007849762707863818,-0.0109483210133198
2025/05/06 15:13:15.680777375,1746537195,677139892,piren,0.09475267628604371,0.08053007051416947,0.05744551029400474,-0.0005570522367840864,0.002247917278271742,-0.011563652750218426
2025/05/06 15:13:15.993678095,1746537195,986257577,piren,0.08301845946402893,0.051109033188823136,0.045414569461706245,-0.0008009514247043431,0.001010796839451455,-0.012203615154700493
2025/05/06 15:13:16.300811168,1746537196,296656880,piren,0.06515358766496349,0.0060954410258096114,0.026467832059733833,-0.0018684308882825293,-0.0017630408605599846,-0.01210116003706253
2025/05/06 15:13:16.611588618,1746537196,607988120,piren,0.028778901569149022,-0.07740076387894938,-0.01040701627753849,-0.0005427613174784006,-0.0018031016448869215,-0.012611158064439795
2025/05/06 15:13:16.926321233,1746537196,920638272,piren,-0.016081304828685167,-0.17520430123445244,-0.05710296819521887,0.0001366677848145883,0.0014983801247997067,-0.012600979651606562
2025/05/06 15:13:17.239328115,1746537197,231328874,piren,0.009507575663338066,-0.11514852000345804,-0.028085384889154467,-0.0018295566736280218,0.0004295839566454022,-0.013535999411952677
2025/05/06 15:13:17.555176412,1746537197,548963013,piren,-0.009374351588894277,-0.15753075651496096,-0.04984173181964189,-0.0002874672306948381,0.0001225984810602296,-0.00906214676835255
2025/05/06 15:13:17.904592796,1746537197,900209160,piren,0.0302393539625885,-0.06330286253814797,-0.005014019287426889,0.0007109991719701002,0.00038231085700470767,-0.009511909774763674
2025/05/06 15:13:18.222273877,1746537198,218638009,piren,0.0577674789057258,-0.0015580036255409616,0.024773954198893604,0.0017842115692820678,-0.00035037033984612875,-0.011581612600222462
2025/05/06 15:13:18.557835184,1746537198,533682215,piren,0.10111883363852059,0.09513644422959308,0.0681112205729986,0.0009783660884245275,-8.952553608667496e-05,-0.01283118493105184
2025/05/06 15:13:18.896815832,1746537198,877891574,piren,0.07336948146244168,0.037411104651619585,0.04281435065443529,0.0006732415357988704,-1.8187760246108804e-05,-0.009881112855841754
2025/05/06 15:13:19.199059091,1746537199,192267568,piren,0.09624858981706012,0.08332969776761323,0.061672359952254514,-0.0017208190921132532,0.000180509854797668,-0.011693085329965148
2025/05/06 15:13:19.518798905,1746537199,514449936,piren,0.00807901811931544,-0.10732706509957046,-0.02615190855262548,0.0008111784071669007,-0.0005146551440650855,-0.012784495537232408
2025/05/06 15:13:19.837202491,1746537199,826631525,piren,0.0043288573956945745,-0.11413551412356304,-0.02584178197326339,0.0010651050991729,-0.00020427092019734445,-0.015360765018394583
2025/05/06 15:13:20.145304039,1746537200,140449300,piren,0.031096268502006127,-0.05672854543636226,0.0013628770799817003,0.0007472433897093581,0.00027001933125198816,-0.014390398294853397
2025/05/06 15:13:20.464746381,1746537200,458107656,piren,0.06349441301513281,0.013564046086594825,0.03204585223576201,-0.00044310242689735407,-0.00015296741600961855,-0.00979156613028978
2025/05/06 15:13:20.819101506,1746537200,812011875,piren,0.025958550427822337,-0.055440302391934385,0.001565028339278511,-0.000397437943053611,0.002717763317940175,-0.009337180947022272
2025/05/06 15:13:21.131582617,1746537201,123999505,piren,-0.04619777653870157,-0.20328175235563267,-0.06981219604331684,0.002255690686433778,-0.0017410950629939686,-0.011555855330804768
2025/05/06 15:13:21.443214748,1746537201,438051738,piren,-0.01725079320021875,-0.1484308936277552,-0.04035611534850489,9.543808481099459e-05,-0.0011680080355992058,-0.009594416168104875
2025/05/06 15:13:21.758088698,1746537201,754043799,piren,0.005092977964432362,-0.10742176745270574,-0.018005441015647113,0.0015973546345310473,0.0010373619565951428,-0.010537984796376909
2025/05/06 15:13:22.73121795,1746537202,67580468,piren,0.06567539042303026,0.01334508702743785,0.037372782842124995,-0.0003928212991350957,-0.00035158703862642524,-0.01162486667584757
2025/05/06 15:13:22.397863163,1746537202,381356300,piren,0.05006114946113514,-0.016407548229107692,0.026764052187447394,0.0008167109045433261,-0.0025476888767097796,-0.014470444718147256
2025/05/06 15:13:22.699451322,1746537202,695547581,piren,0.026199647493558884,-0.059375792896025285,0.009198549129827916,0.00038622989262383095,-0.0028552622230610188,-0.015898400655890647
2025/05/06 15:13:23.15115095,1746537203,10619363,piren,-0.040469466088688635,-0.18493287974097203,-0.05283205200560438,0.0007713098820588207,0.0006773499268985095,-0.016097425900615067
2025/05/06 15:13:23.341861821,1746537203,325978522,piren,-0.07035275476559916,-0.23765575292818486,-0.08156308112386469,0.0020842650561303695,0.0025704418116932666,-0.014287004764630531
2025/05/06 15:13:23.644315350,1746537203,638754533,piren,0.03280291675973815,-0.03905831674587665,0.011653804572825652,0.0021113869756980625,-5.6903168427694474e-05,-0.011762809099642751
2025/05/06 15:13:23.995681374,1746537203,990733000,piren,0.09615417251557148,0.07875225598436424,0.0679587522860094,0.0015483218541650866,-0.001812627819321526,-0.011567759312357753
2025/05/06 15:13:24.314011685,1746537204,307336680,piren,0.12385996272455516,0.13164905652342945,0.09279726620705103,-0.0014250910800553515,-0.0001318527762973776,-0.012646216823399682
2025/05/06 15:13:24.631733775,1746537204,622550661,piren,0.01611602977759534,-0.06117006016297585,-0.0001092320671249869,-0.00013942571535161268,0.00377170466351705,-0.011544320574424824
2025/05/06 15:13:24.946305887,1746537204,940793936,piren,-0.045352167810824226,-0.1733085980204118,-0.053968164940506685,-0.0012305687405926927,-2.653841878134925e-05,-0.013167998683940248
2025/05/06 15:13:25.258761711,1746537205,254250261,piren,-0.02297903880630625,-0.13347502918427329,-0.032532225889895586,-1.5135978613169131e-06,-0.0044800757597465565,-0.00878699828571864
2025/05/06 15:13:25.577827184,1746537205,574276917,piren,-0.006147596795608168,-0.09871421691054769,-0.015316637456081708,-0.0005509819691186105,0.0022041796424317125,-0.008207782977940838
2025/05/06 15:13:25.904426514,1746537205,889467322,piren,0.018306394436604333,-0.05758773229313141,0.003494154756159558,0.0008145786620142869,0.003903262985851499,-0.010256686464083304
2025/05/06 15:13:26.208244250,1746537206,203773098,piren,0.023458519672158527,-0.04759981218771776,0.006649126032010028,0.00039322452921691515,-0.0020964519459329757,-0.011542820590692683
2025/05/06 15:13:26.526581124,1746537206,521028018,piren,0.08748884179003683,0.057556926665757194,0.05419591486277767,-0.00031570755996401323,-0.004099873121409627,-0.011293250235141751
2025/05/06 15:13:26.879237113,1746537206,875146534,piren,0.060643438509987685,0.01398233375762225,0.03557191672448119,-0.0006904293520793712,0.003292726798379349,-0.0128162171249145
2025/05/06 15:13:27.194301371,1746537207,189557008,piren,0.0680188520872892,0.0381888184352652,0.04364238239121376,0.0007306188651443449,0.002984336821365742,-0.01273010206450355
2025/05/06 15:13:27.509628311,1746537207,505384852,piren,0.07220605361776536,0.0405459663198149,0.043895892598854534,-0.0010898254134186437,-0.003659561714104716,-0.013273494308090085
2025/05/06 15:13:27.827243159,1746537207,821317639,piren,0.004230561181885001,-0.07363991902575384,-0.006011037786427531,-0.0015218793037875971,-0.001966379096561764,-0.012893061705464665
2025/05/06 15:13:28.140315288,1746537208,134551008,piren,-0.10012046771771534,-0.2374679088472016,-0.08733702615313477,0.00014896377202471784,0.0042611884273115975,-0.015464283137878128
2025/05/06 15:13:28.473907507,1746537208,451653744,piren,-0.04776234853297833,-0.1458442943923723,-0.04331393343641233,0.0001892130865290032,0.0002164536018145548,-0.012366796380320516
2025/05/06 15:13:28.771922787,1746537208,767974738,piren,-0.035740998823530074,-0.1309361245622762,-0.033235973430217544,-2.2678035453521855e-05,-0.0033723602281574474,-0.012337269808656121
2025/05/06 15:13:29.87954008,1746537209,83613230,piren,-0.018665910655135717,-0.10298062074175451,-0.01881743869290476,-0.00019248293927709022,-0.00042010530270111135,-0.014263314452831665
2025/05/06 15:13:29.416961233,1746537209,400621785,piren,0.0029686994460920157,-0.07300916410722441,-0.004850277126224486,0.00011879537038107202,0.0024715227706244253,-0.013407768026830677
2025/05/06 15:13:29.726796058,1746537209,722139636,piren,0.019437897647503942,-0.04507140872360599,0.00498655131989926,0.0001858168059378064,0.0033549351728520945,-0.010838301405659842
2025/05/06 15:13:30.81322003,1746537210,76935771,piren,0.025894210244405566,-0.024836394248495187,0.010018982891992092,-7.987971095270153e-05,-0.0010206478980289175,-0.008805745142016826
2025/05/06 15:13:30.397030822,1746537210,393159713,piren,0.027423498976350255,-0.01968262914983773,0.010852459772731873,-0.00020125333490798733,-0.0019088294693155028,-0.011335806242091297
2025/05/06 15:13:30.722627158,1746537210,707324785,piren,0.024619390837142728,-0.025704272893607983,0.00837911739877816,-3.212260003801918e-05,0.00013058128877554273,-0.011394094287021478
2025/05/06 15:13:31.31276347,1746537211,26481096,piren,0.02024925894234033,-0.035735103394335443,0.004849940465187555,0.00017212192080824567,0.0012918648625042497,-0.012051179151621497
2025/05/06 15:13:31.346095944,1746537211,341448855,piren,0.014403344460425016,-0.04597197314455973,0.0014244427345930263,8.651277270027501e-05,-0.0013022284129733037,-0.010627588013365125
2025/05/06 15:13:31.671965933,1746537211,656300693,piren,0.00956218168025802,-0.05606383517479065,-0.0011059153458534777,-8.733554538197931e-05,-0.0014103191758923419,-0.011123158167635549
2025/05/06 15:13:31.974427551,1746537211,969834457,piren,0.006648526094705032,-0.062340590128178,-0.0024254558172663275,-2.9056317369370307e-05,0.0004579475480190659,-0.010883937229081752
2025/05/06 15:13:32.290256937,1746537212,285327822,piren,0.006855820984810946,-0.06474171505014913,-0.002881516910890144,0.0003323230086628944,0.0018865930269974717,-0.01176537185476751
2025/05/06 15:13:32.608651422,1746537212,601120518,piren,0.00429409222206263,-0.060601935153089856,-0.0025974693037428575,4.452018355162202e-05,0.0019995947573453374,-0.011747565254209074
2025/05/06 15:13:32.961549297,1746537212,957311855,piren,0.005146070232149525,-0.05809934813923921,-0.0014384641419044352,-0.00047802779432569594,-0.002388175887833439,-0.012173889152569032
2025/05/06 15:13:33.276091278,1746537213,271806575,piren,0.003611379419590178,-0.05889259963323586,-7.695229752067946e-05,-0.00020685581670115872,-0.0033019998164872753,-0.012375251503936086
2025/05/06 15:13:33.593422576,1746537213,589164600,piren,0.004353530850039845,-0.06340332512045227,0.0007550608465490969,-0.0010169393556145375,-7.208808598803659e-05,-0.015070876774667123
2025/05/06 15:13:33.912108132,1746537213,906472102,piren,-0.05125037555139866,-0.14463256860649326,-0.042834312340138195,0.0011120212442703521,0.0028303939659789267,-0.014217679316281099
2025/05/06 15:13:34.229555294,1746537214,223679710,piren,-0.021453258849305396,-0.09792828990080071,-0.018687269282551582,-0.0008635399700240125,0.000684327423058547,-0.01646529678373083
2025/05/06 15:13:34.542796934,1746537214,539007026,piren,0.012426743980950363,-0.04524989770479753,0.008543154394841806,0.0002977369069890189,-0.0035491116017120736,0.0
2025/05/06 15:13:34.860878362,1746537214,857124411,piren,0.02511907921139058,-0.03548994964989963,0.01656967601985832,-0.0008214311917623244,-0.0029276061590658344,-0.028244443687680035
2025/05/06 15:13:35.180080251,1746537215,173722649,piren,0.034326150298284425,-0.01831379985437654,0.02453013809823025,-0.000468417198819673,0.0020526130648915765,-0.012999195295294082
2025/05/06 15:13:35.495523533,1746537215,490091337,piren,-0.03583136628135404,-0.10542614752566754,-0.028172879819306697,0.001142320249081631,0.004630009483901108,-0.012646382996552838
2025/05/06 15:13:35.811068446,1746537215,806411383,piren,0.06042776520325818,0.026941193770836036,0.03489351245408811,-0.0010382578511946075,0.0012853247660728644,-0.012302556749596426
2025/05/06 15:13:36.169741351,1746537216,164524623,piren,-0.020901128325476442,-0.08718593456051114,-0.02475255295042822,0.00033206728509433477,-0.003776748065046292,-0.011672378574885452
2025/05/06 15:13:36.498682630,1746537216,483337334,piren,-0.009971629060509864,-0.0716511874799375,-0.011452783805355306,0.00098747633088784,-7.09252625107279e-05,-0.010442384245939684
2025/05/06 15:13:36.805200378,1746537216,798833273,piren,0.07341700757979228,0.038851687310762426,0.04555845979763346,-0.00041224246083905046,0.0029871974053551006,-0.012052691374256144
2025/05/06 15:13:37.118163564,1746537217,114858237,piren,0.05039068849746431,0.0047166991349063755,0.0316093673599942,-0.0010999554256557582,-0.0009706489542856979,-0.011523805498844414
2025/05/06 15:13:37.439156699,1746537217,433184655,piren,-0.0431106014979829,-0.11657899193960422,-0.03360750897686757,-0.0004761047567617866,0.00020081358341328295,-0.011936927498278151
2025/05/06 15:13:37.770446899,1746537217,752335560,piren,-0.03047897186893319,-0.09727179734031727,-0.02209964560234163,-0.00031094010117803817,0.0005229632339769116,-0.009092234623049601
2025/05/06 15:13:38.78794186,1746537218,72913636,piren,-0.08325366686890415,-0.1664530480964908,-0.06183817802224731,0.0018259128776689294,0.00044597638919009633,-0.009904832170048068
2025/05/06 15:13:38.402148312,1746537218,393573963,piren,0.033819975951519476,-0.013003915413446004,0.018569745015125025,3.6304234770237955e-05,-0.0026513525694838768,-0.013762448089064688
2025/05/06 15:13:38.726690377,1746537218,716764270,piren,0.022433078575386713,-0.030648756477466513,0.014503593638501885,-0.000891288338665401,-0.0008813418930185418,-0.013980341010848342
2025/05/06 15:13:39.84997137,1746537219,79863307,piren,-0.0404411040747615,-0.10901891089733856,-0.0285774261895773,0.0010960147939572478,0.0019673283181495817,-0.01528641497154416
2025/05/06 15:13:39.403593108,1746537219,397593078,piren,0.061159952298340016,0.019916568397639417,0.03858964294629898,-0.0008488711870943204,0.0006345178432546959,-0.012308015599734753
2025/05/06 15:13:39.727002002,1746537219,719017715,piren,0.05600115963770835,0.013405968027655542,0.03753114242513339,0.0004900180015834078,0.0007754675789920039,-0.012128918553940741
2025/05/06 15:13:40.46208996,1746537220,40539374,piren,0.024740596817628413,-0.021264623826891184,0.019520108125059943,-0.00023752076919121814,-0.0008871251285172411,-0.014441925055849764
2025/05/06 15:13:40.362606935,1746537220,359084971,piren,0.07649417850066159,0.04508230445708301,0.05115672511358061,-0.0006974292698723487,-0.0014644000368727616,-0.011553517651388331
2025/05/06 15:13:40.681909641,1746537220,677502596,piren,-0.029987833964014193,-0.08658652405392736,-0.01728556338755661,0.0006561948690876545,0.00038521884340214684,-0.011845320029309733
2025/05/06 15:13:41.2578266,1746537220,996017679,piren,0.022468662111623718,-0.02552483780295866,0.01497660345323032,-0.00022576366766366676,0.0012442544799449486,-0.014546391635357047
2025/05/06 15:13:41.327573479,1746537221,323809945,piren,-0.018235205730615843,-0.08100635069349614,-0.009321862955917002,-1.203283367773282e-06,-0.0018881155549191591,-0.015542479324630251
2025/05/06 15:13:41.649959598,1746537221,645878502,piren,-0.04721914408664785,-0.11560200436656437,-0.025093655205161144,-0.00017376674419083822,-0.0009160910564132698,-0.01665750079531486
2025/05/06 15:13:41.968616974,1746537221,964098575,piren,-0.05504532774252736,-0.12070651680928626,-0.028242633470063668,-4.75713756577808e-05,0.0014834066847845473,-0.012367275567657042
2025/05/06 15:13:42.328939170,1746537222,324336626,piren,-0.04485498031508511,-0.10717707895159896,-0.022453966633141552,0.0001754711820496062,0.0002723858628912001,-0.014094545786467206
2025/05/06 15:13:42.673294628,1746537222,651785875,piren,-0.029668455175078337,-0.08653419517136121,-0.013337606327713535,0.00013822898751142968,-0.0011575893060620588,-0.011933435695970183
2025/05/06 15:13:42.978616156,1746537222,974985206,piren,-0.012550373242629281,-0.0661766686439018,-0.0037032756449959185,-9.280759998780546e-05,-0.00023490572217575045,-0.01165106837170243
2025/05/06 15:13:43.302512122,1746537223,296194925,piren,0.0004466402886467418,-0.05124611042747297,0.003356665406964986,-0.00014240531924979047,0.0008272512315840112,-0.013997651547194585
2025/05/06 15:13:43.634122587,1746537223,630379740,piren,0.008528063930862409,-0.04365836403831004,0.006920058933698435,5.100040533912687e-05,0.00022235997643084177,-0.01288277400904912
2025/05/06 15:13:43.972765383,1746537223,956268802,piren,0.008377088127781753,-0.04002525740215738,0.007694275269785088,0.00018394113135270326,-0.0004993178531988915,-0.011352983913105684
2025/05/06 15:13:44.280757448,1746537224,276532153,piren,0.0038214009390688444,-0.04248783842108374,0.005974723719476437,1.258564752963296e-06,-0.0007121820388612898,-0.012017605887852447
2025/05/06 15:13:44.602338467,1746537224,596066027,piren,0.0005399587388640798,-0.05016337493143461,0.003386412016732742,-0.00014575746419124436,-0.0006947378402817366,-0.014070089639384956
2025/05/06 15:13:44.924840513,1746537224,916619572,piren,-0.0028651688316128267,-0.05655462191848479,0.000743960150012179,-1.9931504509818324e-05,0.0005487641154603204,-0.01362470399146482
2025/05/06 15:13:45.282564558,1746537225,277798888,piren,-0.0030115496406776213,-0.06161407931281197,-0.0010449608046175234,0.0001563074772756209,0.0010228557777947848,-0.014534539363274404
2025/05/06 15:13:45.602537597,1746537225,597377452,piren,-0.0069309315408642574,-0.05851192560480691,-0.0019632189637887824,0.00015503872206263982,0.0007416574023442155,-0.012336556120117206
2025/05/06 15:13:45.924075181,1746537225,919318850,piren,-0.0073617973528595755,-0.05687891503721354,-0.002080451318512167,-7.055226592740354e-05,-0.001021682863741155,-0.012578617215886507
2025/05/06 15:13:46.255386613,1746537226,241327942,piren,-0.005345437490131808,-0.05784843077994943,-0.001670856681129485,-0.00015156807616131105,-0.00028617343310807694,-0.013473294420307806
2025/05/06 15:13:46.565759148,1746537226,559424695,piren,-0.0066101649985281985,-0.05289445928947267,-0.0009359679605060682,6.513173500323407e-05,0.002127066425614944,-0.00960953815991281
2025/05/06 15:13:46.884311022,1746537226,879792348,piren,-0.005720169678670282,-0.049931724477618865,-0.0002418743535261064,0.00017486871781783583,-6.0226789525192514e-05,-0.011835506936705415
2025/05/06 15:13:47.205989584,1746537227,201555482,piren,-0.004806961447638678,-0.05076204839897351,0.00026203597994202074,3.9543951341294523e-05,-0.001916116652959995,-0.012941123713322109
2025/05/06 15:13:47.531616937,1746537227,522801909,piren,-0.005898162516495795,-0.053284901189590034,0.0005366585382636451,-0.0001335153931328324,-0.0006152842365579394,-0.013046683078565102
2025/05/06 15:13:47.849561960,1746537227,846312567,piren,-0.007663825324470672,-0.05445436959844251,0.000536653008505305,-6.199590059182235e-05,0.00142762045474329,-0.014932690728616561
2025/05/06 15:13:48.176991738,1746537228,173565018,piren,-0.008842985850924088,-0.05438863850977164,0.0003906469707577791,0.0001629865679420789,0.000712250136128474,-0.011035596570671664
2025/05/06 15:13:48.537238237,1746537228,532825832,piren,-0.010058345544666444,-0.05487770737872729,0.00014494753308950047,0.0001161642826448412,-0.0008377580266423233,-0.013232720012395184
2025/05/06 15:13:48.874321540,1746537228,855029034,piren,-0.012074592884300435,-0.05535785352494663,-4.493242451092459e-05,-9.734705317705624e-05,-0.0007866661775981111,-0.011726306387547026
2025/05/06 15:13:49.182211768,1746537229,177867880,piren,-0.012438750280852836,-0.05694193391391259,-0.000149797680433273,-0.00012522295406641908,0.000241339706938007,-0.012265243090173378
2025/05/06 15:13:49.505548355,1746537229,500026973,piren,-0.01207057238011628,-0.05873620582733515,-0.00019216912829188646,5.066549039908007e-05,-0.00040577381760314914,-0.01475838063587684
2025/05/06 15:13:49.828637723,1746537229,821962236,piren,-0.011960545558212906,-0.060150822622699204,-0.00015183102568686665,0.00017422181462267749,0.0003371013108771034,-0.01380032094171289
2025/05/06 15:13:50.148074792,1746537230,144012997,piren,-0.014477672493967184,-0.05618946793497293,-4.503194154127429e-05,1.5286353476359655e-05,0.00175293258735093,-0.011678076722001145
2025/05/06 15:13:50.474443798,1746537230,466350042,piren,-0.013457839854436025,-0.05595160108764453,-1.835726143773561e-06,-0.00015749235449502954,-0.0005897336924376078,-0.012176543503813777
2025/05/06 15:13:50.802274242,1746537230,797759122,piren,-0.013568933676287706,-0.05732171133267861,2.8358668863980775e-05,-6.0292761806566246e-05,-0.0018438773463694156,-0.015082385169811273
2025/05/06 15:13:51.123309012,1746537231,118699334,piren,-0.013644009065091887,-0.06115967100795337,4.204422350871863e-05,0.00015226287778405113,-0.0010966478791126885,-0.015006889315028998
2025/05/06 15:13:51.483211237,1746537231,479024249,piren,-0.014857245581378884,-0.06103567714794685,4.697843317072949e-05,0.00013040480424584265,0.0018975926727753424,-0.016779952569316848
2025/05/06 15:13:51.814970764,1746537231,799974629,piren,-0.015633774987963697,-0.057727477743537245,4.7262651743317696e-05,-6.629186655820278e-05,0.0015839488457578107,-0.015216348378052783
2025/05/06 15:13:52.126614822,1746537232,121617501,piren,-0.01401819711277283,-0.05890330122442669,5.619193056330898e-05,-0.00014640500286625146,-0.0030475348549712697,-0.015875310711983778
2025/05/06 15:13:52.449773155,1746537232,445827362,piren,-0.01523469037442708,-0.05893905554175894,4.0211277811629724e-05,4.756330591080975e-05,-0.0008916929002095401,-0.016838398516845682
2025/05/06 15:13:52.772738844,1746537232,769108855,piren,-0.015815955952393487,-0.05556410627300415,2.0840938418708514e-05,0.00012936074004045835,0.0014371747512553982,-0.011543143426948373
2025/05/06 15:13:53.106616039,1746537233,89507967,piren,-0.013926008696170973,-0.05415675420563225,-0.0008698113858133132,0.00011790437945134125,0.0027860301645759996,-0.012643916612479995
2025/05/06 15:13:53.421422924,1746537233,415837951,piren,-0.009347077271240485,-0.051645858994788296,-0.0003268220416340233,-8.94081103990444e-05,-0.001217772325211803,-0.012910888102533723
2025/05/06 15:13:53.744490969,1746537233,738094585,piren,-0.008393919492072818,-0.05106997120856199,8.094721316756985e-05,-0.00014874258689225714,-0.002427349334928801,-0.013847352275734907
2025/05/06 15:13:54.78822054,1746537234,67176030,piren,-0.010304715439269493,-0.04912867730877174,0.00035096666429067447,2.3374652568014694e-05,0.0019506067026010458,-0.009731597748192431
2025/05/06 15:13:54.426935775,1746537234,421220771,piren,-0.009015255463782231,-0.048838313228861306,0.0007052588579943169,0.00019450796968283865,0.0012430738595204552,-0.012772486110455976
2025/05/06 15:13:54.791387501,1746537234,784754414,piren,-0.008726892608183042,-0.05209132633563008,0.0004389223429734351,-2.585525425730546e-06,-0.0016985130772544368,-0.014728972842847826
2025/05/06 15:13:55.112643293,1746537235,108700451,piren,-0.012246259528091904,-0.054826947112860076,0.00013909937584356488,-0.00016516026891754242,-0.0022188866228272674,-0.014164026107641205
2025/05/06 15:13:55.449117535,1746537235,440273031,piren,-0.01543194756654855,-0.0561923509727871,-9.993785232810304e-05,-2.4677502692814645e-05,0.001503064878620776,-0.015153959301813508
2025/05/06 15:13:55.777993595,1746537235,770099492,piren,-0.016149602363793456,-0.05445591286170333,-0.00022415566859438406,0.0002053504386725611,0.0017712450979895061,-0.01171851419054398
2025/05/06 15:13:56.98653981,1746537236,94213121,piren,-0.015448103985545168,-0.05377428736073802,-0.00029041266213442106,0.00011060366250107478,-0.0014190152829503622,-0.013934770779176006
2025/05/06 15:13:56.424311958,1746537236,417777389,piren,-0.014802335471358383,-0.05481004987136607,-0.0002447358704126606,-0.0001400590298093792,-0.0013380656751102648,-0.013726237633949416
2025/05/06 15:13:56.747628214,1746537236,743491658,piren,-0.015071470091652082,-0.05354406698952466,-0.00015612008306492618,-0.0002486136706662095,0.00029406128018482193,-0.01426485691821699
2025/05/06 15:13:57.77430600,1746537237,67734667,piren,-0.009197565260137416,-0.052441087908936826,0.0013241654151142307,0.0001170081089564177,-0.00031567972731863145,-0.009290605048938678
2025/05/06 15:13:57.390986666,1746537237,386862769,piren,-0.005526958527707102,-0.04889504213965615,0.0021528892377554393,0.000450798986817675,0.0011092458581729724,-0.008547346073191124
2025/05/06 15:13:57.758708185,1746537237,752493343,piren,-0.004018442372170903,-0.046571248364261415,0.0009961426229851407,0.0010916697292996285,0.0017932945247435203,-0.0052561791232184985
2025/05/06 15:13:58.78623299,1746537238,75170452,piren,-0.007095268262628161,-0.04374495765418892,-0.0015215247050810125,-0.00012383940679091504,-5.714584772321075e-05,-0.002361923508669138
2025/05/06 15:13:58.415428224,1746537238,399282273,piren,-0.009895719556197655,-0.043546260629409014,-0.003576717619541958,0.0006812527782473945,-0.00062219428878997,-0.0007917945248996212
2025/05/06 15:13:58.733661114,1746537238,726011149,piren,0.07517910215665352,0.027546609657247742,0.03877723584676123,-0.0006408410787800878,0.0002095574529790403,0.0018026134117056548
2025/05/06 15:13:59.54887117,1746537239,50463188,piren,-0.0006108271402351373,-0.03423609863443694,-0.0004847647909694344,0.001230155506065599,0.002674354653341397,0.002630845709218221
2025/05/06 15:13:59.377111347,1746537239,373138582,piren,-0.03055023567894722,-0.053320155284017755,-0.012848154535892558,3.693953744686664e-05,-8.04403127001246e-06,0.002232924433863492
2025/05/06 15:13:59.711295586,1746537239,698954045,piren,-0.03583515203340511,-0.05365419920421977,-0.011705388067811623,-0.00030749691014255473,-0.0012626355937049405,0.002181013981232277
2025/05/06 15:14:00.37582452,1746537240,32021563,piren,-0.04219014882287382,-0.05268126927057842,-0.010467093043791093,-0.0002400941162993986,0.0018955530300579116,0.0012394469467772555
2025/05/06 15:14:00.359336815,1746537240,355820699,piren,-0.06862397018840027,-0.071568496203326,-0.02226846103741155,0.0001732600905670968,0.0019538080696053363,-0.0002613566158968151
2025/05/06 15:14:00.682951924,1746537240,678605496,piren,-0.05004385775932832,-0.05127694278658005,-0.008046842683569958,0.00023596216124476847,-0.0013200866475974642,-0.0017234363151864454
2025/05/06 15:14:01.46999916,1746537241,43884025,piren,-0.03927570399832774,-0.03765175155076527,0.0031601744148212884,-0.0001714617466899018,-0.0008482394134709548,-0.003623722591714898
2025/05/06 15:14:01.379385855,1746537241,367158104,piren,-0.03768324653883582,-0.03282855414963656,0.009316612310556256,-0.0002385453737808297,0.0013140546727327788,-0.004399796291880798
2025/05/06 15:14:01.693258216,1746537241,689618062,piren,-0.04257485224029523,-0.03602375427967623,0.011019235219800668,1.326116488112619e-06,-0.00016145330749571096,-0.006275624359551809
2025/05/06 15:14:02.16306729,1746537242,12571964,piren,-0.052702678495006414,-0.04708670080217367,0.009321862593486803,0.001379095662758497,-0.0013092469733456459,-0.006311007311524506
2025/05/06 15:14:02.343424423,1746537242,338727110,piren,0.014819883162772662,0.00668618314757672,0.04632467812024974,-0.0007250054272294666,0.00013573826297741664,-0.007246229888649677
2025/05/06 15:14:02.680828175,1746537242,661805889,piren,-0.0439359217974922,-0.040645375423900496,0.02125947627934839,0.00017513127822772209,-0.00219452621988035,-0.005345249139231858
2025/05/06 15:14:02.986905378,1746537242,982875312,piren,-0.10223873183840596,-0.09413044453458447,-0.006088629605173309,0.0006097506395680562,-0.0030071178167532385,-0.00686082921358556
2025/05/06 15:14:03.311970964,1746537243,307569974,piren,-0.04903492947787499,-0.05481291506621297,0.021567198900689744,5.0127648298563e-05,0.0007625070510615401,-0.0076497588487144785
2025/05/06 15:14:03.643524226,1746537243,635584647,piren,-0.11348278256336897,-0.10447347906051568,-0.009173005943776388,0.00013552167820259054,0.0012291433083040338,-0.00781164315714315
2025/05/06 15:14:04.9271211,1746537244,3991380,piren,-0.15001807809567225,-0.1313412316157605,-0.026127006291815275,-0.0002027978367205922,-0.0025102755013340665,-0.0069229820216515974
2025/05/06 15:14:04.353130070,1746537244,327360831,piren,-0.1592475322293464,-0.13340491009507738,-0.029264719866122373,-1.7174708702578348e-05,0.0007435012799312556,-0.007346236337467829
2025/05/06 15:14:04.661751240,1746537244,657049853,piren,-0.1532628887525331,-0.12046083639142986,-0.024769915955935556,0.00022863111955310513,0.002309625491129291,-0.006471314762269864
2025/05/06 15:14:04.988294364,1746537244,985201648,piren,-0.13274843674862466,-0.10112909724753033,-0.014815905041599348,0.00016005526323253886,-0.0005019432474621555,-0.007354533649354552
2025/05/06 15:14:05.314827099,1746537245,310869266,piren,-0.11439236204241722,-0.08483627606556135,-0.00452367194230578,1.813270848821383e-05,-0.001035598625478494,-0.0077759145355912355
2025/05/06 15:14:05.653148880,1746537245,638160148,piren,-0.10277706887109132,-0.07297693267923884,0.0029194227558542434,-7.278040786221648e-05,0.0014055944911223253,-0.00946927841139822
2025/05/06 15:14:05.971144239,1746537245,967675595,piren,-0.09754321074428815,-0.06889552852908261,0.00702247276110282,-3.7809438752235894e-05,0.0014806019762166145,-0.007924818294982008
2025/05/06 15:14:06.298757349,1746537246,293984956,piren,-0.10066839675264388,-0.07136698979361378,0.007747074741857433,3.044512623776088e-05,-0.0011439197380832765,-0.010007534997394188
2025/05/06 15:14:06.625268167,1746537246,618583888,piren,-0.11035645307310885,-0.08152533153529426,0.0060914919158827,6.6938540221937264e-06,-0.0022253370637613963,-0.010783393597330965
2025/05/06 15:14:06.957234036,1746537246,946582204,piren,-0.11897868252353844,-0.09754978444630019,0.003728847950002149,-2.9115314101130896e-05,0.00012141484316548383,-0.012964565725518953
2025/05/06 15:14:07.330977642,1746537247,317098853,piren,-0.12911393201661636,-0.10149834241465164,0.0022930929284332973,-4.1020756345630186e-05,0.0023905116471895378,-0.010146046645086601
2025/05/06 15:14:07.659297512,1746537247,654199055,piren,-0.1415460940698719,-0.10717305629627794,-0.00045828116876751174,4.0641443793370995e-05,-0.0026811018853304574,-0.015134500394833448
2025/05/06 15:14:07.986651961,1746537247,982171351,piren,-0.14984800099277862,-0.11809384487219125,-0.002121635269351314,4.447811675923789e-05,-0.004476720537036177,-0.012016699208345843
2025/05/06 15:14:08.309866478,1746537248,305445246,piren,-0.15714337024228342,-0.12111987672164963,-0.0026614591565432286,-2.6673555253866598e-05,0.003238234314970108,-0.015080582835236856
2025/05/06 15:14:08.645939165,1746537248,637316264,piren,-0.15625597800844815,-0.11961452585419415,-0.0021567548217421525,-6.6596540034683305e-06,0.004993935374558833,-0.015351603099964807
2025/05/06 15:14:08.991267518,1746537248,980256912,piren,-0.15635149864160638,-0.11694069100999463,-0.001442602505473429,5.766584688274881e-05,-0.004423162995918573,-0.013857992686582239
