time,header_stamp_secs,header_stamp_nsecs,header_frame_id,twist_linear_x,twist_linear_y,twist_linear_z,twist_angular_x,twist_angular_y,twist_angular_z
2025/05/06 15:12:27.621608853,1746537147,606303228,piren,-0.0008770775142984679,-0.027637442761114725,-0.009886242254620578,0.0013372359154694982,6.971947879941989e-05,0.0005882375225352293
2025/05/06 15:12:27.969623121,1746537147,959469653,piren,0.0077560425763403855,0.001156705480716053,0.0014218992966183908,-0.0012112856702799451,-0.00047222404011164316,0.0014892850445478415
2025/05/06 15:12:28.345406550,1746537148,332273635,piren,-2.5229710967325687e-05,0.026514522994725117,0.012331545068691942,-6.617362638246944e-05,-4.769660706166386e-06,0.0008711210534393988
2025/05/06 15:12:28.660565214,1746537148,656359116,piren,-0.005320236886718019,0.03644993188975237,0.013957130736856749,-0.0010839817910710883,0.0006880144388155297,0.0006347481798421159
2025/05/06 15:12:29.28241824,1746537149,19560123,piren,-0.005908795277265323,-0.08756145764901986,-0.03839601460648841,6.524611209496264e-05,-0.00078154279584555,0.000634764640539938
2025/05/06 15:12:29.333220788,1746537149,322508836,piren,-0.00481622277885139,-0.04881568790726974,-0.020305201451060077,-0.0007836251271966879,-1.6568002367470655e-05,0.0006652378466941558
2025/05/06 15:12:29.645368187,1746537149,632296404,piren,-0.0049479843646547065,0.005243789598982372,0.004276735948422647,0.0012672567281725626,0.0034568286243135903,0.0004661243295956898
2025/05/06 15:12:29.940862499,1746537149,935687402,piren,-0.004875809215407106,0.019611782866323247,0.011324006713435667,-7.070909132876535e-05,0.0003464029505180426,6.295139379828375e-05
2025/05/06 15:12:30.241701244,1746537150,234034691,piren,-0.003800195896555183,0.03650652167925361,0.021009940363730207,-8.067493705260705e-05,-0.003177553988630105,0.0007199314595648628
2025/05/06 15:12:30.536406958,1746537150,531201381,piren,-0.0014882688619098864,0.07223621212483282,0.03707101851477017,0.00018148440198374716,-0.0012072954686918006,0.0015630348970670912
2025/05/06 15:12:30.837588479,1746537150,830279508,piren,0.003647615320939967,0.04266069740359419,0.0256190697333105,-0.0002828237964327814,0.0023383206196869004,0.0023920181342565344
2025/05/06 15:12:31.139755383,1746537151,132648333,piren,0.008519713009406925,-0.00701976137872419,0.005298381727948846,0.0005515050858585715,0.0020116386154872793,0.0017184181573651153
2025/05/06 15:12:31.443286132,1746537151,439620855,piren,0.01569881277871742,-0.012596185862011866,0.00342368559779872,0.0005489346947850259,-0.0020392778287573517,0.0006889671009316044
2025/05/06 15:12:31.742858751,1746537151,737688776,piren,0.02137677734134405,-0.03985854763846284,-0.006211764522478854,-0.0006122315894387273,-0.003971300864703159,-0.00011852049008597248
2025/05/06 15:12:32.85785714,1746537152,77081008,piren,0.027956018095465798,-0.06147767050962871,-0.009894748855765991,-0.0010427765479485613,0.0007494430902623597,-0.00019689848044595292
2025/05/06 15:12:32.381392600,1746537152,377049099,piren,0.033268358038863716,-0.1678001011547517,-0.06659562350791318,0.00013809983910572594,0.0023861325268923397,-0.0005781748720226971
2025/05/06 15:12:32.680121792,1746537152,675850203,piren,0.0391757844000642,-0.054320919382611146,-0.01071516788082619,0.00027977101179619635,-0.0008561707522553743,-0.0003597947817721728
2025/05/06 15:12:32.989238234,1746537152,973000287,piren,0.04136567017662962,-0.13080822648084428,-0.04889673645870138,-0.0005866182254136242,-0.001811499837199055,0.00021357933831404066
2025/05/06 15:12:33.273105096,1746537153,270188867,piren,0.04216513991500037,-0.05243240032156521,-0.011127053593117279,-0.00015353266678043664,0.0008799110243702515,0.000686399697149202
2025/05/06 15:12:33.581152994,1746537153,575632848,piren,0.04334660974598019,-0.09666414433659483,-0.03846131258455317,-0.0008722278075301343,0.0023403804665789183,0.0007214641571033359
2025/05/06 15:12:33.882952947,1746537153,877692404,piren,0.047071069768141016,0.028163063409172705,0.016573130127974102,0.00111477556860715,-2.8899840808642e-05,0.0007928637890499636
2025/05/06 15:12:34.180589509,1746537154,177146311,piren,0.0517845930019699,0.09606461585013765,0.044990829434381874,0.0011060899080920688,-0.001967505671056814,0.0007056996430290889
2025/05/06 15:12:34.491634847,1746537154,476348958,piren,0.05717300083823505,0.0824638774571495,0.04549837467806973,0.000642848969219756,-0.0003097211571196902,0.0006838536349004758
2025/05/06 15:12:34.782723878,1746537154,778411795,piren,0.06301901896503384,0.16007114943305475,0.06015317765049075,-0.001660966503229638,0.0014327525115075874,0.0006584967016995383
2025/05/06 15:12:35.126178717,1746537155,121327911,piren,0.07106577562760957,-0.03144060404935927,-0.013417003275815652,-0.002104723788498741,-0.0011746290544411774,0.0005575051698887968
2025/05/06 15:12:35.429144040,1746537155,424570292,piren,0.07862130404643994,-0.02001332842939219,-0.006611427385079912,-0.0005162433059605538,-0.001345207804267686,0.00034908068172907677
2025/05/06 15:12:35.737805372,1746537155,727640913,piren,0.0812021067964728,-0.01885360169191304,-0.0051905886872844415,0.0003666416931307254,0.0009263171393492568,0.0005024789532016153
2025/05/06 15:12:36.33626857,1746537156,28715072,piren,0.08199589947382846,-0.02205496895643249,-0.0068251372812980285,-0.0008886071560376249,0.004388879587735288,0.003056508544835037
2025/05/06 15:12:36.334322554,1746537156,329606215,piren,0.07723310939743849,-0.08651403557169557,-0.03816056548202745,0.0003649214284562575,0.0027008007215317017,0.002201112523477356
2025/05/06 15:12:36.641431171,1746537156,631584743,piren,0.07659285312849388,-0.04654085533224255,-0.021897282421553293,0.0011095807871356151,-0.004378461313681701,0.001495351088322292
2025/05/06 15:12:36.935993440,1746537156,932781369,piren,0.07613235279991958,0.0012725214509769298,0.001315337357874314,0.0017414336856773562,-0.005668366227868068,-0.0002159780284828937
2025/05/06 15:12:37.234922876,1746537157,231878768,piren,0.08196440396139953,0.007814345616560006,0.006320055043294546,-0.000940279455549334,0.00010200830033316456,-0.000619006293494399
2025/05/06 15:12:37.555434407,1746537157,538233896,piren,0.08696807152302609,-0.090147094489069,-0.038946583566984536,-0.002002218870087209,0.0053171225198777395,-0.0002812937662394245
2025/05/06 15:12:37.848452262,1746537157,843378225,piren,0.09306101317409185,0.0017090029698110243,0.0007587282834411836,-0.0002551090032747123,0.0009373865376376984,-0.00024661339587254917
2025/05/06 15:12:38.160203873,1746537158,155399575,piren,0.09823081761250087,-0.008124141870177612,-0.003186792544784861,0.00022420721845598117,-0.0044002817274555244,-0.00027851585839843584
2025/05/06 15:12:38.532727321,1746537158,510666413,piren,0.10116125875531494,-0.05619930500206341,-0.02691814122935173,-0.00046476998039994473,-0.0005313688263947578,-0.000339877717491617
2025/05/06 15:12:38.820001239,1746537158,813274708,piren,0.10400342698487601,0.06167380572194643,0.018876695735374358,-0.0014170416617003921,0.006873446990212823,2.9517781535197614e-05
2025/05/06 15:12:39.121500770,1746537159,115011140,piren,0.10491796389261941,-0.01889056109265542,-0.01661166044399908,-4.6684792348909367e-05,0.002475538544949072,0.0005336878135055485
2025/05/06 15:12:39.430852049,1746537159,416676084,piren,0.10847554160025266,0.07575457886970444,0.02510071133365098,0.0017532176594247486,-0.005388959579417799,0.00012931837680402555
2025/05/06 15:12:39.727111226,1746537159,723180384,piren,0.10283490786985022,0.08555370336314207,0.03402041684163862,0.001419919395767984,-0.0037970465806951084,-0.000922274704339792
2025/05/06 15:12:40.29121554,1746537160,23811946,piren,0.11467610652309686,0.06852534336251632,0.030109839629596635,-0.00113889716166443,0.004739932428353126,0.0
2025/05/06 15:12:40.346055655,1746537160,326870362,piren,0.12356953589190174,0.05211676176616986,0.026167190494155772,0.0004353178685032525,0.006574978267112474,-0.0019520285440867856
2025/05/06 15:12:40.634753815,1746537160,631045129,piren,0.12778699458272835,0.13770693132854875,0.04616315725137184,-0.0009155004967008313,-0.0018385203523740735,-0.0009743247834302881
2025/05/06 15:12:40.938188788,1746537160,932191133,piren,0.1370706528418265,-0.05658408923685539,-0.027829215254774255,0.001395790161025525,-0.009065528304775456,-0.002302478859453871
2025/05/06 15:12:41.243589018,1746537161,235929654,piren,0.14850474546542444,-0.004887207092263094,0.002091727551615141,3.775459137273818e-05,-0.002216573366699599,-0.0025394221372046534
2025/05/06 15:12:41.585805664,1746537161,580154012,piren,0.1536139016443985,-0.035702618665994085,-0.004133527324648287,-0.0013907960402434892,0.007796359965285916,-0.0025387997852136077
2025/05/06 15:12:41.886389220,1746537161,882653837,piren,0.16435505151892693,-0.16353063158333675,-0.053692434785720805,-0.0025569711856674783,-0.0008306235366093891,-0.003836522358528839
2025/05/06 15:12:42.203115646,1746537162,186980680,piren,0.16991145266475122,-0.1875154626617151,-0.08556453710950347,0.0025980216586940926,-0.006949145340610023,-0.003426326308833327
2025/05/06 15:12:42.496897058,1746537162,490291260,piren,0.16960817202829553,0.023939842169317424,0.014123721810617473,0.00175727390855427,-0.0004537391251362499,-0.0032455430924489105
2025/05/06 15:12:42.821357955,1746537162,817639888,piren,0.16863310849646557,0.012791146684482141,0.01113010359603883,-9.737525851257743e-05,0.007277422594130372,-0.0026931033539442043
2025/05/06 15:12:43.141592827,1746537163,125858931,piren,0.17262844778540457,0.17413131854654046,0.0625497923757024,-0.001843524265865771,0.0007976815196330854,-0.0024552839083736683
2025/05/06 15:12:43.452223688,1746537163,433067182,piren,0.17929953448871114,0.02955139823693162,0.008464412532564046,-0.001578561184040086,-0.006177722526125961,-0.0018935806068716308
2025/05/06 15:12:43.769959970,1746537163,765727339,piren,0.1855598200975932,-0.09031973172135407,-0.044997008639193356,0.0005518798755823627,-4.9149600624334834e-05,-0.0021727912136124605
2025/05/06 15:12:44.84423495,1746537164,70027446,piren,0.1906379275880275,0.048044907298752264,0.01834577244805404,0.001111679657069132,0.006084866491282802,-0.0034413310648434116
2025/05/06 15:12:44.377319730,1746537164,373714657,piren,0.19770972213212543,0.03322551170952616,0.014309403833098288,-0.002155198139819469,0.001305253734086865,-0.004119759793075193
2025/05/06 15:12:44.720164668,1746537164,715379700,piren,0.20756617927132065,0.03311268370131267,0.015844633714307915,-0.0024481863720327954,-0.004960166305105412,-0.0047540132989679984
2025/05/06 15:12:45.21190781,1746537165,15521579,piren,0.21309641297654938,0.021707253073393894,0.014307371076784873,-5.47133559037846e-05,-0.0007724283959407618,-0.006343753905800622
2025/05/06 15:12:45.329875274,1746537165,321873510,piren,0.21701547156526835,0.12241291807691707,0.058063978073578194,0.0022218043552448595,0.004054235473703511,-0.006707476039912755
2025/05/06 15:12:45.629373259,1746537165,625716054,piren,0.22178103341221944,0.15192308392212164,0.048428475362903546,0.0002683797549994511,0.0005240410018075555,0.0
2025/05/06 15:12:45.942550468,1746537165,928332225,piren,0.2310633766199194,-0.10408134740969027,-0.04829031197046153,-0.0012586637436533257,-0.0037643736210876432,-0.009884799317439845
2025/05/06 15:12:46.237746929,1746537166,230208952,piren,0.2382267253210184,-0.12869496995495014,-0.05090512027842574,-0.00027386674891233807,-0.0011027530128431917,0.0
2025/05/06 15:12:46.537273402,1746537166,532240238,piren,0.24560266637706576,-0.1274323992484329,-0.05137625895836954,-0.00035454529651275353,0.002993364397083437,-0.00921082572022671
2025/05/06 15:12:46.852583651,1746537166,835837354,piren,0.25145137389285327,-0.045969245455237125,-0.015553972204831333,0.00037887805904832214,0.0016122961545739934,-0.003798433493794436
2025/05/06 15:12:47.144701670,1746537167,138876411,piren,0.25524288451684113,0.0004789512154940792,0.0034370997622123214,0.0002692488081296903,-0.0023822082566186857,-0.003021188089657572
2025/05/06 15:12:47.444907288,1746537167,442388477,piren,0.26249991533776795,0.016305561196335784,0.007988160017437735,-0.002208694180372433,-0.0012718828009726985,-0.002733590024298557
2025/05/06 15:12:47.798218384,1746537167,794191101,piren,0.270937169116493,-0.08241252834996593,-0.03817335275695908,-0.0009719837443965839,0.003899021154164051,-0.002431949649704384
2025/05/06 15:12:48.100880616,1746537168,96084547,piren,0.27381184361036626,-0.014394401016787177,-0.009415459242671878,0.0008406473705199838,0.0019958872452115954,-0.002912860462804356
2025/05/06 15:12:48.411445562,1746537168,407940974,piren,0.2786311511885178,0.031418457748759246,0.01114646186943883,0.00191127310230951,-0.004545778726995584,-0.002676720670659607
2025/05/06 15:12:48.727386509,1746537168,722773264,piren,0.2824816800357559,0.04166117451360765,0.017921312638904553,-0.0008949969562185162,-0.003289871739215041,-0.002126721521757044
2025/05/06 15:12:49.34585564,1746537169,28922919,piren,0.29452276896276985,-0.03413800051221515,-0.013512331417261072,-0.00137651202475464,0.0007234715837219125,-0.0020682419460500002
2025/05/06 15:12:49.341814517,1746537169,336480048,piren,0.3004137820615227,0.11714684321736091,0.047356768086451784,-0.0008506506777692379,0.0033876502262968015,-0.0005361840308891071
2025/05/06 15:12:49.644844868,1746537169,639979520,piren,0.30306615775313106,0.04723837072665921,0.023555019334685404,0.0011011178153110582,-0.0013785551915326873,0.0024430593395344423
2025/05/06 15:12:49.945735214,1746537169,942158670,piren,0.296758269778229,0.10783549880441094,0.04802430058778628,0.0013683901890030237,0.0035223062618050713,0.003689005821485183
2025/05/06 15:12:50.249266568,1746537170,243237417,piren,0.29344044891017096,0.09348344210609823,0.037071813438634964,2.465996773990426e-05,0.0016995482489589693,0.0034926917710887675
2025/05/06 15:12:50.557491577,1746537170,553087750,piren,0.29333733427883124,0.00048256340550301147,-0.0006683272234173335,-0.0017740797886012685,-0.003225318377396983,0.003390817765398352
2025/05/06 15:12:50.873440171,1746537170,854864345,piren,0.29583152961466713,-0.1631848836268459,-0.06898893049576645,0.0001348231097274831,-0.003929674567465117,0.0033543848971505086
2025/05/06 15:12:51.203974143,1746537171,192730217,piren,0.29868899456470077,-0.13449652152039382,-0.04569283454513682,7.094369543285578e-05,0.0027158245655098776,0.003597529664253952
2025/05/06 15:12:51.504065691,1746537171,497897656,piren,0.29809691798561383,-0.17480177990491083,-0.06760692422738561,-0.00043926238781876435,0.003466007975539355,0.004524685597656293
2025/05/06 15:12:51.812458837,1746537171,807838972,piren,0.2964730871490966,-0.10834993701581372,-0.04633114472852859,-0.0011824378715964686,-0.0018888363077139657,0.0046755752705978275
2025/05/06 15:12:52.124985195,1746537172,109719465,piren,0.29510067808528834,0.030411286500682453,0.01522841425097464,-0.0018320109137763094,-0.002943695639812972,0.00491095497589573
2025/05/06 15:12:52.418413922,1746537172,411369066,piren,0.291140027823674,0.11372849256730638,0.05160225663738727,0.001314768790723152,0.002280046403233939,0.005779600971796657
2025/05/06 15:12:52.723223864,1746537172,716057929,piren,0.28391969187461924,0.13906336138200587,0.05915791845881327,0.0011896659218502558,0.0036449075775099537,0.005456800664864161
2025/05/06 15:12:53.30464868,1746537173,20453010,piren,0.2780006587139184,0.09869084604468334,0.04127561888447003,0.0015086787868109795,-0.0014314049569301142,0.00525045974783048
2025/05/06 15:12:53.328873246,1746537173,324980715,piren,0.2717787293398999,0.054782139263310985,0.019326635531370547,-0.0008020085876288087,-0.003642586025072131,0.004646727117186341
2025/05/06 15:12:53.633526186,1746537173,629215208,piren,0.26660180823852814,-0.08566347462789542,-0.04109802015620143,-0.0007023445299315763,0.002229545775285818,0.0033461192119941183
2025/05/06 15:12:53.976459626,1746537173,970809950,piren,0.26086069868886447,-0.011886664245398575,-0.00661174058296357,-0.0008966786608971228,0.002701837299536388,0.0009436224416139177
2025/05/06 15:12:54.281411426,1746537174,275209412,piren,0.2548281534527669,-0.06611217290051598,-0.03531833794043617,0.0017760717712278686,-0.002241093008144744,0.00026637249167183467
2025/05/06 15:12:54.584041488,1746537174,579155416,piren,0.2457602639956625,0.10737007107928553,0.042382787157327254,5.264431343068998e-05,-0.003226552153193742,-0.0006073010963841535
2025/05/06 15:12:54.891367482,1746537174,885286888,piren,0.23834187835863882,0.08435251296156188,0.03663396803361574,-0.0009766231317287352,0.004002500070686466,-0.001289009676478944
2025/05/06 15:12:55.197981631,1746537175,193490465,piren,0.23020398668825073,0.03324375033270592,0.0179510688127758,-0.000970855222141525,0.0030058195888076305,-0.0026685588308246527
2025/05/06 15:12:55.507884897,1746537175,503745496,piren,0.2267541309585138,-0.007798568929899691,0.0019126507981007848,0.0007523110845761938,-0.002756186583329674,-0.0030813429823941
2025/05/06 15:12:55.815973470,1746537175,810471291,piren,0.22322135539405835,0.08808457121465324,0.04031141650564239,0.0009083935849613224,-0.0034381643500487127,-0.0037945107694720083
2025/05/06 15:12:56.138413306,1746537176,117865805,piren,0.2168388330728458,0.014568750256964674,0.011234427289226648,-0.00041659805656772344,0.002574767837092313,-0.005136078771169622
2025/05/06 15:12:56.431655444,1746537176,426103810,piren,0.21322025334100403,-0.16088249766337362,-0.05285031909681164,-0.0017998077136481085,0.0035237811574887817,-0.0052228516500614835
2025/05/06 15:12:56.778573198,1746537176,774950512,piren,0.21209585078431994,-0.22516103089640194,-0.10400559413331463,-0.0006184411074103329,-0.002803189216580061,-0.004632199861455798
2025/05/06 15:12:57.87869053,1746537177,83993359,piren,0.2095462579759151,-0.034067745133137255,-0.010591750727165115,0.0019356141356143969,-0.00428793322825917,-0.0059523412743256255
2025/05/06 15:12:57.395423391,1746537177,388536655,piren,0.204319433367892,0.053608770110838276,0.031146213626516837,0.0010562403681091985,0.0017003504806962864,-0.0066175597268652835
2025/05/06 15:12:57.701373738,1746537177,695529230,piren,0.19826674408463435,0.06951324048674096,0.03512723255118962,-0.001649047001707517,0.0035850520815578096,-0.006917377305467042
2025/05/06 15:12:58.5451216,1746537178,1992345,piren,0.19770784285477302,-0.026674181484539886,-0.004610664307742799,-0.0017020079024135865,-0.0008817562465117951,-0.007837799848290875
2025/05/06 15:12:58.314663266,1746537178,308255177,piren,0.19629143876987842,-0.007521417153082494,0.0029696260439185163,0.00012387088198124476,-0.0032402086034322196,-0.00815041476891862
2025/05/06 15:12:58.620592888,1746537178,614711402,piren,0.19205632442084059,0.09714327503186478,0.03881205372945236,0.00014459203889760148,-0.0020335924348237862,-0.008878181477054126
2025/05/06 15:12:58.928420632,1746537178,922723776,piren,0.1917850782584406,-0.050731029164696434,-0.019687698700046392,0.00189346332522572,0.005990514462875928,-0.007750144462418407
2025/05/06 15:12:59.237451584,1746537179,232441230,piren,0.18208150466842954,-0.08689065305806765,-0.037415896128517714,-0.000208793367088134,0.0033162173284424544,-0.008196781075636319
2025/05/06 15:12:59.566216468,1746537179,542375288,piren,0.178281749668286,-0.04182705344815455,-0.017310052622133167,-0.0005972468448574332,-0.0048444757990047955,-0.006790344998681702
2025/05/06 15:12:59.917587811,1746537179,901026341,piren,0.17606429721282957,-0.009399166344909164,-0.0004329585746289014,0.0003719029002059342,-0.0037357641155218776,-0.007081837101702277
2025/05/06 15:13:00.230596397,1746537180,225732538,piren,0.1739578539421844,0.01715400420469127,0.012165082082978325,0.0014777200813197594,0.008881649793888738,-0.00802012584766213
2025/05/06 15:13:00.540015588,1746537180,532480078,piren,0.1558870381787402,0.1597803370414032,0.06531870349659152,0.0006633961152237809,0.005578476233364163,0.0
2025/05/06 15:13:00.864061163,1746537180,841074774,piren,0.16065889980509532,0.08403637442258992,0.037169635887763376,-0.00089228625625542,-0.008868801996435399,-0.01662010662356853
2025/05/06 15:13:01.151919429,1746537181,148339412,piren,0.16718537450946813,0.0034696763519471707,0.010081591716853425,-0.00025608271980132724,-0.0072375708693917,-0.008991370693139171
2025/05/06 15:13:01.462776241,1746537181,457241453,piren,0.16685329610058286,0.06267147397092734,0.035414662255867105,0.0015706171904627821,0.006019019982378451,-0.009445303790042298
2025/05/06 15:13:01.769035015,1746537181,762849195,piren,0.1657881532307772,-0.016749031918420962,0.004019252284061457,0.00042864065233932377,0.007300730923938337,-0.010291378866692926
2025/05/06 15:13:02.75738060,1746537182,69916783,piren,0.16665913806428076,-0.08152839258346992,-0.01628760155651935,-0.0014853442470349732,-0.008597088816068082,-0.011551752880722872
2025/05/06 15:13:02.380486044,1746537182,377151333,piren,0.1657636663968859,-0.21846189077717593,-0.07662792397141478,-0.00048480975788865006,-0.005993486426901502,-0.013256268701005988
2025/05/06 15:13:02.731074125,1746537182,727611786,piren,0.16088891846411113,-0.16880174839605214,-0.04979360246996929,-0.0003335171506523195,0.007969781922131457,-0.012965971503640783
2025/05/06 15:13:03.53588100,1746537183,34821964,piren,0.1517514510692346,-0.14428003517148563,-0.04066308034348892,-0.001195061176682164,0.004895941918156503,0.0
2025/05/06 15:13:03.355699364,1746537183,350521818,piren,0.15155087186817012,-0.13141871521861548,-0.050449483813849276,-0.0006026183614850447,-0.0043905114312032464,-0.020707986616638956
2025/05/06 15:13:03.669963679,1746537183,665224454,piren,0.1419450917955801,0.01696006982406404,0.015201910228264228,0.00115246227580064,-0.0029308703103724273,-0.009738262693996991
2025/05/06 15:13:03.979692112,1746537183,974096914,piren,0.13143997925272077,0.0770765651857088,0.04734815443981996,0.0003912856731183076,0.003178860867927975,-0.011605524625764235
2025/05/06 15:13:04.286564469,1746537184,281384282,piren,0.13439859254901085,0.19926193980380086,0.07826057799695384,-0.0020010435493234887,0.0035169483946058066,-0.01128311496829292
2025/05/06 15:13:04.596024640,1746537184,590991766,piren,0.13302500325305064,0.02425801570776905,0.01563483791109268,0.0001652022058231611,-0.0013776171464199966,-0.010573909104598017
2025/05/06 15:13:04.914237046,1746537184,908748858,piren,0.13145913616533594,0.005209215210554726,0.011716513561156695,0.0012287269408750726,-0.003830913767463719,-0.011133348236714453
2025/05/06 15:13:05.242374769,1746537185,219694296,piren,0.12886677596858023,-0.017062031108930044,0.006997389719586274,-0.0009161129429861436,0.000873836490820525,-0.011453211502335208
2025/05/06 15:13:05.534361071,1746537185,529173876,piren,0.12644922231892108,-0.1387503725039772,-0.03841557638961944,-0.0024833691471477033,0.0029399566871230166,-0.01250288683950022
2025/05/06 15:13:05.882272788,1746537185,876076389,piren,0.12413388226047446,-0.17479162475590232,-0.07585763120596069,5.726476643839716e-05,-0.0009917811477822543,-0.009576757161793785
2025/05/06 15:13:06.197534568,1746537186,190050623,piren,0.11975952505224953,0.046351598438294145,0.026040755073887888,-0.00014155349369958937,-0.0022759130123310377,-0.011494808127711203
2025/05/06 15:13:06.507184893,1746537186,500908839,piren,0.11656853126074793,-0.039423699288040556,-0.0056583227791738855,0.0004903851648320928,-0.0010170131079565963,-0.012622598460489387
2025/05/06 15:13:06.816947582,1746537186,811468581,piren,0.11171189975012193,0.049665641543466116,0.03595197329770302,0.00041113400442933354,0.0019260828794679216,-0.012777763643694075
2025/05/06 15:13:07.129758701,1746537187,124655594,piren,0.10724689009324259,0.029159459634209565,0.02953712105500351,0.00046222079603652316,0.0005867260307188135,-0.01501004501185098
2025/05/06 15:13:07.453521326,1746537187,440027983,piren,0.10090741199136777,0.021045423088445345,0.026438242225783302,-0.0010529701092676722,-0.000990940328096429,-0.01386176010081528
2025/05/06 15:13:07.756494692,1746537187,752726729,piren,0.09766004336265505,0.007136154489566844,0.019472882422632436,0.0016432460212843119,-0.0008224887259046258,-0.010317851026070636
2025/05/06 15:13:08.66906150,1746537188,61241568,piren,0.09633974579829667,-0.029784814786439188,0.004579892709032511,0.00032672694925710733,0.00038410258015161446,-0.010622850860660794
2025/05/06 15:13:08.373217105,1746537188,369394693,piren,0.1008928435504643,-0.1533362104122383,-0.06389068555650929,-0.00012030898966729137,0.0012416171042869098,-0.010530653640769327
2025/05/06 15:13:08.745072868,1746537188,723984304,piren,0.09851604898940307,0.0035289044002969686,0.008918045364575142,-0.0011038143551860278,-5.2917439204187384e-05,-0.012257104147636344
2025/05/06 15:13:09.41021974,1746537189,35632791,piren,0.09344364803447536,0.007820752963602053,0.013137400636830322,-9.230029960170551e-05,-0.0012186212863510802,-0.010706442250311813
2025/05/06 15:13:09.352113948,1746537189,346603258,piren,0.08953086609715505,-0.10924539809233318,-0.03450040393239761,0.0023797378955979025,-0.0012183150830207205,-0.010641629726491275
2025/05/06 15:13:09.664644499,1746537189,659178390,piren,0.08711447500435612,-0.07313951976235403,-0.021401506543390188,0.0013836117180377767,0.002996619477205084,-0.009570120162167411
2025/05/06 15:13:09.973930402,1746537189,970552690,piren,0.08429848605051472,0.07886156005207409,0.04526277385074966,-0.001543734153984743,0.0006903349849197849,-0.01020021165692573
2025/05/06 15:13:10.284582633,1746537190,280980832,piren,0.08358733795325743,0.04696905230465352,0.035280040863868704,-0.0007130775254209046,-0.002548800817707608,-0.011600698842082603
2025/05/06 15:13:10.611076727,1746537190,592061438,piren,0.08191966683999245,0.007683558786845523,0.021524056269845472,0.0003026178937575836,-0.0002986984644420162,-0.012198148359573557
2025/05/06 15:13:10.905357077,1746537190,901696499,piren,0.08040914890580193,-0.025139930755680023,0.008916411736939779,0.000900561109587776,0.0016520253378657116,-0.012457167239065757
2025/05/06 15:13:11.221084390,1746537191,213334962,piren,0.08023331352429718,-0.05729962895177266,-0.0037357251057092613,-0.0014215193667491339,0.00011331075429005674,-0.012501689052668298
2025/05/06 15:13:11.541193582,1746537191,532108921,piren,0.08251315951781439,-0.09606579991902542,-0.025871469908731383,-0.0006474612895349246,-0.0024853334199174916,-0.012396575693345362
2025/05/06 15:13:11.889955605,1746537191,883424489,piren,0.0800052026438493,0.0023127854950971416,0.01860677803871296,-1.6073653655301666e-05,0.0003722271015252688,-0.011042814909102762
2025/05/06 15:13:12.198154400,1746537192,194123848,piren,0.07788589173839155,0.010607080270193591,0.02128833996589936,-0.0005391229274018924,0.0030892750250158785,-0.013597065112710615
2025/05/06 15:13:12.510508362,1746537192,506002903,piren,0.07645842010891603,-0.13926815039049922,-0.05108695960150801,0.001510427071465368,-0.002639221014791209,-0.015256998985988103
2025/05/06 15:13:12.841272988,1746537192,818408706,piren,0.07609414216115255,-0.013086068800513575,0.011056460536991847,-0.0002673466168482966,-0.0026793005663888515,-0.015055161829052553
2025/05/06 15:13:13.134917474,1746537193,130673164,piren,0.0729814192580808,0.008293644332704436,0.022792532688363606,-0.0012354807649552328,0.0033918645110606444,-0.016680765808986624
2025/05/06 15:13:13.447274010,1746537193,443388373,piren,0.0709199677545889,-0.1479599228393329,-0.05300172699450386,0.0017436694240625904,0.0015410990005009242,-0.01249870937865862
2025/05/06 15:13:13.761633936,1746537193,753595179,piren,0.06870162777604917,-0.013863771152194108,0.012190179290433738,-0.0005973278658313912,-0.0021560164536237004,-0.012520068913536703
2025/05/06 15:13:14.71642633,1746537194,67535923,piren,0.06714197637541586,-0.11176554546743143,-0.026631884628270555,0.0006684797779234743,-0.0006220563964759519,-0.012381878874135588
2025/05/06 15:13:14.384690538,1746537194,381256678,piren,0.06548931118702732,-0.09517987393969003,-0.018865232665140706,-0.0016431355947277696,0.0008655765872474365,-0.014122944412261033
2025/05/06 15:13:14.740556685,1746537194,736816332,piren,0.06500801703520802,-0.04619006407921546,0.004214511592809401,-0.000979657633968758,0.0008077797732373146,-0.013695568300360433
2025/05/06 15:13:15.59206490,1746537195,51172039,piren,0.06016036436998727,-0.13005060390759038,-0.037782421971432154,0.0020693012890141338,-0.00043044832952398134,-0.011227708933156246
2025/05/06 15:13:15.367587105,1746537195,363064724,piren,0.0582223520986742,-0.06462562460198126,-0.01566823402382199,0.0012703099436007657,-0.0007849762707863818,-0.0109483210133198
2025/05/06 15:13:15.680762042,1746537195,677139892,piren,0.05459821316793969,0.11156795127308342,0.0577475189156955,-0.0005570522367840864,0.002247917278271742,-0.011563652750218426
2025/05/06 15:13:15.993670504,1746537195,986257577,piren,0.05535324011945499,0.08011989339065681,0.045645399505500305,-0.0008009514247043431,0.001010796839451455,-0.012203615154700493
2025/05/06 15:13:16.300803619,1746537196,296656880,piren,0.05703382820078763,0.03257670632327793,0.0258571299015847,-0.0018684308882825293,-0.0017630408605599846,-0.01210116003706253
2025/05/06 15:13:16.611580959,1746537196,607988120,piren,0.05792773657985261,-0.05931660344577894,-0.007302554536873377,-0.0005427613174784006,-0.0018031016448869215,-0.012611158064439795
2025/05/06 15:13:16.926314224,1746537196,920638272,piren,0.057700405738855834,-0.16604436267338393,-0.05758330760481871,0.0001366677848145883,0.0014983801247997067,-0.012600979651606562
2025/05/06 15:13:17.239310876,1746537197,231328874,piren,0.05671720750203448,-0.10206152151684744,-0.022471508565071217,-0.0018295566736280218,0.0004295839566454022,-0.013535999411952677
2025/05/06 15:13:17.555167498,1746537197,548963013,piren,0.05744959339829138,-0.1469826473474137,-0.04983634761683519,-0.0002874672306948381,0.0001225984810602296,-0.00906214676835255
2025/05/06 15:13:17.904585218,1746537197,900209160,piren,0.05405442769811512,-0.04472328559662493,-0.004975730567969981,0.0007109991719701002,0.00038231085700470767,-0.009511909774763674
2025/05/06 15:13:18.224775147,1746537198,218638009,piren,0.05298795019526839,0.02202472202053177,0.02569915475441969,0.0017842115692820678,-0.00035037033984612875,-0.011581612600222462
2025/05/06 15:13:18.557828514,1746537198,533682215,piren,0.0506415981760611,0.12963769586945567,0.06741362064777288,0.0009783660884245275,-8.952553608667496e-05,-0.01283118493105184
2025/05/06 15:13:18.896790207,1746537198,877891574,piren,0.05008583703253036,0.06282839734577217,0.04647302011915656,0.0006732415357988704,-1.8187760246108804e-05,-0.009881112855841754
2025/05/06 15:13:19.199050200,1746537199,192267568,piren,0.05069800932256906,0.11972407350221131,0.05574017966118072,-0.0017208190921132532,0.000180509854797668,-0.011693085329965148
2025/05/06 15:13:19.518784957,1746537199,514449936,piren,0.05412530620664019,-0.0927533323793153,-0.0271212521498225,0.0008111784071669007,-0.0005146551440650855,-0.012784495537232408
2025/05/06 15:13:19.837175015,1746537199,826631525,piren,0.054064034879986046,-0.09953127599340073,-0.029733104745000048,0.0010651050991729,-0.00020427092019734445,-0.015360765018394583
2025/05/06 15:13:20.145282505,1746537200,140449300,piren,0.053085843299912706,-0.036990147999696694,-0.0007651196684589894,0.0007472433897093581,0.00027001933125198816,-0.014390398294853397
2025/05/06 15:13:20.464732661,1746537200,458107656,piren,0.05080080066789681,0.04038965715976865,0.032100073549896975,-0.00044310242689735407,-0.00015296741600961855,-0.00979156613028978
2025/05/06 15:13:20.819087150,1746537200,812011875,piren,0.048037716338474534,-0.03778569420429035,0.003813385085430195,-0.000397437943053611,0.002717763317940175,-0.009337180947022272
2025/05/06 15:13:21.131563418,1746537201,123999505,piren,0.05080719296661703,-0.20142101251490332,-0.07196980599259103,0.002255690686433778,-0.0017410950629939686,-0.011555855330804768
2025/05/06 15:13:21.443207805,1746537201,438051738,piren,0.05212566399166546,-0.1399420910497728,-0.040707031348866704,9.543808481099459e-05,-0.0011680080355992058,-0.009594416168104875
2025/05/06 15:13:21.758073698,1746537201,754043799,piren,0.05360556118070837,-0.09214728453161307,-0.02291052634333414,0.0015973546345310473,0.0010373619565951428,-0.010537984796376909
2025/05/06 15:13:22.73114059,1746537202,67580468,piren,0.052114281358427314,0.04205620136354178,0.037462658177388884,-0.0003928212991350957,-0.00035158703862642524,-0.01162486667584757
2025/05/06 15:13:22.397855986,1746537202,381356300,piren,0.05194031860397582,0.008835819809124778,0.026753923177193596,0.0008167109045433261,-0.0025476888767097796,-0.014470444718147256
2025/05/06 15:13:22.699636908,1746537202,695547581,piren,0.05099130504561945,-0.03947601962225112,0.011749480900896015,0.00038622989262383095,-0.0028552622230610188,-0.015898400655890647
2025/05/06 15:13:23.15194181,1746537203,10619363,piren,0.051955887912417,-0.1851391466658824,-0.04066024467433129,0.0007713098820588207,0.0006773499268985095,-0.016097425900615067
2025/05/06 15:13:23.341854412,1746537203,325978522,piren,0.05240417263132867,-0.2379263124100437,-0.09341935430719552,0.0020842650561303695,0.0025704418116932666,-0.014287004764630531
2025/05/06 15:13:23.644301282,1746537203,638754533,piren,0.04751086328312657,-0.01905714618695441,0.01081377201952467,0.0021113869756980625,-5.6903168427694474e-05,-0.011762809099642751
2025/05/06 15:13:23.995664123,1746537203,990733000,piren,0.04602827641640264,0.11135460501987524,0.07448143686889448,0.0015483218541650866,-0.001812627819321526,-0.011567759312357753
2025/05/06 15:13:24.313679042,1746537204,307336680,piren,0.04436253423690731,0.17962109096798606,0.0839781298951657,-0.0014250910800553515,-0.0001318527762973776,-0.012646216823399682
2025/05/06 15:13:24.631719512,1746537204,622550661,piren,0.04393877536681283,-0.0454662087991396,0.0019293741152810666,-0.00013942571535161268,0.00377170466351705,-0.011544320574424824
2025/05/06 15:13:24.946298637,1746537204,940793936,piren,0.04584960240320229,-0.1726977616620663,-0.05548467514880135,-0.0012305687405926927,-2.653841878134925e-05,-0.013167998683940248
2025/05/06 15:13:25.258753665,1746537205,254250261,piren,0.045941529866294115,-0.12734688116078893,-0.032773664026468564,-1.5135978613169131e-06,-0.0044800757597465565,-0.00878699828571864
2025/05/06 15:13:25.577933169,1746537205,574276917,piren,0.04353658711022854,-0.08869795892672468,-0.015941349209261508,-0.0005509819691186105,0.0022041796424317125,-0.008207782977940838
2025/05/06 15:13:25.905753926,1746537205,889467322,piren,0.0445059886897541,-0.04086492542383857,0.003599298021211015,0.0008145786620142869,0.003903262985851499,-0.010256686464083304
2025/05/06 15:13:26.208229872,1746537206,203773098,piren,0.04411405031555887,-0.029841131830098126,0.00486955422596894,0.00039322452921691515,-0.0020964519459329757,-0.011542820590692683
2025/05/06 15:13:26.526573395,1746537206,521028018,piren,0.046535870650215846,0.09301730306588585,0.055556174327957626,-0.00031570755996401323,-0.004099873121409627,-0.011293250235141751
2025/05/06 15:13:26.879219211,1746537206,875146534,piren,0.04514496573040233,0.040868644285748115,0.03781771455975905,-0.0006904293520793712,0.003292726798379349,-0.0128162171249145
2025/05/06 15:13:27.194286279,1746537207,189557008,piren,0.038895651922221025,0.06469945610536892,0.04786142783860474,0.0007306188651443449,0.002984336821365742,-0.01273010206450355
2025/05/06 15:13:27.509620334,1746537207,505384852,piren,0.04107329556781833,0.07144039945477824,0.04465190553436329,-0.0010898254134186437,-0.003659561714104716,-0.013273494308090085
2025/05/06 15:13:27.827230602,1746537207,821317639,piren,0.04168670263981178,-0.06108300701750825,-0.0028201017751249067,-0.0015218793037875971,-0.001966379096561764,-0.012893061705464665
2025/05/06 15:13:28.140300166,1746537208,134551008,piren,0.038474772186503595,-0.25086959017989635,-0.0981173407391261,0.00014896377202471784,0.0042611884273115975,-0.015464283137878128
2025/05/06 15:13:28.473892291,1746537208,451653744,piren,0.03600359044977971,-0.1491306140971048,-0.043493659166291825,0.0001892130865290032,0.0002164536018145548,-0.012366796380320516
2025/05/06 15:13:28.771970446,1746537208,767974738,piren,0.0387871478368826,-0.13002347236004175,-0.03340316512342646,-2.2678035453521855e-05,-0.0033723602281574474,-0.012337269808656121
2025/05/06 15:13:29.87939243,1746537209,83613230,piren,0.0388445555086948,-0.09716493553581045,-0.018910216221861394,-0.00019248293927709022,-0.00042010530270111135,-0.014263314452831665
2025/05/06 15:13:29.416947404,1746537209,400621785,piren,0.0414587963907393,-0.0601685599551549,-0.004856851139594599,0.00011879537038107202,0.0024715227706244253,-0.013407768026830677
2025/05/06 15:13:29.726943842,1746537209,722139636,piren,0.04061006258173848,-0.027574487919413238,0.0049598262510488714,0.0001858168059378064,0.0033549351728520945,-0.010838301405659842
2025/05/06 15:13:30.81307448,1746537210,76935771,piren,0.03518895094034869,-0.007017960979280018,0.010011122666775648,-7.987971095270153e-05,-0.0010206478980289175,-0.008805745142016826
2025/05/06 15:13:30.396973716,1746537210,393159713,piren,0.03370934877981545,-0.0017843293536569781,0.010850163274030582,-0.00020125333490798733,-0.0019088294693155028,-0.011335806242091297
2025/05/06 15:13:30.722612258,1746537210,707324785,piren,0.03462978595032318,-0.008231576384903747,0.008369751120425192,-3.212260003801918e-05,0.00013058128877554273,-0.011394094287021478
2025/05/06 15:13:31.31261792,1746537211,26481096,piren,0.036517528666428524,-0.018800991298442107,0.0048523036926941855,0.00017212192080824567,0.0012918648625042497,-0.012051179151621497
2025/05/06 15:13:31.346088478,1746537211,341448855,piren,0.03730883827179681,-0.030479344567103203,0.001402791902820501,8.651277270027501e-05,-0.0013022284129733037,-0.010627588013365125
2025/05/06 15:13:31.671951518,1746537211,656300693,piren,0.038934172729446354,-0.04145614732278889,-0.0011532669983178102,-8.733554538197931e-05,-0.0014103191758923419,-0.011123158167635549
2025/05/06 15:13:31.974303406,1746537211,969834457,piren,0.040177662270251366,-0.04812798700234244,-0.0024263623560682726,-2.9056317369370307e-05,0.0004579475480190659,-0.010883937229081752
2025/05/06 15:13:32.290240165,1746537212,285327822,piren,0.04179437752835036,-0.04991027485984723,-0.002998259353433381,0.0003323230086628944,0.0018865930269974717,-0.01176537185476751
2025/05/06 15:13:32.608636256,1746537212,601120518,piren,0.037507881653387184,-0.04778740660696109,-0.0027024438479357144,4.452018355162202e-05,0.0019995947573453374,-0.011747565254209074
2025/05/06 15:13:32.961842702,1746537212,957311855,piren,0.03710807177741898,-0.04499684076097557,-0.0015364903577991197,-0.00047802779432569594,-0.002388175887833439,-0.012173889152569032
2025/05/06 15:13:33.276079445,1746537213,271806575,piren,0.036441393146143586,-0.04640471385991864,-0.00011692594332046728,-0.00020685581670115872,-0.0033019998164872753,-0.012375251503936086
2025/05/06 15:13:33.593406377,1746537213,589164600,piren,0.03978678998437466,-0.04945030226747041,0.0033442386979833393,-0.0010169393556145375,-7.208808598803659e-05,-0.015070876774667123
2025/05/06 15:13:33.911121243,1746537213,906472102,piren,0.041330113462577665,-0.14789751491043301,-0.04240408015760512,0.0011120212442703521,0.0028303939659789267,-0.014217679316281099
2025/05/06 15:13:34.229539699,1746537214,223679710,piren,0.03935307689484474,-0.09208906550167459,-0.019244367106400106,-0.0008635399700240125,0.000684327423058547,-0.01646529678373083
2025/05/06 15:13:34.542781798,1746537214,539007026,piren,0.03634618874467745,-0.029624636647905763,0.00873488193925212,0.0002977369069890189,-0.0035491116017120736,0.0
2025/05/06 15:13:34.861842179,1746537214,857124411,piren,0.041121374215172674,-0.014139674464835437,0.016557808389633156,-0.0008214311917623244,-0.0029276061590658344,-0.028244443687680035
2025/05/06 15:13:35.180071994,1746537215,173722649,piren,0.03842263592907126,0.007000805995525709,0.02429191837216392,-0.000468417198819673,0.0020526130648915765,-0.012999195295294082
2025/05/06 15:13:35.495516608,1746537215,490091337,piren,0.03347264391441908,-0.10433282723025508,-0.03444580991246568,0.001142320249081631,0.004630009483901108,-0.012646382996552838
2025/05/06 15:13:35.811053882,1746537215,806411383,piren,0.0325844534058896,0.059423033381120455,0.031655275084369314,-0.0010382578511946075,0.0012853247660728644,-0.012302556749596426
2025/05/06 15:13:36.169726216,1746537216,164524623,piren,0.0354387302975521,-0.08243112699997039,-0.02449773304703178,0.00033206728509433477,-0.003776748065046292,-0.011672378574885452
2025/05/06 15:13:36.498662211,1746537216,483337334,piren,0.03500281274241946,-0.06250920136668739,-0.01522810411429509,0.00098747633088784,-7.09252625107279e-05,-0.010442384245939684
2025/05/06 15:13:36.805192237,1746537216,798833273,piren,0.03520852166802982,0.07484308460020905,0.04619476764174647,-0.00041224246083905046,0.0029871974053551006,-0.012052691374256144
2025/05/06 15:13:37.118147520,1746537217,114858237,piren,0.03726423836718093,0.03581788239994419,0.02981738892281589,-0.0010999554256557582,-0.0009706489542856979,-0.011523805498844414
2025/05/06 15:13:37.439140458,1746537217,433184655,piren,0.036604455580246144,-0.1186783239614831,-0.03397380220360212,-0.0004761047567617866,0.00020081358341328295,-0.011936927498278151
2025/05/06 15:13:37.770390991,1746537217,752335560,piren,0.03513915144755449,-0.09685543236372712,-0.016230523002459953,-0.00031094010117803817,0.0005229632339769116,-0.009092234623049601
2025/05/06 15:13:38.78786241,1746537218,72913636,piren,0.035979538201130146,-0.17890178501960835,-0.0718427078865599,0.0018259128776689294,0.00044597638919009633,-0.009904832170048068
2025/05/06 15:13:38.402140032,1746537218,393573963,piren,0.03464144252117701,0.010779286970771304,0.01847986612023812,3.6304234770237955e-05,-0.0026513525694838768,-0.013762448089064688
2025/05/06 15:13:38.726664104,1746537218,716764270,piren,0.03657599208049675,-0.009351094504990965,0.015089643842764454,-0.000891288338665401,-0.0008813418930185418,-0.013980341010848342
2025/05/06 15:13:39.84974027,1746537219,79863307,piren,0.036472853308155105,-0.10864033050998108,-0.03470280504357179,0.0010960147939572478,0.0019673283181495817,-0.01528641497154416
2025/05/06 15:13:39.403577518,1746537219,397593078,piren,0.03522537042871337,0.05338102448015407,0.039191957187732246,-0.0008488711870943204,0.0006345178432546959,-0.012308015599734753
2025/05/06 15:13:39.726973738,1746537219,719017715,piren,0.03522014255215338,0.04557545155666755,0.037508082932537476,0.0004900180015834078,0.0007754675789920039,-0.012128918553940741
2025/05/06 15:13:40.46194182,1746537220,40539374,piren,0.03260695136098683,-0.002165015344424469,0.019427182248239458,-0.00023752076919121814,-0.0008871251285172411,-0.014441925055849764
2025/05/06 15:13:40.363868560,1746537220,359084971,piren,0.03059416811565208,0.08501200654248375,0.04835017750671213,-0.0006974292698723487,-0.0014644000368727616,-0.011553517651388331
2025/05/06 15:13:40.681894446,1746537220,677502596,piren,0.03198643971348171,-0.08463511324582189,-0.022562187738394662,0.0006561948690876545,0.00038521884340214684,-0.011845320029309733
2025/05/06 15:13:41.2550952,1746537220,996017679,piren,0.03357153133069739,-0.005339975647746704,0.015003123579523325,-0.00022576366766366676,0.0012442544799449486,-0.014546391635357047
2025/05/06 15:13:41.327558729,1746537221,323809945,piren,0.03819328176497982,-0.0737159437221114,-0.009417089723679497,-1.203283367773282e-06,-0.0018881155549191591,-0.015542479324630251
2025/05/06 15:13:41.649889356,1746537221,645878502,piren,0.03900274277607286,-0.11858984451795718,-0.025266526206594586,-0.00017376674419083822,-0.0009160910564132698,-0.01665750079531486
2025/05/06 15:13:41.968602878,1746537221,964098575,piren,0.03682067053000414,-0.12741281879435484,-0.028423748528913363,-4.75713756577808e-05,0.0014834066847845473,-0.012367275567657042
2025/05/06 15:13:42.330418222,1746537222,324336626,piren,0.03627597259814176,-0.1103455670293904,-0.022604994542077705,0.0001754711820496062,0.0002723858628912001,-0.014094545786467206
2025/05/06 15:13:42.673286894,1746537222,651785875,piren,0.034434905485436165,-0.08473268502554326,-0.013449359893879216,0.00013822898751142968,-0.0011575893060620588,-0.011933435695970183
2025/05/06 15:13:42.978596887,1746537222,974985206,piren,0.034185485845688014,-0.05803216987778097,-0.003767944878516171,-9.280759998780546e-05,-0.00023490572217575045,-0.01165106837170243
2025/05/06 15:13:43.302494259,1746537223,296194925,piren,0.034217993158901165,-0.03815311180953389,0.00333159534954515,-0.00014240531924979047,0.0008272512315840112,-0.013997651547194585
2025/05/06 15:13:43.633842336,1746537223,630379740,piren,0.03545598624991915,-0.026865291924630004,0.006913535232158309,5.100040533912687e-05,0.00022235997643084177,-0.01288277400904912
2025/05/06 15:13:43.975217832,1746537223,956268802,piren,0.03295902504330285,-0.024221519623297792,0.007643256038491586,0.00018394113135270326,-0.0004993178531988915,-0.011352983913105684
2025/05/06 15:13:44.280749738,1746537224,276532153,piren,0.03131658653779558,-0.028967140594355643,0.0059743632099918675,1.258564752963296e-06,-0.0007121820388612898,-0.012017605887852447
2025/05/06 15:13:44.602324294,1746537224,596066027,piren,0.03415644945074269,-0.03674377055585261,0.00336983865431994,-0.00014575746419124436,-0.0006947378402817366,-0.014070089639384956
2025/05/06 15:13:44.924825152,1746537224,916619572,piren,0.03615295134525334,-0.043583854817517156,0.0007743628055013571,-1.9931504509818324e-05,0.0005487641154603204,-0.01362470399146482
2025/05/06 15:13:45.282550479,1746537225,277798888,piren,0.03971935615734895,-0.04719780924561829,-0.0010934773645727175,0.0001563074772756209,0.0010228557777947848,-0.014534539363274404
2025/05/06 15:13:45.602521610,1746537225,597377452,piren,0.034814337354072765,-0.04753382500358889,-0.0020086995373594517,0.00015503872206263982,0.0007416574023442155,-0.012336556120117206
2025/05/06 15:13:45.924067665,1746537225,919318850,piren,0.03353994142917199,-0.04652413626572969,-0.0020766288593185266,-7.055226592740354e-05,-0.001021682863741155,-0.012578617215886507
2025/05/06 15:13:46.255378796,1746537226,241327942,piren,0.03586912081871157,-0.04569638970637394,-0.0017471540310625149,-0.00015156807616131105,-0.00028617343310807694,-0.013473294420307806
2025/05/06 15:13:46.565751782,1746537226,559424695,piren,0.031673033587661104,-0.042874577029695014,-0.0009918310018262298,6.513173500323407e-05,0.002127066425614944,-0.00960953815991281
2025/05/06 15:13:46.884297286,1746537226,879792348,piren,0.030342190030965242,-0.040065238723040936,-0.00029000664656141486,0.00017486871781783583,-6.0226789525192514e-05,-0.011835506936705415
2025/05/06 15:13:47.205974488,1746537227,201555482,piren,0.031735463401608315,-0.03990960353501128,0.00021214909142325795,3.9543951341294523e-05,-0.001916116652959995,-0.012941123713322109
2025/05/06 15:13:47.531590742,1746537227,522801909,piren,0.03289082990879763,-0.042335777240008886,0.00048196642720286045,-0.0001335153931328324,-0.0006152842365579394,-0.013046683078565102
2025/05/06 15:13:47.849549457,1746537227,846312567,piren,0.03267013634940446,-0.0442349073476483,0.0004855371001345442,-6.199590059182235e-05,0.00142762045474329,-0.014932690728616561
2025/05/06 15:13:48.177416014,1746537228,173565018,piren,0.031940783020423476,-0.04490156752703343,0.0003325904681514532,0.0001629865679420789,0.000712250136128474,-0.011035596570671664
2025/05/06 15:13:48.537230858,1746537228,532825832,piren,0.031638243366056217,-0.04595398142131665,8.508976415061401e-05,0.0001161642826448412,-0.0008377580266423233,-0.013232720012395184
2025/05/06 15:13:48.875412828,1746537228,855029034,piren,0.030682386457320382,-0.04763264425107043,-0.00011010026534421469,-9.734705317705624e-05,-0.0007866661775981111,-0.011726306387547026
2025/05/06 15:13:49.182204086,1746537229,177867880,piren,0.031749160031182846,-0.0488782309564296,-0.0001953500323468443,-0.00012522295406641908,0.000241339706938007,-0.012265243090173378
2025/05/06 15:13:49.505533323,1746537229,500026973,piren,0.033461491124085876,-0.04975890227124994,-0.0002403706751987917,5.066549039908007e-05,-0.00040577381760314914,-0.01475838063587684
2025/05/06 15:13:49.828623081,1746537229,821962236,piren,0.03491687649899865,-0.05041781165270432,-0.00023487997781761454,0.00017422181462267749,0.0003371013108771034,-0.01380032094171289
2025/05/06 15:13:50.147873391,1746537230,144012997,piren,0.03039771676510037,-0.04942496627318935,-0.00011340148375257619,1.5286353476359655e-05,0.00175293258735093,-0.011678076722001145
2025/05/06 15:13:50.474428713,1746537230,466350042,piren,0.031117718454346577,-0.04840845585380048,-6.419684658114035e-05,-0.00015749235449502954,-0.0005897336924376078,-0.012176543503813777
2025/05/06 15:13:50.803536832,1746537230,797759122,piren,0.032218116660156684,-0.04931417950908424,-3.694709859325976e-06,-6.0292761806566246e-05,-0.0018438773463694156,-0.015082385169811273
2025/05/06 15:13:51.123294729,1746537231,118699334,piren,0.0352452413674183,-0.05181157266694073,-2.7598693370868197e-06,0.00015226287778405113,-0.0010966478791126885,-0.015006889315028998
2025/05/06 15:13:51.483195956,1746537231,479024249,piren,0.03466091346210285,-0.05239002651509397,6.1536458166554485e-06,0.00013040480424584265,0.0018975926727753424,-0.016779952569316848
2025/05/06 15:13:51.814874117,1746537231,799974629,piren,0.03182426543032164,-0.05063688063292153,3.59214533390877e-05,-6.629186655820278e-05,0.0015839488457578107,-0.015216348378052783
2025/05/06 15:13:52.126606956,1746537232,121617501,piren,0.034008918483807035,-0.050094954288443905,3.0353939513250606e-05,-0.00014640500286625146,-0.0030475348549712697,-0.015875310711983778
2025/05/06 15:13:52.452108498,1746537232,445827362,piren,0.033506459063079745,-0.05082545500300305,-8.354305636513468e-07,4.756330591080975e-05,-0.0008916929002095401,-0.016838398516845682
2025/05/06 15:13:52.772728233,1746537232,769108855,piren,0.030769641827135753,-0.048895198152825295,5.9517864490054445e-05,0.00012936074004045835,0.0014371747512553982,-0.011543143426948373
2025/05/06 15:13:53.106608432,1746537233,89507967,piren,0.031016125253983087,-0.046527466475396365,-0.00091605335657213,0.00011790437945134125,0.0027860301645759996,-0.012643916612479995
2025/05/06 15:13:53.421415429,1746537233,415837951,piren,0.03237591762590533,-0.04130905069351917,-0.0003629134219748713,-8.94081103990444e-05,-0.001217772325211803,-0.012910888102533723
2025/05/06 15:13:53.744468737,1746537233,738094585,piren,0.03276767764605809,-0.04006102084317799,1.7516293962896044e-05,-0.00014874258689225714,-0.002427349334928801,-0.013847352275734907
2025/05/06 15:13:54.78807433,1746537234,67176030,piren,0.03017287136239654,-0.04011802356788875,0.00028158612852933513,2.3374652568014694e-05,0.0019506067026010458,-0.009731597748192431
2025/05/06 15:13:54.427099190,1746537234,421220771,piren,0.030888010675174875,-0.03889012025298504,0.0006651341316228084,0.00019450796968283865,0.0012430738595204552,-0.012772486110455976
2025/05/06 15:13:54.791371674,1746537234,784754414,piren,0.033806346830432356,-0.04058093529578556,0.00041975150126315696,-2.585525425730546e-06,-0.0016985130772544368,-0.014728972842847826
2025/05/06 15:13:55.112616796,1746537235,108700451,piren,0.03373255293824614,-0.044923157330406624,9.570014657049159e-05,-0.00016516026891754242,-0.0022188866228272674,-0.014164026107641205
2025/05/06 15:13:55.449110859,1746537235,440273031,piren,0.03295337759636027,-0.048060260386754095,-0.00014689339337007077,-2.4677502692814645e-05,0.001503064878620776,-0.015153959301813508
2025/05/06 15:13:55.778470452,1746537235,770099492,piren,0.03131687020934217,-0.04738664751011073,-0.00025617556004965686,0.0002053504386725611,0.0017712450979895061,-0.01171851419054398
2025/05/06 15:13:56.98481704,1746537236,94213121,piren,0.0313398032994153,-0.04634772073896484,-0.0003282512371018014,0.00011060366250107478,-0.0014190152829503622,-0.013934770779176006
2025/05/06 15:13:56.424298899,1746537236,417777389,piren,0.03277392508814866,-0.046358341388821306,-0.00029088820611058855,-0.0001400590298093792,-0.0013380656751102648,-0.013726237633949416
2025/05/06 15:13:56.747617853,1746537236,743491658,piren,0.031854540850733415,-0.0456002883364781,-0.0002064577477847058,-0.0002486136706662095,0.00029406128018482193,-0.01426485691821699
2025/05/06 15:13:57.77414559,1746537237,67734667,piren,0.034792827343800105,-0.040302439750861084,0.001260490930804653,0.0001170081089564177,-0.00031567972731863145,-0.009290605048938678
2025/05/06 15:13:57.390972635,1746537237,386862769,piren,0.034345856327552174,-0.03523736017357401,0.0021442830038854647,0.000450798986817675,0.0011092458581729724,-0.008547346073191124
2025/05/06 15:13:57.758692205,1746537237,752493343,piren,0.03356727939653559,-0.03252983202769806,0.0010339901325322266,0.0010916697292996285,0.0017932945247435203,-0.0052561791232184985
2025/05/06 15:13:58.78607716,1746537238,75170452,piren,0.029383083005132437,-0.03317764479278588,-0.0014688459520445106,-0.00012383940679091504,-5.714584772321075e-05,-0.002361923508669138
2025/05/06 15:13:58.415413802,1746537238,399282273,piren,0.027404371241569872,-0.034994119786700896,-0.005604195435342957,0.0006812527782473945,-0.00062219428878997,-0.0007917945248996212
2025/05/06 15:13:58.733647764,1746537238,726011149,piren,0.02647031668451528,0.07625756551159968,0.037396432469825505,-0.0006408410787800878,0.0002095574529790403,0.0018026134117056548
2025/05/06 15:13:59.54879900,1746537239,50463188,piren,0.026006638254258592,-0.022274896938138285,-0.00044976606381363427,0.001230155506065599,0.002674354653341397,0.002630845709218221
2025/05/06 15:13:59.377085083,1746537239,373138582,piren,0.021588624829533495,-0.05746600600982627,-0.01315372060587517,3.693953744686664e-05,-8.04403127001246e-06,0.002232924433863492
2025/05/06 15:13:59.711279523,1746537239,698954045,piren,0.018453925624053333,-0.061800938372401415,-0.011834017435933273,-0.00030749691014255473,-0.0012626355937049405,0.002181013981232277
2025/05/06 15:14:00.37565849,1746537240,32021563,piren,0.013629433505614866,-0.06627313099712195,-0.009327136570091946,-0.0002400941162993986,0.0018955530300579116,0.0012394469467772555
2025/05/06 15:14:00.359311595,1746537240,355820699,piren,0.011363571991596835,-0.09844824953474857,-0.022494325625240078,0.0001732600905670968,0.0019538080696053363,-0.0002613566158968151
2025/05/06 15:14:00.682936415,1746537240,678605496,piren,0.007707361565857787,-0.071216419058167,-0.00820258937000382,0.00023596216124476847,-0.0013200866475974642,-0.0017234363151864454
2025/05/06 15:14:01.46986906,1746537241,43884025,piren,0.00421589955993204,-0.05425053873461409,0.0030540562603863417,-0.0001714617466899018,-0.0008482394134709548,-0.003623722591714898
2025/05/06 15:14:01.379371465,1746537241,367158104,piren,0.0016246822793901418,-0.04996713878069722,0.009229612763766952,-0.0002385453737808297,0.0013140546727327788,-0.004399796291880798
2025/05/06 15:14:01.693243087,1746537241,689618062,piren,0.0011132033103362846,-0.05578257057089153,0.01090036969135097,1.326116488112619e-06,-0.00016145330749571096,-0.006275624359551809
2025/05/06 15:14:02.16618614,1746537242,12571964,piren,0.003482745788561073,-0.07100860396996903,0.005222593149158932,0.001379095662758497,-0.0013092469733456459,-0.006311007311524506
2025/05/06 15:14:02.343643275,1746537242,338727110,piren,0.0042349805532010875,0.015368771726641039,0.046434637721364046,-0.0007250054272294666,0.00013573826297741664,-0.007246229888649677
2025/05/06 15:14:02.680814887,1746537242,661805889,piren,0.004227307225194304,-0.05970564112722996,0.021254255819190396,0.00017513127822772209,-0.00219452621988035,-0.005345249139231858
2025/05/06 15:14:02.986988988,1746537242,982875312,piren,0.009616981100777855,-0.13801664908743233,-0.014466808074237293,0.0006097506395680562,-0.0030071178167532385,-0.00686082921358556
2025/05/06 15:14:03.311956433,1746537243,307569974,piren,0.012351096165582345,-0.0725412336651291,0.021429976136889177,5.0127648298563e-05,0.0007625070510615401,-0.0076497588487144785
2025/05/06 15:14:03.643507977,1746537243,635584647,piren,0.011745908676030523,-0.15378392295845367,-0.009472722536852234,0.00013552167820259054,0.0012291433083040338,-0.00781164315714315
2025/05/06 15:14:04.9255904,1746537244,3991380,piren,0.010479788551582048,-0.19905046773110063,-0.02660166655645524,-0.0002027978367205922,-0.0025102755013340665,-0.0069229820216515974
2025/05/06 15:14:04.353116979,1746537244,327360831,piren,0.007012599925679722,-0.20756564951874323,-0.029671450412806277,-1.7174708702578348e-05,0.0007435012799312556,-0.007346236337467829
2025/05/06 15:14:04.661742436,1746537244,657049853,piren,0.0007767825262613021,-0.194888449349235,-0.02513491254243469,0.00022863111955310513,0.002309625491129291,-0.006471314762269864
2025/05/06 15:14:04.988278320,1746537244,985201648,piren,-0.0016190121925406809,-0.1668479080722023,-0.015096595078230959,0.00016005526323253886,-0.0005019432474621555,-0.007354533649354552
2025/05/06 15:14:05.314813119,1746537245,310869266,piren,-0.0028643731124310956,-0.14238271761935312,-0.004714544321303876,1.813270848821383e-05,-0.001035598625478494,-0.0077759145355912355
2025/05/06 15:14:05.654066033,1746537245,638160148,piren,-0.004660523923539904,-0.12596874172077707,0.002727131143322986,-7.278040786221648e-05,0.0014055944911223253,-0.00946927841139822
2025/05/06 15:14:05.971119666,1746537245,967675595,piren,-0.004375511154984385,-0.11934888411683742,0.00687645980756047,-3.7809438752235894e-05,0.0014806019762166145,-0.007924818294982008
2025/05/06 15:14:06.298743214,1746537246,293984956,piren,-0.004053427279230602,-0.12334242011538984,0.0075899691287964356,3.044512623776088e-05,-0.0011439197380832765,-0.010007534997394188
2025/05/06 15:14:06.625453175,1746537246,618583888,piren,-0.0012901099518125292,-0.13720697087966074,0.00588348951884447,6.6938540221937264e-06,-0.0022253370637613963,-0.010783393597330965
2025/05/06 15:14:06.957226524,1746537246,946582204,piren,0.0070752378477721145,-0.15370523727491203,0.0032299676857947823,-2.9115314101130896e-05,0.00012141484316548383,-0.012964565725518953
2025/05/06 15:14:07.330961322,1746537247,317098853,piren,0.004889129803195391,-0.16416310118859578,0.002037608108078393,-4.1020756345630186e-05,0.0023905116471895378,-0.010146046645086601
2025/05/06 15:14:07.659756523,1746537247,654199055,piren,0.002787930757166268,-0.1775198240715256,-0.0007143302175240726,4.0641443793370995e-05,-0.0026811018853304574,-0.015134500394833448
2025/05/06 15:14:07.986637177,1746537247,982171351,piren,0.007682234502226243,-0.19063124708248874,-0.0024066248716947893,4.447811675923789e-05,-0.004476720537036177,-0.012016699208345843
2025/05/06 15:14:08.310645132,1746537248,305445246,piren,0.0063507987658712045,-0.19829745241293883,-0.0029890524563107534,-2.6673555253866598e-05,0.003238234314970108,-0.015080582835236856
2025/05/06 15:14:08.645924802,1746537248,637316264,piren,0.007348844695970649,-0.19664269490558706,-0.0024211716098068332,-6.6596540034683305e-06,0.004993935374558833,-0.015351603099964807
2025/05/06 15:14:08.990973562,1746537248,980256912,piren,0.005761352141335788,-0.19515844410747502,-0.0017279925963878716,5.766584688274881e-05,-0.004423162995918573,-0.013857992686582239
2025/05/06 15:14:09.315868850,1746537249,310732825,piren,0.005793353946775617,-0.20032282073189622,-0.0008041356688549613,8.740500508012959e-06,-0.002288416402396335,-0.017793130787191497
