time,header_stamp_secs,header_stamp_nsecs,header_frame_id,child_frame_id,pose_position_x,pose_position_y,pose_position_z,pose_orientation_x,pose_orientation_y,pose_orientation_z,pose_orientation_w,twist_linear_x,twist_linear_y,twist_linear_z,twist_angular_x,twist_angular_y,twist_angular_z,gps_status
2025/05/06 15:28:02.591733337,1746538082,505941519,piren,vessel_center,-473.28181892276365,-324.38441301973853,2.405774122543605,-0.0014986070692990612,0.029777916017862307,-0.9980171496246826,0.055432832775432324,0.004000126000937908,-0.03609418568307732,0.011497209693808026,0.0008604355145270322,0.0012639535503566925,-2.757714708785121e-05,0
2025/05/06 15:28:05.447823436,1746538085,54946470,piren,vessel_center,-473.2900990154911,-324.29808337716344,2.3674746930701778,0.001540314713001278,-0.028201747087600797,-0.9980660019895711,0.05537638995407408,-0.017821061461290498,0.16044697013499032,-0.061793293262465646,-0.0008683991329783271,-0.0005950706358003456,-5.087084549787129e-05,0
2025/05/06 15:28:06.180474668,1746538086,136627323,piren,vessel_center,-473.31885495233706,-324.03697396364703,2.265721894266513,-0.0013817265106243854,0.029773122476979778,-0.9980027820287592,0.055696490667523184,-0.014523263182900025,0.13567597927676658,-0.05490090385776637,0.0008758180838684956,0.0010289515915628566,0.0002102365678158172,0
2025/05/06 15:28:06.848842355,1746538086,804197627,piren,vessel_center,-473.3145401280222,-324.07867320889153,2.2838342493806603,0.002043497711153615,-0.028173168676195955,-0.9980447410422812,0.055756538286491124,0.01752030106977176,-0.16676460770813675,0.07023468870956238,-0.0008750738866017001,-0.0015728135215320796,0.00015915332717362753,0
2025/05/06 15:28:07.489179674,1746538087,477279570,piren,vessel_center,-473.3079423049585,-324.1528384423981,2.315248241467061,0.0012685607469918145,-0.016862190870184812,-0.9982947809289562,0.05587117004946462,0.0010222503681237352,-0.03508855036729941,0.015176240374867499,-0.0007682472586510206,-0.00010930018522348904,0.00017700075881830538,0
2025/05/06 15:28:08.78209125,1746538088,67402237,piren,vessel_center,-473.3118281161668,-324.14376314956723,2.313146002916831,0.0009043391316724283,-0.009253490049244126,-0.9983657180900795,0.056386594462900744,-0.00878708126101597,0.024688231738901285,-0.006616807603316319,-0.0008483452268596986,-0.000295870124491353,0.001097435071156268,0
2025/05/06 15:28:08.754889765,1746538088,711982740,piren,vessel_center,-473.3248490917955,-324.12291366686327,2.3087530117101314,0.000275847524308943,0.00469190122220805,-0.9982891454427307,0.05828114671389806,-0.020229370467995663,0.02186481285825763,-0.003204089453503487,0.0005776196768394406,0.0002750086875125356,0.0018989144827307742,0
2025/05/06 15:28:09.375697988,1746538089,369789368,piren,vessel_center,-473.34705423091594,-324.13372571398514,2.317869148296,0.0004164402850065608,0.012749715334939769,-0.9982012902619165,0.058578626271124826,-0.031138348975900638,-0.04383081977225586,0.023187390306007836,-0.0006384076468666734,0.0015170406904270223,0.001052316288170675,0
2025/05/06 15:28:09.933165149,1746538089,920990539,piren,vessel_center,-473.3683828282,-324.17818410639455,2.3389336030059567,-0.0012228089701044728,0.03263654763803105,-0.9978760717998185,0.05636227307212375,-0.04098098027134224,-0.08976741195715433,0.04203300901570531,0.0003063362393970509,-0.0033915472215500157,-0.002435375992091509,0
2025/05/06 15:28:10.530498643,1746538090,498998438,piren,vessel_center,-473.3878601578429,-324.2564727328187,2.3718377113332223,0.00089613085823923,0.00018485167714487062,-0.998496981247985,0.054799098696999574,-0.03348131703710319,-0.1525123810360124,0.0630698148627461,-0.00011232797878577976,0.0035452451044671947,-0.0024448969901516007,0
2025/05/06 15:28:11.69871419,1746538091,63854951,piren,vessel_center,-473.4148368692952,-324.27631393860815,2.380775338229013,0.00036136490295311444,0.0019107513831013489,-0.9985412712554733,0.05395876244005431,-0.0493713265147559,0.0041157879979895895,-7.402963120155259e-05,-0.000598737523102301,-0.00383713216384623,-0.002447199672943136,0
2025/05/06 15:28:11.616102616,1746538091,610896320,piren,vessel_center,-473.4462803259114,-324.2327647269337,2.363792553425091,-0.0009547171360181212,0.02910261515441404,-0.9981189330296825,0.05395110595764245,-0.058779889118886465,0.09586772775574032,-0.037729746721345075,0.0013160582271605143,0.003868590606353772,-0.0015401585502468785,0
2025/05/06 15:28:12.162395430,1746538092,154864627,piren,vessel_center,-473.47530392655176,-324.2224150366147,2.3583808328318416,-0.002966177171509417,-0.023508551693484033,-0.998280794455054,0.05360974922948422,-0.05703274523216319,0.010760555775823799,-0.007211708458544151,-0.003459062378161187,0.0037082200511886374,-0.002086188249139001,0
2025/05/06 15:28:12.762052085,1746538092,756979322,piren,vessel_center,-473.51450283978346,-324.1513709836926,2.3281266522094217,0.0008329914784445519,0.0028256268127368938,-0.9988056391430095,0.04877106903110113,-0.06879173837128259,0.15448242832026193,-0.06494027063036809,-0.0007109555607027883,-0.007883898471469988,-0.008534535647489615,0
2025/05/06 15:28:13.308485272,1746538093,301025303,piren,vessel_center,-473.5576063445358,-324.1001829839542,2.3077658452433014,0.0012673043809295478,-0.008454951516946706,-0.9989469006537027,0.04507768193700365,-0.08008204400534819,0.07847198989898102,-0.03041547477944262,-3.142585788548832e-05,0.008808825046718859,-0.008745567509846088,0
2025/05/06 15:28:13.852537613,1746538093,846164058,piren,vessel_center,-473.6033884214647,-324.0776600834935,2.2989294998679894,-0.00038491917813488917,0.006486833882983959,-0.9989757556034794,0.04477959959466276,-0.08355921115748938,0.03222771942009827,-0.01272817046054462,-0.0009633162287567105,-0.0036096874027448677,-0.004383422179498626,0
2025/05/06 15:28:14.391254134,1746538094,384587183,piren,vessel_center,-473.64555889335185,-324.1046480492945,2.3101205953638386,0.00032482190537059586,-0.026684729605957892,-0.9985672689919288,0.0463813431736036,-0.07510148311694106,-0.06716628433769031,0.027710135948398017,-0.0010312525047567096,0.0045982622912680736,-0.001872902719111348,0
2025/05/06 15:28:14.955254448,1746538094,920714204,piren,vessel_center,-473.69301264867494,-324.1011359079913,2.3071139325157968,0.0004511991203804921,0.013386120314330811,-0.9989471122268444,0.04387795774568883,-0.089051470431377,0.022638019864098594,-0.012806676189431543,-0.0005626537248038464,-0.006996790558463302,-0.007430129449787575,0
2025/05/06 15:28:15.465724393,1746538095,460645803,piren,vessel_center,-473.73814162119345,-324.1344483366672,2.32034254899825,0.0010369796461739062,0.0034944373487101952,-0.999201565238241,0.03978624895964309,-0.09083556069458577,-0.07644670223116876,0.030763367751533516,0.0008810733904944405,0.004616119993484496,-0.009054381735265992,0
2025/05/06 15:28:16.4586925,1746538095,997790836,piren,vessel_center,-473.78876379334616,-324.17710678060564,2.3370067216770627,0.002134083272844414,-0.02351918452400565,-0.9990258589324806,0.03727769885775931,-0.09259563731220592,-0.07805077833695534,0.03028955770990522,-0.0008385827329944944,-0.0017279029831081612,-0.008048064576781474,0
2025/05/06 15:28:16.594465674,1746538096,589364818,piren,vessel_center,-473.8511511143554,-324.1641251289554,2.328592259829323,-0.0015570190395650559,0.032109383589931706,-0.9988429334077951,0.03576810812016765,-0.10821084434865011,0.054520375230822954,-0.028662811757256733,-0.00013688790351496066,0.0030174759300410224,-0.006445954639167482,0
2025/05/06 15:28:17.133448027,1746538097,127685664,piren,vessel_center,-473.904193044167,-324.20684390586376,2.33982147799799,-0.0010664742935498055,0.025988709092041075,-0.9989697319141588,0.037187690862221234,-0.09376507224974344,-0.10710404394694664,0.03134917782085062,0.004150343027582713,0.0005158546836546847,-0.001741918462355133,0
2025/05/06 15:28:17.674919450,1746538097,670729721,piren,vessel_center,-473.96072022139595,-324.2811059684012,2.364469778364624,-0.001965268670130364,0.0001919324892914833,-0.9992165330517112,0.03952747091697531,-0.10441794364005513,-0.14082037473312953,0.04769097885624497,-0.0035853221667871775,-0.0011288775717334318,0.0007925341056675089,0
2025/05/06 15:28:18.218477300,1746538098,210488662,piren,vessel_center,-474.02968381161253,-324.29917022485046,2.3690140268021196,0.0019256452264977898,-0.029307672107595537,-0.9987296664095855,0.040943933366172,-0.13019652996836126,-0.009020241733605466,-0.0004424048725015575,0.001377258451639388,0.0006914069283458387,0.0020396527799053646,0
2025/05/06 15:28:18.759306923,1746538098,750423600,piren,vessel_center,-474.1136826290045,-324.21354614902106,2.3329157159385487,0.0001703938317329471,-0.0015318798634926228,-0.9991095636636007,0.04216282848618506,-0.17059040591388988,0.19218310286896706,-0.0804747217179804,0.0010216951929875448,-0.004888381864520351,0.002734148896749073,0
2025/05/06 15:28:19.300706852,1746538099,291863340,piren,vessel_center,-474.2134031530161,-324.13552812801316,2.3023992374715387,0.0030078665777231086,-0.026478889481749944,-0.9987607052734826,0.042034209307176905,-0.18328016452996929,0.13019308025673165,-0.049732534709791505,-0.0044208611327161895,0.004635528296431251,0.0007442285288698242,0
2025/05/06 15:28:19.857479892,1746538099,832304746,piren,vessel_center,-474.31957292651657,-324.06308842872164,2.275258355788205,0.0008110725183447092,-0.002103753301614885,-0.9992251648212388,0.039293591988825614,-0.19869316276822213,0.1345226778750661,-0.0502075065702366,0.0036264047922004,-0.007978704930231473,-0.0038278354769611593,0
2025/05/06 15:28:20.422914522,1746538100,418285834,piren,vessel_center,-474.43020613690385,-324.0532762863727,2.2739973696318634,0.0022196373903948375,-0.032800457094248565,-0.9987735960441977,0.03702036019821465,-0.1772165980629776,-0.02471397038379977,0.014561714055244028,-0.0021421741663350505,0.010021925414315158,-0.0039209075634993006,0
2025/05/06 15:28:20.977613597,1746538100,955494969,piren,vessel_center,-474.5174100345957,-324.05821521651677,2.273955899322727,-0.0001995399604725565,0.025832317294090672,-0.9990047444624699,0.03636168462127231,-0.1738604409197702,-0.008194043007506063,-0.0017320019716040302,0.0012799100709576918,-0.00895751727615478,-0.0039182906184652205,0
2025/05/06 15:28:21.503022629,1746538101,498624991,piren,vessel_center,-474.60643147234924,-324.1541844237453,2.3105064934549535,0.0004171929745719522,-0.0042751027212795025,-0.9993529864584236,0.035709353163760824,-0.15971768230938288,-0.2115726700548744,0.08164550903937184,0.0035496050301861756,0.006286893809980775,-0.0027926828520331705,0
2025/05/06 15:28:22.47854547,1746538102,40863412,piren,vessel_center,-474.7007759943291,-324.24125031500057,2.3429236577618346,0.0008502582525884343,-0.011863317120193045,-0.9992988208515083,0.03550218884230495,-0.17619471314583243,-0.14914420788077182,0.05492874499241418,-0.0031934592405254043,-0.00462166954848605,-0.001876398066712041,0
2025/05/06 15:28:22.589236180,1746538102,582937318,piren,vessel_center,-474.812682649891,-324.26453545894066,2.3493657100540832,-0.0011868173889681287,0.028968518474342723,-0.9988929388760698,0.037044744099743725,-0.2057741788253221,-0.015394843847252149,0.000927359037398448,0.0025070208901334288,0.0013309561454829678,0.0014579026308413781,0
2025/05/06 15:28:23.133096312,1746538103,121782259,piren,vessel_center,-474.9302660473801,-324.30616739357987,2.3616468306784806,0.000711759978128664,0.008207482115509111,-0.9991941553840709,0.03928320864403364,-0.22015718695347422,-0.08944854961564447,0.027109893648055005,0.0005857462437160265,0.002652439705370437,0.0031426704882744545,0
2025/05/06 15:28:23.730851326,1746538103,723593817,piren,vessel_center,-475.07780645592914,-324.3267388881407,2.3663389767655647,0.0008018673373928855,-0.016870432299198674,-0.9990501806085511,0.04016817333204227,-0.25312511524753023,-0.015314138153780327,0.0012120406527218255,-0.003185735803023559,-0.0039795951377821935,0.0019728534772831437,0
2025/05/06 15:28:24.270592665,1746538104,264182510,piren,vessel_center,-475.2275905897024,-324.2748163528081,2.3413568217650034,0.00032477063152934395,0.0089104587679901,-0.9991432761248676,0.04041301798984441,-0.275995276909634,0.11885179711148378,-0.05580013983736675,0.0018650688669851131,0.006930915730110948,0.0024561739330890803,0
2025/05/06 15:28:24.815736262,1746538104,810372888,piren,vessel_center,-475.37914828481365,-324.24069788524844,2.323814279177017,0.0014243552489989046,-0.027405866180935528,-0.9987667217640477,0.04137541791565195,-0.2769763529397092,0.049926096475929105,-0.026833477619050167,-0.0029954320880660745,-0.007038455320490166,0.0033277066644248577,0
2025/05/06 15:28:25.359802715,1746538105,351402475,piren,vessel_center,-475.5238251856937,-324.18664923366634,2.2967995020531125,-0.00045445890622662833,-2.254443012882559e-05,-0.999053474239617,0.04349653513329733,-0.2857906981722404,0.11368072013197017,-0.05657760967109146,-0.0013635245543054844,0.0058648444330762104,0.005208119704909358,0
2025/05/06 15:28:25.964667410,1746538105,955465298,piren,vessel_center,-475.6909795860304,-324.176961525656,2.287013484330094,0.000745467809550932,-0.0021208809021781867,-0.9988610391513618,0.047660996710154106,-0.2760817990733809,-0.01644275123858241,-0.002851954651746369,0.0029166582062124078,-0.004583434154332186,0.007695780117056966,0
2025/05/06 15:28:26.506508650,1746538106,499564819,piren,vessel_center,-475.8457907754439,-324.21637417263275,2.299967611481099,0.0022442312102453304,-0.02276053147904537,-0.998661178629687,0.04639797335047067,-0.2847138939235261,-0.08406372435651936,0.029405653349802004,-0.0028983617854395514,-0.008369154372810227,0.0015511922438801423,0
2025/05/06 15:28:27.48320398,1746538107,41156381,piren,vessel_center,-476.0087076251873,-324.23374909786185,2.304237713738687,0.00035352074012761584,-0.00018973202412548315,-0.9991223401169734,0.04188542113943942,-0.29830570928565936,-0.019784451708391854,0.00290302745898232,0.00014676699633475648,0.007513669261268021,-0.00468152392620161,0
2025/05/06 15:28:27.638154597,1746538107,633666686,piren,vessel_center,-476.1788168108854,-324.2663861068357,2.314477196698793,-0.0004891346776313186,0.027032096117573227,-0.9988458802382557,0.03969803594413325,-0.27982016220871586,-0.06602693032391434,0.02180403652583409,0.0033970132981397307,-0.002595660856633003,-0.0029226096318830724,0
2025/05/06 15:28:28.179874163,1746538108,174196210,piren,vessel_center,-476.32331088590996,-324.35012156415894,2.345463242361001,0.0011245610367368079,-0.017414598249856618,-0.9990352015001077,0.04030053714170676,-0.2596474651966214,-0.17159196667867,0.06407478564144228,-0.003181095485403527,-0.00010217025096991082,-0.0017613098517420811,0
2025/05/06 15:28:28.729434539,1746538108,721429840,piren,vessel_center,-476.4710944681784,-324.37134925417126,2.3495744840734623,0.0005827873279616809,0.005113391024649818,-0.9992153309720075,0.03927131194219027,-0.2724572954962691,-0.010165744462164727,-0.004684339677769794,0.0012404851604048237,0.0018964053735784124,-0.0031485235811837754,0
2025/05/06 15:28:29.271726805,1746538109,264860023,piren,vessel_center,-476.6219644685905,-324.368520217045,2.3444031428510246,0.0003402164964822285,0.005644248100596601,-0.999272835011999,0.03770713358499345,-0.2742521293805562,0.00856551379201883,-0.01044353042947696,8.817520399432609e-05,-0.0033000685884557,-0.003996149307095406,0
2025/05/06 15:28:29.836356080,1746538109,812070917,piren,vessel_center,-476.7597265691815,-324.36492435233237,2.339723308238239,0.0013528471453761166,-0.020410162714797633,-0.9991448710057358,0.03593218342222192,-0.2707161408883617,0.006877674398720411,-0.009045294560450595,-0.0032015318163197155,0.0033771650863841417,-0.005649344599073319,0
2025/05/06 15:28:30.366565200,1746538110,358093422,piren,vessel_center,-476.90906278754994,-324.32441870040935,2.3180048415692274,0.0005495483999240267,-0.005015501842946324,-0.999422024683228,0.033617842225470984,-0.27323940361684396,0.08853572639259291,-0.046310312090759906,0.0017064029534564161,-0.001772468887478016,-0.005633591547229538,0
2025/05/06 15:28:30.922450094,1746538110,901690145,piren,vessel_center,-477.05235620662637,-324.2988865242438,2.3024514702710444,0.0011518506733838518,-0.02499896420287703,-0.9991345654567969,0.03322416497471731,-0.25780206845215575,0.037083000749044366,-0.024283129000503067,-0.0007341792392354997,0.0012411786491520584,-0.0038515186470761843,0
2025/05/06 15:28:31.506135288,1746538111,497364882,piren,vessel_center,-477.20325347254624,-324.27159053513225,2.284471281244891,-0.0002458624075348277,0.013876094947430308,-0.9993444066951872,0.033438755176155695,-0.25077040758628716,0.04849696309524952,-0.03199274303772965,-0.0015063235226083437,0.0004642182121454485,-0.0021120692421096546,0
2025/05/06 15:28:32.64199163,1746538112,40490452,piren,vessel_center,-477.33184186727226,-324.31974017601505,2.2990949856566876,-0.00031367778344998013,0.012623237337462238,-0.9993116636158874,0.03488200749122588,-0.23226113119926556,-0.11737253268920501,0.03933353555066731,0.0023195805743511876,-0.0009450251315729793,0.000612231434664702,0
2025/05/06 15:28:32.591761499,1746538112,586099753,piren,vessel_center,-477.4564452746308,-324.41108370944426,2.3328463282448246,-0.0006845587182053505,0.014013863765236643,-0.9991978002729912,0.03750865141999159,-0.22144077749308014,-0.174970907282022,0.06561584144988274,-0.0010412594741096052,0.002031792754949688,0.0038377999200435507,0
2025/05/06 15:28:33.137265188,1746538113,130377037,piren,vessel_center,-477.5780428379902,-324.49420763713533,2.364378299445619,0.0011551387804635616,-0.024677371217015125,-0.9988280539120155,0.041619847699764505,-0.22154355288771474,-0.14620418484651015,0.05562886236272547,-0.0012561771696141166,-0.002117821260232915,0.007779123260212733,0
2025/05/06 15:28:33.682468796,1746538113,678198413,piren,vessel_center,-477.7071073881448,-324.4734378631638,2.3531940255114527,0.0013809274315108027,-0.030116072169671916,-0.9985386830428408,0.044851016750676875,-0.23883867220511054,0.07824730675474748,-0.0370780940251015,0.0010907358620766163,-9.88724414710209e-05,0.008447070640834815,0
2025/05/06 15:28:34.258498542,1746538114,221225160,piren,vessel_center,-477.84201104596525,-324.37412294425314,2.309197428624297,0.0002735488848099647,0.012839078383164492,-0.9987622653857022,0.04805226819723338,-0.24760918544752675,0.20378742553357404,-0.08974605349986631,-0.0015167134037572631,-0.0007491718121152593,0.00913997008552288,0
2025/05/06 15:28:34.820604121,1746538114,814314106,piren,vessel_center,-477.9825943887867,-324.32909856120955,2.2906808249732165,0.0017051148074397596,-0.026612695825013532,-0.9983883481438482,0.050095541668066894,-0.22741930776137415,0.030081671145626737,-0.010332301254960388,0.0007819060100949229,3.161982076507772e-06,0.008224807600239139,0
2025/05/06 15:28:35.366884893,1746538115,357564652,piren,vessel_center,-478.0917558510963,-324.30576566639394,2.2816490266875293,0.001086233000271791,-0.0008017776553177845,-0.9986303329691322,0.052303301276504656,-0.21913386755986686,0.04875213917021064,-0.019006634160314763,0.00012417533265288974,0.0010667439014926251,0.009827974550418905,0
2025/05/06 15:28:35.909438070,1746538115,902542083,piren,vessel_center,-478.20498604252583,-324.32532526061226,2.2916946536985736,9.709599667468013e-05,0.010679677427516151,-0.9984567282065592,0.05449859595865634,-0.20171797079674397,-0.054773764407491043,0.02674328809921442,-0.0005142112335828376,-0.001903517840166424,0.007857447597697586,0
2025/05/06 15:28:36.455910680,1746538116,449335002,piren,vessel_center,-478.3069364129814,-324.39581015756164,2.3221846800295025,-0.0012754613659285649,0.028144153229710315,-0.9979768185118884,0.05699604854879048,-0.18176412408301948,-0.14448282719731614,0.06182210042475639,0.0030123620009866654,0.004779752870692545,0.00914098552566451,0
2025/05/06 15:28:37.7263793,1746538116,993825559,piren,vessel_center,-478.3990146668278,-324.502402481592,2.365096881423928,3.85479687723309e-05,0.025588909637042596,-0.9979338798187523,0.058933672272592996,-0.16459086148406604,-0.205283413101915,0.08182572260577793,0.00016211756297879488,-0.004744496768959799,0.008014791752373015,0
2025/05/06 15:28:37.544478245,1746538117,538689930,piren,vessel_center,-478.4923883637525,-324.5879749403745,2.3982132768986553,-0.001314150371089339,0.008371307686884084,-0.9980969593762818,0.06107907907159805,-0.17006536098560865,-0.1434456416139252,0.05497035734475035,6.11074105641742e-05,0.005759172470621716,0.007881180354837803,0
2025/05/06 15:28:38.115002486,1746538118,82219573,piren,vessel_center,-478.5878802262176,-324.59081613531816,2.398664625623271,-0.0014969053263313946,0.027860028895168316,-0.9977196430920332,0.06145804953551859,-0.17598889149417082,0.024265505177163832,-0.010715671420859801,0.0024137291148433413,-0.0041609326318077355,0.005375028012040801,0
2025/05/06 15:28:38.710166712,1746538118,705054364,piren,vessel_center,-478.6925322067206,-324.55999507599586,2.388074859938412,0.001483003810216306,-0.026957594777013278,-0.9977380165230831,0.06156248182230122,-0.17227261350867556,0.06018467679869023,-0.019863536178099946,-0.002548107490597477,0.002045747262007185,0.003411455351805185,0
2025/05/06 15:28:39.276740439,1746538119,263148142,piren,vessel_center,-478.795466247304,-324.4361935225641,2.3400029430564575,0.0006403171361486025,-0.003321730683280177,-0.9981661808992663,0.06043865822638706,-0.1897683287752894,0.2615885329122196,-0.1023696831060173,0.0006843114147231312,0.0010110987457744472,0.0009095570475369993,0
2025/05/06 15:28:39.817701923,1746538119,812300945,piren,vessel_center,-478.89419108806675,-324.3170659286412,2.298065231274945,-0.0013010297806688403,0.028640297529493677,-0.9978853502925142,0.0583341096659426,-0.1776725846569203,0.20721726076330954,-0.07068685882247136,0.0012611374378154214,-0.005193528075707027,-0.0022055010434019647,0
2025/05/06 15:28:40.398067078,1746538120,362746746,piren,vessel_center,-478.9849793530619,-324.3064290068792,2.301216954242277,0.0012233669515388235,-0.0039107334415435496,-0.998391903254639,0.056540401951441915,-0.14315459718977727,-0.04477546716902875,0.030346321772458898,0.0004191808190049011,0.006722221451686766,-0.0027218603820950127,0
2025/05/06 15:28:40.918689363,1746538120,913399272,piren,vessel_center,-479.0538166695615,-324.33510657802,2.3184706747529056,-0.0017846897863382108,0.032195187267488885,-0.9978765748070523,0.05659175072855999,-0.13696829703685545,-0.058738162694680476,0.034954998162030085,0.0024617076731905194,-0.0054296380710172135,-0.0015163436047858478,0
2025/05/06 15:28:41.459349925,1746538121,454656478,piren,vessel_center,-479.1199832106981,-324.41772885616604,2.3557660081545175,-0.0009985663279046676,0.02095792955416893,-0.9981936700906879,0.056295337684166044,-0.11707692586382984,-0.17077597578290774,0.07523978072836371,-0.0004979767211960262,0.0047754568104474236,-0.001519951726117073,0
2025/05/06 15:28:42.58371446,1746538122,53323956,piren,vessel_center,-479.1924679070683,-324.49370862499404,2.3892333408834814,-0.0015292896139091437,0.029734650748590892,-0.9979928612047285,0.055890614619411784,-0.1227864325757306,-0.11294588601385808,0.049744507332052164,0.0011336401837778013,-0.0026324784128199034,-0.001182325277865438,0
2025/05/06 15:28:42.632923545,1746538122,597272322,piren,vessel_center,-479.26108501494576,-324.5275337960058,2.404921152054526,0.0003531154327642963,-0.0028821570089967007,-0.9984435726646165,0.05569560741372127,-0.12454834421741873,-0.04912083399640292,0.023399791549767953,0.001408198999393157,0.0011647965129832562,-0.001478924029390354,0
2025/05/06 15:28:43.150826387,1746538123,144011770,piren,vessel_center,-479.33724047441,-324.4686279678006,2.384152459864105,0.0003519764113359931,0.0013531058632156989,-0.9984924021965775,0.0548722878403742,-0.14234813991574777,0.14187241506624587,-0.05134864364820635,-0.0024284516475647075,8.997365526501064e-06,-0.0019478270321793723,0
2025/05/06 15:28:43.693369272,1746538123,688800744,piren,vessel_center,-479.4162314184859,-324.36578690934675,2.347510654773302,0.00025395037017974235,0.005391769035308402,-0.9985232452291443,0.054057312853468584,-0.143838674725475,0.19695400244913827,-0.06999548579351134,0.0009358432185318642,-0.0005427600492325647,-0.0023909587946908395,0
2025/05/06 15:28:44.265293599,1746538124,234600024,piren,vessel_center,-479.4889606936155,-324.28269574522136,2.3201849797929834,0.00042707836988298433,0.002274880097998597,-0.9986121582683709,0.052615585934130016,-0.12891002165306384,0.13985273600146714,-0.04480365399855855,-0.0007211984839447952,0.0005167180650483368,-0.003445099484343026,0
2025/05/06 15:28:44.788145751,1746538124,784122613,piren,vessel_center,-479.5530242708311,-324.2404119558802,2.3095517255123754,0.00027123550069951553,0.001629209439768158,-0.9986657161738184,0.05161452747956833,-0.11406850625089612,0.06325592957546208,-0.013790532210624765,-0.001374806157425279,-0.00030560186045346414,-0.003301216882405116,0
2025/05/06 15:28:45.356459782,1746538125,328904429,piren,vessel_center,-479.60938127760636,-324.2345437617033,2.3131257983336515,-0.0010967220457345026,0.029381671827271326,-0.9982971594882926,0.05038150373892805,-0.09888935113303854,-0.0017443475599517588,0.011198797507720366,0.003308152960130956,0.0004243067397985454,-0.003699026722511403,0
2025/05/06 15:28:45.930079287,1746538125,924956168,piren,vessel_center,-479.6601432079127,-324.29585898315645,2.342681553446084,0.0011662595408706634,-0.019020010746144896,-0.9985937561253626,0.04947109517020824,-0.07966136173981761,-0.13569533296154043,0.061935580254202593,-0.003196811078895703,3.912651532337417e-06,-0.0034371027752754606,0
2025/05/06 15:28:46.502222213,1746538126,468524339,piren,vessel_center,-479.7104291954876,-324.29659339227817,2.345947794320469,0.00024809661638112643,0.0008944250587761245,-0.9988289751215388,0.04837165398805101,-0.09423055406564311,0.02863734476450222,-0.006542643918398941,0.0009251919848535124,0.0005985959536937231,-0.004189611904894347,0
2025/05/06 15:28:47.22964399,1746538127,15479109,piren,vessel_center,-479.7620491289554,-324.26742253664037,2.338533866999597,-0.0004515974719642299,0.004311440247254497,-0.9988384004765201,0.04799017895595587,-0.09432595507373628,0.05864066107160429,-0.015063336115393101,8.423058314142931e-05,0.001992874936094467,-0.0028688450246300273,0
2025/05/06 15:28:47.566097620,1746538127,560403122,piren,vessel_center,-479.81292180387993,-324.2395538284733,2.333164211929454,0.0015390031320004069,-0.03216138172677267,-0.9983595908892935,0.0473434712938046,-0.09204728889503679,0.048872108977502965,-0.008577663490481259,-0.001843834004758071,-0.0010078215666589657,-0.00305748234819582,0
2025/05/06 15:28:48.147102401,1746538128,118596476,piren,vessel_center,-479.8689806138901,-324.1583930604401,2.3046881889878286,-0.0003478266023449056,0.003152892594897932,-0.9989061909684391,0.046651472965641094,-0.10444870611281623,0.1696906510135253,-0.061413307379740996,0.0013988960743257514,0.00041723817857786696,-0.0031717759086517206,0
2025/05/06 15:28:48.683696122,1746538128,679315577,piren,vessel_center,-479.92048561326897,-324.115698748307,2.2941516306979057,0.00019953572612518123,0.002143051039713276,-0.9989659840066567,0.045412887106495624,-0.08985322964022054,0.054897467233422814,-0.008944632109371242,-0.0009320242350145279,0.0005896349936628054,-0.003726427699854499,0
2025/05/06 15:28:49.241691087,1746538129,233862913,piren,vessel_center,-479.96683189672984,-324.1198148920613,2.3053622759124464,-0.00014896128340433258,0.006094588176320584,-0.9990166215346615,0.04391609844883807,-0.08317802434648876,-0.021448537514333704,0.0269805758834172,-0.0025919181762971664,-0.0018478273357470656,-0.004133420126127093,0
2025/05/06 15:28:49.843005444,1746538129,839024408,piren,vessel_center,-480.0127541808349,-324.14883307347907,2.3286786360434557,-0.00036827602525220355,0.03013879064037505,-0.9986586080089277,0.04210109643674139,-0.07569667354318846,-0.057695328751878744,0.043268918041377245,0.002743809392778986,0.0013500565180156296,-0.004590863074378645,0
2025/05/06 15:28:50.404711185,1746538130,391331042,piren,vessel_center,-480.05158862127905,-324.21203652697085,2.364215290433295,0.00040093083702458037,0.003629638572408951,-0.9991619502005956,0.040768397683009355,-0.06813020581057537,-0.12663203609940832,0.06859607596034302,-0.0027990560247882555,-0.0022059923283164963,-0.005082529676197318,0
2025/05/06 15:28:50.945255433,1746538130,940499796,piren,vessel_center,-480.0924576459544,-324.2239850154184,2.3782614321032405,0.0019512795829740607,-0.02573830021639278,-0.9989149441491427,0.03876424596809718,-0.07670811600796662,-0.00028444058780191517,0.01698903022660809,-0.0004812728691837658,0.0017136843612684891,-0.005845628090797833,0
2025/05/06 15:28:51.504622737,1746538131,488655923,piren,vessel_center,-480.14025040747697,-324.13162002210424,2.347657321718619,0.0014397336925590265,-0.0152445344635115,-0.9991839939830804,0.03737482446654206,-0.08910881646461313,0.20535206734771266,-0.07181053039143617,-0.00024898100355823406,-0.001819503058525699,-0.005366911652215939,0
2025/05/06 15:28:52.51936678,1746538132,46480444,piren,vessel_center,-480.1890533742287,-324.0100882141898,2.304770526766321,0.0007642917963191768,0.002340109920359338,-0.9993706055001204,0.035388311713525765,-0.08805173733303456,0.22307348275849137,-0.07886987960916853,-0.0020530491787876153,0.0008721595104402565,-0.006180952322077907,0
2025/05/06 15:28:52.631927468,1746538132,597172603,piren,vessel_center,-480.23080662201716,-323.95012802406,2.287842203459249,0.0033958259866208322,0.0033923025595114457,-0.9994159657812233,0.033833237959117905,-0.07376156452987709,0.08503413566513729,-0.020571607143512888,0.0014402402514339819,-0.0014397188337072389,-0.006143696243683824,0
2025/05/06 15:28:53.207156139,1746538133,200685170,piren,vessel_center,-480.2731085528304,-323.952939652831,2.2973183961131705,0.0005641131941330612,-0.005569834808550034,-0.9994546170107064,0.03254423531889957,-0.06931249887575143,-0.03505066165812393,0.028083702205260665,-0.0011615173273199781,0.0032315548993292983,-0.004826937812290092,0
2025/05/06 15:28:53.794013360,1746538133,755932412,piren,vessel_center,-480.30527471421715,-323.97971815576415,2.314966376427016,0.0004780119461186716,0.0032340195112900674,-0.9994998090598912,0.031455433737605926,-0.05627523232860733,-0.05183680792702004,0.0330649448340141,-0.00093481352778701,-0.002127140959398026,-0.005240211304108735,0
2025/05/06 15:28:54.313234729,1746538134,308801183,piren,vessel_center,-480.33575726577493,-324.01155895103403,2.3353040573111894,0.0004280899648942929,-0.0014254367637940874,-0.9995552467978281,0.02978411435559759,-0.04893385172053934,-0.05345889844861601,0.03416093948819545,0.0017809138904694914,0.001209233933133758,-0.0055269048187759,0
2025/05/06 15:28:54.889374581,1746538134,863984595,piren,vessel_center,-480.36302883517055,-324.0182786943665,2.3444414595901506,-0.0007074082631821798,0.029958612227144184,-0.99916133804726,0.02790343488858992,-0.04955727941801308,-0.002859050186952733,0.012591343180248928,-0.0004919006456459699,0.00011084123574862244,-0.0065271045889890925,0
2025/05/06 15:28:55.419748948,1746538135,414957081,piren,vessel_center,-480.38883971184265,-324.0518656173539,2.3632235885739217,-0.0007399676021484003,0.03228874938340559,-0.999118673256095,0.02680980906653221,-0.04593903971385736,-0.07398611119683635,0.03883966396491638,0.0012280713915559123,-0.0004028059090929834,-0.005502199543292914,0
2025/05/06 15:28:56.2048824,1746538135,966864873,piren,vessel_center,-480.4150072544871,-324.0964853463065,2.385923010472358,0.0009004813241113429,-0.029122222614852505,-0.9992609437427536,0.025072925511344407,-0.04762000366840732,-0.08219644200194096,0.041540494252526525,-0.0007003348875333421,0.0006513585847829494,-0.006279521372992388,0
2025/05/06 15:28:56.523284404,1746538136,518124582,piren,vessel_center,-480.4488581190854,-324.0181082091808,2.3583523173520162,0.000918125475643001,-0.02906409949181721,-0.9992953086748246,0.023734389118486264,-0.06544171887862796,0.19111363677966467,-0.06982547342188374,-0.0013083955462188975,-0.0002356380954793376,-0.006127585877220059,0
2025/05/06 15:28:57.140935861,1746538137,118737482,piren,vessel_center,-480.491034176452,-323.85846835578946,2.299496734730538,-0.0004153039902376286,0.03201063904338845,-0.9992586779943908,0.02138319348301772,-0.07159512456855702,0.2903879930303904,-0.10727666106741598,0.0013748390386592072,-2.0646811298570498e-05,-0.006974201575431718,0
2025/05/06 15:28:57.679920771,1746538137,675323586,piren,vessel_center,-480.52345471462166,-323.8233240680919,2.2936216144400285,0.00024317764260490846,0.028643654275322283,-0.999403048043602,0.01931397151152243,-0.05652098998643816,0.01510893564423016,0.010215698323963615,0.00026993327479987787,-0.0009911974355646493,-0.007577555929664326,0
2025/05/06 15:28:58.259610355,1746538138,228305992,piren,vessel_center,-480.55111606811533,-323.8842829150106,2.329066803581597,0.00041985601616450113,-0.025346333572732967,-0.9995275438676502,0.01738033789223477,-0.0480319498113655,-0.13909759271095906,0.07635675997869294,-0.0013237121624469566,0.0014540695526080642,-0.00641779485060255,0
2025/05/06 15:28:58.786905669,1746538138,782951231,piren,vessel_center,-480.57686512881895,-323.8785764917181,2.3370790780687773,-0.00012985568884026994,-0.02086594061538359,-0.9996506545158731,0.016222348341773482,-0.04728048147526317,0.041489106608833315,0.0019942582663871194,-0.00033903989610289194,-0.0005587529825172858,-0.0066377547713572784,0
2025/05/06 15:28:59.355732870,1746538139,335629065,piren,vessel_center,-480.60288401776546,-323.81037567464847,2.319865696759855,0.00021341602061809013,-0.031211313984930416,-0.9994242739266747,0.013301466801661737,-0.04747673636925321,0.14251952868585277,-0.03870366173228437,-0.0009402307295895641,6.245697048865187e-05,-0.008044776665495846,0
2025/05/06 15:28:59.924367082,1746538139,915238012,piren,vessel_center,-480.6322746149879,-323.6981924164039,2.2850197431162442,0.0007880790348178845,0.016204041682975904,-0.9998131996859131,0.010505888748119257,-0.04905440788784255,0.20050205885008865,-0.06418651199421231,0.0013635228047312498,-0.002750929604495984,-0.008648576527239356,0
2025/05/06 15:29:00.495867587,1746538140,477430747,piren,vessel_center,-480.6592511728031,-323.67845839921523,2.2893684058977177,0.001068045204055543,-0.02891720182002587,-0.9995549402913394,0.007250934941030976,-0.04859683677491341,-0.002588474624053261,0.02453651301093432,-0.0011752364672733848,0.001171526958014569,-0.01063650830378196,0
2025/05/06 15:29:01.83107272,1746538141,78033797,piren,vessel_center,-480.6889898167934,-323.65289830530656,2.291666860139324,0.0008975248616804864,-0.00013990464913893303,-0.9999904682181658,0.00427063796467862,-0.0502404518882937,0.057654527936029196,-0.0028975054063446297,0.0003077025446022612,-0.0005365694706096277,-0.008955272148581285,0
2025/05/06 15:29:01.640772555,1746538141,628533801,piren,vessel_center,-480.71497184786284,-323.65303178584634,2.3043444360013794,0.0005086091148188402,0.006389042807115089,-0.9999754733270868,0.00282386137156646,-0.04683502363195623,-0.012830160134899113,0.028811488099213082,0.0003750983783842324,-0.00020399596268682585,-0.008257426044944048,0
2025/05/06 15:29:02.206271819,1746538142,189930386,piren,vessel_center,-480.7397257263296,-323.68043404438316,2.3281388460550567,0.000703878391905144,-0.029269696315565325,-0.9995698166000532,0.001723709644934358,-0.044574312159238266,-0.05804610746158657,0.04646200597912207,-0.0015207322036401795,0.0008640043260429564,-0.006955574733809324,0
2025/05/06 15:29:02.824323277,1746538142,783405894,piren,vessel_center,-480.76742237059744,-323.6464864916497,2.3246031513848084,0.00014919626153649416,-0.030314726054546822,-0.9995403176291902,-0.0003854328100601916,-0.046937641552585424,0.09449456637780743,-0.023099884753149356,0.0005423322897088764,-0.00107923685321447,-0.007307756993199875,0
2025/05/06 15:29:03.344397846,1746538143,335767876,piren,vessel_center,-480.79206841597545,-323.55923685678573,2.295568217976098,-0.00048443038295878436,0.03065576590839861,0.9995279981529949,0.0019417136864659337,-0.044065257955253054,0.17235951203761063,-0.05926337980868955,-0.0002169087522053308,0.0017216674041615509,-0.006490158447418338,0
2025/05/06 15:29:03.899830765,1746538143,894984086,piren,vessel_center,-480.8165651523204,-323.46648281654586,2.263922098280793,-0.0005195429688764979,-0.004188862627956308,0.9999868796418605,0.002902421251814313,-0.04439860503721285,0.16685370654699938,-0.056823452107064486,-0.0013952073378291844,-0.001572149719987562,-0.005976173597306882,0
2025/05/06 15:29:04.516148350,1746538144,501655259,piren,vessel_center,-480.8435383177603,-323.45202715202055,2.268828696720873,-0.00220413125787596,0.01439211486116341,-0.9777970620583275,0.20904763635431137,-0.045230110147894825,-0.0231963547691518,0.029747527699046282,0.00029940089146050493,0.001759446004479948,11.206270783703198,0
2025/05/06 15:29:05.89457150,1746538145,84384932,piren,vessel_center,-481.00749232060645,-323.55270102513776,2.3121944884624144,0.0007864760326973949,-0.0021478148607203392,-0.9997488000046427,0.022295856925693858,-0.3488940037773315,-0.21580237783882664,0.0861875886612724,5.624848540718488e-05,-0.0016622906846287294,-0.007367627681560295,0
2025/05/06 15:29:05.662223252,1746538145,649921325,piren,vessel_center,-481.1086027875228,-323.6175923469897,2.347147634207938,-0.0011153597567148722,-0.0010478019879262008,0.9999478418860592,0.01009809838632895,-0.15086047971576558,-0.09853797637515498,0.05943962820912761,0.00038324253646316583,0.0009715555730515035,-0.00803797552063342,0
2025/05/06 15:29:06.217850224,1746538146,210278076,piren,vessel_center,-481.08809180792707,-323.6135809567663,2.3637032982666697,-0.0012905446177296183,-0.028568408818960934,0.9995141632358627,0.012394272994232203,0.07132248506927713,0.02780519807556657,0.021196594445869535,0.0010499581239571418,-0.0014567316157368738,-0.008185612744508977,0
2025/05/06 15:29:06.793106216,1746538146,766726337,piren,vessel_center,-481.0098789177613,-323.60599336548916,2.3777539955190012,-0.00023112379503545012,-0.02520956709817075,0.9995935463250725,0.01331038894170641,0.15751328634296474,0.010503957907076533,0.026379367181754702,3.173608563523884e-05,0.0063967824103980525,-0.0059934929217761255,0
2025/05/06 15:29:07.319989715,1746538147,315512528,piren,vessel_center,-480.9361557817418,-323.5976422206602,2.3864389636987813,3.179501805951915e-05,0.026824176749690027,0.9995559364695868,0.012976609695347505,0.12955183538974813,0.016273608802885343,0.013557943267004718,-0.000595231772528267,-0.0025602719636202047,-0.003967109807327734,0
2025/05/06 15:29:07.878536430,1746538147,869448935,piren,vessel_center,-480.90633565028304,-323.4931693391381,2.3509884660694196,8.850801242661411e-05,-0.012481309943613262,0.9998207075146167,0.01423944849333388,0.03741935508251151,0.2292638048352731,-0.0820756870877064,-0.0003051496133661063,-0.0005742787857524262,-0.005262864312398133,0
2025/05/06 15:29:08.491974742,1746538148,484696036,piren,vessel_center,-480.92842011261035,-323.4028751687585,2.3202684441184513,-0.0007174461712957025,-0.004883444559738658,0.9998513212060512,0.016521886173709834,-0.06179152133440731,0.12281725567067979,-0.04040104795602222,-0.00046630890219537155,0.001896349668965819,-0.005652014637077555,0
2025/05/06 15:29:09.47121063,1746538149,36836349,piren,vessel_center,-480.9868327200626,-323.3676491472309,2.3130322896622943,-0.00017226158270885444,-0.0014698403270611352,0.9998262497247947,0.01858171834391743,-0.11656868814934533,0.05190663519592846,-0.007401339083708623,-7.548778431860441e-05,-0.003347456794817336,-0.006573159616999889,0
2025/05/06 15:29:09.594899226,1746538149,589850663,piren,vessel_center,-481.05042555861905,-323.35652653441286,2.317572768914834,-0.0006739963755092351,-0.0009237760882937711,0.9997955679222879,0.020186994069813325,-0.11586760125232977,0.013378446503475347,0.011708828539033246,-0.0004331117922463189,0.004282136735569716,-0.00628981913908579,0
2025/05/06 15:29:10.156508699,1746538150,149908782,piren,vessel_center,-481.09944844015615,-323.35397843172206,2.326809852171187,0.0001932730181757435,-0.0008555355009248236,0.9997469125076486,0.022479805069689284,-0.08343126479066959,0.0027086338097436196,0.017960864982465265,0.000660928978599007,-0.002620441880663955,-0.007036637203830883,0
2025/05/06 15:29:10.728594821,1746538150,718520243,piren,vessel_center,-481.1287929962868,-323.34379401163915,2.335471352616011,-0.0006579838639679538,-0.0008782521785548847,0.9996808878138219,0.02523723974832806,-0.03706548054437881,0.02172249063451119,0.013189933298166593,-0.0006611800767457128,-0.0011401095066092411,-0.00836401086943951,0
2025/05/06 15:29:11.286868418,1746538151,272726177,piren,vessel_center,-481.1371451497233,-323.32079217868665,2.3387788662130076,-0.0007970935498846445,-0.0008534172960474903,0.999589808017277,0.028615590659198355,-0.010239095180122247,0.04625091257416926,0.0043891046913627045,0.0002153729503611224,0.0012160020158160814,-0.010463641362842805,0
2025/05/06 15:29:11.836290024,1746538151,831082015,piren,vessel_center,-481.1395326123579,-323.28705118187486,2.3377716716504735,-0.00153756449924942,-0.0012147385595846002,0.9994601892634372,0.032794670041591784,-0.003067351011850049,0.06487725246493056,-0.003198230480489711,0.00022524972095987948,-0.0034673534769498913,-0.011328613918388911,0
2025/05/06 15:29:12.469310149,1746538152,436148713,piren,vessel_center,-481.1474786425204,-323.2448523628604,2.334623839444715,-0.0006741919603253377,0.0013576466859649013,0.9993204389862796,0.036828826820115144,-0.016627705686959968,0.07188552563829972,-0.005916956404578682,-0.00034362566900217865,0.0013764834712952736,-0.010793997445615301,0
2025/05/06 15:29:13.8464071,1746538153,3754454,piren,vessel_center,-481.16171842392663,-323.2053988696652,2.3299282251302342,-0.001902706005534573,-0.02987807247415505,0.9988514235688599,0.03741008058729322,-0.027855195333767922,0.07128731080765675,-0.009086345652582222,0.0022717532565948192,0.001658777439566489,-0.008570923452810783,0
2025/05/06 15:29:13.579262561,1746538153,557384479,piren,vessel_center,-481.1867278421661,-323.22395390854894,2.3462701787872975,-0.0006160871089169165,-0.003354099392416624,0.9992162008865588,0.039437980929202664,-0.04962351160738727,-0.05650508247344958,0.03826821427417836,-0.0014659514694746062,-0.0023869150605628268,-0.008589028662721123,0
2025/05/06 15:29:14.116301313,1746538154,111738363,piren,vessel_center,-481.2167503412148,-323.228264795311,2.3574795893265605,-0.000765515222906739,-0.0033013332626787815,0.9991561292186846,0.04093341703141436,-0.05008308195337995,0.009370743735553619,0.012078371745910307,-0.0006662468388471009,0.0021822088613208295,-0.007258109078387952,0
2025/05/06 15:29:14.671633898,1746538154,664151113,piren,vessel_center,-481.24149913882854,-323.19736332045,2.3541462734248877,2.986329992331327e-06,0.007044586830918748,0.999055645227471,0.042874135869836794,-0.044039592911439836,0.06663028854673059,-0.01005375572609335,0.0014891108423346305,-0.0013015155567067762,-0.008430727806334543,0
2025/05/06 15:29:15.227638711,1746538155,218772165,piren,vessel_center,-481.2604351944194,-323.1311642933074,2.336857800560725,-0.00020443604787540636,0.00046318379012906606,0.9990132332767291,0.04441062265556225,-0.03174258625708681,0.13148813561424533,-0.03606561587727039,-0.0006994013635037921,0.0009005301412813936,-0.007307755426191868,0
2025/05/06 15:29:15.852316950,1746538155,824600971,piren,vessel_center,-481.27782621327896,-323.0633533504084,2.3201645237941935,-0.0005906855503160602,0.0010564440208903332,0.9988757064038294,0.04739048610071859,-0.027892408970273765,0.10614148300055633,-0.024876016574587285,0.0015410362118191342,-0.000844225472706845,-0.007893463977233445,0
2025/05/06 15:29:16.394178855,1746538156,389611292,piren,vessel_center,-481.29246727844054,-323.02331708796163,2.3143476338463884,-0.002373794045720925,0.003066359956525056,0.9988146562819605,0.04852056197937795,-0.026818709870394388,0.06720026414345769,-0.007821301063406769,0.0006138266071200796,-0.002760119661586617,-0.007139179229835323,0
2025/05/06 15:29:16.977459247,1746538156,945743956,piren,vessel_center,-481.3122341680544,-322.9995737902081,2.3151052002357466,-0.00013186672951960595,-0.0008192535481059896,0.9987610151843697,0.04975686869847089,-0.03762220867151846,0.036956038245625975,0.003524604541911282,-0.0004048915310500843,0.0042729199147371775,-0.005580471969071824,0
2025/05/06 15:29:17.508531648,1746538157,504439563,piren,vessel_center,-481.3319611498123,-322.9924967374092,2.322277936636049,-4.429775772394191e-05,-0.0008599431009853141,0.9987056042603258,0.0508564111453921,-0.03566484741318127,0.007685352345788786,0.015179483008362206,0.0006824943580993553,-0.004079218661422994,-0.006179575856557439,0
2025/05/06 15:29:18.70262187,1746538158,60408732,piren,vessel_center,-481.3508027820877,-322.98789649002816,2.3309842834077483,-0.00022499740539410552,-0.0008246932210591915,0.9985562989495274,0.053708352101707144,-0.03410436789304149,0.008549483648176035,0.016042369972702808,-0.0005697485897459991,0.0026714851970470205,-0.007657462850262752,0
2025/05/06 15:29:18.628685639,1746538158,621081483,piren,vessel_center,-481.3705905188998,-322.9738203284933,2.337374832995834,-0.0007000315880335695,-0.0008020910992836552,0.9984259593914757,0.05607557595652092,-0.03261048281869953,0.028434757986770205,0.008855636828782744,0.0002688361019386539,-0.0026479989389132288,-0.007643963339527028,0
2025/05/06 15:29:19.186146836,1746538159,178037778,piren,vessel_center,-481.38823420528234,-322.9465576882471,2.3384344629080256,-0.0005314203655702547,-0.0008207928935665112,0.9982748534745909,0.05870571362061054,-0.031845249962179516,0.05416876244953557,0.0003536195729696018,0.00021570606643786177,0.0010596911977370912,-0.009251373873760538,0
2025/05/06 15:29:19.791858979,1746538159,786659819,piren,vessel_center,-481.4069977788128,-322.9080667938339,2.3361301549115576,-0.0007493076438591029,-0.0008009543753233012,0.9980959737152612,0.06167028671514581,-0.030919805325038033,0.06720533844595622,-0.0052410186246659015,-0.00044663365649163383,-0.0007666111108752606,-0.008368507240928741,0
2025/05/06 15:29:20.364648538,1746538160,343516015,piren,vessel_center,-481.42351900663715,-322.8692924805538,2.3326660452135193,-0.0005050595454602143,-0.0008550858058482187,0.9979840114602055,0.06345806972258669,-0.029753263758265893,0.07103750585451991,-0.006518510997434919,0.000516670966472129,-0.0003098172362105089,-0.008171907252098336,0
2025/05/06 15:29:20.919902955,1746538160,911719041,piren,vessel_center,-481.44121009228024,-322.83093898192396,2.329852966404628,-0.0007339655822305922,-0.0008537240108235965,0.9978854025796944,0.0649881202082256,-0.029869665554451422,0.06268130256048637,-0.004182005321790957,-0.00033970760452812316,0.0006232495240004684,-0.007433937949266839,0
2025/05/06 15:29:21.500349117,1746538161,467013137,piren,vessel_center,-481.45890536066526,-322.8002459067588,2.3290517318376507,-0.0007972636790866205,-0.0009060133351694257,0.9977376267249928,0.06721734692504278,-0.0324040826542383,0.05368526354941453,-0.0008111509120935132,-3.7655872997429552e-06,-0.0008032521777072693,-0.008593545379875691,0
2025/05/06 15:29:22.41748334,1746538162,36333489,piren,vessel_center,-481.47695711260275,-322.77416627439516,2.3297779525965057,-0.0008422924868666184,-0.0008302195383310865,0.9975651821274834,0.06973025660246523,-0.03302720755323171,0.0462104029443711,0.0017917629453483774,0.00034229902627387046,0.0012107145201477737,-0.007932099192905787,0
2025/05/06 15:29:22.601990092,1746538162,593340821,piren,vessel_center,-481.4945525920029,-322.7500886735494,2.33110458028545,-0.0006118153231988287,-0.0008338215479083889,0.997477912935092,0.07097001923551555,-0.03196938599162386,0.04352548262040758,0.0025624827742147392,-0.000398517109270757,-0.0009255785192148491,-0.007232293747764882,0
2025/05/06 15:29:23.174878402,1746538163,164680725,piren,vessel_center,-481.5134555093044,-322.723288070687,2.3323059105022126,-0.0005919049644855639,-0.0006527390616527764,0.9972972551305019,0.07346705717120468,-0.031241546168893915,0.04490256861895462,0.0018062209126609862,0.00037670101225231755,0.0007418892273540284,-0.007644479384984805,0
2025/05/06 15:29:23.778171331,1746538163,771602056,piren,vessel_center,-481.5312955896357,-322.6950513264881,2.3326560837181534,-0.0001836034298547553,0.0017815077373526875,0.9971360571620546,0.07560738077247722,-0.02921489477785108,0.0477613565467894,0.000174283375149823,0.0006200586625483497,-0.00025441371201965444,-0.0074635703999910395,0
2025/05/06 15:29:24.338570601,1746538164,334197401,piren,vessel_center,-481.54591967335773,-322.66355335885333,2.3305219189589987,-0.002664389747958781,-0.029795762498156905,0.9965529868020555,0.07737737434371059,-0.02593470563797346,0.059290469142934246,-0.0047889972883650555,0.0007042965330334301,0.00018949286972101554,-0.007370547950664143,0
2025/05/06 15:29:24.903587818,1746538164,892343812,piren,vessel_center,-481.56824433482745,-322.68265490298575,2.3481322420087456,-0.0007228566902211846,-0.0034659222741411653,0.996882064070099,0.07882648791068796,-0.04381733419982047,-0.055710394249080905,0.0402096022609621,-0.0003890250260802959,-0.00013769659903029136,-0.006891258152122507,0
2025/05/06 15:29:25.453819073,1746538165,448682686,piren,vessel_center,-481.58806646985664,-322.680815710493,2.3582308422636236,0.0020878152175178737,0.028121574185412102,0.9963028579281406,0.08115068315899354,-0.03421019573088379,0.01661777083309092,0.013406113357004475,-0.0011400280051190998,0.00012027389033083491,-0.007549334080439985,0
2025/05/06 15:29:26.16814616,1746538166,6524906,piren,vessel_center,-481.59386659502076,-322.5924313990488,2.3316614936059974,-0.0003543526044491661,0.0018255500207135847,0.9965544769525231,0.0829199389003438,-0.005371137311203349,0.1927950445787704,-0.062001724319539694,0.0008305016391238142,-0.00019885533152342512,-0.00725851291455029,0
2025/05/06 15:29:26.572890042,1746538166,567249747,piren,vessel_center,-481.60132633609,-322.49873878908073,2.305951878716258,-0.0003859037301195766,0.0018318976714104933,0.9963111217815078,0.08579419469699552,-0.014776939104512714,0.14349559310358045,-0.036319768831094196,0.0007980978968398087,-0.00011159621902393955,-0.008195103302370036,0
2025/05/06 15:29:27.195061064,1746538167,171562449,piren,vessel_center,-481.61531250061034,-322.4464577537555,2.2994094068641706,-6.230352503277805e-05,0.001812719106535251,0.9960806379983224,0.08843117534312575,-0.026212905437523297,0.06859018780141951,-0.002467608636902513,0.000574696390704774,0.0008847015086824903,-0.008358085397826369,0
2025/05/06 15:29:27.734652914,1746538167,727336817,piren,vessel_center,-481.63224252801314,-322.4332824545859,2.3082823343794665,-0.0029869778321212986,-0.029754124670836848,0.9954296757817294,0.09069471099013471,-0.0318433848977289,0.014135235969115735,0.020268960422612108,0.0010652530576952292,-0.0005199457635516655,-0.008633753914873938,0
2025/05/06 15:29:28.291746035,1746538168,282544073,piren,vessel_center,-481.6599074419919,-322.48541296859275,2.342714502757472,-0.0010317376071798119,-0.0034265898885941833,0.995698681012066,0.09258148103199293,-0.05438990620586955,-0.11902304973709732,0.07201263958228328,-0.000850894993651771,-0.0006020287490977907,-0.008219359525201132,0
2025/05/06 15:29:28.849956345,1746538168,843460513,piren,vessel_center,-481.6835751632386,-322.5100720130894,2.3658559865378517,0.0019692829104723084,0.028117946678518344,0.9950522257822516,0.09527103948834369,-0.040692593036601096,-0.028733665919343995,0.03566130497103597,-0.0008418947944590211,0.0005298574602255759,-0.008793881067459536,0
2025/05/06 15:29:29.400789678,1746538169,395176776,piren,vessel_center,-481.6886747759465,-322.431622841697,2.3444002028977375,-0.0007813609907037284,0.0018321002477661716,0.9952791627419351,0.09703309278486989,-0.002288419082469406,0.18075300119671767,-0.05561652729946313,0.0008666222530443532,-0.000590943861503357,-0.007946412157106415,0
2025/05/06 15:29:29.984985304,1746538169,952583478,piren,vessel_center,-481.6926302737591,-322.33966038386865,2.3184902558621276,-0.003814305708880739,-0.02969166761031966,0.9945776871669745,0.09959457884879787,-0.008295236736466538,0.16512807058156825,-0.04550426994634779,0.0006619143235934957,0.00037792526528481016,-0.008742769287139743,0
2025/05/06 15:29:30.518481027,1746538170,513507635,piren,vessel_center,-481.7135320893135,-322.3224354633375,2.3246281257529926,-0.003519916593544122,-0.029712667024084854,0.9944106532016321,0.10125324885945085,-0.043686548312416196,-0.017035492043623562,0.028891405075857607,0.0011232591105303552,0.0008186834048763439,-0.007074691046188543,0
2025/05/06 15:29:31.129627058,1746538171,119952733,piren,vessel_center,-481.74611854787196,-322.3703281515242,2.3571896154701206,-0.0034127860314743185,-0.02973747403865739,0.9942071867845123,0.10322841312027237,-0.05732646052733762,-0.10080426812150985,0.06246195746424785,0.000764556630598205,-0.0007918666403580156,-0.00816529284197008,0
2025/05/06 15:29:31.676494984,1746538171,671845388,piren,vessel_center,-481.77543764430317,-322.4197932656224,2.388883271448376,-0.0008095406906356964,-0.003448405989219676,0.9944261152933633,0.10537625141631429,-0.05242164757132705,-0.08753365630413977,0.056557792068142904,-0.000855533857475993,0.0006801653875939341,-0.008193982850596542,0
2025/05/06 15:29:32.246281111,1746538172,228607139,piren,vessel_center,-481.78813598706205,-322.3924555931802,2.3898906664389243,0.0023927492911189696,0.028062392375637513,0.9938074673417,0.10748718407727303,-0.017097231369870868,0.07948684998814347,-0.009803575057318353,-0.0005660488225462832,-0.00032823925359859495,-0.007573415247787366,0
2025/05/06 15:29:32.789582286,1746538172,785099081,piren,vessel_center,-481.77780452465635,-322.25433968113714,2.3437916149780635,-0.0003496624107445002,0.0018202442527139734,0.9940593316309138,0.10882375496443744,0.02680799808558767,0.2891102685007812,-0.10025793287808415,0.00048493482125235563,-9.344921075387082e-05,-0.007005677926982076,0
2025/05/06 15:29:33.367345013,1746538173,339990373,piren,vessel_center,-481.7702942891852,-322.1234388164736,2.3018420862236924,-0.003938155492744679,-0.029730834786394652,0.9933543353533283,0.11112035290155711,0.010315505343806208,0.2221747078004231,-0.06939014170465843,0.0009529471388151334,0.00013137672573214227,-0.00755005684307141,0
2025/05/06 15:29:33.905187656,1746538173,898073992,piren,vessel_center,-481.7879072068224,-322.106744733467,2.307095326947239,-0.0008322981644691927,-0.0034141758524835366,0.9936161913190847,0.11275865834413638,-0.04143213972238264,-0.01213123432216856,0.027053021618061182,-0.0006152868554173675,-0.00024051622506411489,-0.0070962698867318335,0
2025/05/06 15:29:34.485220371,1746538174,457050397,piren,vessel_center,-481.81222747974493,-322.1239968706302,2.3272427999837864,0.0006234424760995418,0.027714505143093853,0.9930074563848399,0.1147506387270367,-0.04508018095202679,-0.03571799757664815,0.0389205961240984,-0.0012727762343276144,-0.004532119739507444,-0.006858786637290051,0
2025/05/06 15:29:35.67116104,1746538175,59337259,piren,vessel_center,-481.8274227860737,-322.08576431931425,2.322440335448324,0.0006238916944572082,0.004983384104985607,0.9935122699745179,0.11361402225120062,-0.01907747060517941,0.0966161364269286,-0.023360485794011697,0.0007273310688655845,0.008074119114200277,-0.0011258930780152843,0
2025/05/06 15:29:35.632346774,1746538175,618063530,piren,vessel_center,-481.8368932688608,-322.0387712117101,2.312597776188958,0.0009903730464608516,0.0060360953338759364,0.9936678620366143,0.11219075126735446,-0.014612442155157264,0.07184907711207447,-0.013994433545622275,4.539363227409791e-06,-0.00705921275699324,-0.0013467414654645116,0
2025/05/06 15:29:36.181539971,1746538176,174509190,piren,vessel_center,-481.84413247110854,-322.00926503061913,2.3095816643907794,-0.0029782813237520423,-0.02896398878680574,0.9931777893848294,0.11291632240990573,-0.01282823299457014,0.04954278435693627,-0.003579714473621298,0.0009751578011004329,0.0059598035985478845,-0.0018852148953760253,0
2025/05/06 15:29:36.741561841,1746538176,732107044,piren,vessel_center,-481.8633591974469,-322.0497250180884,2.3346758617629986,9.62239768634363e-05,-0.00040820159593312535,0.9935306530686687,0.11356348676114221,-0.03994395823137857,-0.10074192021193051,0.056564150969001206,0.0007635879943134395,-0.0031815404456695673,-0.0017503594764050395,0
2025/05/06 15:29:37.302729829,1746538177,296382700,piren,vessel_center,-481.8752230896803,-322.0702039265504,2.353475539514129,-0.002225347255518951,-0.028497475867713323,0.9930891669112754,0.11382815232722839,-0.016757251266971807,-0.021271045699085916,0.02817449106507846,-3.4004502146074655e-05,0.002019709278311851,-0.0016822655204806406,0
2025/05/06 15:29:37.878589172,1746538177,852470610,piren,vessel_center,-481.8845754568818,-322.09350895089756,2.373558172747758,0.0005887648619821667,-0.003069144406456406,0.9933745483212104,0.11487924293004723,-0.017174949153149655,-0.04721359746131351,0.03856344623046029,-0.00026340805923877537,0.0013167565271677906,-0.00268859952673877,0
2025/05/06 15:29:38.478264866,1746538178,468778986,piren,vessel_center,-481.878581085501,-322.0562716161611,2.374178671995108,0.0026077043470666443,0.004755682470249926,0.9931794708741435,0.11646940369228646,0.016971677638776224,0.08791455780051396,-0.01012239855937748,0.0006195682737559184,0.0003884455497283772,-0.0032192075511877603,0
2025/05/06 15:29:39.140434386,1746538179,132387174,piren,vessel_center,-481.85424539418113,-321.95140458293315,2.3504943224136667,-0.002050861207517981,-0.027459196728026766,0.9925809650154828,0.11842640909987938,0.04657959995547606,0.19418278301768654,-0.048161433393305066,0.0015971604195049646,-0.0006156056063145292,-0.004258632738861875,0
2025/05/06 15:29:39.699078204,1746538179,692730207,piren,vessel_center,-481.8384626208405,-321.884675056166,2.344275198539344,-0.0012318330011157153,-0.026280899678590947,0.9924961851361851,0.11941155467399624,0.024993743375398825,0.10627018008190166,-0.003394409631384772,0.0019874207875413643,-0.0015550275929129037,-0.004465362076503266,0
2025/05/06 15:29:40.272590269,1746538180,259887304,piren,vessel_center,-481.8298156510079,-321.84930589277525,2.3551888826498426,0.003841344065686902,0.030020967836828,0.9921316015620937,0.12148609281619155,0.013605421397415175,0.05474406800590291,0.025021369841828702,-0.0005327431966675023,-0.00032545161180008736,-0.005739632006484151,0
2025/05/06 15:29:40.852026897,1746538180,824392351,piren,vessel_center,-481.8011586139531,-321.7223021457506,2.3329883974168872,0.004074958345350728,0.030011622223997825,0.9918412396303289,0.12382912668084275,0.059129301813755204,0.2639211104648442,-0.05777468055303975,6.257230553277085e-05,-0.0007688159164857534,-0.006657162414372007,0
2025/05/06 15:29:41.393729666,1746538181,387871938,piren,vessel_center,-481.7605448863904,-321.54605324213196,2.288901472945223,0.0023981029561109396,0.025027191305233957,0.9915106017618309,0.12757200081316877,0.07750913089266794,0.33478142026706365,-0.08552131782729175,-0.0018067050190506994,0.0002366846799657936,-0.010456651515354584,0
2025/05/06 15:29:41.962793370,1746538181,951677945,piren,vessel_center,-481.7240729193794,-321.39001276071724,2.2550454250194854,-0.001069272146118046,-0.005701244123374312,0.9911900226201094,0.13232041237417083,0.06428484865450662,0.2743482850489275,-0.0567364203332309,-0.001621544892580055,-0.0018222401841691547,-0.01158657768045952,0
