time,header_stamp_secs,header_stamp_nsecs,header_frame_id,pose_position_x,pose_position_y,pose_position_z,pose_orientation_x,pose_orientation_y,pose_orientation_z,pose_orientation_w
2025/05/06 15:28:01.72035101,1746538081,36971114,piren,-473.2935719386616,-324.2790577757292,2.364580714906017,-0.0012535885219356593,0.029769878089043193,-0.9980124124042798,0.055528439212451
2025/05/06 15:28:02.511601953,1746538082,505941519,piren,-473.28181892276365,-324.38441301973853,2.405774122543605,-0.0014986070692990612,0.029777916017862307,-0.9980171496246826,0.055432832775432324
2025/05/06 15:28:05.351690738,1746538085,54946470,piren,-473.2900990154911,-324.29808337716344,2.3674746930701778,0.001540314713001278,-0.028201747087600797,-0.9980660019895711,0.05537638995407408
2025/05/06 15:28:06.139149117,1746538086,136627323,piren,-473.31885495233706,-324.03697396364703,2.265721894266513,-0.0013817265106243854,0.029773122476979778,-0.9980027820287592,0.055696490667523184
2025/05/06 15:28:06.805464365,1746538086,804197627,piren,-473.3145401280222,-324.07867320889153,2.2838342493806603,0.002043497711153615,-0.028173168676195955,-0.9980447410422812,0.055756538286491124
2025/05/06 15:28:07.477968149,1746538087,477279570,piren,-473.3079423049585,-324.1528384423981,2.315248241467061,0.0012685607469918145,-0.016862190870184812,-0.9982947809289562,0.05587117004946462
2025/05/06 15:28:08.68604948,1746538088,67402237,piren,-473.3118281161668,-324.14376314956723,2.313146002916831,0.0009043391316724283,-0.009253490049244126,-0.9983657180900795,0.056386594462900744
2025/05/06 15:28:08.712511059,1746538088,711982740,piren,-473.3248490917955,-324.12291366686327,2.3087530117101314,0.000275847524308943,0.00469190122220805,-0.9982891454427307,0.05828114671389806
2025/05/06 15:28:09.371172724,1746538089,369789368,piren,-473.34705423091594,-324.13372571398514,2.317869148296,0.0004164402850065608,0.012749715334939769,-0.9982012902619165,0.058578626271124826
2025/05/06 15:28:09.922716580,1746538089,920990539,piren,-473.3683828282,-324.17818410639455,2.3389336030059567,-0.0012228089701044728,0.03263654763803105,-0.9978760717998185,0.05636227307212375
2025/05/06 15:28:10.501123856,1746538090,498998438,piren,-473.3878601578429,-324.2564727328187,2.3718377113332223,0.00089613085823923,0.00018485167714487062,-0.998496981247985,0.054799098696999574
2025/05/06 15:28:11.64636910,1746538091,63854951,piren,-473.4148368692952,-324.27631393860815,2.380775338229013,0.00036136490295311444,0.0019107513831013489,-0.9985412712554733,0.05395876244005431
2025/05/06 15:28:11.612243139,1746538091,610896320,piren,-473.4462803259114,-324.2327647269337,2.363792553425091,-0.0009547171360181212,0.02910261515441404,-0.9981189330296825,0.05395110595764245
2025/05/06 15:28:12.155348314,1746538092,154864627,piren,-473.47530392655176,-324.2224150366147,2.3583808328318416,-0.002966177171509417,-0.023508551693484033,-0.998280794455054,0.05360974922948422
2025/05/06 15:28:12.757656565,1746538092,756979322,piren,-473.51450283978346,-324.1513709836926,2.3281266522094217,0.0008329914784445519,0.0028256268127368938,-0.9988056391430095,0.04877106903110113
2025/05/06 15:28:13.302465718,1746538093,301025303,piren,-473.5576063445358,-324.1001829839542,2.3077658452433014,0.0012673043809295478,-0.008454951516946706,-0.9989469006537027,0.04507768193700365
2025/05/06 15:28:13.846641102,1746538093,846164058,piren,-473.6033884214647,-324.0776600834935,2.2989294998679894,-0.00038491917813488917,0.006486833882983959,-0.9989757556034794,0.04477959959466276
2025/05/06 15:28:14.384949899,1746538094,384587183,piren,-473.64555889335185,-324.1046480492945,2.3101205953638386,0.00032482190537059586,-0.026684729605957892,-0.9985672689919288,0.0463813431736036
2025/05/06 15:28:14.922374484,1746538094,920714204,piren,-473.69301264867494,-324.1011359079913,2.3071139325157968,0.0004511991203804921,0.013386120314330811,-0.9989471122268444,0.04387795774568883
2025/05/06 15:28:15.463161186,1746538095,460645803,piren,-473.73814162119345,-324.1344483366672,2.32034254899825,0.0010369796461739062,0.0034944373487101952,-0.999201565238241,0.03978624895964309
2025/05/06 15:28:16.4455690,1746538095,997790836,piren,-473.78876379334616,-324.17710678060564,2.3370067216770627,0.002134083272844414,-0.02351918452400565,-0.9990258589324806,0.03727769885775931
2025/05/06 15:28:16.590140621,1746538096,589364818,piren,-473.8511511143554,-324.1641251289554,2.328592259829323,-0.0015570190395650559,0.032109383589931706,-0.9988429334077951,0.03576810812016765
2025/05/06 15:28:17.130594890,1746538097,127685664,piren,-473.904193044167,-324.20684390586376,2.33982147799799,-0.0010664742935498055,0.025988709092041075,-0.9989697319141588,0.037187690862221234
2025/05/06 15:28:17.671434430,1746538097,670729721,piren,-473.96072022139595,-324.2811059684012,2.364469778364624,-0.001965268670130364,0.0001919324892914833,-0.9992165330517112,0.03952747091697531
2025/05/06 15:28:18.211847553,1746538098,210488662,piren,-474.02968381161253,-324.29917022485046,2.3690140268021196,0.0019256452264977898,-0.029307672107595537,-0.9987296664095855,0.040943933366172
2025/05/06 15:28:18.751229721,1746538098,750423600,piren,-474.1136826290045,-324.21354614902106,2.3329157159385487,0.0001703938317329471,-0.0015318798634926228,-0.9991095636636007,0.04216282848618506
2025/05/06 15:28:19.292459779,1746538099,291863340,piren,-474.2134031530161,-324.13552812801316,2.3023992374715387,0.0030078665777231086,-0.026478889481749944,-0.9987607052734826,0.042034209307176905
2025/05/06 15:28:19.834372802,1746538099,832304746,piren,-474.31957292651657,-324.06308842872164,2.275258355788205,0.0008110725183447092,-0.002103753301614885,-0.9992251648212388,0.039293591988825614
2025/05/06 15:28:20.418993616,1746538100,418285834,piren,-474.43020613690385,-324.0532762863727,2.2739973696318634,0.0022196373903948375,-0.032800457094248565,-0.9987735960441977,0.03702036019821465
2025/05/06 15:28:20.956927584,1746538100,955494969,piren,-474.5174100345957,-324.05821521651677,2.273955899322727,-0.0001995399604725565,0.025832317294090672,-0.9990047444624699,0.03636168462127231
2025/05/06 15:28:21.499125661,1746538101,498624991,piren,-474.60643147234924,-324.1541844237453,2.3105064934549535,0.0004171929745719522,-0.0042751027212795025,-0.9993529864584236,0.035709353163760824
2025/05/06 15:28:22.41338060,1746538102,40863412,piren,-474.7007759943291,-324.24125031500057,2.3429236577618346,0.0008502582525884343,-0.011863317120193045,-0.9992988208515083,0.03550218884230495
2025/05/06 15:28:22.584552185,1746538102,582937318,piren,-474.812682649891,-324.26453545894066,2.3493657100540832,-0.0011868173889681287,0.028968518474342723,-0.9988929388760698,0.037044744099743725
2025/05/06 15:28:23.122500747,1746538103,121782259,piren,-474.9302660473801,-324.30616739357987,2.3616468306784806,0.000711759978128664,0.008207482115509111,-0.9991941553840709,0.03928320864403364
2025/05/06 15:28:23.729466703,1746538103,723593817,piren,-475.07780645592914,-324.3267388881407,2.3663389767655647,0.0008018673373928855,-0.016870432299198674,-0.9990501806085511,0.04016817333204227
2025/05/06 15:28:24.264909979,1746538104,264182510,piren,-475.2275905897024,-324.2748163528081,2.3413568217650034,0.00032477063152934395,0.0089104587679901,-0.9991432761248676,0.04041301798984441
2025/05/06 15:28:24.811084963,1746538104,810372888,piren,-475.37914828481365,-324.24069788524844,2.323814279177017,0.0014243552489989046,-0.027405866180935528,-0.9987667217640477,0.04137541791565195
2025/05/06 15:28:25.352137151,1746538105,351402475,piren,-475.5238251856937,-324.18664923366634,2.2967995020531125,-0.00045445890622662833,-2.254443012882559e-05,-0.999053474239617,0.04349653513329733
2025/05/06 15:28:25.955894408,1746538105,955465298,piren,-475.6909795860304,-324.176961525656,2.287013484330094,0.000745467809550932,-0.0021208809021781867,-0.9988610391513618,0.047660996710154106
2025/05/06 15:28:26.501126183,1746538106,499564819,piren,-475.8457907754439,-324.21637417263275,2.299967611481099,0.0022442312102453304,-0.02276053147904537,-0.998661178629687,0.04639797335047067
2025/05/06 15:28:27.43266863,1746538107,41156381,piren,-476.0087076251873,-324.23374909786185,2.304237713738687,0.00035352074012761584,-0.00018973202412548315,-0.9991223401169734,0.04188542113943942
2025/05/06 15:28:27.634985448,1746538107,633666686,piren,-476.1788168108854,-324.2663861068357,2.314477196698793,-0.0004891346776313186,0.027032096117573227,-0.9988458802382557,0.03969803594413325
2025/05/06 15:28:28.175735822,1746538108,174196210,piren,-476.32331088590996,-324.35012156415894,2.345463242361001,0.0011245610367368079,-0.017414598249856618,-0.9990352015001077,0.04030053714170676
2025/05/06 15:28:28.721859722,1746538108,721429840,piren,-476.4710944681784,-324.37134925417126,2.3495744840734623,0.0005827873279616809,0.005113391024649818,-0.9992153309720075,0.03927131194219027
2025/05/06 15:28:29.267072815,1746538109,264860023,piren,-476.6219644685905,-324.368520217045,2.3444031428510246,0.0003402164964822285,0.005644248100596601,-0.999272835011999,0.03770713358499345
2025/05/06 15:28:29.814316338,1746538109,812070917,piren,-476.7597265691815,-324.36492435233237,2.339723308238239,0.0013528471453761166,-0.020410162714797633,-0.9991448710057358,0.03593218342222192
2025/05/06 15:28:30.358604376,1746538110,358093422,piren,-476.90906278754994,-324.32441870040935,2.3180048415692274,0.0005495483999240267,-0.005015501842946324,-0.999422024683228,0.033617842225470984
2025/05/06 15:28:30.904800570,1746538110,901690145,piren,-477.05235620662637,-324.2988865242438,2.3024514702710444,0.0011518506733838518,-0.02499896420287703,-0.9991345654567969,0.03322416497471731
2025/05/06 15:28:31.498006447,1746538111,497364882,piren,-477.20325347254624,-324.27159053513225,2.284471281244891,-0.0002458624075348277,0.013876094947430308,-0.9993444066951872,0.033438755176155695
2025/05/06 15:28:32.40989409,1746538112,40490452,piren,-477.33184186727226,-324.31974017601505,2.2990949856566876,-0.00031367778344998013,0.012623237337462238,-0.9993116636158874,0.03488200749122588
2025/05/06 15:28:32.586630736,1746538112,586099753,piren,-477.4564452746308,-324.41108370944426,2.3328463282448246,-0.0006845587182053505,0.014013863765236643,-0.9991978002729912,0.03750865141999159
2025/05/06 15:28:33.130899380,1746538113,130377037,piren,-477.5780428379902,-324.49420763713533,2.364378299445619,0.0011551387804635616,-0.024677371217015125,-0.9988280539120155,0.041619847699764505
2025/05/06 15:28:33.679999536,1746538113,678198413,piren,-477.7071073881448,-324.4734378631638,2.3531940255114527,0.0013809274315108027,-0.030116072169671916,-0.9985386830428408,0.044851016750676875
2025/05/06 15:28:34.223550745,1746538114,221225160,piren,-477.84201104596525,-324.37412294425314,2.309197428624297,0.0002735488848099647,0.012839078383164492,-0.9987622653857022,0.04805226819723338
2025/05/06 15:28:34.814875651,1746538114,814314106,piren,-477.9825943887867,-324.32909856120955,2.2906808249732165,0.0017051148074397596,-0.026612695825013532,-0.9983883481438482,0.050095541668066894
2025/05/06 15:28:35.359036806,1746538115,357564652,piren,-478.0917558510963,-324.30576566639394,2.2816490266875293,0.001086233000271791,-0.0008017776553177845,-0.9986303329691322,0.052303301276504656
2025/05/06 15:28:35.904764532,1746538115,902542083,piren,-478.20498604252583,-324.32532526061226,2.2916946536985736,9.709599667468013e-05,0.010679677427516151,-0.9984567282065592,0.05449859595865634
2025/05/06 15:28:36.452039423,1746538116,449335002,piren,-478.3069364129814,-324.39581015756164,2.3221846800295025,-0.0012754613659285649,0.028144153229710315,-0.9979768185118884,0.05699604854879048
2025/05/06 15:28:36.994590089,1746538116,993825559,piren,-478.3990146668278,-324.502402481592,2.365096881423928,3.85479687723309e-05,0.025588909637042596,-0.9979338798187523,0.058933672272592996
2025/05/06 15:28:37.540089966,1746538117,538689930,piren,-478.4923883637525,-324.5879749403745,2.3982132768986553,-0.001314150371089339,0.008371307686884084,-0.9980969593762818,0.06107907907159805
2025/05/06 15:28:38.82602837,1746538118,82219573,piren,-478.5878802262176,-324.59081613531816,2.398664625623271,-0.0014969053263313946,0.027860028895168316,-0.9977196430920332,0.06145804953551859
2025/05/06 15:28:38.705551653,1746538118,705054364,piren,-478.6925322067206,-324.55999507599586,2.388074859938412,0.001483003810216306,-0.026957594777013278,-0.9977380165230831,0.06156248182230122
2025/05/06 15:28:39.273037596,1746538119,263148142,piren,-478.795466247304,-324.4361935225641,2.3400029430564575,0.0006403171361486025,-0.003321730683280177,-0.9981661808992663,0.06043865822638706
2025/05/06 15:28:39.816751524,1746538119,812300945,piren,-478.89419108806675,-324.3170659286412,2.298065231274945,-0.0013010297806688403,0.028640297529493677,-0.9978853502925142,0.0583341096659426
2025/05/06 15:28:40.363656928,1746538120,362746746,piren,-478.9849793530619,-324.3064290068792,2.301216954242277,0.0012233669515388235,-0.0039107334415435496,-0.998391903254639,0.056540401951441915
2025/05/06 15:28:40.914105213,1746538120,913399272,piren,-479.0538166695615,-324.33510657802,2.3184706747529056,-0.0017846897863382108,0.032195187267488885,-0.9978765748070523,0.05659175072855999
2025/05/06 15:28:41.455312582,1746538121,454656478,piren,-479.1199832106981,-324.41772885616604,2.3557660081545175,-0.0009985663279046676,0.02095792955416893,-0.9981936700906879,0.056295337684166044
2025/05/06 15:28:42.54785387,1746538122,53323956,piren,-479.1924679070683,-324.49370862499404,2.3892333408834814,-0.0015292896139091437,0.029734650748590892,-0.9979928612047285,0.055890614619411784
2025/05/06 15:28:42.598523784,1746538122,597272322,piren,-479.26108501494576,-324.5275337960058,2.404921152054526,0.0003531154327642963,-0.0028821570089967007,-0.9984435726646165,0.05569560741372127
2025/05/06 15:28:43.144468419,1746538123,144011770,piren,-479.33724047441,-324.4686279678006,2.384152459864105,0.0003519764113359931,0.0013531058632156989,-0.9984924021965775,0.0548722878403742
2025/05/06 15:28:43.689811690,1746538123,688800744,piren,-479.4162314184859,-324.36578690934675,2.347510654773302,0.00025395037017974235,0.005391769035308402,-0.9985232452291443,0.054057312853468584
2025/05/06 15:28:44.235305110,1746538124,234600024,piren,-479.4889606936155,-324.28269574522136,2.3201849797929834,0.00042707836988298433,0.002274880097998597,-0.9986121582683709,0.052615585934130016
2025/05/06 15:28:44.784643249,1746538124,784122613,piren,-479.5530242708311,-324.2404119558802,2.3095517255123754,0.00027123550069951553,0.001629209439768158,-0.9986657161738184,0.05161452747956833
2025/05/06 15:28:45.329465772,1746538125,328904429,piren,-479.60938127760636,-324.2345437617033,2.3131257983336515,-0.0010967220457345026,0.029381671827271326,-0.9982971594882926,0.05038150373892805
2025/05/06 15:28:45.925303140,1746538125,924956168,piren,-479.6601432079127,-324.29585898315645,2.342681553446084,0.0011662595408706634,-0.019020010746144896,-0.9985937561253626,0.04947109517020824
2025/05/06 15:28:46.469082502,1746538126,468524339,piren,-479.7104291954876,-324.29659339227817,2.345947794320469,0.00024809661638112643,0.0008944250587761245,-0.9988289751215388,0.04837165398805101
2025/05/06 15:28:47.18228805,1746538127,15479109,piren,-479.7620491289554,-324.26742253664037,2.338533866999597,-0.0004515974719642299,0.004311440247254497,-0.9988384004765201,0.04799017895595587
2025/05/06 15:28:47.561638177,1746538127,560403122,piren,-479.81292180387993,-324.2395538284733,2.333164211929454,0.0015390031320004069,-0.03216138172677267,-0.9983595908892935,0.0473434712938046
2025/05/06 15:28:48.121595683,1746538128,118596476,piren,-479.8689806138901,-324.1583930604401,2.3046881889878286,-0.0003478266023449056,0.003152892594897932,-0.9989061909684391,0.046651472965641094
2025/05/06 15:28:48.680741117,1746538128,679315577,piren,-479.92048561326897,-324.115698748307,2.2941516306979057,0.00019953572612518123,0.002143051039713276,-0.9989659840066567,0.045412887106495624
2025/05/06 15:28:49.235425101,1746538129,233862913,piren,-479.96683189672984,-324.1198148920613,2.3053622759124464,-0.00014896128340433258,0.006094588176320584,-0.9990166215346615,0.04391609844883807
2025/05/06 15:28:49.839472616,1746538129,839024408,piren,-480.0127541808349,-324.14883307347907,2.3286786360434557,-0.00036827602525220355,0.03013879064037505,-0.9986586080089277,0.04210109643674139
2025/05/06 15:28:50.392721678,1746538130,391331042,piren,-480.05158862127905,-324.21203652697085,2.364215290433295,0.00040093083702458037,0.003629638572408951,-0.9991619502005956,0.040768397683009355
2025/05/06 15:28:50.941668908,1746538130,940499796,piren,-480.0924576459544,-324.2239850154184,2.3782614321032405,0.0019512795829740607,-0.02573830021639278,-0.9989149441491427,0.03876424596809718
2025/05/06 15:28:51.491570134,1746538131,488655923,piren,-480.14025040747697,-324.13162002210424,2.347657321718619,0.0014397336925590265,-0.0152445344635115,-0.9991839939830804,0.03737482446654206
2025/05/06 15:28:52.47199973,1746538132,46480444,piren,-480.1890533742287,-324.0100882141898,2.304770526766321,0.0007642917963191768,0.002340109920359338,-0.9993706055001204,0.035388311713525765
2025/05/06 15:28:52.628814364,1746538132,597172603,piren,-480.23080662201716,-323.95012802406,2.287842203459249,0.0033958259866208322,0.0033923025595114457,-0.9994159657812233,0.033833237959117905
2025/05/06 15:28:53.201323501,1746538133,200685170,piren,-480.2731085528304,-323.952939652831,2.2973183961131705,0.0005641131941330612,-0.005569834808550034,-0.9994546170107064,0.03254423531889957
2025/05/06 15:28:53.760463926,1746538133,755932412,piren,-480.30527471421715,-323.97971815576415,2.314966376427016,0.0004780119461186716,0.0032340195112900674,-0.9994998090598912,0.031455433737605926
2025/05/06 15:28:54.309298409,1746538134,308801183,piren,-480.33575726577493,-324.01155895103403,2.3353040573111894,0.0004280899648942929,-0.0014254367637940874,-0.9995552467978281,0.02978411435559759
2025/05/06 15:28:54.864393471,1746538134,863984595,piren,-480.36302883517055,-324.0182786943665,2.3444414595901506,-0.0007074082631821798,0.029958612227144184,-0.99916133804726,0.02790343488858992
2025/05/06 15:28:55.415437343,1746538135,414957081,piren,-480.38883971184265,-324.0518656173539,2.3632235885739217,-0.0007399676021484003,0.03228874938340559,-0.999118673256095,0.02680980906653221
2025/05/06 15:28:55.968272945,1746538135,966864873,piren,-480.4150072544871,-324.0964853463065,2.385923010472358,0.0009004813241113429,-0.029122222614852505,-0.9992609437427536,0.025072925511344407
2025/05/06 15:28:56.520359244,1746538136,518124582,piren,-480.4488581190854,-324.0181082091808,2.3583523173520162,0.000918125475643001,-0.02906409949181721,-0.9992953086748246,0.023734389118486264
2025/05/06 15:28:57.121386678,1746538137,118737482,piren,-480.491034176452,-323.85846835578946,2.299496734730538,-0.0004153039902376286,0.03201063904338845,-0.9992586779943908,0.02138319348301772
2025/05/06 15:28:57.676084834,1746538137,675323586,piren,-480.52345471462166,-323.8233240680919,2.2936216144400285,0.00024317764260490846,0.028643654275322283,-0.999403048043602,0.01931397151152243
2025/05/06 15:28:58.256762079,1746538138,228305992,piren,-480.55111606811533,-323.8842829150106,2.329066803581597,0.00041985601616450113,-0.025346333572732967,-0.9995275438676502,0.01738033789223477
2025/05/06 15:28:58.783502712,1746538138,782951231,piren,-480.57686512881895,-323.8785764917181,2.3370790780687773,-0.00012985568884026994,-0.02086594061538359,-0.9996506545158731,0.016222348341773482
2025/05/06 15:28:59.337031748,1746538139,335629065,piren,-480.60288401776546,-323.81037567464847,2.319865696759855,0.00021341602061809013,-0.031211313984930416,-0.9994242739266747,0.013301466801661737
2025/05/06 15:28:59.918073725,1746538139,915238012,piren,-480.6322746149879,-323.6981924164039,2.2850197431162442,0.0007880790348178845,0.016204041682975904,-0.9998131996859131,0.010505888748119257
2025/05/06 15:29:00.478106868,1746538140,477430747,piren,-480.6592511728031,-323.67845839921523,2.2893684058977177,0.001068045204055543,-0.02891720182002587,-0.9995549402913394,0.007250934941030976
2025/05/06 15:29:01.79500022,1746538141,78033797,piren,-480.6889898167934,-323.65289830530656,2.291666860139324,0.0008975248616804864,-0.00013990464913893303,-0.9999904682181658,0.00427063796467862
2025/05/06 15:29:01.640617204,1746538141,628533801,piren,-480.71497184786284,-323.65303178584634,2.3043444360013794,0.0005086091148188402,0.006389042807115089,-0.9999754733270868,0.00282386137156646
2025/05/06 15:29:02.193382615,1746538142,189930386,piren,-480.7397257263296,-323.68043404438316,2.3281388460550567,0.000703878391905144,-0.029269696315565325,-0.9995698166000532,0.001723709644934358
2025/05/06 15:29:02.784048057,1746538142,783405894,piren,-480.76742237059744,-323.6464864916497,2.3246031513848084,0.00014919626153649416,-0.030314726054546822,-0.9995403176291902,-0.0003854328100601916
2025/05/06 15:29:03.336347657,1746538143,335767876,piren,-480.79206841597545,-323.55923685678573,2.295568217976098,-0.00048443038295878436,0.03065576590839861,0.9995279981529949,0.0019417136864659337
2025/05/06 15:29:03.895643503,1746538143,894984086,piren,-480.8165651523204,-323.46648281654586,2.263922098280793,-0.0005195429688764979,-0.004188862627956308,0.9999868796418605,0.002902421251814313
2025/05/06 15:29:04.515984139,1746538144,501655259,piren,-480.8435383177603,-323.45202715202055,2.268828696720873,-0.00220413125787596,0.01439211486116341,-0.9777970620583275,0.20904763635431137
2025/05/06 15:29:05.85865936,1746538145,84384932,piren,-481.00749232060645,-323.55270102513776,2.3121944884624144,0.0007864760326973949,-0.0021478148607203392,-0.9997488000046427,0.022295856925693858
2025/05/06 15:29:05.652488729,1746538145,649921325,piren,-481.1086027875228,-323.6175923469897,2.347147634207938,-0.0011153597567148722,-0.0010478019879262008,0.9999478418860592,0.01009809838632895
2025/05/06 15:29:06.212029133,1746538146,210278076,piren,-481.08809180792707,-323.6135809567663,2.3637032982666697,-0.0012905446177296183,-0.028568408818960934,0.9995141632358627,0.012394272994232203
2025/05/06 15:29:06.767052351,1746538146,766726337,piren,-481.0098789177613,-323.60599336548916,2.3777539955190012,-0.00023112379503545012,-0.02520956709817075,0.9995935463250725,0.01331038894170641
2025/05/06 15:29:07.316938364,1746538147,315512528,piren,-480.9361557817418,-323.5976422206602,2.3864389636987813,3.179501805951915e-05,0.026824176749690027,0.9995559364695868,0.012976609695347505
2025/05/06 15:29:07.870547080,1746538147,869448935,piren,-480.90633565028304,-323.4931693391381,2.3509884660694196,8.850801242661411e-05,-0.012481309943613262,0.9998207075146167,0.01423944849333388
2025/05/06 15:29:08.489032399,1746538148,484696036,piren,-480.92842011261035,-323.4028751687585,2.3202684441184513,-0.0007174461712957025,-0.004883444559738658,0.9998513212060512,0.016521886173709834
2025/05/06 15:29:09.37419231,1746538149,36836349,piren,-480.9868327200626,-323.3676491472309,2.3130322896622943,-0.00017226158270885444,-0.0014698403270611352,0.9998262497247947,0.01858171834391743
2025/05/06 15:29:09.590370617,1746538149,589850663,piren,-481.05042555861905,-323.35652653441286,2.317572768914834,-0.0006739963755092351,-0.0009237760882937711,0.9997955679222879,0.020186994069813325
2025/05/06 15:29:10.150274365,1746538150,149908782,piren,-481.09944844015615,-323.35397843172206,2.326809852171187,0.0001932730181757435,-0.0008555355009248236,0.9997469125076486,0.022479805069689284
2025/05/06 15:29:10.723394158,1746538150,718520243,piren,-481.1287929962868,-323.34379401163915,2.335471352616011,-0.0006579838639679538,-0.0008782521785548847,0.9996808878138219,0.02523723974832806
2025/05/06 15:29:11.273163598,1746538151,272726177,piren,-481.1371451497233,-323.32079217868665,2.3387788662130076,-0.0007970935498846445,-0.0008534172960474903,0.999589808017277,0.028615590659198355
2025/05/06 15:29:11.831560169,1746538151,831082015,piren,-481.1395326123579,-323.28705118187486,2.3377716716504735,-0.00153756449924942,-0.0012147385595846002,0.9994601892634372,0.032794670041591784
2025/05/06 15:29:12.436755248,1746538152,436148713,piren,-481.1474786425204,-323.2448523628604,2.334623839444715,-0.0006741919603253377,0.0013576466859649013,0.9993204389862796,0.036828826820115144
2025/05/06 15:29:13.4225105,1746538153,3754454,piren,-481.16171842392663,-323.2053988696652,2.3299282251302342,-0.001902706005534573,-0.02987807247415505,0.9988514235688599,0.03741008058729322
2025/05/06 15:29:13.558012251,1746538153,557384479,piren,-481.1867278421661,-323.22395390854894,2.3462701787872975,-0.0006160871089169165,-0.003354099392416624,0.9992162008865588,0.039437980929202664
2025/05/06 15:29:14.113395434,1746538154,111738363,piren,-481.2167503412148,-323.228264795311,2.3574795893265605,-0.000765515222906739,-0.0033013332626787815,0.9991561292186846,0.04093341703141436
2025/05/06 15:29:14.664680335,1746538154,664151113,piren,-481.24149913882854,-323.19736332045,2.3541462734248877,2.986329992331327e-06,0.007044586830918748,0.999055645227471,0.042874135869836794
2025/05/06 15:29:15.219300617,1746538155,218772165,piren,-481.2604351944194,-323.1311642933074,2.336857800560725,-0.00020443604787540636,0.00046318379012906606,0.9990132332767291,0.04441062265556225
2025/05/06 15:29:15.825358341,1746538155,824600971,piren,-481.27782621327896,-323.0633533504084,2.3201645237941935,-0.0005906855503160602,0.0010564440208903332,0.9988757064038294,0.04739048610071859
2025/05/06 15:29:16.391148658,1746538156,389611292,piren,-481.29246727844054,-323.02331708796163,2.3143476338463884,-0.002373794045720925,0.003066359956525056,0.9988146562819605,0.04852056197937795
2025/05/06 15:29:16.946194607,1746538156,945743956,piren,-481.3122341680544,-322.9995737902081,2.3151052002357466,-0.00013186672951960595,-0.0008192535481059896,0.9987610151843697,0.04975686869847089
2025/05/06 15:29:17.505102766,1746538157,504439563,piren,-481.3319611498123,-322.9924967374092,2.322277936636049,-4.429775772394191e-05,-0.0008599431009853141,0.9987056042603258,0.0508564111453921
2025/05/06 15:29:18.61170248,1746538158,60408732,piren,-481.3508027820877,-322.98789649002816,2.3309842834077483,-0.00022499740539410552,-0.0008246932210591915,0.9985562989495274,0.053708352101707144
2025/05/06 15:29:18.624929947,1746538158,621081483,piren,-481.3705905188998,-322.9738203284933,2.337374832995834,-0.0007000315880335695,-0.0008020910992836552,0.9984259593914757,0.05607557595652092
2025/05/06 15:29:19.178765188,1746538159,178037778,piren,-481.38823420528234,-322.9465576882471,2.3384344629080256,-0.0005314203655702547,-0.0008207928935665112,0.9982748534745909,0.05870571362061054
2025/05/06 15:29:19.787165210,1746538159,786659819,piren,-481.4069977788128,-322.9080667938339,2.3361301549115576,-0.0007493076438591029,-0.0008009543753233012,0.9980959737152612,0.06167028671514581
2025/05/06 15:29:20.347555903,1746538160,343516015,piren,-481.42351900663715,-322.8692924805538,2.3326660452135193,-0.0005050595454602143,-0.0008550858058482187,0.9979840114602055,0.06345806972258669
2025/05/06 15:29:20.912363780,1746538160,911719041,piren,-481.44121009228024,-322.83093898192396,2.329852966404628,-0.0007339655822305922,-0.0008537240108235965,0.9978854025796944,0.0649881202082256
2025/05/06 15:29:21.468162157,1746538161,467013137,piren,-481.45890536066526,-322.8002459067588,2.3290517318376507,-0.0007972636790866205,-0.0009060133351694257,0.9977376267249928,0.06721734692504278
2025/05/06 15:29:22.37049156,1746538162,36333489,piren,-481.47695711260275,-322.77416627439516,2.3297779525965057,-0.0008422924868666184,-0.0008302195383310865,0.9975651821274834,0.06973025660246523
2025/05/06 15:29:22.593959618,1746538162,593340821,piren,-481.4945525920029,-322.7500886735494,2.33110458028545,-0.0006118153231988287,-0.0008338215479083889,0.997477912935092,0.07097001923551555
2025/05/06 15:29:23.166949404,1746538163,164680725,piren,-481.5134555093044,-322.723288070687,2.3323059105022126,-0.0005919049644855639,-0.0006527390616527764,0.9972972551305019,0.07346705717120468
2025/05/06 15:29:23.773034838,1746538163,771602056,piren,-481.5312955896357,-322.6950513264881,2.3326560837181534,-0.0001836034298547553,0.0017815077373526875,0.9971360571620546,0.07560738077247722
2025/05/06 15:29:24.334803751,1746538164,334197401,piren,-481.54591967335773,-322.66355335885333,2.3305219189589987,-0.002664389747958781,-0.029795762498156905,0.9965529868020555,0.07737737434371059
2025/05/06 15:29:24.899625480,1746538164,892343812,piren,-481.56824433482745,-322.68265490298575,2.3481322420087456,-0.0007228566902211846,-0.0034659222741411653,0.996882064070099,0.07882648791068796
2025/05/06 15:29:25.450045243,1746538165,448682686,piren,-481.58806646985664,-322.680815710493,2.3582308422636236,0.0020878152175178737,0.028121574185412102,0.9963028579281406,0.08115068315899354
2025/05/06 15:29:26.10391022,1746538166,6524906,piren,-481.59386659502076,-322.5924313990488,2.3316614936059974,-0.0003543526044491661,0.0018255500207135847,0.9965544769525231,0.0829199389003438
2025/05/06 15:29:26.567903545,1746538166,567249747,piren,-481.60132633609,-322.49873878908073,2.305951878716258,-0.0003859037301195766,0.0018318976714104933,0.9963111217815078,0.08579419469699552
2025/05/06 15:29:27.172890916,1746538167,171562449,piren,-481.61531250061034,-322.4464577537555,2.2994094068641706,-6.230352503277805e-05,0.001812719106535251,0.9960806379983224,0.08843117534312575
2025/05/06 15:29:27.729084773,1746538167,727336817,piren,-481.63224252801314,-322.4332824545859,2.3082823343794665,-0.0029869778321212986,-0.029754124670836848,0.9954296757817294,0.09069471099013471
2025/05/06 15:29:28.283077797,1746538168,282544073,piren,-481.6599074419919,-322.48541296859275,2.342714502757472,-0.0010317376071798119,-0.0034265898885941833,0.995698681012066,0.09258148103199293
2025/05/06 15:29:28.844177038,1746538168,843460513,piren,-481.6835751632386,-322.5100720130894,2.3658559865378517,0.0019692829104723084,0.028117946678518344,0.9950522257822516,0.09527103948834369
2025/05/06 15:29:29.395703261,1746538169,395176776,piren,-481.6886747759465,-322.431622841697,2.3444002028977375,-0.0007813609907037284,0.0018321002477661716,0.9952791627419351,0.09703309278486989
2025/05/06 15:29:29.953253461,1746538169,952583478,piren,-481.6926302737591,-322.33966038386865,2.3184902558621276,-0.003814305708880739,-0.02969166761031966,0.9945776871669745,0.09959457884879787
2025/05/06 15:29:30.514857224,1746538170,513507635,piren,-481.7135320893135,-322.3224354633375,2.3246281257529926,-0.003519916593544122,-0.029712667024084854,0.9944106532016321,0.10125324885945085
2025/05/06 15:29:31.120931386,1746538171,119952733,piren,-481.74611854787196,-322.3703281515242,2.3571896154701206,-0.0034127860314743185,-0.02973747403865739,0.9942071867845123,0.10322841312027237
2025/05/06 15:29:31.672644050,1746538171,671845388,piren,-481.77543764430317,-322.4197932656224,2.388883271448376,-0.0008095406906356964,-0.003448405989219676,0.9944261152933633,0.10537625141631429
2025/05/06 15:29:32.228909657,1746538172,228607139,piren,-481.78813598706205,-322.3924555931802,2.3898906664389243,0.0023927492911189696,0.028062392375637513,0.9938074673417,0.10748718407727303
2025/05/06 15:29:32.785731689,1746538172,785099081,piren,-481.77780452465635,-322.25433968113714,2.3437916149780635,-0.0003496624107445002,0.0018202442527139734,0.9940593316309138,0.10882375496443744
2025/05/06 15:29:33.340595346,1746538173,339990373,piren,-481.7702942891852,-322.1234388164736,2.3018420862236924,-0.003938155492744679,-0.029730834786394652,0.9933543353533283,0.11112035290155711
2025/05/06 15:29:33.900641400,1746538173,898073992,piren,-481.7879072068224,-322.106744733467,2.307095326947239,-0.0008322981644691927,-0.0034141758524835366,0.9936161913190847,0.11275865834413638
2025/05/06 15:29:34.457823056,1746538174,457050397,piren,-481.81222747974493,-322.1239968706302,2.3272427999837864,0.0006234424760995418,0.027714505143093853,0.9930074563848399,0.1147506387270367
2025/05/06 15:29:35.60903754,1746538175,59337259,piren,-481.8274227860737,-322.08576431931425,2.322440335448324,0.0006238916944572082,0.004983384104985607,0.9935122699745179,0.11361402225120062
2025/05/06 15:29:35.621283511,1746538175,618063530,piren,-481.8368932688608,-322.0387712117101,2.312597776188958,0.0009903730464608516,0.0060360953338759364,0.9936678620366143,0.11219075126735446
2025/05/06 15:29:36.175940193,1746538176,174509190,piren,-481.84413247110854,-322.00926503061913,2.3095816643907794,-0.0029782813237520423,-0.02896398878680574,0.9931777893848294,0.11291632240990573
2025/05/06 15:29:36.733656680,1746538176,732107044,piren,-481.8633591974469,-322.0497250180884,2.3346758617629986,9.62239768634363e-05,-0.00040820159593312535,0.9935306530686687,0.11356348676114221
2025/05/06 15:29:37.298086293,1746538177,296382700,piren,-481.8752230896803,-322.0702039265504,2.353475539514129,-0.002225347255518951,-0.028497475867713323,0.9930891669112754,0.11382815232722839
2025/05/06 15:29:37.853800406,1746538177,852470610,piren,-481.8845754568818,-322.09350895089756,2.373558172747758,0.0005887648619821667,-0.003069144406456406,0.9933745483212104,0.11487924293004723
2025/05/06 15:29:38.473513749,1746538178,468778986,piren,-481.878581085501,-322.0562716161611,2.374178671995108,0.0026077043470666443,0.004755682470249926,0.9931794708741435,0.11646940369228646
2025/05/06 15:29:39.133110933,1746538179,132387174,piren,-481.85424539418113,-321.95140458293315,2.3504943224136667,-0.002050861207517981,-0.027459196728026766,0.9925809650154828,0.11842640909987938
2025/05/06 15:29:39.693162803,1746538179,692730207,piren,-481.8384626208405,-321.884675056166,2.344275198539344,-0.0012318330011157153,-0.026280899678590947,0.9924961851361851,0.11941155467399624
2025/05/06 15:29:40.262992896,1746538180,259887304,piren,-481.8298156510079,-321.84930589277525,2.3551888826498426,0.003841344065686902,0.030020967836828,0.9921316015620937,0.12148609281619155
2025/05/06 15:29:40.831247800,1746538180,824392351,piren,-481.8011586139531,-321.7223021457506,2.3329883974168872,0.004074958345350728,0.030011622223997825,0.9918412396303289,0.12382912668084275
2025/05/06 15:29:41.389940501,1746538181,387871938,piren,-481.7605448863904,-321.54605324213196,2.288901472945223,0.0023981029561109396,0.025027191305233957,0.9915106017618309,0.12757200081316877
2025/05/06 15:29:41.952308877,1746538181,951677945,piren,-481.7240729193794,-321.39001276071724,2.2550454250194854,-0.001069272146118046,-0.005701244123374312,0.9911900226201094,0.13232041237417083
2025/05/06 15:29:42.567636658,1746538182,565851528,piren,-481.703960337295,-321.31310846466715,2.262300788361817,0.003066727763934118,0.025017439921181328,0.9902094162891238,0.1372954288130699
2025/05/06 15:29:43.131033397,1746538183,129612797,piren,-481.6900065156475,-321.2861051566812,2.282554999802613,-0.00044333426300956317,-0.005749604068117317,0.9899734688658514,0.1411356668227579
2025/05/06 15:29:43.690078542,1746538183,688213453,piren,-481.68161828033107,-321.28998132110195,2.3162944995976766,-0.004306981342535725,-0.03158499324025878,0.9889607816211157,0.14470801819208212
2025/05/06 15:29:44.257457538,1746538184,251173815,piren,-481.6856736134831,-321.3297135201465,2.365673103760388,-0.0038594060416615797,-0.02673974125190697,0.9883381862782745,0.14985900295597035
2025/05/06 15:29:44.814630167,1746538184,814021656,piren,-481.68491903198094,-321.33697217018084,2.406251730073178,-0.0037031507592832666,-0.02676103587533199,0.9876768434963421,0.15415766751749763
2025/05/06 15:29:45.379335224,1746538185,377195106,piren,-481.66772935600176,-321.27260780928924,2.4178976936579963,0.0005555190470360695,0.004279370421200878,0.9870543738302204,0.1603279186231083
2025/05/06 15:29:45.992213060,1746538185,990124977,piren,-481.61652421301426,-321.0916899348994,2.387867842211914,0.0010935858565976361,0.004164036710278386,0.9858210480331463,0.16774482443008168
2025/05/06 15:29:46.560642733,1746538186,559407307,piren,-481.54947557032267,-320.873599484241,2.3392718921081825,0.005547532758026656,0.02989088363583481,0.9843871637737942,0.1733714848328668
2025/05/06 15:29:47.123485359,1746538187,122259723,piren,-481.4644708033776,-320.6173010783699,2.277539465502838,0.0067791018813198834,0.02971812358613797,0.9829510800169272,0.18132305755683176
2025/05/06 15:29:47.692221873,1746538187,687592428,piren,-481.39076774640364,-320.4197750612336,2.235927608859319,0.005278868170569196,0.024667471257687465,0.9822215550430898,0.1860227572672857
2025/05/06 15:29:48.257199478,1746538188,256270161,piren,-481.3387074284739,-320.28824640957384,2.2267170438913473,0.0003983251821697134,-0.006275955278271983,0.9807097236868103,0.19536860440852477
2025/05/06 15:29:48.818876002,1746538188,817490758,piren,-481.3177299266646,-320.24178892869077,2.266036574936161,-7.203007752085155e-05,-0.005875460299081534,0.9793366298503504,0.20215152537465492
2025/05/06 15:29:49.382050033,1746538189,381037297,piren,-481.3149241068392,-320.2331041595612,2.3244435905639897,-0.006082719371074894,-0.03131826214359093,0.9771985715336978,0.20991693303270853
2025/05/06 15:29:49.995252211,1746538189,992069445,piren,-481.31742615090855,-320.21634876504964,2.3892599599091637,-0.006825553566270935,-0.031267773944938924,0.9749895173221291,0.2199344885255695
2025/05/06 15:29:50.559600139,1746538190,556949514,piren,-481.30248607779737,-320.14352975506256,2.4270802535808436,-0.007244831185539402,-0.026302851724846206,0.973509875960226,0.22701143984420571
2025/05/06 15:29:51.121397763,1746538191,120715069,piren,-481.25620539503,-319.9820334429763,2.432507088906494,-0.008735490802747898,-0.026198750429131473,0.9721132569531632,0.23288008144171662
2025/05/06 15:29:51.690178590,1746538191,688628388,piren,-481.1916602465739,-319.77521896395484,2.4109700907858302,-6.084853908555903e-05,0.004125031504274835,0.9707548734913137,0.24003740542966961
2025/05/06 15:29:52.253197473,1746538192,252597030,piren,-481.09360615439283,-319.5159887855416,2.3629494820301673,0.0021208131359718493,0.012047045300539228,0.968990829898436,0.24679372444190992
2025/05/06 15:29:52.821162395,1746538192,820766991,piren,-480.97163542710035,-319.2274911821213,2.3048986467725703,-0.00845346519632184,-0.029415711271205854,0.9673618664218824,0.2515437819731504
2025/05/06 15:29:53.385664566,1746538193,383818754,piren,-480.9095871394074,-319.0756576217228,2.3000364912118343,-0.0045081555204324365,-0.01476401129654683,0.9673478095422099,0.252982046552967
2025/05/06 15:29:53.998674305,1746538193,998171422,piren,-480.8744605817525,-318.9741094292254,2.325188900320352,-0.0006500939523113965,-0.00010031340257302606,0.9660189051336489,0.25847058292862046
2025/05/06 15:29:54.562634313,1746538194,560999463,piren,-480.8365252450771,-318.87214132977533,2.34554488669458,-0.0014035469062394228,-0.0003186770456193158,0.9651143203678941,0.2618248978264678
2025/05/06 15:29:55.126566629,1746538195,126069071,piren,-480.7811955416856,-318.7299866660754,2.3532821449430883,0.002450500525997572,0.023518774474330623,0.9640200357351816,0.2647758164854507
2025/05/06 15:29:55.697364473,1746538195,690776468,piren,-480.7021451614525,-318.5374493045914,2.329825265906723,-0.009443456908038122,-0.029959769342286214,0.9639623611937139,0.264177590920242
2025/05/06 15:29:56.255785991,1746538196,255207156,piren,-480.6585838417538,-318.40599631312597,2.3313820592743593,-0.001333991727044669,-2.6122746174178982e-05,0.9641656280578597,0.26529768460253755
2025/05/06 15:29:56.813136388,1746538196,812662230,piren,-480.61867569225757,-318.28938903474585,2.3365126504017244,-0.0007407585307353365,0.0005791121577825648,0.9645709921181393,0.263821752458239
2025/05/06 15:29:57.435491054,1746538197,434990374,piren,-480.5621763648522,-318.14516237671097,2.337261675686715,-0.007867394837276906,-0.03200049872927856,0.964646915365406,0.2614773429105454
2025/05/06 15:29:57.993446428,1746538197,992872798,piren,-480.53476946797525,-318.06905587009106,2.355269230688038,0.000891800312037185,0.0013335668024954308,0.9658566593228753,0.259072074785072
2025/05/06 15:29:58.574553655,1746538198,571726281,piren,-480.4828010006507,-317.9507036616486,2.3606286878460114,0.0084896790752917,0.02881513227295012,0.9661194358671022,0.2563412747513032
2025/05/06 15:29:59.188589816,1746538199,187833449,piren,-480.38281465127494,-317.74698435107285,2.326428816862349,0.006277139130903188,0.027154593494711898,0.9666515678567027,0.2545740991079942
2025/05/06 15:29:59.784879007,1746538199,784092557,piren,-480.265816872109,-317.5059041339324,2.2778861389308287,-0.00794073531879633,-0.031245577701866274,0.9669708161870548,0.2528400665227223
2025/05/06 15:30:00.354342672,1746538200,353917645,piren,-480.2217602473114,-317.3977686203914,2.2882082317405605,0.006839953462628111,0.02705587808738517,0.96744136418333,0.25155198541185714
2025/05/06 15:30:00.925592450,1746538200,924163158,piren,-480.1699315010175,-317.27823320781545,2.29840156115659,0.007546975862495625,0.02691505663935533,0.9676928472986072,0.25057768489741017
2025/05/06 15:30:01.545241761,1746538201,544086498,piren,-480.0935943956137,-317.12563234959185,2.29228134872017,0.007496092810621522,0.027234838971658827,0.967943374960299,0.24957502881744487
2025/05/06 15:30:02.113326604,1746538202,111358646,piren,-480.00389344979953,-316.95831892956716,2.2783640670103487,-0.0011138125070791385,-0.0014388025901730735,0.9684680510011852,0.24913113707196746
2025/05/06 15:30:02.684605263,1746538202,682153767,piren,-479.9441512602114,-316.84672620419605,2.2890405674993812,-0.00028381171145093795,-0.0009771713527925708,0.9685094973974816,0.24897453291037094
2025/05/06 15:30:03.247446371,1746538203,246600888,piren,-479.9020776064841,-316.76950014088163,2.3148712304632646,0.00577512912879423,0.029045349632211264,0.9679679986478199,0.24932101624616912
2025/05/06 15:30:03.819142383,1746538203,818089993,piren,-479.82956684607547,-316.6338461585544,2.3178031846501144,0.006758415921206404,0.028476076329499257,0.9677305585422755,0.2502818470336354
2025/05/06 15:30:04.389028082,1746538204,385717278,piren,-479.7386825955488,-316.46865514255194,2.296455738968571,-0.00828706346760035,-0.02464022080813448,0.9675613409654501,0.2512951164801067
2025/05/06 15:30:04.953793418,1746538204,952820425,piren,-479.68866972902873,-316.37753240596754,2.3095016885563107,-0.0008048761882337783,0.0005464329784453062,0.9675639932837655,0.2526241724105099
2025/05/06 15:30:05.571428169,1746538205,570783352,piren,-479.6403818914099,-316.294509606578,2.3329927056624733,-0.00694147862590204,-0.024913311530827955,0.9668631155633443,0.253982004374714
2025/05/06 15:30:06.145689650,1746538206,145012997,piren,-479.60647996884194,-316.243618835797,2.3614368884937074,1.5157214689480268e-05,0.00033105472650645456,0.9668208787429982,0.25545504222787185
2025/05/06 15:30:06.712080851,1746538206,710583386,piren,-479.54618837187843,-316.14920582519017,2.369175837349053,0.006548464359102164,0.028517316812945233,0.966016634602427,0.25681849997172873
2025/05/06 15:30:07.279429825,1746538207,276624849,piren,-479.43250330279574,-315.95753903897844,2.3350882604770877,0.006927013588603413,0.028364789676842892,0.9652908977004938,0.25953985822202125
2025/05/06 15:30:07.846811956,1746538207,846368085,piren,-479.30649111967335,-315.7414530090945,2.2842736842021045,-0.0015513258024089558,-0.0017697172359495074,0.9649480651429264,0.26243035850694246
2025/05/06 15:30:08.420007784,1746538208,419534937,piren,-479.2097149607005,-315.5757636454346,2.2647662471142054,-0.002196836871424283,-0.0016565124734922137,0.9642536748615356,0.2649665646646944
2025/05/06 15:30:09.44706470,1746538209,42641099,piren,-479.16280426146994,-315.4951352459922,2.2860591658700606,-0.0017677881661033036,-0.0017689715743569165,0.9630118512987317,0.26944743443343155
2025/05/06 15:30:09.610809267,1746538209,609143733,piren,-479.1359842117289,-315.454905029446,2.324472951687319,-0.0025494937282280593,-0.0015438894435957492,0.9622110760337527,0.27228837956307234
2025/05/06 15:30:10.179240499,1746538210,178007843,piren,-479.1032160571244,-315.40554105206274,2.351521075799632,-0.010790188638232213,-0.031866211234095124,0.9604706198984438,0.27634092118728
2025/05/06 15:30:10.747390048,1746538210,746647310,piren,-479.0805548979273,-315.37339962080773,2.381302709583231,-0.002030040103859359,-0.0012490128693634925,0.959395213563239,0.28205521285020796
2025/05/06 15:30:11.321711406,1746538211,313266361,piren,-479.01572914490833,-315.2779555699522,2.3835354976021614,-0.0014773011787037678,-0.0014308203662423478,0.9582214337078714,0.2860200243289596
2025/05/06 15:30:11.895961356,1746538211,894043679,piren,-478.92604260766865,-315.14421871350623,2.363120430031369,3.5230728915444415e-05,0.0033761724959464126,0.9564254626929147,0.2919570765210483
2025/05/06 15:30:12.458660757,1746538212,458108050,piren,-478.8217963655138,-314.98974823290973,2.333477481331475,-7.3967288163571e-05,0.0029491957001293993,0.9541968942474747,0.2991648104006159
2025/05/06 15:30:13.77860683,1746538213,77448089,piren,-478.706629434787,-314.821744183852,2.3067980367857275,-7.47628033151166e-05,0.0034176892040113354,0.951687094502865,0.30705046485508375
2025/05/06 15:30:13.640705132,1746538213,639300655,piren,-478.62965236679486,-314.71445692797334,2.301095272668261,-0.00014802070681461303,0.0030639785736671465,0.9497789753348121,0.3129065166101929
2025/05/06 15:30:14.207826149,1746538214,206031656,piren,-478.56585708904,-314.62828162764407,2.3074106999419923,-0.0023834653656324,-0.0017822122057488817,0.9477144992819435,0.31910557917917964
2025/05/06 15:30:14.773056515,1746538214,772501819,piren,-478.5146301927087,-314.556290503384,2.3230939153300905,-0.0030755080245731853,-0.0015235589779847257,0.9448045993283223,0.32761637490589485
2025/05/06 15:30:15.437667024,1746538215,436962935,piren,-478.4624742293904,-314.4780768366454,2.3398141488256274,-0.0010257208625257142,0.0032343898596885784,0.9406726245176311,0.33929854126131975
2025/05/06 15:30:16.5435152,1746538216,4844543,piren,-478.4044166102782,-314.3989066133564,2.3426868748029928,-0.002417296265980041,-0.0004175457320158212,0.9398657345212561,0.34153533258968105
2025/05/06 15:30:16.576176959,1746538216,574316286,piren,-478.33588024195666,-314.3033004831122,2.3393966067587915,0.006947564057895871,0.025546064784746428,0.9364026175975556,0.34992751775777964
2025/05/06 15:30:17.194795061,1746538217,193280479,piren,-478.2384010771247,-314.1724316358211,2.3133897243447357,0.007399541670142925,0.02557916733450315,0.9335830878424304,0.3573703556202421
2025/05/06 15:30:17.760257469,1746538217,759872895,piren,-478.1295838369049,-314.0323837952076,2.2785562934337693,0.007446724752951495,0.026622619509515826,0.9310009203994638,0.36396849951095595
2025/05/06 15:30:18.331787351,1746538218,331104909,piren,-478.0433911074934,-313.9244435910308,2.2554414123350535,-0.012553693797833991,-0.02475135651638244,0.9288186582063903,0.3694938095426092
2025/05/06 15:30:18.900499943,1746538218,899879883,piren,-478.0458588627661,-313.916868595703,2.2867380088555604,-0.014685393671111678,-0.02945223936630267,0.9272073237137549,0.3730998306896033
2025/05/06 15:30:19.474200358,1746538219,472744918,piren,-478.10796829111945,-313.9724690791206,2.3534122480497746,-0.0019735006913960025,-0.0004900429149440131,0.9252135030672212,0.3794414828337088
2025/05/06 15:30:20.40814736,1746538220,36861528,piren,-478.1226994519758,-313.98229057033336,2.3891553180788434,-0.0023349836949791685,-0.0013344927077988727,0.9229551504339267,0.3848981128400667
2025/05/06 15:30:20.666255398,1746538220,665856668,piren,-478.0739978312211,-313.92530817106064,2.3910523598643207,-0.015066216571293858,-0.03159932322234359,0.9196962934876572,0.3910667713257952
2025/05/06 15:30:21.228374753,1746538221,227480477,piren,-478.0281790361198,-313.86986617100297,2.38486451100176,0.009839084344365511,0.026722903195787146,0.9180849093478649,0.3953595554577831
2025/05/06 15:30:21.804266058,1746538221,802731677,piren,-477.91929564291775,-313.75351171183297,2.34042490564268,6.0842719165354416e-05,0.0030678568207248617,0.9167340142349732,0.3994863348067404
2025/05/06 15:30:22.380469533,1746538222,376848266,piren,-477.8086530487507,-313.6345986746794,2.2977956710322913,0.001709035370602395,0.003166336326621698,0.9141386767090842,0.40538565990539593
2025/05/06 15:30:22.950575310,1746538222,947965696,piren,-477.7456449726512,-313.5683672105737,2.2843229983507656,0.0001942027786758472,0.004957383295914898,0.9118981017378854,0.41038669408617473
2025/05/06 15:30:23.530269616,1746538223,523876093,piren,-477.7185713090403,-313.53523993670007,2.2917161413921794,-0.002046057774589897,-2.934519246504733e-05,0.9108236213111325,0.4127906777630974
2025/05/06 15:30:24.96838370,1746538224,96226145,piren,-477.7279619081842,-313.532705101918,2.313672438340302,0.010374467563083047,0.026058727614923116,0.9091989314005995,0.4154161964558939
2025/05/06 15:30:24.727252522,1746538224,726692971,piren,-477.70887495988853,-313.5012850709406,2.3167903187181977,-0.0018451785604879545,-0.0026919878929107144,0.9074592956531383,0.420127332186296
2025/05/06 15:30:25.298569825,1746538225,297940724,piren,-477.6964213394628,-313.4799363886584,2.319440091733612,0.011468127878214369,0.025836214890316647,0.9074278026945753,0.4192561924885609
2025/05/06 15:30:25.866583482,1746538225,866211281,piren,-477.6544750741057,-313.4309388134491,2.3053952848256367,0.01228859994895108,0.025597472762288333,0.9064644293280965,0.4213264744380145
2025/05/06 15:30:26.437829897,1746538226,437100501,piren,-477.59481935969427,-313.3679473095786,2.2809828691440583,-4.828106632730483e-05,0.001845861029990151,0.9061644862875405,0.42292140434983244
2025/05/06 15:30:27.22351785,1746538227,11573840,piren,-477.5731269571736,-313.3338388116805,2.280843147946562,-0.013359245547440137,-0.02666069959787763,0.9050306087692721,0.4242998171647919
2025/05/06 15:30:27.580323022,1746538227,579932861,piren,-477.6253791419183,-313.35774591325975,2.322014784577648,-0.014253780636674223,-0.026307319395822062,0.9037407197038,0.4270333315246312
2025/05/06 15:30:28.157433030,1746538228,151735528,piren,-477.70340227281486,-313.4031857939153,2.375434079810921,-0.0023733878207810033,-0.002492948307619164,0.9030523950844151,0.42951661664164903
2025/05/06 15:30:28.775345290,1746538228,773651850,piren,-477.7283781238988,-313.40414674167664,2.4021673191074444,-0.013405949788410487,-0.02661825517333217,0.9020705079012464,0.43055841389593763
2025/05/06 15:30:29.344074822,1746538229,343440195,piren,-477.7113590525192,-313.37644369979307,2.401501357103064,-0.0022847919361217435,-0.002417482598278169,0.902487510545502,0.4307031794787194
2025/05/06 15:30:29.914158410,1746538229,912857607,piren,-477.64972550241515,-313.3111697899836,2.376057039926976,0.011549018771717063,0.025811887127340626,0.9016466520121993,0.4315480060937925
2025/05/06 15:30:30.487515114,1746538230,485955845,piren,-477.52916344920175,-313.19490323427533,2.317071672220732,0.011434294245610412,0.02583162923939612,0.9006082601991092,0.43371274538232885
2025/05/06 15:30:31.59731040,1746538231,58165171,piren,-477.4162364354861,-313.0861833210105,2.26108554520516,0.00024252304737492174,0.0016435833627382308,0.9001869396812904,0.43550053208180384
2025/05/06 15:30:31.630670092,1746538231,628800106,piren,-477.3760427996721,-313.0354204693135,2.2465076713911256,-4.355780449313406e-06,0.0017370494323375053,0.8993718978718804,0.4371809373230135
2025/05/06 15:30:32.257369560,1746538232,255097735,piren,-477.4132459960579,-313.04746039145635,2.2756311908288733,0.00036087191064346463,0.0015457353190940545,0.8986926393298239,0.4385761284978728
2025/05/06 15:30:32.834055227,1746538232,832568161,piren,-477.4765883015128,-313.0812548975868,2.3190612055128663,-0.0005073031088017985,0.0018312161461271552,0.8979487344676494,0.44009596630613307
2025/05/06 15:30:33.403529357,1746538233,402335272,piren,-477.51671837532,-313.096435191876,2.3483237973135562,-0.013489979823981587,-0.0266768168567691,0.8971272222271818,0.44075970213448495
2025/05/06 15:30:33.974308345,1746538233,973945701,piren,-477.56370008979565,-313.11474189490247,2.379546525584408,-0.013662232572964634,-0.026567123058241,0.8961342633632485,0.4427763695139324
2025/05/06 15:30:34.541686933,1746538234,541121201,piren,-477.593506096345,-313.12105100327886,2.399913977444849,-0.002793886895364385,-0.0023268135825687186,0.8956736894364216,0.4446970004237905
2025/05/06 15:30:35.110953837,1746538235,110614061,piren,-477.5603762070156,-313.0753955501396,2.390046347421543,-0.002387317261154652,-0.00248425486876333,0.8948415523565235,0.44637061436681597
2025/05/06 15:30:35.685538088,1746538235,684148494,piren,-477.4844705324314,-312.9987688173789,2.3589859714967556,0.011140858956936214,0.02582169577257773,0.8933618011620146,0.44845714791236324
2025/05/06 15:30:36.305684143,1746538236,305267750,piren,-477.36353850075227,-312.887672717379,2.303692669053922,0.011587790138677842,0.025648548831188642,0.892150068532969,0.45086154224903113
2025/05/06 15:30:36.878103891,1746538236,873620492,piren,-477.25679955580966,-312.79112139533134,2.2533689563187416,0.011487541323712887,0.025611214260510003,0.8914935559950289,0.45216295925006583
2025/05/06 15:30:37.447592391,1746538237,447040132,piren,-477.20965404290024,-312.74269277723243,2.2322704135407254,0.0007569782508073529,0.0011624388813419242,0.8912788694681264,0.453453473423011
2025/05/06 15:30:38.17720162,1746538238,16231832,piren,-477.2449595194796,-312.75678081505566,2.255100488773025,0.00025993747622942055,0.0016420314573648489,0.89134068263315,0.4533310309787669
2025/05/06 15:30:38.611087609,1746538238,606084494,piren,-477.3270384432358,-312.80410700685786,2.302207325146143,-0.0009613936192374322,-0.0010847860486562855,0.8910806535358117,0.4538426686151582
2025/05/06 15:30:39.202450990,1746538239,200381136,piren,-477.40721433074293,-312.84473997666356,2.348191199533667,-0.013254506101334365,-0.024601309328959698,0.8899411140115843,0.45521852690672754
2025/05/06 15:30:39.774817409,1746538239,774178294,piren,-477.4795014388087,-312.8763881167776,2.3876749788889833,-0.009854752023901275,-0.017976132445517035,0.8895411380412669,0.4563949016554591
2025/05/06 15:30:40.394476437,1746538240,394000249,piren,-477.50968640499326,-312.877196830732,2.4048345670731575,0.01367375623723837,0.027116108708928686,0.8888119246153063,0.4572648113516775
2025/05/06 15:30:40.968162939,1746538240,966486443,piren,-477.42318112937215,-312.79627222704426,2.361675134763828,-0.0010446851914630796,-0.0013168314544819248,0.8887113573184733,0.458464063979859
2025/05/06 15:30:41.544660482,1746538241,541647822,piren,-477.32571163798127,-312.71134293050585,2.31549658838912,-0.0018845573734361015,-0.003591659279831496,0.8883129603059288,0.459220680043529
2025/05/06 15:30:42.123772757,1746538242,123156024,piren,-477.2703514291779,-312.6573317930485,2.2932504167665066,-0.0006019697993735582,-0.0006489612919856979,0.8879263493884767,0.45998479816539045
2025/05/06 15:30:42.703108797,1746538242,701573870,piren,-477.2679651724113,-312.64276013137766,2.298687231458722,-0.0012430117887705498,-0.0004073650708342618,0.8877172561366513,0.4603871871942215
2025/05/06 15:30:43.281188317,1746538243,279479035,piren,-477.2918930058738,-312.64327076653586,2.317308979926571,-0.001149887872036515,-0.0004105782213950359,0.88697981680063,0.46180657614603854
2025/05/06 15:30:43.914199456,1746538243,913596755,piren,-477.3202146255439,-312.6445635257372,2.3372737654833347,-0.0012320559394969537,-0.000381676259960156,0.8863993049601202,0.46291965666583057
2025/05/06 15:30:44.495811343,1746538244,495239643,piren,-477.32963351264715,-312.6362109697376,2.3453355574324135,-0.0011711364707674937,-0.00038060414633935637,0.8862306963315277,0.463242524450839
2025/05/06 15:30:45.79620234,1746538245,78937247,piren,-477.32402262635327,-312.61675112295404,2.344949467882833,-0.0010645136769818094,-0.0004601677047206308,0.8859917246207872,0.46369959991334725
2025/05/06 15:30:45.667503212,1746538245,666667914,piren,-477.30757127616306,-312.59111065693673,2.3383283812412277,-0.0007596560471457791,-0.0006870802774332292,0.8858988552231704,0.463877321236616
2025/05/06 15:30:46.247320495,1746538246,246489982,piren,-477.29078162704684,-312.5673739541133,2.331331964054489,-0.0007665007694407953,-0.0005976661551497977,0.8856879686247897,0.46427995595871996
2025/05/06 15:30:46.832236217,1746538246,826144219,piren,-477.2766623503512,-312.5449600413048,2.326654051542701,-0.01560205110474726,-0.027852483193352446,0.8853542549339366,0.4638196400020841
2025/05/06 15:30:47.412573867,1746538247,411815714,piren,-477.3161972173776,-312.56099510542725,2.346374693579864,-0.01675877183281885,-0.026344951185170867,0.8861915288975405,0.46226579067020124
2025/05/06 15:30:48.50023721,1746538248,48553164,piren,-477.3851969520691,-312.5965270080617,2.379321363224573,-0.003283042731727987,-0.004921918763258309,0.8875379041780247,0.46069671693359077
2025/05/06 15:30:48.624391639,1746538248,623606641,piren,-477.39664163741674,-312.60310133622795,2.386450239730274,-0.016425438281038065,-0.02704176688322145,0.8868920952729745,0.46089191700812293
2025/05/06 15:30:49.204347801,1746538249,201176505,piren,-477.3882540736804,-312.60740997497487,2.3856175498087517,-0.0010752997040816524,0.0009430485028869147,0.8868571157955901,0.4620415679923128
2025/05/06 15:30:49.775436607,1746538249,773400055,piren,-477.3349458224611,-312.5943473436079,2.3648835932811654,0.012928987390834557,0.02469344233740924,0.886778760631422,0.4613529070934481
2025/05/06 15:30:50.354220201,1746538250,353681427,piren,-477.22613898990414,-312.5539029706908,2.315635740386663,-0.00037159917520606154,-0.00014448823128923949,0.888440978346984,0.45899070691143423
2025/05/06 15:30:50.944546019,1746538250,942030556,piren,-477.1430672342472,-312.54108219211906,2.282182843277308,-0.0015960900222002678,-0.001671816181083672,0.8892988303496968,0.4573207275708797
2025/05/06 15:30:51.600961701,1746538251,599294097,piren,-477.12811005381604,-312.57920576829173,2.284217569302583,0.004880651920888245,0.011481238705325887,0.88947940375936,0.4568049372352623
2025/05/06 15:30:52.177823866,1746538252,175933478,piren,-477.14197356940497,-312.63429073912516,2.3003773065985453,-0.0010793874719758428,-0.0011965079183584297,0.8901115275698767,0.4557399168151804
2025/05/06 15:30:52.752233471,1746538252,750195373,piren,-477.16734168214333,-312.6981522363238,2.322323764578643,-0.002031983781908659,-0.0029251150771115878,0.8908191187358627,0.4543441563818739
2025/05/06 15:30:53.327627147,1746538253,326397002,piren,-477.18732238884127,-312.7645604512074,2.34343615390937,-0.00650057402460983,-0.012772716726525263,0.8911790723880424,0.4534252542397292
2025/05/06 15:30:53.908171772,1746538253,905993987,piren,-477.197997444082,-312.8260350640553,2.360364338537198,-0.002124738602771748,-0.003461602919108813,0.8911024256031594,0.45378405643573017
2025/05/06 15:30:54.481840812,1746538254,481310918,piren,-477.1771907280238,-312.8717105516579,2.363464197120188,-0.0007469910307839639,-0.0015628009972026434,0.8909034361581671,0.4541894616776283
2025/05/06 15:30:55.58724799,1746538255,58086143,piren,-477.124461295046,-312.8959718331958,2.3517227147523827,-0.013405967631958145,-0.026016189723526435,0.8898459879621381,0.45532137618588353
2025/05/06 15:30:55.680980200,1746538255,680567312,piren,-477.08914030232495,-312.9502805279507,2.3524283919231666,-0.013760320508848208,-0.026255762980873027,0.8887804526918863,0.45737358406732637
