time,header_stamp_secs,header_stamp_nsecs,header_frame_id,twist_linear_x,twist_linear_y,twist_linear_z,twist_angular_x,twist_angular_y,twist_angular_z
2025/05/06 15:28:02.591739822,1746538082,505941519,piren,0.004000126000937908,-0.03609418568307732,0.011497209693808026,0.0008604355145270322,0.0012639535503566925,-2.757714708785121e-05
2025/05/06 15:28:05.447830944,1746538085,54946470,piren,-0.017821061461290498,0.16044697013499032,-0.061793293262465646,-0.0008683991329783271,-0.0005950706358003456,-5.087084549787129e-05
2025/05/06 15:28:06.180483999,1746538086,136627323,piren,-0.014523263182900025,0.13567597927676658,-0.05490090385776637,0.0008758180838684956,0.0010289515915628566,0.0002102365678158172
2025/05/06 15:28:06.846386656,1746538086,804197627,piren,0.01752030106977176,-0.16676460770813675,0.07023468870956238,-0.0008750738866017001,-0.0015728135215320796,0.00015915332717362753
2025/05/06 15:28:07.489187528,1746538087,477279570,piren,0.0010222503681237352,-0.03508855036729941,0.015176240374867499,-0.0007682472586510206,-0.00010930018522348904,0.00017700075881830538
2025/05/06 15:28:08.78216292,1746538088,67402237,piren,-0.00878708126101597,0.024688231738901285,-0.006616807603316319,-0.0008483452268596986,-0.000295870124491353,0.001097435071156268
2025/05/06 15:28:08.750341069,1746538088,711982740,piren,-0.020229370467995663,0.02186481285825763,-0.003204089453503487,0.0005776196768394406,0.0002750086875125356,0.0018989144827307742
2025/05/06 15:28:09.375211578,1746538089,369789368,piren,-0.031138348975900638,-0.04383081977225586,0.023187390306007836,-0.0006384076468666734,0.0015170406904270223,0.001052316288170675
2025/05/06 15:28:09.930050513,1746538089,920990539,piren,-0.04098098027134224,-0.08976741195715433,0.04203300901570531,0.0003063362393970509,-0.0033915472215500157,-0.002435375992091509
2025/05/06 15:28:10.530506896,1746538090,498998438,piren,-0.03348131703710319,-0.1525123810360124,0.0630698148627461,-0.00011232797878577976,0.0035452451044671947,-0.0024448969901516007
2025/05/06 15:28:11.69795518,1746538091,63854951,piren,-0.0493713265147559,0.0041157879979895895,-7.402963120155259e-05,-0.000598737523102301,-0.00383713216384623,-0.002447199672943136
2025/05/06 15:28:11.616110049,1746538091,610896320,piren,-0.058779889118886465,0.09586772775574032,-0.037729746721345075,0.0013160582271605143,0.003868590606353772,-0.0015401585502468785
2025/05/06 15:28:12.162260926,1746538092,154864627,piren,-0.05703274523216319,0.010760555775823799,-0.007211708458544151,-0.003459062378161187,0.0037082200511886374,-0.002086188249139001
2025/05/06 15:28:12.762059340,1746538092,756979322,piren,-0.06879173837128259,0.15448242832026193,-0.06494027063036809,-0.0007109555607027883,-0.007883898471469988,-0.008534535647489615
2025/05/06 15:28:13.308491830,1746538093,301025303,piren,-0.08008204400534819,0.07847198989898102,-0.03041547477944262,-3.142585788548832e-05,0.008808825046718859,-0.008745567509846088
2025/05/06 15:28:13.851843764,1746538093,846164058,piren,-0.08355921115748938,0.03222771942009827,-0.01272817046054462,-0.0009633162287567105,-0.0036096874027448677,-0.004383422179498626
2025/05/06 15:28:14.387938792,1746538094,384587183,piren,-0.07510148311694106,-0.06716628433769031,0.027710135948398017,-0.0010312525047567096,0.0045982622912680736,-0.001872902719111348
2025/05/06 15:28:14.954476738,1746538094,920714204,piren,-0.089051470431377,0.022638019864098594,-0.012806676189431543,-0.0005626537248038464,-0.006996790558463302,-0.007430129449787575
2025/05/06 15:28:15.465731066,1746538095,460645803,piren,-0.09083556069458577,-0.07644670223116876,0.030763367751533516,0.0008810733904944405,0.004616119993484496,-0.009054381735265992
2025/05/06 15:28:16.4594205,1746538095,997790836,piren,-0.09259563731220592,-0.07805077833695534,0.03028955770990522,-0.0008385827329944944,-0.0017279029831081612,-0.008048064576781474
2025/05/06 15:28:16.594473347,1746538096,589364818,piren,-0.10821084434865011,0.054520375230822954,-0.028662811757256733,-0.00013688790351496066,0.0030174759300410224,-0.006445954639167482
2025/05/06 15:28:17.133154200,1746538097,127685664,piren,-0.09376507224974344,-0.10710404394694664,0.03134917782085062,0.004150343027582713,0.0005158546836546847,-0.001741918462355133
2025/05/06 15:28:17.674926672,1746538097,670729721,piren,-0.10441794364005513,-0.14082037473312953,0.04769097885624497,-0.0035853221667871775,-0.0011288775717334318,0.0007925341056675089
2025/05/06 15:28:18.217997362,1746538098,210488662,piren,-0.13019652996836126,-0.009020241733605466,-0.0004424048725015575,0.001377258451639388,0.0006914069283458387,0.0020396527799053646
2025/05/06 15:28:18.757761977,1746538098,750423600,piren,-0.17059040591388988,0.19218310286896706,-0.0804747217179804,0.0010216951929875448,-0.004888381864520351,0.002734148896749073
2025/05/06 15:28:19.300538364,1746538099,291863340,piren,-0.18328016452996929,0.13019308025673165,-0.049732534709791505,-0.0044208611327161895,0.004635528296431251,0.0007442285288698242
2025/05/06 15:28:19.856890613,1746538099,832304746,piren,-0.19869316276822213,0.1345226778750661,-0.0502075065702366,0.0036264047922004,-0.007978704930231473,-0.0038278354769611593
2025/05/06 15:28:20.422921610,1746538100,418285834,piren,-0.1772165980629776,-0.02471397038379977,0.014561714055244028,-0.0021421741663350505,0.010021925414315158,-0.0039209075634993006
2025/05/06 15:28:20.973285747,1746538100,955494969,piren,-0.1738604409197702,-0.008194043007506063,-0.0017320019716040302,0.0012799100709576918,-0.00895751727615478,-0.0039182906184652205
2025/05/06 15:28:21.502708685,1746538101,498624991,piren,-0.15971768230938288,-0.2115726700548744,0.08164550903937184,0.0035496050301861756,0.006286893809980775,-0.0027926828520331705
2025/05/06 15:28:22.47180570,1746538102,40863412,piren,-0.17619471314583243,-0.14914420788077182,0.05492874499241418,-0.0031934592405254043,-0.00462166954848605,-0.001876398066712041
2025/05/06 15:28:22.589242840,1746538102,582937318,piren,-0.2057741788253221,-0.015394843847252149,0.000927359037398448,0.0025070208901334288,0.0013309561454829678,0.0014579026308413781
2025/05/06 15:28:23.133009544,1746538103,121782259,piren,-0.22015718695347422,-0.08944854961564447,0.027109893648055005,0.0005857462437160265,0.002652439705370437,0.0031426704882744545
2025/05/06 15:28:23.729819483,1746538103,723593817,piren,-0.25312511524753023,-0.015314138153780327,0.0012120406527218255,-0.003185735803023559,-0.0039795951377821935,0.0019728534772831437
2025/05/06 15:28:24.270599751,1746538104,264182510,piren,-0.275995276909634,0.11885179711148378,-0.05580013983736675,0.0018650688669851131,0.006930915730110948,0.0024561739330890803
2025/05/06 15:28:24.815743516,1746538104,810372888,piren,-0.2769763529397092,0.049926096475929105,-0.026833477619050167,-0.0029954320880660745,-0.007038455320490166,0.0033277066644248577
2025/05/06 15:28:25.357512098,1746538105,351402475,piren,-0.2857906981722404,0.11368072013197017,-0.05657760967109146,-0.0013635245543054844,0.0058648444330762104,0.005208119704909358
2025/05/06 15:28:25.964673374,1746538105,955465298,piren,-0.2760817990733809,-0.01644275123858241,-0.002851954651746369,0.0029166582062124078,-0.004583434154332186,0.007695780117056966
2025/05/06 15:28:26.506213557,1746538106,499564819,piren,-0.2847138939235261,-0.08406372435651936,0.029405653349802004,-0.0028983617854395514,-0.008369154372810227,0.0015511922438801423
2025/05/06 15:28:27.48218544,1746538107,41156381,piren,-0.29830570928565936,-0.019784451708391854,0.00290302745898232,0.00014676699633475648,0.007513669261268021,-0.00468152392620161
2025/05/06 15:28:27.638080123,1746538107,633666686,piren,-0.27982016220871586,-0.06602693032391434,0.02180403652583409,0.0033970132981397307,-0.002595660856633003,-0.0029226096318830724
2025/05/06 15:28:28.179880765,1746538108,174196210,piren,-0.2596474651966214,-0.17159196667867,0.06407478564144228,-0.003181095485403527,-0.00010217025096991082,-0.0017613098517420811
2025/05/06 15:28:28.729441594,1746538108,721429840,piren,-0.2724572954962691,-0.010165744462164727,-0.004684339677769794,0.0012404851604048237,0.0018964053735784124,-0.0031485235811837754
2025/05/06 15:28:29.271733053,1746538109,264860023,piren,-0.2742521293805562,0.00856551379201883,-0.01044353042947696,8.817520399432609e-05,-0.0033000685884557,-0.003996149307095406
2025/05/06 15:28:29.836069341,1746538109,812070917,piren,-0.2707161408883617,0.006877674398720411,-0.009045294560450595,-0.0032015318163197155,0.0033771650863841417,-0.005649344599073319
2025/05/06 15:28:30.366572526,1746538110,358093422,piren,-0.27323940361684396,0.08853572639259291,-0.046310312090759906,0.0017064029534564161,-0.001772468887478016,-0.005633591547229538
2025/05/06 15:28:30.922456547,1746538110,901690145,piren,-0.25780206845215575,0.037083000749044366,-0.024283129000503067,-0.0007341792392354997,0.0012411786491520584,-0.0038515186470761843
2025/05/06 15:28:31.504708540,1746538111,497364882,piren,-0.25077040758628716,0.04849696309524952,-0.03199274303772965,-0.0015063235226083437,0.0004642182121454485,-0.0021120692421096546
2025/05/06 15:28:32.63425704,1746538112,40490452,piren,-0.23226113119926556,-0.11737253268920501,0.03933353555066731,0.0023195805743511876,-0.0009450251315729793,0.000612231434664702
2025/05/06 15:28:32.590903084,1746538112,586099753,piren,-0.22144077749308014,-0.174970907282022,0.06561584144988274,-0.0010412594741096052,0.002031792754949688,0.0038377999200435507
2025/05/06 15:28:33.137271293,1746538113,130377037,piren,-0.22154355288771474,-0.14620418484651015,0.05562886236272547,-0.0012561771696141166,-0.002117821260232915,0.007779123260212733
2025/05/06 15:28:33.682475545,1746538113,678198413,piren,-0.23883867220511054,0.07824730675474748,-0.0370780940251015,0.0010907358620766163,-9.88724414710209e-05,0.008447070640834815
2025/05/06 15:28:34.258505319,1746538114,221225160,piren,-0.24760918544752675,0.20378742553357404,-0.08974605349986631,-0.0015167134037572631,-0.0007491718121152593,0.00913997008552288
2025/05/06 15:28:34.820251791,1746538114,814314106,piren,-0.22741930776137415,0.030081671145626737,-0.010332301254960388,0.0007819060100949229,3.161982076507772e-06,0.008224807600239139
2025/05/06 15:28:35.365627587,1746538115,357564652,piren,-0.21913386755986686,0.04875213917021064,-0.019006634160314763,0.00012417533265288974,0.0010667439014926251,0.009827974550418905
2025/05/06 15:28:35.909373192,1746538115,902542083,piren,-0.20171797079674397,-0.054773764407491043,0.02674328809921442,-0.0005142112335828376,-0.001903517840166424,0.007857447597697586
2025/05/06 15:28:36.455753655,1746538116,449335002,piren,-0.18176412408301948,-0.14448282719731614,0.06182210042475639,0.0030123620009866654,0.004779752870692545,0.00914098552566451
2025/05/06 15:28:37.6944042,1746538116,993825559,piren,-0.16459086148406604,-0.205283413101915,0.08182572260577793,0.00016211756297879488,-0.004744496768959799,0.008014791752373015
2025/05/06 15:28:37.544486106,1746538117,538689930,piren,-0.17006536098560865,-0.1434456416139252,0.05497035734475035,6.11074105641742e-05,0.005759172470621716,0.007881180354837803
2025/05/06 15:28:38.113679844,1746538118,82219573,piren,-0.17598889149417082,0.024265505177163832,-0.010715671420859801,0.0024137291148433413,-0.0041609326318077355,0.005375028012040801
2025/05/06 15:28:38.710173234,1746538118,705054364,piren,-0.17227261350867556,0.06018467679869023,-0.019863536178099946,-0.002548107490597477,0.002045747262007185,0.003411455351805185
2025/05/06 15:28:39.275537329,1746538119,263148142,piren,-0.1897683287752894,0.2615885329122196,-0.1023696831060173,0.0006843114147231312,0.0010110987457744472,0.0009095570475369993
2025/05/06 15:28:39.817708218,1746538119,812300945,piren,-0.1776725846569203,0.20721726076330954,-0.07068685882247136,0.0012611374378154214,-0.005193528075707027,-0.0022055010434019647
2025/05/06 15:28:40.398074883,1746538120,362746746,piren,-0.14315459718977727,-0.04477546716902875,0.030346321772458898,0.0004191808190049011,0.006722221451686766,-0.0027218603820950127
2025/05/06 15:28:40.918696387,1746538120,913399272,piren,-0.13696829703685545,-0.058738162694680476,0.034954998162030085,0.0024617076731905194,-0.0054296380710172135,-0.0015163436047858478
2025/05/06 15:28:41.459356388,1746538121,454656478,piren,-0.11707692586382984,-0.17077597578290774,0.07523978072836371,-0.0004979767211960262,0.0047754568104474236,-0.001519951726117073
2025/05/06 15:28:42.58291018,1746538122,53323956,piren,-0.1227864325757306,-0.11294588601385808,0.049744507332052164,0.0011336401837778013,-0.0026324784128199034,-0.001182325277865438
2025/05/06 15:28:42.632225195,1746538122,597272322,piren,-0.12454834421741873,-0.04912083399640292,0.023399791549767953,0.001408198999393157,0.0011647965129832562,-0.001478924029390354
2025/05/06 15:28:43.148941468,1746538123,144011770,piren,-0.14234813991574777,0.14187241506624587,-0.05134864364820635,-0.0024284516475647075,8.997365526501064e-06,-0.0019478270321793723
2025/05/06 15:28:43.693377204,1746538123,688800744,piren,-0.143838674725475,0.19695400244913827,-0.06999548579351134,0.0009358432185318642,-0.0005427600492325647,-0.0023909587946908395
2025/05/06 15:28:44.264426629,1746538124,234600024,piren,-0.12891002165306384,0.13985273600146714,-0.04480365399855855,-0.0007211984839447952,0.0005167180650483368,-0.003445099484343026
2025/05/06 15:28:44.788153299,1746538124,784122613,piren,-0.11406850625089612,0.06325592957546208,-0.013790532210624765,-0.001374806157425279,-0.00030560186045346414,-0.003301216882405116
2025/05/06 15:28:45.356466600,1746538125,328904429,piren,-0.09888935113303854,-0.0017443475599517588,0.011198797507720366,0.003308152960130956,0.0004243067397985454,-0.003699026722511403
2025/05/06 15:28:45.930086916,1746538125,924956168,piren,-0.07966136173981761,-0.13569533296154043,0.061935580254202593,-0.003196811078895703,3.912651532337417e-06,-0.0034371027752754606
2025/05/06 15:28:46.502228369,1746538126,468524339,piren,-0.09423055406564311,0.02863734476450222,-0.006542643918398941,0.0009251919848535124,0.0005985959536937231,-0.004189611904894347
2025/05/06 15:28:47.22971977,1746538127,15479109,piren,-0.09432595507373628,0.05864066107160429,-0.015063336115393101,8.423058314142931e-05,0.001992874936094467,-0.0028688450246300273
2025/05/06 15:28:47.566104416,1746538127,560403122,piren,-0.09204728889503679,0.048872108977502965,-0.008577663490481259,-0.001843834004758071,-0.0010078215666589657,-0.00305748234819582
2025/05/06 15:28:48.146733369,1746538128,118596476,piren,-0.10444870611281623,0.1696906510135253,-0.061413307379740996,0.0013988960743257514,0.00041723817857786696,-0.0031717759086517206
2025/05/06 15:28:48.683702576,1746538128,679315577,piren,-0.08985322964022054,0.054897467233422814,-0.008944632109371242,-0.0009320242350145279,0.0005896349936628054,-0.003726427699854499
2025/05/06 15:28:49.241234305,1746538129,233862913,piren,-0.08317802434648876,-0.021448537514333704,0.0269805758834172,-0.0025919181762971664,-0.0018478273357470656,-0.004133420126127093
2025/05/06 15:28:49.843012314,1746538129,839024408,piren,-0.07569667354318846,-0.057695328751878744,0.043268918041377245,0.002743809392778986,0.0013500565180156296,-0.004590863074378645
2025/05/06 15:28:50.404718476,1746538130,391331042,piren,-0.06813020581057537,-0.12663203609940832,0.06859607596034302,-0.0027990560247882555,-0.0022059923283164963,-0.005082529676197318
2025/05/06 15:28:50.945164558,1746538130,940499796,piren,-0.07670811600796662,-0.00028444058780191517,0.01698903022660809,-0.0004812728691837658,0.0017136843612684891,-0.005845628090797833
2025/05/06 15:28:51.499825055,1746538131,488655923,piren,-0.08910881646461313,0.20535206734771266,-0.07181053039143617,-0.00024898100355823406,-0.001819503058525699,-0.005366911652215939
2025/05/06 15:28:52.51942730,1746538132,46480444,piren,-0.08805173733303456,0.22307348275849137,-0.07886987960916853,-0.0020530491787876153,0.0008721595104402565,-0.006180952322077907
2025/05/06 15:28:52.631933470,1746538132,597172603,piren,-0.07376156452987709,0.08503413566513729,-0.020571607143512888,0.0014402402514339819,-0.0014397188337072389,-0.006143696243683824
2025/05/06 15:28:53.207164151,1746538133,200685170,piren,-0.06931249887575143,-0.03505066165812393,0.028083702205260665,-0.0011615173273199781,0.0032315548993292983,-0.004826937812290092
2025/05/06 15:28:53.794020014,1746538133,755932412,piren,-0.05627523232860733,-0.05183680792702004,0.0330649448340141,-0.00093481352778701,-0.002127140959398026,-0.005240211304108735
2025/05/06 15:28:54.313241912,1746538134,308801183,piren,-0.04893385172053934,-0.05345889844861601,0.03416093948819545,0.0017809138904694914,0.001209233933133758,-0.0055269048187759
2025/05/06 15:28:54.889381374,1746538134,863984595,piren,-0.04955727941801308,-0.002859050186952733,0.012591343180248928,-0.0004919006456459699,0.00011084123574862244,-0.0065271045889890925
2025/05/06 15:28:55.419758003,1746538135,414957081,piren,-0.04593903971385736,-0.07398611119683635,0.03883966396491638,0.0012280713915559123,-0.0004028059090929834,-0.005502199543292914
2025/05/06 15:28:56.1813449,1746538135,966864873,piren,-0.04762000366840732,-0.08219644200194096,0.041540494252526525,-0.0007003348875333421,0.0006513585847829494,-0.006279521372992388
2025/05/06 15:28:56.523290340,1746538136,518124582,piren,-0.06544171887862796,0.19111363677966467,-0.06982547342188374,-0.0013083955462188975,-0.0002356380954793376,-0.006127585877220059
2025/05/06 15:28:57.140943245,1746538137,118737482,piren,-0.07159512456855702,0.2903879930303904,-0.10727666106741598,0.0013748390386592072,-2.0646811298570498e-05,-0.006974201575431718
2025/05/06 15:28:57.679928179,1746538137,675323586,piren,-0.05652098998643816,0.01510893564423016,0.010215698323963615,0.00026993327479987787,-0.0009911974355646493,-0.007577555929664326
2025/05/06 15:28:58.256836923,1746538138,228305992,piren,-0.0480319498113655,-0.13909759271095906,0.07635675997869294,-0.0013237121624469566,0.0014540695526080642,-0.00641779485060255
2025/05/06 15:28:58.786912167,1746538138,782951231,piren,-0.04728048147526317,0.041489106608833315,0.0019942582663871194,-0.00033903989610289194,-0.0005587529825172858,-0.0066377547713572784
2025/05/06 15:28:59.355740073,1746538139,335629065,piren,-0.04747673636925321,0.14251952868585277,-0.03870366173228437,-0.0009402307295895641,6.245697048865187e-05,-0.008044776665495846
2025/05/06 15:28:59.923241623,1746538139,915238012,piren,-0.04905440788784255,0.20050205885008865,-0.06418651199421231,0.0013635228047312498,-0.002750929604495984,-0.008648576527239356
2025/05/06 15:29:00.495802389,1746538140,477430747,piren,-0.04859683677491341,-0.002588474624053261,0.02453651301093432,-0.0011752364672733848,0.001171526958014569,-0.01063650830378196
2025/05/06 15:29:01.83028604,1746538141,78033797,piren,-0.0502404518882937,0.057654527936029196,-0.0028975054063446297,0.0003077025446022612,-0.0005365694706096277,-0.008955272148581285
2025/05/06 15:29:01.640781242,1746538141,628533801,piren,-0.04683502363195623,-0.012830160134899113,0.028811488099213082,0.0003750983783842324,-0.00020399596268682585,-0.008257426044944048
2025/05/06 15:29:02.202556104,1746538142,189930386,piren,-0.044574312159238266,-0.05804610746158657,0.04646200597912207,-0.0015207322036401795,0.0008640043260429564,-0.006955574733809324
2025/05/06 15:29:02.823483070,1746538142,783405894,piren,-0.046937641552585424,0.09449456637780743,-0.023099884753149356,0.0005423322897088764,-0.00107923685321447,-0.007307756993199875
2025/05/06 15:29:03.344405065,1746538143,335767876,piren,-0.044065257955253054,0.17235951203761063,-0.05926337980868955,-0.0002169087522053308,0.0017216674041615509,-0.006490158447418338
2025/05/06 15:29:03.899454610,1746538143,894984086,piren,-0.04439860503721285,0.16685370654699938,-0.056823452107064486,-0.0013952073378291844,-0.001572149719987562,-0.005976173597306882
2025/05/06 15:29:04.516155167,1746538144,501655259,piren,-0.045230110147894825,-0.0231963547691518,0.029747527699046282,0.00029940089146050493,0.001759446004479948,11.206270783703198
2025/05/06 15:29:05.89464462,1746538145,84384932,piren,-0.3488940037773315,-0.21580237783882664,0.0861875886612724,5.624848540718488e-05,-0.0016622906846287294,-0.007367627681560295
2025/05/06 15:29:05.662231244,1746538145,649921325,piren,-0.15086047971576558,-0.09853797637515498,0.05943962820912761,0.00038324253646316583,0.0009715555730515035,-0.00803797552063342
2025/05/06 15:29:06.216472951,1746538146,210278076,piren,0.07132248506927713,0.02780519807556657,0.021196594445869535,0.0010499581239571418,-0.0014567316157368738,-0.008185612744508977
2025/05/06 15:29:06.793113917,1746538146,766726337,piren,0.15751328634296474,0.010503957907076533,0.026379367181754702,3.173608563523884e-05,0.0063967824103980525,-0.0059934929217761255
2025/05/06 15:29:07.319996809,1746538147,315512528,piren,0.12955183538974813,0.016273608802885343,0.013557943267004718,-0.000595231772528267,-0.0025602719636202047,-0.003967109807327734
2025/05/06 15:29:07.877371630,1746538147,869448935,piren,0.03741935508251151,0.2292638048352731,-0.0820756870877064,-0.0003051496133661063,-0.0005742787857524262,-0.005262864312398133
2025/05/06 15:29:08.491548381,1746538148,484696036,piren,-0.06179152133440731,0.12281725567067979,-0.04040104795602222,-0.00046630890219537155,0.001896349668965819,-0.005652014637077555
2025/05/06 15:29:09.46065645,1746538149,36836349,piren,-0.11656868814934533,0.05190663519592846,-0.007401339083708623,-7.548778431860441e-05,-0.003347456794817336,-0.006573159616999889
2025/05/06 15:29:09.594906802,1746538149,589850663,piren,-0.11586760125232977,0.013378446503475347,0.011708828539033246,-0.0004331117922463189,0.004282136735569716,-0.00628981913908579
2025/05/06 15:29:10.156517346,1746538150,149908782,piren,-0.08343126479066959,0.0027086338097436196,0.017960864982465265,0.000660928978599007,-0.002620441880663955,-0.007036637203830883
2025/05/06 15:29:10.728601238,1746538150,718520243,piren,-0.03706548054437881,0.02172249063451119,0.013189933298166593,-0.0006611800767457128,-0.0011401095066092411,-0.00836401086943951
2025/05/06 15:29:11.286543996,1746538151,272726177,piren,-0.010239095180122247,0.04625091257416926,0.0043891046913627045,0.0002153729503611224,0.0012160020158160814,-0.010463641362842805
2025/05/06 15:29:11.836199104,1746538151,831082015,piren,-0.003067351011850049,0.06487725246493056,-0.003198230480489711,0.00022524972095987948,-0.0034673534769498913,-0.011328613918388911
2025/05/06 15:29:12.464408821,1746538152,436148713,piren,-0.016627705686959968,0.07188552563829972,-0.005916956404578682,-0.00034362566900217865,0.0013764834712952736,-0.010793997445615301
2025/05/06 15:29:13.8038840,1746538153,3754454,piren,-0.027855195333767922,0.07128731080765675,-0.009086345652582222,0.0022717532565948192,0.001658777439566489,-0.008570923452810783
2025/05/06 15:29:13.562646133,1746538153,557384479,piren,-0.04962351160738727,-0.05650508247344958,0.03826821427417836,-0.0014659514694746062,-0.0023869150605628268,-0.008589028662721123
2025/05/06 15:29:14.116307544,1746538154,111738363,piren,-0.05008308195337995,0.009370743735553619,0.012078371745910307,-0.0006662468388471009,0.0021822088613208295,-0.007258109078387952
2025/05/06 15:29:14.670060546,1746538154,664151113,piren,-0.044039592911439836,0.06663028854673059,-0.01005375572609335,0.0014891108423346305,-0.0013015155567067762,-0.008430727806334543
2025/05/06 15:29:15.227646331,1746538155,218772165,piren,-0.03174258625708681,0.13148813561424533,-0.03606561587727039,-0.0006994013635037921,0.0009005301412813936,-0.007307755426191868
2025/05/06 15:29:15.852006577,1746538155,824600971,piren,-0.027892408970273765,0.10614148300055633,-0.024876016574587285,0.0015410362118191342,-0.000844225472706845,-0.007893463977233445
2025/05/06 15:29:16.394186036,1746538156,389611292,piren,-0.026818709870394388,0.06720026414345769,-0.007821301063406769,0.0006138266071200796,-0.002760119661586617,-0.007139179229835323
2025/05/06 15:29:16.977466060,1746538156,945743956,piren,-0.03762220867151846,0.036956038245625975,0.003524604541911282,-0.0004048915310500843,0.0042729199147371775,-0.005580471969071824
2025/05/06 15:29:17.508538624,1746538157,504439563,piren,-0.03566484741318127,0.007685352345788786,0.015179483008362206,0.0006824943580993553,-0.004079218661422994,-0.006179575856557439
2025/05/06 15:29:18.70267812,1746538158,60408732,piren,-0.03410436789304149,0.008549483648176035,0.016042369972702808,-0.0005697485897459991,0.0026714851970470205,-0.007657462850262752
2025/05/06 15:29:18.627209612,1746538158,621081483,piren,-0.03261048281869953,0.028434757986770205,0.008855636828782744,0.0002688361019386539,-0.0026479989389132288,-0.007643963339527028
2025/05/06 15:29:19.186154013,1746538159,178037778,piren,-0.031845249962179516,0.05416876244953557,0.0003536195729696018,0.00021570606643786177,0.0010596911977370912,-0.009251373873760538
2025/05/06 15:29:19.791865684,1746538159,786659819,piren,-0.030919805325038033,0.06720533844595622,-0.0052410186246659015,-0.00044663365649163383,-0.0007666111108752606,-0.008368507240928741
2025/05/06 15:29:20.364655111,1746538160,343516015,piren,-0.029753263758265893,0.07103750585451991,-0.006518510997434919,0.000516670966472129,-0.0003098172362105089,-0.008171907252098336
2025/05/06 15:29:20.919909796,1746538160,911719041,piren,-0.029869665554451422,0.06268130256048637,-0.004182005321790957,-0.00033970760452812316,0.0006232495240004684,-0.007433937949266839
2025/05/06 15:29:21.499038023,1746538161,467013137,piren,-0.0324040826542383,0.05368526354941453,-0.0008111509120935132,-3.7655872997429552e-06,-0.0008032521777072693,-0.008593545379875691
2025/05/06 15:29:22.40671237,1746538162,36333489,piren,-0.03302720755323171,0.0462104029443711,0.0017917629453483774,0.00034229902627387046,0.0012107145201477737,-0.007932099192905787
2025/05/06 15:29:22.601996766,1746538162,593340821,piren,-0.03196938599162386,0.04352548262040758,0.0025624827742147392,-0.000398517109270757,-0.0009255785192148491,-0.007232293747764882
2025/05/06 15:29:23.174884859,1746538163,164680725,piren,-0.031241546168893915,0.04490256861895462,0.0018062209126609862,0.00037670101225231755,0.0007418892273540284,-0.007644479384984805
2025/05/06 15:29:23.778077518,1746538163,771602056,piren,-0.02921489477785108,0.0477613565467894,0.000174283375149823,0.0006200586625483497,-0.00025441371201965444,-0.0074635703999910395
2025/05/06 15:29:24.338578364,1746538164,334197401,piren,-0.02593470563797346,0.059290469142934246,-0.0047889972883650555,0.0007042965330334301,0.00018949286972101554,-0.007370547950664143
2025/05/06 15:29:24.902567297,1746538164,892343812,piren,-0.04381733419982047,-0.055710394249080905,0.0402096022609621,-0.0003890250260802959,-0.00013769659903029136,-0.006891258152122507
2025/05/06 15:29:25.453826353,1746538165,448682686,piren,-0.03421019573088379,0.01661777083309092,0.013406113357004475,-0.0011400280051190998,0.00012027389033083491,-0.007549334080439985
2025/05/06 15:29:26.16913498,1746538166,6524906,piren,-0.005371137311203349,0.1927950445787704,-0.062001724319539694,0.0008305016391238142,-0.00019885533152342512,-0.00725851291455029
2025/05/06 15:29:26.572896131,1746538166,567249747,piren,-0.014776939104512714,0.14349559310358045,-0.036319768831094196,0.0007980978968398087,-0.00011159621902393955,-0.008195103302370036
2025/05/06 15:29:27.195068507,1746538167,171562449,piren,-0.026212905437523297,0.06859018780141951,-0.002467608636902513,0.000574696390704774,0.0008847015086824903,-0.008358085397826369
2025/05/06 15:29:27.734461244,1746538167,727336817,piren,-0.0318433848977289,0.014135235969115735,0.020268960422612108,0.0010652530576952292,-0.0005199457635516655,-0.008633753914873938
2025/05/06 15:29:28.291753032,1746538168,282544073,piren,-0.05438990620586955,-0.11902304973709732,0.07201263958228328,-0.000850894993651771,-0.0006020287490977907,-0.008219359525201132
2025/05/06 15:29:28.849624700,1746538168,843460513,piren,-0.040692593036601096,-0.028733665919343995,0.03566130497103597,-0.0008418947944590211,0.0005298574602255759,-0.008793881067459536
2025/05/06 15:29:29.400795893,1746538169,395176776,piren,-0.002288419082469406,0.18075300119671767,-0.05561652729946313,0.0008666222530443532,-0.000590943861503357,-0.007946412157106415
2025/05/06 15:29:29.984617151,1746538169,952583478,piren,-0.008295236736466538,0.16512807058156825,-0.04550426994634779,0.0006619143235934957,0.00037792526528481016,-0.008742769287139743
2025/05/06 15:29:30.518487737,1746538170,513507635,piren,-0.043686548312416196,-0.017035492043623562,0.028891405075857607,0.0011232591105303552,0.0008186834048763439,-0.007074691046188543
2025/05/06 15:29:31.129633674,1746538171,119952733,piren,-0.05732646052733762,-0.10080426812150985,0.06246195746424785,0.000764556630598205,-0.0007918666403580156,-0.00816529284197008
2025/05/06 15:29:31.676503433,1746538171,671845388,piren,-0.05242164757132705,-0.08753365630413977,0.056557792068142904,-0.000855533857475993,0.0006801653875939341,-0.008193982850596542
2025/05/06 15:29:32.246288520,1746538172,228607139,piren,-0.017097231369870868,0.07948684998814347,-0.009803575057318353,-0.0005660488225462832,-0.00032823925359859495,-0.007573415247787366
2025/05/06 15:29:32.789588949,1746538172,785099081,piren,0.02680799808558767,0.2891102685007812,-0.10025793287808415,0.00048493482125235563,-9.344921075387082e-05,-0.007005677926982076
2025/05/06 15:29:33.367352521,1746538173,339990373,piren,0.010315505343806208,0.2221747078004231,-0.06939014170465843,0.0009529471388151334,0.00013137672573214227,-0.00755005684307141
2025/05/06 15:29:33.903772672,1746538173,898073992,piren,-0.04143213972238264,-0.01213123432216856,0.027053021618061182,-0.0006152868554173675,-0.00024051622506411489,-0.0070962698867318335
2025/05/06 15:29:34.480980757,1746538174,457050397,piren,-0.04508018095202679,-0.03571799757664815,0.0389205961240984,-0.0012727762343276144,-0.004532119739507444,-0.006858786637290051
2025/05/06 15:29:35.65300249,1746538175,59337259,piren,-0.01907747060517941,0.0966161364269286,-0.023360485794011697,0.0007273310688655845,0.008074119114200277,-0.0011258930780152843
2025/05/06 15:29:35.632353029,1746538175,618063530,piren,-0.014612442155157264,0.07184907711207447,-0.013994433545622275,4.539363227409791e-06,-0.00705921275699324,-0.0013467414654645116
2025/05/06 15:29:36.179498760,1746538176,174509190,piren,-0.01282823299457014,0.04954278435693627,-0.003579714473621298,0.0009751578011004329,0.0059598035985478845,-0.0018852148953760253
2025/05/06 15:29:36.741569137,1746538176,732107044,piren,-0.03994395823137857,-0.10074192021193051,0.056564150969001206,0.0007635879943134395,-0.0031815404456695673,-0.0017503594764050395
2025/05/06 15:29:37.301650531,1746538177,296382700,piren,-0.016757251266971807,-0.021271045699085916,0.02817449106507846,-3.4004502146074655e-05,0.002019709278311851,-0.0016822655204806406
2025/05/06 15:29:37.878595974,1746538177,852470610,piren,-0.017174949153149655,-0.04721359746131351,0.03856344623046029,-0.00026340805923877537,0.0013167565271677906,-0.00268859952673877
2025/05/06 15:29:38.478275255,1746538178,468778986,piren,0.016971677638776224,0.08791455780051396,-0.01012239855937748,0.0006195682737559184,0.0003884455497283772,-0.0032192075511877603
2025/05/06 15:29:39.140362240,1746538179,132387174,piren,0.04657959995547606,0.19418278301768654,-0.048161433393305066,0.0015971604195049646,-0.0006156056063145292,-0.004258632738861875
2025/05/06 15:29:39.699085174,1746538179,692730207,piren,0.024993743375398825,0.10627018008190166,-0.003394409631384772,0.0019874207875413643,-0.0015550275929129037,-0.004465362076503266
2025/05/06 15:29:40.272596661,1746538180,259887304,piren,0.013605421397415175,0.05474406800590291,0.025021369841828702,-0.0005327431966675023,-0.00032545161180008736,-0.005739632006484151
2025/05/06 15:29:40.851476957,1746538180,824392351,piren,0.059129301813755204,0.2639211104648442,-0.05777468055303975,6.257230553277085e-05,-0.0007688159164857534,-0.006657162414372007
2025/05/06 15:29:41.393736667,1746538181,387871938,piren,0.07750913089266794,0.33478142026706365,-0.08552131782729175,-0.0018067050190506994,0.0002366846799657936,-0.010456651515354584
2025/05/06 15:29:41.956912905,1746538181,951677945,piren,0.06428484865450662,0.2743482850489275,-0.0567364203332309,-0.001621544892580055,-0.0018222401841691547,-0.01158657768045952
2025/05/06 15:29:42.573464073,1746538182,565851528,piren,0.015605993303507044,0.04675323609585605,0.04180642487003802,-0.0013648515244141768,0.0014626032263236296,-0.012080559359391991
2025/05/06 15:29:43.135762121,1746538183,129612797,piren,0.02764788735335095,0.04993240120202274,0.03599854647056177,-0.0017885708555167796,-0.0007778857678364497,-0.014338019175608693
2025/05/06 15:29:43.696600338,1746538183,688213453,piren,0.012476415069705024,-0.019752174570566848,0.06695800319243453,0.0005093756455206197,0.0016801979682238655,-0.013699931625154134
2025/05/06 15:29:44.260010131,1746538184,251173815,piren,-0.011938736410183639,-0.08370032618208795,0.09408441579887615,0.0016969082627729208,-0.0026018650327235427,-0.015661410879771055
2025/05/06 15:29:44.820967182,1746538184,814021656,piren,0.005465184200830104,0.010423837349935933,0.06033953382396945,0.0014941848658724143,0.0024919446454765713,-0.0157332893909727
2025/05/06 15:29:45.407376129,1746538185,377195106,piren,0.036965401261204886,0.14071880401725168,0.012029740987692043,0.0017675481681736576,-0.0049484025743059875,-0.020074340948854734
2025/05/06 15:29:45.997845205,1746538185,990124977,piren,0.1009898849065852,0.3533095186084668,-0.07091871790664739,0.0011574160461823718,0.004492145283552644,-0.019582209096871032
2025/05/06 15:29:46.564846281,1746538186,559407307,piren,0.12763580996534107,0.40986197785523504,-0.09299520473547906,-9.848571042002002e-05,-0.00326221102025382,-0.021619414779951142
2025/05/06 15:29:47.128298124,1746538187,122259723,piren,0.14727780566463514,0.43589011598223837,-0.10685761154991999,-0.00023193307017451117,0.0038148417016176032,-0.021495873147966457
2025/05/06 15:29:47.716567085,1746538187,687592428,piren,0.1312651081761036,0.34269268225471056,-0.06887168390763014,-0.0018312427768508188,-0.0010427588239737527,-0.02315566154205172
2025/05/06 15:29:48.262508090,1746538188,256270161,piren,0.08631268074104845,0.21555849596311452,-0.004916896954955008,-0.0011923061472079329,0.0006214446219779174,-0.02649125979028572
2025/05/06 15:29:48.841723347,1746538188,817490758,piren,0.016735013323978268,0.028561097280544706,0.08942647823284965,-0.001645132495795551,-1.2572939415998653e-05,-0.024728746926943598
2025/05/06 15:29:49.385769660,1746538189,381037297,piren,0.0025695862038904987,0.01304500773662803,0.11022165665611801,0.0002632692353321382,-0.0036702161439414473,-0.030447843372377516
2025/05/06 15:29:50.23706419,1746538189,992069445,piren,-0.006404767615549286,0.032964292317410944,0.1079109483372418,0.0003929194656101974,0.0035454982464847634,-0.028246876779979013
2025/05/06 15:29:50.561301985,1746538190,556949514,piren,0.03482841559198313,0.15439956946806924,0.058467822722086775,0.0013767714547892808,-0.00862481695074378,-0.028955616920814005
2025/05/06 15:29:51.131704799,1746538191,120715069,piren,0.09118290086239575,0.3071421906608524,-0.007576543912255436,0.001937093277650058,0.007083497851088623,-0.026394526712745503
2025/05/06 15:29:51.692469538,1746538191,688628388,piren,0.12320288898868093,0.3914361074201682,-0.04618799547223013,0.001435435104111655,-0.004854791531698521,-0.029593587557750285
2025/05/06 15:29:52.261856629,1746538192,252597030,piren,0.1924792396019715,0.4952841986133538,-0.09718814808660867,0.00010352298394941258,0.005010478589402997,-0.025039142140284534
2025/05/06 15:29:52.826815476,1746538192,820766991,piren,0.20648770715793072,0.47497515259392487,-0.09640311506209599,0.0009152597461402514,-0.0031156554296354086,-0.02053720776002505
2025/05/06 15:29:53.391660665,1746538193,383818754,piren,0.09304779882818404,0.23427398708549876,0.010137520209968678,-9.211151817596161e-05,0.0008730813246216636,-0.018471115661336017
2025/05/06 15:29:54.2493929,1746538193,998171422,piren,0.045483752026303066,0.14364915367004902,0.05235150852038379,0.0006059101310878972,0.0010521877113775892,-0.018199407387087127
2025/05/06 15:29:54.570713996,1746538194,560999463,piren,0.07416588066776096,0.19457924247444713,0.03355981773607594,-3.520196536596367e-05,-0.005075466373500312,-0.01644411553760282
2025/05/06 15:29:55.130153314,1746538195,126069071,piren,0.09842821692655018,0.2515508496899205,0.0060899817603983185,3.0489323495847992e-06,0.004686667554160475,-0.01279814677664217
2025/05/06 15:29:55.730126153,1746538195,690776468,piren,0.15351801543738514,0.3711863963723321,-0.05369823780061318,0.00043910001001683246,-0.0050167007386717885,-0.009825528739143434
2025/05/06 15:29:56.260181428,1746538196,255207156,piren,0.06298656083804456,0.2103724918688844,0.015299735628210465,0.00040101528905315935,0.002323803000003191,-0.007497616571601492
2025/05/06 15:29:56.815684021,1746538196,812662230,piren,0.07498482221408306,0.21336377951220167,0.00807182599635622,0.0007031657997177373,0.0010415801781878686,-0.0024240070902922157
2025/05/06 15:29:57.439952145,1746538197,434990374,piren,0.09261465378435826,0.22673623272803564,-0.00189445529595199,-0.00020828929476197355,0.0031274154776714334,0.0009229080609150232
2025/05/06 15:29:57.998586892,1746538197,992872798,piren,0.04008837320607239,0.11816765002290634,0.040448266838582235,0.0009929740740662496,0.0006121595068307257,0.003497965142309022
2025/05/06 15:29:58.614983728,1746538198,571726281,piren,0.1021583392966026,0.22370723151148053,-0.0015551770228120348,-0.0002580004578192566,-0.0012914090350375593,0.004939186451242209
2025/05/06 15:29:59.197706916,1746538199,187833449,piren,0.1882557200429805,0.378388111537743,-0.07549972074135938,-0.0009585260305324863,0.00022893983204687462,0.00512363891900941
2025/05/06 15:29:59.794633687,1746538199,784092557,piren,0.19736041623054956,0.4098417472665919,-0.08275351305425489,0.0004683634751933174,-0.001193759939399404,0.005490766781563436
2025/05/06 15:30:00.366104741,1746538200,353917645,piren,0.05255683967943736,0.14614155636968507,0.0419661941309266,-0.0010443706372456256,0.003845937956376912,0.005071970683487205
2025/05/06 15:30:00.929048910,1746538200,924163158,piren,0.0980247819626133,0.21792420937117685,0.008930248215606916,-0.0008277464614019821,-0.003799920467355533,0.004089396296372502
2025/05/06 15:30:01.549146214,1746538201,544086498,piren,0.13713748650329802,0.266852285964615,-0.016566721970977714,-0.0007299276519115701,0.005939807928854396,0.004171923060482878
2025/05/06 15:30:02.119996967,1746538202,111358646,piren,0.15428655521545845,0.28414699213167344,-0.025485712664433766,-0.000334549335411172,-0.006781047426638791,0.0034590480281040726
2025/05/06 15:30:02.688027349,1746538202,682153767,piren,0.09626475846239411,0.1807711071804538,0.02976364713927898,0.000205314379138501,0.004844147151655615,0.002747426158176181
2025/05/06 15:30:03.254940954,1746538203,246600888,piren,0.0732367159883783,0.13356689687639167,0.0511424528480345,-0.0005623517530332272,-0.0031740661902258495,0.0009616102742146292
2025/05/06 15:30:03.848756841,1746538203,818089993,piren,0.13670740625998445,0.25691763596391914,-0.010748168867560054,-0.00044650762483268745,0.0014510431585780205,-0.000492240567122682
2025/05/06 15:30:04.390419348,1746538204,385717278,piren,0.17214052683352787,0.3110397229017513,-0.04509783047914753,0.0019800507658731497,1.7230365462853642e-06,-0.0017157026707225944
2025/05/06 15:30:04.977541186,1746538204,952820425,piren,0.07004427996744239,0.1282402933875806,0.03977135965584691,0.0001818147831175263,-0.002722741804246138,-0.0023418398939231
2025/05/06 15:30:05.575826720,1746538205,570783352,piren,0.07741549430279561,0.12976780934336654,0.03522883286878138,0.0021556139497105565,0.005190211201880476,-0.002941943937128326
2025/05/06 15:30:06.151806781,1746538206,145012997,piren,0.05676858571450835,0.0819004239774136,0.054899196414470566,0.0001485118142426002,-0.007872940980633496,-0.004000500534412073
2025/05/06 15:30:06.719074927,1746538206,710583386,piren,0.12153146124701421,0.19184799352065107,0.005138658285707483,-0.0004163388289918922,0.0055600450489369764,-0.004903437667798203
2025/05/06 15:30:07.284530591,1746538207,276624849,piren,0.21258650910822366,0.3627112951843179,-0.07745220599712632,-0.0006124671602457625,-0.004895173843239908,-0.006457738422062316
2025/05/06 15:30:07.855049671,1746538207,846368085,piren,0.23460264307104847,0.4026892112856336,-0.09637341001649333,-0.0004347852698041382,0.002588318506266005,-0.007817329051599086
2025/05/06 15:30:08.431290958,1746538208,419534937,piren,0.13318381683975572,0.22766331433640574,-0.009707590568873187,-0.0002627028649584373,-0.002214854205206332,-0.008218938401469792
2025/05/06 15:30:09.71755971,1746538209,42641099,piren,0.06099506069958849,0.10524161981934471,0.05048098420305299,-0.0005286011667272873,0.0012240349144467119,-0.01108461988281204
2025/05/06 15:30:09.614726790,1746538209,609143733,piren,0.04149760119639765,0.05949917911493744,0.06680615156085187,-0.0002245706639723859,-0.0016631178609596952,-0.01063597108501146
2025/05/06 15:30:10.211418450,1746538210,178007843,piren,0.06354423684533728,0.09640267016943713,0.04515745465807845,-0.00025900753505973145,-0.0002981810395451461,-0.014599944921001827
2025/05/06 15:30:10.751823616,1746538210,746647310,piren,0.03641711664713554,0.05027289856097983,0.056290507631246586,-0.0002105563174781822,0.0026118657975797398,-0.01499298572982914
2025/05/06 15:30:11.323670900,1746538211,313266361,piren,0.1218853105038765,0.1801213160215872,-0.0067859139605241925,-0.00022717749346809463,-0.003404811279391849,-0.015300040630932911
2025/05/06 15:30:11.900249120,1746538211,894043679,piren,0.17173677373903087,0.2564555348922119,-0.04383623215727312,0.0011066834503045185,0.004393373060652759,-0.019976992291288822
2025/05/06 15:30:12.464147699,1746538212,458108050,piren,0.19352469360496838,0.2863221633379459,-0.05614055129330659,0.001093485031000689,-0.005633569263719239,-0.02050433768687264
2025/05/06 15:30:13.82120272,1746538213,77448089,piren,0.16870472113637375,0.24428470159218765,-0.033951446318852024,0.0011196176043702978,0.003162625704047212,-0.02089568399379854
2025/05/06 15:30:13.643805290,1746538213,639300655,piren,0.13673015090830673,0.188704636741432,-0.005760238964237139,0.0010274551817174033,-0.003576774316032979,-0.024650897676460386
2025/05/06 15:30:14.234773887,1746538214,206031656,piren,0.10849120706257095,0.14557482141044664,0.015439600291242916,-0.0002914843074413836,0.001527439678062794,-0.0231159131607225
2025/05/06 15:30:14.776270750,1746538214,772501819,piren,0.07966205273410237,0.11412389820598098,0.0299898549366604,-0.0005457989634866398,-0.001744860004717986,-0.027156881286695907
2025/05/06 15:30:15.451833627,1746538215,436962935,piren,0.0799374259096116,0.12228686958110363,0.023615179067154334,0.001164214615544135,0.0020263928639614355,-0.026946154481295417
2025/05/06 15:30:16.9026442,1746538216,4844543,piren,0.11122060573502535,0.1487060862973073,0.0011216386118694938,-8.986063346432021e-05,-0.0006707910154628306,-0.02521239599682659
2025/05/06 15:30:16.583024191,1746538216,574316286,piren,0.11497697657800968,0.16255313389601786,-0.007689539528198926,-0.00135061654495938,-0.00030521926839052906,-0.027072637089327712
2025/05/06 15:30:17.200529928,1746538217,193280479,piren,0.17836934585852798,0.23673899805035095,-0.05523995519022712,-0.0010680566129915483,0.0010390336475207148,-0.026897583291549346
2025/05/06 15:30:17.786785629,1746538217,759872895,piren,0.18468763763357895,0.2353931322898467,-0.059715558615308806,-0.001105146536364359,-0.0025356011624791605,-0.02587025506577317
2025/05/06 15:30:18.336859084,1746538218,331104909,piren,0.1501629965023316,0.1871299631509834,-0.03798563865425336,0.0019729417208474566,0.0030814249005178384,-0.025282604410570557
2025/05/06 15:30:18.932292491,1746538218,899879883,piren,-0.04228753743832345,-0.029011518839160394,0.0789128758192065,0.00013020407769486416,-0.0021710412732118723,-0.02175606148831504
2025/05/06 15:30:19.477028738,1746538219,472744918,piren,-0.12467591350882644,-0.11440397092178439,0.12325133376333226,9.006542994481789e-05,0.003004367603943347,-0.023075915241912187
2025/05/06 15:30:20.44257089,1746538220,36861528,piren,-0.004944471320549884,0.003704010077581782,0.05211456742089965,-5.155116422805717e-05,-0.00046888569649505666,-0.021996777706028803
2025/05/06 15:30:20.674017270,1746538220,665856668,piren,0.11044695355367407,0.12499018191133532,-0.01904877774168788,-0.0006531884381475616,0.0002208227401662553,-0.02028693065498477
2025/05/06 15:30:21.232745475,1746538221,227480477,piren,0.07756858149114162,0.09576122275239018,-0.0095677289289933,-0.000337440317282058,0.0011755737376212831,-0.02191982585114081
2025/05/06 15:30:21.807839059,1746538221,802731677,piren,0.22437990959574602,0.2368519384821417,-0.09659693733626915,0.0009811442751753896,-0.0017704613495257994,-0.01958825140891203
2025/05/06 15:30:22.384366703,1746538222,376848266,piren,0.17288269040336712,0.1872046991575195,-0.06330829682337066,0.0013007385889104695,0.0028702332212078283,-0.020471794962097074
2025/05/06 15:30:22.954486852,1746538222,947965696,piren,0.09931215054361969,0.1031025021957254,-0.01503039080581365,-0.0008974657208666537,-0.003876134271544576,-0.020119766759068423
2025/05/06 15:30:23.529332737,1746538223,523876093,piren,0.026923044202022045,0.03910914709840714,0.02146527490015495,7.044615280474422e-05,0.004430241234973448,-0.015992072344332753
2025/05/06 15:30:24.103630904,1746538224,96226145,piren,-0.026930162142206913,-0.003166850503520738,0.04396988538647918,-0.0007783277038119159,-0.003397376191288025,-0.01663136341761918
2025/05/06 15:30:24.732938040,1746538224,726692971,piren,0.05423569918189101,0.07122607101105193,-0.012354567340876546,-0.0007912390646920727,0.004584741595766805,-0.012602230289569897
2025/05/06 15:30:25.324923724,1746538225,297940724,piren,0.01567304445311534,0.03168338388068211,0.008625904569385917,-0.0007496971736440282,-0.004220274742204026,-0.010481585639234185
2025/05/06 15:30:25.871760327,1746538225,866211281,piren,0.08791622227704507,0.09816481524212636,-0.03413597306681473,-0.0008537445763493555,0.004379474953733198,-0.009490191123628844
2025/05/06 15:30:26.444411827,1746538226,437100501,piren,0.11321370290065758,0.11836924818462707,-0.046735243202659954,0.0008723522633476775,-0.002014037554435074,-0.008575055592412652
2025/05/06 15:30:27.26729771,1746538227,11573840,piren,0.022130752076373453,0.048744136637333804,0.010614798846949623,0.0005894390325814111,-0.00195084467039687,-0.00856464161432208
2025/05/06 15:30:27.583900317,1746538227,579932861,piren,-0.12335527984046123,-0.06904458711419405,0.08804006993091612,0.001102704242748137,0.0019789390338526675,-0.008965134141321196
2025/05/06 15:30:28.163170191,1746538228,151735528,piren,-0.1455045922470613,-0.08537315653925301,0.0988101999637697,-0.0008291151905497463,-0.0034639462688839983,-0.008957740024804643
2025/05/06 15:30:28.802918340,1746538228,773651850,piren,0.007681645572893525,0.03494089038927145,0.016503047796254014,0.0011080622575864046,0.007654874663099212,-0.00557363025365996
2025/05/06 15:30:29.348603477,1746538229,343440195,piren,0.03597814065037752,0.053166991728040236,-0.005449753375260821,-0.0006767981185960737,-0.006337930078045387,-0.005161301112180841
2025/05/06 15:30:29.917964285,1746538229,912857607,piren,0.1291530581144802,0.13350358237021343,-0.055364655416418024,-0.0012021676375587101,0.002736291426371922,-0.005669689547282703
2025/05/06 15:30:30.492759791,1746538230,485955845,piren,0.225107060437313,0.21411686392771176,-0.11272992793346454,-0.0005139727695741474,-0.0014767502062635115,-0.0062858922378465415
2025/05/06 15:30:31.68428007,1746538231,58165171,piren,0.2022423842433458,0.19527162828449096,-0.100022006846295,0.0004558014112572122,-0.0009245374105955114,-0.006286423410169359
2025/05/06 15:30:31.634130483,1746538231,628800106,piren,0.022899615844199084,0.04869812778079055,0.0004633035845747341,0.0008371628784672162,0.0019293846896057077,-0.0057184398278202035
2025/05/06 15:30:32.269715779,1746538232,255097735,piren,-0.0904189431543269,-0.043166474188682816,0.06458883557720205,0.0007541858566229064,-0.0022342273183847553,-0.005618102989221817
2025/05/06 15:30:32.836778237,1746538232,832568161,piren,-0.10990010593859513,-0.06036784252596529,0.0744655636083093,0.0005945590875375105,0.002881856832582444,-0.005592689635884853
2025/05/06 15:30:33.433443140,1746538233,402335272,piren,-0.06393717427686132,-0.01979633343589679,0.047947491992016235,0.001077994891615432,-0.003145640751403426,-0.005669388008526421
2025/05/06 15:30:33.977822534,1746538233,973945701,piren,-0.08340110467124723,-0.03418016220734838,0.05363199058886335,0.0007314989791241772,0.0026544115594113226,-0.006253038295052151
2025/05/06 15:30:34.545908769,1746538234,541121201,piren,-0.0484340713899197,-0.006722360584944308,0.03381402680810316,-0.0005455386524648184,-0.0019820837068094,-0.00647544442583529
2025/05/06 15:30:35.118531554,1746538235,110614061,piren,0.08979638985997587,0.1037655215738147,-0.03319947235261674,-0.0009108501962065557,0.0013798403478814697,-0.006774294151569719
2025/05/06 15:30:35.692759611,1746538235,684148494,piren,0.14827519237373996,0.14669995878007344,-0.06148019862649422,-0.0007027136983176422,-0.00037957845929475467,-0.008306504289208278
2025/05/06 15:30:36.309289575,1746538236,305267750,piren,0.21741508375253066,0.19609828550478656,-0.10159640817076424,-0.0009809312086812177,-3.181950601123097e-06,-0.007523689265556124
2025/05/06 15:30:36.904951493,1746538236,873620492,piren,0.16663031496164,0.1509110905677068,-0.07885658292057927,-0.0007502945184986114,0.0016530690653455756,-0.006967915049429548
2025/05/06 15:30:37.450924708,1746538237,447040132,piren,0.06823280740968618,0.07453336725616343,-0.029595167157168825,0.0006158535791705114,-0.004395453247586664,-0.006289916356518895
2025/05/06 15:30:38.49553572,1746538238,16231832,piren,-0.10129438618664574,-0.05623532484764775,0.060644644902888095,0.0008527115592885254,0.004437066337875116,-0.0034297015482281402
2025/05/06 15:30:38.615172877,1746538238,606084494,piren,-0.16000257226773976,-0.09275652592350463,0.09125065879039174,-0.00016390859378787997,-0.004552393626311301,-0.004422088328083328
2025/05/06 15:30:39.236520556,1746538239,200381136,piren,-0.12508669452608923,-0.05952105409705775,0.07191344006295967,0.0014023556171009009,0.003988535308508572,-0.004393915348082403
2025/05/06 15:30:39.779180898,1746538239,774178294,piren,-0.1181906847493334,-0.05013002158166211,0.06333755143027749,0.0007397050432368408,-0.00345854677548893,-0.004442183755822452
2025/05/06 15:30:40.407437273,1746538240,394000249,piren,-0.028131947843212074,0.01477669004839361,0.01726618885477057,-0.0002919290631852166,0.0030220708989627783,-0.004393827239093351
2025/05/06 15:30:40.970577782,1746538240,966486443,piren,0.20163723899490865,0.17493877734423283,-0.10167761006711146,-9.883576810189372e-05,-0.0022425289756857073,-0.004122498943834675
2025/05/06 15:30:41.574596830,1746538241,541647822,piren,0.17081727188488036,0.14901228776129816,-0.07953114404020546,0.0002514890976994133,0.0020220162354347075,-0.003769790353577265
2025/05/06 15:30:42.129072312,1746538242,123156024,piren,0.06796623220006984,0.0719998186193158,-0.023799926461107505,0.00010466740088277642,-0.000945692860361364,-0.0031874849998571844
2025/05/06 15:30:42.706324476,1746538242,701573870,piren,-0.009920759298983853,0.016258148873385538,0.01741461218622127,3.0657807323869514e-05,-0.0004030888915692944,-0.0032743892906701485
2025/05/06 15:30:43.285397971,1746538243,279479035,piren,-0.049851291443064494,-0.006595190461984497,0.035540957865051716,-8.401557491809127e-05,0.00044421641045271076,-0.0041214074921649335
2025/05/06 15:30:43.939345350,1746538243,913596755,piren,-0.04078895360207718,7.35161407653109e-05,0.028574522717359364,0.0001348049801426428,-0.0008254499480564631,-0.0036852300800753668
2025/05/06 15:30:44.500713310,1746538244,495239643,piren,-0.011923906036690482,0.018554349580063606,0.011606952059356027,-9.37877644959287e-05,0.0011173102913840651,-0.00336390894779025
2025/05/06 15:30:45.90388975,1746538245,78937247,piren,0.016705424361134986,0.03693087670899392,-0.004931825344546541,9.191932789635102e-05,-0.0006375120076963162,-0.002450661900921209
2025/05/06 15:30:45.672812301,1746538245,666667914,piren,0.03125541534536785,0.045244027905119465,-0.013149737310830505,-2.826077241984666e-05,0.0011536424789603706,-0.002073021486555483
2025/05/06 15:30:46.251699326,1746538246,246489982,piren,0.030012903036049803,0.04218463713418775,-0.012477412638029012,-6.80671482214175e-05,-0.0008072330456327769,-0.002090865395217548
2025/05/06 15:30:46.833107733,1746538246,826144219,piren,0.021146355114206355,0.035432271261470916,-0.006141497910478084,-6.970224905257405e-05,-0.002958572160027227,-0.0005887511200615838
2025/05/06 15:30:47.421812193,1746538247,411815714,piren,-0.09254718344122886,-0.043461432774164976,0.04519184647692085,0.0009689915890125814,0.004200540385528359,0.0021203021048608345
2025/05/06 15:30:48.53333907,1746538248,48553164,piren,-0.11325190071984217,-0.06013951879576719,0.053642350766529165,-0.000502232419693967,-0.0024895423932665274,0.0028933995618916756
2025/05/06 15:30:48.648483938,1746538248,623606641,piren,0.013904907799997424,0.006279191174645038,-0.0027891634898824028,-0.0003358771615173637,0.0011197717956679377,0.0005023538031313317
2025/05/06 15:30:49.206108325,1746538249,201176505,piren,0.015550190457225077,-0.01097287470465684,-0.001230494270308076,0.0010434423160960726,-0.0029062436441046535,-0.00036070838190240716
2025/05/06 15:30:49.778931702,1746538249,773400055,piren,0.11325499316562888,0.032722957750775696,-0.04566989888546352,-0.0016062347237940577,0.00549878414783139,0.0010190995216943926
2025/05/06 15:30:50.359917540,1746538250,353681427,piren,0.2187288428455762,0.0832170538095858,-0.10014186153157872,0.0012167547290808571,-0.0043825086660225785,0.005102426023704742
2025/05/06 15:30:50.953338134,1746538250,942030556,piren,0.10881327251104302,-0.00035339555029106906,-0.03963795127882918,-0.00021333130374326018,0.0012809764956768046,0.0033455047988668195
2025/05/06 15:30:51.604573736,1746538251,599294097,piren,-0.016567057983956704,-0.08541565030759495,0.02283311347667314,-0.00028750711523542927,-1.2978352762549366e-05,0.003365378349270992
2025/05/06 15:30:52.183381927,1746538252,175933478,piren,-0.0255227798844313,-0.09515759232367538,0.02862564657477953,0.0008626602946424945,-0.00033009516762015097,0.004192851728587112
2025/05/06 15:30:52.760448374,1746538252,750195373,piren,-0.0503333760009351,-0.11935348840106537,0.04198669231337724,-0.002116267184825304,0.002615775798352004,0.004522319548814107
2025/05/06 15:30:53.332143120,1746538253,326397002,piren,-0.028572172404255622,-0.11004918359467349,0.03371454538350754,0.001851708682902217,-0.0029939625113141683,0.003435745753018788
2025/05/06 15:30:53.911879805,1746538253,905993987,piren,-0.01683218369380448,-0.11008030272032494,0.029489721990315368,-0.001707508837580179,0.0034761891587938376,0.002105078599382824
2025/05/06 15:30:54.486221693,1746538254,481310918,piren,0.051642157007427504,-0.06621508199291323,-0.0025674115631849764,-0.00015302564291947386,-0.002955364547466132,0.0008114124235666892
2025/05/06 15:30:55.70757937,1746538255,58086143,piren,0.10539788752098536,-0.03878103288884571,-0.025513015909784043,0.002597262825032821,0.0023888129937744617,-0.001549211388873163
2025/05/06 15:30:55.686239193,1746538255,680567312,piren,0.03224127429739418,-0.10368860953776615,0.012768103415496553,-0.00037815717829180906,-0.002355432610696043,-0.0033274445436577613
2025/05/06 15:30:56.271899433,1746538256,265606317,piren,0.0005801194880408617,-0.13852515808230176,0.03209406980278913,0.0010453271772789675,0.0013725223587453688,-0.004714182685437308
2025/05/06 15:30:56.881777922,1746538256,845796434,piren,0.09819086576580992,-0.08310935654599173,-0.009441338118046476,0.0004973258482224453,-0.0010076168820958014,-0.004959670208401955
2025/05/06 15:30:57.435937107,1746538257,430535667,piren,0.1675923259410414,-0.045083885305711495,-0.039131663718611376,-0.00016816472875351443,0.0007897705472700394,-0.005679135365416351
2025/05/06 15:30:58.38823274,1746538258,8825045,piren,0.16425744733292083,-0.060214346373185734,-0.03448106088990549,0.000934969529728009,-7.834474407729134e-05,-0.006573199616712389
2025/05/06 15:30:58.593030850,1746538258,588496050,piren,0.1027535824961891,-0.11398922164453262,-0.0017372656787648585,-0.0028059021912960813,-0.0014169369036986987,-0.007612408579149483
2025/05/06 15:30:59.241837116,1746538259,217860775,piren,0.16765661473687066,-0.07896148887207284,-0.039574711473174984,-0.00046146326643574625,0.0016859170033143786,-0.004130358758250118
2025/05/06 15:30:59.802843035,1746538259,797157204,piren,0.07901917211397665,-0.148476610878651,0.00706982137260944,0.000434941153497677,-0.0026714738648001995,-0.00030258782682987897
2025/05/06 15:31:00.398622623,1746538260,377211956,piren,0.06235885885821551,-0.16391072674264187,0.015140858771196052,-0.0013594175893023555,0.004050584057735008,0.0035715946256615963
2025/05/06 15:31:00.963970698,1746538260,959809968,piren,0.13077022437228186,-0.1222559470586014,-0.02143772168967665,0.00070789352252079,-0.003704954043310419,0.005029028070735063
2025/05/06 15:31:01.548156956,1746538261,537742451,piren,0.07738706120526365,-0.16597850560005944,0.009858297778813134,-0.0013809381850867024,0.004785538885561193,0.005114379043710839
2025/05/06 15:31:02.123409602,1746538262,116997927,piren,0.04548849566504066,-0.2024326202967125,0.03157408747391535,-0.001019562174095048,-0.004348686414219432,0.0019170134105521881
2025/05/06 15:31:02.762399496,1746538262,756861239,piren,0.1571981724405308,-0.1426584904188524,-0.019810096808578807,0.000565703030044627,0.0034499043248486074,0.0004966905577068781
2025/05/06 15:31:03.349008821,1746538263,339695941,piren,0.1348160173752152,-0.1788985571533424,-0.0024447270362282607,-0.00024879085604572496,-0.0010000304367708463,0.002259633815701129
2025/05/06 15:31:03.936595920,1746538263,932042803,piren,0.1139308471619646,-0.21184326610909854,0.01447939763239688,0.0007139470305629948,0.0002464423475594743,5.888353608802219e-05
2025/05/06 15:31:04.518744723,1746538264,511305974,piren,0.023649372169120733,-0.29056030694837254,0.060237060235476175,-0.0002696259879520414,0.000263512752803341,-0.005163239635722824
2025/05/06 15:31:05.99899709,1746538265,94789612,piren,0.11353961363993254,-0.24103509528672412,0.023691051853591605,-0.0001004249611595742,-0.00144866933035268,-0.012574897777189212
2025/05/06 15:31:05.680120685,1746538265,674178235,piren,0.1050450169062518,-0.2602097432587464,0.0312793397178092,-0.0019685779218223884,0.0010582485319379563,-0.014418218498458216
2025/05/06 15:31:06.315001517,1746538266,310570233,piren,0.2160123544576439,-0.19269749399227232,-0.01846040429085767,-0.0002509578937182211,-0.0022794151655107903,-0.011126544818729291
2025/05/06 15:31:06.895810708,1746538266,888455687,piren,0.3086273461808563,-0.12961156492206038,-0.06445367492280829,-0.0018895182392508797,0.0011951880685927058,-0.006568255156976361
2025/05/06 15:31:07.477337674,1746538267,472779677,piren,0.34181911148211874,-0.09717271302797537,-0.09222652721474119,-0.001865551078433588,0.001776152675536935,6.0429466429689665e-05
2025/05/06 15:31:08.95735744,1746538268,60575888,piren,0.2738757672188516,-0.1306282686203752,-0.06577167438251996,-0.0004909761302019142,-0.002206835312060568,0.0019597652833540616
