time,header_stamp_secs,header_stamp_nsecs,header_frame_id,twist_linear_x,twist_linear_y,twist_linear_z,twist_angular_x,twist_angular_y,twist_angular_z
2025/05/06 15:28:01.390088485,1746538081,36971114,piren,-3.975612384948639e-05,0.09415224205215804,0.04450160580161495,0.0008649551739415629,-1.8331525226964376e-05,2.78870085054481e-07
2025/05/06 15:28:02.591712741,1746538082,505941519,piren,1.780287474836134e-05,0.03556531604511787,0.013641299665346001,0.0008604355145270322,0.0012639535503566925,-2.757714708785121e-05
2025/05/06 15:28:05.447799995,1746538085,54946470,piren,-4.085412754403772e-05,-0.16466524042993563,-0.05257935406999997,-0.0008683991329783271,-0.0005950706358003456,-5.087084549787129e-05
2025/05/06 15:28:06.178483338,1746538086,136627323,piren,-0.000630560889731055,-0.13293598175699556,-0.06293355955177785,0.0008758180838684956,0.0010289515915628566,0.0002102365678158172
2025/05/06 15:28:06.848819782,1746538086,804197627,piren,0.0011022217768194773,0.17137664330119995,0.060655898886433954,-0.0008750738866017001,-0.0015728135215320796,0.00015915332717362753
2025/05/06 15:28:07.488701216,1746538087,477279570,piren,0.0028899840012215875,0.03547661066599248,0.013986698064077418,-0.0007682472586510206,-0.00010930018522348904,0.00017700075881830538
2025/05/06 15:28:08.78056677,1746538088,67402237,piren,0.005956200229867285,-0.025639126312851635,-0.006136986807551688,-0.0008483452268596986,-0.000295870124491353,0.001097435071156268
2025/05/06 15:28:08.754840286,1746538088,711982740,piren,0.017551262644460434,-0.0240394020600522,-0.0034093970529144057,0.0005776196768394406,0.0002750086875125356,0.0018989144827307742
2025/05/06 15:28:09.375634243,1746538089,369789368,piren,0.035996121795592965,0.03928484022526484,0.024277008716238987,-0.0006384076468666734,0.0015170406904270223,0.001052316288170675
2025/05/06 15:28:09.929915652,1746538089,920990539,piren,0.05077309379288769,0.0816557811337576,0.047527141661733316,0.0003063362393970509,-0.0033915472215500157,-0.002435375992091509
2025/05/06 15:28:10.526331539,1746538090,498998438,piren,0.04985594136685013,0.1479153236952854,0.06320022652790151,-0.00011232797878577976,0.0035452451044671947,-0.0024448969901516007
2025/05/06 15:28:11.69864687,1746538091,63854951,piren,0.048640376279998856,-0.009411839095678717,-6.444559340073386e-05,-0.000598737523102301,-0.00383713216384623,-0.002447199672943136
2025/05/06 15:28:11.615914218,1746538091,610896320,piren,0.04815396272173445,-0.09927870512926229,-0.0435220054637305,0.0013160582271605143,0.003868590606353772,-0.0015401585502468785
2025/05/06 15:28:12.162387945,1746538092,154864627,piren,0.05549277313872227,-0.017135470660531612,-0.006889129322987744,-0.003459062378161187,0.0037082200511886374,-0.002086188249139001
2025/05/06 15:28:12.761915077,1746538092,756979322,piren,0.053540521486811835,-0.1600861760766968,-0.06572816341169424,-0.0007109555607027883,-0.007883898471469988,-0.008534535647489615
2025/05/06 15:28:13.308353572,1746538093,301025303,piren,0.07274125730161914,-0.08586962346937825,-0.028830631769804473,-3.142585788548832e-05,0.008808825046718859,-0.008745567509846088
2025/05/06 15:28:13.851819973,1746538093,846164058,piren,0.08033819092846689,-0.03940577347356188,-0.013256473394032367,-0.0009633162287567105,-0.0036096874027448677,-0.004383422179498626
2025/05/06 15:28:14.391236765,1746538094,384587183,piren,0.08105172524050593,0.06130390835913667,0.02432781962705359,-0.0010312525047567096,0.0045982622912680736,-0.001872902719111348
2025/05/06 15:28:14.955247802,1746538094,920714204,piren,0.08675087069137126,-0.030008383681763895,-0.013432744599511989,-0.0005626537248038464,-0.006996790558463302,-0.007430129449787575
2025/05/06 15:28:15.465704470,1746538095,460645803,piren,0.09655312880636624,0.06876762239365486,0.03146568912580506,0.0008810733904944405,0.004616119993484496,-0.009054381735265992
2025/05/06 15:28:16.4656185,1746538095,997790836,piren,0.09808267761248868,0.07228822581216122,0.027157579343792843,-0.0008385827329944944,-0.0017279029831081612,-0.008048064576781474
2025/05/06 15:28:16.594116607,1746538096,589364818,piren,0.10400900308987822,-0.060147915083068396,-0.032679818163495834,-0.00013688790351496066,0.0030174759300410224,-0.006445954639167482
2025/05/06 15:28:17.133439459,1746538097,127685664,piren,0.10147535498170847,0.09807144377978275,0.03647848955367487,0.004150343027582713,0.0005158546836546847,-0.001741918462355133
2025/05/06 15:28:17.674655609,1746538097,670729721,piren,0.11540135896226136,0.13210641256323194,0.04731106073213756,-0.0035853221667871775,-0.0011288775717334318,0.0007925341056675089
2025/05/06 15:28:18.217857876,1746538098,210488662,piren,0.13049840807577082,-0.0016847424789676047,-0.000155020242035726,0.001377258451639388,0.0006914069283458387,0.0020396527799053646
2025/05/06 15:28:18.757812770,1746538098,750423600,piren,0.1538092460297938,-0.20611865342548794,-0.07980870253052641,0.0010216951929875448,-0.004888381864520351,0.002734148896749073
2025/05/06 15:28:19.300666484,1746538099,291863340,piren,0.17186498174933243,-0.14755326564329715,-0.0412994396067212,-0.0044208611327161895,0.004635528296431251,0.0007442285288698242
2025/05/06 15:28:19.857462922,1746538099,832304746,piren,0.18758839618817813,-0.1499223289637413,-0.04929509512267164,0.0036264047922004,-0.007978704930231473,-0.0038278354769611593
2025/05/06 15:28:20.422535458,1746538100,418285834,piren,0.17853109326243966,0.012470186256028993,0.014131159564275138,-0.0021421741663350505,0.010021925414315158,-0.0039209075634993006
2025/05/06 15:28:20.977590790,1746538100,955494969,piren,0.17399863328345308,-0.004378482407341728,-0.0017028199418655918,0.0012799100709576918,-0.00895751727615478,-0.0039182906184652205
2025/05/06 15:28:21.503012827,1746538101,498624991,piren,0.1743683691418216,0.2003265460289923,0.08002292610023277,0.0035496050301861756,0.006286893809980775,-0.0027926828520331705
2025/05/06 15:28:22.47845824,1746538102,40863412,piren,0.18628870725053412,0.13753367024072347,0.051833828841862224,-0.0031934592405254043,-0.00462166954848605,-0.001876398066712041
2025/05/06 15:28:22.589098099,1746538102,582937318,piren,0.20634942632718656,5.8325825955012414e-05,0.0008858530579083663,0.0025070208901334288,0.0013309561454829678,0.0014579026308413781
2025/05/06 15:28:23.131482612,1746538103,121782259,piren,0.22644238583534346,0.07143170159410062,0.02874950840948574,0.0005857462437160265,0.002652439705370437,0.0031426704882744545
2025/05/06 15:28:23.729486010,1746538103,723593817,piren,0.2535371924680898,-0.005012046462031905,0.0014447368873372604,-0.003185735803023559,-0.0039795951377821935,0.0019728534772831437
2025/05/06 15:28:24.270572952,1746538104,264182510,piren,0.26557269983089793,-0.13974270106220346,-0.057930275014814174,0.0018650688669851131,0.006930915730110948,0.0024561739330890803
2025/05/06 15:28:24.815592399,1746538104,810372888,piren,0.2719121666825589,-0.07402243214416027,-0.02264958868716359,-0.0029954320880660745,-0.007038455320490166,0.0033277066644248577
2025/05/06 15:28:25.357903198,1746538105,351402475,piren,0.2747776188938994,-0.1380891594870774,-0.05682692491016726,-0.0013635245543054844,0.0058648444330762104,0.005208119704909358
2025/05/06 15:28:25.964543111,1746538105,955465298,piren,0.27639650695363754,-0.009930205401531878,-0.002453458321499882,0.0029166582062124078,-0.004583434154332186,0.007695780117056966
2025/05/06 15:28:26.506205630,1746538106,499564819,piren,0.2912143925531282,0.05860175867450072,0.027448406964387526,-0.0028983617854395514,-0.008369154372810227,0.0015511922438801423
2025/05/06 15:28:27.48313046,1746538107,41156381,piren,0.29891285012940794,-0.005251130727282768,0.003111582209855928,0.00014676699633475648,0.007513669261268021,-0.00468152392620161
2025/05/06 15:28:27.638147593,1746538107,633666686,piren,0.28415055567398684,0.04236044065898141,0.024461183386591596,0.0033970132981397307,-0.002595660856633003,-0.0029226096318830724
2025/05/06 15:28:28.179948594,1746538108,174196210,piren,0.2725732429962574,0.1522683377176779,0.05902853460725394,-0.003181095485403527,-0.00010217025096991082,-0.0017613098517420811
2025/05/06 15:28:28.729528380,1746538108,721429840,piren,0.27242181767849183,-0.011202832589449183,-0.004371848870604458,0.0012404851604048237,0.0018964053735784124,-0.0031485235811837754
2025/05/06 15:28:29.271713895,1746538109,264860023,piren,0.2728382742085204,-0.02909160961544579,-0.010469966619847403,8.817520399432609e-05,-0.0033000685884557,-0.003996149307095406
2025/05/06 15:28:29.836049874,1746538109,812070917,piren,0.2695330636321259,-0.026647237682855058,-0.007628959906911271,-0.0032015318163197155,0.0033771650863841417,-0.005649344599073319
2025/05/06 15:28:30.366202255,1746538110,358093422,piren,0.26670707609568667,-0.10715644855861559,-0.04503135169513151,0.0017064029534564161,-0.001772468887478016,-0.005633591547229538
2025/05/06 15:28:30.922318607,1746538110,901690145,piren,0.2547836856856978,-0.055270541776238406,-0.02138145263987831,-0.0007341792392354997,0.0012411786491520584,-0.0038515186470761843
2025/05/06 15:28:31.505891295,1746538111,497364882,piren,0.24698198640907496,-0.06424021544170286,-0.03368057996774867,-0.0015063235226083437,0.0004642182121454485,-0.0021120692421096546
2025/05/06 15:28:32.64183189,1746538112,40490452,piren,0.2398695683766963,0.09986581328717622,0.041929476720141204,0.0023195805743511876,-0.0009450251315729793,0.000612231434664702
2025/05/06 15:28:32.590880874,1746538112,586099753,piren,0.23395693641065854,0.15597457765076223,0.06994539307928255,-0.0010412594741096052,0.002031792754949688,0.0038377999200435507
2025/05/06 15:28:33.137253787,1746538113,130377037,piren,0.23292540734794126,0.1298603071849112,0.04933391379316438,-0.0012561771696141166,-0.002117821260232915,0.007779123260212733
2025/05/06 15:28:33.682341067,1746538113,678198413,piren,0.23086375425635303,-0.10139832656795879,-0.031010381350217667,0.0010907358620766163,-9.88724414710209e-05,0.008447070640834815
2025/05/06 15:28:34.258345485,1746538114,221225160,piren,0.227066231511666,-0.22424849158670576,-0.09511844285188986,-0.0015167134037572631,-0.0007491718121152593,0.00913997008552288
2025/05/06 15:28:34.820505945,1746538114,814314106,piren,0.22327238029965266,-0.053166922395033775,-0.007343533833737707,0.0007819060100949229,3.161982076507772e-06,0.008224807600239139
2025/05/06 15:28:35.365689315,1746538115,357564652,piren,0.21288115480839276,-0.07140900747915624,-0.01844024690203,0.00012417533265288974,0.0010667439014926251,0.009827974550418905
2025/05/06 15:28:35.909431412,1746538115,902542083,piren,0.2064442664520755,0.0319126690429289,0.02771019436420305,-0.0005142112335828376,-0.001903517840166424,0.007857447597697586
2025/05/06 15:28:36.455902289,1746538116,449335002,piren,0.19698859096635354,0.11916870623244652,0.06877332872197627,0.0030123620009866654,0.004779752870692545,0.00914098552566451
2025/05/06 15:28:37.7252569,1746538116,993825559,piren,0.18734027818588445,0.18004983751419368,0.091719989310641,0.00016211756297879488,-0.004744496768959799,0.008014791752373015
2025/05/06 15:28:37.544289015,1746538117,538689930,piren,0.186376717702936,0.12069622981511127,0.05671647466568731,6.11074105641742e-05,0.005759172470621716,0.007881180354837803
2025/05/06 15:28:38.113878730,1746538118,82219573,piren,0.17168549436896216,-0.04501470316055102,-0.013171856645984697,0.0024137291148433413,-0.0041609326318077355,0.005375028012040801
2025/05/06 15:28:38.710025556,1746538118,705054364,piren,0.16356061585687803,-0.08186246716703073,-0.015526434420580396,-0.002548107490597477,0.002045747262007185,0.003411455351805185
2025/05/06 15:28:39.275751333,1746538119,263148142,piren,0.15690829671463652,-0.28325426155200917,-0.10033414628778045,0.0006843114147231312,0.0010110987457744472,0.0009095570475369993
2025/05/06 15:28:39.817543287,1746538119,812300945,piren,0.15237545346343764,-0.2220875644214738,-0.08343864463339172,0.0012611374378154214,-0.005193528075707027,-0.0022055010434019647
2025/05/06 15:28:40.397669989,1746538120,362746746,piren,0.14723371269122296,0.02856835356688557,0.03041485530995661,0.0004191808190049011,0.006722221451686766,-0.0027218603820950127
2025/05/06 15:28:40.918549334,1746538120,913399272,piren,0.14272805994635535,0.040533222299656044,0.03765762658993278,0.0024617076731905194,-0.0054296380710172135,-0.0015163436047858478
2025/05/06 15:28:41.459212872,1746538121,454656478,piren,0.13550727040568708,0.15323395808094614,0.08178996782263769,-0.0004979767211960262,0.0047754568104474236,-0.001519951726117073
2025/05/06 15:28:42.58364216,1746538122,53323956,piren,0.13461541124248183,0.09539319196134396,0.05555742241395048,0.0011336401837778013,-0.0026324784128199034,-0.001182325277865438
2025/05/06 15:28:42.632909282,1746538122,597272322,piren,0.1292298407199246,0.03509912179824815,0.02324643071247796,0.001408198999393157,0.0011647965129832562,-0.001478924029390354
2025/05/06 15:28:43.150808569,1746538123,144011770,piren,0.12598849089420774,-0.1564793018347413,-0.051658363874836404,-0.0024284516475647075,8.997365526501064e-06,-0.0019478270321793723
2025/05/06 15:28:43.693453671,1746538123,688800744,piren,0.12181268461594266,-0.21056820655494443,-0.07212843900901353,0.0009358432185318642,-0.0005427600492325647,-0.0023909587946908395
2025/05/06 15:28:44.264489014,1746538124,234600024,piren,0.11354899648431431,-0.1524221790627445,-0.045365775519457766,-0.0007211984839447952,0.0005167180650483368,-0.003445099484343026
2025/05/06 15:28:44.788116718,1746538124,784122613,piren,0.1069494279496415,-0.07463364288773852,-0.01395545534795566,-0.001374806157425279,-0.00030560186045346414,-0.003301216882405116
2025/05/06 15:28:45.356118223,1746538125,328904429,piren,0.09855403830438131,-0.00886676279786679,0.010772262201001876,0.003308152960130956,0.0004243067397985454,-0.003699026722511403
2025/05/06 15:28:45.929928295,1746538125,924956168,piren,0.09265664627085987,0.12942556874629338,0.05708712726828534,-0.003196811078895703,3.912651532337417e-06,-0.0034371027752754606
2025/05/06 15:28:46.502215008,1746538126,468524339,piren,0.09102617226083344,-0.03759729565317496,-0.006555939843443105,0.0009251919848535124,0.0005985959536937231,-0.004189611904894347
2025/05/06 15:28:47.22810614,1746538127,15479109,piren,0.08826204243522044,-0.06728053914912767,-0.015689421384443604,8.423058314142931e-05,0.001992874936094467,-0.0028688450246300273
2025/05/06 15:28:47.565964411,1746538127,560403122,piren,0.08700966254490788,-0.05779627346233518,-0.004865402088158038,-0.001843834004758071,-0.0010078215666589657,-0.00305748234819582
2025/05/06 15:28:48.147084835,1746538128,118596476,piren,0.08815374351647695,-0.17829431616428942,-0.06257873361529166,0.0013988960743257514,0.00041723817857786696,-0.0031717759086517206
2025/05/06 15:28:48.683563508,1746538128,679315577,piren,0.08450701298265863,-0.06278502109834101,-0.009162265627265746,-0.0009320242350145279,0.0005896349936628054,-0.003726427699854499
2025/05/06 15:28:49.241681587,1746538129,233862913,piren,0.0847328284785371,0.013736937925795258,0.027170191113412376,-0.0025919181762971664,-0.0018478273357470656,-0.004133420126127093
2025/05/06 15:28:49.842842032,1746538129,839024408,piren,0.08020316660210781,0.04841639915604001,0.04641380154135601,0.002743809392778986,0.0013500565180156296,-0.004590863074378645
2025/05/06 15:28:50.404110578,1746538130,391331042,piren,0.07814460005526183,0.12016179923589565,0.069551294985973,-0.0027990560247882555,-0.0022059923283164963,-0.005082529676197318
2025/05/06 15:28:50.945248343,1746538130,940499796,piren,0.07646672732823975,-0.004773539108075195,0.01740390910320349,-0.0004812728691837658,0.0017136843612684891,-0.005845628090797833
2025/05/06 15:28:51.504602578,1746538131,488655923,piren,0.0736377929858047,-0.21352980180847228,-0.06518515317629717,-0.00024898100355823406,-0.001819503058525699,-0.005366911652215939
2025/05/06 15:28:52.51929302,1746538132,46480444,piren,0.0721869876794491,-0.228376082785023,-0.07980444028040543,-0.0020530491787876153,0.0008721595104402565,-0.006180952322077907
2025/05/06 15:28:52.631670582,1746538132,597172603,piren,0.06798671045027907,-0.08969271128467914,-0.020683046082053243,0.0014402402514339819,-0.0014397188337072389,-0.006143696243683824
2025/05/06 15:28:53.205769101,1746538133,200685170,piren,0.07142451698526128,0.03077939585955721,0.027796274508823653,-0.0011615173273199781,0.0032315548993292983,-0.004826937812290092
2025/05/06 15:28:53.793850596,1746538133,755932412,piren,0.05938482901392375,0.04798165346422472,0.033443235794462026,-0.00093481352778701,-0.002127140959398026,-0.005240211304108735
2025/05/06 15:28:54.313292692,1746538134,308801183,piren,0.052003782549969985,0.050548504715383726,0.0340558471601807,0.0017809138904694914,0.001209233933133758,-0.0055269048187759
2025/05/06 15:28:54.889252224,1746538134,863984595,piren,0.04963634914833058,-0.0006660534099359964,0.012586868174787276,-0.0004919006456459699,0.00011084123574862244,-0.0065271045889890925
2025/05/06 15:28:55.419529697,1746538135,414957081,piren,0.04983028274876734,0.06875911688789423,0.043381865828297686,0.0012280713915559123,-0.0004028059090929834,-0.005502199543292914
2025/05/06 15:28:56.1986880,1746538135,966864873,piren,0.051669035418249146,0.0819895813788683,0.03684496999818851,-0.0007003348875333421,0.0006513585847829494,-0.006279521372992388
2025/05/06 15:28:56.523261480,1746538136,518124582,piren,0.05632393457117668,-0.19773521305098382,-0.05840408706274774,-0.0013083955462188975,-0.0002356380954793376,-0.006127585877220059
2025/05/06 15:28:57.141047373,1746538137,118737482,piren,0.05917008832738002,-0.28572021681079435,-0.12578628192653316,0.0013748390386592072,-2.0646811298570498e-05,-0.006974201575431718
2025/05/06 15:28:57.679783256,1746538137,675323586,piren,0.0558794784776817,-0.01784042916706772,0.009298693983130837,0.00026993327479987787,-0.0009911974355646493,-0.007577555929664326
2025/05/06 15:28:58.259230267,1746538138,228305992,piren,0.052841903862898616,0.14103703534425746,0.0692953905577851,-0.0013237121624469566,0.0014540695526080642,-0.00641779485060255
2025/05/06 15:28:58.786751418,1746538138,782951231,piren,0.045912056235266924,-0.04288167653663896,0.003743243436065609,-0.00033903989610289194,-0.0005587529825172858,-0.0066377547713572784
2025/05/06 15:28:59.355597521,1746538139,335629065,piren,0.04365315296406136,-0.14586790121200774,-0.029678066259453264,-0.0009402307295895641,6.245697048865187e-05,-0.008044776665495846
2025/05/06 15:28:59.923980102,1746538139,915238012,piren,0.04495952463476827,-0.19930557672841923,-0.07059211774626303,0.0013635228047312498,-0.002750929604495984,-0.008648576527239356
2025/05/06 15:29:00.495860600,1746538140,477430747,piren,0.04858719733806913,0.0033012469876277026,0.024469966066607063,-0.0011752364672733848,0.001171526958014569,-0.01063650830378196
2025/05/06 15:29:01.83099692,1746538141,78033797,piren,0.04975128297741359,-0.0580823564407757,-0.0027915672003590566,0.0003077025446022612,-0.0005365694706096277,-0.008955272148581285
2025/05/06 15:29:01.640638714,1746538141,628533801,piren,0.046876282011491764,0.012196035068452002,0.02901904904665781,0.0003750983783842324,-0.00020399596268682585,-0.008257426044944048
2025/05/06 15:29:02.202073344,1746538142,189930386,piren,0.044715727246945544,0.06051334131951117,0.043053189831188575,-0.0015207322036401795,0.0008640043260429564,-0.006955574733809324
2025/05/06 15:29:02.823095434,1746538142,783405894,piren,0.04701700935260443,-0.09568415690855883,-0.017317993339097705,0.0005423322897088764,-0.00107923685321447,-0.007307756993199875
2025/05/06 15:29:03.344380369,1746538143,335767876,piren,0.044793261569217445,-0.17549360352775326,-0.04855157436881586,-0.0002169087522053308,0.0017216674041615509,-0.006490158447418338
2025/05/06 15:29:03.899815901,1746538143,894984086,piren,0.04542476803587516,-0.1661112932837821,-0.05817154733684446,-0.0013952073378291844,-0.001572149719987562,-0.005976173597306882
2025/05/06 15:29:04.516007305,1746538144,501655259,piren,0.05071012811308623,0.0018069227578341,0.029899282260184432,0.00029940089146050493,0.001759446004479948,11.206270783703198
2025/05/06 15:29:05.89319787,1746538145,84384932,piren,0.35804072744874776,0.200406298647439,0.08584955178868431,5.624848540718488e-05,-0.0016622906846287294,-0.007367627681560295
2025/05/06 15:29:05.662064600,1746538145,649921325,piren,0.14870779013722016,0.10143806590004438,0.059983318254191224,0.00038324253646316583,0.0009715555730515035,-0.00803797552063342
2025/05/06 15:29:06.216535977,1746538146,210278076,piren,-0.0706490417446032,-0.0307243269186577,0.019340376639201712,0.0010499581239571418,-0.0014567316157368738,-0.008185612744508977
2025/05/06 15:29:06.792933713,1746538146,766726337,piren,-0.15717231078906682,-0.016006117961214053,0.025638026995480206,3.173608563523884e-05,0.0063967824103980525,-0.0059934929217761255
2025/05/06 15:29:07.319854454,1746538147,315512528,piren,-0.12909458820903452,-0.01887823281700494,0.014509508702910005,-0.000595231772528267,-0.0025602719636202047,-0.003967109807327734
2025/05/06 15:29:07.878521276,1746538147,869448935,piren,-0.03092037717689095,-0.2281167056658619,-0.08777936901487565,-0.0003051496133661063,-0.0005742787857524262,-0.005262864312398133
2025/05/06 15:29:08.491893636,1746538148,484696036,piren,0.06586776869896079,-0.12030776616768088,-0.041496909783805234,-0.00046630890219537155,0.001896349668965819,-0.005652014637077555
2025/05/06 15:29:09.46422703,1746538149,36836349,piren,0.11841904876140094,-0.04751748373708465,-0.007507015665056564,-7.548778431860441e-05,-0.003347456794817336,-0.006573159616999889
2025/05/06 15:29:09.593750541,1746538149,589850663,piren,0.11629776446028196,-0.008712530176601608,0.011844927861085397,-0.0004331117922463189,0.004282136735569716,-0.00628981913908579
2025/05/06 15:29:10.155902193,1746538150,149908782,piren,0.0834763151780112,0.00101365464843357,0.01792714760243532,0.000660928978599007,-0.002620441880663955,-0.007036637203830883
2025/05/06 15:29:10.728451178,1746538150,718520243,piren,0.038097572428981916,-0.019848164075240787,0.01320288398885006,-0.0006611800767457128,-0.0011401095066092411,-0.00836401086943951
2025/05/06 15:29:11.286710198,1746538151,272726177,piren,0.01286150526296534,-0.045597047311789894,0.004329108783560623,0.0002153729503611224,0.0012160020158160814,-0.010463641362842805
2025/05/06 15:29:11.836282533,1746538151,831082015,piren,0.007323515032666068,-0.06452835744168094,-0.003339524109741409,0.00022524972095987948,-0.0034673534769498913,-0.011328613918388911
2025/05/06 15:29:12.468999355,1746538152,436148713,piren,0.02188233812075292,-0.07048206057263869,-0.005697559267302628,-0.00034362566900217865,0.0013764834712952736,-0.010793997445615301
2025/05/06 15:29:13.7596069,1746538153,3754454,piren,0.03312695851878197,-0.06833829513606605,-0.013146722168618782,0.0022717532565948192,0.001658777439566489,-0.008570923452810783
2025/05/06 15:29:13.565673041,1746538153,557384479,piren,0.04497848470776127,0.05998050031162678,0.03871755375892043,-0.0014659514694746062,-0.0023869150605628268,-0.008589028662721123
2025/05/06 15:29:14.116154296,1746538154,111738363,piren,0.05066653115305526,-0.005323146168527074,0.012107011849493353,-0.0006662468388471009,0.0021822088613208295,-0.007258109078387952
2025/05/06 15:29:14.669925170,1746538154,664151113,piren,0.0495917389748541,-0.06274748384195264,-0.009141761142127175,0.0014891108423346305,-0.0013015155567067762,-0.008430727806334543
2025/05/06 15:29:15.226896160,1746538155,218772165,piren,0.04330097767240607,-0.128185492414537,-0.03592986369668081,-0.0006994013635037921,0.0009005301412813936,-0.007307755426191868
2025/05/06 15:29:15.852304764,1746538155,824600971,piren,0.03784770020796365,-0.10307486489567069,-0.024615866997708694,0.0015410362118191342,-0.000844225472706845,-0.007893463977233445
2025/05/06 15:29:16.394029879,1746538156,389611292,piren,0.03324402865967629,-0.06432887269027648,-0.007274760976152044,0.0006138266071200796,-0.002760119661586617,-0.007139179229835323
2025/05/06 15:29:16.977450830,1746538156,945743956,piren,0.04110836518313239,-0.033039535500246804,0.003477584105448875,-0.0004048915310500843,0.0042729199147371775,-0.005580471969071824
2025/05/06 15:29:17.508402297,1746538157,504439563,piren,0.03626103421485021,-0.004048854108017631,0.015172569464893947,0.0006824943580993553,-0.004079218661422994,-0.006179575856557439
2025/05/06 15:29:18.70248204,1746538158,60408732,piren,0.034818857662552515,-0.0048688808276059784,0.016046817906890592,-0.0005697485897459991,0.0026714851970470205,-0.007657462850262752
2025/05/06 15:29:18.628665785,1746538158,621081483,piren,0.035577786343885434,-0.024619265996830918,0.00886082477675224,0.0002688361019386539,-0.0026479989389132288,-0.007643963339527028
2025/05/06 15:29:19.185706793,1746538159,178037778,piren,0.03797449739786013,-0.050063402670026576,0.00030508646149588294,0.00021570606643786177,0.0010596911977370912,-0.009251373873760538
2025/05/06 15:29:19.791835970,1746538159,786659819,piren,0.03896534515119998,-0.06287882616279843,-0.0052929434943421675,-0.00044663365649163383,-0.0007666111108752606,-0.008368507240928741
2025/05/06 15:29:20.364511723,1746538160,343516015,piren,0.038517175536923576,-0.06668520223214451,-0.006601963332174462,0.000516670966472129,-0.0003098172362105089,-0.008171907252098336
2025/05/06 15:29:20.919770858,1746538160,911719041,piren,0.03775291962275032,-0.05827012356252133,-0.00423574544704423,-0.00033970760452812316,0.0006232495240004684,-0.007433937949266839
2025/05/06 15:29:21.500333213,1746538161,467013137,piren,0.039313330330614606,-0.04885217279927336,-0.0008469545093502149,-3.7655872997429552e-06,-0.0008032521777072693,-0.008593545379875691
2025/05/06 15:29:22.40511014,1746538162,36333489,piren,0.0391320800522826,-0.04116940872223031,0.0017799690282146222,0.00034229902627387046,0.0012107145201477737,-0.007932099192905787
2025/05/06 15:29:22.601861387,1746538162,593340821,piren,0.03780696611840312,-0.03856519506610778,0.0025366589096603932,-0.000398517109270757,-0.0009255785192148491,-0.007232293747764882
2025/05/06 15:29:23.174869447,1746538163,164680725,piren,0.037482240192835636,-0.03984230607965586,0.0017915429020782894,0.00037670101225231755,0.0007418892273540284,-0.007644479384984805
2025/05/06 15:29:23.778163842,1746538163,771602056,piren,0.03608227641718456,-0.04280929537091628,0.0003481223417729305,0.0006200586625483497,-0.00025441371201965444,-0.0074635703999910395
2025/05/06 15:29:24.338373742,1746538164,334197401,piren,0.034780398667037624,-0.05419327881422371,-0.008019699662161824,0.0007042965330334301,0.00018949286972101554,-0.007370547950664143
2025/05/06 15:29:24.903471674,1746538164,892343812,piren,0.034480977001381974,0.0616204650017133,0.04067430928429329,-0.0003890250260802959,-0.00013769659903029136,-0.006891258152122507
2025/05/06 15:29:25.453294516,1746538165,448682686,piren,0.036442970536784004,-0.010089043359762788,0.014011879862719375,-0.0011400280051190998,0.00012027389033083491,-0.007549334080439985
2025/05/06 15:29:26.16651406,1746538166,6524906,piren,0.03722252875894084,-0.18947681583023565,-0.06128630976300377,0.0008305016391238142,-0.00019885533152342512,-0.00725851291455029
2025/05/06 15:29:26.572878236,1746538166,567249747,piren,0.03912989067934637,-0.13898614371814627,-0.03577949534540859,0.0007980978968398087,-0.00011159621902393955,-0.008195103302370036
2025/05/06 15:29:27.194891546,1746538167,171562449,piren,0.03788748946330646,-0.0629079488872549,-0.0022242921260076723,0.000574696390704774,0.0008847015086824903,-0.008358085397826369
2025/05/06 15:29:27.734641955,1746538167,727336817,piren,0.033862596597644484,-0.009345313284391728,0.019764272957603995,0.0010652530576952292,-0.0005199457635516655,-0.008633753914873938
2025/05/06 15:29:28.291600110,1746538168,282544073,piren,0.031410429229858816,0.12650202582675807,0.0729464935602317,-0.000850894993651771,-0.0006020287490977907,-0.008219359525201132
2025/05/06 15:29:28.849947778,1746538168,843460513,piren,0.034451211994039874,0.037886310416666666,0.033630058468546255,-0.0008418947944590211,0.0005298574602255759,-0.008793881067459536
2025/05/06 15:29:29.400661336,1746538169,395176776,piren,0.03726353090198135,-0.17710043635315809,-0.054926743218651194,0.0008666222530443532,-0.000590943861503357,-0.007946412157106415
2025/05/06 15:29:29.984969243,1746538169,952583478,piren,0.04095733586429219,-0.15719748248279067,-0.0549379410774357,0.0006619143235934957,0.00037792526528481016,-0.008742769287139743
2025/05/06 15:29:30.518345851,1746538170,513507635,piren,0.03932720443433882,0.023716454366579882,0.03040290386684113,0.0011232591105303552,0.0008186834048763439,-0.007074691046188543
2025/05/06 15:29:31.129490610,1746538171,119952733,piren,0.03535135655171967,0.1064954510781614,0.06898057819403425,0.000764556630598205,-0.0007918666403580156,-0.00816529284197008
2025/05/06 15:29:31.676317932,1746538171,671845388,piren,0.03286182622645492,0.0961761767906544,0.05726427646170034,-0.000855533857475993,0.0006801653875939341,-0.008193982850596542
2025/05/06 15:29:32.246140145,1746538172,228607139,piren,0.033706981663351995,-0.07442640572145681,-0.005579806805665369,-0.0005660488225462832,-0.00032823925359859495,-0.007573415247787366
2025/05/06 15:29:32.789438093,1746538172,785099081,piren,0.03648632809993764,-0.2884159683886716,-0.0991970073094221,0.00048493482125235563,-9.344921075387082e-05,-0.007005677926982076
2025/05/06 15:29:33.367177771,1746538173,339990373,piren,0.039124130793970535,-0.21441073888983833,-0.08234281778530488,0.0009529471388151334,0.00013137672573214227,-0.00755005684307141
2025/05/06 15:29:33.905174302,1746538173,898073992,piren,0.03763618043041171,0.020917621249660515,0.02723281239033033,-0.0006152868554173675,-0.00024051622506411489,-0.0070962698867318335
2025/05/06 15:29:34.485206764,1746538174,457050397,piren,0.0355523354314751,0.04714235003831647,0.03655736788173938,-0.0012727762343276144,-0.004532119739507444,-0.006858786637290051
2025/05/06 15:29:35.66431342,1746538175,59337259,piren,0.04039450464724367,-0.09004500319206228,-0.022461553680364288,0.0007273310688655845,0.008074119114200277,-0.0011258930780152843
2025/05/06 15:29:35.632340567,1746538175,618063530,piren,0.030256355431149212,-0.06694830480885845,-0.01319602050247072,4.539363227409791e-06,-0.00705921275699324,-0.0013467414654645116
2025/05/06 15:29:36.179555950,1746538176,174509190,piren,0.023619241339354256,-0.045112894691374084,-0.006230856316097447,0.0009751578011004329,0.0059598035985478845,-0.0018852148953760253
2025/05/06 15:29:36.741404404,1746538176,732107044,piren,0.016196556189906123,0.10711243404841866,0.05664411268465093,0.0007635879943134395,-0.0031815404456695673,-0.0017503594764050395
2025/05/06 15:29:37.302716568,1746538177,296382700,piren,0.011569379268328808,0.0228627100879598,0.029504419206496522,-3.4004502146074655e-05,0.002019709278311851,-0.0016822655204806406
2025/05/06 15:29:37.878445767,1746538177,852470610,piren,0.006018232640430828,0.049656608730013714,0.0388489914173046,-0.00026340805923877537,0.0013167565271677906,-0.00268859952673877
2025/05/06 15:29:38.477944643,1746538178,468778986,piren,0.0037889971056114455,-0.08955318500044049,-0.009238009793233769,0.0006195682737559184,0.0003884455497283772,-0.0032192075511877603
2025/05/06 15:29:39.140427398,1746538179,132387174,piren,0.0002835683092400898,-0.19673989007962328,-0.05907174671089069,0.0015971604195049646,-0.0006156056063145292,-0.004258632738861875
2025/05/06 15:29:39.698932846,1746538179,692730207,piren,0.0009023154121591895,-0.10883734137980447,-0.009120271244520133,0.0019874207875413643,-0.0015550275929129037,-0.004465362076503266
2025/05/06 15:29:40.272206100,1746538180,259887304,piren,1.4040185742377961e-05,-0.054792195792556536,0.02838845725116241,-0.0005327431966675023,-0.00032545161180008736,-0.005739632006484151
2025/05/06 15:29:40.851905299,1746538180,824392351,piren,0.0075419180612817036,-0.2733596930313403,-0.041305426916481286,6.257230553277085e-05,-0.0007688159164857534,-0.006657162414372007
2025/05/06 15:29:41.393599408,1746538181,387871938,piren,0.009886541089629136,-0.34736065794899906,-0.06813949035036314,-0.0018067050190506994,0.0002366846799657936,-0.010456651515354584
2025/05/06 15:29:41.962774797,1746538181,951677945,piren,0.009968510957987842,-0.28092793213874984,-0.059988918989893024,-0.001621544892580055,-0.0018222401841691547,-0.01158657768045952
2025/05/06 15:29:42.573323506,1746538182,565851528,piren,-0.002331143569638622,-0.04706652125348635,0.04423231420116913,-0.0013648515244141768,0.0014626032263236296,-0.012080559359391991
2025/05/06 15:29:43.135624096,1746538183,129612797,piren,-0.012566178385208723,-0.05607999036823329,0.035364834991648365,-0.0017885708555167796,-0.0007778857678364497,-0.014338019175608693
2025/05/06 15:29:43.696660679,1746538183,688213453,piren,-0.01757062289298369,0.011051401434861666,0.06781093762995671,0.0005093756455206197,0.0016801979682238655,-0.013699931625154134
2025/05/06 15:29:44.259599952,1746538184,251173815,piren,-0.01337279179913518,0.07827351745091816,0.09846105946836736,0.0016969082627729208,-0.0026018650327235427,-0.015661410879771055
2025/05/06 15:29:44.821021357,1746538184,814021656,piren,-0.0019725221765613645,-0.014835214445618082,0.0596272549607675,0.0014941848658724143,0.0024919446454765713,-0.0157332893909727
2025/05/06 15:29:45.409151303,1746538185,377195106,piren,0.009470539571683909,-0.14507506443908783,0.013284273442466193,0.0017675481681736576,-0.0049484025743059875,-0.020074340948854734
2025/05/06 15:29:45.997688692,1746538185,990124977,piren,0.021494139012967414,-0.3674221939181318,-0.06778621354517866,0.0011574160461823718,0.004492145283552644,-0.019582209096871032
2025/05/06 15:29:46.564887196,1746538186,559407307,piren,0.020026923184365816,-0.43366560766787227,-0.06677508558234951,-9.848571042002002e-05,-0.00326221102025382,-0.021619414779951142
2025/05/06 15:29:47.128380597,1746538187,122259723,piren,0.01770216981262973,-0.4654031919976158,-0.07871465213610501,-0.00023193307017451117,0.0038148417016176032,-0.021495873147966457
2025/05/06 15:29:47.717063259,1746538187,687592428,piren,0.003064608638189567,-0.3699650475850254,-0.050285024400802944,-0.0018312427768508188,-0.0010427588239737527,-0.02315566154205172
2025/05/06 15:29:48.262292329,1746538188,256270161,piren,0.0028612569257562698,-0.2321019287314629,-0.007747761108320393,-0.0011923061472079329,0.0006214446219779174,-0.02649125979028572
2025/05/06 15:29:48.841148682,1746538188,817490758,piren,-0.0038586834871665726,-0.033882741036331536,0.08905033621252403,-0.001645132495795551,-1.2572939415998653e-05,-0.024728746926943598
2025/05/06 15:29:49.385835229,1746538189,381037297,piren,0.0031528162930200116,-0.01995093946014357,0.10916779909940123,0.0002632692353321382,-0.0036702161439414473,-0.030447843372377516
2025/05/06 15:29:50.24466905,1746538189,992069445,piren,0.019983863786846585,-0.03387020765436821,0.10595231289990092,0.0003929194656101974,0.0035454982464847634,-0.028246876779979013
2025/05/06 15:29:50.561155927,1746538190,556949514,piren,0.03694123972165853,-0.1568395368414985,0.050074308478556075,0.0013767714547892808,-0.00862481695074378,-0.028955616920814005
2025/05/06 15:29:51.131551549,1746538191,120715069,piren,0.05796336513387014,-0.314232542465434,-0.02462129706880061,0.001937093277650058,0.007083497851088623,-0.026394526712745503
2025/05/06 15:29:51.694720727,1746538191,688628388,piren,0.0735141479952936,-0.40410076556272884,-0.04281063289997041,0.001435435104111655,-0.004854791531698521,-0.029593587557750285
2025/05/06 15:29:52.261831991,1746538192,252597030,piren,0.06805834995513074,-0.5292279946815219,-0.08417851180134908,0.00010352298394941258,0.005010478589402997,-0.025039142140284534
2025/05/06 15:29:52.826882883,1746538192,820766991,piren,0.0512138658783349,-0.5085375593045292,-0.12766683242340476,0.0009152597461402514,-0.0031156554296354086,-0.02053720776002505
2025/05/06 15:29:53.391718146,1746538193,383818754,piren,0.03354840436983399,-0.2500267455374856,0.0024686611524677654,-9.211151817596161e-05,0.0008730813246216636,-0.018471115661336017
2025/05/06 15:29:54.2356477,1746538193,998171422,piren,0.032265323332501414,-0.1471967800628313,0.05231241097727211,0.0006059101310878972,0.0010521877113775892,-0.018199407387087127
2025/05/06 15:29:54.569801222,1746538194,560999463,piren,0.034254577277629455,-0.20542883988528493,0.03336969437303486,-3.520196536596367e-05,-0.005075466373500312,-0.01644411553760282
2025/05/06 15:29:55.129881199,1746538195,126069071,piren,0.04377205165623964,-0.2659540491793791,0.018854255853755914,3.0489323495847992e-06,0.004686667554160475,-0.01279814677664217
2025/05/06 15:29:55.729963158,1746538195,690776468,piren,0.057325634725178126,-0.3934425408292137,-0.07840511034244164,0.00043910001001683246,-0.0050167007386717885,-0.009825528739143434
2025/05/06 15:29:56.260037948,1746538196,255207156,piren,0.053463623848575614,-0.21299363055996934,0.015275089442716444,0.00040101528905315935,0.002323803000003191,-0.007497616571601492
2025/05/06 15:29:56.816907106,1746538196,812662230,piren,0.04403066473544931,-0.22182027842324897,0.008309331399775495,0.0007031657997177373,0.0010415801781878686,-0.0024240070902922157
2025/05/06 15:29:57.440098316,1746538197,434990374,piren,0.034553093298443305,-0.24181738164121794,-0.017911447955468868,-0.00020828929476197355,0.0031274154776714334,0.0009229080609150232
2025/05/06 15:29:57.998417726,1746538197,992872798,piren,0.0244723854231114,-0.12224415919674302,0.04079462418597096,0.0009929740740662496,0.0006121595068307257,0.003497965142309022
2025/05/06 15:29:58.614823073,1746538198,571726281,piren,0.0221941291416351,-0.24457943923821296,0.013114451094457595,-0.0002580004578192566,-0.0012914090350375593,0.004939186451242209
2025/05/06 15:29:59.197566584,1746538199,187833449,piren,0.02264751740052634,-0.42557927319381106,-0.051839744380582524,-0.0009585260305324863,0.00022893983204687462,0.00512363891900941
2025/05/06 15:29:59.794471753,1746538199,784092557,piren,0.02846848046720038,-0.4477147953508868,-0.11185053984604527,0.0004683634751933174,-0.001193759939399404,0.005490766781563436
2025/05/06 15:30:00.365725681,1746538200,353917645,piren,0.02526829853713506,-0.15065224974875188,0.050459390402148654,-0.0010443706372456256,0.003845937956376912,0.005071970683487205
2025/05/06 15:30:00.929107820,1746538200,924163158,piren,0.02008018689570043,-0.23724166013866355,0.0221979510529091,-0.0008277464614019821,-0.003799920467355533,0.004089396296372502
2025/05/06 15:30:01.549280426,1746538201,544086498,piren,0.00898505556254181,-0.3003504778558782,0.00038501185729776684,-0.0007299276519115701,0.005939807928854396,0.004171923060482878
2025/05/06 15:30:02.123062674,1746538202,111358646,piren,0.0020188903009374093,-0.32323937969974353,-0.026563194480745244,-0.000334549335411172,-0.006781047426638791,0.0034590480281040726
2025/05/06 15:30:02.687999011,1746538202,682153767,piren,0.0028482506861934737,-0.20484530870958015,0.029347207223296937,0.000205314379138501,0.004844147151655615,0.002747426158176181
2025/05/06 15:30:03.254459794,1746538203,246600888,piren,0.00021765920367489144,-0.14903778741277138,0.060058084725048394,-0.0005623517530332272,-0.0031740661902258495,0.0009616102742146292
2025/05/06 15:30:03.849440379,1746538203,818089993,piren,0.004997235174954234,-0.291112478531544,0.006297794332497646,-0.00044650762483268745,0.0014510431585780205,-0.000492240567122682
2025/05/06 15:30:04.390509565,1746538204,385717278,piren,0.0011704861494792607,-0.35267939067020326,-0.06346465058531975,0.0019800507658731497,1.7230365462853642e-06,-0.0017157026707225944
2025/05/06 15:30:04.978060768,1746538204,952820425,piren,0.0015146436966730625,-0.14608792361822365,0.03986927991014023,0.0001818147831175263,-0.002722741804246138,-0.0023418398939231
2025/05/06 15:30:05.575684946,1746538205,570783352,piren,-0.003669460818548298,-0.1526807050379764,0.02736879850535335,0.0021556139497105565,0.005190211201880476,-0.002941943937128326
2025/05/06 15:30:06.151407062,1746538206,145012997,piren,-0.008911721033158689,-0.09921696704438447,0.05496224356229363,0.0001485118142426002,-0.007872940980633496,-0.004000500534412073
2025/05/06 15:30:06.719556378,1746538206,710583386,piren,-0.010236745516821924,-0.2261849174277962,0.018372443199433916,-0.0004163388289918922,0.0055600450489369764,-0.004903437667798203
2025/05/06 15:30:07.284388087,1746538207,276624849,piren,-0.00193774535446542,-0.4242179987682002,-0.05278907450384205,-0.0006124671602457625,-0.004895173843239908,-0.006457738422062316
2025/05/06 15:30:07.854905306,1746538207,846368085,piren,0.001861056708230141,-0.46562925160484936,-0.09834008184769455,-0.0004347852698041382,0.002588318506266005,-0.007817329051599086
2025/05/06 15:30:08.431588027,1746538208,419534937,piren,0.0018863479756579676,-0.2637071323198905,-0.010850858594141775,-0.0002627028649584373,-0.002214854205206332,-0.008218938401469792
2025/05/06 15:30:09.71594930,1746538209,42641099,piren,0.0023553578199569172,-0.12183330354485938,0.04995622258478894,-0.0005286011667272873,0.0012240349144467119,-0.01108461988281204
2025/05/06 15:30:09.614784533,1746538209,609143733,piren,-0.004437413704349441,-0.07271180812370595,0.06647230570527854,-0.0002245706639723859,-0.0016631178609596952,-0.01063597108501146
2025/05/06 15:30:10.211260088,1746538210,178007843,piren,-0.0027249282340502945,-0.11820475188542917,0.037292786984528564,-0.00025900753505973145,-0.0002981810395451461,-0.014599944921001827
2025/05/06 15:30:10.751361099,1746538210,746647310,piren,-0.0035938903267950795,-0.06218210913640114,0.05605944362607198,-0.0002105563174781822,0.0026118657975797398,-0.01499298572982914
2025/05/06 15:30:11.323736412,1746538211,313266361,piren,-0.003196220546150444,-0.2174355287353838,-0.007572387208733073,-0.00022717749346809463,-0.003404811279391849,-0.015300040630932911
2025/05/06 15:30:11.900219761,1746538211,894043679,piren,0.0008468871934609046,-0.30892355424546464,-0.04183415465046384,0.0011066834503045185,0.004393373060652759,-0.019976992291288822
2025/05/06 15:30:12.464399568,1746538212,458108050,piren,0.004691203415752909,-0.3458672689390637,-0.05420124205292783,0.001093485031000689,-0.005633569263719239,-0.02050433768687264
2025/05/06 15:30:13.82194806,1746538213,77448089,piren,0.0059499824235040855,-0.2970324894466394,-0.032020259135736764,0.0011196176043702978,0.003162625704047212,-0.02089568399379854
2025/05/06 15:30:13.643790942,1746538213,639300655,piren,0.0022200087113085076,-0.23305210606495175,-0.004420618515713156,0.0010274551817174033,-0.003576774316032979,-0.024650897676460386
2025/05/06 15:30:14.234941169,1746538214,206031656,piren,0.0016037996843278196,-0.18162135827257853,0.014555478059021479,-0.0002914843074413836,0.001527439678062794,-0.0231159131607225
2025/05/06 15:30:14.777711855,1746538214,772501819,piren,0.007947158411695784,-0.1390871324889783,0.029348090837987395,-0.0005457989634866398,-0.001744860004717986,-0.027156881286695907
2025/05/06 15:30:15.451624824,1746538215,436962935,piren,0.016430199563412476,-0.14502846794173174,0.02446506170347386,0.001164214615544135,0.0020263928639614355,-0.026946154481295417
2025/05/06 15:30:16.9244722,1746538216,4844543,piren,0.010191701528505528,-0.18541952878883064,0.0007133574038878923,-8.986063346432021e-05,-0.0006707910154628306,-0.02521239599682659
2025/05/06 15:30:16.582444678,1746538216,574316286,piren,0.019815503040739604,-0.19824612137483738,0.002859492904052216,-0.00135061654495938,-0.00030521926839052906,-0.027072637089327712
2025/05/06 15:30:17.200511829,1746538217,193280479,piren,0.025515687640571244,-0.2978430436252112,-0.039381473278699716,-0.0010680566129915483,0.0010390336475207148,-0.026897583291549346
2025/05/06 15:30:17.786771791,1746538217,759872895,piren,0.024215997384260918,-0.30106827233701766,-0.04309151920418551,-0.001105146536364359,-0.0025356011624791605,-0.02587025506577317
2025/05/06 15:30:18.337346353,1746538218,331104909,piren,0.019637163874343194,-0.23668203840096796,-0.051043627072868906,0.0019729417208474566,0.0030814249005178384,-0.025282604410570557
2025/05/06 15:30:18.932802497,1746538218,899879883,piren,0.009983784048775708,0.04493087167251805,0.08208950508332474,0.00013020407769486416,-0.0021710412732118723,-0.02175606148831504
2025/05/06 15:30:19.477470661,1746538219,472744918,piren,0.008043507339237296,0.1687030538749524,0.12368437593051812,9.006542994481789e-05,0.003004367603943347,-0.023075915241912187
2025/05/06 15:30:20.44089160,1746538220,36861528,piren,0.005939994110362763,0.0006843789578089756,0.052137737965633174,-5.155116422805717e-05,-0.00046888569649505666,-0.021996777706028803
2025/05/06 15:30:20.674426569,1746538220,665856668,piren,0.013469921956453454,-0.1645207472343773,-0.030584571092260628,-0.0006531884381475616,0.0002208227401662553,-0.02028693065498477
2025/05/06 15:30:21.235269593,1746538221,227480477,piren,0.016293071976373426,-0.12250155266156149,-0.002558017888691033,-0.000337440317282058,0.0011755737376212831,-0.02191982585114081
2025/05/06 15:30:21.807686004,1746538221,802731677,piren,0.020944574634813057,-0.32614338478711524,-0.09469936773105186,0.0009811442751753896,-0.0017704613495257994,-0.01958825140891203
2025/05/06 15:30:22.384453993,1746538222,376848266,piren,0.022655438394211996,-0.2542570567610112,-0.06149833065079001,0.0013007385889104695,0.0028702332212078283,-0.020471794962097074
2025/05/06 15:30:22.954096227,1746538222,947965696,piren,0.01136391873004082,-0.14283839581681296,-0.013674643833392766,-0.0008974657208666537,-0.003876134271544576,-0.020119766759068423
2025/05/06 15:30:23.530294063,1746538223,523876093,piren,0.011581341627549424,-0.04606347982423756,0.02142806745826959,7.044615280474422e-05,0.004430241234973448,-0.015992072344332753
2025/05/06 15:30:24.103481799,1746538224,96226145,piren,0.015113251010703101,0.024860319857991656,0.04268685437535948,-0.0007783277038119159,-0.003397376191288025,-0.01663136341761918
2025/05/06 15:30:24.732425514,1746538224,726692971,piren,0.019234423007521755,-0.08735574004254856,-0.012896171710497412,-0.0007912390646920727,0.004584741595766805,-0.012602230289569897
2025/05/06 15:30:25.326028349,1746538225,297940724,piren,0.013959947702366941,-0.031931502875473756,0.010458792973423883,-0.0007496971736440282,-0.004220274742204026,-0.010481585639234185
2025/05/06 15:30:25.872277288,1746538225,866211281,piren,0.018342685343619297,-0.1322203017828057,-0.026686990071093927,-0.0008537445763493555,0.004379474953733198,-0.009490191123628844
2025/05/06 15:30:26.444396139,1746538226,437100501,piren,0.01808950807504142,-0.16295446838863228,-0.04616725384149717,0.0008723522633476775,-0.002014037554435074,-0.008575055592412652
2025/05/06 15:30:27.26581069,1746538227,11573840,piren,0.02329967598016426,-0.04873742049580773,0.007760408570452796,0.0005894390325814111,-0.00195084467039687,-0.00856464161432208
2025/05/06 15:30:27.583585202,1746538227,579932861,piren,0.024681352005834628,0.13362920718589427,0.09627460640149128,0.001102704242748137,0.0019789390338526675,-0.008965134141321196
2025/05/06 15:30:28.164374908,1746538228,151735528,piren,0.025374899361442216,0.1660994508542499,0.09995351293302726,-0.0008291151905497463,-0.0034639462688839983,-0.008957740024804643
2025/05/06 15:30:28.802885885,1746538228,773651850,piren,0.0223149023217473,-0.0288812226217373,0.014837257182936766,0.0011080622575864046,0.007654874663099212,-0.00557363025365996
2025/05/06 15:30:29.348446537,1746538229,343440195,piren,0.018714684973195686,-0.061375668741368225,-0.005800282650258637,-0.0006767981185960737,-0.006337930078045387,-0.005161301112180841
2025/05/06 15:30:29.918382246,1746538229,912857607,piren,0.023040177676077495,-0.18715974987396095,-0.04482568722454249,-0.0012021676375587101,0.002736291426371922,-0.005669689547282703
2025/05/06 15:30:30.492617649,1746538230,485955845,piren,0.02724115256021739,-0.31536373599328726,-0.09503099681892001,-0.0005139727695741474,-0.0014767502062635115,-0.0062858922378465415
2025/05/06 15:30:31.68486873,1746538231,58165171,piren,0.02767759142379561,-0.2800877281425217,-0.0991070538751311,0.0004558014112572122,-0.0009245374105955114,-0.006286423410169359
2025/05/06 15:30:31.633786704,1746538231,628800106,piren,0.024148216964213667,-0.04808903726151572,0.0006502446365738849,0.0008371628784672162,0.0019293846896057077,-0.0057184398278202035
2025/05/06 15:30:32.269563416,1746538232,255097735,piren,0.02156149078018143,0.098036373641047,0.06430100321842298,0.0007541858566229064,-0.0022342273183847553,-0.005618102989221817
2025/05/06 15:30:32.836545864,1746538232,832568161,piren,0.019427643555270865,0.12405610093872425,0.07416252656043852,0.0005945590875375105,0.002881856832582444,-0.005592689635884853
2025/05/06 15:30:33.433219825,1746538233,402335272,piren,0.02336898116230839,0.05972908270270569,0.0516250565062008,0.001077994891615432,-0.003145640751403426,-0.005669388008526421
2025/05/06 15:30:33.978375438,1746538233,973945701,piren,0.02346746270058911,0.08365164277810451,0.05875456593618714,0.0007314989791241772,0.0026544115594113226,-0.006253038295052151
2025/05/06 15:30:34.545383121,1746538234,541121201,piren,0.023822692577463216,0.04242083783295678,0.034167084278975766,-0.0005455386524648184,-0.0019820837068094,-0.00647544442583529
2025/05/06 15:30:35.118392803,1746538235,110614061,piren,0.028951680785282173,-0.1339298513459853,-0.03402168664267168,-0.0009108501962065557,0.0013798403478814697,-0.006774294151569719
2025/05/06 15:30:35.692735639,1746538235,684148494,piren,0.029232592553798134,-0.20967135481000027,-0.04969510949198756,-0.0007027136983176422,-0.00037957845929475467,-0.008306504289208278
2025/05/06 15:30:36.310036430,1746538236,305267750,piren,0.029155196821141094,-0.2966023663200175,-0.08498645283763688,-0.0009809312086812177,-3.181950601123097e-06,-0.007523689265556124
2025/05/06 15:30:36.905692735,1746538236,873620492,piren,0.023513913333400083,-0.22766474176492185,-0.06613653322726373,-0.0007502945184986114,0.0016530690653455756,-0.006967915049429548
2025/05/06 15:30:37.451621047,1746538237,447040132,piren,0.020064576682266994,-0.09911663361986481,-0.0293277763056993,0.0006158535791705114,-0.004395453247586664,-0.006289916356518895
2025/05/06 15:30:38.49291635,1746538238,16231832,piren,0.014152035461203506,0.11517354388600515,0.060295207687597184,0.0008527115592885254,0.004437066337875116,-0.0034297015482281402
2025/05/06 15:30:38.615001557,1746538238,606084494,piren,0.018999702489919987,0.18370263755349622,0.09178034225559904,-0.00016390859378787997,-0.004552393626311301,-0.004422088328083328
2025/05/06 15:30:39.236881007,1746538239,200381136,piren,0.024850126472209973,0.1320320110047875,0.07944179740114003,0.0014023556171009009,0.003988535308508572,-0.004393915348082403
2025/05/06 15:30:39.778834219,1746538239,774178294,piren,0.028137633783250307,0.12254320160650736,0.06844808070051234,0.0007397050432368408,-0.00345854677548893,-0.004442183755822452
2025/05/06 15:30:40.408606006,1746538240,394000249,piren,0.02837077216122956,0.015318619692272193,0.016380400285317672,-0.0002919290631852166,0.0030220708989627783,-0.004393827239093351
2025/05/06 15:30:40.971925574,1746538240,966486443,piren,0.025748579862461624,-0.26537276681049066,-0.10253679158017362,-9.883576810189372e-05,-0.0022425289756857073,-0.004122498943834675
2025/05/06 15:30:41.574433797,1746538241,541647822,piren,0.022808689544479843,-0.2248760316682903,-0.0813568633415683,0.0002514890976994133,0.0020220162354347075,-0.003769790353577265
2025/05/06 15:30:42.128996888,1746538242,123156024,piren,0.01962066440238689,-0.0970100397551204,-0.023956227068576072,0.00010466740088277642,-0.000945692860361364,-0.0031874849998571844
2025/05/06 15:30:42.706178928,1746538242,701573870,piren,0.018972513440880717,-0.0012895413988560749,0.01744701705651328,3.0657807323869514e-05,-0.0004030888915692944,-0.0032743892906701485
2025/05/06 15:30:43.285486449,1746538243,279479035,piren,0.0231260770701857,0.04455794316375594,0.03565924483350587,-8.401557491809127e-05,0.00044421641045271076,-0.0041214074921649335
2025/05/06 15:30:43.938974311,1746538243,913596755,piren,0.02331514145243538,0.03338002290396721,0.02867796609042906,0.0001348049801426428,-0.0008254499480564631,-0.0036852300800753668
2025/05/06 15:30:44.500791653,1746538244,495239643,piren,0.022020896292288466,-0.000821013583171333,0.011643488429149734,-9.37877644959287e-05,0.0011173102913840651,-0.00336390894779025
2025/05/06 15:30:45.90480758,1746538245,78937247,piren,0.020830679213040843,-0.03476671110824847,-0.00496410727609756,9.191932789635102e-05,-0.0006375120076963162,-0.002450661900921209
2025/05/06 15:30:45.672970079,1746538245,666667914,piren,0.019391121541709886,-0.051435985865388105,-0.013234893435338362,-2.826077241984666e-05,0.0011536424789603706,-0.002073021486555483
2025/05/06 15:30:46.251529569,1746538246,246489982,piren,0.017629353548064042,-0.048659238027818144,-0.012549431579301268,-6.80671482214175e-05,-0.0008072330456327769,-0.002090865395217548
2025/05/06 15:30:46.833222043,1746538246,826144219,piren,0.017104247778287274,-0.037089425153136776,-0.008494199650102726,-6.970224905257405e-05,-0.002958572160027227,-0.0005887511200615838
2025/05/06 15:30:47.421733021,1746538247,411815714,piren,0.017053987160398375,0.09775952639767985,0.05146277110801187,0.0009689915890125814,0.004200540385528359,0.0021203021048608345
2025/05/06 15:30:48.53186050,1746538248,48553164,piren,0.01592428731652623,0.12658800547266838,0.055155693063501425,-0.000502232419693967,-0.0024895423932665274,0.0028933995618916756
2025/05/06 15:30:48.648447482,1746538248,623606641,piren,-0.0028393077561591163,-0.014781550221870703,-0.0037414222177657476,-0.0003358771615173637,0.0011197717956679377,0.0005023538031313317
2025/05/06 15:30:49.208523820,1746538249,201176505,piren,-0.01789992551171461,-0.006456886374763035,-0.0012758541091366469,0.0010434423160960726,-0.0029062436441046535,-0.00036070838190240716
2025/05/06 15:30:49.779340379,1746538249,773400055,piren,-0.03821592329223567,-0.11389505435765776,-0.039378736710340305,-0.0016062347237940577,0.00549878414783139,0.0010190995216943926
2025/05/06 15:30:50.359772253,1746538250,353681427,piren,-0.05864611844818536,-0.22648325830126934,-0.10030824327304369,0.0012167547290808571,-0.0043825086660225785,0.005102426023704742
2025/05/06 15:30:50.952151431,1746538250,942030556,piren,-0.06353335001598241,-0.08812569876110568,-0.04011227989249468,-0.00021333130374326018,0.0012809764956768046,0.0033455047988668195
2025/05/06 15:30:51.604658268,1746538251,599294097,piren,-0.059810613895525624,0.06377495762846475,0.02114466939159002,-0.00028750711523542927,-1.2978352762549366e-05,0.003365378349270992
2025/05/06 15:30:52.183368103,1746538252,175933478,piren,-0.062306552022578496,0.0762469764400095,0.02881144686589828,0.0008626602946424945,-0.00033009516762015097,0.004192851728587112
2025/05/06 15:30:52.760436115,1746538252,750195373,piren,-0.06710325218806248,0.11052226446873667,0.042703265297408866,-0.002116267184825304,0.002615775798352004,0.004522319548814107
2025/05/06 15:30:53.331997596,1746538253,326397002,piren,-0.07213522272398831,0.08688231093903631,0.03621927807980807,0.001851708682902217,-0.0029939625113141683,0.003435745753018788
2025/05/06 15:30:53.911732714,1746538253,905993987,piren,-0.07914669614358952,0.07811595027108223,0.030072212435512058,-0.001707508837580179,0.0034761891587938376,0.002105078599382824
2025/05/06 15:30:54.486412225,1746538254,481310918,piren,-0.08392256278108381,-0.002887848658377705,-0.002569990705069726,-0.00015302564291947386,-0.002955364547466132,0.0008114124235666892
2025/05/06 15:30:55.70593260,1746538255,58086143,piren,-0.09310663250823964,-0.061192445184566915,-0.02915882065403702,0.002597262825032821,0.0023888129937744617,-0.001549211388873163
2025/05/06 15:30:55.686300495,1746538255,680567312,piren,-0.10312030822190324,0.033218506812828605,0.014716820932854029,-0.00037815717829180906,-0.002355432610696043,-0.0033274445436577613
2025/05/06 15:30:56.271308706,1746538256,265606317,piren,-0.11340545175841343,0.07940255354427415,0.032465724679610064,0.0010453271772789675,0.0013725223587453688,-0.004714182685437308
2025/05/06 15:30:56.881329304,1746538256,845796434,piren,-0.12442038270264799,-0.03269194630151492,-0.009410374377931846,0.0004973258482224453,-0.0010076168820958014,-0.004959670208401955
2025/05/06 15:30:57.435757002,1746538257,430535667,piren,-0.132690886877049,-0.11168712780065375,-0.03962506223838554,-0.00016816472875351443,0.0007897705472700394,-0.005679135365416351
2025/05/06 15:30:58.38906431,1746538258,8825045,piren,-0.14284112138272603,-0.10020222500813261,-0.03675796810373911,0.000934969529728009,-7.834474407729134e-05,-0.006573199616712389
2025/05/06 15:30:58.593145307,1746538258,588496050,piren,-0.15205842840182848,-0.02079053865217409,-0.0009204963251411582,-0.0028059021912960813,-0.0014169369036986987,-0.007612408579149483
2025/05/06 15:30:59.241374208,1746538259,217860775,piren,-0.1594732571617823,-0.0937080899521649,-0.041193313848682446,-0.00046146326643574625,0.0016859170033143786,-0.004130358758250118
2025/05/06 15:30:59.802374329,1746538259,797157204,piren,-0.16714045558714913,0.01896920311964191,0.006599496416789165,0.000434941153497677,-0.0026714738648001995,-0.00030258782682987897
2025/05/06 15:31:00.398810490,1746538260,377211956,piren,-0.17017300636288185,0.043176612284460514,0.012709338329948803,-0.0013594175893023555,0.004050584057735008,0.0035715946256615963
2025/05/06 15:31:00.963824512,1746538260,959809968,piren,-0.17524812847645926,-0.03639483470096927,-0.02168994138775143,0.00070789352252079,-0.003704954043310419,0.005029028070735063
2025/05/06 15:31:01.548515083,1746538261,537742451,piren,-0.18013686073014487,0.03285879309152047,0.010286822695516486,-0.0013809381850867024,0.004785538885561193,0.005114379043710839
2025/05/06 15:31:02.123381594,1746538262,116997927,piren,-0.19150373386618258,0.08135134198952337,0.027447605900803012,-0.001019562174095048,-0.004348686414219432,0.0019170134105521881
2025/05/06 15:31:02.762257987,1746538262,756861239,piren,-0.20717155925566316,-0.0462386598939529,-0.019926906673704028,0.000565703030044627,0.0034499043248486074,0.0004966905577068781
2025/05/06 15:31:03.348870954,1746538263,339695941,piren,-0.22391032423804574,-0.006655172207594082,-0.002429889965453795,-0.00024879085604572496,-0.0010000304367708463,0.002259633815701129
2025/05/06 15:31:03.936402940,1746538263,932042803,piren,-0.2387249957934079,0.02835953857041959,0.016540049640814663,0.0007139470305629948,0.0002464423475594743,5.888353608802219e-05
2025/05/06 15:31:04.519096515,1746538264,511305974,piren,-0.25187841170067854,0.14618444758331792,0.06164788080414546,-0.0002696259879520414,0.000263512752803341,-0.005163239635722824
2025/05/06 15:31:05.99765994,1746538265,94789612,piren,-0.2632072367569548,0.0395362675496142,0.02663195506020133,-0.0001004249611595742,-0.00144866933035268,-0.012574897777189212
2025/05/06 15:31:05.680978230,1746538265,674178235,piren,-0.2751904315991247,0.054697809698266056,0.03162813822056705,-0.0019685779218223884,0.0010582485319379563,-0.014418218498458216
2025/05/06 15:31:06.314842130,1746538266,310570233,piren,-0.279173428848577,-0.0766013841094943,-0.018134844175144934,-0.0002509578937182211,-0.0022794151655107903,-0.011126544818729291
2025/05/06 15:31:06.901024544,1746538266,888455687,piren,-0.2770802462934626,-0.19060546881531173,-0.055680922719437975,-0.0018895182392508797,0.0011951880685927058,-0.006568255156976361
