time,header_stamp_secs,header_stamp_nsecs,header_frame_id,status_status,status_service,latitude,longitude,altitude,position_covariance_0,position_covariance_1,position_covariance_2,position_covariance_3,position_covariance_4,position_covariance_5,position_covariance_6,position_covariance_7,position_covariance_8,position_covariance_type
2025/04/09 08:48:15.782595577,1744181295,756770275,mA1/gps,0,1,63.43459716101824,10.39309209596398,0.0,1.4400000000000002e-10,0.0,0.0,0.0,1.4400000000000002e-10,0.0,0.0,0.0,1.0,2
2025/04/09 08:48:15.805731340,1744181295,800774109,mA1/gps,0,1,63.43459716109752,10.393092101517661,0.0,1.4400000000000002e-10,0.0,0.0,0.0,1.4400000000000002e-10,0.0,0.0,0.0,1.0,2
2025/04/09 08:48:15.854762445,1744181295,850325532,mA1/gps,0,1,63.43459716004222,10.393092106155025,0.0,1.4400000000000002e-10,0.0,0.0,0.0,1.4400000000000002e-10,0.0,0.0,0.0,1.0,2
2025/04/09 08:48:15.905508765,1744181295,900821189,mA1/gps,0,1,63.43459715812235,10.39309210984621,0.0,1.4400000000000002e-10,0.0,0.0,0.0,1.4400000000000002e-10,0.0,0.0,0.0,1.0,2
2025/04/09 08:48:15.953720209,1744181295,952363679,mA1/gps,0,1,63.43459715715333,10.3930921125705,0.0,1.4400000000000002e-10,0.0,0.0,0.0,1.4400000000000002e-10,0.0,0.0,0.0,1.0,2
2025/04/09 08:48:16.9700052,1744181296,3693223,mA1/gps,0,1,63.43459715693558,10.393092114173049,0.0,1.4400000000000002e-10,0.0,0.0,0.0,1.4400000000000002e-10,0.0,0.0,0.0,1.0,2
2025/04/09 08:48:16.57679638,1744181296,55121634,mA1/gps,0,1,63.43459715678826,10.393092113545352,0.0,1.4400000000000002e-10,0.0,0.0,0.0,1.4400000000000002e-10,0.0,0.0,0.0,1.0,2
2025/04/09 08:48:16.101468875,1744181296,98832725,mA1/gps,0,1,63.434597155742594,10.39309211096367,0.0,1.4400000000000002e-10,0.0,0.0,0.0,1.4400000000000002e-10,0.0,0.0,0.0,1.0,2
2025/04/09 08:48:16.152397841,1744181296,149674037,mA1/gps,0,1,63.43459715514494,10.393092106799136,0.0,1.4400000000000002e-10,0.0,0.0,0.0,1.4400000000000002e-10,0.0,0.0,0.0,1.0,2
2025/04/09 08:48:16.208844330,1744181296,201561556,mA1/gps,0,1,63.43459715408322,10.393092102577839,0.0,1.4400000000000002e-10,0.0,0.0,0.0,1.4400000000000002e-10,0.0,0.0,0.0,1.0,2
2025/04/09 08:48:16.254863611,1744181296,251370722,mA1/gps,0,1,63.43459715298708,10.393092097801516,0.0,1.4400000000000002e-10,0.0,0.0,0.0,1.4400000000000002e-10,0.0,0.0,0.0,1.0,2
2025/04/09 08:48:16.314712934,1744181296,309110180,mA1/gps,0,1,63.43459715173647,10.393092091423535,0.0,1.4400000000000002e-10,0.0,0.0,0.0,1.4400000000000002e-10,0.0,0.0,0.0,1.0,2
2025/04/09 08:48:16.353451754,1744181296,349782207,mA1/gps,0,1,63.43459715201639,10.393092085719088,0.0,1.4400000000000002e-10,0.0,0.0,0.0,1.4400000000000002e-10,0.0,0.0,0.0,1.0,2
2025/04/09 08:48:16.741442279,1744181296,403144367,mA1/gps,0,1,63.43459715238159,10.39309208047311,0.0,1.4400000000000002e-10,0.0,0.0,0.0,1.4400000000000002e-10,0.0,0.0,0.0,1.0,2
2025/04/09 08:48:16.742435734,1744181296,452741308,mA1/gps,0,1,63.43459715172254,10.393092075256442,0.0,1.4400000000000002e-10,0.0,0.0,0.0,1.4400000000000002e-10,0.0,0.0,0.0,1.0,2
2025/04/09 08:48:16.768666247,1744181296,503713751,mA1/gps,0,1,63.43459715012442,10.393092071323819,0.0,1.4400000000000002e-10,0.0,0.0,0.0,1.4400000000000002e-10,0.0,0.0,0.0,1.0,2
2025/04/09 08:48:16.768762391,1744181296,553559376,mA1/gps,0,1,63.43459714943529,10.393092067835136,0.0,1.4400000000000002e-10,0.0,0.0,0.0,1.4400000000000002e-10,0.0,0.0,0.0,1.0,2
2025/04/09 08:48:16.773084875,1744181296,604554612,mA1/gps,0,1,63.434597150146864,10.393092066093685,0.0,1.4400000000000002e-10,0.0,0.0,0.0,1.4400000000000002e-10,0.0,0.0,0.0,1.0,2
2025/04/09 08:48:16.781048572,1744181296,654350479,mA1/gps,0,1,63.43459715036528,10.393092065792377,0.0,1.4400000000000002e-10,0.0,0.0,0.0,1.4400000000000002e-10,0.0,0.0,0.0,1.0,2
2025/04/09 08:48:16.781197009,1744181296,705284201,mA1/gps,0,1,63.43459715008385,10.393092066810198,0.0,1.4400000000000002e-10,0.0,0.0,0.0,1.4400000000000002e-10,0.0,0.0,0.0,1.0,2
2025/04/09 08:48:16.787768785,1744181296,749939766,mA1/gps,0,1,63.43459714988745,10.393092066530532,0.0,1.4400000000000002e-10,0.0,0.0,0.0,1.4400000000000002e-10,0.0,0.0,0.0,1.0,2
2025/04/09 08:48:16.807926616,1744181296,803449133,mA1/gps,0,1,63.43459714936145,10.39309206644802,0.0,1.4400000000000002e-10,0.0,0.0,0.0,1.4400000000000002e-10,0.0,0.0,0.0,1.0,2
2025/04/09 08:48:16.856392013,1744181296,854584885,mA1/gps,0,1,63.434597148580124,10.393092067769953,0.0,1.4400000000000002e-10,0.0,0.0,0.0,1.4400000000000002e-10,0.0,0.0,0.0,1.0,2
2025/04/09 08:48:16.899193775,1744181296,897131970,mA1/gps,0,1,63.43459714841203,10.393092070058929,0.0,1.4400000000000002e-10,0.0,0.0,0.0,1.4400000000000002e-10,0.0,0.0,0.0,1.0,2
2025/04/09 08:48:16.957657100,1744181296,949876027,mA1/gps,0,1,63.43459714866085,10.393092074470434,0.0,1.4400000000000002e-10,0.0,0.0,0.0,1.4400000000000002e-10,0.0,0.0,0.0,1.0,2
2025/04/09 08:48:17.20067114,1744181297,2969990,mA1/gps,0,1,63.43459714937599,10.393092081939875,0.0,1.4400000000000002e-10,0.0,0.0,0.0,1.4400000000000002e-10,0.0,0.0,0.0,1.0,2
2025/04/09 08:48:17.55130870,1744181297,54473879,mA1/gps,0,1,63.43459714871719,10.393092089227686,0.0,1.4400000000000002e-10,0.0,0.0,0.0,1.4400000000000002e-10,0.0,0.0,0.0,1.0,2
2025/04/09 08:48:17.103625575,1744181297,97877192,mA1/gps,0,1,63.43459714705893,10.39309209829014,0.0,1.4400000000000002e-10,0.0,0.0,0.0,1.4400000000000002e-10,0.0,0.0,0.0,1.0,2
2025/04/09 08:48:17.149207022,1744181297,147586188,mA1/gps,0,1,63.4345971464607,10.393092106539049,0.0,1.4400000000000002e-10,0.0,0.0,0.0,1.4400000000000002e-10,0.0,0.0,0.0,1.0,2
2025/04/09 08:48:17.200760874,1744181297,199441891,mA1/gps,0,1,63.434597146453356,10.393092113845853,0.0,1.4400000000000002e-10,0.0,0.0,0.0,1.4400000000000002e-10,0.0,0.0,0.0,1.0,2
2025/04/09 08:48:17.250906565,1744181297,249315996,mA1/gps,0,1,63.434597146654596,10.39309211864403,0.0,1.4400000000000002e-10,0.0,0.0,0.0,1.4400000000000002e-10,0.0,0.0,0.0,1.0,2
2025/04/09 08:48:17.301234145,1744181297,300239150,mA1/gps,0,1,63.43459714588156,10.393092122167095,0.0,1.4400000000000002e-10,0.0,0.0,0.0,1.4400000000000002e-10,0.0,0.0,0.0,1.0,2
2025/04/09 08:48:17.352615298,1744181297,350154331,mA1/gps,0,1,63.43459714514322,10.39309212282559,0.0,1.4400000000000002e-10,0.0,0.0,0.0,1.4400000000000002e-10,0.0,0.0,0.0,1.0,2
2025/04/09 08:48:17.403142652,1744181297,401314000,mA1/gps,0,1,63.434597144005814,10.393092121056169,0.0,1.4400000000000002e-10,0.0,0.0,0.0,1.4400000000000002e-10,0.0,0.0,0.0,1.0,2
2025/04/09 08:48:17.452343893,1744181297,451359856,mA1/gps,0,1,63.43459714299939,10.393092117520922,0.0,1.4400000000000002e-10,0.0,0.0,0.0,1.4400000000000002e-10,0.0,0.0,0.0,1.0,2
2025/04/09 08:48:17.503721968,1744181297,502338784,mA1/gps,0,1,63.434597141842694,10.393092110892217,0.0,1.4400000000000002e-10,0.0,0.0,0.0,1.4400000000000002e-10,0.0,0.0,0.0,1.0,2
2025/04/09 08:48:17.558636989,1744181297,555092252,mA1/gps,0,1,63.434597142140944,10.393092103234267,0.0,1.4400000000000002e-10,0.0,0.0,0.0,1.4400000000000002e-10,0.0,0.0,0.0,1.0,2
2025/04/09 08:48:17.621345935,1744181297,609640702,mA1/gps,0,1,63.43459714228158,10.39309209461602,0.0,1.4400000000000002e-10,0.0,0.0,0.0,1.4400000000000002e-10,0.0,0.0,0.0,1.0,2
2025/04/09 08:48:17.681665287,1744181297,646502075,mA1/gps,0,1,63.43459714143897,10.393092086517923,0.0,1.4400000000000002e-10,0.0,0.0,0.0,1.4400000000000002e-10,0.0,0.0,0.0,1.0,2
2025/04/09 08:48:17.712579379,1744181297,699486158,mA1/gps,0,1,63.43459713989157,10.393092077730303,0.0,1.4400000000000002e-10,0.0,0.0,0.0,1.4400000000000002e-10,0.0,0.0,0.0,1.0,2
2025/04/09 08:48:17.756495257,1744181297,748643397,mA1/gps,0,1,63.43459713907993,10.39309206937685,0.0,1.4400000000000002e-10,0.0,0.0,0.0,1.4400000000000002e-10,0.0,0.0,0.0,1.0,2
2025/04/09 08:48:17.843963332,1744181297,803645861,mA1/gps,0,1,63.43459713921535,10.393092061820592,0.0,1.4400000000000002e-10,0.0,0.0,0.0,1.4400000000000002e-10,0.0,0.0,0.0,1.0,2
2025/04/09 08:48:17.909943471,1744181297,853496080,mA1/gps,0,1,63.43459713967292,10.39309205522631,0.0,1.4400000000000002e-10,0.0,0.0,0.0,1.4400000000000002e-10,0.0,0.0,0.0,1.0,2
2025/04/09 08:48:17.945086997,1744181297,905066856,mA1/gps,0,1,63.43459713908406,10.393092050805791,0.0,1.4400000000000002e-10,0.0,0.0,0.0,1.4400000000000002e-10,0.0,0.0,0.0,1.0,2
2025/04/09 08:48:17.975344315,1744181297,955427175,mA1/gps,0,1,63.4345971387614,10.393092048857742,0.0,1.4400000000000002e-10,0.0,0.0,0.0,1.4400000000000002e-10,0.0,0.0,0.0,1.0,2
2025/04/09 08:48:18.17104534,1744181297,996753119,mA1/gps,0,1,63.434597138045774,10.393092048146583,0.0,1.4400000000000002e-10,0.0,0.0,0.0,1.4400000000000002e-10,0.0,0.0,0.0,1.0,2
2025/04/09 08:48:18.51374301,1744181298,50243744,mA1/gps,0,1,63.43459713740999,10.393092050256326,0.0,1.4400000000000002e-10,0.0,0.0,0.0,1.4400000000000002e-10,0.0,0.0,0.0,1.0,2
2025/04/09 08:48:18.109102514,1744181298,103671776,mA1/gps,0,1,63.434597137108014,10.393092053130847,0.0,1.4400000000000002e-10,0.0,0.0,0.0,1.4400000000000002e-10,0.0,0.0,0.0,1.0,2
2025/04/09 08:48:18.154516067,1744181298,152309672,mA1/gps,0,1,63.43459713735452,10.39309205814947,0.0,1.4400000000000002e-10,0.0,0.0,0.0,1.4400000000000002e-10,0.0,0.0,0.0,1.0,2
2025/04/09 08:48:18.211695400,1744181298,204781959,mA1/gps,0,1,63.434597138229435,10.393092064960594,0.0,1.4400000000000002e-10,0.0,0.0,0.0,1.4400000000000002e-10,0.0,0.0,0.0,1.0,2
2025/04/09 08:48:18.259911050,1744181298,255078323,mA1/gps,0,1,63.4345971376363,10.393092070904148,0.0,1.4400000000000002e-10,0.0,0.0,0.0,1.4400000000000002e-10,0.0,0.0,0.0,1.0,2
2025/04/09 08:48:18.309795688,1744181298,307778162,mA1/gps,0,1,63.434597136070195,10.39309207772828,0.0,1.4400000000000002e-10,0.0,0.0,0.0,1.4400000000000002e-10,0.0,0.0,0.0,1.0,2
2025/04/09 08:48:18.348180212,1744181298,346144466,mA1/gps,0,1,63.43459713544526,10.393092083997555,0.0,1.4400000000000002e-10,0.0,0.0,0.0,1.4400000000000002e-10,0.0,0.0,0.0,1.0,2
2025/04/09 08:48:18.397966793,1744181298,397214188,mA1/gps,0,1,63.43459713561265,10.393092089529173,0.0,1.4400000000000002e-10,0.0,0.0,0.0,1.4400000000000002e-10,0.0,0.0,0.0,1.0,2
2025/04/09 08:48:18.447693368,1744181298,447111813,mA1/gps,0,1,63.43459713592573,10.393092092965015,0.0,1.4400000000000002e-10,0.0,0.0,0.0,1.4400000000000002e-10,0.0,0.0,0.0,1.0,2
2025/04/09 08:48:18.499018162,1744181298,498088560,mA1/gps,0,1,63.43459713520077,10.393092095011049,0.0,1.4400000000000002e-10,0.0,0.0,0.0,1.4400000000000002e-10,0.0,0.0,0.0,1.0,2
2025/04/09 08:48:18.548749770,1744181298,548075928,mA1/gps,0,1,63.43459713465309,10.393092095295403,0.0,1.4400000000000002e-10,0.0,0.0,0.0,1.4400000000000002e-10,0.0,0.0,0.0,1.0,2
2025/04/09 08:48:18.601849266,1744181298,600849561,mA1/gps,0,1,63.43459713385767,10.393092095800341,0.0,1.4400000000000002e-10,0.0,0.0,0.0,1.4400000000000002e-10,0.0,0.0,0.0,1.0,2
2025/04/09 08:48:18.650700704,1744181298,649687952,mA1/gps,0,1,63.43459713287783,10.393092095419012,0.0,1.4400000000000002e-10,0.0,0.0,0.0,1.4400000000000002e-10,0.0,0.0,0.0,1.0,2
2025/04/09 08:48:18.704322070,1744181298,703101110,mA1/gps,0,1,63.43459713167424,10.393092095227793,0.0,1.4400000000000002e-10,0.0,0.0,0.0,1.4400000000000002e-10,0.0,0.0,0.0,1.0,2
2025/04/09 08:48:18.754555824,1744181298,752876438,mA1/gps,0,1,63.434597131906266,10.393092094679355,0.0,1.4400000000000002e-10,0.0,0.0,0.0,1.4400000000000002e-10,0.0,0.0,0.0,1.0,2
2025/04/09 08:48:18.804756313,1744181298,803890789,mA1/gps,0,1,63.434597131708294,10.393092094358371,0.0,1.4400000000000002e-10,0.0,0.0,0.0,1.4400000000000002e-10,0.0,0.0,0.0,1.0,2
2025/04/09 08:48:18.854131821,1744181298,853651676,mA1/gps,0,1,63.4345971306922,10.393092095315133,0.0,1.4400000000000002e-10,0.0,0.0,0.0,1.4400000000000002e-10,0.0,0.0,0.0,1.0,2
2025/04/09 08:48:18.905450831,1744181298,904663140,mA1/gps,0,1,63.434597128465114,10.393092095659119,0.0,1.4400000000000002e-10,0.0,0.0,0.0,1.4400000000000002e-10,0.0,0.0,0.0,1.0,2
2025/04/09 08:48:18.947645280,1744181298,946515472,mA1/gps,0,1,63.43459712725047,10.393092096296762,0.0,1.4400000000000002e-10,0.0,0.0,0.0,1.4400000000000002e-10,0.0,0.0,0.0,1.0,2
2025/04/09 08:48:19.4099142,1744181298,997530781,mA1/gps,0,1,63.43459712723599,10.393092097430213,0.0,1.4400000000000002e-10,0.0,0.0,0.0,1.4400000000000002e-10,0.0,0.0,0.0,1.0,2
2025/04/09 08:48:19.47774487,1744181299,46800242,mA1/gps,0,1,63.43459712762649,10.393092099999187,0.0,1.4400000000000002e-10,0.0,0.0,0.0,1.4400000000000002e-10,0.0,0.0,0.0,1.0,2
2025/04/09 08:48:19.99251509,1744181299,98207801,mA1/gps,0,1,63.434597126635786,10.393092102010264,0.0,1.4400000000000002e-10,0.0,0.0,0.0,1.4400000000000002e-10,0.0,0.0,0.0,1.0,2
2025/04/09 08:48:19.148592290,1744181299,148115889,mA1/gps,0,1,63.43459712598758,10.39309210355737,0.0,1.4400000000000002e-10,0.0,0.0,0.0,1.4400000000000002e-10,0.0,0.0,0.0,1.0,2
2025/04/09 08:48:19.201043861,1744181299,199649588,mA1/gps,0,1,63.434597125177966,10.393092103807337,0.0,1.4400000000000002e-10,0.0,0.0,0.0,1.4400000000000002e-10,0.0,0.0,0.0,1.0,2
2025/04/09 08:48:19.250486590,1744181299,249064260,mA1/gps,0,1,63.434597124363286,10.393092102907827,0.0,1.4400000000000002e-10,0.0,0.0,0.0,1.4400000000000002e-10,0.0,0.0,0.0,1.0,2
2025/04/09 08:48:19.301747045,1744181299,299939930,mA1/gps,0,1,63.43459712363345,10.39309210078395,0.0,1.4400000000000002e-10,0.0,0.0,0.0,1.4400000000000002e-10,0.0,0.0,0.0,1.0,2
2025/04/09 08:48:19.354468891,1744181299,350277056,mA1/gps,0,1,63.434597123972736,10.393092097158288,0.0,1.4400000000000002e-10,0.0,0.0,0.0,1.4400000000000002e-10,0.0,0.0,0.0,1.0,2
2025/04/09 08:48:19.402188059,1744181299,401205102,mA1/gps,0,1,63.434597124414736,10.393092091869992,0.0,1.4400000000000002e-10,0.0,0.0,0.0,1.4400000000000002e-10,0.0,0.0,0.0,1.0,2
2025/04/09 08:48:19.453105119,1744181299,451269116,mA1/gps,0,1,63.43459712398359,10.393092085684325,0.0,1.4400000000000002e-10,0.0,0.0,0.0,1.4400000000000002e-10,0.0,0.0,0.0,1.0,2
2025/04/09 08:48:19.506085700,1744181299,503762394,mA1/gps,0,1,63.43459712250404,10.393092079113611,0.0,1.4400000000000002e-10,0.0,0.0,0.0,1.4400000000000002e-10,0.0,0.0,0.0,1.0,2
2025/04/09 08:48:19.555537290,1744181299,553548338,mA1/gps,0,1,63.43459712213499,10.393092071996872,0.0,1.4400000000000002e-10,0.0,0.0,0.0,1.4400000000000002e-10,0.0,0.0,0.0,1.0,2
2025/04/09 08:48:19.606978991,1744181299,605137528,mA1/gps,0,1,63.434597122753,10.393092064182614,0.0,1.4400000000000002e-10,0.0,0.0,0.0,1.4400000000000002e-10,0.0,0.0,0.0,1.0,2
2025/04/09 08:48:19.656873541,1744181299,655020530,mA1/gps,0,1,63.4345971232949,10.393092057509284,0.0,1.4400000000000002e-10,0.0,0.0,0.0,1.4400000000000002e-10,0.0,0.0,0.0,1.0,2
2025/04/09 08:48:19.706871898,1744181299,705982503,mA1/gps,0,1,63.43459712300359,10.393092051197721,0.0,1.4400000000000002e-10,0.0,0.0,0.0,1.4400000000000002e-10,0.0,0.0,0.0,1.0,2
2025/04/09 08:48:19.756807832,1744181299,755768907,mA1/gps,0,1,63.43459712259063,10.393092046057198,0.0,1.4400000000000002e-10,0.0,0.0,0.0,1.4400000000000002e-10,0.0,0.0,0.0,1.0,2
2025/04/09 08:48:19.799558917,1744181299,796702940,mA1/gps,0,1,63.43459712228896,10.393092041495365,0.0,1.4400000000000002e-10,0.0,0.0,0.0,1.4400000000000002e-10,0.0,0.0,0.0,1.0,2
2025/04/09 08:48:19.848994609,1744181299,848283806,mA1/gps,0,1,63.43459712196808,10.393092039931819,0.0,1.4400000000000002e-10,0.0,0.0,0.0,1.4400000000000002e-10,0.0,0.0,0.0,1.0,2
2025/04/09 08:48:19.900845927,1744181299,899227194,mA1/gps,0,1,63.43459712111525,10.393092038988579,0.0,1.4400000000000002e-10,0.0,0.0,0.0,1.4400000000000002e-10,0.0,0.0,0.0,1.0,2
2025/04/09 08:48:19.950540269,1744181299,949092755,mA1/gps,0,1,63.43459712188814,10.393092039758908,0.0,1.4400000000000002e-10,0.0,0.0,0.0,1.4400000000000002e-10,0.0,0.0,0.0,1.0,2
2025/04/09 08:48:20.2379150,1744181300,360643,mA1/gps,0,1,63.43459712257126,10.393092041275068,0.0,1.4400000000000002e-10,0.0,0.0,0.0,1.4400000000000002e-10,0.0,0.0,0.0,1.0,2
2025/04/09 08:48:20.50669111,1744181300,50165711,mA1/gps,0,1,63.43459712189788,10.393092043443744,0.0,1.4400000000000002e-10,0.0,0.0,0.0,1.4400000000000002e-10,0.0,0.0,0.0,1.0,2
2025/04/09 08:48:20.104542155,1744181300,101229262,mA1/gps,0,1,63.43459711995653,10.393092045827798,0.0,1.4400000000000002e-10,0.0,0.0,0.0,1.4400000000000002e-10,0.0,0.0,0.0,1.0,2
2025/04/09 08:48:20.153393028,1744181300,152434999,mA1/gps,0,1,63.43459711928517,10.39309204841678,0.0,1.4400000000000002e-10,0.0,0.0,0.0,1.4400000000000002e-10,0.0,0.0,0.0,1.0,2
2025/04/09 08:48:20.204264114,1744181300,203369334,mA1/gps,0,1,63.43459711944233,10.393092050472415,0.0,1.4400000000000002e-10,0.0,0.0,0.0,1.4400000000000002e-10,0.0,0.0,0.0,1.0,2
2025/04/09 08:48:20.255143882,1744181300,253240043,mA1/gps,0,1,63.43459711950009,10.393092053053937,0.0,1.4400000000000002e-10,0.0,0.0,0.0,1.4400000000000002e-10,0.0,0.0,0.0,1.0,2
2025/04/09 08:48:20.305725084,1744181300,304188504,mA1/gps,0,1,63.43459711899037,10.393092055034925,0.0,1.4400000000000002e-10,0.0,0.0,0.0,1.4400000000000002e-10,0.0,0.0,0.0,1.0,2
2025/04/09 08:48:20.354931586,1744181300,353977635,mA1/gps,0,1,63.434597118172356,10.393092056118341,0.0,1.4400000000000002e-10,0.0,0.0,0.0,1.4400000000000002e-10,0.0,0.0,0.0,1.0,2
2025/04/09 08:48:20.407042140,1744181300,405511854,mA1/gps,0,1,63.434597117365776,10.393092057434952,0.0,1.4400000000000002e-10,0.0,0.0,0.0,1.4400000000000002e-10,0.0,0.0,0.0,1.0,2
2025/04/09 08:48:20.458600224,1744181300,455324348,mA1/gps,0,1,63.43459711640527,10.393092057251682,0.0,1.4400000000000002e-10,0.0,0.0,0.0,1.4400000000000002e-10,0.0,0.0,0.0,1.0,2
2025/04/09 08:48:20.512108404,1744181300,506267860,mA1/gps,0,1,63.434597115484436,10.393092056337474,0.0,1.4400000000000002e-10,0.0,0.0,0.0,1.4400000000000002e-10,0.0,0.0,0.0,1.0,2
2025/04/09 08:48:20.547865736,1744181300,546090753,mA1/gps,0,1,63.434597115924696,10.39309205621028,0.0,1.4400000000000002e-10,0.0,0.0,0.0,1.4400000000000002e-10,0.0,0.0,0.0,1.0,2
2025/04/09 08:48:20.598959759,1744181300,598212743,mA1/gps,0,1,63.43459711622468,10.393092054502832,0.0,1.4400000000000002e-10,0.0,0.0,0.0,1.4400000000000002e-10,0.0,0.0,0.0,1.0,2
2025/04/09 08:48:20.652557344,1744181300,649161036,mA1/gps,0,1,63.43459711589038,10.393092052171944,0.0,1.4400000000000002e-10,0.0,0.0,0.0,1.4400000000000002e-10,0.0,0.0,0.0,1.0,2
2025/04/09 08:48:20.702277027,1744181300,700422448,mA1/gps,0,1,63.43459711406412,10.393092047613246,0.0,1.4400000000000002e-10,0.0,0.0,0.0,1.4400000000000002e-10,0.0,0.0,0.0,1.0,2
2025/04/09 08:48:20.752164241,1744181300,750270254,mA1/gps,0,1,63.4345971135836,10.39309204314429,0.0,1.4400000000000002e-10,0.0,0.0,0.0,1.4400000000000002e-10,0.0,0.0,0.0,1.0,2
2025/04/09 08:48:20.802515433,1744181300,801171876,mA1/gps,0,1,63.434597113883896,10.393092039803442,0.0,1.4400000000000002e-10,0.0,0.0,0.0,1.4400000000000002e-10,0.0,0.0,0.0,1.0,2
2025/04/09 08:48:20.853254930,1744181300,852101109,mA1/gps,0,1,63.434597114377695,10.393092037080358,0.0,1.4400000000000002e-10,0.0,0.0,0.0,1.4400000000000002e-10,0.0,0.0,0.0,1.0,2
2025/04/09 08:48:20.904125970,1744181300,903144296,mA1/gps,0,1,63.4345971139706,10.393092035990193,0.0,1.4400000000000002e-10,0.0,0.0,0.0,1.4400000000000002e-10,0.0,0.0,0.0,1.0,2
2025/04/09 08:48:20.954126248,1744181300,953040158,mA1/gps,0,1,63.43459711365323,10.393092035732138,0.0,1.4400000000000002e-10,0.0,0.0,0.0,1.4400000000000002e-10,0.0,0.0,0.0,1.0,2
2025/04/09 08:48:21.4997998,1744181301,3972123,mA1/gps,0,1,63.43459711299464,10.39309203674972,0.0,1.4400000000000002e-10,0.0,0.0,0.0,1.4400000000000002e-10,0.0,0.0,0.0,1.0,2
2025/04/09 08:48:21.56492263,1744181301,54454991,mA1/gps,0,1,63.43459711226481,10.393092038207548,0.0,1.4400000000000002e-10,0.0,0.0,0.0,1.4400000000000002e-10,0.0,0.0,0.0,1.0,2
2025/04/09 08:48:21.109393033,1744181301,107325484,mA1/gps,0,1,63.43459711185753,10.393092041429513,0.0,1.4400000000000002e-10,0.0,0.0,0.0,1.4400000000000002e-10,0.0,0.0,0.0,1.0,2
2025/04/09 08:48:21.158624711,1744181301,155780830,mA1/gps,0,1,63.434597112250955,10.3930920450043,0.0,1.4400000000000002e-10,0.0,0.0,0.0,1.4400000000000002e-10,0.0,0.0,0.0,1.0,2
2025/04/09 08:48:21.197420119,1744181301,196570988,mA1/gps,0,1,63.43459711253619,10.393092048807077,0.0,1.4400000000000002e-10,0.0,0.0,0.0,1.4400000000000002e-10,0.0,0.0,0.0,1.0,2
2025/04/09 08:48:21.248902316,1744181301,247507521,mA1/gps,0,1,63.434597111984665,10.393092054059494,0.0,1.4400000000000002e-10,0.0,0.0,0.0,1.4400000000000002e-10,0.0,0.0,0.0,1.0,2
2025/04/09 08:48:21.298013054,1744181301,297429272,mA1/gps,0,1,63.434597109702004,10.393092058175377,0.0,1.4400000000000002e-10,0.0,0.0,0.0,1.4400000000000002e-10,0.0,0.0,0.0,1.0,2
2025/04/09 08:48:21.348235298,1744181301,347266865,mA1/gps,0,1,63.43459710907456,10.393092062600319,0.0,1.4400000000000002e-10,0.0,0.0,0.0,1.4400000000000002e-10,0.0,0.0,0.0,1.0,2
2025/04/09 08:48:21.406045515,1744181301,398498539,mA1/gps,0,1,63.434597108766404,10.393092066016536,0.0,1.4400000000000002e-10,0.0,0.0,0.0,1.4400000000000002e-10,0.0,0.0,0.0,1.0,2
2025/04/09 08:48:21.450014483,1744181301,448514695,mA1/gps,0,1,63.43459710886028,10.393092070626084,0.0,1.4400000000000002e-10,0.0,0.0,0.0,1.4400000000000002e-10,0.0,0.0,0.0,1.0,2
2025/04/09 08:48:21.502676043,1744181301,499405201,mA1/gps,0,1,63.43459710767553,10.393092073788734,0.0,1.4400000000000002e-10,0.0,0.0,0.0,1.4400000000000002e-10,0.0,0.0,0.0,1.0,2
2025/04/09 08:48:21.551171394,1744181301,549295208,mA1/gps,0,1,63.43459710676798,10.393092077436677,0.0,1.4400000000000002e-10,0.0,0.0,0.0,1.4400000000000002e-10,0.0,0.0,0.0,1.0,2
2025/04/09 08:48:21.603391626,1744181301,601048892,mA1/gps,0,1,63.43459710561987,10.393092079991456,0.0,1.4400000000000002e-10,0.0,0.0,0.0,1.4400000000000002e-10,0.0,0.0,0.0,1.0,2
2025/04/09 08:48:21.651348598,1744181301,650816258,mA1/gps,0,1,63.43459710460024,10.393092082252924,0.0,1.4400000000000002e-10,0.0,0.0,0.0,1.4400000000000002e-10,0.0,0.0,0.0,1.0,2
2025/04/09 08:48:21.703425613,1744181301,702127588,mA1/gps,0,1,63.434597103337616,10.393092082793965,0.0,1.4400000000000002e-10,0.0,0.0,0.0,1.4400000000000002e-10,0.0,0.0,0.0,1.0,2
2025/04/09 08:48:21.754264210,1744181301,753535267,mA1/gps,0,1,63.4345971032943,10.39309208383039,0.0,1.4400000000000002e-10,0.0,0.0,0.0,1.4400000000000002e-10,0.0,0.0,0.0,1.0,2
2025/04/09 08:48:21.807982865,1744181301,806408188,mA1/gps,0,1,63.43459710349286,10.393092081982163,0.0,1.4400000000000002e-10,0.0,0.0,0.0,1.4400000000000002e-10,0.0,0.0,0.0,1.0,2
2025/04/09 08:48:21.847392611,1744181301,846273969,mA1/gps,0,1,63.43459710281405,10.393092080199482,0.0,1.4400000000000002e-10,0.0,0.0,0.0,1.4400000000000002e-10,0.0,0.0,0.0,1.0,2
2025/04/09 08:48:21.898986333,1744181301,897202389,mA1/gps,0,1,63.434597101013274,10.39309207591286,0.0,1.4400000000000002e-10,0.0,0.0,0.0,1.4400000000000002e-10,0.0,0.0,0.0,1.0,2
2025/04/09 08:48:21.947688426,1744181301,947078769,mA1/gps,0,1,63.4345971001197,10.393092071728384,0.0,1.4400000000000002e-10,0.0,0.0,0.0,1.4400000000000002e-10,0.0,0.0,0.0,1.0,2
2025/04/09 08:48:22.265053,1744181301,998008559,mA1/gps,0,1,63.43459710080271,10.393092066816461,0.0,1.4400000000000002e-10,0.0,0.0,0.0,1.4400000000000002e-10,0.0,0.0,0.0,1.0,2
2025/04/09 08:48:22.48401224,1744181302,47811877,mA1/gps,0,1,63.43459710125035,10.393092060843596,0.0,1.4400000000000002e-10,0.0,0.0,0.0,1.4400000000000002e-10,0.0,0.0,0.0,1.0,2
2025/04/09 08:48:22.101181616,1744181302,100641766,mA1/gps,0,1,63.43459710097419,10.393092054633554,0.0,1.4400000000000002e-10,0.0,0.0,0.0,1.4400000000000002e-10,0.0,0.0,0.0,1.0,2
2025/04/09 08:48:22.151392820,1744181302,150466374,mA1/gps,0,1,63.434597100850795,10.393092049308114,0.0,1.4400000000000002e-10,0.0,0.0,0.0,1.4400000000000002e-10,0.0,0.0,0.0,1.0,2
2025/04/09 08:48:22.203824620,1744181302,201493446,mA1/gps,0,1,63.43459710058248,10.393092043792226,0.0,1.4400000000000002e-10,0.0,0.0,0.0,1.4400000000000002e-10,0.0,0.0,0.0,1.0,2
2025/04/09 08:48:22.256432188,1744181302,253015630,mA1/gps,0,1,63.434597100402044,10.393092039994864,0.0,1.4400000000000002e-10,0.0,0.0,0.0,1.4400000000000002e-10,0.0,0.0,0.0,1.0,2
2025/04/09 08:48:22.305621209,1744181302,303989574,mA1/gps,0,1,63.434597100411466,10.393092037708213,0.0,1.4400000000000002e-10,0.0,0.0,0.0,1.4400000000000002e-10,0.0,0.0,0.0,1.0,2
2025/04/09 08:48:22.346529152,1744181302,345904738,mA1/gps,0,1,63.434597101182426,10.393092036696519,0.0,1.4400000000000002e-10,0.0,0.0,0.0,1.4400000000000002e-10,0.0,0.0,0.0,1.0,2
2025/04/09 08:48:22.397476425,1744181302,396867810,mA1/gps,0,1,63.43459710219631,10.393092036841539,0.0,1.4400000000000002e-10,0.0,0.0,0.0,1.4400000000000002e-10,0.0,0.0,0.0,1.0,2
2025/04/09 08:48:22.448450955,1744181302,447016449,mA1/gps,0,1,63.43459710204762,10.393092038689606,0.0,1.4400000000000002e-10,0.0,0.0,0.0,1.4400000000000002e-10,0.0,0.0,0.0,1.0,2
2025/04/09 08:48:22.499912688,1744181302,497907812,mA1/gps,0,1,63.43459710078957,10.393092041103477,0.0,1.4400000000000002e-10,0.0,0.0,0.0,1.4400000000000002e-10,0.0,0.0,0.0,1.0,2
2025/04/09 08:48:22.554070169,1744181302,547969378,mA1/gps,0,1,63.434597100590615,10.393092043722438,0.0,1.4400000000000002e-10,0.0,0.0,0.0,1.4400000000000002e-10,0.0,0.0,0.0,1.0,2
2025/04/09 08:48:22.600892228,1744181302,599406676,mA1/gps,0,1,63.43459710124204,10.393092047621117,0.0,1.4400000000000002e-10,0.0,0.0,0.0,1.4400000000000002e-10,0.0,0.0,0.0,1.0,2
2025/04/09 08:48:22.651430013,1744181302,650337123,mA1/gps,0,1,63.434597101791795,10.393092051189832,0.0,1.4400000000000002e-10,0.0,0.0,0.0,1.4400000000000002e-10,0.0,0.0,0.0,1.0,2
2025/04/09 08:48:22.703545336,1744181302,700750859,mA1/gps,0,1,63.4345971012054,10.393092055371117,0.0,1.4400000000000002e-10,0.0,0.0,0.0,1.4400000000000002e-10,0.0,0.0,0.0,1.0,2
2025/04/09 08:48:22.751618719,1744181302,751038834,mA1/gps,0,1,63.434597100826366,10.393092059461246,0.0,1.4400000000000002e-10,0.0,0.0,0.0,1.4400000000000002e-10,0.0,0.0,0.0,1.0,2
2025/04/09 08:48:22.811111612,1744181302,801963154,mA1/gps,0,1,63.43459709975496,10.393092062935825,0.0,1.4400000000000002e-10,0.0,0.0,0.0,1.4400000000000002e-10,0.0,0.0,0.0,1.0,2
2025/04/09 08:48:22.857681756,1744181302,856324524,mA1/gps,0,1,63.43459709893307,10.393092066115775,0.0,1.4400000000000002e-10,0.0,0.0,0.0,1.4400000000000002e-10,0.0,0.0,0.0,1.0,2
2025/04/09 08:48:22.898494908,1744181302,896514698,mA1/gps,0,1,63.43459709793266,10.393092069045895,0.0,1.4400000000000002e-10,0.0,0.0,0.0,1.4400000000000002e-10,0.0,0.0,0.0,1.0,2
2025/04/09 08:48:22.946893182,1744181302,946160388,mA1/gps,0,1,63.434597097498525,10.393092071408512,0.0,1.4400000000000002e-10,0.0,0.0,0.0,1.4400000000000002e-10,0.0,0.0,0.0,1.0,2
2025/04/09 08:48:22.999160747,1744181302,998129416,mA1/gps,0,1,63.43459709799355,10.393092072642812,0.0,1.4400000000000002e-10,0.0,0.0,0.0,1.4400000000000002e-10,0.0,0.0,0.0,1.0,2
2025/04/09 08:48:23.48441666,1744181303,47833835,mA1/gps,0,1,63.43459709660919,10.393092073386988,0.0,1.4400000000000002e-10,0.0,0.0,0.0,1.4400000000000002e-10,0.0,0.0,0.0,1.0,2
2025/04/09 08:48:23.100731188,1744181303,98785560,mA1/gps,0,1,63.434597094589854,10.393092071919117,0.0,1.4400000000000002e-10,0.0,0.0,0.0,1.4400000000000002e-10,0.0,0.0,0.0,1.0,2
2025/04/09 08:48:23.151570204,1744181303,149484065,mA1/gps,0,1,63.434597093515976,10.393092070014912,0.0,1.4400000000000002e-10,0.0,0.0,0.0,1.4400000000000002e-10,0.0,0.0,0.0,1.0,2
2025/04/09 08:48:23.203510570,1744181303,201133270,mA1/gps,0,1,63.43459709316644,10.393092066823172,0.0,1.4400000000000002e-10,0.0,0.0,0.0,1.4400000000000002e-10,0.0,0.0,0.0,1.0,2
2025/04/09 08:48:23.252169622,1744181303,251173047,mA1/gps,0,1,63.43459709334866,10.393092062767083,0.0,1.4400000000000002e-10,0.0,0.0,0.0,1.4400000000000002e-10,0.0,0.0,0.0,1.0,2
2025/04/09 08:48:23.303373671,1744181303,302210470,mA1/gps,0,1,63.434597092529245,10.393092058449332,0.0,1.4400000000000002e-10,0.0,0.0,0.0,1.4400000000000002e-10,0.0,0.0,0.0,1.0,2
2025/04/09 08:48:23.352773842,1744181303,351964315,mA1/gps,0,1,63.4345970919836,10.393092054462096,0.0,1.4400000000000002e-10,0.0,0.0,0.0,1.4400000000000002e-10,0.0,0.0,0.0,1.0,2
2025/04/09 08:48:23.406494252,1744181303,402942903,mA1/gps,0,1,63.43459709140439,10.393092049380881,0.0,1.4400000000000002e-10,0.0,0.0,0.0,1.4400000000000002e-10,0.0,0.0,0.0,1.0,2
2025/04/09 08:48:23.460629884,1744181303,456025620,mA1/gps,0,1,63.4345970907641,10.393092045585897,0.0,1.4400000000000002e-10,0.0,0.0,0.0,1.4400000000000002e-10,0.0,0.0,0.0,1.0,2
2025/04/09 08:48:23.506518179,1744181303,505553726,mA1/gps,0,1,63.43459709020377,10.393092041892634,0.0,1.4400000000000002e-10,0.0,0.0,0.0,1.4400000000000002e-10,0.0,0.0,0.0,1.0,2
2025/04/09 08:48:23.559641190,1744181303,555831031,mA1/gps,0,1,63.43459709081597,10.393092039520804,0.0,1.4400000000000002e-10,0.0,0.0,0.0,1.4400000000000002e-10,0.0,0.0,0.0,1.0,2
2025/04/09 08:48:23.597978054,1744181303,597164621,mA1/gps,0,1,63.43459709146278,10.393092037463612,0.0,1.4400000000000002e-10,0.0,0.0,0.0,1.4400000000000002e-10,0.0,0.0,0.0,1.0,2
2025/04/09 08:48:23.647556328,1744181303,646968325,mA1/gps,0,1,63.43459709138247,10.393092036795556,0.0,1.4400000000000002e-10,0.0,0.0,0.0,1.4400000000000002e-10,0.0,0.0,0.0,1.0,2
2025/04/09 08:48:23.698375379,1744181303,697906355,mA1/gps,0,1,63.434597090387534,10.393092036128426,0.0,1.4400000000000002e-10,0.0,0.0,0.0,1.4400000000000002e-10,0.0,0.0,0.0,1.0,2
2025/04/09 08:48:23.748573364,1744181303,747765554,mA1/gps,0,1,63.43459709020833,10.393092037465308,0.0,1.4400000000000002e-10,0.0,0.0,0.0,1.4400000000000002e-10,0.0,0.0,0.0,1.0,2
2025/04/09 08:48:23.800240595,1744181303,799014952,mA1/gps,0,1,63.43459709118685,10.39309203997599,0.0,1.4400000000000002e-10,0.0,0.0,0.0,1.4400000000000002e-10,0.0,0.0,0.0,1.0,2
2025/04/09 08:48:23.851116909,1744181303,848944826,mA1/gps,0,1,63.43459709193392,10.393092044240865,0.0,1.4400000000000002e-10,0.0,0.0,0.0,1.4400000000000002e-10,0.0,0.0,0.0,1.0,2
2025/04/09 08:48:23.903178401,1744181303,900358960,mA1/gps,0,1,63.43459709203054,10.393092049391118,0.0,1.4400000000000002e-10,0.0,0.0,0.0,1.4400000000000002e-10,0.0,0.0,0.0,1.0,2
2025/04/09 08:48:23.950498438,1744181303,949895217,mA1/gps,0,1,63.43459709191571,10.393092053769116,0.0,1.4400000000000002e-10,0.0,0.0,0.0,1.4400000000000002e-10,0.0,0.0,0.0,1.0,2
2025/04/09 08:48:24.5273744,1744181304,3216458,mA1/gps,0,1,63.43459709152624,10.393092059599834,0.0,1.4400000000000002e-10,0.0,0.0,0.0,1.4400000000000002e-10,0.0,0.0,0.0,1.0,2
2025/04/09 08:48:24.53852503,1744181304,53048879,mA1/gps,0,1,63.43459709102222,10.393092065254386,0.0,1.4400000000000002e-10,0.0,0.0,0.0,1.4400000000000002e-10,0.0,0.0,0.0,1.0,2
2025/04/09 08:48:24.108005982,1744181304,105806505,mA1/gps,0,1,63.43459709064247,10.393092070066576,0.0,1.4400000000000002e-10,0.0,0.0,0.0,1.4400000000000002e-10,0.0,0.0,0.0,1.0,2
2025/04/09 08:48:24.156080847,1744181304,155008299,mA1/gps,0,1,63.43459709088896,10.393092074546153,0.0,1.4400000000000002e-10,0.0,0.0,0.0,1.4400000000000002e-10,0.0,0.0,0.0,1.0,2
2025/04/09 08:48:24.206879037,1744181304,205925146,mA1/gps,0,1,63.43459709164193,10.393092077824361,0.0,1.4400000000000002e-10,0.0,0.0,0.0,1.4400000000000002e-10,0.0,0.0,0.0,1.0,2
2025/04/09 08:48:24.256487238,1744181304,255705074,mA1/gps,0,1,63.43459709108019,10.393092079713169,0.0,1.4400000000000002e-10,0.0,0.0,0.0,1.4400000000000002e-10,0.0,0.0,0.0,1.0,2
2025/04/09 08:48:24.297980646,1744181304,296626819,mA1/gps,0,1,63.43459708938201,10.393092080733638,0.0,1.4400000000000002e-10,0.0,0.0,0.0,1.4400000000000002e-10,0.0,0.0,0.0,1.0,2
2025/04/09 08:48:24.347080879,1744181304,346508354,mA1/gps,0,1,63.434597088916064,10.393092081352593,0.0,1.4400000000000002e-10,0.0,0.0,0.0,1.4400000000000002e-10,0.0,0.0,0.0,1.0,2
2025/04/09 08:48:24.399059285,1744181304,397322786,mA1/gps,0,1,63.434597089612005,10.393092080344642,0.0,1.4400000000000002e-10,0.0,0.0,0.0,1.4400000000000002e-10,0.0,0.0,0.0,1.0,2
2025/04/09 08:48:24.452009124,1744181304,447697008,mA1/gps,0,1,63.43459708923021,10.393092078748294,0.0,1.4400000000000002e-10,0.0,0.0,0.0,1.4400000000000002e-10,0.0,0.0,0.0,1.0,2
2025/04/09 08:48:24.500248866,1744181304,498515254,mA1/gps,0,1,63.43459708971661,10.393092075117327,0.0,1.4400000000000002e-10,0.0,0.0,0.0,1.4400000000000002e-10,0.0,0.0,0.0,1.0,2
2025/04/09 08:48:24.550075041,1744181304,548345242,mA1/gps,0,1,63.434597090827644,10.393092071867349,0.0,1.4400000000000002e-10,0.0,0.0,0.0,1.4400000000000002e-10,0.0,0.0,0.0,1.0,2
2025/04/09 08:48:24.601327700,1744181304,599343943,mA1/gps,0,1,63.43459709258991,10.393092067417598,0.0,1.4400000000000002e-10,0.0,0.0,0.0,1.4400000000000002e-10,0.0,0.0,0.0,1.0,2
2025/04/09 08:48:24.651430547,1744181304,649157813,mA1/gps,0,1,63.4345970954692,10.393092062364822,0.0,1.4400000000000002e-10,0.0,0.0,0.0,1.4400000000000002e-10,0.0,0.0,0.0,1.0,2
2025/04/09 08:48:24.701258149,1744181304,700148083,mA1/gps,0,1,63.434597100524265,10.393092057525841,0.0,1.4400000000000002e-10,0.0,0.0,0.0,1.4400000000000002e-10,0.0,0.0,0.0,1.0,2
2025/04/09 08:48:24.755195530,1744181304,750001959,mA1/gps,0,1,63.434597106073234,10.393092051854396,0.0,1.4400000000000002e-10,0.0,0.0,0.0,1.4400000000000002e-10,0.0,0.0,0.0,1.0,2
2025/04/09 08:48:24.803091067,1744181304,801630614,mA1/gps,0,1,63.434597114339205,10.39309204811035,0.0,1.4400000000000002e-10,0.0,0.0,0.0,1.4400000000000002e-10,0.0,0.0,0.0,1.0,2
2025/04/09 08:48:24.855013760,1744181304,852347605,mA1/gps,0,1,63.43459712453218,10.39309204384855,0.0,1.4400000000000002e-10,0.0,0.0,0.0,1.4400000000000002e-10,0.0,0.0,0.0,1.0,2
2025/04/09 08:48:24.908574272,1744181304,904533839,mA1/gps,0,1,63.43459713745197,10.393092040699358,0.0,1.4400000000000002e-10,0.0,0.0,0.0,1.4400000000000002e-10,0.0,0.0,0.0,1.0,2
2025/04/09 08:48:24.956203044,1744181304,955164933,mA1/gps,0,1,63.434597152455574,10.393092038717853,0.0,1.4400000000000002e-10,0.0,0.0,0.0,1.4400000000000002e-10,0.0,0.0,0.0,1.0,2
2025/04/09 08:48:25.8763258,1744181305,6105938,mA1/gps,0,1,63.43459717108224,10.393092038054554,0.0,1.4400000000000002e-10,0.0,0.0,0.0,1.4400000000000002e-10,0.0,0.0,0.0,1.0,2
2025/04/09 08:48:25.48198810,1744181305,46671993,mA1/gps,0,1,63.434597192349564,10.39309203771706,0.0,1.4400000000000002e-10,0.0,0.0,0.0,1.4400000000000002e-10,0.0,0.0,0.0,1.0,2
2025/04/09 08:48:25.97450198,1744181305,96755922,mA1/gps,0,1,63.43459721771996,10.393092038812448,0.0,1.4400000000000002e-10,0.0,0.0,0.0,1.4400000000000002e-10,0.0,0.0,0.0,1.0,2
2025/04/09 08:48:25.147890430,1744181305,146793193,mA1/gps,0,1,63.43459724683409,10.39309204096344,0.0,1.4400000000000002e-10,0.0,0.0,0.0,1.4400000000000002e-10,0.0,0.0,0.0,1.0,2
2025/04/09 08:48:25.200500068,1744181305,197827039,mA1/gps,0,1,63.4345972793862,10.39309204390322,0.0,1.4400000000000002e-10,0.0,0.0,0.0,1.4400000000000002e-10,0.0,0.0,0.0,1.0,2
2025/04/09 08:48:25.248331672,1744181305,247698390,mA1/gps,0,1,63.43459731456825,10.39309204713335,0.0,1.4400000000000002e-10,0.0,0.0,0.0,1.4400000000000002e-10,0.0,0.0,0.0,1.0,2
2025/04/09 08:48:25.299840659,1744181305,298605471,mA1/gps,0,1,63.43459735397128,10.393092050655792,0.0,1.4400000000000002e-10,0.0,0.0,0.0,1.4400000000000002e-10,0.0,0.0,0.0,1.0,2
2025/04/09 08:48:25.350144153,1744181305,348431618,mA1/gps,0,1,63.434597396783566,10.393092055195547,0.0,1.4400000000000002e-10,0.0,0.0,0.0,1.4400000000000002e-10,0.0,0.0,0.0,1.0,2
2025/04/09 08:48:25.401134801,1744181305,399384754,mA1/gps,0,1,63.434597441873805,10.39309205945101,0.0,1.4400000000000002e-10,0.0,0.0,0.0,1.4400000000000002e-10,0.0,0.0,0.0,1.0,2
2025/04/09 08:48:25.451437174,1744181305,449631621,mA1/gps,0,1,63.434597491263446,10.393092062229304,0.0,1.4400000000000002e-10,0.0,0.0,0.0,1.4400000000000002e-10,0.0,0.0,0.0,1.0,2
2025/04/09 08:48:25.502517489,1744181305,500563339,mA1/gps,0,1,63.43459754187391,10.393092064683694,0.0,1.4400000000000002e-10,0.0,0.0,0.0,1.4400000000000002e-10,0.0,0.0,0.0,1.0,2
2025/04/09 08:48:25.553564868,1744181305,551731366,mA1/gps,0,1,63.43459759578859,10.393092066712704,0.0,1.4400000000000002e-10,0.0,0.0,0.0,1.4400000000000002e-10,0.0,0.0,0.0,1.0,2
2025/04/09 08:48:25.604144374,1744181305,602061143,mA1/gps,0,1,63.43459765144635,10.39309206846493,0.0,1.4400000000000002e-10,0.0,0.0,0.0,1.4400000000000002e-10,0.0,0.0,0.0,1.0,2
2025/04/09 08:48:25.652903082,1744181305,651843414,mA1/gps,0,1,63.434597708254465,10.393092070008842,0.0,1.4400000000000002e-10,0.0,0.0,0.0,1.4400000000000002e-10,0.0,0.0,0.0,1.0,2
2025/04/09 08:48:25.704381955,1744181305,702813797,mA1/gps,0,1,63.43459776596177,10.393092071166851,0.0,1.4400000000000002e-10,0.0,0.0,0.0,1.4400000000000002e-10,0.0,0.0,0.0,1.0,2
2025/04/09 08:48:25.755868967,1744181305,752720617,mA1/gps,0,1,63.4345978251721,10.393092071675087,0.0,1.4400000000000002e-10,0.0,0.0,0.0,1.4400000000000002e-10,0.0,0.0,0.0,1.0,2
2025/04/09 08:48:25.805510024,1744181305,803619075,mA1/gps,0,1,63.43459788444552,10.39309207091116,0.0,1.4400000000000002e-10,0.0,0.0,0.0,1.4400000000000002e-10,0.0,0.0,0.0,1.0,2
2025/04/09 08:48:25.854094766,1744181305,853454315,mA1/gps,0,1,63.43459794527393,10.393092068029137,0.0,1.4400000000000002e-10,0.0,0.0,0.0,1.4400000000000002e-10,0.0,0.0,0.0,1.0,2
2025/04/09 08:48:25.908016251,1744181305,904524834,mA1/gps,0,1,63.43459800487585,10.393092063906233,0.0,1.4400000000000002e-10,0.0,0.0,0.0,1.4400000000000002e-10,0.0,0.0,0.0,1.0,2
2025/04/09 08:48:25.956765430,1744181305,954550236,mA1/gps,0,1,63.4345980663533,10.393092057457165,0.0,1.4400000000000002e-10,0.0,0.0,0.0,1.4400000000000002e-10,0.0,0.0,0.0,1.0,2
2025/04/09 08:48:26.6995576,1744181306,5506465,mA1/gps,0,1,63.43459812715078,10.39309204910851,0.0,1.4400000000000002e-10,0.0,0.0,0.0,1.4400000000000002e-10,0.0,0.0,0.0,1.0,2
2025/04/09 08:48:26.57975133,1744181306,55598176,mA1/gps,0,1,63.43459818698369,10.393092039904102,0.0,1.4400000000000002e-10,0.0,0.0,0.0,1.4400000000000002e-10,0.0,0.0,0.0,1.0,2
2025/04/09 08:48:26.107800299,1744181306,106423085,mA1/gps,0,1,63.434598247916995,10.393092031364647,0.0,1.4400000000000002e-10,0.0,0.0,0.0,1.4400000000000002e-10,0.0,0.0,0.0,1.0,2
2025/04/09 08:48:26.146882507,1744181306,146083882,mA1/gps,0,1,63.43459830857798,10.393092021226984,0.0,1.4400000000000002e-10,0.0,0.0,0.0,1.4400000000000002e-10,0.0,0.0,0.0,1.0,2
2025/04/09 08:48:26.199278174,1744181306,197454762,mA1/gps,0,1,63.434598371918156,10.393092011706395,0.0,1.4400000000000002e-10,0.0,0.0,0.0,1.4400000000000002e-10,0.0,0.0,0.0,1.0,2
2025/04/09 08:48:26.247848998,1744181306,247203216,mA1/gps,0,1,63.43459843469319,10.393092002898381,0.0,1.4400000000000002e-10,0.0,0.0,0.0,1.4400000000000002e-10,0.0,0.0,0.0,1.0,2
2025/04/09 08:48:26.299741234,1744181306,298081249,mA1/gps,0,1,63.434598498632454,10.393091994657826,0.0,1.4400000000000002e-10,0.0,0.0,0.0,1.4400000000000002e-10,0.0,0.0,0.0,1.0,2
2025/04/09 08:48:26.349997090,1744181306,348172836,mA1/gps,0,1,63.43459856325554,10.393091987156598,0.0,1.4400000000000002e-10,0.0,0.0,0.0,1.4400000000000002e-10,0.0,0.0,0.0,1.0,2
2025/04/09 08:48:26.399510868,1744181306,398928545,mA1/gps,0,1,63.434598630028546,10.393091980655852,0.0,1.4400000000000002e-10,0.0,0.0,0.0,1.4400000000000002e-10,0.0,0.0,0.0,1.0,2
2025/04/09 08:48:26.449587983,1744181306,448746035,mA1/gps,0,1,63.43459869998203,10.393091974811847,0.0,1.4400000000000002e-10,0.0,0.0,0.0,1.4400000000000002e-10,0.0,0.0,0.0,1.0,2
2025/04/09 08:48:26.503427010,1744181306,499680027,mA1/gps,0,1,63.434598771334095,10.393091971292762,0.0,1.4400000000000002e-10,0.0,0.0,0.0,1.4400000000000002e-10,0.0,0.0,0.0,1.0,2
2025/04/09 08:48:26.550661974,1744181306,549523877,mA1/gps,0,1,63.43459884500924,10.393091968836908,0.0,1.4400000000000002e-10,0.0,0.0,0.0,1.4400000000000002e-10,0.0,0.0,0.0,1.0,2
2025/04/09 08:48:26.605295220,1744181306,601183218,mA1/gps,0,1,63.43459892144524,10.39309196888498,0.0,1.4400000000000002e-10,0.0,0.0,0.0,1.4400000000000002e-10,0.0,0.0,0.0,1.0,2
2025/04/09 08:48:26.653877577,1744181306,653142692,mA1/gps,0,1,63.43459900165528,10.393091970480286,0.0,1.4400000000000002e-10,0.0,0.0,0.0,1.4400000000000002e-10,0.0,0.0,0.0,1.0,2
2025/04/09 08:48:26.705652346,1744181306,704601258,mA1/gps,0,1,63.43459908386735,10.393091972717782,0.0,1.4400000000000002e-10,0.0,0.0,0.0,1.4400000000000002e-10,0.0,0.0,0.0,1.0,2
2025/04/09 08:48:26.755118285,1744181306,754498183,mA1/gps,0,1,63.434599168128905,10.393091975905854,0.0,1.4400000000000002e-10,0.0,0.0,0.0,1.4400000000000002e-10,0.0,0.0,0.0,1.0,2
2025/04/09 08:48:26.808224101,1744181306,805872028,mA1/gps,0,1,63.434599255989305,10.393091980157886,0.0,1.4400000000000002e-10,0.0,0.0,0.0,1.4400000000000002e-10,0.0,0.0,0.0,1.0,2
2025/04/09 08:48:26.856549687,1744181306,855627614,mA1/gps,0,1,63.434599347120916,10.393091983943036,0.0,1.4400000000000002e-10,0.0,0.0,0.0,1.4400000000000002e-10,0.0,0.0,0.0,1.0,2
2025/04/09 08:48:26.898859220,1744181306,897084701,mA1/gps,0,1,63.43459943872558,10.393091987399233,0.0,1.4400000000000002e-10,0.0,0.0,0.0,1.4400000000000002e-10,0.0,0.0,0.0,1.0,2
2025/04/09 08:48:26.950650899,1744181306,948740762,mA1/gps,0,1,63.434599533301814,10.393091990303237,0.0,1.4400000000000002e-10,0.0,0.0,0.0,1.4400000000000002e-10,0.0,0.0,0.0,1.0,2
2025/04/09 08:48:27.3291069,1744181306,999950463,mA1/gps,0,1,63.434599630051665,10.393091991881027,0.0,1.4400000000000002e-10,0.0,0.0,0.0,1.4400000000000002e-10,0.0,0.0,0.0,1.0,2
2025/04/09 08:48:27.50747443,1744181307,49795551,mA1/gps,0,1,63.43459972828068,10.393091992826415,0.0,1.4400000000000002e-10,0.0,0.0,0.0,1.4400000000000002e-10,0.0,0.0,0.0,1.0,2
2025/04/09 08:48:27.102271563,1744181307,101073874,mA1/gps,0,1,63.43459982627652,10.393091991930227,0.0,1.4400000000000002e-10,0.0,0.0,0.0,1.4400000000000002e-10,0.0,0.0,0.0,1.0,2
2025/04/09 08:48:27.151478447,1744181307,150783902,mA1/gps,0,1,63.43459992506128,10.393091989988898,0.0,1.4400000000000002e-10,0.0,0.0,0.0,1.4400000000000002e-10,0.0,0.0,0.0,1.0,2
2025/04/09 08:48:27.206142589,1744181307,201783255,mA1/gps,0,1,63.43460002551236,10.393091986845198,0.0,1.4400000000000002e-10,0.0,0.0,0.0,1.4400000000000002e-10,0.0,0.0,0.0,1.0,2
2025/04/09 08:48:27.254385583,1744181307,252634292,mA1/gps,0,1,63.43460012465868,10.393091982771672,0.0,1.4400000000000002e-10,0.0,0.0,0.0,1.4400000000000002e-10,0.0,0.0,0.0,1.0,2
2025/04/09 08:48:27.307276710,1744181307,305683007,mA1/gps,0,1,63.43460022532715,10.393091976947638,0.0,1.4400000000000002e-10,0.0,0.0,0.0,1.4400000000000002e-10,0.0,0.0,0.0,1.0,2
2025/04/09 08:48:27.359210180,1744181307,355988580,mA1/gps,0,1,63.434600325104725,10.393091971171701,0.0,1.4400000000000002e-10,0.0,0.0,0.0,1.4400000000000002e-10,0.0,0.0,0.0,1.0,2
2025/04/09 08:48:27.397255052,1744181307,396701503,mA1/gps,0,1,63.43460042338699,10.39309196401127,0.0,1.4400000000000002e-10,0.0,0.0,0.0,1.4400000000000002e-10,0.0,0.0,0.0,1.0,2
2025/04/09 08:48:27.448010078,1744181307,446836451,mA1/gps,0,1,63.434600521902404,10.393091957297631,0.0,1.4400000000000002e-10,0.0,0.0,0.0,1.4400000000000002e-10,0.0,0.0,0.0,1.0,2
2025/04/09 08:48:27.503156563,1744181307,497884009,mA1/gps,0,1,63.43460062020257,10.393091950845935,0.0,1.4400000000000002e-10,0.0,0.0,0.0,1.4400000000000002e-10,0.0,0.0,0.0,1.0,2
2025/04/09 08:48:27.549213973,1744181307,547818989,mA1/gps,0,1,63.434600718330394,10.393091945573774,0.0,1.4400000000000002e-10,0.0,0.0,0.0,1.4400000000000002e-10,0.0,0.0,0.0,1.0,2
2025/04/09 08:48:27.600298606,1744181307,598677205,mA1/gps,0,1,63.434600814023945,10.39309194140966,0.0,1.4400000000000002e-10,0.0,0.0,0.0,1.4400000000000002e-10,0.0,0.0,0.0,1.0,2
2025/04/09 08:48:27.651183976,1744181307,649415991,mA1/gps,0,1,63.434600910535934,10.393091939535752,0.0,1.4400000000000002e-10,0.0,0.0,0.0,1.4400000000000002e-10,0.0,0.0,0.0,1.0,2
2025/04/09 08:48:27.702732383,1744181307,700319250,mA1/gps,0,1,63.43460100798758,10.39309193858129,0.0,1.4400000000000002e-10,0.0,0.0,0.0,1.4400000000000002e-10,0.0,0.0,0.0,1.0,2
2025/04/09 08:48:27.750486225,1744181307,750038496,mA1/gps,0,1,63.4346011062628,10.393091938601957,0.0,1.4400000000000002e-10,0.0,0.0,0.0,1.4400000000000002e-10,0.0,0.0,0.0,1.0,2
2025/04/09 08:48:27.802865534,1744181307,801413291,mA1/gps,0,1,63.43460120396872,10.393091938840819,0.0,1.4400000000000002e-10,0.0,0.0,0.0,1.4400000000000002e-10,0.0,0.0,0.0,1.0,2
2025/04/09 08:48:27.852641816,1744181307,851104905,mA1/gps,0,1,63.43460130284137,10.39309194048613,0.0,1.4400000000000002e-10,0.0,0.0,0.0,1.4400000000000002e-10,0.0,0.0,0.0,1.0,2
2025/04/09 08:48:27.904368882,1744181307,902146246,mA1/gps,0,1,63.43460140316758,10.393091942068498,0.0,1.4400000000000002e-10,0.0,0.0,0.0,1.4400000000000002e-10,0.0,0.0,0.0,1.0,2
2025/04/09 08:48:27.954682941,1744181307,952770974,mA1/gps,0,1,63.43460150497895,10.393091944367699,0.0,1.4400000000000002e-10,0.0,0.0,0.0,1.4400000000000002e-10,0.0,0.0,0.0,1.0,2
2025/04/09 08:48:28.6111892,1744181308,3578565,mA1/gps,0,1,63.43460161028754,10.393091946797544,0.0,1.4400000000000002e-10,0.0,0.0,0.0,1.4400000000000002e-10,0.0,0.0,0.0,1.0,2
2025/04/09 08:48:28.58885881,1744181308,55820250,mA1/gps,0,1,63.4346017146233,10.393091949710023,0.0,1.4400000000000002e-10,0.0,0.0,0.0,1.4400000000000002e-10,0.0,0.0,0.0,1.0,2
2025/04/09 08:48:28.97724639,1744181308,96862517,mA1/gps,0,1,63.43460182154921,10.393091951924978,0.0,1.4400000000000002e-10,0.0,0.0,0.0,1.4400000000000002e-10,0.0,0.0,0.0,1.0,2
2025/04/09 08:48:28.148657028,1744181308,147798514,mA1/gps,0,1,63.43460193359482,10.393091953385184,0.0,1.4400000000000002e-10,0.0,0.0,0.0,1.4400000000000002e-10,0.0,0.0,0.0,1.0,2
2025/04/09 08:48:28.200487452,1744181308,198811146,mA1/gps,0,1,63.43460204401369,10.393091953561767,0.0,1.4400000000000002e-10,0.0,0.0,0.0,1.4400000000000002e-10,0.0,0.0,0.0,1.0,2
2025/04/09 08:48:28.249536430,1744181308,248881981,mA1/gps,0,1,63.43460215846792,10.393091953067918,0.0,1.4400000000000002e-10,0.0,0.0,0.0,1.4400000000000002e-10,0.0,0.0,0.0,1.0,2
2025/04/09 08:48:28.303525187,1744181308,299831309,mA1/gps,0,1,63.43460227498723,10.393091952085227,0.0,1.4400000000000002e-10,0.0,0.0,0.0,1.4400000000000002e-10,0.0,0.0,0.0,1.0,2
2025/04/09 08:48:28.352407246,1744181308,351449300,mA1/gps,0,1,63.43460239264342,10.393091949859294,0.0,1.4400000000000002e-10,0.0,0.0,0.0,1.4400000000000002e-10,0.0,0.0,0.0,1.0,2
2025/04/09 08:48:28.403775493,1744181308,402454728,mA1/gps,0,1,63.43460251237035,10.393091947175414,0.0,1.4400000000000002e-10,0.0,0.0,0.0,1.4400000000000002e-10,0.0,0.0,0.0,1.0,2
2025/04/09 08:48:28.453504920,1744181308,452466341,mA1/gps,0,1,63.43460263256804,10.393091944251141,0.0,1.4400000000000002e-10,0.0,0.0,0.0,1.4400000000000002e-10,0.0,0.0,0.0,1.0,2
2025/04/09 08:48:28.506908901,1744181308,504663684,mA1/gps,0,1,63.43460275478753,10.393091941212122,0.0,1.4400000000000002e-10,0.0,0.0,0.0,1.4400000000000002e-10,0.0,0.0,0.0,1.0,2
2025/04/09 08:48:28.555025112,1744181308,554091294,mA1/gps,0,1,63.43460287823475,10.393091937810496,0.0,1.4400000000000002e-10,0.0,0.0,0.0,1.4400000000000002e-10,0.0,0.0,0.0,1.0,2
2025/04/09 08:48:28.607035661,1744181308,605083948,mA1/gps,0,1,63.434603000534594,10.393091934275569,0.0,1.4400000000000002e-10,0.0,0.0,0.0,1.4400000000000002e-10,0.0,0.0,0.0,1.0,2
2025/04/09 08:48:28.655623971,1744181308,654942882,mA1/gps,0,1,63.43460312364087,10.393091930748433,0.0,1.4400000000000002e-10,0.0,0.0,0.0,1.4400000000000002e-10,0.0,0.0,0.0,1.0,2
2025/04/09 08:48:28.708012880,1744181308,705881648,mA1/gps,0,1,63.43460324765022,10.393091926524397,0.0,1.4400000000000002e-10,0.0,0.0,0.0,1.4400000000000002e-10,0.0,0.0,0.0,1.0,2
2025/04/09 08:48:28.757142133,1744181308,755775993,mA1/gps,0,1,63.4346033707198,10.393091923243848,0.0,1.4400000000000002e-10,0.0,0.0,0.0,1.4400000000000002e-10,0.0,0.0,0.0,1.0,2
2025/04/09 08:48:28.797554506,1744181308,796657027,mA1/gps,0,1,63.43460349234071,10.393091919274113,0.0,1.4400000000000002e-10,0.0,0.0,0.0,1.4400000000000002e-10,0.0,0.0,0.0,1.0,2
2025/04/09 08:48:28.848173397,1744181308,846916476,mA1/gps,0,1,63.43460361357317,10.393091915289629,0.0,1.4400000000000002e-10,0.0,0.0,0.0,1.4400000000000002e-10,0.0,0.0,0.0,1.0,2
2025/04/09 08:48:28.902959647,1744181308,898308569,mA1/gps,0,1,63.43460373408326,10.393091911624781,0.0,1.4400000000000002e-10,0.0,0.0,0.0,1.4400000000000002e-10,0.0,0.0,0.0,1.0,2
2025/04/09 08:48:28.949838274,1744181308,947977175,mA1/gps,0,1,63.43460385415957,10.393091907510671,0.0,1.4400000000000002e-10,0.0,0.0,0.0,1.4400000000000002e-10,0.0,0.0,0.0,1.0,2
2025/04/09 08:48:28.999977899,1744181308,998974056,mA1/gps,0,1,63.434603974434864,10.393091903463231,0.0,1.4400000000000002e-10,0.0,0.0,0.0,1.4400000000000002e-10,0.0,0.0,0.0,1.0,2
2025/04/09 08:48:29.50599697,1744181309,48792751,mA1/gps,0,1,63.43460409254597,10.39309190020059,0.0,1.4400000000000002e-10,0.0,0.0,0.0,1.4400000000000002e-10,0.0,0.0,0.0,1.0,2
2025/04/09 08:48:29.101984301,1744181309,99750088,mA1/gps,0,1,63.43460420981675,10.393091897786263,0.0,1.4400000000000002e-10,0.0,0.0,0.0,1.4400000000000002e-10,0.0,0.0,0.0,1.0,2
2025/04/09 08:48:29.151669707,1744181309,150134421,mA1/gps,0,1,63.434604328099766,10.393091895417346,0.0,1.4400000000000002e-10,0.0,0.0,0.0,1.4400000000000002e-10,0.0,0.0,0.0,1.0,2
2025/04/09 08:48:29.203213999,1744181309,201005085,mA1/gps,0,1,63.43460444657167,10.393091894240348,0.0,1.4400000000000002e-10,0.0,0.0,0.0,1.4400000000000002e-10,0.0,0.0,0.0,1.0,2
2025/04/09 08:48:29.252826625,1744181309,250927930,mA1/gps,0,1,63.434604564858134,10.393091894105252,0.0,1.4400000000000002e-10,0.0,0.0,0.0,1.4400000000000002e-10,0.0,0.0,0.0,1.0,2
2025/04/09 08:48:29.305247998,1744181309,301998839,mA1/gps,0,1,63.43460468239407,10.393091895759387,0.0,1.4400000000000002e-10,0.0,0.0,0.0,1.4400000000000002e-10,0.0,0.0,0.0,1.0,2
2025/04/09 08:48:29.352375736,1744181309,351717472,mA1/gps,0,1,63.434604801726834,10.393091897852742,0.0,1.4400000000000002e-10,0.0,0.0,0.0,1.4400000000000002e-10,0.0,0.0,0.0,1.0,2
2025/04/09 08:48:29.413183071,1744181309,405087433,mA1/gps,0,1,63.434604922711145,10.393091900251115,0.0,1.4400000000000002e-10,0.0,0.0,0.0,1.4400000000000002e-10,0.0,0.0,0.0,1.0,2
2025/04/09 08:48:29.454771381,1744181309,454126311,mA1/gps,0,1,63.434605044035884,10.393091902259222,0.0,1.4400000000000002e-10,0.0,0.0,0.0,1.4400000000000002e-10,0.0,0.0,0.0,1.0,2
2025/04/09 08:48:29.507856106,1744181309,505467459,mA1/gps,0,1,63.43460516681299,10.393091904789701,0.0,1.4400000000000002e-10,0.0,0.0,0.0,1.4400000000000002e-10,0.0,0.0,0.0,1.0,2
2025/04/09 08:48:29.558043293,1744181309,555463880,mA1/gps,0,1,63.43460529135832,10.393091907290234,0.0,1.4400000000000002e-10,0.0,0.0,0.0,1.4400000000000002e-10,0.0,0.0,0.0,1.0,2
2025/04/09 08:48:29.608239544,1744181309,606348726,mA1/gps,0,1,63.43460541794826,10.393091908577198,0.0,1.4400000000000002e-10,0.0,0.0,0.0,1.4400000000000002e-10,0.0,0.0,0.0,1.0,2
2025/04/09 08:48:29.646824192,1744181309,646039053,mA1/gps,0,1,63.43460554618162,10.39309191041946,0.0,1.4400000000000002e-10,0.0,0.0,0.0,1.4400000000000002e-10,0.0,0.0,0.0,1.0,2
2025/04/09 08:48:29.699150516,1744181309,697390678,mA1/gps,0,1,63.434605676923816,10.393091911053807,0.0,1.4400000000000002e-10,0.0,0.0,0.0,1.4400000000000002e-10,0.0,0.0,0.0,1.0,2
2025/04/09 08:48:29.749469063,1744181309,748312003,mA1/gps,0,1,63.43460580860693,10.393091911425758,0.0,1.4400000000000002e-10,0.0,0.0,0.0,1.4400000000000002e-10,0.0,0.0,0.0,1.0,2
2025/04/09 08:48:29.800468140,1744181309,799209597,mA1/gps,0,1,63.43460594239409,10.39309191171066,0.0,1.4400000000000002e-10,0.0,0.0,0.0,1.4400000000000002e-10,0.0,0.0,0.0,1.0,2
2025/04/09 08:48:29.857735804,1744181309,853537382,mA1/gps,0,1,63.43460607693937,10.393091911832938,0.0,1.4400000000000002e-10,0.0,0.0,0.0,1.4400000000000002e-10,0.0,0.0,0.0,1.0,2
2025/04/09 08:48:29.904857284,1744181309,903729386,mA1/gps,0,1,63.43460621216439,10.39309191155551,0.0,1.4400000000000002e-10,0.0,0.0,0.0,1.4400000000000002e-10,0.0,0.0,0.0,1.0,2
2025/04/09 08:48:29.955208814,1744181309,953169351,mA1/gps,0,1,63.43460634910264,10.393091910029884,0.0,1.4400000000000002e-10,0.0,0.0,0.0,1.4400000000000002e-10,0.0,0.0,0.0,1.0,2
2025/04/09 08:48:29.999285001,1744181309,996554204,mA1/gps,0,1,63.43460648705173,10.393091908165683,0.0,1.4400000000000002e-10,0.0,0.0,0.0,1.4400000000000002e-10,0.0,0.0,0.0,1.0,2
2025/04/09 08:48:30.48680222,1744181310,48137765,mA1/gps,0,1,63.434606624449806,10.393091905688493,0.0,1.4400000000000002e-10,0.0,0.0,0.0,1.4400000000000002e-10,0.0,0.0,0.0,1.0,2
2025/04/09 08:48:30.100949074,1744181310,99137153,mA1/gps,0,1,63.4346067623461,10.393091902514097,0.0,1.4400000000000002e-10,0.0,0.0,0.0,1.4400000000000002e-10,0.0,0.0,0.0,1.0,2
2025/04/09 08:48:30.150390607,1744181310,149289327,mA1/gps,0,1,63.434606900377375,10.393091898720822,0.0,1.4400000000000002e-10,0.0,0.0,0.0,1.4400000000000002e-10,0.0,0.0,0.0,1.0,2
2025/04/09 08:48:30.202808816,1744181310,200141487,mA1/gps,0,1,63.434607038554795,10.39309189418268,0.0,1.4400000000000002e-10,0.0,0.0,0.0,1.4400000000000002e-10,0.0,0.0,0.0,1.0,2
2025/04/09 08:48:30.251716733,1744181310,250759138,mA1/gps,0,1,63.434607175493625,10.393091888047385,0.0,1.4400000000000002e-10,0.0,0.0,0.0,1.4400000000000002e-10,0.0,0.0,0.0,1.0,2
2025/04/09 08:48:30.304893649,1744181310,301786537,mA1/gps,0,1,63.434607311970524,10.393091882824445,0.0,1.4400000000000002e-10,0.0,0.0,0.0,1.4400000000000002e-10,0.0,0.0,0.0,1.0,2
2025/04/09 08:48:30.352400349,1744181310,351506383,mA1/gps,0,1,63.434607446555034,10.393091877095465,0.0,1.4400000000000002e-10,0.0,0.0,0.0,1.4400000000000002e-10,0.0,0.0,0.0,1.0,2
2025/04/09 08:48:30.407731463,1744181310,402527340,mA1/gps,0,1,63.43460757963911,10.393091870950258,0.0,1.4400000000000002e-10,0.0,0.0,0.0,1.4400000000000002e-10,0.0,0.0,0.0,1.0,2
2025/04/09 08:48:30.453226835,1744181310,452405547,mA1/gps,0,1,63.4346077137304,10.393091865479466,0.0,1.4400000000000002e-10,0.0,0.0,0.0,1.4400000000000002e-10,0.0,0.0,0.0,1.0,2
2025/04/09 08:48:30.504695869,1744181310,503354995,mA1/gps,0,1,63.43460784629355,10.393091860497137,0.0,1.4400000000000002e-10,0.0,0.0,0.0,1.4400000000000002e-10,0.0,0.0,0.0,1.0,2
2025/04/09 08:48:30.554426747,1744181310,553197284,mA1/gps,0,1,63.43460797867557,10.393091855449237,0.0,1.4400000000000002e-10,0.0,0.0,0.0,1.4400000000000002e-10,0.0,0.0,0.0,1.0,2
2025/04/09 08:48:30.606955494,1744181310,604198465,mA1/gps,0,1,63.4346081107304,10.393091852224412,0.0,1.4400000000000002e-10,0.0,0.0,0.0,1.4400000000000002e-10,0.0,0.0,0.0,1.0,2
2025/04/09 08:48:30.654969406,1744181310,654004514,mA1/gps,0,1,63.43460824114548,10.393091850449794,0.0,1.4400000000000002e-10,0.0,0.0,0.0,1.4400000000000002e-10,0.0,0.0,0.0,1.0,2
2025/04/09 08:48:30.707660007,1744181310,705162204,mA1/gps,0,1,63.43460837200674,10.393091849416855,0.0,1.4400000000000002e-10,0.0,0.0,0.0,1.4400000000000002e-10,0.0,0.0,0.0,1.0,2
2025/04/09 08:48:30.756556757,1744181310,755022581,mA1/gps,0,1,63.43460850393977,10.39309185057429,0.0,1.4400000000000002e-10,0.0,0.0,0.0,1.4400000000000002e-10,0.0,0.0,0.0,1.0,2
2025/04/09 08:48:30.807219717,1744181310,806146282,mA1/gps,0,1,63.43460863564833,10.39309185317759,0.0,1.4400000000000002e-10,0.0,0.0,0.0,1.4400000000000002e-10,0.0,0.0,0.0,1.0,2
2025/04/09 08:48:30.846815011,1744181310,845928049,mA1/gps,0,1,63.434608767785186,10.393091857398254,0.0,1.4400000000000002e-10,0.0,0.0,0.0,1.4400000000000002e-10,0.0,0.0,0.0,1.0,2
2025/04/09 08:48:30.898664953,1744181310,897338862,mA1/gps,0,1,63.43460890096781,10.393091862562606,0.0,1.4400000000000002e-10,0.0,0.0,0.0,1.4400000000000002e-10,0.0,0.0,0.0,1.0,2
2025/04/09 08:48:30.947932288,1744181310,947201014,mA1/gps,0,1,63.434609036190075,10.39309186822788,0.0,1.4400000000000002e-10,0.0,0.0,0.0,1.4400000000000002e-10,0.0,0.0,0.0,1.0,2
2025/04/09 08:48:31.3612678,1744181311,737572,mA1/gps,0,1,63.43460917212221,10.393091873885952,0.0,1.4400000000000002e-10,0.0,0.0,0.0,1.4400000000000002e-10,0.0,0.0,0.0,1.0,2
2025/04/09 08:48:31.50674390,1744181311,49353108,mA1/gps,0,1,63.43460930879288,10.39309188025418,0.0,1.4400000000000002e-10,0.0,0.0,0.0,1.4400000000000002e-10,0.0,0.0,0.0,1.0,2
2025/04/09 08:48:31.102244122,1744181311,100251450,mA1/gps,0,1,63.43460944771623,10.39309188579788,0.0,1.4400000000000002e-10,0.0,0.0,0.0,1.4400000000000002e-10,0.0,0.0,0.0,1.0,2
2025/04/09 08:48:31.151955610,1744181311,149982771,mA1/gps,0,1,63.43460958790672,10.3930918911943,0.0,1.4400000000000002e-10,0.0,0.0,0.0,1.4400000000000002e-10,0.0,0.0,0.0,1.0,2
2025/04/09 08:48:31.205960514,1744181311,202073245,mA1/gps,0,1,63.43460972982746,10.39309189618831,0.0,1.4400000000000002e-10,0.0,0.0,0.0,1.4400000000000002e-10,0.0,0.0,0.0,1.0,2
2025/04/09 08:48:31.253375359,1744181311,251871133,mA1/gps,0,1,63.434609872900666,10.393091899287814,0.0,1.4400000000000002e-10,0.0,0.0,0.0,1.4400000000000002e-10,0.0,0.0,0.0,1.0,2
2025/04/09 08:48:31.305783039,1744181311,302820930,mA1/gps,0,1,63.4346100182867,10.393091902424597,0.0,1.4400000000000002e-10,0.0,0.0,0.0,1.4400000000000002e-10,0.0,0.0,0.0,1.0,2
2025/04/09 08:48:31.355956227,1744181311,353963720,mA1/gps,0,1,63.43461016375752,10.393091904080434,0.0,1.4400000000000002e-10,0.0,0.0,0.0,1.4400000000000002e-10,0.0,0.0,0.0,1.0,2
2025/04/09 08:48:31.406721431,1744181311,404960125,mA1/gps,0,1,63.43461030999264,10.393091906076796,0.0,1.4400000000000002e-10,0.0,0.0,0.0,1.4400000000000002e-10,0.0,0.0,0.0,1.0,2
2025/04/09 08:48:31.457657785,1744181311,454789577,mA1/gps,0,1,63.434610457958215,10.393091905803102,0.0,1.4400000000000002e-10,0.0,0.0,0.0,1.4400000000000002e-10,0.0,0.0,0.0,1.0,2
2025/04/09 08:48:31.507360037,1744181311,505910943,mA1/gps,0,1,63.43461060551951,10.393091905517204,0.0,1.4400000000000002e-10,0.0,0.0,0.0,1.4400000000000002e-10,0.0,0.0,0.0,1.0,2
2025/04/09 08:48:31.548299178,1744181311,546306075,mA1/gps,0,1,63.4346107529173,10.393091903390244,0.0,1.4400000000000002e-10,0.0,0.0,0.0,1.4400000000000002e-10,0.0,0.0,0.0,1.0,2
2025/04/09 08:48:31.598107445,1744181311,597181866,mA1/gps,0,1,63.43461090085252,10.393091900280861,0.0,1.4400000000000002e-10,0.0,0.0,0.0,1.4400000000000002e-10,0.0,0.0,0.0,1.0,2
2025/04/09 08:48:31.648606855,1744181311,647082966,mA1/gps,0,1,63.43461104863975,10.393091896502664,0.0,1.4400000000000002e-10,0.0,0.0,0.0,1.4400000000000002e-10,0.0,0.0,0.0,1.0,2
2025/04/09 08:48:31.702516036,1744181311,698791827,mA1/gps,0,1,63.43461119564818,10.393091892345254,0.0,1.4400000000000002e-10,0.0,0.0,0.0,1.4400000000000002e-10,0.0,0.0,0.0,1.0,2
2025/04/09 08:48:31.752681691,1744181311,749109212,mA1/gps,0,1,63.4346113412641,10.393091887582402,0.0,1.4400000000000002e-10,0.0,0.0,0.0,1.4400000000000002e-10,0.0,0.0,0.0,1.0,2
2025/04/09 08:48:31.805828346,1744181311,802793225,mA1/gps,0,1,63.43461148678964,10.393091882617258,0.0,1.4400000000000002e-10,0.0,0.0,0.0,1.4400000000000002e-10,0.0,0.0,0.0,1.0,2
2025/04/09 08:48:31.853635713,1744181311,852664407,mA1/gps,0,1,63.43461163102304,10.393091878664388,0.0,1.4400000000000002e-10,0.0,0.0,0.0,1.4400000000000002e-10,0.0,0.0,0.0,1.0,2
2025/04/09 08:48:31.907230087,1744181311,903619491,mA1/gps,0,1,63.43461177484021,10.393091875554521,0.0,1.4400000000000002e-10,0.0,0.0,0.0,1.4400000000000002e-10,0.0,0.0,0.0,1.0,2
2025/04/09 08:48:31.954703872,1744181311,953399940,mA1/gps,0,1,63.4346119176902,10.393091873710803,0.0,1.4400000000000002e-10,0.0,0.0,0.0,1.4400000000000002e-10,0.0,0.0,0.0,1.0,2
2025/04/09 08:48:32.9922556,1744181312,4382802,mA1/gps,0,1,63.43461205974087,10.393091872474356,0.0,1.4400000000000002e-10,0.0,0.0,0.0,1.4400000000000002e-10,0.0,0.0,0.0,1.0,2
2025/04/09 08:48:32.54773270,1744181312,54111785,mA1/gps,0,1,63.434612201442334,10.393091872219518,0.0,1.4400000000000002e-10,0.0,0.0,0.0,1.4400000000000002e-10,0.0,0.0,0.0,1.0,2
2025/04/09 08:48:32.107274327,1744181312,105158797,mA1/gps,0,1,63.434612342718715,10.39309187316733,0.0,1.4400000000000002e-10,0.0,0.0,0.0,1.4400000000000002e-10,0.0,0.0,0.0,1.0,2
2025/04/09 08:48:32.155690715,1744181312,154859643,mA1/gps,0,1,63.434612483783795,10.393091875236996,0.0,1.4400000000000002e-10,0.0,0.0,0.0,1.4400000000000002e-10,0.0,0.0,0.0,1.0,2
2025/04/09 08:48:32.208785027,1744181312,207475310,mA1/gps,0,1,63.43461262426918,10.393091878851049,0.0,1.4400000000000002e-10,0.0,0.0,0.0,1.4400000000000002e-10,0.0,0.0,0.0,1.0,2
