time,header_stamp_secs,header_stamp_nsecs,header_frame_id,quaternion_x,quaternion_y,quaternion_z,quaternion_w
2025/04/09 08:48:15.782571748,1744181295,761268539,,-0.0003674484338075349,-2.6388231861590334e-05,-0.005564195791328504,0.9999844518843808
2025/04/09 08:48:15.863687634,1744181295,859345346,,-0.0002697806300166171,-2.3239602938589134e-05,-0.005576338166302917,0.9999844154440546
2025/04/09 08:48:15.968123770,1744181295,966686481,,-0.00020862128909721273,-8.896346555906062e-06,-0.005590318509446079,0.9999843522460617
2025/04/09 08:48:16.67868575,1744181296,66607165,,-0.000203137800748293,1.1275804334828379e-05,-0.005608215965715464,0.9999842531368042
2025/04/09 08:48:16.168118466,1744181296,163421648,,-0.00025451604196372307,1.4060987884239809e-05,-0.005631200085328391,0.9999841121785246
2025/04/09 08:48:16.267483659,1744181296,266743515,,-0.00034168799577662654,3.670962543024219e-05,-0.0056523429164333895,0.9999839663320967
2025/04/09 08:48:16.380025725,1744181296,367987057,,-0.0004365559774169847,3.5926582979000315e-05,-0.0056643405314172595,0.999983861557027
2025/04/09 08:48:16.746160511,1744181296,464260590,,-0.0005181467451756259,2.751065118318651e-05,-0.005674598168394901,0.9999837647195787
2025/04/09 08:48:16.768646827,1744181296,565062472,,-0.0005686392644573162,2.1038162817590906e-05,-0.005684860306600473,0.9999836791518535
2025/04/09 08:48:16.781041777,1744181296,666109066,,-0.0005789225679750175,1.3721206271473441e-05,-0.0056935182524249055,0.9999836241210643
2025/04/09 08:48:16.786634719,1744181296,761943296,,-0.0005795258129134279,-1.4133795074511831e-05,-0.005676817856250928,0.9999837187120073
2025/04/09 08:48:16.868753410,1744181296,867866968,,-0.0005865698119389251,-1.5449415966288768e-05,-0.005623522036184055,0.9999840157207913
2025/04/09 08:48:16.967367690,1744181296,964995572,,-0.0005328619473063756,-2.5864401716182083e-05,-0.005579500879621216,0.9999842921561879
2025/04/09 08:48:17.69875868,1744181297,67300247,,-0.00040114989710312107,-3.0014226122523054e-05,-0.00557430791048249,0.9999843825126598
2025/04/09 08:48:17.161485661,1744181297,160540453,,-0.00023909785303148425,-2.2220655092266898e-05,-0.005596813225395676,0.9999843088869841
2025/04/09 08:48:17.261417987,1744181297,260909776,,-0.00012763332170402913,-7.17061165281834e-06,-0.0056194744125229274,0.9999842024580411
2025/04/09 08:48:17.365279586,1744181297,362197618,,-9.139780084229895e-05,-8.062916259235635e-06,-0.005641121192621552,0.9999840845399098
2025/04/09 08:48:17.463135454,1744181297,462940603,,-0.00014234584493178637,1.3715943616188632e-05,-0.005654778919494782,0.9999840013844746
2025/04/09 08:48:17.568734634,1744181297,568329521,,-0.00026259081194935404,1.6284819526087565e-05,-0.005657301620618006,0.9999839627310247
2025/04/09 08:48:17.692718856,1744181297,660223243,,-0.0004028734289779077,1.519322836968944e-05,-0.005663182013395177,0.9999838827859423
2025/04/09 08:48:17.767948519,1744181297,762065368,,-0.0005384667475486995,1.8466414203066993e-05,-0.005670333473680024,0.9999837783838549
2025/04/09 08:48:17.909935899,1744181297,864968415,,-0.0006450850290541495,2.3612519053645812e-05,-0.005685524511524215,0.9999836289253855
2025/04/09 08:48:17.993194679,1744181297,972773047,,-0.0006934642385207811,7.284014156157292e-06,-0.005700692792585054,0.999983510442036
2025/04/09 08:48:18.66244911,1744181298,62279174,,-0.0006663938274149314,9.70420745848348e-06,-0.005709830582099994,0.9999834766933996
2025/04/09 08:48:18.164971539,1744181298,164056268,,-0.0005786473534447986,-3.5790066008060177e-06,-0.005717637603752023,0.9999834867509879
2025/04/09 08:48:18.266835582,1744181298,266520092,,-0.00046065082974919633,-1.637544254855021e-05,-0.00572037670069711,0.9999835322759371
2025/04/09 08:48:18.358908090,1744181298,358155081,,-0.0003480269896132507,-1.907158128564567e-05,-0.005711450434445721,0.9999836287897038
2025/04/09 08:48:18.464694751,1744181298,461567720,,-0.0002898526453737434,-1.627917303863605e-05,-0.0056747025800180755,0.9999838566052258
2025/04/09 08:48:18.562217760,1744181298,561185106,,-0.0002989861212824236,-3.087075526500932e-05,-0.005608168240215187,0.9999842289272792
2025/04/09 08:48:18.663447926,1744181298,663178564,,-0.0003235606264605993,-1.6049401894919184e-05,-0.005539959146213839,0.9999846018332462
2025/04/09 08:48:18.766322424,1744181298,765528152,,-0.00035213121107090516,-1.2237558563615857e-05,-0.005471602956012243,0.9999849685945005
2025/04/09 08:48:18.866845122,1744181298,865311123,,-0.0003599947221187348,-5.69038630357536e-06,-0.005417532241254543,0.9999852602492871
2025/04/09 08:48:18.958142918,1744181298,957386327,,-0.00035349628218695156,1.0232811787500033e-05,-0.0053780470482276774,0.9999854756673294
2025/04/09 08:48:19.60427204,1744181299,58731927,,-0.000306590891816956,2.7780574344676587e-05,-0.005377753239146256,0.9999854923949465
2025/04/09 08:48:19.159615772,1744181299,159423894,,-0.00024163338432449497,2.0995639492768325e-05,-0.005404461072855838,0.9999853663794299
2025/04/09 08:48:19.261177640,1744181299,260348208,,-0.00022037787933580137,3.404955004529887e-05,-0.0054309121910479955,0.9999852276243842
2025/04/09 08:48:19.361886158,1744181299,361685298,,-0.0002497361140189968,2.7966777189269653e-05,-0.005455041617234743,0.9999850895741831
2025/04/09 08:48:19.464941948,1744181299,463456347,,-0.0003219875789416433,1.6627292140578525e-05,-0.005476135938349328,0.9999849538781656
2025/04/09 08:48:19.566438832,1744181299,565629417,,-0.00041701811278049817,9.794590517681174e-06,-0.005498460205020269,0.9999847963520913
2025/04/09 08:48:19.668057448,1744181299,666340048,,-0.0005153816392144508,6.430766736116212e-06,-0.005527409685681542,0.9999845909225691
2025/04/09 08:48:19.757873697,1744181299,757367735,,-0.0005877535727787542,-1.665987886234315e-05,-0.005547877613422651,0.9999844375399912
2025/04/09 08:48:19.860850242,1744181299,860002116,,-0.0006096670425539865,-1.4200983774447513e-05,-0.005572647108764855,0.9999842867308618
2025/04/09 08:48:19.961397640,1744181299,961196345,,-0.0005732557561836871,-2.2625365459092782e-05,-0.005606076577744171,0.9999841212596005
2025/04/09 08:48:20.61728948,1744181300,61511055,,-0.00051373361005736,-2.7086322625917733e-05,-0.00563258700363568,0.9999840045259502
2025/04/09 08:48:20.165592600,1744181300,163818735,,-0.00045286584726515777,-1.9109213938150418e-05,-0.005650739960919486,0.9999839317135333
2025/04/09 08:48:20.265375522,1744181300,265027752,,-0.00039695602796887473,-2.3578677069883556e-06,-0.0056798135553298625,0.9999837909377977
2025/04/09 08:48:20.366186554,1744181300,365955188,,-0.0003579985855292802,3.3974444555210134e-07,-0.005714587583554989,0.999983607528467
2025/04/09 08:48:20.468252529,1744181300,467153871,,-0.0003425801207055975,2.272947709195355e-05,-0.005738009045860526,0.9999834785507316
2025/04/09 08:48:20.557929452,1744181300,557711766,,-0.00034930192265365177,2.6149055751176685e-05,-0.0057578721740854325,0.9999833619677982
2025/04/09 08:48:20.662447332,1744181300,660462750,,-0.00038134231884632777,2.3010415286193456e-05,-0.005769354838188743,0.9999832841569442
2025/04/09 08:48:20.762072329,1744181300,761849564,,-0.0004839686712786967,1.5615981930427338e-05,-0.005731100020266101,0.9999834598747241
2025/04/09 08:48:20.864267853,1744181300,864059537,,-0.0005396546528625149,8.48879589791062e-06,-0.005708412900664369,0.9999835612263591
2025/04/09 08:48:20.965801286,1744181300,964862969,,-0.0005592053448984621,-1.693404619704897e-05,-0.0056881735627384395,0.9999836657086657
2025/04/09 08:48:21.66622010,1744181301,65978651,,-0.0005419012713144748,-1.5501881661916773e-05,-0.005669105736555022,0.999983783539939
2025/04/09 08:48:21.158618490,1744181301,157622799,,-0.0004934153430621646,-2.4243682582138874e-05,-0.005651261883241494,0.9999839094668824
2025/04/09 08:48:21.258434422,1744181301,258270940,,-0.00042727368317834044,-2.8975452072374272e-05,-0.005633032472696473,0.9999840426440736
2025/04/09 08:48:21.358949549,1744181301,358758127,,-0.0003706304202265246,-2.257626910259288e-05,-0.005603950871957851,0.9999842288046489
2025/04/09 08:48:21.461797677,1744181301,460713584,,-0.00031819191735349254,-8.767603565527982e-06,-0.005574731291725746,0.9999844104025112
2025/04/09 08:48:21.560953783,1744181301,560673348,,-0.0002671511018375203,-9.819317394093728e-06,-0.0055553505924269804,0.9999845331872214
2025/04/09 08:48:21.663523100,1744181301,662430975,,-0.00022825374101369763,1.503364973246529e-05,-0.005546345680043732,0.9999845927432165
2025/04/09 08:48:21.766206841,1744181301,765140175,,-0.00022063366994164963,2.491478731634349e-05,-0.0055446245253377695,0.9999846038009336
2025/04/09 08:48:21.859862883,1744181301,858139353,,-0.00024882109992535167,3.289513528952068e-05,-0.005561947971186299,0.9999845007502547
2025/04/09 08:48:21.959672307,1744181301,958785816,,-0.0003151934490186814,4.201998294063481e-05,-0.0055864549405558106,0.9999843450817657
2025/04/09 08:48:22.59744620,1744181302,59440428,,-0.0004057348997490224,4.759639303395318e-05,-0.005621050012793409,0.9999841183291504
2025/04/09 08:48:22.162257152,1744181302,162070306,,-0.0005070911885280328,2.443551075217543e-05,-0.005636079455107143,0.9999839883067169
2025/04/09 08:48:22.264989690,1744181302,264326664,,-0.0005763739021973521,1.6990444921327094e-05,-0.005643113560893232,0.9999839112574704
2025/04/09 08:48:22.358294925,1744181302,357215918,,-0.0005908899334687668,-7.048319676000992e-06,-0.005656570595113705,0.9999838268734701
2025/04/09 08:48:22.459935811,1744181302,458963463,,-0.0005632302938556161,-2.992237545036232e-05,-0.0056693519329890744,0.9999837700307678
2025/04/09 08:48:22.564302784,1744181302,562638843,,-0.0005083861090397453,-3.9866972498294954e-05,-0.0056809244113818986,0.9999837333937092
2025/04/09 08:48:22.662957844,1744181302,662631785,,-0.0004447298893390367,-3.8077836246169575e-05,-0.005696080372050642,0.9999836775836889
2025/04/09 08:48:22.764045421,1744181302,762943060,,-0.0003728924507597173,-4.933005432695177e-05,-0.00570390254283652,0.9999836618733067
2025/04/09 08:48:22.867395022,1744181302,866852075,,-0.00031004771348183013,-2.9032100353224875e-05,-0.005710199699882404,0.9999836481897791
2025/04/09 08:48:22.962192058,1744181302,961911440,,-0.0002691604889389101,-1.6895231929066288e-05,-0.005716229993494546,0.9999836258568656
2025/04/09 08:48:23.60619519,1744181303,59480463,,-0.00025860433766315184,-2.3507433881342505e-06,-0.00572205019087252,0.999983595495388
2025/04/09 08:48:23.161364859,1744181303,161153592,,-0.0002839441992762831,1.9669165914056437e-05,-0.005728924931465126,0.999983549068656
2025/04/09 08:48:23.266158979,1744181303,265696087,,-0.00034532050620447025,4.2774616547471735e-05,-0.00574182214581301,0.9999834550643956
2025/04/09 08:48:23.363676181,1744181303,363510146,,-0.00042342087072689297,4.098616275235797e-05,-0.0057544913922762024,0.9999833522932854
2025/04/09 08:48:23.466417975,1744181303,466155831,,-0.0004981479327151311,5.441852303262695e-05,-0.0057645423114609665,0.9999832593294754
2025/04/09 08:48:23.559619643,1744181303,557914904,,-0.0005516347867959322,4.3640874118476084e-05,-0.0057706053042816405,0.9999831968133056
2025/04/09 08:48:23.661196154,1744181303,660709904,,-0.0005771079684850799,2.5676663624568427e-05,-0.005769885902411524,0.9999831872105525
2025/04/09 08:48:23.760733205,1744181303,759638333,,-0.0005746189570512517,4.115436831614737e-06,-0.005753658508533651,0.9999832824652043
2025/04/09 08:48:23.863865710,1744181303,863480954,,-0.000524357905005739,-1.3035722260329601e-05,-0.005739584868570486,0.9999833908842656
2025/04/09 08:48:23.961628905,1744181303,961412486,,-0.00043846999400081675,-4.324982619838783e-05,-0.005732685342815318,0.999983470959534
2025/04/09 08:48:24.65709127,1744181304,65388592,,-0.0003479295317132545,-4.1768942110618756e-05,-0.005726380034418627,0.9999835427506284
2025/04/09 08:48:24.167543335,1744181304,167038680,,-0.00027642964640223807,-4.581853627045025e-05,-0.005722277077386868,0.9999835883815104
2025/04/09 08:48:24.267908823,1744181304,267615109,,-0.00024533507197785885,-3.647768176610188e-05,-0.005729201425584173,0.9999835572303708
2025/04/09 08:48:24.359508821,1744181304,357740760,,-0.00023811800698560052,1.1575251784570158e-05,-0.005753279339628946,0.9999834213339082
2025/04/09 08:48:24.460053110,1744181304,459440727,,-0.00026573342159744634,0.00010114598055185835,-0.005781326605200405,0.9999832475686397
2025/04/09 08:48:24.560319641,1744181304,560099311,,-0.00032595173879169476,0.00023582453415520272,-0.005811411278577818,0.9999830326766571
2025/04/09 08:48:24.660799816,1744181304,660521881,,-0.00040628931753809396,0.00041343690952171303,-0.0058457183283398525,0.9999827456392125
2025/04/09 08:48:24.762825372,1744181304,761805402,,-0.0004892777842601193,0.0006373017716558374,-0.005886105190569008,0.9999823539540021
2025/04/09 08:48:24.864587096,1744181304,864284014,,-0.000555742945556239,0.0008759143803895067,-0.0059334666153435635,0.9999818587842988
2025/04/09 08:48:24.968104560,1744181304,966663726,,-0.0005924818963567153,0.0011023519469845603,-0.005990055431907424,0.9999812763353673
2025/04/09 08:48:25.58688848,1744181305,58106832,,-0.0005918822569342247,0.001262361248785587,-0.0060563002447103125,0.9999806884869414
2025/04/09 08:48:25.159810973,1744181305,158203580,,-0.0005557726546342151,0.0013277637650749184,-0.006132926120233006,0.9999801574918096
2025/04/09 08:48:25.259552776,1744181305,259250934,,-0.0004896851176004411,0.0012732062472110156,-0.006220122603218966,0.9999797244090195
2025/04/09 08:48:25.360568893,1744181305,360298861,,-0.00041115705054084705,0.001120138847126745,-0.0063178633766718725,0.9999793302069782
2025/04/09 08:48:25.462654743,1744181305,460973649,,-0.00034174346658826253,0.0008884778277773101,-0.006426763747995866,0.9999788950404304
2025/04/09 08:48:25.563035025,1744181305,562651655,,-0.0002906441016567933,0.0006018985241316655,-0.006552239988166609,0.9999783104624371
2025/04/09 08:48:25.664063526,1744181305,663739797,,-0.00023472998685459396,0.0003205884295300687,-0.006719546130274487,0.9999773446557153
2025/04/09 08:48:25.765505059,1744181305,764638392,,-0.00018085125580489565,8.639767388893411e-05,-0.006931968901027801,0.9999759535285938
2025/04/09 08:48:25.865510326,1744181305,864863805,,-0.00016546047261815526,-7.637531710461266e-05,-0.007167456188556871,0.9999742968503881
2025/04/09 08:48:25.966398297,1744181305,966141738,,-0.00021725422879893813,-0.00012615138338651887,-0.007390393662238395,0.9999726591102107
2025/04/09 08:48:26.68353019,1744181306,67277295,,-0.000320352329402088,-5.73905662441048e-05,-0.007601512334760609,0.9999710551265634
2025/04/09 08:48:26.157871459,1744181306,157467769,,-0.00043164297520469595,0.00011145731754762638,-0.007832534969019294,0.9999692258552597
2025/04/09 08:48:26.258683664,1744181306,258514226,,-0.0005393066486672045,0.000353799862556435,-0.00807481993147688,0.99996719009029
2025/04/09 08:48:26.359793481,1744181306,359590907,,-0.0006214676588174347,0.000606911897350773,-0.00833134363722327,0.9999649164591208
2025/04/09 08:48:26.461889238,1744181306,461648407,,-0.0006821722947824948,0.0008386547811083345,-0.008567649449707983,0.9999627126458392
2025/04/09 08:48:26.561052793,1744181306,560885956,,-0.0006849745140948378,0.0009949902568506279,-0.008814462325136366,0.999960422245912
2025/04/09 08:48:26.665146803,1744181306,664793897,,-0.0006228442596713128,0.0010534177947903569,-0.009084930649731246,0.9999579823227911
2025/04/09 08:48:26.767834401,1744181306,767554527,,-0.000523177285499384,0.000988034275670504,-0.00937053537526376,0.9999554705788548
2025/04/09 08:48:26.867686230,1744181306,867133711,,-0.0004167551551967562,0.0008141840045952724,-0.009664005535300044,0.9999528840983264
2025/04/09 08:48:26.960678582,1744181306,960377417,,-0.00032676875838226715,0.0005757935137247466,-0.009965555825844945,0.9999501234467097
2025/04/09 08:48:27.61361777,1744181307,61168913,,-0.00027367170146946836,0.0002772248048985841,-0.01027415818979537,0.9999471435649478
2025/04/09 08:48:27.162508867,1744181307,162219872,,-0.0002691673332201076,1.4126519764145703e-05,-0.010588332578792391,0.9999439057080097
2025/04/09 08:48:27.264294329,1744181307,264078225,,-0.0003092030657798351,-0.00019560763872521772,-0.010909269268833276,0.9999404252129903
2025/04/09 08:48:27.359189140,1744181307,357812032,,-0.00038530589967761166,-0.0003182487098868488,-0.011230386115842437,0.9999368123460659
2025/04/09 08:48:27.462508451,1744181307,461676792,,-0.00048707104842807204,-0.0003340255983746666,-0.011526992479321152,0.9999333875979315
2025/04/09 08:48:27.561363838,1744181307,559545896,,-0.0005622080784795051,-0.00023578716917224102,-0.011824148489701859,0.9999299064629384
2025/04/09 08:48:27.661615387,1744181307,661403914,,-0.0005838285657770751,-3.793865705551398e-05,-0.012143582512684456,0.9999260928231755
2025/04/09 08:48:27.762271410,1744181307,761439067,,-0.0005606140634986485,0.00021206940879411272,-0.012484877657896958,0.9999218812328816
2025/04/09 08:48:27.865083472,1744181307,864398319,,-0.0005166749517045569,0.0004651908640404396,-0.012826599715324577,0.9999174940884858
2025/04/09 08:48:27.964716399,1744181307,964416242,,-0.0004633857124566084,0.0006790104230867606,-0.013161884814967243,0.9999130407223642
2025/04/09 08:48:28.58868915,1744181308,57737929,,-0.00038733385203732124,0.0007923119821867452,-0.01353147516923001,0.9999080564701709
2025/04/09 08:48:28.159592843,1744181308,159348391,,-0.00032907508278182514,0.0008193221923354667,-0.01391351824821543,0.99990281249264
2025/04/09 08:48:28.260741173,1744181308,260499649,,-0.00031467101603878416,0.0007448862592032025,-0.014272053192683631,0.9998978220919764
2025/04/09 08:48:28.365707865,1744181308,363399207,,-0.0003225411140890008,0.0005579828434942966,-0.01463099635969015,0.9998927535330471
2025/04/09 08:48:28.464687460,1744181308,463866978,,-0.000343850041483856,0.00032363453778928863,-0.014998278186391845,0.9998874080011602
2025/04/09 08:48:28.566783152,1744181308,565764472,,-0.00036693287855938864,5.949296697411447e-05,-0.01538757421422209,0.9998815351733681
2025/04/09 08:48:28.666889398,1744181308,666634776,,-0.0003949024200359987,-0.00016690291882933295,-0.01579387219374297,0.9998751771079338
2025/04/09 08:48:28.767768414,1744181308,767565038,,-0.0004229654585705788,-0.0003517181562306661,-0.016225868017794243,0.9998682006152754
2025/04/09 08:48:28.859403439,1744181308,858474524,,-0.00045771214625705506,-0.0004309964273873268,-0.016677940253120475,0.9998607158252514
2025/04/09 08:48:28.960644128,1744181308,960254454,,-0.0004973852215842774,-0.0004072034334112718,-0.017144338044212993,0.9998528184019541
2025/04/09 08:48:29.61067373,1744181309,60219795,,-0.0005345326954538599,-0.0002862446987928124,-0.017618977620997733,0.9998445899070318
2025/04/09 08:48:29.163457763,1744181309,161701488,,-0.0005596471703091775,-0.00010062993876334359,-0.018093097948069754,0.9998361448133898
2025/04/09 08:48:29.263484507,1744181309,263157181,,-0.000550390909932657,0.0001346920685341847,-0.018582368763336545,0.9998271723148138
2025/04/09 08:48:29.363320329,1744181309,363029702,,-0.0005008656580904313,0.000359282250068643,-0.01910153646952084,0.9998173589983127
2025/04/09 08:48:29.468119287,1744181309,465750271,,-0.00044206967213818106,0.0005393498900839625,-0.01963197272609341,0.9998070310429823
2025/04/09 08:48:29.569565160,1744181309,568562239,,-0.00039388970262519796,0.0006420733564391037,-0.02015851302457889,0.9997965127691459
2025/04/09 08:48:29.657791981,1744181309,657568072,,-0.0003566096900302078,0.0006397045683049731,-0.020687450792027127,0.9997857235364594
2025/04/09 08:48:29.760377381,1744181309,760176005,,-0.00033096634744530904,0.0005475616617558421,-0.021219535280665305,0.9997746355854283
2025/04/09 08:48:29.863985228,1744181309,863769918,,-0.0003046692136495192,0.0003638566448286501,-0.02178649785701942,0.9997625334528887
2025/04/09 08:48:29.965872574,1744181309,964807048,,-0.0002957471939778701,0.00013444095709419106,-0.022380612670793786,0.9997494699351964
2025/04/09 08:48:30.60005448,1744181310,59805258,,-0.0002976956575133339,-0.00010635791876381408,-0.023021615976776592,0.9997349174971866
2025/04/09 08:48:30.161521321,1744181310,161272377,,-0.00032693859587624036,-0.00031894184370089495,-0.023702591372405935,0.9997189497801308
2025/04/09 08:48:30.262563783,1744181310,262369438,,-0.0003872433733028449,-0.0004788107473965232,-0.024414943246114117,0.9997017211794361
2025/04/09 08:48:30.363356090,1744181310,363036574,,-0.000458855976841898,-0.0005366952487176248,-0.025166542958242954,0.9996830230252655
2025/04/09 08:48:30.464498787,1744181310,464142026,,-0.0005396540165308558,-0.0004961800037829611,-0.025944269599831253,0.9996631219835398
2025/04/09 08:48:30.565536102,1744181310,565018944,,-0.0006121242169093273,-0.0003756905753515406,-0.026740562602218392,0.9996421492075309
2025/04/09 08:48:30.665486529,1744181310,665272455,,-0.0006553948898771145,-0.00017957970448586683,-0.027547392057462285,0.999620267601403
2025/04/09 08:48:30.768170791,1744181310,766748403,,-0.0006490312849924019,3.0580868710541526e-05,-0.02837944032023387,0.9995970113952481
2025/04/09 08:48:30.858352606,1744181310,857233560,,-0.0005896633562063011,0.0002402704956989131,-0.029246592076807056,0.9995720241278805
2025/04/09 08:48:30.960368868,1744181310,958917415,,-0.0005045527214748611,0.00038242957653449017,-0.030136820660388287,0.999545582359631
2025/04/09 08:48:31.61035412,1744181311,60761558,,-0.00041351199246393637,0.0004616566201216897,-0.031042819024878536,0.9995178634061453
2025/04/09 08:48:31.162284892,1744181311,162056491,,-0.0003347832399009044,0.0004456255441439029,-0.03195558698460976,0.999489134407436
2025/04/09 08:48:31.263776633,1744181311,263521098,,-0.00027729865231398233,0.00034343553327929134,-0.03288589020778798,0.9994590153591758
2025/04/09 08:48:31.366067736,1744181311,365775098,,-0.00024355934274948612,0.00016399391380462266,-0.03384060158002588,0.9994271996846718
2025/04/09 08:48:31.467511832,1744181311,466356731,,-0.00023395272342570958,-5.1575074347737067e-05,-0.034836242897274966,0.9993930051721079
2025/04/09 08:48:31.558686405,1744181311,557947211,,-0.0002684148034456565,-0.0002670807132365699,-0.03586050172683341,0.9993567336228268
2025/04/09 08:48:31.659305244,1744181311,659012395,,-0.0003310251898460287,-0.0004528308082624396,-0.03692787097716306,0.9993177761411416
2025/04/09 08:48:31.765088619,1744181311,764837581,,-0.00042063450267165546,-0.0005700478454868002,-0.03802600501954439,0.9992764988001682
2025/04/09 08:48:31.864864143,1744181311,864283646,,-0.0005116916547436657,-0.0006047266914573436,-0.039157885486777726,0.9992327218828873
2025/04/09 08:48:31.964810879,1744181311,964602986,,-0.000563134820537767,-0.0005560129792068446,-0.04035232599121609,0.9991851998082435
2025/04/09 08:48:32.68880134,1744181312,68490538,,-0.0005954147527094845,-0.000433512464584019,-0.04158707814760028,0.9991346117913045
2025/04/09 08:48:32.167837474,1744181312,167448884,,-0.0006033331180687145,-0.0002615082354724369,-0.04285598400811937,0.999081043878467
2025/04/09 08:48:32.258830689,1744181312,257221785,,-0.0005831472298433159,-7.224987081906777e-05,-0.04415751869317313,0.9990244082414236
2025/04/09 08:48:32.359113844,1744181312,358562517,,-0.0005405158254110604,9.846609864407678e-05,-0.04548345388817482,0.9989649411112845
2025/04/09 08:48:32.459762906,1744181312,459590596,,-0.00048099844943434006,0.00022023433956565094,-0.046824917859403056,0.9989029718670315
2025/04/09 08:48:32.561290651,1744181312,561020116,,-0.0004024691682137352,0.0002705323582417268,-0.04819692272259334,0.9988377353058324
2025/04/09 08:48:32.663228609,1744181312,661848290,,-0.0003023153172445224,0.00023868118157172378,-0.04962554848971917,0.9987678191520976
2025/04/09 08:48:32.763242738,1744181312,763036157,,-0.00022842670891401584,0.0001242402711461511,-0.05110264073780189,0.9986933726100403
2025/04/09 08:48:32.866645082,1744181312,866291623,,-0.0002081182855640961,-4.0465437674727596e-05,-0.052610597936164946,0.9986150810167683
2025/04/09 08:48:32.958586710,1744181312,957772985,,-0.00023829570260361827,-0.0002441717102879987,-0.054141956616694915,0.9985331902991758
2025/04/09 08:48:33.58354517,1744181313,58054987,,-0.0003081229226628015,-0.00043486419827073265,-0.05569428799006808,0.9984477263425827
2025/04/09 08:48:33.160626945,1744181313,160452642,,-0.0003932727972290561,-0.0006061259343783093,-0.05726444239807108,0.9983587839973647
2025/04/09 08:48:33.262307689,1744181313,262080345,,-0.00046248805964651586,-0.000681031427907716,-0.058867263585079044,0.9982654795088297
2025/04/09 08:48:33.364754350,1744181313,364572899,,-0.0005035311301716138,-0.0006938366823899226,-0.060499998424523374,0.9981678291939146
2025/04/09 08:48:33.466289364,1744181313,466028363,,-0.0004788422487309485,-0.0006378848223404002,-0.06219857676530903,0.9980634753668848
2025/04/09 08:48:33.569427784,1744181313,566850287,,-0.0004020568187655171,-0.0005041542917485978,-0.06397085255174811,0.9979515590461128
2025/04/09 08:48:33.658332818,1744181313,658148259,,-0.00033548895640457885,-0.00032971449546714756,-0.06579389804443597,0.997833123180239
2025/04/09 08:48:33.759996629,1744181313,759657080,,-0.0002986263505270063,-0.0001696900378191268,-0.06764635943157238,0.9977093023938628
2025/04/09 08:48:33.860160518,1744181313,859874498,,-0.00028201656573149985,-4.360445623297895e-05,-0.06952946927827608,0.9975798571879794
2025/04/09 08:48:33.962019263,1744181313,961651891,,-0.0002645854170465891,2.448729443934285e-05,-0.07143117176625977,0.9974454958016646
2025/04/09 08:48:34.62976280,1744181314,62790936,,-0.00022064620783660818,1.947855597811787e-05,-0.07338730821644168,0.9973034913849353
2025/04/09 08:48:34.165195783,1744181314,163556865,,-0.0001888132673933492,-8.116453456643639e-05,-0.07538087534624927,0.9971547930957869
2025/04/09 08:48:34.272803619,1744181314,268887470,,-0.00016832660264190556,-0.0002499245575061127,-0.07739599902974452,0.9970003854252305
2025/04/09 08:48:34.358802493,1744181314,358341902,,-0.00014668188829613702,-0.000482359233322809,-0.07942211852337841,0.9968409466425685
2025/04/09 08:48:34.459934649,1744181314,459466711,,-0.0001243077942160559,-0.000719614520706924,-0.08145943435734476,0.9966763904380876
2025/04/09 08:48:34.563333852,1744181314,562110285,,-0.00010017977235126692,-0.00095398863207556,-0.08350323201062945,0.9965070446883364
2025/04/09 08:48:34.662408934,1744181314,662249502,,-6.210266876940172e-05,-0.0011155101308020546,-0.08555148080070682,0.996333124970365
2025/04/09 08:48:34.763989816,1744181314,763749441,,-6.390527894560553e-06,-0.0012109679471116364,-0.08762745585982562,0.9961525799270544
2025/04/09 08:48:34.864569134,1744181314,864351055,,1.4253388588048851e-05,-0.001230994029196665,-0.08969215521856776,0.9959687754858529
2025/04/09 08:48:34.966330083,1744181314,965272331,,-1.5354114603878524e-05,-0.0011383674106039167,-0.09171679423474027,0.9957844814713633
2025/04/09 08:48:35.58841049,1744181315,57699561,,-8.306793795346893e-05,-0.0009881119351112058,-0.09368958934434407,0.9956009630283659
2025/04/09 08:48:35.162931608,1744181315,162761352,,-0.00016987414304396825,-0.0008080638887979555,-0.09560385139531652,0.9954191186499832
2025/04/09 08:48:35.264779463,1744181315,263098420,,-0.000248483188425743,-0.0006256147291708842,-0.09745239486581299,0.9952399598072986
2025/04/09 08:48:35.365132137,1744181315,364058813,,-0.00029161314837665946,-0.00046230416992120994,-0.09922744938673206,0.9950646283155832
2025/04/09 08:48:35.465342053,1744181315,464972229,,-0.000283379447118726,-0.0003618653660882625,-0.10092109079170804,0.9948943271438216
2025/04/09 08:48:35.559196973,1744181315,558509475,,-0.00025852049030002404,-0.00034245426375166435,-0.10249953421123373,0.9947329598332979
2025/04/09 08:48:35.662969650,1744181315,661892538,,-0.0002729920957935808,-0.00036438044358380725,-0.10391745883023679,0.994585820556715
2025/04/09 08:48:35.765770419,1744181315,765539154,,-0.0003779603227395738,-0.0004643741541301386,-0.10514180168826147,0.9944570594250843
2025/04/09 08:48:35.857564058,1744181315,857320643,,-0.0005303906436627495,-0.0006029383081803302,-0.10617724041408642,0.9943468955898696
2025/04/09 08:48:35.962306671,1744181315,961996717,,-0.0005552630427252515,-0.0007563436823640156,-0.10711193150334829,0.994246525644827
2025/04/09 08:48:36.63894688,1744181316,63660075,,-0.00041725276571370805,-0.0008947536590928155,-0.10797543431444,0.9941530721677759
2025/04/09 08:48:36.165659091,1744181316,164229742,,-0.0001812110513910295,-0.0009714247915279519,-0.10875611786193659,0.9940679706760649
2025/04/09 08:48:36.265443009,1744181316,265235507,,8.615633960876837e-05,-0.0009989686673280574,-0.10945235260170465,0.9939915377651054
2025/04/09 08:48:36.366910275,1744181316,366015803,,0.0003338402973232063,-0.0009486942954630247,-0.11007009266252539,0.993923318587029
2025/04/09 08:48:36.467396724,1744181316,467228901,,0.0005125387449730555,-0.0008231694082448344,-0.11061114446315701,0.9938632875887462
2025/04/09 08:48:36.560256405,1744181316,558581768,,0.0005986517532220305,-0.0006450467071778316,-0.11109365001060457,0.9938095524083803
2025/04/09 08:48:36.660040468,1744181316,659787953,,0.0005529675705959787,-0.0004389310206195541,-0.11150633581143986,0.9937634721805443
2025/04/09 08:48:36.760524309,1744181316,760329977,,0.0004024222539911869,-0.0002462690185572871,-0.11185936891644711,0.9937239350008201
2025/04/09 08:48:36.862834792,1744181316,861751945,,0.00015762664797386417,-9.1185839433972e-05,-0.11213504365614939,0.9936929600350483
2025/04/09 08:48:36.963603143,1744181316,962604243,,-0.00012038739692393408,9.765345781013245e-06,-0.11233270469864423,0.9936706440599923
2025/04/09 08:48:37.63457547,1744181317,63139164,,-0.0003636374010879212,3.294982072271519e-05,-0.11246094267523296,0.9936560788596565
2025/04/09 08:48:37.163881375,1744181317,163518674,,-0.0005067704809573919,-2.2896829680355332e-05,-0.11253671428620678,0.9936474377751293
2025/04/09 08:48:37.266736366,1744181317,266326076,,-0.0005405339952908624,-0.0001269344962871715,-0.11255145794801406,0.9936457422162136
2025/04/09 08:48:37.369504054,1744181317,368490443,,-0.00047000857489024414,-0.00027622461173001163,-0.11250217668655288,0.9936513287027251
2025/04/09 08:48:37.468442671,1744181317,467171836,,-0.0002878836924130847,-0.0004276290418275624,-0.11240686987665394,0.9936621306364227
2025/04/09 08:48:37.560483662,1744181317,557667656,,-4.416798447969384e-05,-0.0005592223349194463,-0.11226833586522282,0.9936777677303759
2025/04/09 08:48:37.659025358,1744181317,658778769,,0.0001983455447087337,-0.0006422230037481042,-0.1120885599712827,0.9936979938251976
2025/04/09 08:48:37.761159548,1744181317,759236990,,0.00037118780503471243,-0.0006645345762067041,-0.11186257448428974,0.9937233946341191
2025/04/09 08:48:37.860652878,1744181317,860481734,,0.0004323114872132332,-0.0006199608037550858,-0.11158896492903228,0.9937541605756662
2025/04/09 08:48:37.962292617,1744181317,962096580,,0.00037928384115370627,-0.000510199514121366,-0.11127268796914487,0.9937897085160144
2025/04/09 08:48:38.62405924,1744181318,62189785,,0.00020465666763817437,-0.000373586187234297,-0.11089797769174754,0.9938317046124509
2025/04/09 08:48:38.163192979,1744181318,163000515,,-1.493777409287077e-05,-0.00021934493652760973,-0.11048290799266083,0.9938779999105257
2025/04/09 08:48:38.266703415,1744181318,265119257,,-0.0002219310973282759,-0.00010726896610539995,-0.1100342705396228,0.9939277632437732
2025/04/09 08:48:38.365271971,1744181318,365107938,,-0.0003722343556178169,-1.2128857374911598e-05,-0.10954711995531725,0.9939815339350981
2025/04/09 08:48:38.461994391,1744181318,460837286,,-0.00041164945278041016,4.804737667602767e-07,-0.10904287907317346,0.9940369616206082
2025/04/09 08:48:38.562419299,1744181318,561988214,,-0.000366370571879864,-3.073246128533144e-05,-0.10850309694933473,0.9940960430363472
2025/04/09 08:48:38.662895123,1744181318,662663602,,-0.0002742746765994296,-0.0001136272215399026,-0.10791119107970193,0.9941604934325324
2025/04/09 08:48:38.764719731,1744181318,764420206,,-0.00010600785802902952,-0.00022873635636773564,-0.10730498599049254,0.9942261193629915
2025/04/09 08:48:38.868675303,1744181318,865768454,,0.00010195873024253097,-0.0003617371843174168,-0.10669442377891263,0.9942917874975699
2025/04/09 08:48:38.965894509,1744181318,965651632,,0.0002876714048656159,-0.0004700121551780991,-0.10607648199513926,0.9943578210590349
2025/04/09 08:48:39.66992471,1744181319,66753032,,0.000397105540893941,-0.0005373259812735919,-0.10544781561975228,0.9944246134167245
2025/04/09 08:48:39.159791002,1744181319,159487396,,0.0004240186584756755,-0.0005575961624822334,-0.10482602521940393,0.9944903286263762
2025/04/09 08:48:39.261715707,1744181319,260612158,,0.00034082172117101857,-0.0005287494515353744,-0.10419932373101919,0.9945562353122975
2025/04/09 08:48:39.359878975,1744181319,359675700,,0.00017001474712652532,-0.000427426886631594,-0.10356785497515722,0.994622283993822
2025/04/09 08:48:39.461595978,1744181319,461118165,,-5.6620259183869526e-05,-0.0003026188004759856,-0.10292857549257707,0.9946887018374526
2025/04/09 08:48:39.564368276,1744181319,564146830,,-0.0002859162414347965,-0.00016457787965021555,-0.10228156185571373,0.994755433898393
2025/04/09 08:48:39.665534399,1744181319,665244398,,-0.0004710528120688035,-2.3136329806695097e-05,-0.10162163456878055,0.9948230098673471
2025/04/09 08:48:39.767974559,1744181319,766619198,,-0.0005548887146348543,5.803562009435086e-05,-0.10096446033862991,0.9948898765586623
2025/04/09 08:48:39.869899333,1744181319,868645862,,-0.00053146018274343,0.0001145392002511805,-0.10030639100336472,0.9949564474662828
2025/04/09 08:48:39.958347636,1744181319,958073250,,-0.000434648685826363,0.0001041838766951672,-0.09963708984342512,0.9950237437135724
2025/04/09 08:48:40.61273555,1744181320,58808185,,-0.0002960091224700452,6.799199758879002e-05,-0.09894944269296645,0.9950924155808037
2025/04/09 08:48:40.160787904,1744181320,159704828,,-0.00013597644681556914,-1.8607033522538213e-05,-0.09825234923575232,0.9951615230875036
2025/04/09 08:48:40.262834810,1744181320,260186413,,2.322907710319661e-05,-0.0001176852541624431,-0.09755714441353944,0.995229917749897
2025/04/09 08:48:40.361926856,1744181320,361716235,,0.0001319214887197446,-0.00022290514587045823,-0.09685721290981192,0.9952982533981259
2025/04/09 08:48:40.463218435,1744181320,462822263,,0.00018761064291714961,-0.00029973098273459976,-0.09616785152804484,0.9953650683523431
2025/04/09 08:48:40.564476161,1744181320,563667089,,0.00019936592574507504,-0.00034903228158265594,-0.09551174762407355,0.9954282216691916
2025/04/09 08:48:40.665456139,1744181320,664704122,,0.00012611168922451872,-0.0003566667831031451,-0.09486797441073823,0.9954897911660627
2025/04/09 08:48:40.766862722,1744181320,766257608,,-2.7566537355420235e-05,-0.0003026913782191341,-0.09422886554157034,0.9955505153013403
2025/04/09 08:48:40.870119794,1744181320,869133385,,-0.00022906161748706446,-0.00021770845323289674,-0.09359471026381082,0.9956103305733816
2025/04/09 08:48:40.958086135,1744181320,957918406,,-0.0004463629483366538,-0.00011447428686543221,-0.09295723998904773,0.9956699951235723
2025/04/09 08:48:41.66360741,1744181321,65928782,,-0.0006345632297522716,1.1781514162066692e-05,-0.09230910496172207,0.9957301975594941
2025/04/09 08:48:41.161269269,1744181321,161099500,,-0.0007372071872029985,0.00010998553011759062,-0.09166288177700005,0.9957898174479803
2025/04/09 08:48:41.263544142,1744181321,263131744,,-0.0007458070546043321,0.00017425841402709275,-0.09101251840223783,0.9958494539336379
2025/04/09 08:48:41.370986133,1744181321,367230659,,-0.0006572354206712855,0.00020408872141432577,-0.0903620011020566,0.9959087484033
2025/04/09 08:48:41.468441218,1744181321,466963283,,-0.00048176959286302235,0.00018494809824250858,-0.0897259224595987,0.9959663611443081
2025/04/09 08:48:41.558654506,1744181321,558406553,,-0.0002873116756829606,0.00012891767216999418,-0.08908978891175091,0.9960235490910315
2025/04/09 08:48:41.662485970,1744181321,661765978,,-0.00011790741319259895,4.220318486534269e-05,-0.08845782758285861,0.9960799149948032
2025/04/09 08:48:41.761784519,1744181321,760713665,,-1.75141965223925e-05,-3.8595294945917223e-05,-0.08782699913584709,0.9961357419681557
2025/04/09 08:48:41.861831333,1744181321,861404196,,-1.5929297536386909e-06,-0.00012705861209910555,-0.08720796098841173,0.9961901201044986
2025/04/09 08:48:41.962725577,1744181321,962540704,,-0.00010373323945683354,-0.00019559606712044142,-0.08657578462984512,0.9962452431491556
2025/04/09 08:48:42.63206177,1744181322,62997526,,-0.00026986739970323185,-0.0002147016771026411,-0.08594521867152595,0.9962998045077998
2025/04/09 08:48:42.165822742,1744181322,165487385,,-0.0004694066604525153,-0.00020279362097169601,-0.08531116644540572,0.9963542258714311
2025/04/09 08:48:42.261222110,1744181322,260101961,,-0.0006597169442709064,-0.00014578861573182812,-0.08467141873841313,0.9964086984606554
2025/04/09 08:48:42.360894445,1744181322,360039337,,-0.0008040069656691644,-7.761526392331384e-05,-0.08402009656329688,0.9964637328684693
2025/04/09 08:48:42.463645993,1744181322,462021280,,-0.0008481864882316351,1.7562559361988435e-05,-0.08336884479362863,0.9965183972155324
2025/04/09 08:48:42.563699829,1744181322,563530629,,-0.0007688191956454082,0.0001014926582734778,-0.0827362166542957,0.9965711801321661
2025/04/09 08:48:42.665006727,1744181322,664314007,,-0.0005952674933341334,0.00015886269125253802,-0.08212420065178665,0.9966219123050435
2025/04/09 08:48:42.766831307,1744181322,765327489,,-0.0003974776886647089,0.00019571326478002294,-0.08151991561565843,0.9966716144577515
2025/04/09 08:48:42.866711780,1744181322,865945773,,-0.00023889826204558852,0.0001934324636277221,-0.08091663671805796,0.996720825213229
2025/04/09 08:48:42.967862158,1744181322,966958409,,-0.00015851909886675726,0.00017748584960120494,-0.08031005969520723,0.9967699020748072
2025/04/09 08:48:43.58039069,1744181323,57728966,,-0.00016582054039117385,0.00013185465625601564,-0.0797076688842804,0.9968182595834267
2025/04/09 08:48:43.158788427,1744181323,158538034,,-0.0002839323953963367,7.350121936680013e-05,-0.07908582129490416,0.9968677679863444
2025/04/09 08:48:43.260829643,1744181323,260656013,,-0.0004516045803670618,-2.164934953684294e-06,-0.07846190507176552,0.9969170103379345
2025/04/09 08:48:43.362437034,1744181323,361146983,,-0.0006118976888542171,-5.73803577008633e-05,-0.07784896573731359,0.9969649747219526
2025/04/09 08:48:43.462905638,1744181323,462043663,,-0.0007591178376042978,-9.76981222581515e-05,-0.0772261176010467,0.9970133103201054
2025/04/09 08:48:43.564522061,1744181323,563078810,,-0.0008472376512854307,-0.0001274293958408196,-0.07660104640587648,0.9970614552973333
2025/04/09 08:48:43.663693646,1744181323,663332704,,-0.0008560234256055301,-0.00012009571507489096,-0.07597344826416699,0.9971094663876008
2025/04/09 08:48:43.764460262,1744181323,764147081,,-0.0007797586289579804,-7.860079060235336e-05,-0.07534680219355305,0.9971570815060192
2025/04/09 08:48:43.867522318,1744181323,865418772,,-0.0006423724722003749,-4.0311061154962226e-05,-0.0747235746407466,0.9972040779727759
2025/04/09 08:48:43.966851730,1744181323,966095744,,-0.0005022731739336333,2.468778140977941e-05,-0.07408034253267021,0.9972521496404079
2025/04/09 08:48:44.67057945,1744181324,66846382,,-0.00034875500320147415,9.12410496966698e-05,-0.07344206748528584,0.9972994198175918
2025/04/09 08:48:44.158191634,1744181324,157920213,,-0.00021426590979932648,0.00013492612419918715,-0.07281489326603831,0.9973454402581466
2025/04/09 08:48:44.262358562,1744181324,261585322,,-0.00014792599660136144,0.00016890476592875152,-0.07218784699370237,0.9973910288023917
2025/04/09 08:48:44.362408521,1744181324,362067511,,-0.00016423209749425995,0.000176693849938719,-0.07155945974566613,0.9974363065018287
2025/04/09 08:48:44.464505955,1744181324,461593176,,-0.00024774688509890316,0.00015907701959594082,-0.07093448098658527,0.9974809335135918
2025/04/09 08:48:44.566476818,1744181324,565589108,,-0.00037222293477159695,0.00013214892426601272,-0.07031699617187268,0.9975246182606791
2025/04/09 08:48:44.664001752,1744181324,663799706,,-0.0005221687741640537,7.104048200431427e-05,-0.06969987800342728,0.997567867014234
2025/04/09 08:48:44.766165190,1744181324,765104903,,-0.0006655181682770542,1.690650899487531e-05,-0.06908177472570147,0.9976107784103403
2025/04/09 08:48:44.859241043,1744181324,858639086,,-0.0007714980935641697,-3.886312924921414e-05,-0.06846025062177749,0.9976535457588231
2025/04/09 08:48:44.960946872,1744181324,959418751,,-0.0008024912262794828,-8.221744611496955e-05,-0.06784665007488659,0.9976954351512987
2025/04/09 08:48:45.62489456,1744181325,62285188,,-0.0007654439284177479,-0.00010445528976088917,-0.06723345353650574,0.9977369723079522
2025/04/09 08:48:45.168246981,1744181325,166469884,,-0.0006707906952759306,-0.00010159025378391521,-0.06662033438745907,0.9977781671119922
2025/04/09 08:48:45.267131825,1744181325,266926011,,-0.000542537264041261,-7.553383475905368e-05,-0.06600646368749631,0.9978190450675053
2025/04/09 08:48:45.360089178,1744181325,359917983,,-0.0004115024025058045,-2.1785653463674325e-05,-0.06539139816366235,0.9978596069775344
2025/04/09 08:48:45.467063322,1744181325,465525994,,-0.0003060912530448512,3.54833018983905e-05,-0.064775742232157,0.9978997987109494
2025/04/09 08:48:45.566940208,1744181325,566737438,,-0.00024554516462125186,9.391397252826272e-05,-0.06416026290487672,0.9979395730963448
2025/04/09 08:48:45.658996506,1744181325,658828268,,-0.00023827930679728505,0.00015444564436218052,-0.06354623000429124,0.99797885549833
2025/04/09 08:48:45.760326211,1744181325,760096725,,-0.0002859802787992248,0.00017081148251355704,-0.06293308418791263,0.9980176932065457
2025/04/09 08:48:45.860677749,1744181325,860472159,,-0.00037330011704378495,0.00017963582421934334,-0.06232089243211663,0.9980560779557719
2025/04/09 08:48:45.963256482,1744181325,963085139,,-0.00047218660101420047,0.0001608774020539089,-0.06171439199021155,0.998093725548635
2025/04/09 08:48:46.64562775,1744181326,64059130,,-0.000563952387125386,0.00010952251255629623,-0.061114745997121675,0.9981305815294067
2025/04/09 08:48:46.165185330,1744181326,164342955,,-0.0006388795704896379,4.235521546534673e-05,-0.060510309994588785,0.9981673669396776
2025/04/09 08:48:46.265554454,1744181326,265340170,,-0.000661105733696257,-4.065231607495446e-05,-0.059912240344355355,0.9982034285372487
2025/04/09 08:48:46.367618169,1744181326,366323035,,-0.0006265951558290043,-8.463562347527432e-05,-0.059323160754661514,0.9982386301949041
2025/04/09 08:48:46.473843851,1744181326,470812841,,-0.0005626505218636897,-0.00013137236269172598,-0.058734825006422596,0.998273452765903
2025/04/09 08:48:46.563249705,1744181326,562753673,,-0.000476472198343749,-0.00013377103695797325,-0.05815223146974221,0.9983076044259321
2025/04/09 08:48:46.664065766,1744181326,663878981,,-0.00038883995771409475,-0.00011960795360218055,-0.05757901267252151,0.9983408695416022
2025/04/09 08:48:46.765407874,1744181326,765143908,,-0.0003400637405505286,-6.972202130884029e-05,-0.057001180419649994,0.9983740506074157
2025/04/09 08:48:46.866513032,1744181326,866336254,,-0.0003371490199647178,3.3359841386038106e-07,-0.056416672202736676,0.9984072542945569
2025/04/09 08:48:46.962316614,1744181326,960363956,,-0.0003586690492681125,6.28799074078224e-05,-0.055837415404276516,0.9984398081224529
2025/04/09 08:48:47.57952662,1744181327,57689539,,-0.00039965400695275455,0.00012025339787441663,-0.05526546916606495,0.9984716088771126
2025/04/09 08:48:47.161960902,1744181327,160681180,,-0.00045395693346096216,0.00016308449488263864,-0.054699993938179266,0.9985027180682651
2025/04/09 08:48:47.262175597,1744181327,261764781,,-0.0005162062114245161,0.0001763842634189746,-0.05413955795086858,0.9985332296346594
2025/04/09 08:48:47.364121005,1744181327,363845202,,-0.0005844683836118317,0.00015790110930896293,-0.05357266552270914,0.9985637701082191
2025/04/09 08:48:47.466433401,1744181327,465628366,,-0.0006212406689586261,0.0001232671566427605,-0.05301144611895969,0.9985937038884313
2025/04/09 08:48:47.567580229,1744181327,567369674,,-0.0006187796942787116,6.989178032868177e-05,-0.052460292474199394,0.9986228166531899
2025/04/09 08:48:47.660397554,1744181327,659621472,,-0.0005925608927805772,-1.1025033231021105e-05,-0.05191143914445096,0.9986515164140036
2025/04/09 08:48:47.760564484,1744181327,760221690,,-0.0005479882101290348,-7.408049833027218e-05,-0.05136449570298822,0.998679819963425
2025/04/09 08:48:47.861695081,1744181327,861461650,,-0.0004995681772666424,-0.0001176284060546044,-0.05081608328224044,0.9987078963716302
2025/04/09 08:48:47.962963621,1744181327,961861378,,-0.0004629171200238613,-0.00014632121651710775,-0.05025860112494222,0.9987361199590238
2025/04/09 08:48:48.63380645,1744181328,63151390,,-0.00042287435399489167,-0.00014051829471904324,-0.04970036086426748,0.998764074024417
2025/04/09 08:48:48.166205348,1744181328,164099209,,-0.00036851209134553035,-0.00011032407977703167,-0.04915885526680257,0.9987908985249583
2025/04/09 08:48:48.270689362,1744181328,267102650,,-0.0003297899127344166,-6.013031825887999e-05,-0.04862868555686239,0.9988168693829566
2025/04/09 08:48:48.366098178,1744181328,365854335,,-0.0003290758107343707,7.6049652441216676e-06,-0.04810071224166885,0.9988424365900357
2025/04/09 08:48:48.457763024,1744181328,457460403,,-0.00036695749047847744,6.4433274185191e-05,-0.04757428523426678,0.998867633160171
2025/04/09 08:48:48.559771315,1744181328,558521112,,-0.0004265457465809085,0.00011792564712301562,-0.047053706838504905,0.9988922628717393
2025/04/09 08:48:48.661054909,1744181328,659371204,,-0.0004916404747244344,0.00015392972883136448,-0.04654376916700513,0.9989161186741411
2025/04/09 08:48:48.761967646,1744181328,761723447,,-0.0005599061460342966,0.0001511651108894956,-0.04603645840076583,0.9989395918433364
2025/04/09 08:48:48.865612198,1744181328,865405888,,-0.0006310387748068269,0.00013044706346669694,-0.04552003004609603,0.998963218361032
2025/04/09 08:48:48.966242303,1744181328,966015659,,-0.0006924286319738304,8.459877233007392e-05,-0.044986535655771966,0.9989873497674179
2025/04/09 08:48:49.67704817,1744181329,66617083,,-0.000695577626594458,2.624843596093369e-05,-0.0444576557293226,0.9990110271312515
2025/04/09 08:48:49.158876739,1744181329,157790043,,-0.000645935068867673,-4.3755389266236104e-05,-0.043931110069280424,0.999034352973627
2025/04/09 08:48:49.259583681,1744181329,259303971,,-0.0005546700937154437,-0.00010021619453918498,-0.043407974630760994,0.9990572706488136
2025/04/09 08:48:49.361399789,1744181329,361197822,,-0.0004395394859711738,-0.0001470370656745014,-0.04289198261360719,0.9990796079455408
2025/04/09 08:48:49.464602207,1744181329,463472065,,-0.00033361248311220004,-0.00015644752935835613,-0.042382611832626906,0.9991013854665234
2025/04/09 08:48:49.565607194,1744181329,565376790,,-0.00026938831515384125,-0.0001503951329234798,-0.041872193472479384,0.9991229274844227
2025/04/09 08:48:49.667521237,1744181329,667300773,,-0.00024197603461487783,-0.00011965644106389226,-0.041374855285898536,0.9991436575788317
2025/04/09 08:48:49.758384626,1744181329,757557630,,-0.0002697195789807346,-6.523315073415535e-05,-0.04088159159264441,0.9991639597507693
2025/04/09 08:48:49.858913154,1744181329,858700114,,-0.00034228277418915984,6.072440623123979e-06,-0.04039724912406159,0.9991836393120318
2025/04/09 08:48:49.962446225,1744181329,962089813,,-0.0004456497597039691,6.535523970797421e-05,-0.039924943661814594,0.9992025800600123
2025/04/09 08:48:50.63469907,1744181330,63269178,,-0.0005603789783330893,0.00011376309983658605,-0.0394548413519612,0.9992211909918891
2025/04/09 08:48:50.164325321,1744181330,164075671,,-0.0006547778058547614,0.00014162053639252568,-0.03898752406768474,0.9992394728876158
2025/04/09 08:48:50.266392677,1744181330,265203205,,-0.0007090625152228122,0.00013540225250696926,-0.03851655923329139,0.9992577012770069
2025/04/09 08:48:50.367018051,1744181330,366744999,,-0.000709995951571727,9.183964019547511e-05,-0.0380459064044552,0.999275735959346
2025/04/09 08:48:50.459028198,1744181330,458510606,,-0.0006520215939016311,4.7880221466891364e-05,-0.037579234827381194,0.999293437227081
2025/04/09 08:48:50.562669651,1744181330,562478226,,-0.0005509751990929198,-1.11763392399889e-05,-0.037116392245257104,0.999310797363921
2025/04/09 08:48:50.662500897,1744181330,661643455,,-0.0004322973263906495,-8.275058027546126e-05,-0.036657111468621,0.9993278053022142
2025/04/09 08:48:50.763515072,1744181330,762094234,,-0.0003229294111581384,-0.00012848832469494187,-0.03620120270665757,0.9993444611994091
2025/04/09 08:48:50.863860649,1744181330,863493337,,-0.0002482799591966871,-0.00014910782296259536,-0.0357482696261493,0.9993607843730187
2025/04/09 08:48:50.965022316,1744181330,963905114,,-0.00022454189764462888,-0.00015688859794385496,-0.03529811352396382,0.9993767898788491
2025/04/09 08:48:51.65095087,1744181331,64847159,,-0.0002535011709042924,-0.00013932964975750815,-0.034851489019638325,0.9993924604666172
2025/04/09 08:48:51.166054533,1744181331,165758271,,-0.0003223274676154981,-9.91545395914608e-05,-0.03440993265750278,0.999407746021556
2025/04/09 08:48:51.258112609,1744181331,257809951,,-0.0004153279584198094,-3.7027683669109304e-05,-0.03397249456764489,0.9994226812237598
2025/04/09 08:48:51.361897144,1744181331,360803653,,-0.0005106336229708918,1.9804037982981976e-05,-0.03353910449517012,0.9994372753358588
2025/04/09 08:48:51.462100936,1744181331,461674122,,-0.0005880382577753548,6.0971668325518905e-05,-0.033109228271294346,0.9994515643575442
2025/04/09 08:48:51.566640673,1744181331,565103978,,-0.0006293804138153715,9.178646399758774e-05,-0.03268268956952108,0.9994655758244213
2025/04/09 08:48:51.666806652,1744181331,665656825,,-0.0006262661388382436,0.00011493988285698577,-0.03225927966634402,0.9994793311794673
2025/04/09 08:48:51.767805419,1744181331,766230028,,-0.0005818984726988621,9.61444829692538e-05,-0.0318387347553693,0.9994928449566726
2025/04/09 08:48:51.858164608,1744181331,857871307,,-0.0005075997226126879,5.131152105342431e-05,-0.031420743919088466,0.9995061163200656
2025/04/09 08:48:51.958712081,1744181331,958466010,,-0.0004207909393175943,1.4332885963329948e-05,-0.031005176951096895,0.9995191352504388
2025/04/09 08:48:52.59606070,1744181332,59165797,,-0.0003397318096532911,-4.91665327235526e-05,-0.030596229888703832,0.999531766819618
2025/04/09 08:48:52.160123976,1744181332,159951919,,-0.00028832598255382495,-8.074436555570764e-05,-0.03019627328330247,0.9995439437204726
2025/04/09 08:48:52.263515517,1744181332,263047442,,-0.000286721364778213,-0.00013021484615644157,-0.02979617597035448,0.9995559457741705
2025/04/09 08:48:52.366173761,1744181332,365845555,,-0.0003260156511411406,-0.0001379076098543334,-0.029403221945093743,0.9995675691190335
2025/04/09 08:48:52.458594276,1744181332,458317738,,-0.00039648546409836767,-0.00013614461542397298,-0.029022472653526945,0.999578671413609
2025/04/09 08:48:52.560465703,1744181332,560111707,,-0.0004906729814585108,-0.00011453135647733876,-0.028639487666389917,0.9995896787526372
2025/04/09 08:48:52.661062272,1744181332,660895983,,-0.0005775453878145972,-8.613845471678424e-05,-0.028243004638068548,0.9996009162213216
2025/04/09 08:48:52.763120127,1744181332,761727687,,-0.0006266783322847795,-3.642106094976247e-05,-0.027848375086687294,0.9996119616895375
2025/04/09 08:48:52.865433741,1744181332,865219368,,-0.0006263066532401962,-2.0374361072817507e-06,-0.027457436568486898,0.9996227773079766
2025/04/09 08:48:52.963669782,1744181332,963396750,,-0.0005734522822772955,3.731284177953492e-05,-0.02707227605889958,0.9996333135851478
2025/04/09 08:48:53.66123369,1744181333,65961421,,-0.00048251954625322635,5.7538728477717456e-05,-0.026692582678316177,0.9996435714264077
2025/04/09 08:48:53.168382309,1744181333,166719658,,-0.00037668799141366927,6.228393163911133e-05,-0.0263176246011295,0.9996535584202274
2025/04/09 08:48:53.259290061,1744181333,257843901,,-0.00028093558270202054,5.2648431327843716e-05,-0.025949766761418674,0.9996632072395027
2025/04/09 08:48:53.363900466,1744181333,363653907,,-0.0002243357239464336,2.7687219246850165e-05,-0.02558936329814011,0.9996725130726045
2025/04/09 08:48:53.464085137,1744181333,463894750,,-0.00022469319800049134,-5.337950370389529e-06,-0.025233020197484912,0.9996815713897033
2025/04/09 08:48:53.564829837,1744181333,564615058,,-0.0002844906678092128,-4.250753171737749e-05,-0.02488307057505346,0.9996903270798045
2025/04/09 08:48:53.665509214,1744181333,665323756,,-0.000387056227989248,-7.621931168606907e-05,-0.024536570216268698,0.999698855205964
2025/04/09 08:48:53.767605392,1744181333,766044557,,-0.0005055582793073999,-0.00010363873744649727,-0.024191662228240596,0.9997072057099884
2025/04/09 08:48:53.858775229,1744181333,858572203,,-0.0006072471153584248,-0.00011841646033755987,-0.02384626217641328,0.9997154460188642
2025/04/09 08:48:53.961487839,1744181333,959669454,,-0.0006670496058583122,-0.00012036705496409471,-0.023501002077305887,0.9997235835259454
2025/04/09 08:48:54.61804225,1744181334,61314437,,-0.000664232698203551,-0.00010841874655464526,-0.023154403552748837,0.9997316743188717
2025/04/09 08:48:54.164068774,1744181334,162946268,,-0.0005999110059670528,-8.688070245331686e-05,-0.02281161646563627,0.999739597451633
2025/04/09 08:48:54.265266151,1744181334,265030235,,-0.00048800402079142533,-5.6441628868857275e-05,-0.0224747681556044,0.9997472898001625
2025/04/09 08:48:54.365898400,1744181334,365697435,,-0.0003572014840878161,-2.1117051267296707e-05,-0.022143010293962283,0.9997547494542306
2025/04/09 08:48:54.457442301,1744181334,457259076,,-0.0002414278844568845,1.1371520192319497e-05,-0.021817310136867097,0.999761944945724
2025/04/09 08:48:54.559402630,1744181334,558576899,,-0.00017056727920969128,4.120532193668779e-05,-0.02149997212562343,0.9997688334847822
2025/04/09 08:48:54.661790628,1744181334,660753745,,-0.00016148179612908894,5.896662502940285e-05,-0.021189765138943596,0.9997754569401687
2025/04/09 08:48:54.762944451,1744181334,762291155,,-0.00021614846799250826,4.50501424291117e-05,-0.02089020919236035,0.9997817513888838
2025/04/09 08:48:54.863096406,1744181334,861554520,,-0.0003298834665511457,4.180246728416797e-05,-0.020592502918378715,0.9997878966325852
2025/04/09 08:48:54.964974728,1744181334,964678607,,-0.0004739441754155308,1.0134539453091604e-05,-0.02029442525433131,0.9997939345574197
2025/04/09 08:48:55.67172568,1744181335,66101035,,-0.0006060637062339125,-3.434568982948195e-05,-0.01999488570239641,0.9997998980060488
2025/04/09 08:48:55.160481867,1744181335,160012274,,-0.0006963248644878303,-7.616978240397215e-05,-0.019699010645436513,0.9998057102804716
2025/04/09 08:48:55.263090377,1744181335,261881736,,-0.0007248232415343773,-0.00011034424212469162,-0.019411111756641872,0.9998113177974072
2025/04/09 08:48:55.362439980,1744181335,362205452,,-0.0006937400855501902,-0.0001316278143710401,-0.019121664363490214,0.999816914915317
2025/04/09 08:48:55.464528497,1744181335,462871545,,-0.0006093145498083364,-0.00013709936480269194,-0.018826793930150604,0.9998225651433634
2025/04/09 08:48:55.565656588,1744181335,565430987,,-0.0004813212082925141,-0.00012478057866744432,-0.018537702867151916,0.9998280383806561
2025/04/09 08:48:55.666769597,1744181335,665470375,,-0.0003442142476004794,-0.00010173869454617737,-0.01825175698247649,0.9998333583817067
2025/04/09 08:48:55.766928386,1744181335,766026871,,-0.00022891777068335652,-6.164626474461128e-05,-0.017969166274342755,0.9998385133909362
2025/04/09 08:48:55.859127234,1744181335,857872514,,-0.00016120534299885665,-1.53685076793775e-05,-0.017689903933120976,0.9998435082929145
2025/04/09 08:48:55.960835613,1744181335,959571333,,-0.00015433492730599168,3.0807200884009024e-05,-0.01741438902574723,0.9998483456437314
2025/04/09 08:48:56.59847555,1744181336,59512129,,-0.00020843455100364862,6.076490634707711e-05,-0.017142379255725346,0.99985303504871
2025/04/09 08:48:56.162247786,1744181336,160804313,,-0.0003073339242546133,6.419436226493486e-05,-0.01687187193740123,0.9998576105437568
2025/04/09 08:48:56.262430309,1744181336,262056505,,-0.000420908568683568,5.9248214234279763e-05,-0.01660112688818999,0.9998621014478287
2025/04/09 08:48:56.364184447,1744181336,363467592,,-0.0005282604453529828,3.1350160115036806e-05,-0.01633000159335816,0.9998665165941053
2025/04/09 08:48:56.467124487,1744181336,466067120,,-0.0006057802219733101,-1.958436633671213e-05,-0.016054640286505443,0.9998709322567819
2025/04/09 08:48:56.567697636,1744181336,566346742,,-0.0006179184701161013,-6.308445336558018e-05,-0.015784813625044292,0.9998752191428382
2025/04/09 08:48:56.659424982,1744181336,659174641,,-0.0005607093921873064,-0.00011663500940362923,-0.015523867052963863,0.9998793334962844
2025/04/09 08:48:56.760711332,1744181336,760388745,,-0.0004535409011402184,-0.0001416186686773849,-0.015273527679207517,0.9998832399820672
2025/04/09 08:48:56.863192629,1744181336,862902768,,-0.0003351024888951255,-0.0001598936870148512,-0.015029574834349453,0.999886980623625
2025/04/09 08:48:56.968109156,1744181336,966883038,,-0.00023788125734392772,-0.0001378188406803768,-0.014802037484302978,0.9998904060469767
2025/04/09 08:48:57.62803856,1744181337,61171778,,-0.00019924414232617413,-0.0001107304721007595,-0.014579177971659333,0.9998936921544235
2025/04/09 08:48:57.163986756,1744181337,162483697,,-0.0002237732470722404,-6.0291587150509334e-05,-0.014355481181389197,0.9998969279133271
2025/04/09 08:48:57.262734409,1744181337,262496546,,-0.0003011272127003932,-3.7649055401931196e-06,-0.014131424024376948,0.9999001010917393
2025/04/09 08:48:57.363904779,1744181337,363059737,,-0.00040484272951759936,4.251472737385802e-05,-0.013903013523153367,0.9999032655761443
2025/04/09 08:48:57.469486340,1744181337,466513892,,-0.0005029223073674471,6.11886084289094e-05,-0.013673235969880472,0.9999063885900614
2025/04/09 08:48:57.566275767,1744181337,564799260,,-0.0005715904363880889,7.240370929872352e-05,-0.013448097042457611,0.9999094042602122
2025/04/09 08:48:57.659889204,1744181337,659674816,,-0.0005984236366477274,6.533479356472654e-05,-0.013229466710035637,0.9999123055703855
2025/04/09 08:48:57.761604293,1744181337,760816304,,-0.0005836800001678458,4.096270835611278e-05,-0.013014056200074774,0.9999151423900606
2025/04/09 08:48:57.861640995,1744181337,861457894,,-0.00052665132445445,-1.1864131375052417e-05,-0.012807090940569879,0.9999178470850817
2025/04/09 08:48:57.964088324,1744181337,962169574,,-0.00044317447265603785,-4.48866332518149e-05,-0.012612176535732744,0.9999203641213676
2025/04/09 08:48:58.65475688,1744181338,63900061,,-0.00036665928572964126,-9.251429764701037e-05,-0.012420177675090405,0.9999227951139988
2025/04/09 08:48:58.165969800,1744181338,165505941,,-0.00032008156568464767,-0.00010801487317180317,-0.012232406800069246,0.999925124249039
2025/04/09 08:48:58.266163534,1744181338,264823127,,-0.0003122576664096241,-0.0001270058685246122,-0.012043212848494791,0.9999274210606213
2025/04/09 08:48:58.366132926,1744181338,365887485,,-0.00033079829019582704,-0.0001181853469925505,-0.011846163231836359,0.9999297700445765
2025/04/09 08:48:58.466298623,1744181338,466090319,,-0.0003675001466952685,-0.0001080198196365874,-0.011650965591629857,0.9999320518295948
2025/04/09 08:48:58.568144941,1744181338,567748692,,-0.00041023500806707815,-7.386145764287449e-05,-0.011459562997663713,0.999934250172293
2025/04/09 08:48:58.660950769,1744181338,659850037,,-0.00045026020974808236,-4.169994238019431e-05,-0.011271429570676861,0.9999363731769595
