time,header_stamp_secs,header_stamp_nsecs,header_frame_id,status_status,status_service,latitude,longitude,altitude,position_covariance_0,position_covariance_1,position_covariance_2,position_covariance_3,position_covariance_4,position_covariance_5,position_covariance_6,position_covariance_7,position_covariance_8,position_covariance_type
2025/05/06 15:20:03.432647934,1746537603,362513959,mA1/gps,0,1,63.43464161364297,10.392547310839218,0.0,1.4400000000000002e-10,0.0,0.0,0.0,1.4400000000000002e-10,0.0,0.0,0.0,1.0,2
2025/05/06 15:20:03.433117150,1746537603,415095990,mA1/gps,0,1,63.43464161344707,10.392547310424124,0.0,1.4400000000000002e-10,0.0,0.0,0.0,1.4400000000000002e-10,0.0,0.0,0.0,1.0,2
2025/05/06 15:20:03.470647554,1746537603,466549868,mA1/gps,0,1,63.43464161326764,10.392547310293383,0.0,1.4400000000000002e-10,0.0,0.0,0.0,1.4400000000000002e-10,0.0,0.0,0.0,1.0,2
2025/05/06 15:20:03.514762102,1746537603,512540501,mA1/gps,0,1,63.43464161351062,10.392547310400662,0.0,1.4400000000000002e-10,0.0,0.0,0.0,1.4400000000000002e-10,0.0,0.0,0.0,1.0,2
2025/05/06 15:20:03.571169899,1746537603,567797586,mA1/gps,0,1,63.43464161334001,10.392547310211159,0.0,1.4400000000000002e-10,0.0,0.0,0.0,1.4400000000000002e-10,0.0,0.0,0.0,1.0,2
2025/05/06 15:20:03.619532072,1746537603,608932978,mA1/gps,0,1,63.43464161374443,10.3925473109447,0.0,1.4400000000000002e-10,0.0,0.0,0.0,1.4400000000000002e-10,0.0,0.0,0.0,1.0,2
2025/05/06 15:20:03.670986819,1746537603,667471701,mA1/gps,0,1,63.434641613459625,10.392547311016783,0.0,1.4400000000000002e-10,0.0,0.0,0.0,1.4400000000000002e-10,0.0,0.0,0.0,1.0,2
2025/05/06 15:20:03.707550773,1746537603,706947397,mA1/gps,0,1,63.43464161370775,10.3925473105191,0.0,1.4400000000000002e-10,0.0,0.0,0.0,1.4400000000000002e-10,0.0,0.0,0.0,1.0,2
2025/05/06 15:20:03.770684954,1746537603,762038793,mA1/gps,0,1,63.434641613363404,10.392547310896466,0.0,1.4400000000000002e-10,0.0,0.0,0.0,1.4400000000000002e-10,0.0,0.0,0.0,1.0,2
2025/05/06 15:20:03.812372151,1746537603,807098632,mA1/gps,0,1,63.43464161368148,10.392547310518317,0.0,1.4400000000000002e-10,0.0,0.0,0.0,1.4400000000000002e-10,0.0,0.0,0.0,1.0,2
2025/05/06 15:20:03.862730324,1746537603,860360073,mA1/gps,0,1,63.434641613569305,10.39254731092383,0.0,1.4400000000000002e-10,0.0,0.0,0.0,1.4400000000000002e-10,0.0,0.0,0.0,1.0,2
2025/05/06 15:20:03.924661891,1746537603,912879674,mA1/gps,0,1,63.43464161366648,10.392547310836818,0.0,1.4400000000000002e-10,0.0,0.0,0.0,1.4400000000000002e-10,0.0,0.0,0.0,1.0,2
2025/05/06 15:20:03.967618631,1746537603,959768059,mA1/gps,0,1,63.434641613824404,10.39254731073105,0.0,1.4400000000000002e-10,0.0,0.0,0.0,1.4400000000000002e-10,0.0,0.0,0.0,1.0,2
2025/05/06 15:20:04.15991248,1746537604,10692908,mA1/gps,0,1,63.43464161380363,10.392547311088304,0.0,1.4400000000000002e-10,0.0,0.0,0.0,1.4400000000000002e-10,0.0,0.0,0.0,1.0,2
2025/05/06 15:20:04.77322226,1746537604,67597285,mA1/gps,0,1,63.434641613794184,10.39254731075521,0.0,1.4400000000000002e-10,0.0,0.0,0.0,1.4400000000000002e-10,0.0,0.0,0.0,1.0,2
2025/05/06 15:20:04.129011420,1746537604,120511152,mA1/gps,0,1,63.43464161364525,10.392547311137646,0.0,1.4400000000000002e-10,0.0,0.0,0.0,1.4400000000000002e-10,0.0,0.0,0.0,1.0,2
2025/05/06 15:20:04.178375122,1746537604,169717185,mA1/gps,0,1,63.43464161358526,10.392547310988027,0.0,1.4400000000000002e-10,0.0,0.0,0.0,1.4400000000000002e-10,0.0,0.0,0.0,1.0,2
2025/05/06 15:20:04.222008941,1746537604,214504618,mA1/gps,0,1,63.43464161372853,10.392547310858633,0.0,1.4400000000000002e-10,0.0,0.0,0.0,1.4400000000000002e-10,0.0,0.0,0.0,1.0,2
2025/05/06 15:20:04.274881566,1746537604,259920854,mA1/gps,0,1,63.43464161374625,10.392547311009968,0.0,1.4400000000000002e-10,0.0,0.0,0.0,1.4400000000000002e-10,0.0,0.0,0.0,1.0,2
2025/05/06 15:20:04.324459624,1746537604,312880840,mA1/gps,0,1,63.43464161392829,10.392547310605684,0.0,1.4400000000000002e-10,0.0,0.0,0.0,1.4400000000000002e-10,0.0,0.0,0.0,1.0,2
2025/05/06 15:20:04.372695041,1746537604,364821988,mA1/gps,0,1,63.434641613972275,10.392547310686483,0.0,1.4400000000000002e-10,0.0,0.0,0.0,1.4400000000000002e-10,0.0,0.0,0.0,1.0,2
2025/05/06 15:20:04.426741655,1746537604,420711820,mA1/gps,0,1,63.43464161377632,10.39254731100426,0.0,1.4400000000000002e-10,0.0,0.0,0.0,1.4400000000000002e-10,0.0,0.0,0.0,1.0,2
2025/05/06 15:20:04.477151297,1746537604,469763374,mA1/gps,0,1,63.43464161378763,10.392547310952224,0.0,1.4400000000000002e-10,0.0,0.0,0.0,1.4400000000000002e-10,0.0,0.0,0.0,1.0,2
2025/05/06 15:20:04.519991539,1746537604,507730127,mA1/gps,0,1,63.43464161381683,10.392547310691304,0.0,1.4400000000000002e-10,0.0,0.0,0.0,1.4400000000000002e-10,0.0,0.0,0.0,1.0,2
2025/05/06 15:20:04.614765100,1746537604,564727424,mA1/gps,0,1,63.43464161399734,10.392547311032368,0.0,1.4400000000000002e-10,0.0,0.0,0.0,1.4400000000000002e-10,0.0,0.0,0.0,1.0,2
2025/05/06 15:20:04.667742245,1746537604,612491808,mA1/gps,0,1,63.434641613680064,10.392547310839195,0.0,1.4400000000000002e-10,0.0,0.0,0.0,1.4400000000000002e-10,0.0,0.0,0.0,1.0,2
2025/05/06 15:20:04.714914533,1746537604,711888575,mA1/gps,0,1,63.434641613518565,10.39254731035861,0.0,1.4400000000000002e-10,0.0,0.0,0.0,1.4400000000000002e-10,0.0,0.0,0.0,1.0,2
2025/05/06 15:20:04.770386128,1746537604,766869450,mA1/gps,0,1,63.43464161355153,10.392547310799976,0.0,1.4400000000000002e-10,0.0,0.0,0.0,1.4400000000000002e-10,0.0,0.0,0.0,1.0,2
2025/05/06 15:20:04.835288180,1746537604,833767746,mA1/gps,0,1,63.43464161373358,10.392547310816285,0.0,1.4400000000000002e-10,0.0,0.0,0.0,1.4400000000000002e-10,0.0,0.0,0.0,1.0,2
2025/05/06 15:20:04.864292285,1746537604,860618497,mA1/gps,0,1,63.434641613449124,10.392547310927284,0.0,1.4400000000000002e-10,0.0,0.0,0.0,1.4400000000000002e-10,0.0,0.0,0.0,1.0,2
2025/05/06 15:20:04.919250018,1746537604,913354759,mA1/gps,0,1,63.43464161348867,10.392547310833205,0.0,1.4400000000000002e-10,0.0,0.0,0.0,1.4400000000000002e-10,0.0,0.0,0.0,1.0,2
2025/05/06 15:20:05.317442001,1746537604,961246856,mA1/gps,0,1,63.43464161339741,10.392547310653592,0.0,1.4400000000000002e-10,0.0,0.0,0.0,1.4400000000000002e-10,0.0,0.0,0.0,1.0,2
2025/05/06 15:20:05.331917035,1746537605,8650058,mA1/gps,0,1,63.4346416135498,10.392547310743824,0.0,1.4400000000000002e-10,0.0,0.0,0.0,1.4400000000000002e-10,0.0,0.0,0.0,1.0,2
2025/05/06 15:20:05.335672203,1746537605,57868182,mA1/gps,0,1,63.43464161345222,10.392547311278413,0.0,1.4400000000000002e-10,0.0,0.0,0.0,1.4400000000000002e-10,0.0,0.0,0.0,1.0,2
2025/05/06 15:20:05.337107486,1746537605,107649158,mA1/gps,0,1,63.43464161350146,10.392547310910386,0.0,1.4400000000000002e-10,0.0,0.0,0.0,1.4400000000000002e-10,0.0,0.0,0.0,1.0,2
2025/05/06 15:20:05.339942407,1746537605,160942600,mA1/gps,0,1,63.43464161345441,10.392547310511272,0.0,1.4400000000000002e-10,0.0,0.0,0.0,1.4400000000000002e-10,0.0,0.0,0.0,1.0,2
2025/05/06 15:20:05.344704867,1746537605,211612514,mA1/gps,0,1,63.43464161361359,10.39254731075891,0.0,1.4400000000000002e-10,0.0,0.0,0.0,1.4400000000000002e-10,0.0,0.0,0.0,1.0,2
2025/05/06 15:20:05.352135805,1746537605,316628907,mA1/gps,0,1,63.434641613669775,10.392547310819227,0.0,1.4400000000000002e-10,0.0,0.0,0.0,1.4400000000000002e-10,0.0,0.0,0.0,1.0,2
2025/05/06 15:20:05.366863657,1746537605,362363412,mA1/gps,0,1,63.43464161354173,10.392547310785918,0.0,1.4400000000000002e-10,0.0,0.0,0.0,1.4400000000000002e-10,0.0,0.0,0.0,1.0,2
2025/05/06 15:20:05.409365321,1746537605,408411736,mA1/gps,0,1,63.43464161368954,10.392547310426155,0.0,1.4400000000000002e-10,0.0,0.0,0.0,1.4400000000000002e-10,0.0,0.0,0.0,1.0,2
2025/05/06 15:20:05.468022820,1746537605,465326679,mA1/gps,0,1,63.43464161357334,10.392547310404288,0.0,1.4400000000000002e-10,0.0,0.0,0.0,1.4400000000000002e-10,0.0,0.0,0.0,1.0,2
2025/05/06 15:20:05.516100304,1746537605,509558527,mA1/gps,0,1,63.43464161373038,10.392547310861758,0.0,1.4400000000000002e-10,0.0,0.0,0.0,1.4400000000000002e-10,0.0,0.0,0.0,1.0,2
2025/05/06 15:20:05.575440644,1746537605,568640858,mA1/gps,0,1,63.43464161402973,10.392547310941701,0.0,1.4400000000000002e-10,0.0,0.0,0.0,1.4400000000000002e-10,0.0,0.0,0.0,1.0,2
2025/05/06 15:20:05.633729582,1746537605,620659126,mA1/gps,0,1,63.43464161372657,10.392547310901287,0.0,1.4400000000000002e-10,0.0,0.0,0.0,1.4400000000000002e-10,0.0,0.0,0.0,1.0,2
2025/05/06 15:20:05.669267168,1746537605,664781618,mA1/gps,0,1,63.434641613859604,10.392547310577838,0.0,1.4400000000000002e-10,0.0,0.0,0.0,1.4400000000000002e-10,0.0,0.0,0.0,1.0,2
2025/05/06 15:20:05.727883317,1746537605,719527017,mA1/gps,0,1,63.43464161391755,10.39254731051136,0.0,1.4400000000000002e-10,0.0,0.0,0.0,1.4400000000000002e-10,0.0,0.0,0.0,1.0,2
2025/05/06 15:20:05.769390671,1746537605,767609254,mA1/gps,0,1,63.434641613821476,10.39254731088413,0.0,1.4400000000000002e-10,0.0,0.0,0.0,1.4400000000000002e-10,0.0,0.0,0.0,1.0,2
2025/05/06 15:20:05.823241652,1746537605,818225783,mA1/gps,0,1,63.43464161397553,10.392547311136408,0.0,1.4400000000000002e-10,0.0,0.0,0.0,1.4400000000000002e-10,0.0,0.0,0.0,1.0,2
2025/05/06 15:20:05.873721743,1746537605,859272918,mA1/gps,0,1,63.43464161377654,10.39254731102789,0.0,1.4400000000000002e-10,0.0,0.0,0.0,1.4400000000000002e-10,0.0,0.0,0.0,1.0,2
2025/05/06 15:20:05.919229931,1746537605,916296560,mA1/gps,0,1,63.43464161371667,10.39254731092513,0.0,1.4400000000000002e-10,0.0,0.0,0.0,1.4400000000000002e-10,0.0,0.0,0.0,1.0,2
2025/05/06 15:20:05.961304025,1746537605,957086454,mA1/gps,0,1,63.434641613755595,10.392547311053907,0.0,1.4400000000000002e-10,0.0,0.0,0.0,1.4400000000000002e-10,0.0,0.0,0.0,1.0,2
2025/05/06 15:20:06.57537720,1746537606,10776281,mA1/gps,0,1,63.43464161361618,10.392547310817521,0.0,1.4400000000000002e-10,0.0,0.0,0.0,1.4400000000000002e-10,0.0,0.0,0.0,1.0,2
2025/05/06 15:20:06.93947951,1746537606,63548537,mA1/gps,0,1,63.43464161360171,10.392547310984257,0.0,1.4400000000000002e-10,0.0,0.0,0.0,1.4400000000000002e-10,0.0,0.0,0.0,1.0,2
2025/05/06 15:20:06.122234878,1746537606,114052335,mA1/gps,0,1,63.4346416136363,10.39254731114599,0.0,1.4400000000000002e-10,0.0,0.0,0.0,1.4400000000000002e-10,0.0,0.0,0.0,1.0,2
2025/05/06 15:20:06.167070945,1746537606,160872290,mA1/gps,0,1,63.434641613630596,10.392547310895104,0.0,1.4400000000000002e-10,0.0,0.0,0.0,1.4400000000000002e-10,0.0,0.0,0.0,1.0,2
2025/05/06 15:20:06.222180251,1746537606,215808696,mA1/gps,0,1,63.43464161383582,10.392547310678975,0.0,1.4400000000000002e-10,0.0,0.0,0.0,1.4400000000000002e-10,0.0,0.0,0.0,1.0,2
2025/05/06 15:20:06.290299527,1746537606,270249546,mA1/gps,0,1,63.4346416136054,10.392547311290885,0.0,1.4400000000000002e-10,0.0,0.0,0.0,1.4400000000000002e-10,0.0,0.0,0.0,1.0,2
2025/05/06 15:20:06.328434793,1746537606,311207811,mA1/gps,0,1,63.43464161369353,10.392547310701705,0.0,1.4400000000000002e-10,0.0,0.0,0.0,1.4400000000000002e-10,0.0,0.0,0.0,1.0,2
2025/05/06 15:20:06.385404470,1746537606,366310716,mA1/gps,0,1,63.43464161358578,10.39254731128485,0.0,1.4400000000000002e-10,0.0,0.0,0.0,1.4400000000000002e-10,0.0,0.0,0.0,1.0,2
2025/05/06 15:20:06.455050971,1746537606,414267183,mA1/gps,0,1,63.43464161358039,10.392547311136735,0.0,1.4400000000000002e-10,0.0,0.0,0.0,1.4400000000000002e-10,0.0,0.0,0.0,1.0,2
2025/05/06 15:20:06.485516039,1746537606,457409743,mA1/gps,0,1,63.4346416136298,10.392547310573214,0.0,1.4400000000000002e-10,0.0,0.0,0.0,1.4400000000000002e-10,0.0,0.0,0.0,1.0,2
2025/05/06 15:20:06.518101422,1746537606,514439318,mA1/gps,0,1,63.434641613569504,10.392547310783122,0.0,1.4400000000000002e-10,0.0,0.0,0.0,1.4400000000000002e-10,0.0,0.0,0.0,1.0,2
2025/05/06 15:20:06.563288774,1746537606,562201458,mA1/gps,0,1,63.43464161342836,10.3925473111065,0.0,1.4400000000000002e-10,0.0,0.0,0.0,1.4400000000000002e-10,0.0,0.0,0.0,1.0,2
2025/05/06 15:20:06.625232862,1746537606,612172304,mA1/gps,0,1,63.434641613453536,10.392547310365485,0.0,1.4400000000000002e-10,0.0,0.0,0.0,1.4400000000000002e-10,0.0,0.0,0.0,1.0,2
2025/05/06 15:20:06.793094825,1746537606,665928243,mA1/gps,0,1,63.43464161342232,10.392547311125332,0.0,1.4400000000000002e-10,0.0,0.0,0.0,1.4400000000000002e-10,0.0,0.0,0.0,1.0,2
2025/05/06 15:20:06.826772339,1746537606,712153789,mA1/gps,0,1,63.43464161349532,10.392547310611885,0.0,1.4400000000000002e-10,0.0,0.0,0.0,1.4400000000000002e-10,0.0,0.0,0.0,1.0,2
2025/05/06 15:20:06.849385443,1746537606,769105937,mA1/gps,0,1,63.4346416136851,10.392547310675335,0.0,1.4400000000000002e-10,0.0,0.0,0.0,1.4400000000000002e-10,0.0,0.0,0.0,1.0,2
2025/05/06 15:20:06.877093355,1746537606,810017708,mA1/gps,0,1,63.43464161376705,10.392547310608045,0.0,1.4400000000000002e-10,0.0,0.0,0.0,1.4400000000000002e-10,0.0,0.0,0.0,1.0,2
2025/05/06 15:20:06.919315040,1746537606,870623264,mA1/gps,0,1,63.43464161363074,10.392547310716115,0.0,1.4400000000000002e-10,0.0,0.0,0.0,1.4400000000000002e-10,0.0,0.0,0.0,1.0,2
2025/05/06 15:20:06.952769512,1746537606,909420276,mA1/gps,0,1,63.43464161351785,10.39254731067897,0.0,1.4400000000000002e-10,0.0,0.0,0.0,1.4400000000000002e-10,0.0,0.0,0.0,1.0,2
2025/05/06 15:20:07.80764184,1746537606,975219475,mA1/gps,0,1,63.434641613844654,10.392547311155372,0.0,1.4400000000000002e-10,0.0,0.0,0.0,1.4400000000000002e-10,0.0,0.0,0.0,1.0,2
2025/05/06 15:20:07.101665520,1746537607,9994679,mA1/gps,0,1,63.434641613709225,10.392547310559761,0.0,1.4400000000000002e-10,0.0,0.0,0.0,1.4400000000000002e-10,0.0,0.0,0.0,1.0,2
2025/05/06 15:20:07.131129200,1746537607,60501154,mA1/gps,0,1,63.43464161379153,10.392547310716216,0.0,1.4400000000000002e-10,0.0,0.0,0.0,1.4400000000000002e-10,0.0,0.0,0.0,1.0,2
2025/05/06 15:20:07.160437632,1746537607,105614607,mA1/gps,0,1,63.43464161383894,10.392547310332295,0.0,1.4400000000000002e-10,0.0,0.0,0.0,1.4400000000000002e-10,0.0,0.0,0.0,1.0,2
2025/05/06 15:20:07.202540807,1746537607,165127916,mA1/gps,0,1,63.43464161385059,10.392547311262309,0.0,1.4400000000000002e-10,0.0,0.0,0.0,1.4400000000000002e-10,0.0,0.0,0.0,1.0,2
2025/05/06 15:20:07.222464757,1746537607,207466767,mA1/gps,0,1,63.43464161368035,10.392547311028336,0.0,1.4400000000000002e-10,0.0,0.0,0.0,1.4400000000000002e-10,0.0,0.0,0.0,1.0,2
2025/05/06 15:20:07.265377240,1746537607,261271426,mA1/gps,0,1,63.434641613772534,10.392547311157772,0.0,1.4400000000000002e-10,0.0,0.0,0.0,1.4400000000000002e-10,0.0,0.0,0.0,1.0,2
2025/05/06 15:20:07.375874699,1746537607,314517779,mA1/gps,0,1,63.43464161377838,10.392547310941726,0.0,1.4400000000000002e-10,0.0,0.0,0.0,1.4400000000000002e-10,0.0,0.0,0.0,1.0,2
2025/05/06 15:20:07.477461400,1746537607,366162546,mA1/gps,0,1,63.434641613896396,10.392547311177573,0.0,1.4400000000000002e-10,0.0,0.0,0.0,1.4400000000000002e-10,0.0,0.0,0.0,1.0,2
2025/05/06 15:20:07.504126052,1746537607,408226485,mA1/gps,0,1,63.434641613583636,10.39254731092119,0.0,1.4400000000000002e-10,0.0,0.0,0.0,1.4400000000000002e-10,0.0,0.0,0.0,1.0,2
2025/05/06 15:20:07.567122591,1746537607,469677997,mA1/gps,0,1,63.43464161386855,10.392547311356516,0.0,1.4400000000000002e-10,0.0,0.0,0.0,1.4400000000000002e-10,0.0,0.0,0.0,1.0,2
2025/05/06 15:20:07.599368797,1746537607,513320251,mA1/gps,0,1,63.43464161361175,10.39254731103216,0.0,1.4400000000000002e-10,0.0,0.0,0.0,1.4400000000000002e-10,0.0,0.0,0.0,1.0,2
2025/05/06 15:20:07.623388608,1746537607,563056117,mA1/gps,0,1,63.43464161367436,10.392547310843728,0.0,1.4400000000000002e-10,0.0,0.0,0.0,1.4400000000000002e-10,0.0,0.0,0.0,1.0,2
2025/05/06 15:20:07.638553674,1746537607,607271381,mA1/gps,0,1,63.43464161363411,10.392547310881143,0.0,1.4400000000000002e-10,0.0,0.0,0.0,1.4400000000000002e-10,0.0,0.0,0.0,1.0,2
2025/05/06 15:20:07.671793077,1746537607,658205356,mA1/gps,0,1,63.434641613629395,10.39254731040848,0.0,1.4400000000000002e-10,0.0,0.0,0.0,1.4400000000000002e-10,0.0,0.0,0.0,1.0,2
2025/05/06 15:20:07.724644192,1746537607,712884963,mA1/gps,0,1,63.43464161336336,10.392547310485373,0.0,1.4400000000000002e-10,0.0,0.0,0.0,1.4400000000000002e-10,0.0,0.0,0.0,1.0,2
2025/05/06 15:20:07.787077549,1746537607,763534092,mA1/gps,0,1,63.43464161355563,10.39254731036063,0.0,1.4400000000000002e-10,0.0,0.0,0.0,1.4400000000000002e-10,0.0,0.0,0.0,1.0,2
2025/05/06 15:20:07.828218722,1746537607,813099852,mA1/gps,0,1,63.43464161353381,10.392547309522604,0.0,1.4400000000000002e-10,0.0,0.0,0.0,1.4400000000000002e-10,0.0,0.0,0.0,1.0,2
2025/05/06 15:20:07.874780231,1746537607,867934852,mA1/gps,0,1,63.43464161357346,10.392547309445971,0.0,1.4400000000000002e-10,0.0,0.0,0.0,1.4400000000000002e-10,0.0,0.0,0.0,1.0,2
2025/05/06 15:20:07.925695656,1746537607,918955723,mA1/gps,0,1,63.43464161376487,10.39254730926729,0.0,1.4400000000000002e-10,0.0,0.0,0.0,1.4400000000000002e-10,0.0,0.0,0.0,1.0,2
2025/05/06 15:20:07.966293989,1746537607,960071799,mA1/gps,0,1,63.4346416138275,10.392547308953098,0.0,1.4400000000000002e-10,0.0,0.0,0.0,1.4400000000000002e-10,0.0,0.0,0.0,1.0,2
2025/05/06 15:20:08.108719294,1746537608,13694941,mA1/gps,0,1,63.434641613672056,10.392547309489958,0.0,1.4400000000000002e-10,0.0,0.0,0.0,1.4400000000000002e-10,0.0,0.0,0.0,1.0,2
2025/05/06 15:20:08.176831007,1746537608,65390562,mA1/gps,0,1,63.43464161344935,10.392547309754674,0.0,1.4400000000000002e-10,0.0,0.0,0.0,1.4400000000000002e-10,0.0,0.0,0.0,1.0,2
2025/05/06 15:20:08.220947415,1746537608,113871197,mA1/gps,0,1,63.43464161359094,10.392547309786664,0.0,1.4400000000000002e-10,0.0,0.0,0.0,1.4400000000000002e-10,0.0,0.0,0.0,1.0,2
2025/05/06 15:20:08.245499419,1746537608,159048237,mA1/gps,0,1,63.43464161361222,10.39254731085757,0.0,1.4400000000000002e-10,0.0,0.0,0.0,1.4400000000000002e-10,0.0,0.0,0.0,1.0,2
2025/05/06 15:20:08.286947101,1746537608,209248764,mA1/gps,0,1,63.434641613324494,10.392547311160417,0.0,1.4400000000000002e-10,0.0,0.0,0.0,1.4400000000000002e-10,0.0,0.0,0.0,1.0,2
2025/05/06 15:20:08.340511659,1746537608,257602524,mA1/gps,0,1,63.43464161336323,10.392547311467768,0.0,1.4400000000000002e-10,0.0,0.0,0.0,1.4400000000000002e-10,0.0,0.0,0.0,1.0,2
2025/05/06 15:20:08.360311362,1746537608,310920533,mA1/gps,0,1,63.43464161374187,10.392547312157623,0.0,1.4400000000000002e-10,0.0,0.0,0.0,1.4400000000000002e-10,0.0,0.0,0.0,1.0,2
2025/05/06 15:20:08.404288364,1746537608,370877254,mA1/gps,0,1,63.43464161349161,10.392547312536598,0.0,1.4400000000000002e-10,0.0,0.0,0.0,1.4400000000000002e-10,0.0,0.0,0.0,1.0,2
2025/05/06 15:20:08.428870393,1746537608,416472152,mA1/gps,0,1,63.43464161346276,10.392547312449077,0.0,1.4400000000000002e-10,0.0,0.0,0.0,1.4400000000000002e-10,0.0,0.0,0.0,1.0,2
2025/05/06 15:20:08.508804425,1746537608,463658344,mA1/gps,0,1,63.43464161367657,10.39254731221902,0.0,1.4400000000000002e-10,0.0,0.0,0.0,1.4400000000000002e-10,0.0,0.0,0.0,1.0,2
2025/05/06 15:20:08.620090741,1746537608,511741644,mA1/gps,0,1,63.434641613604725,10.392547311757841,0.0,1.4400000000000002e-10,0.0,0.0,0.0,1.4400000000000002e-10,0.0,0.0,0.0,1.0,2
2025/05/06 15:20:08.703770092,1746537608,563785289,mA1/gps,0,1,63.43464161366281,10.392547311099227,0.0,1.4400000000000002e-10,0.0,0.0,0.0,1.4400000000000002e-10,0.0,0.0,0.0,1.0,2
2025/05/06 15:20:08.737753716,1746537608,613545496,mA1/gps,0,1,63.43464161351261,10.392547310450826,0.0,1.4400000000000002e-10,0.0,0.0,0.0,1.4400000000000002e-10,0.0,0.0,0.0,1.0,2
2025/05/06 15:20:08.757427663,1746537608,655582146,mA1/gps,0,1,63.43464161381258,10.392547310129459,0.0,1.4400000000000002e-10,0.0,0.0,0.0,1.4400000000000002e-10,0.0,0.0,0.0,1.0,2
2025/05/06 15:20:08.783440051,1746537608,707062175,mA1/gps,0,1,63.43464161357167,10.392547310050958,0.0,1.4400000000000002e-10,0.0,0.0,0.0,1.4400000000000002e-10,0.0,0.0,0.0,1.0,2
2025/05/06 15:20:08.825089412,1746537608,766185045,mA1/gps,0,1,63.43464161381241,10.392547309577086,0.0,1.4400000000000002e-10,0.0,0.0,0.0,1.4400000000000002e-10,0.0,0.0,0.0,1.0,2
2025/05/06 15:20:08.845377229,1746537608,809833845,mA1/gps,0,1,63.43464161364095,10.392547311218834,0.0,1.4400000000000002e-10,0.0,0.0,0.0,1.4400000000000002e-10,0.0,0.0,0.0,1.0,2
2025/05/06 15:20:08.864373282,1746537608,856125183,mA1/gps,0,1,63.43464161334838,10.392547312910848,0.0,1.4400000000000002e-10,0.0,0.0,0.0,1.4400000000000002e-10,0.0,0.0,0.0,1.0,2
2025/05/06 15:20:08.916813571,1746537608,911525049,mA1/gps,0,1,63.43464161297106,10.392547314942432,0.0,1.4400000000000002e-10,0.0,0.0,0.0,1.4400000000000002e-10,0.0,0.0,0.0,1.0,2
2025/05/06 15:20:08.963941257,1746537608,960322110,mA1/gps,0,1,63.434641612694925,10.392547317671456,0.0,1.4400000000000002e-10,0.0,0.0,0.0,1.4400000000000002e-10,0.0,0.0,0.0,1.0,2
2025/05/06 15:20:09.8805804,1746537609,6524725,mA1/gps,0,1,63.4346416123523,10.39254732115261,0.0,1.4400000000000002e-10,0.0,0.0,0.0,1.4400000000000002e-10,0.0,0.0,0.0,1.0,2
2025/05/06 15:20:09.63226147,1746537609,59105596,mA1/gps,0,1,63.43464161186357,10.392547326047607,0.0,1.4400000000000002e-10,0.0,0.0,0.0,1.4400000000000002e-10,0.0,0.0,0.0,1.0,2
2025/05/06 15:20:09.115574252,1746537609,111591438,mA1/gps,0,1,63.43464161144633,10.392547331044131,0.0,1.4400000000000002e-10,0.0,0.0,0.0,1.4400000000000002e-10,0.0,0.0,0.0,1.0,2
2025/05/06 15:20:09.166396330,1746537609,164313411,mA1/gps,0,1,63.43464161081525,10.39254733676229,0.0,1.4400000000000002e-10,0.0,0.0,0.0,1.4400000000000002e-10,0.0,0.0,0.0,1.0,2
2025/05/06 15:20:09.211185012,1746537609,209268626,mA1/gps,0,1,63.434641610159964,10.3925473426738,0.0,1.4400000000000002e-10,0.0,0.0,0.0,1.4400000000000002e-10,0.0,0.0,0.0,1.0,2
2025/05/06 15:20:09.261529820,1746537609,258512167,mA1/gps,0,1,63.4346416095762,10.392547349111405,0.0,1.4400000000000002e-10,0.0,0.0,0.0,1.4400000000000002e-10,0.0,0.0,0.0,1.0,2
2025/05/06 15:20:09.314252149,1746537609,310403742,mA1/gps,0,1,63.43464160882956,10.392547355782296,0.0,1.4400000000000002e-10,0.0,0.0,0.0,1.4400000000000002e-10,0.0,0.0,0.0,1.0,2
2025/05/06 15:20:09.368937729,1746537609,366839280,mA1/gps,0,1,63.4346416081673,10.392547361523834,0.0,1.4400000000000002e-10,0.0,0.0,0.0,1.4400000000000002e-10,0.0,0.0,0.0,1.0,2
2025/05/06 15:20:09.408427223,1746537609,405412889,mA1/gps,0,1,63.43464160742407,10.392547368616265,0.0,1.4400000000000002e-10,0.0,0.0,0.0,1.4400000000000002e-10,0.0,0.0,0.0,1.0,2
2025/05/06 15:20:09.463100361,1746537609,460409716,mA1/gps,0,1,63.43464160689506,10.39254737459497,0.0,1.4400000000000002e-10,0.0,0.0,0.0,1.4400000000000002e-10,0.0,0.0,0.0,1.0,2
2025/05/06 15:20:09.515377054,1746537609,513176530,mA1/gps,0,1,63.434641606166046,10.392547380408718,0.0,1.4400000000000002e-10,0.0,0.0,0.0,1.4400000000000002e-10,0.0,0.0,0.0,1.0,2
2025/05/06 15:20:09.573609164,1746537609,567643989,mA1/gps,0,1,63.43464160573928,10.392547386512543,0.0,1.4400000000000002e-10,0.0,0.0,0.0,1.4400000000000002e-10,0.0,0.0,0.0,1.0,2
2025/05/06 15:20:09.620936411,1746537609,614504065,mA1/gps,0,1,63.43464160519982,10.392547392230613,0.0,1.4400000000000002e-10,0.0,0.0,0.0,1.4400000000000002e-10,0.0,0.0,0.0,1.0,2
2025/05/06 15:20:09.668102608,1746537609,660830028,mA1/gps,0,1,63.43464160459873,10.392547397478213,0.0,1.4400000000000002e-10,0.0,0.0,0.0,1.4400000000000002e-10,0.0,0.0,0.0,1.0,2
2025/05/06 15:20:09.715208821,1746537609,710476884,mA1/gps,0,1,63.43464160427146,10.392547402333237,0.0,1.4400000000000002e-10,0.0,0.0,0.0,1.4400000000000002e-10,0.0,0.0,0.0,1.0,2
2025/05/06 15:20:09.762924159,1746537609,760960846,mA1/gps,0,1,63.43464160361291,10.392547406560066,0.0,1.4400000000000002e-10,0.0,0.0,0.0,1.4400000000000002e-10,0.0,0.0,0.0,1.0,2
2025/05/06 15:20:09.814728074,1746537609,812112854,mA1/gps,0,1,63.43464160333205,10.392547410583576,0.0,1.4400000000000002e-10,0.0,0.0,0.0,1.4400000000000002e-10,0.0,0.0,0.0,1.0,2
2025/05/06 15:20:09.864958272,1746537609,860023569,mA1/gps,0,1,63.43464160297735,10.392547414317022,0.0,1.4400000000000002e-10,0.0,0.0,0.0,1.4400000000000002e-10,0.0,0.0,0.0,1.0,2
2025/05/06 15:20:09.917431307,1746537609,911739057,mA1/gps,0,1,63.434641602577486,10.39254741907859,0.0,1.4400000000000002e-10,0.0,0.0,0.0,1.4400000000000002e-10,0.0,0.0,0.0,1.0,2
2025/05/06 15:20:09.967650754,1746537609,962698506,mA1/gps,0,1,63.434641602030176,10.392547422444235,0.0,1.4400000000000002e-10,0.0,0.0,0.0,1.4400000000000002e-10,0.0,0.0,0.0,1.0,2
2025/05/06 15:20:10.11058714,1746537610,7521902,mA1/gps,0,1,63.43464160175011,10.392547426274966,0.0,1.4400000000000002e-10,0.0,0.0,0.0,1.4400000000000002e-10,0.0,0.0,0.0,1.0,2
2025/05/06 15:20:10.59308756,1746537610,57046599,mA1/gps,0,1,63.434641601482376,10.392547430647037,0.0,1.4400000000000002e-10,0.0,0.0,0.0,1.4400000000000002e-10,0.0,0.0,0.0,1.0,2
2025/05/06 15:20:10.113589771,1746537610,108019549,mA1/gps,0,1,63.43464160087482,10.392547434525085,0.0,1.4400000000000002e-10,0.0,0.0,0.0,1.4400000000000002e-10,0.0,0.0,0.0,1.0,2
2025/05/06 15:20:10.179898482,1746537610,173065097,mA1/gps,0,1,63.4346416004495,10.392547439030526,0.0,1.4400000000000002e-10,0.0,0.0,0.0,1.4400000000000002e-10,0.0,0.0,0.0,1.0,2
2025/05/06 15:20:10.216875184,1746537610,209181844,mA1/gps,0,1,63.43464159979154,10.392547444548592,0.0,1.4400000000000002e-10,0.0,0.0,0.0,1.4400000000000002e-10,0.0,0.0,0.0,1.0,2
2025/05/06 15:20:10.267662214,1746537610,265002249,mA1/gps,0,1,63.434641599292306,10.392547450243265,0.0,1.4400000000000002e-10,0.0,0.0,0.0,1.4400000000000002e-10,0.0,0.0,0.0,1.0,2
2025/05/06 15:20:10.313925449,1746537610,308221999,mA1/gps,0,1,63.434641598872474,10.392547456242946,0.0,1.4400000000000002e-10,0.0,0.0,0.0,1.4400000000000002e-10,0.0,0.0,0.0,1.0,2
2025/05/06 15:20:10.361907338,1746537610,360946691,mA1/gps,0,1,63.434641598167204,10.392547462997742,0.0,1.4400000000000002e-10,0.0,0.0,0.0,1.4400000000000002e-10,0.0,0.0,0.0,1.0,2
2025/05/06 15:20:10.413995566,1746537610,410807885,mA1/gps,0,1,63.43464159722673,10.392547470256957,0.0,1.4400000000000002e-10,0.0,0.0,0.0,1.4400000000000002e-10,0.0,0.0,0.0,1.0,2
2025/05/06 15:20:10.470316526,1746537610,464456335,mA1/gps,0,1,63.434641596507106,10.39254747800626,0.0,1.4400000000000002e-10,0.0,0.0,0.0,1.4400000000000002e-10,0.0,0.0,0.0,1.0,2
2025/05/06 15:20:10.513706463,1746537610,512396965,mA1/gps,0,1,63.43464159546093,10.392547486557525,0.0,1.4400000000000002e-10,0.0,0.0,0.0,1.4400000000000002e-10,0.0,0.0,0.0,1.0,2
2025/05/06 15:20:10.573769597,1746537610,563810024,mA1/gps,0,1,63.434641594639,10.392547495264747,0.0,1.4400000000000002e-10,0.0,0.0,0.0,1.4400000000000002e-10,0.0,0.0,0.0,1.0,2
2025/05/06 15:20:10.614912937,1746537610,612215108,mA1/gps,0,1,63.43464159371641,10.392547504765897,0.0,1.4400000000000002e-10,0.0,0.0,0.0,1.4400000000000002e-10,0.0,0.0,0.0,1.0,2
2025/05/06 15:20:10.667748680,1746537610,664228502,mA1/gps,0,1,63.4346415925867,10.392547513908292,0.0,1.4400000000000002e-10,0.0,0.0,0.0,1.4400000000000002e-10,0.0,0.0,0.0,1.0,2
2025/05/06 15:20:10.710837421,1746537610,707054547,mA1/gps,0,1,63.434641591756034,10.392547523198289,0.0,1.4400000000000002e-10,0.0,0.0,0.0,1.4400000000000002e-10,0.0,0.0,0.0,1.0,2
2025/05/06 15:20:10.774844123,1746537610,768761255,mA1/gps,0,1,63.43464159088514,10.392547531752074,0.0,1.4400000000000002e-10,0.0,0.0,0.0,1.4400000000000002e-10,0.0,0.0,0.0,1.0,2
2025/05/06 15:20:10.819100305,1746537610,809147694,mA1/gps,0,1,63.43464158999038,10.392547540397441,0.0,1.4400000000000002e-10,0.0,0.0,0.0,1.4400000000000002e-10,0.0,0.0,0.0,1.0,2
2025/05/06 15:20:10.867649323,1746537610,863548559,mA1/gps,0,1,63.43464158894691,10.392547548317824,0.0,1.4400000000000002e-10,0.0,0.0,0.0,1.4400000000000002e-10,0.0,0.0,0.0,1.0,2
2025/05/06 15:20:10.918237459,1746537610,915090575,mA1/gps,0,1,63.43464158822876,10.392547555649502,0.0,1.4400000000000002e-10,0.0,0.0,0.0,1.4400000000000002e-10,0.0,0.0,0.0,1.0,2
2025/05/06 15:20:10.972511370,1746537610,960387588,mA1/gps,0,1,63.43464158768084,10.392547561914968,0.0,1.4400000000000002e-10,0.0,0.0,0.0,1.4400000000000002e-10,0.0,0.0,0.0,1.0,2
2025/05/06 15:20:11.14325121,1746537611,10397149,mA1/gps,0,1,63.434641587009324,10.392547567647787,0.0,1.4400000000000002e-10,0.0,0.0,0.0,1.4400000000000002e-10,0.0,0.0,0.0,1.0,2
2025/05/06 15:20:11.62182705,1746537611,59756276,mA1/gps,0,1,63.43464158651624,10.392547572961004,0.0,1.4400000000000002e-10,0.0,0.0,0.0,1.4400000000000002e-10,0.0,0.0,0.0,1.0,2
2025/05/06 15:20:11.110574853,1746537611,109351507,mA1/gps,0,1,63.434641585917866,10.392547576764425,0.0,1.4400000000000002e-10,0.0,0.0,0.0,1.4400000000000002e-10,0.0,0.0,0.0,1.0,2
2025/05/06 15:20:11.162943519,1746537611,160346112,mA1/gps,0,1,63.43464158571951,10.392547580570275,0.0,1.4400000000000002e-10,0.0,0.0,0.0,1.4400000000000002e-10,0.0,0.0,0.0,1.0,2
2025/05/06 15:20:11.213869786,1746537611,211590776,mA1/gps,0,1,63.434641585520424,10.39254758397705,0.0,1.4400000000000002e-10,0.0,0.0,0.0,1.4400000000000002e-10,0.0,0.0,0.0,1.0,2
2025/05/06 15:20:11.268715821,1746537611,262484557,mA1/gps,0,1,63.43464158452098,10.392547586799086,0.0,1.4400000000000002e-10,0.0,0.0,0.0,1.4400000000000002e-10,0.0,0.0,0.0,1.0,2
2025/05/06 15:20:11.314749777,1746537611,312583390,mA1/gps,0,1,63.434641583869315,10.392547590277532,0.0,1.4400000000000002e-10,0.0,0.0,0.0,1.4400000000000002e-10,0.0,0.0,0.0,1.0,2
2025/05/06 15:20:11.369046877,1746537611,365627756,mA1/gps,0,1,63.43464158317714,10.392547592728992,0.0,1.4400000000000002e-10,0.0,0.0,0.0,1.4400000000000002e-10,0.0,0.0,0.0,1.0,2
2025/05/06 15:20:11.416551869,1746537611,405574364,mA1/gps,0,1,63.434641582883465,10.392547595745734,0.0,1.4400000000000002e-10,0.0,0.0,0.0,1.4400000000000002e-10,0.0,0.0,0.0,1.0,2
2025/05/06 15:20:11.465394144,1746537611,460887808,mA1/gps,0,1,63.434641581425986,10.392547598141189,0.0,1.4400000000000002e-10,0.0,0.0,0.0,1.4400000000000002e-10,0.0,0.0,0.0,1.0,2
2025/05/06 15:20:11.510873583,1746537611,509520074,mA1/gps,0,1,63.434641579189595,10.392547599994364,0.0,1.4400000000000002e-10,0.0,0.0,0.0,1.4400000000000002e-10,0.0,0.0,0.0,1.0,2
2025/05/06 15:20:11.564857894,1746537611,560394160,mA1/gps,0,1,63.43464157530806,10.392547602344099,0.0,1.4400000000000002e-10,0.0,0.0,0.0,1.4400000000000002e-10,0.0,0.0,0.0,1.0,2
2025/05/06 15:20:11.614895512,1746537611,611419946,mA1/gps,0,1,63.43464157361665,10.392547605077803,0.0,1.4400000000000002e-10,0.0,0.0,0.0,1.4400000000000002e-10,0.0,0.0,0.0,1.0,2
2025/05/06 15:20:11.663288721,1746537611,661955006,mA1/gps,0,1,63.43464157003138,10.392547607605724,0.0,1.4400000000000002e-10,0.0,0.0,0.0,1.4400000000000002e-10,0.0,0.0,0.0,1.0,2
2025/05/06 15:20:11.713995550,1746537611,712938064,mA1/gps,0,1,63.4346415654192,10.392547610459953,0.0,1.4400000000000002e-10,0.0,0.0,0.0,1.4400000000000002e-10,0.0,0.0,0.0,1.0,2
2025/05/06 15:20:11.765467099,1746537611,764080877,mA1/gps,0,1,63.43464156211729,10.392547614736872,0.0,1.4400000000000002e-10,0.0,0.0,0.0,1.4400000000000002e-10,0.0,0.0,0.0,1.0,2
2025/05/06 15:20:11.817699524,1746537611,813820805,mA1/gps,0,1,63.43464155545919,10.392547617852403,0.0,1.4400000000000002e-10,0.0,0.0,0.0,1.4400000000000002e-10,0.0,0.0,0.0,1.0,2
2025/05/06 15:20:11.858057055,1746537611,856533272,mA1/gps,0,1,63.43464154978503,10.392547622843963,0.0,1.4400000000000002e-10,0.0,0.0,0.0,1.4400000000000002e-10,0.0,0.0,0.0,1.0,2
2025/05/06 15:20:11.909722255,1746537611,906335859,mA1/gps,0,1,63.434641543439504,10.392547627532089,0.0,1.4400000000000002e-10,0.0,0.0,0.0,1.4400000000000002e-10,0.0,0.0,0.0,1.0,2
2025/05/06 15:20:11.958296999,1746537611,956612362,mA1/gps,0,1,63.434641537395926,10.392547633361852,0.0,1.4400000000000002e-10,0.0,0.0,0.0,1.4400000000000002e-10,0.0,0.0,0.0,1.0,2
2025/05/06 15:20:12.8157080,1746537612,6826281,mA1/gps,0,1,63.43464153002151,10.392547639212582,0.0,1.4400000000000002e-10,0.0,0.0,0.0,1.4400000000000002e-10,0.0,0.0,0.0,1.0,2
2025/05/06 15:20:12.63938211,1746537612,60061573,mA1/gps,0,1,63.43464152157259,10.392547644349214,0.0,1.4400000000000002e-10,0.0,0.0,0.0,1.4400000000000002e-10,0.0,0.0,0.0,1.0,2
2025/05/06 15:20:12.110508337,1746537612,108906607,mA1/gps,0,1,63.434641512393135,10.392547649828208,0.0,1.4400000000000002e-10,0.0,0.0,0.0,1.4400000000000002e-10,0.0,0.0,0.0,1.0,2
2025/05/06 15:20:12.161778703,1746537612,159937398,mA1/gps,0,1,63.43464150336331,10.392547654837966,0.0,1.4400000000000002e-10,0.0,0.0,0.0,1.4400000000000002e-10,0.0,0.0,0.0,1.0,2
2025/05/06 15:20:12.210747554,1746537612,209780436,mA1/gps,0,1,63.43464149414271,10.392547660102753,0.0,1.4400000000000002e-10,0.0,0.0,0.0,1.4400000000000002e-10,0.0,0.0,0.0,1.0,2
2025/05/06 15:20:12.269492767,1746537612,261591988,mA1/gps,0,1,63.434641485537604,10.392547665586152,0.0,1.4400000000000002e-10,0.0,0.0,0.0,1.4400000000000002e-10,0.0,0.0,0.0,1.0,2
2025/05/06 15:20:12.315359305,1746537612,313882143,mA1/gps,0,1,63.434641475981365,10.39254766977765,0.0,1.4400000000000002e-10,0.0,0.0,0.0,1.4400000000000002e-10,0.0,0.0,0.0,1.0,2
2025/05/06 15:20:12.366862616,1746537612,364915491,mA1/gps,0,1,63.43464146562483,10.392547673446078,0.0,1.4400000000000002e-10,0.0,0.0,0.0,1.4400000000000002e-10,0.0,0.0,0.0,1.0,2
2025/05/06 15:20:12.406807385,1746537612,404641313,mA1/gps,0,1,63.43464145695258,10.392547677585025,0.0,1.4400000000000002e-10,0.0,0.0,0.0,1.4400000000000002e-10,0.0,0.0,0.0,1.0,2
2025/05/06 15:20:12.457387083,1746537612,455558196,mA1/gps,0,1,63.4346414477097,10.392547681314882,0.0,1.4400000000000002e-10,0.0,0.0,0.0,1.4400000000000002e-10,0.0,0.0,0.0,1.0,2
2025/05/06 15:20:12.510192211,1746537612,506025391,mA1/gps,0,1,63.43464143876995,10.392547683724034,0.0,1.4400000000000002e-10,0.0,0.0,0.0,1.4400000000000002e-10,0.0,0.0,0.0,1.0,2
2025/05/06 15:20:12.562815750,1746537612,559269623,mA1/gps,0,1,63.43464142867113,10.392547686123715,0.0,1.4400000000000002e-10,0.0,0.0,0.0,1.4400000000000002e-10,0.0,0.0,0.0,1.0,2
2025/05/06 15:20:12.610592176,1746537612,608761779,mA1/gps,0,1,63.43464141934348,10.392547688673204,0.0,1.4400000000000002e-10,0.0,0.0,0.0,1.4400000000000002e-10,0.0,0.0,0.0,1.0,2
2025/05/06 15:20:12.661372648,1746537612,659683112,mA1/gps,0,1,63.4346414112021,10.392547691055114,0.0,1.4400000000000002e-10,0.0,0.0,0.0,1.4400000000000002e-10,0.0,0.0,0.0,1.0,2
2025/05/06 15:20:12.718822048,1746537612,712255399,mA1/gps,0,1,63.434641401423875,10.392547692337123,0.0,1.4400000000000002e-10,0.0,0.0,0.0,1.4400000000000002e-10,0.0,0.0,0.0,1.0,2
2025/05/06 15:20:12.766247686,1746537612,763702106,mA1/gps,0,1,63.43464139166095,10.3925476936777,0.0,1.4400000000000002e-10,0.0,0.0,0.0,1.4400000000000002e-10,0.0,0.0,0.0,1.0,2
2025/05/06 15:20:12.814915098,1746537612,812241023,mA1/gps,0,1,63.434641383668705,10.392547695548522,0.0,1.4400000000000002e-10,0.0,0.0,0.0,1.4400000000000002e-10,0.0,0.0,0.0,1.0,2
2025/05/06 15:20:12.865962934,1746537612,863391403,mA1/gps,0,1,63.434641374907095,10.392547696764074,0.0,1.4400000000000002e-10,0.0,0.0,0.0,1.4400000000000002e-10,0.0,0.0,0.0,1.0,2
2025/05/06 15:20:12.917327942,1746537612,913202459,mA1/gps,0,1,63.43464136534763,10.392547698057886,0.0,1.4400000000000002e-10,0.0,0.0,0.0,1.4400000000000002e-10,0.0,0.0,0.0,1.0,2
2025/05/06 15:20:12.967553579,1746537612,965390055,mA1/gps,0,1,63.4346413555615,10.392547699568484,0.0,1.4400000000000002e-10,0.0,0.0,0.0,1.4400000000000002e-10,0.0,0.0,0.0,1.0,2
2025/05/06 15:20:13.7344342,1746537613,5117638,mA1/gps,0,1,63.43464134542901,10.392547700693969,0.0,1.4400000000000002e-10,0.0,0.0,0.0,1.4400000000000002e-10,0.0,0.0,0.0,1.0,2
2025/05/06 15:20:13.60974152,1746537613,57934508,mA1/gps,0,1,63.434641335443686,10.392547702231404,0.0,1.4400000000000002e-10,0.0,0.0,0.0,1.4400000000000002e-10,0.0,0.0,0.0,1.0,2
2025/05/06 15:20:13.111742140,1746537613,109026938,mA1/gps,0,1,63.434641324113066,10.392547703211392,0.0,1.4400000000000002e-10,0.0,0.0,0.0,1.4400000000000002e-10,0.0,0.0,0.0,1.0,2
2025/05/06 15:20:13.166912387,1746537613,162738513,mA1/gps,0,1,63.43464131309467,10.392547704831902,0.0,1.4400000000000002e-10,0.0,0.0,0.0,1.4400000000000002e-10,0.0,0.0,0.0,1.0,2
2025/05/06 15:20:13.211427463,1746537613,210675380,mA1/gps,0,1,63.43464130198647,10.392547707061699,0.0,1.4400000000000002e-10,0.0,0.0,0.0,1.4400000000000002e-10,0.0,0.0,0.0,1.0,2
2025/05/06 15:20:13.264885680,1746537613,262081760,mA1/gps,0,1,63.43464128938034,10.392547709129015,0.0,1.4400000000000002e-10,0.0,0.0,0.0,1.4400000000000002e-10,0.0,0.0,0.0,1.0,2
2025/05/06 15:20:13.315135406,1746537613,312636232,mA1/gps,0,1,63.4346412772666,10.39254771119788,0.0,1.4400000000000002e-10,0.0,0.0,0.0,1.4400000000000002e-10,0.0,0.0,0.0,1.0,2
2025/05/06 15:20:13.359312332,1746537613,357166726,mA1/gps,0,1,63.43464126392592,10.392547713102587,0.0,1.4400000000000002e-10,0.0,0.0,0.0,1.4400000000000002e-10,0.0,0.0,0.0,1.0,2
2025/05/06 15:20:13.407522032,1746537613,405112912,mA1/gps,0,1,63.43464125005592,10.392547714676503,0.0,1.4400000000000002e-10,0.0,0.0,0.0,1.4400000000000002e-10,0.0,0.0,0.0,1.0,2
2025/05/06 15:20:13.459154615,1746537613,457097694,mA1/gps,0,1,63.43464123593273,10.392547717258852,0.0,1.4400000000000002e-10,0.0,0.0,0.0,1.4400000000000002e-10,0.0,0.0,0.0,1.0,2
2025/05/06 15:20:13.507734778,1746537613,506344341,mA1/gps,0,1,63.43464122234745,10.392547720074141,0.0,1.4400000000000002e-10,0.0,0.0,0.0,1.4400000000000002e-10,0.0,0.0,0.0,1.0,2
2025/05/06 15:20:13.560308767,1746537613,558544236,mA1/gps,0,1,63.43464120646345,10.392547721973589,0.0,1.4400000000000002e-10,0.0,0.0,0.0,1.4400000000000002e-10,0.0,0.0,0.0,1.0,2
2025/05/06 15:20:13.609675023,1746537613,608230187,mA1/gps,0,1,63.43464119155947,10.39254772450267,0.0,1.4400000000000002e-10,0.0,0.0,0.0,1.4400000000000002e-10,0.0,0.0,0.0,1.0,2
2025/05/06 15:20:13.660111103,1746537613,657940236,mA1/gps,0,1,63.434641175714376,10.392547726150067,0.0,1.4400000000000002e-10,0.0,0.0,0.0,1.4400000000000002e-10,0.0,0.0,0.0,1.0,2
2025/05/06 15:20:13.713608539,1746537613,709666524,mA1/gps,0,1,63.43464115972958,10.39254772771394,0.0,1.4400000000000002e-10,0.0,0.0,0.0,1.4400000000000002e-10,0.0,0.0,0.0,1.0,2
2025/05/06 15:20:13.760815249,1746537613,758695925,mA1/gps,0,1,63.434641144549865,10.392547728929054,0.0,1.4400000000000002e-10,0.0,0.0,0.0,1.4400000000000002e-10,0.0,0.0,0.0,1.0,2
2025/05/06 15:20:13.809674391,1746537613,808539551,mA1/gps,0,1,63.434641128204255,10.392547729111449,0.0,1.4400000000000002e-10,0.0,0.0,0.0,1.4400000000000002e-10,0.0,0.0,0.0,1.0,2
2025/05/06 15:20:13.861190194,1746537613,859692989,mA1/gps,0,1,63.43464111159374,10.39254772858997,0.0,1.4400000000000002e-10,0.0,0.0,0.0,1.4400000000000002e-10,0.0,0.0,0.0,1.0,2
2025/05/06 15:20:13.915246489,1746537613,911970398,mA1/gps,0,1,63.434641095902684,10.392547727088424,0.0,1.4400000000000002e-10,0.0,0.0,0.0,1.4400000000000002e-10,0.0,0.0,0.0,1.0,2
2025/05/06 15:20:13.966666510,1746537613,962858965,mA1/gps,0,1,63.43464108046228,10.39254772557691,0.0,1.4400000000000002e-10,0.0,0.0,0.0,1.4400000000000002e-10,0.0,0.0,0.0,1.0,2
2025/05/06 15:20:14.9016836,1746537614,4380005,mA1/gps,0,1,63.43464106554029,10.392547722904165,0.0,1.4400000000000002e-10,0.0,0.0,0.0,1.4400000000000002e-10,0.0,0.0,0.0,1.0,2
2025/05/06 15:20:14.57379921,1746537614,55449704,mA1/gps,0,1,63.43464104932969,10.39254771892358,0.0,1.4400000000000002e-10,0.0,0.0,0.0,1.4400000000000002e-10,0.0,0.0,0.0,1.0,2
2025/05/06 15:20:14.110831948,1746537614,106528101,mA1/gps,0,1,63.434641034108665,10.392547715032563,0.0,1.4400000000000002e-10,0.0,0.0,0.0,1.4400000000000002e-10,0.0,0.0,0.0,1.0,2
2025/05/06 15:20:14.160519879,1746537614,157358968,mA1/gps,0,1,63.43464101849213,10.392547710464497,0.0,1.4400000000000002e-10,0.0,0.0,0.0,1.4400000000000002e-10,0.0,0.0,0.0,1.0,2
2025/05/06 15:20:14.210695686,1746537614,208410698,mA1/gps,0,1,63.43464100262369,10.392547704928099,0.0,1.4400000000000002e-10,0.0,0.0,0.0,1.4400000000000002e-10,0.0,0.0,0.0,1.0,2
2025/05/06 15:20:14.259882384,1746537614,259242014,mA1/gps,0,1,63.43464098596222,10.392547698387144,0.0,1.4400000000000002e-10,0.0,0.0,0.0,1.4400000000000002e-10,0.0,0.0,0.0,1.0,2
2025/05/06 15:20:14.309814799,1746537614,307991000,mA1/gps,0,1,63.43464096998121,10.392547692612892,0.0,1.4400000000000002e-10,0.0,0.0,0.0,1.4400000000000002e-10,0.0,0.0,0.0,1.0,2
2025/05/06 15:20:14.361127755,1746537614,359325576,mA1/gps,0,1,63.434640953552915,10.392547687118757,0.0,1.4400000000000002e-10,0.0,0.0,0.0,1.4400000000000002e-10,0.0,0.0,0.0,1.0,2
2025/05/06 15:20:14.411337302,1746537614,409101436,mA1/gps,0,1,63.43464093715508,10.392547681164581,0.0,1.4400000000000002e-10,0.0,0.0,0.0,1.4400000000000002e-10,0.0,0.0,0.0,1.0,2
2025/05/06 15:20:14.461789379,1746537614,460051786,mA1/gps,0,1,63.43464092078845,10.392547676379069,0.0,1.4400000000000002e-10,0.0,0.0,0.0,1.4400000000000002e-10,0.0,0.0,0.0,1.0,2
2025/05/06 15:20:14.513005929,1746537614,510578171,mA1/gps,0,1,63.434640903595785,10.392547671852167,0.0,1.4400000000000002e-10,0.0,0.0,0.0,1.4400000000000002e-10,0.0,0.0,0.0,1.0,2
2025/05/06 15:20:14.563800032,1746537614,561561124,mA1/gps,0,1,63.43464088612504,10.392547666916924,0.0,1.4400000000000002e-10,0.0,0.0,0.0,1.4400000000000002e-10,0.0,0.0,0.0,1.0,2
2025/05/06 15:20:14.612615762,1746537614,611364471,mA1/gps,0,1,63.43464086712374,10.392547662397154,0.0,1.4400000000000002e-10,0.0,0.0,0.0,1.4400000000000002e-10,0.0,0.0,0.0,1.0,2
2025/05/06 15:20:14.665080149,1746537614,662498554,mA1/gps,0,1,63.43464084729697,10.392547658099076,0.0,1.4400000000000002e-10,0.0,0.0,0.0,1.4400000000000002e-10,0.0,0.0,0.0,1.0,2
2025/05/06 15:20:14.716850789,1746537614,714023342,mA1/gps,0,1,63.43464082785993,10.39254765443986,0.0,1.4400000000000002e-10,0.0,0.0,0.0,1.4400000000000002e-10,0.0,0.0,0.0,1.0,2
2025/05/06 15:20:14.758336267,1746537614,756227574,mA1/gps,0,1,63.4346408092685,10.392547651598901,0.0,1.4400000000000002e-10,0.0,0.0,0.0,1.4400000000000002e-10,0.0,0.0,0.0,1.0,2
2025/05/06 15:20:14.807323648,1746537614,806316855,mA1/gps,0,1,63.43464078925276,10.392547647840582,0.0,1.4400000000000002e-10,0.0,0.0,0.0,1.4400000000000002e-10,0.0,0.0,0.0,1.0,2
2025/05/06 15:20:14.859144312,1746537614,857210917,mA1/gps,0,1,63.43464076756284,10.39254764365496,0.0,1.4400000000000002e-10,0.0,0.0,0.0,1.4400000000000002e-10,0.0,0.0,0.0,1.0,2
2025/05/06 15:20:14.912358897,1746537614,909267520,mA1/gps,0,1,63.4346407455836,10.392547639032225,0.0,1.4400000000000002e-10,0.0,0.0,0.0,1.4400000000000002e-10,0.0,0.0,0.0,1.0,2
2025/05/06 15:20:14.962643191,1746537614,960217241,mA1/gps,0,1,63.43464072404146,10.392547634712098,0.0,1.4400000000000002e-10,0.0,0.0,0.0,1.4400000000000002e-10,0.0,0.0,0.0,1.0,2
2025/05/06 15:20:15.12104673,1746537615,10603839,mA1/gps,0,1,63.434640702079335,10.392547629302237,0.0,1.4400000000000002e-10,0.0,0.0,0.0,1.4400000000000002e-10,0.0,0.0,0.0,1.0,2
2025/05/06 15:20:15.66227699,1746537615,62340729,mA1/gps,0,1,63.43464067937691,10.392547622783551,0.0,1.4400000000000002e-10,0.0,0.0,0.0,1.4400000000000002e-10,0.0,0.0,0.0,1.0,2
2025/05/06 15:20:15.113726110,1746537615,112144795,mA1/gps,0,1,63.434640656536324,10.392547615811635,0.0,1.4400000000000002e-10,0.0,0.0,0.0,1.4400000000000002e-10,0.0,0.0,0.0,1.0,2
2025/05/06 15:20:15.165172260,1746537615,163587904,mA1/gps,0,1,63.434640634522765,10.392547607821188,0.0,1.4400000000000002e-10,0.0,0.0,0.0,1.4400000000000002e-10,0.0,0.0,0.0,1.0,2
2025/05/06 15:20:15.209579322,1746537615,208673322,mA1/gps,0,1,63.43464060985893,10.392547598535364,0.0,1.4400000000000002e-10,0.0,0.0,0.0,1.4400000000000002e-10,0.0,0.0,0.0,1.0,2
2025/05/06 15:20:15.260256440,1746537615,258635097,mA1/gps,0,1,63.43464058691177,10.392547589177216,0.0,1.4400000000000002e-10,0.0,0.0,0.0,1.4400000000000002e-10,0.0,0.0,0.0,1.0,2
2025/05/06 15:20:15.312816663,1746537615,308611206,mA1/gps,0,1,63.434640564294895,10.392547579613474,0.0,1.4400000000000002e-10,0.0,0.0,0.0,1.4400000000000002e-10,0.0,0.0,0.0,1.0,2
2025/05/06 15:20:15.363195610,1746537615,360077359,mA1/gps,0,1,63.434640539023874,10.392547567705487,0.0,1.4400000000000002e-10,0.0,0.0,0.0,1.4400000000000002e-10,0.0,0.0,0.0,1.0,2
2025/05/06 15:20:15.415905419,1746537615,412482249,mA1/gps,0,1,63.43464051535216,10.392547555415078,0.0,1.4400000000000002e-10,0.0,0.0,0.0,1.4400000000000002e-10,0.0,0.0,0.0,1.0,2
2025/05/06 15:20:15.465236447,1746537615,462661560,mA1/gps,0,1,63.43464049237969,10.392547544328165,0.0,1.4400000000000002e-10,0.0,0.0,0.0,1.4400000000000002e-10,0.0,0.0,0.0,1.0,2
2025/05/06 15:20:15.516020974,1746537615,512589180,mA1/gps,0,1,63.43464046902731,10.392547532437044,0.0,1.4400000000000002e-10,0.0,0.0,0.0,1.4400000000000002e-10,0.0,0.0,0.0,1.0,2
2025/05/06 15:20:15.566652596,1746537615,564428260,mA1/gps,0,1,63.43464044526075,10.39254752028997,0.0,1.4400000000000002e-10,0.0,0.0,0.0,1.4400000000000002e-10,0.0,0.0,0.0,1.0,2
2025/05/06 15:20:15.615247494,1746537615,613853197,mA1/gps,0,1,63.434640421372954,10.392547508119003,0.0,1.4400000000000002e-10,0.0,0.0,0.0,1.4400000000000002e-10,0.0,0.0,0.0,1.0,2
2025/05/06 15:20:15.672330557,1746537615,667995213,mA1/gps,0,1,63.43464039925254,10.392547488687404,0.0,1.4400000000000002e-10,0.0,0.0,0.0,1.4400000000000002e-10,0.0,0.0,0.0,1.0,2
2025/05/06 15:20:15.709252893,1746537615,707916142,mA1/gps,0,1,63.43464037789693,10.392547467849615,0.0,1.4400000000000002e-10,0.0,0.0,0.0,1.4400000000000002e-10,0.0,0.0,0.0,1.0,2
2025/05/06 15:20:15.762721054,1746537615,760819422,mA1/gps,0,1,63.43464035557972,10.392547449695483,0.0,1.4400000000000002e-10,0.0,0.0,0.0,1.4400000000000002e-10,0.0,0.0,0.0,1.0,2
2025/05/06 15:20:15.812933655,1746537615,809171674,mA1/gps,0,1,63.434640334048794,10.392547431081798,0.0,1.4400000000000002e-10,0.0,0.0,0.0,1.4400000000000002e-10,0.0,0.0,0.0,1.0,2
2025/05/06 15:20:15.861703037,1746537615,859911087,mA1/gps,0,1,63.4346403134764,10.392547417724373,0.0,1.4400000000000002e-10,0.0,0.0,0.0,1.4400000000000002e-10,0.0,0.0,0.0,1.0,2
2025/05/06 15:20:15.911627708,1746537615,909551596,mA1/gps,0,1,63.434640293093366,10.392547407391785,0.0,1.4400000000000002e-10,0.0,0.0,0.0,1.4400000000000002e-10,0.0,0.0,0.0,1.0,2
2025/05/06 15:20:15.963857791,1746537615,961296783,mA1/gps,0,1,63.4346402717405,10.39254740073872,0.0,1.4400000000000002e-10,0.0,0.0,0.0,1.4400000000000002e-10,0.0,0.0,0.0,1.0,2
2025/05/06 15:20:16.16801790,1746537616,14510025,mA1/gps,0,1,63.43464025140811,10.392547398879188,0.0,1.4400000000000002e-10,0.0,0.0,0.0,1.4400000000000002e-10,0.0,0.0,0.0,1.0,2
2025/05/06 15:20:16.65710705,1746537616,63800351,mA1/gps,0,1,63.43464023031368,10.392547399927489,0.0,1.4400000000000002e-10,0.0,0.0,0.0,1.4400000000000002e-10,0.0,0.0,0.0,1.0,2
2025/05/06 15:20:16.115666904,1746537616,113937065,mA1/gps,0,1,63.434640211340124,10.392547402267006,0.0,1.4400000000000002e-10,0.0,0.0,0.0,1.4400000000000002e-10,0.0,0.0,0.0,1.0,2
2025/05/06 15:20:16.167454330,1746537616,165206175,mA1/gps,0,1,63.434640191027114,10.392547405722617,0.0,1.4400000000000002e-10,0.0,0.0,0.0,1.4400000000000002e-10,0.0,0.0,0.0,1.0,2
2025/05/06 15:20:16.215415974,1746537616,205768364,mA1/gps,0,1,63.43464017253947,10.392547412799617,0.0,1.4400000000000002e-10,0.0,0.0,0.0,1.4400000000000002e-10,0.0,0.0,0.0,1.0,2
2025/05/06 15:20:16.260003575,1746537616,256907863,mA1/gps,0,1,63.434640154307196,10.392547426306354,0.0,1.4400000000000002e-10,0.0,0.0,0.0,1.4400000000000002e-10,0.0,0.0,0.0,1.0,2
2025/05/06 15:20:16.308048472,1746537616,307351913,mA1/gps,0,1,63.4346401366465,10.39254743909974,0.0,1.4400000000000002e-10,0.0,0.0,0.0,1.4400000000000002e-10,0.0,0.0,0.0,1.0,2
2025/05/06 15:20:16.360522048,1746537616,358332061,mA1/gps,0,1,63.43464012081235,10.392547454978597,0.0,1.4400000000000002e-10,0.0,0.0,0.0,1.4400000000000002e-10,0.0,0.0,0.0,1.0,2
2025/05/06 15:20:16.411362213,1746537616,408298475,mA1/gps,0,1,63.434640105340485,10.39254747194614,0.0,1.4400000000000002e-10,0.0,0.0,0.0,1.4400000000000002e-10,0.0,0.0,0.0,1.0,2
2025/05/06 15:20:16.460901448,1746537616,459048486,mA1/gps,0,1,63.43464009040661,10.392547491748559,0.0,1.4400000000000002e-10,0.0,0.0,0.0,1.4400000000000002e-10,0.0,0.0,0.0,1.0,2
2025/05/06 15:20:16.510749773,1746537616,509346616,mA1/gps,0,1,63.43464007798088,10.392547516322855,0.0,1.4400000000000002e-10,0.0,0.0,0.0,1.4400000000000002e-10,0.0,0.0,0.0,1.0,2
2025/05/06 15:20:16.564699504,1746537616,560183538,mA1/gps,0,1,63.434640064360835,10.392547535918673,0.0,1.4400000000000002e-10,0.0,0.0,0.0,1.4400000000000002e-10,0.0,0.0,0.0,1.0,2
2025/05/06 15:20:16.614136874,1746537616,611457019,mA1/gps,0,1,63.43464005314337,10.392547553236206,0.0,1.4400000000000002e-10,0.0,0.0,0.0,1.4400000000000002e-10,0.0,0.0,0.0,1.0,2
2025/05/06 15:20:16.665382265,1746537616,663459487,mA1/gps,0,1,63.43464004337116,10.392547571512333,0.0,1.4400000000000002e-10,0.0,0.0,0.0,1.4400000000000002e-10,0.0,0.0,0.0,1.0,2
2025/05/06 15:20:16.716279830,1746537616,713326111,mA1/gps,0,1,63.43464003551479,10.392547592111185,0.0,1.4400000000000002e-10,0.0,0.0,0.0,1.4400000000000002e-10,0.0,0.0,0.0,1.0,2
2025/05/06 15:20:16.767828579,1746537616,764562084,mA1/gps,0,1,63.43464002910411,10.392547613196404,0.0,1.4400000000000002e-10,0.0,0.0,0.0,1.4400000000000002e-10,0.0,0.0,0.0,1.0,2
2025/05/06 15:20:16.808451717,1746537616,805416454,mA1/gps,0,1,63.43464002329931,10.392547632221333,0.0,1.4400000000000002e-10,0.0,0.0,0.0,1.4400000000000002e-10,0.0,0.0,0.0,1.0,2
2025/05/06 15:20:16.858307515,1746537616,856364183,mA1/gps,0,1,63.434640016549736,10.39254764551657,0.0,1.4400000000000002e-10,0.0,0.0,0.0,1.4400000000000002e-10,0.0,0.0,0.0,1.0,2
2025/05/06 15:20:16.907661479,1746537616,906101503,mA1/gps,0,1,63.4346400135099,10.392547663525635,0.0,1.4400000000000002e-10,0.0,0.0,0.0,1.4400000000000002e-10,0.0,0.0,0.0,1.0,2
2025/05/06 15:20:16.965910838,1746537616,958570905,mA1/gps,0,1,63.43464001166327,10.392547679345952,0.0,1.4400000000000002e-10,0.0,0.0,0.0,1.4400000000000002e-10,0.0,0.0,0.0,1.0,2
2025/05/06 15:20:17.10719120,1746537617,8231354,mA1/gps,0,1,63.43464000650821,10.3925476931912,0.0,1.4400000000000002e-10,0.0,0.0,0.0,1.4400000000000002e-10,0.0,0.0,0.0,1.0,2
2025/05/06 15:20:17.61129079,1746537617,59449113,mA1/gps,0,1,63.434640007776494,10.392547713527328,0.0,1.4400000000000002e-10,0.0,0.0,0.0,1.4400000000000002e-10,0.0,0.0,0.0,1.0,2
2025/05/06 15:20:17.110104659,1746537617,109029879,mA1/gps,0,1,63.434640005628296,10.392547730640118,0.0,1.4400000000000002e-10,0.0,0.0,0.0,1.4400000000000002e-10,0.0,0.0,0.0,1.0,2
2025/05/06 15:20:17.162445857,1746537617,160319528,mA1/gps,0,1,63.43464000272061,10.392547744828502,0.0,1.4400000000000002e-10,0.0,0.0,0.0,1.4400000000000002e-10,0.0,0.0,0.0,1.0,2
2025/05/06 15:20:17.215755222,1746537617,212520871,mA1/gps,0,1,63.43464000069764,10.39254775583292,0.0,1.4400000000000002e-10,0.0,0.0,0.0,1.4400000000000002e-10,0.0,0.0,0.0,1.0,2
2025/05/06 15:20:17.266303211,1746537617,263645682,mA1/gps,0,1,63.434639998261126,10.392547764851212,0.0,1.4400000000000002e-10,0.0,0.0,0.0,1.4400000000000002e-10,0.0,0.0,0.0,1.0,2
2025/05/06 15:20:17.315078472,1746537617,313159253,mA1/gps,0,1,63.43463999432844,10.392547775868154,0.0,1.4400000000000002e-10,0.0,0.0,0.0,1.4400000000000002e-10,0.0,0.0,0.0,1.0,2
2025/05/06 15:20:17.366283624,1746537617,364775252,mA1/gps,0,1,63.43463999105613,10.392547790869555,0.0,1.4400000000000002e-10,0.0,0.0,0.0,1.4400000000000002e-10,0.0,0.0,0.0,1.0,2
2025/05/06 15:20:17.406970401,1746537617,404539450,mA1/gps,0,1,63.43463998706902,10.392547804271588,0.0,1.4400000000000002e-10,0.0,0.0,0.0,1.4400000000000002e-10,0.0,0.0,0.0,1.0,2
2025/05/06 15:20:17.458998603,1746537617,457002576,mA1/gps,0,1,63.43463998341731,10.392547822468865,0.0,1.4400000000000002e-10,0.0,0.0,0.0,1.4400000000000002e-10,0.0,0.0,0.0,1.0,2
2025/05/06 15:20:17.510469591,1746537617,505969130,mA1/gps,0,1,63.434639979062815,10.392547839680688,0.0,1.4400000000000002e-10,0.0,0.0,0.0,1.4400000000000002e-10,0.0,0.0,0.0,1.0,2
2025/05/06 15:20:17.561420836,1746537617,557109343,mA1/gps,0,1,63.43463997357982,10.39254785826401,0.0,1.4400000000000002e-10,0.0,0.0,0.0,1.4400000000000002e-10,0.0,0.0,0.0,1.0,2
2025/05/06 15:20:17.610794656,1746537617,609552490,mA1/gps,0,1,63.434639966716844,10.392547877450715,0.0,1.4400000000000002e-10,0.0,0.0,0.0,1.4400000000000002e-10,0.0,0.0,0.0,1.0,2
2025/05/06 15:20:17.662703101,1746537617,660825309,mA1/gps,0,1,63.434639959107386,10.392547899744162,0.0,1.4400000000000002e-10,0.0,0.0,0.0,1.4400000000000002e-10,0.0,0.0,0.0,1.0,2
2025/05/06 15:20:17.711670429,1746537617,710504657,mA1/gps,0,1,63.434639952210915,10.392547923176563,0.0,1.4400000000000002e-10,0.0,0.0,0.0,1.4400000000000002e-10,0.0,0.0,0.0,1.0,2
2025/05/06 15:20:17.765287213,1746537617,762402754,mA1/gps,0,1,63.434639945106476,10.392547947850408,0.0,1.4400000000000002e-10,0.0,0.0,0.0,1.4400000000000002e-10,0.0,0.0,0.0,1.0,2
2025/05/06 15:20:17.819656411,1746537617,813653922,mA1/gps,0,1,63.434639937118675,10.392547974163882,0.0,1.4400000000000002e-10,0.0,0.0,0.0,1.4400000000000002e-10,0.0,0.0,0.0,1.0,2
2025/05/06 15:20:17.867681222,1746537617,865316803,mA1/gps,0,1,63.43463992781358,10.392547999086927,0.0,1.4400000000000002e-10,0.0,0.0,0.0,1.4400000000000002e-10,0.0,0.0,0.0,1.0,2
2025/05/06 15:20:17.910061499,1746537617,905086983,mA1/gps,0,1,63.43463991843188,10.392548020487531,0.0,1.4400000000000002e-10,0.0,0.0,0.0,1.4400000000000002e-10,0.0,0.0,0.0,1.0,2
2025/05/06 15:20:17.961189125,1746537617,956264776,mA1/gps,0,1,63.434639907293544,10.392548043629864,0.0,1.4400000000000002e-10,0.0,0.0,0.0,1.4400000000000002e-10,0.0,0.0,0.0,1.0,2
2025/05/06 15:20:18.9116563,1746537618,6872515,mA1/gps,0,1,63.43463989726295,10.392548064824519,0.0,1.4400000000000002e-10,0.0,0.0,0.0,1.4400000000000002e-10,0.0,0.0,0.0,1.0,2
2025/05/06 15:20:18.59613936,1746537618,57803795,mA1/gps,0,1,63.4346398864551,10.392548086675708,0.0,1.4400000000000002e-10,0.0,0.0,0.0,1.4400000000000002e-10,0.0,0.0,0.0,1.0,2
2025/05/06 15:20:18.109720522,1746537618,107560547,mA1/gps,0,1,63.434639876127804,10.392548110380899,0.0,1.4400000000000002e-10,0.0,0.0,0.0,1.4400000000000002e-10,0.0,0.0,0.0,1.0,2
2025/05/06 15:20:18.160424263,1746537618,158513960,mA1/gps,0,1,63.434639866727814,10.392548130233358,0.0,1.4400000000000002e-10,0.0,0.0,0.0,1.4400000000000002e-10,0.0,0.0,0.0,1.0,2
2025/05/06 15:20:18.213454620,1746537618,209080540,mA1/gps,0,1,63.434639856024305,10.39254815060919,0.0,1.4400000000000002e-10,0.0,0.0,0.0,1.4400000000000002e-10,0.0,0.0,0.0,1.0,2
2025/05/06 15:20:18.261277189,1746537618,259427069,mA1/gps,0,1,63.434639846415244,10.392548171657934,0.0,1.4400000000000002e-10,0.0,0.0,0.0,1.4400000000000002e-10,0.0,0.0,0.0,1.0,2
2025/05/06 15:20:18.313956781,1746537618,309270801,mA1/gps,0,1,63.434639837646934,10.392548194058278,0.0,1.4400000000000002e-10,0.0,0.0,0.0,1.4400000000000002e-10,0.0,0.0,0.0,1.0,2
2025/05/06 15:20:18.362223079,1746537618,360384725,mA1/gps,0,1,63.43463982834707,10.392548214630423,0.0,1.4400000000000002e-10,0.0,0.0,0.0,1.4400000000000002e-10,0.0,0.0,0.0,1.0,2
2025/05/06 15:20:18.415608204,1746537618,411177413,mA1/gps,0,1,63.43463981964914,10.392548232438886,0.0,1.4400000000000002e-10,0.0,0.0,0.0,1.4400000000000002e-10,0.0,0.0,0.0,1.0,2
2025/05/06 15:20:18.465680486,1746537618,462193338,mA1/gps,0,1,63.43463981010201,10.392548249277066,0.0,1.4400000000000002e-10,0.0,0.0,0.0,1.4400000000000002e-10,0.0,0.0,0.0,1.0,2
2025/05/06 15:20:18.513250450,1746537618,512001986,mA1/gps,0,1,63.43463980232901,10.392548267495176,0.0,1.4400000000000002e-10,0.0,0.0,0.0,1.4400000000000002e-10,0.0,0.0,0.0,1.0,2
2025/05/06 15:20:18.567886629,1746537618,562918848,mA1/gps,0,1,63.4346397936816,10.39254828475708,0.0,1.4400000000000002e-10,0.0,0.0,0.0,1.4400000000000002e-10,0.0,0.0,0.0,1.0,2
2025/05/06 15:20:18.615482335,1746537618,613284084,mA1/gps,0,1,63.4346397846944,10.392548298680731,0.0,1.4400000000000002e-10,0.0,0.0,0.0,1.4400000000000002e-10,0.0,0.0,0.0,1.0,2
2025/05/06 15:20:18.666286138,1746537618,664040527,mA1/gps,0,1,63.43463977739908,10.392548313696311,0.0,1.4400000000000002e-10,0.0,0.0,0.0,1.4400000000000002e-10,0.0,0.0,0.0,1.0,2
2025/05/06 15:20:18.716220757,1746537618,714055766,mA1/gps,0,1,63.43463976939384,10.39254832934469,0.0,1.4400000000000002e-10,0.0,0.0,0.0,1.4400000000000002e-10,0.0,0.0,0.0,1.0,2
2025/05/06 15:20:18.769323514,1746537618,765329923,mA1/gps,0,1,63.43463976252024,10.39254834688224,0.0,1.4400000000000002e-10,0.0,0.0,0.0,1.4400000000000002e-10,0.0,0.0,0.0,1.0,2
2025/05/06 15:20:18.810816012,1746537618,806544125,mA1/gps,0,1,63.43463975441539,10.39254836157691,0.0,1.4400000000000002e-10,0.0,0.0,0.0,1.4400000000000002e-10,0.0,0.0,0.0,1.0,2
2025/05/06 15:20:18.857636242,1746537618,856104058,mA1/gps,0,1,63.434639746404244,10.39254837639031,0.0,1.4400000000000002e-10,0.0,0.0,0.0,1.4400000000000002e-10,0.0,0.0,0.0,1.0,2
2025/05/06 15:20:18.907525008,1746537618,905966451,mA1/gps,0,1,63.43463974010479,10.392548392182007,0.0,1.4400000000000002e-10,0.0,0.0,0.0,1.4400000000000002e-10,0.0,0.0,0.0,1.0,2
2025/05/06 15:20:18.961245271,1746537618,959130073,mA1/gps,0,1,63.434639733377004,10.392548407430336,0.0,1.4400000000000002e-10,0.0,0.0,0.0,1.4400000000000002e-10,0.0,0.0,0.0,1.0,2
2025/05/06 15:20:19.11519393,1746537619,8751978,mA1/gps,0,1,63.4346397251778,10.392548422357628,0.0,1.4400000000000002e-10,0.0,0.0,0.0,1.4400000000000002e-10,0.0,0.0,0.0,1.0,2
2025/05/06 15:20:19.59498358,1746537619,58661384,mA1/gps,0,1,63.4346397174612,10.392548436025786,0.0,1.4400000000000002e-10,0.0,0.0,0.0,1.4400000000000002e-10,0.0,0.0,0.0,1.0,2
2025/05/06 15:20:19.109994436,1746537619,108662424,mA1/gps,0,1,63.43463971043996,10.392548452686622,0.0,1.4400000000000002e-10,0.0,0.0,0.0,1.4400000000000002e-10,0.0,0.0,0.0,1.0,2
2025/05/06 15:20:19.160443481,1746537619,159638106,mA1/gps,0,1,63.434639703006475,10.392548470011842,0.0,1.4400000000000002e-10,0.0,0.0,0.0,1.4400000000000002e-10,0.0,0.0,0.0,1.0,2
2025/05/06 15:20:19.216479294,1746537619,212668314,mA1/gps,0,1,63.434639695586505,10.392548485898152,0.0,1.4400000000000002e-10,0.0,0.0,0.0,1.4400000000000002e-10,0.0,0.0,0.0,1.0,2
2025/05/06 15:20:19.259882629,1746537619,258769890,mA1/gps,0,1,63.434639688895096,10.39254850179618,0.0,1.4400000000000002e-10,0.0,0.0,0.0,1.4400000000000002e-10,0.0,0.0,0.0,1.0,2
2025/05/06 15:20:19.311287838,1746537619,308632041,mA1/gps,0,1,63.43463968192566,10.392548519390466,0.0,1.4400000000000002e-10,0.0,0.0,0.0,1.4400000000000002e-10,0.0,0.0,0.0,1.0,2
2025/05/06 15:20:19.361738303,1746537619,359553622,mA1/gps,0,1,63.43463967404322,10.392548535995369,0.0,1.4400000000000002e-10,0.0,0.0,0.0,1.4400000000000002e-10,0.0,0.0,0.0,1.0,2
2025/05/06 15:20:19.414731449,1746537619,410952026,mA1/gps,0,1,63.43463966585034,10.39254855391536,0.0,1.4400000000000002e-10,0.0,0.0,0.0,1.4400000000000002e-10,0.0,0.0,0.0,1.0,2
2025/05/06 15:20:19.466373931,1746537619,463355387,mA1/gps,0,1,63.434639658957785,10.39254857340355,0.0,1.4400000000000002e-10,0.0,0.0,0.0,1.4400000000000002e-10,0.0,0.0,0.0,1.0,2
2025/05/06 15:20:19.515283612,1746537619,513082526,mA1/gps,0,1,63.43463965181096,10.392548592092792,0.0,1.4400000000000002e-10,0.0,0.0,0.0,1.4400000000000002e-10,0.0,0.0,0.0,1.0,2
2025/05/06 15:20:19.566636117,1746537619,565059198,mA1/gps,0,1,63.43463964356151,10.392548611390467,0.0,1.4400000000000002e-10,0.0,0.0,0.0,1.4400000000000002e-10,0.0,0.0,0.0,1.0,2
2025/05/06 15:20:19.616403919,1746537619,613766910,mA1/gps,0,1,63.43463963457759,10.392548630496602,0.0,1.4400000000000002e-10,0.0,0.0,0.0,1.4400000000000002e-10,0.0,0.0,0.0,1.0,2
2025/05/06 15:20:19.658506325,1746537619,657506194,mA1/gps,0,1,63.4346396272275,10.3925486501066,0.0,1.4400000000000002e-10,0.0,0.0,0.0,1.4400000000000002e-10,0.0,0.0,0.0,1.0,2
2025/05/06 15:20:19.707256486,1746537619,704889045,mA1/gps,0,1,63.434639618606404,10.392548667279932,0.0,1.4400000000000002e-10,0.0,0.0,0.0,1.4400000000000002e-10,0.0,0.0,0.0,1.0,2
2025/05/06 15:20:19.758202565,1746537619,756171538,mA1/gps,0,1,63.4346396103543,10.392548682006732,0.0,1.4400000000000002e-10,0.0,0.0,0.0,1.4400000000000002e-10,0.0,0.0,0.0,1.0,2
2025/05/06 15:20:19.810873941,1746537619,807948159,mA1/gps,0,1,63.43463960078498,10.392548695712156,0.0,1.4400000000000002e-10,0.0,0.0,0.0,1.4400000000000002e-10,0.0,0.0,0.0,1.0,2
2025/05/06 15:20:19.857895615,1746537619,856958944,mA1/gps,0,1,63.4346395919193,10.392548709620018,0.0,1.4400000000000002e-10,0.0,0.0,0.0,1.4400000000000002e-10,0.0,0.0,0.0,1.0,2
2025/05/06 15:20:19.908263929,1746537619,906849648,mA1/gps,0,1,63.434639583339404,10.392548724001175,0.0,1.4400000000000002e-10,0.0,0.0,0.0,1.4400000000000002e-10,0.0,0.0,0.0,1.0,2
