time,header_stamp_secs,header_stamp_nsecs,header_frame_id,quaternion_x,quaternion_y,quaternion_z,quaternion_w
2025/05/06 15:20:03.432713366,1746537603,423571457,,4.4465697438175146e-05,-0.0003994871777590594,0.9945503402619109,-0.1042566981911183
2025/05/06 15:20:03.528421089,1746537603,528284237,,4.484480823041147e-05,-0.00039980407892004766,0.9945503400002705,-0.10425669930986727
2025/05/06 15:20:03.625118199,1746537603,623173228,,4.466488548264386e-05,-0.000400170131260759,0.994550339724281,-0.10425670061550785
2025/05/06 15:20:03.732777994,1746537603,726398329,,4.3967283561811694e-05,-0.0004004990357746579,0.9945503394609284,-0.1042567021613113
2025/05/06 15:20:03.824297457,1746537603,822138770,,4.2866763591703735e-05,-0.0004007183440450217,0.9945503392388283,-0.10425670389562887
2025/05/06 15:20:03.935921205,1746537603,935013003,,4.159538220163432e-05,-0.0004007535382407626,0.9945503390889828,-0.10425670570478923
2025/05/06 15:20:04.25167104,1746537604,24611186,,4.0267308797146e-05,-0.00040064051862096037,0.9945503390033152,-0.10425670747778994
2025/05/06 15:20:04.134643880,1746537604,133267546,,3.929037824415296e-05,-0.00040039439668976127,0.9945503389541297,-0.10425670926525177
2025/05/06 15:20:04.232002494,1746537604,230827344,,3.876110730578084e-05,-0.00040006015926374134,0.9945503389274247,-0.10425671100121299
2025/05/06 15:20:04.327118373,1746537604,325407502,,3.879317771901692e-05,-0.0003997285886399084,0.9945503388952184,-0.10425671256830976
2025/05/06 15:20:04.436545373,1746537604,436214599,,3.936054702972221e-05,-0.0003995091529291809,0.9945503388215198,-0.10425671389979749
2025/05/06 15:20:04.534283347,1746537604,519110652,,4.0248234022420405e-05,-0.0003994516525350615,0.9945503386979025,-0.10425671496044929
2025/05/06 15:20:04.728479893,1746537604,726218648,,4.261330739333193e-05,-0.00039969057948276404,0.9945503383328264,-0.10425671658750418
2025/05/06 15:20:04.844756038,1746537604,841358888,,4.379692650097165e-05,-0.0003999299470910082,0.9945503381174966,-0.1042567172331827
2025/05/06 15:20:04.931179490,1746537604,928897848,,4.46386686037705e-05,-0.0004001635282775832,0.9945503379319242,-0.10425671775015594
2025/05/06 15:20:05.331965388,1746537605,20422923,,4.495903048326483e-05,-0.0004003368941555731,0.9945503377853055,-0.10425671834558817
2025/05/06 15:20:05.337751932,1746537605,119115623,,4.472728423676079e-05,-0.000400448513867114,0.9945503376655397,-0.10425671915909696
2025/05/06 15:20:05.346967712,1746537605,224400318,,4.395714488398811e-05,-0.00040047036293254366,0.9945503375830433,-0.10425672018969517
2025/05/06 15:20:05.357481692,1746537605,330426931,,4.2813438168359165e-05,-0.00040038395781067537,0.9945503375387843,-0.10425672141970543
2025/05/06 15:20:05.438046407,1746537605,430390648,,4.1480041261448044e-05,-0.00040020716744035306,0.9945503375224732,-0.10425672279313185
2025/05/06 15:20:05.536079958,1746537605,528823338,,4.022665018630779e-05,-0.00039999126225058945,0.994550337509439,-0.10425672423718313
2025/05/06 15:20:05.642435713,1746537605,631423529,,3.92533207854816e-05,-0.0003997954602040869,0.9945503374752017,-0.1042567256858249
2025/05/06 15:20:05.725494972,1746537605,723508799,,3.866877063894828e-05,-0.000399681389269607,0.9945503374097371,-0.1042567269661362
2025/05/06 15:20:05.825048502,1746537605,824488709,,3.864561769351665e-05,-0.00039966328017125666,0.9945503373098069,-0.10425672799742054
2025/05/06 15:20:05.926415112,1746537605,925513062,,3.9266241196085795e-05,-0.00039975450088650637,0.9945503371647509,-0.10425672879954333
2025/05/06 15:20:06.64128854,1746537606,38845117,,4.034351897085825e-05,-0.00039994234788739074,0.9945503369961955,-0.10425672927572999
2025/05/06 15:20:06.147154290,1746537606,132683729,,4.152230189506672e-05,-0.00040016687370699686,0.9945503368530779,-0.10425672931663031
2025/05/06 15:20:06.235666075,1746537606,230152179,,4.280844438720454e-05,-0.0004003384443438336,0.9945503367403495,-0.10425672921315231
2025/05/06 15:20:06.333452310,1746537606,325770605,,4.3980420620619493e-05,-0.0004004203038420447,0.9945503366683098,-0.10425672909819622
2025/05/06 15:20:06.462412779,1746537606,426009634,,4.475681212087714e-05,-0.00040039736180220124,0.994550336643638,-0.10425672909125186
2025/05/06 15:20:06.525194526,1746537606,523799509,,4.502136923639326e-05,-0.0004002760343139741,0.9945503366575928,-0.10425672931010907
2025/05/06 15:20:06.649443233,1746537606,632122014,,4.4699595050415e-05,-0.0004000854923338329,0.9945503366989341,-0.10425672978557358
2025/05/06 15:20:06.831353864,1746537606,726816287,,4.387133967711629e-05,-0.0003998957761708552,0.9945503367320365,-0.10425673054947786
2025/05/06 15:20:06.883419523,1746537606,824501789,,4.2639291526241464e-05,-0.0003997596733513216,0.9945503367315287,-0.10425673158744929
2025/05/06 15:20:06.957029480,1746537606,921286372,,4.129306988652313e-05,-0.00039970834004183456,0.9945503366896882,-0.1042567327252936
2025/05/06 15:20:07.101678609,1746537607,22796447,,4.004351661364604e-05,-0.00039974196248656837,0.9945503366148636,-0.10425673379759066
2025/05/06 15:20:07.173122081,1746537607,122661350,,3.8972531265108815e-05,-0.0003998682744823288,0.9945503365165145,-0.10425673465725233
2025/05/06 15:20:07.235955090,1746537607,233502334,,3.8506865505594135e-05,-0.00040002650335808416,0.9945503363952157,-0.10425673538041084
2025/05/06 15:20:07.381418113,1746537607,329164472,,3.8685327512464434e-05,-0.0004002168162986553,0.9945503362607256,-0.10425673586691246
2025/05/06 15:20:07.514005108,1746537607,422188106,,3.9423410366903915e-05,-0.0004003903909351735,0.9945503361432767,-0.10425673604436672
2025/05/06 15:20:07.603914892,1746537607,531308368,,4.0559560613255345e-05,-0.0004001177644953817,0.9945503364604604,-0.10425673362944789
2025/05/06 15:20:07.643752624,1746537607,621828742,,4.157519574791212e-05,-0.00039688995195653995,0.9945503400149743,-0.10425671165909724
2025/05/06 15:20:07.779436676,1746537607,730083468,,4.228830319816996e-05,-0.0003911339832794567,0.9945503468516037,-0.10425666790791667
2025/05/06 15:20:07.842373970,1746537607,830288347,,4.2590982510074164e-05,-0.0003843331567059236,0.9945503562739151,-0.10425660319356922
2025/05/06 15:20:07.935049393,1746537607,928013004,,4.234220376896504e-05,-0.0003781580124248779,0.9945503675786295,-0.10425651803541497
2025/05/06 15:20:08.121036099,1746537608,31192415,,4.190115363423301e-05,-0.00037406824118621664,0.9945503801661366,-0.10425641288974591
2025/05/06 15:20:08.230930929,1746537608,136541490,,4.1301712332740885e-05,-0.00037309826302493943,0.9945503936406177,-0.10425628806526405
2025/05/06 15:20:08.292530333,1746537608,221266237,,4.0624316908010036e-05,-0.00037550701848446577,0.9945504078619599,-0.10425614401920547
2025/05/06 15:20:08.370523038,1746537608,326401793,,3.985955107729506e-05,-0.00037940301063991473,0.9945504227901437,-0.10425598780174658
2025/05/06 15:20:08.434197096,1746537608,423668722,,3.731502134446334e-05,-0.0003677336235106628,0.9945504366518093,-0.1042558983236286
2025/05/06 15:20:08.638543493,1746537608,525971699,,3.314362737879471e-05,-0.00033899836081596345,0.9945504471284276,-0.10425589718695108
2025/05/06 15:20:08.747336009,1746537608,627255792,,2.8157927936267988e-05,-0.0003009034711511294,0.9945504505600801,-0.10425598282580263
2025/05/06 15:20:08.801944534,1746537608,725555012,,2.3789981431336623e-05,-0.0002631253781577886,0.9945504435330991,-0.1042561531382598
2025/05/06 15:20:08.847860985,1746537608,828096396,,2.105887480590742e-05,-0.00023508292358315086,0.9945504241929113,-0.10425640522405996
2025/05/06 15:20:08.932386998,1746537608,927866886,,2.0630393572190287e-05,-0.000223679146939196,0.9945503922015957,-0.10425673557942651
2025/05/06 15:20:09.21072546,1746537609,20379687,,2.2611558071067684e-05,-0.0002317757312854849,0.9945503478760596,-0.10425714032303506
2025/05/06 15:20:09.128195726,1746537609,122951062,,2.657302150120466e-05,-0.0002576186642109612,0.9945502916025468,-0.1042576155481575
2025/05/06 15:20:09.223714145,1746537609,221185832,,3.179662926445321e-05,-0.0002953560055568072,0.9945502241029812,-0.1042581579086944
2025/05/06 15:20:09.328496034,1746537609,325967664,,3.718473092046477e-05,-0.0003365330259215739,0.9945501472040039,-0.10425876490402394
2025/05/06 15:20:09.420816644,1746537609,417854181,,4.1601961785964697e-05,-0.0003726543705299182,0.9945500641429453,-0.10425943272078693
2025/05/06 15:20:09.527805706,1746537609,525562741,,4.4542491696007594e-05,-0.0003998796960046225,0.9945499790340979,-0.10426014250647579
2025/05/06 15:20:09.629593483,1746537609,627878342,,4.5456047175191345e-05,-0.0004133288658166866,0.9945498950370214,-0.10426089091719075
2025/05/06 15:20:09.730145263,1746537609,728934895,,4.421347219649868e-05,-0.00041061254118326235,0.9945498136506364,-0.10426167853048576
2025/05/06 15:20:09.825450177,1746537609,823581551,,4.09888257623793e-05,-0.00039311541159971317,0.9945497341481766,-0.10426250565750189
2025/05/06 15:20:09.928225668,1746537609,923803325,,3.6777838055843245e-05,-0.00036561703767883227,0.994549653957055,-0.10426337221418985
2025/05/06 15:20:10.18889559,1746537610,17720581,,3.2445670802333045e-05,-0.0003350757563914614,0.9945495699750012,-0.10426427736313243
2025/05/06 15:20:10.121578399,1746537610,119579370,,2.8917710105741757e-05,-0.00030894449383634174,0.9945494797539479,-0.10426521969581916
2025/05/06 15:20:10.222846130,1746537610,220986479,,2.7082678393499334e-05,-0.00029345475564312946,0.9945493820010867,-0.10426619736085002
2025/05/06 15:20:10.324704714,1746537610,321242592,,2.7335144625254757e-05,-0.00029221995226880675,0.9945492763945756,-0.10426720809207182
2025/05/06 15:20:10.426334700,1746537610,423119985,,2.954036297713273e-05,-0.00030629288240368994,0.9945491634368026,-0.10426824453875476
2025/05/06 15:20:10.524481574,1746537610,523577500,,3.442521650496173e-05,-0.0003421942134819792,0.9945490467556062,-0.10426924434146354
2025/05/06 15:20:10.628327996,1746537610,624577836,,4.136146755251742e-05,-0.0003938679330616863,0.994548928280864,-0.10427018947266264
2025/05/06 15:20:10.726085451,1746537610,723327378,,4.868177042495017e-05,-0.0004488118323707826,0.99454881123367,-0.10427108070657985
2025/05/06 15:20:10.842317342,1746537610,839488765,,5.469471820690602e-05,-0.0004940782788277472,0.9945487014115799,-0.10427192055238056
2025/05/06 15:20:10.929593913,1746537610,925762218,,5.810254381498515e-05,-0.0005192660327598124,0.9945486053220591,-0.10427271281993492
2025/05/06 15:20:11.22935444,1746537611,21249490,,5.817151907822757e-05,-0.0005189311994855943,0.9945485269709828,-0.10427346175481396
2025/05/06 15:20:11.123285188,1746537611,121744751,,5.380957797849491e-05,-0.0004942063640844625,0.9945484631100051,-0.1042741933084395
2025/05/06 15:20:11.223214315,1746537611,223107421,,2.566008533167794e-05,-0.00045906616906556705,0.9945483785791724,-0.1042751708958156
2025/05/06 15:20:11.326338142,1746537611,325781432,,-1.1542500484018553e-05,-0.0004231816941646896,0.9945482553826258,-0.10427650022608073
2025/05/06 15:20:11.429332323,1746537611,425505086,,-6.65066383950121e-05,-0.0003822681760030992,0.9945480981037622,-0.1042781377187859
2025/05/06 15:20:11.521269301,1746537611,520852525,,-0.000124446645838196,-0.00033949602188192976,0.9945479066525084,-0.10428005863345743
2025/05/06 15:20:11.626602702,1746537611,625235488,,-0.00016556798517938803,-0.00030340463171442243,0.9945476830595865,-0.10428224515074583
2025/05/06 15:20:11.726150792,1746537611,724617334,,-0.000185267853983531,-0.00028294650059732744,0.994547432676922,-0.10428465741825836
2025/05/06 15:20:11.826236659,1746537611,825241435,,-0.00018915360343265864,-0.0002831943213163774,0.9945471605722562,-0.10428724475962381
2025/05/06 15:20:11.917644608,1746537611,917033257,,-0.00017982682039320436,-0.0003039820205826129,0.994546875808056,-0.10428991838946458
2025/05/06 15:20:12.28370871,1746537612,22917156,,-0.00014097857143411202,-0.00033755526805047934,0.9945465890009935,-0.10429260993940301
2025/05/06 15:20:12.123659898,1746537612,122207324,,-7.78570749782061e-05,-0.00037502186141027304,0.9945463081609308,-0.10429522625864532
2025/05/06 15:20:12.223000109,1746537612,221139199,,-2.3774324669666226e-05,-0.00041013456976743477,0.9945460375338622,-0.10429770107777993
2025/05/06 15:20:12.328342424,1746537612,326352564,,3.350759921837606e-05,-0.00043214368713225833,0.9945457866539648,-0.10430000181170145
2025/05/06 15:20:12.417937785,1746537612,416070424,,7.006065983015104e-05,-0.0004451003987181465,0.9945455602838389,-0.10430208769168516
2025/05/06 15:20:12.523998274,1746537612,521639402,,8.06349799319478e-05,-0.0004489791995679281,0.994545362859681,-0.1043039458984373
2025/05/06 15:20:12.621474606,1746537612,620187987,,7.525648086003195e-05,-0.00044184988848436536,0.9945452061057932,-0.10430547501029676
2025/05/06 15:20:12.729814850,1746537612,725741595,,4.3836273728352564e-05,-0.0004263220331835058,0.9945451053534592,-0.1043065182305592
2025/05/06 15:20:12.825178545,1746537612,823746910,,7.842203118093283e-07,-0.0004060531571631703,0.9945450716532966,-0.10430692963728463
2025/05/06 15:20:12.924898243,1746537612,924640055,,-4.630507597509205e-05,-0.00038531534879731845,0.9945451012847373,-0.10430671550026792
2025/05/06 15:20:13.17629492,1746537613,17129126,,-9.676465493270721e-05,-0.0003697405226069215,0.9945451942699997,-0.104305850665225
2025/05/06 15:20:13.124168502,1746537613,121958518,,-0.0001349700148606881,-0.0003623735500866506,0.9945453475855145,-0.1043043722214628
2025/05/06 15:20:13.224396663,1746537613,222571261,,-0.0001594551287362446,-0.00036567004471198386,0.994545559187888,-0.10430230850336711
2025/05/06 15:20:13.326598044,1746537613,324918598,,-0.00016220650114542399,-0.00037897793146645346,0.9945458351206135,-0.10429962564180258
2025/05/06 15:20:13.418331788,1746537613,417165966,,-0.00013695338232607788,-0.00039835333378553784,0.9945461672743631,-0.10429642236561741
2025/05/06 15:20:13.520255901,1746537613,517679156,,-9.718432047394119e-05,-0.00043200071173134165,0.9945464614664071,-0.10429352767665542
2025/05/06 15:20:13.624205657,1746537613,618903926,,-5.124672447282769e-05,-0.0004759515925387376,0.994546688535355,-0.10429120369050507
2025/05/06 15:20:13.724876848,1746537613,721875745,,-8.273386251586367e-07,-0.0005183368231256447,0.9945468496387202,-0.10428947789662264
2025/05/06 15:20:13.820842363,1746537613,819986220,,3.5887562608719205e-05,-0.00054946882425712,0.9945469579000613,-0.10428827991595112
2025/05/06 15:20:13.925213396,1746537613,923585954,,6.891536372731637e-05,-0.0005589573161204003,0.9945470229480509,-0.10428759256287624
2025/05/06 15:20:14.19054931,1746537614,18642852,,6.270974111922954e-05,-0.0005479497281115242,0.9945470465265914,-0.10428743003745952
2025/05/06 15:20:14.121003895,1746537614,118104290,,3.944772037462486e-05,-0.0005167584272129607,0.9945470283112423,-0.10428777436441208
2025/05/06 15:20:14.219226209,1746537614,218625719,,-1.0713608304853103e-06,-0.0004734322566674568,0.9945469616657269,-0.10428862307184743
2025/05/06 15:20:14.320286951,1746537614,319492411,,-4.425348092900599e-05,-0.00042802945285514847,0.9945468398042786,-0.10428997203825346
2025/05/06 15:20:14.421930756,1746537614,421573268,,-9.15696702797567e-05,-0.00039396155302412987,0.9945466355080239,-0.10429202370728069
2025/05/06 15:20:14.525363343,1746537614,523568672,,-0.00013848876345406584,-0.00038118093597776763,0.9945463422553172,-0.10429481592354417
2025/05/06 15:20:14.623868136,1746537614,623412138,,-0.0001608145392875743,-0.0003900105165788377,0.9945459630548183,-0.10429836720603444
2025/05/06 15:20:14.727687423,1746537614,726141769,,-0.00016309332009307136,-0.00041801186567279997,0.9945455012707975,-0.104302658492808
2025/05/06 15:20:14.819726767,1746537614,818652758,,-0.0001546156948520046,-0.0004586747485375628,0.9945449649760907,-0.1043076140661292
2025/05/06 15:20:14.922700837,1746537614,921031783,,-0.00013389999665278446,-0.0005011967327769066,0.9945443645943041,-0.10431317139430571
2025/05/06 15:20:15.25041588,1746537615,23812027,,-8.541136674311615e-05,-0.0005325394909348705,0.9945437137485673,-0.10431927218782173
2025/05/06 15:20:15.129820785,1746537615,128928226,,-4.5400161589748024e-05,-0.0005466420620611226,0.9945430218159077,-0.10432582076631124
2025/05/06 15:20:15.219731058,1746537615,219416984,,-1.0870818711981859e-05,-0.0005393467487545332,0.9945423012131378,-0.1043327373578696
2025/05/06 15:20:15.323728259,1746537615,322419880,,5.120193221017366e-06,-0.0005128779778791676,0.9945415554178084,-0.10433998024290425
2025/05/06 15:20:15.424803403,1746537615,423251327,,2.2607377798491786e-05,-0.00046792671137779133,0.9945408048005643,-0.10434734361805818
2025/05/06 15:20:15.526533798,1746537615,524868925,,7.342299027745561e-06,-0.000417527905960035,0.9945400570714643,-0.10435468603195173
2025/05/06 15:20:15.628369448,1746537615,627497552,,-1.9278943287746335e-05,-0.00037127008531534565,0.9945393026279865,-0.1043620492089176
2025/05/06 15:20:15.723883603,1746537615,720360169,,4.5818475950673554e-05,-4.101276049321793e-05,0.9945382518889784,-0.10437270595436171
2025/05/06 15:20:15.821763713,1746537615,820266605,,0.00010607338268047674,0.0002449091582549766,0.9945361134829558,-0.1043927571537371
2025/05/06 15:20:15.922284585,1746537615,921043661,,0.00017573828903145504,0.00045838421324365325,0.9945326747790457,-0.10442469917028109
2025/05/06 15:20:16.26892649,1746537616,25501291,,0.000237392018642415,0.000550744104057708,0.9945289782281299,-0.10445933079659911
2025/05/06 15:20:16.127055331,1746537616,125526236,,0.00033460402189420575,0.0005999345490787937,0.994520487656537,-0.10453959895699497
2025/05/06 15:20:16.221356151,1746537616,219380740,,0.0004356498688269558,0.0005954437025440033,0.9945069216099364,-0.10466823073844739
2025/05/06 15:20:16.319506386,1746537616,318956602,,0.0005474215780841181,0.0005187317625704621,0.9944902108170489,-0.10482677060768357
2025/05/06 15:20:16.422180158,1746537616,421125610,,0.0006279770157948677,0.00041567945198856313,0.9944680650795357,-0.10503666213482495
2025/05/06 15:20:16.524059132,1746537616,521512207,,0.0006725002609246824,0.0002444861273272393,0.9944453124534868,-0.10525211878731827
2025/05/06 15:20:16.627278253,1746537616,626124134,,0.0007387981790594677,0.0001804243437599954,0.9944125462135727,-0.10556092817584663
2025/05/06 15:20:16.727014814,1746537616,725689898,,0.000761094439855147,0.00011293382075702803,0.9943756232788528,-0.10590811021824023
2025/05/06 15:20:16.818288181,1746537616,817561976,,0.0007216085767613307,6.677726706804926e-05,0.9943362124306867,-0.10627780328391669
2025/05/06 15:20:16.921323956,1746537616,917435799,,0.0006590327923677907,0.00010317361846761794,0.9942962400675003,-0.10665149796704655
2025/05/06 15:20:17.24175737,1746537617,21740995,,0.0005475425706225409,0.00014552370613633544,0.9942542808134629,-0.10704253408850231
2025/05/06 15:20:17.122059854,1746537617,120719469,,0.0003796279242336725,0.00013344965758223704,0.9942139265441929,-0.10741743964276221
2025/05/06 15:20:17.224605799,1746537617,224306191,,0.00025681793241468496,0.00022208310557005816,0.9941731402465913,-0.10779448935764409
2025/05/06 15:20:17.327611644,1746537617,325934460,,0.00015194633128595,0.00031463609529750917,0.994133277596659,-0.10816147323037076
2025/05/06 15:20:17.423854857,1746537617,421059479,,7.055847984437554e-05,0.00034474511691524407,0.9940941148915713,-0.10852081325832828
2025/05/06 15:20:17.517874524,1746537617,517451512,,9.71218713707543e-06,0.0003261449997083651,0.994054728484972,-0.10888108335143012
2025/05/06 15:20:17.621941585,1746537617,621045587,,-6.015621059009087e-06,0.00028047931147589795,0.9940139222516216,-0.10925311741600652
2025/05/06 15:20:17.728613793,1746537617,725279062,,1.972440194614056e-05,0.00018538602695482558,0.9939726640124991,-0.10962804585900775
2025/05/06 15:20:17.828391559,1746537617,826810652,,5.004600259480594e-05,4.5038468279841497e-05,0.99393277006524,-0.10998929064855753
2025/05/06 15:20:17.917307779,1746537617,916781388,,0.00010364103378125532,-6.46491934199932e-05,0.9938937814902106,-0.11034099960625522
2025/05/06 15:20:18.23476023,1746537618,21844065,,0.0001701954577561826,-0.00016149803117953055,0.9938536421581501,-0.11070177469612554
2025/05/06 15:20:18.120146060,1746537618,119482171,,0.00020871227710967804,-0.0002682298732468257,0.9938140498289637,-0.11105637691944832
2025/05/06 15:20:18.222186288,1746537618,221113335,,0.00024779529292632684,-0.0003242199430141566,0.9937713890736146,-0.11143724573776943
2025/05/06 15:20:18.323371471,1746537618,320957504,,0.00022832714253821245,-0.00040413046940231535,0.9937314027741875,-0.11179303952270647
2025/05/06 15:20:18.426339614,1746537618,423724078,,0.00021452395528261177,-0.0004317606011952512,0.9936894229253941,-0.11216549526682994
2025/05/06 15:20:18.526161660,1746537618,524936939,,0.00020604449859594207,-0.000442052322688169,0.9936474124768692,-0.1125370241895151
2025/05/06 15:20:18.625738728,1746537618,625121829,,0.00019393185914681608,-0.0004273184568357895,0.9936047259087447,-0.11291336697299802
2025/05/06 15:20:18.728763311,1746537618,728056810,,0.00016600431363757932,-0.0004101634000941452,0.9935618154386772,-0.11329043697838324
2025/05/06 15:20:18.819138145,1746537618,817108599,,0.00015274685318554537,-0.000400614114593218,0.9935191197423386,-0.11366430786811925
2025/05/06 15:20:18.918038681,1746537618,917872303,,0.00013427722469311595,-0.00037787185737656975,0.993475423474753,-0.11404570195385107
2025/05/06 15:20:19.24067359,1746537619,21636970,,0.00011550483060037956,-0.00035573540984246637,0.9934320965129053,-0.11442259273817296
2025/05/06 15:20:19.122972196,1746537619,120096430,,0.00011199063666907479,-0.0003457841845442749,0.9933887920883174,-0.11479797752882678
2025/05/06 15:20:19.221531007,1746537619,219919510,,9.681916178594874e-05,-0.000351837543825427,0.9933454146314635,-0.11517271407342343
2025/05/06 15:20:19.322196874,1746537619,321302378,,9.30120113984009e-05,-0.00035587276929659254,0.9933024763224748,-0.1155424391077905
2025/05/06 15:20:19.427902699,1746537619,427400516,,8.308182017210665e-05,-0.0003869402911567966,0.9932611984559866,-0.11589665662304252
2025/05/06 15:20:19.525953474,1746537619,524964868,,6.951538268907676e-05,-0.0004477622462044955,0.993222237125815,-0.11622986860258325
2025/05/06 15:20:19.627451602,1746537619,625904141,,5.2587783543329614e-05,-0.0005203658873611785,0.9931858632642064,-0.11653998226360614
2025/05/06 15:20:19.716765203,1746537619,716363271,,3.866996213943338e-05,-0.0005825304729990661,0.9931510777455594,-0.116835764797068
2025/05/06 15:20:19.819055078,1746537619,817506246,,4.4349204276440644e-05,-0.0005943448786909368,0.9931164137570239,-0.11712998554469815
2025/05/06 15:20:19.920255057,1746537619,918738514,,2.4892865175031018e-05,-0.0006219779910853339,0.9930856919209183,-0.1173900380171803
2025/05/06 15:20:20.24283215,1746537620,22741099,,3.3990132010171075e-07,-0.0006529869415558892,0.993059147539282,-0.1176142129867527
2025/05/06 15:20:20.122981017,1746537620,121518512,,-4.511137958785344e-05,-0.0006691528279612533,0.9930369335937476,-0.11780152256309548
2025/05/06 15:20:20.227305897,1746537620,224171997,,-2.4503155031952383e-05,-0.0006813793489161907,0.9930005529711802,-0.11810773438140687
2025/05/06 15:20:20.324795515,1746537620,323730017,,-3.4286214482571427e-06,-0.0006976770485927427,0.9929623958747199,-0.11842801025820164
2025/05/06 15:20:20.419474051,1746537620,418652859,,4.298276351610678e-06,-0.0006787420139605968,0.9929304073274045,-0.11869602139683456
2025/05/06 15:20:20.520937628,1746537620,519368047,,-2.3915558495419342e-05,-0.0006448625977433994,0.9929014647854543,-0.11893807131097911
2025/05/06 15:20:20.622160919,1746537620,621012798,,-5.989721820582437e-05,-0.0006108166145744372,0.9928739992517202,-0.11916729805312277
2025/05/06 15:20:20.723931724,1746537620,721585540,,-0.00011783996980912384,-0.0005903529656943729,0.9928474746774237,-0.11938814691492632
2025/05/06 15:20:20.826722277,1746537620,825267514,,-0.00017481189975677004,-0.0005925867963040776,0.9928212952577967,-0.11960557664389784
2025/05/06 15:20:20.926141680,1746537620,925657017,,-0.000207932331278328,-0.0006207383189899407,0.9927949572272484,-0.1198238054487959
2025/05/06 15:20:21.19070291,1746537621,18670736,,-0.000217812831334266,-0.0006721840600741262,0.992768023915335,-0.12004645524712886
2025/05/06 15:20:21.123026690,1746537621,121661616,,-0.0001973964132859006,-0.0007401996130063171,0.9927401074745952,-0.12027673154238203
2025/05/06 15:20:21.226617931,1746537621,223938200,,-0.00013553185195049625,-0.0007664126374561613,0.9927111919879221,-0.12051507600588932
2025/05/06 15:20:21.327023371,1746537621,326416101,,-1.9285918279600423e-05,-0.0006337118467862108,0.9926823505949822,-0.12075325608268034
2025/05/06 15:20:21.429100945,1746537621,427173357,,0.00012804419210710608,-0.0005046622657078736,0.9926523252827167,-0.12100037203041158
2025/05/06 15:20:21.517626002,1746537621,516411246,,0.0002849933123771433,-0.0004140453898434726,0.992618033491042,-0.12128143688794174
2025/05/06 15:20:21.620792070,1746537621,620290899,,0.0004238797949721331,-0.00038790083230496025,0.9925797180943781,-0.12159429709714488
2025/05/06 15:20:21.722891817,1746537621,720896096,,0.000509720192689983,-0.0004174842936114392,0.9925376902423505,-0.1219364561588121
2025/05/06 15:20:21.821448538,1746537621,819819365,,0.0005244215337398102,-0.00047010476045819045,0.9924922127718039,-0.12230581168079412
2025/05/06 15:20:21.919553352,1746537621,918657713,,0.00048127216604923863,-0.0004842328739961885,0.9924434926232097,-0.12270064321539237
2025/05/06 15:20:22.26806790,1746537622,23366878,,0.0003534435052898092,-0.0004813602461255839,0.992393427455501,-0.12310535533893534
2025/05/06 15:20:22.125925926,1746537622,124598361,,0.00019880388377762568,-0.000418989426021015,0.992341464645695,-0.12352409671684986
2025/05/06 15:20:22.244209851,1746537622,226606893,,3.787818534859476e-06,-0.0003447583155041043,0.9922876204614459,-0.12395628022136589
2025/05/06 15:20:22.327000266,1746537622,326639616,,-0.0001522579288404227,-0.0002363125816906345,0.992230975484702,-0.12440905217291712
2025/05/06 15:20:22.417511759,1746537622,417039843,,-0.0002562834358972934,-0.00017155830650532772,0.9921739656935733,-0.12486283148493758
2025/05/06 15:20:22.518415153,1746537622,517975859,,-0.00025730853154708183,-0.00015819872782955736,0.992119286672693,-0.1252965673015382
2025/05/06 15:20:22.619962188,1746537622,618169478,,-0.00019707240652916153,-0.0002141012371262815,0.9920676486815344,-0.12570479610030175
2025/05/06 15:20:22.719398327,1746537622,718957425,,-5.729918781419893e-05,-0.0003292081191085066,0.992018822427387,-0.12608942972588194
2025/05/06 15:20:22.820118472,1746537622,819671492,,9.956961511467164e-05,-0.0004904268114725473,0.9919727254664671,-0.1264510241084011
2025/05/06 15:20:22.920898622,1746537622,920108629,,0.00027627218530426405,-0.0006628830282905819,0.9919284889466801,-0.12679651838961048
2025/05/06 15:20:23.25624336,1746537623,24776296,,0.0003989162153668593,-0.0008526405963359227,0.9918855806260466,-0.127130282844007
2025/05/06 15:20:23.127121982,1746537623,124408456,,0.00048215135937668027,-0.0010031284806160023,0.9918432855803948,-0.12745845641778936
2025/05/06 15:20:23.224299858,1746537623,218410030,,0.00048340162481097374,-0.0010720337594388749,0.991801916577282,-0.12777940107903915
2025/05/06 15:20:23.321917041,1746537623,319976936,,0.00040713885035485395,-0.0010673855500450261,0.9917608309820737,-0.1280982008296407
2025/05/06 15:20:23.423543275,1746537623,421977289,,0.00026853800507239527,-0.0009739886640025743,0.99172366345646,-0.12838673831015437
2025/05/06 15:20:23.524621874,1746537623,522906889,,8.187777863541942e-05,-0.000803279485065755,0.9916918400569485,-0.128633752967725
2025/05/06 15:20:23.624890929,1746537623,623634300,,-0.000111482375925489,-0.000592515186951447,0.9916651327879092,-0.12884060272356507
2025/05/06 15:20:23.724766346,1746537623,724372923,,-0.0002541966375303678,-0.0003882293854953869,0.9916431355932614,-0.12901037281078773
2025/05/06 15:20:23.827023905,1746537623,825359470,,-0.0003389035556807884,-0.00023718072395958786,0.9916255288505476,-0.1291458068291645
2025/05/06 15:20:23.916076080,1746537623,915789706,,-0.00034391240254364976,-0.0001770606835286058,0.9916116596414482,-0.12925233783923043
2025/05/06 15:20:24.25712598,1746537624,20287513,,-0.0002727804790350909,-0.00022864153831092868,0.991600722724243,-0.12933630583334432
2025/05/06 15:20:24.120830181,1746537624,119231436,,-0.00012634746386770037,-0.00038429400123750953,0.9915918538822056,-0.1294041408490849
2025/05/06 15:20:24.223932765,1746537624,220522449,,4.989961243068921e-05,-0.0006188934920603629,0.9915840931458247,-0.12946273865883906
2025/05/06 15:20:24.322058982,1746537624,321507388,,0.00022980666548965285,-0.0008841605255709594,0.9915766546878502,-0.12951796526780954
2025/05/06 15:20:24.420955533,1746537624,419635525,,0.0003732821409348916,-0.0011277474950409517,0.9915688923009081,-0.12957515451343604
2025/05/06 15:20:24.527563483,1746537624,525423857,,0.0004628413738195923,-0.0012531084363275526,0.9915619126645829,-0.1296271146406626
2025/05/06 15:20:24.625955641,1746537624,625558993,,0.00046527001901279546,-0.0012122809322616054,0.9915565762862888,-0.12966830731587342
2025/05/06 15:20:24.718779618,1746537624,716367336,,0.00040054098673971274,-0.0009984421200866038,0.991553489044855,-0.12969395145196833
2025/05/06 15:20:24.838979943,1746537624,825416337,,0.00025697168380368185,-0.0006493281367430327,0.991553106413093,-0.12969945836845367
2025/05/06 15:20:24.925701586,1746537624,924872481,,6.177733293450184e-05,-0.00023172158260042472,0.9915558292130602,-0.12968029936065878
2025/05/06 15:20:25.20629047,1746537625,18573043,,-0.00014047821502504538,0.0001592197702253783,0.9915616787230656,-0.12963561317335628
2025/05/06 15:20:25.117540998,1746537625,117043489,,-0.0003165274414009147,0.00043091656687907276,0.9915705784565969,-0.12956659315016794
2025/05/06 15:20:25.219162928,1746537625,218580941,,-0.00045076863006126796,0.0005209696688154963,0.9915825026513526,-0.12947457601369808
2025/05/06 15:20:25.320447673,1746537625,320246667,,-0.0005036629851259763,0.0004180173645163854,0.9915973805419813,-0.12936076100333277
2025/05/06 15:20:25.421495685,1746537625,421214101,,-0.00048666212322008546,0.00015262802614565102,0.9916150644701868,-0.12922578605081358
2025/05/06 15:20:25.524041985,1746537625,523179858,,-0.00039623212297465726,-0.0001718326142152486,0.9916365311741115,-0.12906123939677927
2025/05/06 15:20:25.628762181,1746537625,625638147,,-0.00025419169842883123,-0.0004658747345075582,0.9916620322769205,-0.12886478218551517
2025/05/06 15:20:25.720453575,1746537625,719147956,,-9.159679216567986e-05,-0.000668917556951484,0.9916912620107954,-0.12863897158624132
2025/05/06 15:20:25.821480770,1746537625,821211460,,6.852570083333799e-05,-0.0007422867670250551,0.9917239585377938,-0.12838627020329024
2025/05/06 15:20:25.922005300,1746537625,921618097,,0.00017151342269078212,-0.0006832722077211158,0.9917598884651633,-0.1281086544843991
2025/05/06 15:20:26.18450910,1746537626,17051052,,0.0002247965695737349,-0.0005141835870800978,0.9917988258209749,-0.12780756699771956
2025/05/06 15:20:26.123092282,1746537626,122240685,,0.00020504088274958594,-0.00028490779218435846,0.9918405362634726,-0.1274842241627318
2025/05/06 15:20:26.222721742,1746537626,219967778,,0.00012679703276031513,-5.360436393635869e-05,0.9918848352964627,-0.12713950824977124
2025/05/06 15:20:26.324419731,1746537626,322324549,,-2.155712946535703e-06,0.00012487436611384445,0.9919315919276163,-0.12677421400935893
2025/05/06 15:20:26.425004759,1746537626,424601610,,-0.00014380605403781143,0.0002684512727693754,0.9919821219541671,-0.12637791332761036
2025/05/06 15:20:26.529832425,1746537626,527976214,,-0.0002876283519739822,0.000360971376529781,0.9920367591048826,-0.12594782870012997
2025/05/06 15:20:26.619935455,1746537626,617886123,,-0.0003971525217080445,0.0003780146261143554,0.9920952534190935,-0.125485885732706
2025/05/06 15:20:26.723733399,1746537626,718794078,,-0.0004593751238203417,0.0003101881920778533,0.992157297226116,-0.12499436114781275
2025/05/06 15:20:26.825381710,1746537626,824767967,,-0.0004713929472574186,0.0001702443041177412,0.9922225810917278,-0.12447529223599217
2025/05/06 15:20:26.928938631,1746537626,928495221,,-0.0004194260114644624,-1.0683586625762797e-05,0.9922908307944421,-0.1239303477319337
2025/05/06 15:20:27.17353422,1746537627,16835929,,-0.00032978559140580164,-0.0001985543129205809,0.9923617335399999,-0.12336142680406595
2025/05/06 15:20:27.121106976,1746537627,118592006,,-0.00021008436632850147,-0.00035387699076409017,0.9924350344776564,-0.1227702446725901
2025/05/06 15:20:27.220716459,1746537627,220069950,,-8.570375828087174e-05,-0.00044770700773728845,0.9925105443630421,-0.12215814152760683
2025/05/06 15:20:27.322596825,1746537627,320042181,,1.4192537363372965e-05,-0.00047266392561174677,0.9925879438331056,-0.12152756948344393
2025/05/06 15:20:27.422174497,1746537627,420560376,,9.146779235012983e-05,-0.0005086904881232295,0.9926645644321191,-0.12089993957162093
2025/05/06 15:20:27.522405805,1746537627,522103031,,0.0001285432520592569,-0.0005769094321523287,0.9927395217500321,-0.12028255321390996
2025/05/06 15:20:27.623873057,1746537627,622277362,,0.00011584407542230516,-0.0006568248106534178,0.9928129603127592,-0.11967447930253929
2025/05/06 15:20:27.730047501,1746537627,726671762,,5.192601949336859e-05,-0.0007249034896170125,0.992885099257681,-0.11907414282993709
2025/05/06 15:20:27.826738289,1746537627,824045857,,-4.5927043119927546e-05,-0.0007624324882626952,0.992956126386474,-0.11848015723730373
2025/05/06 15:20:27.921103927,1746537627,919657676,,-0.0001608091349006609,-0.0007607239483707191,0.993026166921475,-0.11789159108579188
2025/05/06 15:20:28.19522816,1746537628,17417197,,-0.0002803465788452172,-0.0007208691518541008,0.9930953112111599,-0.11730773462935463
2025/05/06 15:20:28.121994968,1746537628,120370170,,-0.00038499171571882833,-0.0006544798750939597,0.9931635843675195,-0.1167283946764157
2025/05/06 15:20:28.226195160,1746537628,225191888,,-0.00045798373274121235,-0.0005805526005474124,0.9932308879968625,-0.11615445036046887
2025/05/06 15:20:28.326458337,1746537628,320782332,,-0.00046719963020488904,-0.0005172928001017401,0.9932970603070896,-0.11558747387999485
2025/05/06 15:20:28.424220166,1746537628,423393092,,-0.000419225033074732,-0.0005042425964412957,0.9933602993268386,-0.11504297332331669
2025/05/06 15:20:28.525958165,1746537628,523835305,,-0.00032798379098313127,-0.00054522867286144,0.9934201468658515,-0.11452513677510857
2025/05/06 15:20:28.619927645,1746537628,617675535,,-0.00020654734799053527,-0.0006225078104421251,0.993476868118977,-0.11403193559142837
2025/05/06 15:20:28.724446982,1746537628,722245424,,-7.939318578500906e-05,-0.0007122108521273195,0.9935306938515539,-0.1135616432924167
2025/05/06 15:20:28.822058916,1746537628,821738323,,3.355881170592505e-05,-0.0007885782331249811,0.9935818541837188,-0.11311266973694763
2025/05/06 15:20:28.927856460,1746537628,925954723,,9.01698382181901e-05,-0.0008314815000114781,0.9936306190208323,-0.1126831551395018
2025/05/06 15:20:29.21282514,1746537629,19114518,,8.731537975130714e-05,-0.0008283238965505655,0.9936771770128304,-0.11227187599465513
2025/05/06 15:20:29.121128531,1746537629,120381932,,4.175644637427033e-05,-0.0007752292866315733,0.9937216634904629,-0.1118778476093438
2025/05/06 15:20:29.219237216,1746537629,218904624,,-6.44606204432993e-05,-0.0006864079684559378,0.9937641886365366,-0.11150005413673804
2025/05/06 15:20:29.322992765,1746537629,320114687,,-0.00019013514977728782,-0.0005758269954465781,0.9938048689098858,-0.11113736906594926
2025/05/06 15:20:29.422482204,1746537629,421627053,,-0.000318118434065772,-0.0004082595580375151,0.9938441504889405,-0.11078599488974818
2025/05/06 15:20:29.522609358,1746537629,518011519,,-0.00040440445405986645,-0.00021104079763890936,0.9938820323105946,-0.1104459042653087
2025/05/06 15:20:29.620375447,1746537629,620058916,,-0.00046784437978004354,-3.9269354330999654e-05,0.9939184041851212,-0.11011805211524729
2025/05/06 15:20:29.726350209,1746537629,721542132,,-0.0004646536124427083,6.678556602124773e-05,0.9939531987715806,-0.10980354406143444
2025/05/06 15:20:29.821595481,1746537629,820816563,,-0.0004265003615112586,7.599873920791484e-05,0.9939862987834543,-0.10950365360298649
2025/05/06 15:20:29.923941418,1746537629,922192551,,-0.00033258642920342313,-1.0284556475721356e-05,0.9940176677987935,-0.10921888748903477
2025/05/06 15:20:30.26202971,1746537630,24914192,,-0.00021734701339962633,-0.0001745788486647478,0.9940471943617631,-0.10894997780637007
2025/05/06 15:20:30.128227709,1746537630,126458618,,-9.981502044398436e-05,-0.0003795875053227403,0.9940747954388205,-0.10869750237956129
2025/05/06 15:20:30.216039383,1746537630,215827070,,-6.223008434922364e-06,-0.0005782665328607665,0.9941004755085361,-0.10846156076137513
2025/05/06 15:20:30.319550725,1746537630,318689183,,4.5176672959869324e-05,-0.0007332295909910514,0.9941242050497912,-0.10824289938631652
2025/05/06 15:20:30.420707386,1746537630,420373476,,9.884661448536444e-05,-0.000985747571674915,0.9941424950949439,-0.1080727439157123
2025/05/06 15:20:30.522929275,1746537630,521630024,,0.00015816459715129523,-0.0013341778304997692,0.994154261549279,-0.10796063725675432
2025/05/06 15:20:30.625449525,1746537630,624523607,,0.00020062257584586873,-0.0016817764758806438,0.9941600001760746,-0.10790285180835003
2025/05/06 15:20:30.727049452,1746537630,725439534,,0.00021008363230647624,-0.001937674591114244,0.994160196906566,-0.10789672918464327
2025/05/06 15:20:30.817564133,1746537630,816873770,,0.00018124251209423892,-0.0020338532696111606,0.9941554002961371,-0.1079391988762984
2025/05/06 15:20:30.923288655,1746537630,921411066,,0.0001188244322253874,-0.0019409181060486159,0.9941460470840893,-0.10802710671280577
2025/05/06 15:20:31.22851002,1746537631,20115176,,2.7353516766721127e-05,-0.001676549326093501,0.9941323250089792,-0.10815779586504076
2025/05/06 15:20:31.121182222,1746537631,120957270,,-4.767226260303812e-05,-0.0012935493096823771,0.9941143156592199,-0.10832844436684
2025/05/06 15:20:31.222885366,1746537631,221434319,,-0.0001363608469404166,-0.0008802605622321453,0.9940920745636417,-0.10853641709959393
2025/05/06 15:20:31.326447571,1746537631,322717867,,-0.00017246862009374125,-0.0005098921867805346,0.9940658735570858,-0.10877844130948479
2025/05/06 15:20:31.427440897,1746537631,426051992,,-0.00018589915873882043,-0.00017777900320273905,0.9940368565047467,-0.10904431093042259
2025/05/06 15:20:31.517457099,1746537631,516056565,,-0.00016498919922156358,8.028761301246947e-05,0.9940056963275504,-0.10932813910812296
2025/05/06 15:20:31.618707603,1746537631,618522570,,-9.92009356106829e-05,0.0002126501162613215,0.9939725881597677,-0.10962864099347092
2025/05/06 15:20:31.724258043,1746537631,721602752,,-1.1930780606581101e-05,0.00019159812916304554,0.9939376287085827,-0.10994522902324218
2025/05/06 15:20:31.821828573,1746537631,821432142,,8.592490280313013e-05,3.102822950427138e-05,0.993900931967918,-0.1102766026293168
2025/05/06 15:20:31.921317667,1746537631,920749615,,0.00023880489766642742,0.00012394118199868833,0.9938665024110181,-0.11058617904645268
2025/05/06 15:20:32.27810111,1746537632,25823144,,0.0006636511306333243,0.0012952034867668646,0.9938453635350321,-0.11076676123740758
2025/05/06 15:20:32.128616778,1746537632,126408621,,0.0009823690539858248,0.002155403189912028,0.9938240251518112,-0.11094231032019752
2025/05/06 15:20:32.227391516,1746537632,227135701,,0.0012077237497915513,0.0026194986747189513,0.9938042069810675,-0.11110750567252022
2025/05/06 15:20:32.322254945,1746537632,320053888,,0.0013552432355842133,0.002792999068387253,0.9937791464298443,-0.11132551636146275
2025/05/06 15:20:32.425983852,1746537632,420736590,,0.0015515102083260518,0.0028106327915950555,0.9937392148997782,-0.11167840404374078
2025/05/06 15:20:32.523115501,1746537632,521061921,,0.0016514231563901955,0.002357568765004777,0.9937013676241444,-0.11202368791010986
2025/05/06 15:20:32.622962847,1746537632,622759927,,0.0016270853489784838,0.0015620523563174575,0.9936641441758844,-0.11236761617525995
2025/05/06 15:20:32.727200547,1746537632,724842989,,0.001457123429993684,0.0005763277034349189,0.9936260926785239,-0.11271527219546447
2025/05/06 15:20:32.826704774,1746537632,825042810,,0.0011527863071521891,-0.0004422588054084381,0.9935861542255225,-0.11307090528608714
2025/05/06 15:20:32.928270156,1746537632,926920796,,0.0007174320119926712,-0.0013673990159899308,0.9935437970948843,-0.11343870047527367
2025/05/06 15:20:33.19584307,1746537633,17252198,,0.00021480360108106026,-0.002092393100607931,0.993498953921889,-0.11382180945072838
2025/05/06 15:20:33.120390284,1746537633,118850970,,-0.0003014860679722981,-0.002543830141338405,0.9934519863199951,-0.11422166568221266
2025/05/06 15:20:33.219524992,1746537633,219302142,,-0.00045853653985057245,-0.002047515951926859,0.9933735352918909,-0.11491134323624777
2025/05/06 15:20:33.322730929,1746537633,321931128,,-0.00038771394964668733,-0.0011566447875027937,0.9932830338130992,-0.11570361528394224
2025/05/06 15:20:33.426188413,1746537633,425121146,,-0.00020332977307044517,-0.00034751855177573497,0.9931947062222141,-0.11646507382056559
2025/05/06 15:20:33.520036594,1746537633,518741008,,8.328451535914219e-05,0.00022822868035187323,0.9931096600055964,-0.11718849849250404
2025/05/06 15:20:33.623596651,1746537633,620778154,,0.0004259604450448421,0.0004959394343636091,0.99302848151146,-0.11787284466246206
2025/05/06 15:20:33.723946969,1746537633,721915157,,0.0007643726557152944,0.0004657244612533343,0.9929507894210194,-0.11852395801416635
2025/05/06 15:20:33.818500993,1746537633,816922526,,0.0010344582333613552,0.00020810047170971747,0.9928758530336657,-0.1191487601825046
2025/05/06 15:20:33.918657448,1746537633,917835339,,0.001222887092695385,-0.0001729188474098757,0.9928029892469978,-0.11975265837740845
2025/05/06 15:20:34.22816817,1746537634,21605846,,0.0013286842542580815,-0.0004563847857142329,0.9927234317260337,-0.12040853131388485
2025/05/06 15:20:34.123127139,1746537634,122606492,,0.0012684230318612529,-0.0007131652460825995,0.9926439770705432,-0.12106121296236481
2025/05/06 15:20:34.222672286,1746537634,222332502,,0.0010631381250137935,-0.0009051118503958586,0.9925664607980327,-0.12169581508307113
2025/05/06 15:20:34.326052742,1746537634,323937800,,0.0007873879574943589,-0.000846461059054504,0.9924817493088652,-0.12238725755851658
2025/05/06 15:20:34.431211648,1746537634,429599036,,0.00048064655739162287,-0.0006796456764054642,0.9923962192441688,-0.1230814815092881
2025/05/06 15:20:34.522638234,1746537634,520422260,,0.00013383614469256056,-0.0005666604676190164,0.9923166561110386,-0.12372273432319303
2025/05/06 15:20:34.625890958,1746537634,624180725,,-0.00019404076717135664,-0.0005253724268662812,0.9922427793447203,-0.12431392991237404
2025/05/06 15:20:34.727031816,1746537634,725043159,,-0.0004478561964539887,-0.0005590801955509904,0.9921743268393605,-0.12485828773062772
2025/05/06 15:20:34.819148212,1746537634,818916325,,-0.0005793484724154203,-0.0006528824170879935,0.9921110579705782,-0.12535903139541685
2025/05/06 15:20:34.919358766,1746537634,917943315,,-0.0005912072019145719,-0.0007787996845077043,0.9920528112910662,-0.1258183752660488
2025/05/06 15:20:35.21673419,1746537635,20445951,,-0.00046924908895696563,-0.0008971014671310683,0.9919993833423183,-0.1262386567684819
2025/05/06 15:20:35.123072942,1746537635,122365772,,-0.00026370998660971536,-0.000978727702723643,0.9919504884014871,-0.12662227730213269
2025/05/06 15:20:35.224049882,1746537635,223560082,,1.0261791225189207e-05,-0.0009993094353906154,0.9919058352738669,-0.12697171033344576
2025/05/06 15:20:35.326647083,1746537635,324333012,,0.00026672796520185184,-0.0009593535757135685,0.9918650924934218,-0.1272896177617229
2025/05/06 15:20:35.418606799,1746537635,418250869,,0.0005160934462674307,-0.0009287170175850006,0.991825499552872,-0.12759721614891087
2025/05/06 15:20:35.518419488,1746537635,518171772,,0.0006919055068514361,-0.0009298184497545207,0.9917862323685982,-0.12790123528926828
2025/05/06 15:20:35.620554333,1746537635,619170225,,0.0007416843944258858,-0.0009456360422496304,0.9917476099148799,-0.12819997622799334
2025/05/06 15:20:35.720064771,1746537635,719662174,,0.0006979096736768159,-0.000949113069533371,0.9917098357108691,-0.12849207703508322
2025/05/06 15:20:35.822072083,1746537635,821462641,,0.0005509383538738064,-0.0009280436628466449,0.9916731000767385,-0.1287761537944084
2025/05/06 15:20:35.922038609,1746537635,921587286,,0.00031451008554443454,-0.0008797525791203714,0.9916374724751698,-0.12905134753989528
2025/05/06 15:20:36.29241695,1746537636,24685323,,4.808230712965449e-05,-0.0008029621112904724,0.9916030618951978,-0.129316358516656
2025/05/06 15:20:36.126096810,1746537636,125510675,,-0.00020684228836337877,-0.0007062060073190713,0.9915700639070983,-0.12956954446402888
2025/05/06 15:20:36.235441166,1746537636,225861348,,-0.0004195767976978389,-0.0006040376591823957,0.9915387206112416,-0.1298091854316927
2025/05/06 15:20:36.316671781,1746537636,315595652,,-0.0005263238050437285,-0.0004454686807811273,0.9915094677618288,-0.13003268773489848
2025/05/06 15:20:36.419715102,1746537636,418336727,,-0.0005112550441507446,-0.0002913448287126945,0.9914798965176177,-0.13025846820028555
2025/05/06 15:20:36.519273782,1746537636,518542863,,-0.000413358410790962,-0.00024294993440270686,0.9914499189986685,-0.13048688910264952
2025/05/06 15:20:36.621211711,1746537636,620459784,,-0.00024336765131907897,-0.0003147654221024582,0.9914197768268658,-0.1307159814693032
2025/05/06 15:20:36.720953731,1746537636,720745721,,-4.4579868547197564e-05,-0.0004754387847756474,0.9913893412835441,-0.13094634763894003
2025/05/06 15:20:36.821663750,1746537636,820628027,,0.00014537400610557612,-0.0006642888304336317,0.9913583574043142,-0.1311798185368782
2025/05/06 15:20:36.923342161,1746537636,923153309,,0.000308655670406267,-0.0008203993761971596,0.991326624461306,-0.1314182457297824
2025/05/06 15:20:37.28181332,1746537637,27199031,,0.00040594462919338277,-0.000902425396753134,0.9912941738786987,-0.13166199782591034
2025/05/06 15:20:37.128063752,1746537637,127603147,,0.0004279476697491592,-0.0008826558300881143,0.9912605128007905,-0.13191525136007315
2025/05/06 15:20:37.218710043,1746537637,218482370,,0.00039948154099304174,-0.0006924218967791425,0.9912208800709018,-0.1322139473651777
2025/05/06 15:20:37.320423669,1746537637,319681907,,0.00033053141336377123,-0.00043367167346484634,0.9911790635899581,-0.1325283614129377
2025/05/06 15:20:37.430300150,1746537637,429785743,,0.0002470375473612962,-0.00016976574259844378,0.9911330125496591,-0.1328731033214782
2025/05/06 15:20:37.526215982,1746537637,525962367,,0.00015287767790179136,4.5628443091966627e-07,0.9910861714719204,-0.1332222854680808
2025/05/06 15:20:37.620433186,1746537637,620097076,,8.183590049997777e-05,6.783785656357088e-05,0.991038364212852,-0.13357750319281045
2025/05/06 15:20:37.718540166,1746537637,718304561,,1.8743032770942867e-05,1.4818055885992419e-05,0.9909896907523265,-0.1339381657770951
2025/05/06 15:20:37.820909460,1746537637,819397715,,4.894015178972349e-06,-7.606925464070259e-05,0.9909394988745204,-0.13430898614698686
2025/05/06 15:20:37.921546572,1746537637,920052506,,2.272487862494681e-05,-0.00023374662776240465,0.9908895239262859,-0.13467700701765167
2025/05/06 15:20:38.23691372,1746537638,21600663,,5.9876974999761904e-05,-0.00039154733108653304,0.9908399116497786,-0.1350411514587102
2025/05/06 15:20:38.128493808,1746537638,127950481,,0.00011325429930501884,-0.0005148169044700301,0.9907906971469291,-0.13540131677395514
2025/05/06 15:20:38.233302803,1746537638,229141336,,0.00016542023991158775,-0.0005917939540985534,0.9907412164693015,-0.13576252945856934
2025/05/06 15:20:38.327717238,1746537638,327258657,,0.00020845838041921202,-0.0006158108573966328,0.9906909711256147,-0.13612853136752087
2025/05/06 15:20:38.419945754,1746537638,419382526,,0.00024711869831283253,-0.0006074498344477746,0.9906399682992636,-0.1364991690270745
2025/05/06 15:20:38.523871981,1746537638,523194918,,0.0003080474833975143,-0.0006118082865289497,0.9905904483953087,-0.13685793490093956
2025/05/06 15:20:38.629267466,1746537638,628378782,,0.0003371114393513987,-0.0006120750155626434,0.9905431368338059,-0.1371998753333872
2025/05/06 15:20:38.719781942,1746537638,718262870,,0.0003219231360670159,-0.0006264749630126296,0.9904979416706228,-0.13752574828327666
2025/05/06 15:20:38.822681230,1746537638,821316458,,0.0002958662873252607,-0.0006700706373842925,0.9904531623534178,-0.13784772995082223
2025/05/06 15:20:38.922625962,1746537638,920539967,,0.00023374902776096304,-0.000710226113014835,0.9904105001475327,-0.13815383504548295
2025/05/06 15:20:39.27967987,1746537639,25213938,,0.0001561114020208849,-0.0007037235679843401,0.9903722031017721,-0.1384282475714854
2025/05/06 15:20:39.128970557,1746537639,126789524,,5.687492752800543e-05,-0.0007353858501037403,0.9903346599907753,-0.1386964930841783
2025/05/06 15:20:39.218410802,1746537639,216661987,,-2.505642086765141e-05,-0.0007395227790767214,0.9902982421164399,-0.1389562670026939
2025/05/06 15:20:39.323689662,1746537639,318826719,,-0.00010154814898735821,-0.0007405590176859565,0.9902632391153559,-0.13920545433666864
2025/05/06 15:20:39.421659635,1746537639,420425578,,-0.00010910454443833154,-0.0007644940447870937,0.9902310964938257,-0.13943378063328024
2025/05/06 15:20:39.524265572,1746537639,522446572,,-8.421791930619335e-05,-0.0008513095075909691,0.9902016547412169,-0.13964222544495739
2025/05/06 15:20:39.629700762,1746537639,626338123,,-1.3602306335432603e-05,-0.0008985694142957125,0.9901783822012755,-0.13980688040740252
2025/05/06 15:20:39.727769694,1746537639,725693609,,6.333612814369129e-05,-0.0009673400678780938,0.9901597426901211,-0.1399383585639083
2025/05/06 15:20:39.825370981,1746537639,822915645,,0.00015228246525900244,-0.0010343399611494834,0.9901437272107945,-0.1400510850226139
2025/05/06 15:20:39.919182363,1746537639,917971616,,0.00021458299237652866,-0.0011083390613285712,0.9901291087610852,-0.14015374958467447
2025/05/06 15:20:40.22336199,1746537640,21625584,,0.00023577291551541462,-0.0011648793146779935,0.9901171004087678,-0.14023806525137422
2025/05/06 15:20:40.123571153,1746537640,122105278,,0.0002072379540587908,-0.0011908536388989084,0.9901058100202403,-0.14031758223474658
2025/05/06 15:20:40.226252199,1746537640,225945538,,0.0001470105881501578,-0.0012429909755849512,0.9900939529350148,-0.14040084658875235
2025/05/06 15:20:40.317369910,1746537640,316583572,,4.7570463699724065e-05,-0.001207131923686647,0.9900858694069125,-0.1404582207288986
2025/05/06 15:20:40.421061848,1746537640,418946273,,-9.413833557726365e-05,-0.0011032653737163484,0.9900788980568435,-0.14050818327070977
2025/05/06 15:20:40.520766428,1746537640,519245184,,-0.00024927426436726296,-0.0009130050437141358,0.990072306531598,-0.14055579718863512
2025/05/06 15:20:40.625345120,1746537640,619400970,,-0.00037058151209018735,-0.0006780477723972683,0.9900659867429918,-0.1406013684684025
2025/05/06 15:20:40.723429946,1746537640,722385809,,-0.0004696925796599968,-0.0004460805407883495,0.9900601548677905,-0.1406430593530951
2025/05/06 15:20:40.823438357,1746537640,822173000,,-0.0004931299109264807,-0.0002551881256780312,0.9900549666840501,-0.14067997244155223
2025/05/06 15:20:40.925014094,1746537640,924700195,,-0.0004530741036339134,-0.00014003594734110012,0.9900503042906281,-0.1407130771741739
2025/05/06 15:20:41.28725710,1746537641,25107007,,-0.0003450862030993376,-0.00011418891689762164,0.9900462436325108,-0.14074197435576546
2025/05/06 15:20:41.119872112,1746537641,117547035,,-0.0001992902170538268,-0.00017278499449923648,0.990042817919315,-0.14076629253886422
2025/05/06 15:20:41.222441070,1746537641,219152630,,-2.864262341048094e-05,-0.00028948402856715717,0.9900399119204994,-0.1407866761559747
2025/05/06 15:20:41.326555558,1746537641,323928620,,0.00010919784018325084,-0.0004284807443723665,0.9900377907648039,-0.14080119792682913
2025/05/06 15:20:41.431671772,1746537641,427983011,,0.00016477540163918305,-0.00042772486521529284,0.9900396701638228,-0.14078793059923736
2025/05/06 15:20:41.519273871,1746537641,518581709,,0.00011162076070413356,-0.00026512427423881665,0.9900463026451148,-0.14074173463711
2025/05/06 15:20:41.621509348,1746537641,619239719,,-3.1826206632214116e-05,5.858840458497652e-06,0.9900573780267246,-0.14066409338425342
2025/05/06 15:20:41.721365949,1746537641,720853542,,-0.00022809141000918503,0.00031052808006272546,0.9900725911424504,-0.14055645063494798
2025/05/06 15:20:41.827701078,1746537641,827186762,,-0.0004341929187372287,0.0005696475878597564,0.9900917301150254,-0.1404202725249129
2025/05/06 15:20:41.925476884,1746537641,925168812,,-0.0006122616991209826,0.0007176702130603066,0.990114675970689,-0.140257044431054
2025/05/06 15:20:42.22335017,1746537642,20483162,,-0.00072552367542236,0.0007194352057930306,0.9901413298464184,-0.14006820823565586
2025/05/06 15:20:42.118358627,1746537642,118194547,,-0.0007512515010776798,0.0005757525834951476,0.990171519123851,-0.13985516381639201
2025/05/06 15:20:42.221820064,1746537642,220338949,,-0.00067484652267824,0.00032200796385775904,0.9902049857763715,-0.13961922158735246
2025/05/06 15:20:42.325064918,1746537642,323228634,,-0.0005293195885330052,1.161601079049137e-05,0.9902413900247531,-0.13936179235244597
2025/05/06 15:20:42.431470679,1746537642,428500385,,-0.00030622151034906576,-0.0003292799044060087,0.9902797991328295,-0.1390888824909241
2025/05/06 15:20:42.522218445,1746537642,520742748,,-4.5495612255236605e-05,-0.000640336318930212,0.9903198079083411,-0.13880297534251354
2025/05/06 15:20:42.626099457,1746537642,624447689,,0.0001921752193112402,-0.0008538989426263249,0.9903614461087155,-0.13850429591436858
2025/05/06 15:20:42.729167533,1746537642,727300271,,0.00038723641972194785,-0.0009222106672117014,0.9904048074258255,-0.13819304252839298
2025/05/06 15:20:42.819922159,1746537642,818032365,,0.00048823514296937587,-0.000839085390399811,0.9904499592352582,-0.13786927073509941
2025/05/06 15:20:42.921453042,1746537642,919031394,,0.0004877162290043438,-0.000629943117832809,0.990496860033274,-0.13753303446362689
2025/05/06 15:20:43.19475050,1746537643,19040975,,0.0003958055570018809,-0.00034731049949341444,0.9905454119640573,-0.13718421757014973
2025/05/06 15:20:43.122317228,1746537643,120486655,,0.0002161981299182284,-6.227423941792123e-05,0.9905955572375633,-0.136822481199141
2025/05/06 15:20:43.222731226,1746537643,220940634,,-1.0455924929633525e-06,0.00016106864848267172,0.9906472690696373,-0.13644765421459995
2025/05/06 15:20:43.324593812,1746537643,324396482,,-0.00020099573666730594,0.00026082731311886427,0.9907002496536368,-0.13606214354495685
2025/05/06 15:20:43.425173811,1746537643,423001871,,-0.00034073041157061973,5.285244521222041e-05,0.9907507125201751,-0.13569416623485075
2025/05/06 15:20:43.527085967,1746537643,526578475,,-0.0003307019799771033,-0.0004276441673613997,0.9907977314768249,-0.13534978041003345
2025/05/06 15:20:43.626975199,1746537643,625533087,,-0.00022848161591137916,-0.0010509065312200895,0.9908414048802453,-0.13502649283216964
2025/05/06 15:20:43.718973581,1746537643,717095907,,-7.268467802358218e-05,-0.0016582443048566674,0.9908820417125873,-0.13472202624017282
2025/05/06 15:20:43.822577914,1746537643,821780885,,0.00014737255594622512,-0.002095502218962678,0.9909202109519983,-0.1344348268813822
2025/05/06 15:20:43.925294971,1746537643,920181728,,0.0003524431734060187,-0.002266743486359255,0.9909565471118931,-0.13416355464078505
2025/05/06 15:20:44.22642784,1746537644,22251270,,0.0005233172826659419,-0.002134640520832292,0.990991430300803,-0.13390726089065325
2025/05/06 15:20:44.126178023,1746537644,124835994,,0.0006185222969376076,-0.0017372842029906117,0.9910249007510344,-0.1336646750834662
2025/05/06 15:20:44.226114001,1746537644,224449903,,0.0006233663550710802,-0.0011696232318734543,0.9910567318981838,-0.13343461902810083
2025/05/06 15:20:44.327781935,1746537644,326442358,,0.0005514473633889978,-0.0005611589240799263,0.9910866864364481,-0.13321621888827595
2025/05/06 15:20:44.416395588,1746537644,416300635,,0.00042826839287124675,-6.531546870021629e-05,0.9911132917834257,-0.13301975481219147
2025/05/06 15:20:44.519398156,1746537644,517336892,,0.0002785102515960641,0.00020946676614761513,0.991136373627633,-0.1328479108905326
2025/05/06 15:20:44.618202574,1746537644,617831675,,0.00012182790449517828,0.00021632497435060454,0.991156419509805,-0.13269849443746792
2025/05/06 15:20:44.720641220,1746537644,719403474,,-1.0205165848851662e-05,-2.8820730475863017e-05,0.9911737053017328,-0.13256954772365415
2025/05/06 15:20:44.819432738,1746537644,819177228,,-0.00012025134245156454,-0.0004577659098612211,0.9911882956090322,-0.1324595735975641
2025/05/06 15:20:44.930254824,1746537644,928460716,,-0.0001665247518669323,-0.0009177979897208773,0.9912006018610031,-0.13236501345424484
2025/05/06 15:20:45.32042615,1746537645,29344621,,-0.0001834399198492176,-0.0012771417395556106,0.9912111483037073,-0.13228301000967296
2025/05/06 15:20:45.122938992,1746537645,121795935,,-0.00014037401135991206,-0.001447681450062169,0.9912203411586759,-0.132212404058145
2025/05/06 15:20:45.227155764,1746537645,225213759,,-8.206636385574921e-05,-0.0013969731313465345,0.9912284574384838,-0.13215213541712573
2025/05/06 15:20:45.328808744,1746537645,327828640,,1.3856186780118074e-05,-0.0011351610520031633,0.9912355513306562,-0.13210144963474985
2025/05/06 15:20:45.420243015,1746537645,418166228,,9.917299150765944e-05,-0.0007297680368006233,0.9912415176100752,-0.13205949935315284
2025/05/06 15:20:45.519184740,1746537645,518631640,,0.00019210788608072605,-0.0002710969951197342,0.9912462444753436,-0.13202565059300836
2025/05/06 15:20:45.622264419,1746537645,620390057,,0.0002477667612363622,0.0001318071706262821,0.9912497309851167,-0.13199959113738044
2025/05/06 15:20:45.724883954,1746537645,722943337,,0.0002899648922250136,0.0003948294050864529,0.9912521611278191,-0.13198072999317137
2025/05/06 15:20:45.827260583,1746537645,825491058,,0.0002764310022699047,0.0004590439500992633,0.9912537605516778,-0.13196853813204995
2025/05/06 15:20:45.918218326,1746537645,916426516,,0.0002581826419265763,0.0002987250617241961,0.9912536819675684,-0.13196962563711345
2025/05/06 15:20:46.22893605,1746537646,20570133,,0.00020798391994302707,-5.665222379652615e-05,0.9912514629189152,-0.131986706884918
2025/05/06 15:20:46.121235025,1746537646,119361997,,0.0001529002623923657,-0.0005133780252346521,0.9912470491851125,-0.13201894010451773
2025/05/06 15:20:46.227439298,1746537646,226894132,,8.909160894944814e-05,-0.0009611051240487314,0.9912405656425625,-0.13206517089769937
2025/05/06 15:20:46.323157643,1746537646,322353067,,3.2451948833462414e-05,-0.0012924529272031176,0.9912323264873755,-0.13212419702207245
2025/05/06 15:20:46.428987935,1746537646,426079325,,-1.8282622316555845e-06,-0.0014332882811092344,0.9912226343708551,-0.13219544164706643
2025/05/06 15:20:46.525556792,1746537646,522636480,,-3.3078210596871096e-05,-0.0013587023080865372,0.9912117233926168,-0.13227801118443108
2025/05/06 15:20:46.630733103,1746537646,628484407,,-4.661584440041272e-05,-0.0010895375050838088,0.9911996430929474,-0.13237098725703444
2025/05/06 15:20:46.725944763,1746537646,724241019,,-2.3668992562325175e-05,-0.0006887030951136187,0.9911863251789399,-0.1324733705545931
