time,header_stamp_secs,header_stamp_nsecs,header_frame_id,status_status,status_service,latitude,longitude,altitude,position_covariance_0,position_covariance_1,position_covariance_2,position_covariance_3,position_covariance_4,position_covariance_5,position_covariance_6,position_covariance_7,position_covariance_8,position_covariance_type
2025/04/01 17:52:23.762385227,1743522743,761944771,mA1/gps,0,1,63.434417135956366,10.392490028139767,0.0,1.4400000000000002e-10,0.0,0.0,0.0,1.4400000000000002e-10,0.0,0.0,0.0,1.0,2
2025/04/01 17:52:23.811513994,1743522743,807192991,mA1/gps,0,1,63.43441713541737,10.392490099291631,0.0,1.4400000000000002e-10,0.0,0.0,0.0,1.4400000000000002e-10,0.0,0.0,0.0,1.0,2
2025/04/01 17:52:23.858838043,1743522743,858622179,mA1/gps,0,1,63.43441713584002,10.39249015212585,0.0,1.4400000000000002e-10,0.0,0.0,0.0,1.4400000000000002e-10,0.0,0.0,0.0,1.0,2
2025/04/01 17:52:23.911184480,1743522743,909392778,mA1/gps,0,1,63.43441713584417,10.392490183210803,0.0,1.4400000000000002e-10,0.0,0.0,0.0,1.4400000000000002e-10,0.0,0.0,0.0,1.0,2
2025/04/01 17:52:23.962297277,1743522743,959952724,mA1/gps,0,1,63.43441713522717,10.3924901915494,0.0,1.4400000000000002e-10,0.0,0.0,0.0,1.4400000000000002e-10,0.0,0.0,0.0,1.0,2
2025/04/01 17:52:24.12906023,1743522744,11406822,mA1/gps,0,1,63.43441713379969,10.392490176793622,0.0,1.4400000000000002e-10,0.0,0.0,0.0,1.4400000000000002e-10,0.0,0.0,0.0,1.0,2
2025/04/01 17:52:24.55929042,1743522744,53178116,mA1/gps,0,1,63.43441713352692,10.39249014206045,0.0,1.4400000000000002e-10,0.0,0.0,0.0,1.4400000000000002e-10,0.0,0.0,0.0,1.0,2
2025/04/01 17:52:24.114517734,1743522744,112338618,mA1/gps,0,1,63.43441713268991,10.392490087996903,0.0,1.4400000000000002e-10,0.0,0.0,0.0,1.4400000000000002e-10,0.0,0.0,0.0,1.0,2
2025/04/01 17:52:24.162414830,1743522744,159888948,mA1/gps,0,1,63.43441713078179,10.392490017759263,0.0,1.4400000000000002e-10,0.0,0.0,0.0,1.4400000000000002e-10,0.0,0.0,0.0,1.0,2
2025/04/01 17:52:24.207678252,1743522744,207006128,mA1/gps,0,1,63.4344171290389,10.392489935930534,0.0,1.4400000000000002e-10,0.0,0.0,0.0,1.4400000000000002e-10,0.0,0.0,0.0,1.0,2
2025/04/01 17:52:24.278523025,1743522744,256679825,mA1/gps,0,1,63.43441712789664,10.392489847734389,0.0,1.4400000000000002e-10,0.0,0.0,0.0,1.4400000000000002e-10,0.0,0.0,0.0,1.0,2
2025/04/01 17:52:24.308892321,1743522744,302744786,mA1/gps,0,1,63.43441712657731,10.392489756732132,0.0,1.4400000000000002e-10,0.0,0.0,0.0,1.4400000000000002e-10,0.0,0.0,0.0,1.0,2
2025/04/01 17:52:24.357337073,1743522744,355833266,mA1/gps,0,1,63.434417124057816,10.392489669674733,0.0,1.4400000000000002e-10,0.0,0.0,0.0,1.4400000000000002e-10,0.0,0.0,0.0,1.0,2
2025/04/01 17:52:24.420287071,1743522744,408090647,mA1/gps,0,1,63.43441712189216,10.39248958974336,0.0,1.4400000000000002e-10,0.0,0.0,0.0,1.4400000000000002e-10,0.0,0.0,0.0,1.0,2
2025/04/01 17:52:24.456782115,1743522744,456425103,mA1/gps,0,1,63.43441712079165,10.392489521809233,0.0,1.4400000000000002e-10,0.0,0.0,0.0,1.4400000000000002e-10,0.0,0.0,0.0,1.0,2
2025/04/01 17:52:24.536090518,1743522744,512553826,mA1/gps,0,1,63.434417119284994,10.392489469485167,0.0,1.4400000000000002e-10,0.0,0.0,0.0,1.4400000000000002e-10,0.0,0.0,0.0,1.0,2
2025/04/01 17:52:24.563625116,1743522744,556442828,mA1/gps,0,1,63.43441711653387,10.392489434959657,0.0,1.4400000000000002e-10,0.0,0.0,0.0,1.4400000000000002e-10,0.0,0.0,0.0,1.0,2
2025/04/01 17:52:24.605278754,1743522744,604202849,mA1/gps,0,1,63.43441711433877,10.39248941917243,0.0,1.4400000000000002e-10,0.0,0.0,0.0,1.4400000000000002e-10,0.0,0.0,0.0,1.0,2
2025/04/01 17:52:24.660380549,1743522744,658832775,mA1/gps,0,1,63.43441711299466,10.392489422527783,0.0,1.4400000000000002e-10,0.0,0.0,0.0,1.4400000000000002e-10,0.0,0.0,0.0,1.0,2
2025/04/01 17:52:24.744916095,1743522744,712305537,mA1/gps,0,1,63.434417111881984,10.392489442785314,0.0,1.4400000000000002e-10,0.0,0.0,0.0,1.4400000000000002e-10,0.0,0.0,0.0,1.0,2
2025/04/01 17:52:24.807502699,1743522744,753857957,mA1/gps,0,1,63.43441710974924,10.392489479869614,0.0,1.4400000000000002e-10,0.0,0.0,0.0,1.4400000000000002e-10,0.0,0.0,0.0,1.0,2
2025/04/01 17:52:24.832910507,1743522744,809528133,mA1/gps,0,1,63.43441710796517,10.392489531387438,0.0,1.4400000000000002e-10,0.0,0.0,0.0,1.4400000000000002e-10,0.0,0.0,0.0,1.0,2
2025/04/01 17:52:24.871519239,1743522744,855157285,mA1/gps,0,1,63.43441710700984,10.392489592342866,0.0,1.4400000000000002e-10,0.0,0.0,0.0,1.4400000000000002e-10,0.0,0.0,0.0,1.0,2
2025/04/01 17:52:24.914706271,1743522744,909713168,mA1/gps,0,1,63.43441710635261,10.3924896601959,0.0,1.4400000000000002e-10,0.0,0.0,0.0,1.4400000000000002e-10,0.0,0.0,0.0,1.0,2
2025/04/01 17:52:24.955110003,1743522744,954825748,mA1/gps,0,1,63.434417104255374,10.39248972788031,0.0,1.4400000000000002e-10,0.0,0.0,0.0,1.4400000000000002e-10,0.0,0.0,0.0,1.0,2
2025/04/01 17:52:25.11402186,1743522745,7921862,mA1/gps,0,1,63.43441710241157,10.392489793036228,0.0,1.4400000000000002e-10,0.0,0.0,0.0,1.4400000000000002e-10,0.0,0.0,0.0,1.0,2
2025/04/01 17:52:25.59428412,1743522745,57956191,mA1/gps,0,1,63.434417101984586,10.392489849412655,0.0,1.4400000000000002e-10,0.0,0.0,0.0,1.4400000000000002e-10,0.0,0.0,0.0,1.0,2
2025/04/01 17:52:25.105378451,1743522745,103844242,mA1/gps,0,1,63.43441710124874,10.392489895007682,0.0,1.4400000000000002e-10,0.0,0.0,0.0,1.4400000000000002e-10,0.0,0.0,0.0,1.0,2
2025/04/01 17:52:25.157876411,1743522745,157692681,mA1/gps,0,1,63.4344170994547,10.392489925344307,0.0,1.4400000000000002e-10,0.0,0.0,0.0,1.4400000000000002e-10,0.0,0.0,0.0,1.0,2
2025/04/01 17:52:25.212938981,1743522745,212062599,mA1/gps,0,1,63.43441709797586,10.392489938039972,0.0,1.4400000000000002e-10,0.0,0.0,0.0,1.4400000000000002e-10,0.0,0.0,0.0,1.0,2
2025/04/01 17:52:25.261800840,1743522745,261087113,mA1/gps,0,1,63.43441709726318,10.392489931315346,0.0,1.4400000000000002e-10,0.0,0.0,0.0,1.4400000000000002e-10,0.0,0.0,0.0,1.0,2
2025/04/01 17:52:25.308021135,1743522745,306498347,mA1/gps,0,1,63.434417096468614,10.392489904437117,0.0,1.4400000000000002e-10,0.0,0.0,0.0,1.4400000000000002e-10,0.0,0.0,0.0,1.0,2
2025/04/01 17:52:25.365140783,1743522745,361681168,mA1/gps,0,1,63.43441709473299,10.39248985895525,0.0,1.4400000000000002e-10,0.0,0.0,0.0,1.4400000000000002e-10,0.0,0.0,0.0,1.0,2
2025/04/01 17:52:25.416664640,1743522745,412655101,mA1/gps,0,1,63.43441709301118,10.392489792819045,0.0,1.4400000000000002e-10,0.0,0.0,0.0,1.4400000000000002e-10,0.0,0.0,0.0,1.0,2
2025/04/01 17:52:25.454362061,1743522745,453877914,mA1/gps,0,1,63.434417092091465,10.392489711555651,0.0,1.4400000000000002e-10,0.0,0.0,0.0,1.4400000000000002e-10,0.0,0.0,0.0,1.0,2
2025/04/01 17:52:25.507823799,1743522745,506550639,mA1/gps,0,1,63.43441709108373,10.392489617184482,0.0,1.4400000000000002e-10,0.0,0.0,0.0,1.4400000000000002e-10,0.0,0.0,0.0,1.0,2
2025/04/01 17:52:25.559322460,1743522745,558695667,mA1/gps,0,1,63.43441708905596,10.392489514121547,0.0,1.4400000000000002e-10,0.0,0.0,0.0,1.4400000000000002e-10,0.0,0.0,0.0,1.0,2
2025/04/01 17:52:25.613003272,1743522745,610718232,mA1/gps,0,1,63.43441708730489,10.392489408035102,0.0,1.4400000000000002e-10,0.0,0.0,0.0,1.4400000000000002e-10,0.0,0.0,0.0,1.0,2
2025/04/01 17:52:25.655293594,1743522745,654312743,mA1/gps,0,1,63.43441708634914,10.392489302783668,0.0,1.4400000000000002e-10,0.0,0.0,0.0,1.4400000000000002e-10,0.0,0.0,0.0,1.0,2
2025/04/01 17:52:25.707141930,1743522745,704301632,mA1/gps,0,1,63.43441708534159,10.392489202631037,0.0,1.4400000000000002e-10,0.0,0.0,0.0,1.4400000000000002e-10,0.0,0.0,0.0,1.0,2
2025/04/01 17:52:25.756628877,1743522745,755807816,mA1/gps,0,1,63.434417083427114,10.392489112378133,0.0,1.4400000000000002e-10,0.0,0.0,0.0,1.4400000000000002e-10,0.0,0.0,0.0,1.0,2
2025/04/01 17:52:25.808576477,1743522745,808409614,mA1/gps,0,1,63.434417081637825,10.39248903555624,0.0,1.4400000000000002e-10,0.0,0.0,0.0,1.4400000000000002e-10,0.0,0.0,0.0,1.0,2
2025/04/01 17:52:25.865949379,1743522745,863470042,mA1/gps,0,1,63.434417080711576,10.392488973454268,0.0,1.4400000000000002e-10,0.0,0.0,0.0,1.4400000000000002e-10,0.0,0.0,0.0,1.0,2
2025/04/01 17:52:25.911070557,1743522745,906678860,mA1/gps,0,1,63.43441708017187,10.392488928431831,0.0,1.4400000000000002e-10,0.0,0.0,0.0,1.4400000000000002e-10,0.0,0.0,0.0,1.0,2
2025/04/01 17:52:25.954399588,1743522745,954236567,mA1/gps,0,1,63.434417078444284,10.392488900795854,0.0,1.4400000000000002e-10,0.0,0.0,0.0,1.4400000000000002e-10,0.0,0.0,0.0,1.0,2
2025/04/01 17:52:26.9689408,1743522746,5421773,mA1/gps,0,1,63.434417077069405,10.392488888970021,0.0,1.4400000000000002e-10,0.0,0.0,0.0,1.4400000000000002e-10,0.0,0.0,0.0,1.0,2
2025/04/01 17:52:26.60819202,1743522746,55479782,mA1/gps,0,1,63.43441707674483,10.392488892536996,0.0,1.4400000000000002e-10,0.0,0.0,0.0,1.4400000000000002e-10,0.0,0.0,0.0,1.0,2
2025/04/01 17:52:26.107663345,1743522746,107020703,mA1/gps,0,1,63.43441707600932,10.39248890690182,0.0,1.4400000000000002e-10,0.0,0.0,0.0,1.4400000000000002e-10,0.0,0.0,0.0,1.0,2
2025/04/01 17:52:26.157090169,1743522746,156840778,mA1/gps,0,1,63.43441707557552,10.39248893052832,0.0,1.4400000000000002e-10,0.0,0.0,0.0,1.4400000000000002e-10,0.0,0.0,0.0,1.0,2
2025/04/01 17:52:26.212101016,1743522746,208888677,mA1/gps,0,1,63.43441707488856,10.392488960421446,0.0,1.4400000000000002e-10,0.0,0.0,0.0,1.4400000000000002e-10,0.0,0.0,0.0,1.0,2
2025/04/01 17:52:26.261240110,1743522746,260903390,mA1/gps,0,1,63.43441707609106,10.392488994372618,0.0,1.4400000000000002e-10,0.0,0.0,0.0,1.4400000000000002e-10,0.0,0.0,0.0,1.0,2
2025/04/01 17:52:26.304298176,1743522746,303906015,mA1/gps,0,1,63.43441707522524,10.392489029013067,0.0,1.4400000000000002e-10,0.0,0.0,0.0,1.4400000000000002e-10,0.0,0.0,0.0,1.0,2
2025/04/01 17:52:26.353440167,1743522746,353166822,mA1/gps,0,1,63.43441707569698,10.3924890619085,0.0,1.4400000000000002e-10,0.0,0.0,0.0,1.4400000000000002e-10,0.0,0.0,0.0,1.0,2
2025/04/01 17:52:26.408049311,1743522746,407897819,mA1/gps,0,1,63.43441707721271,10.392489090842842,0.0,1.4400000000000002e-10,0.0,0.0,0.0,1.4400000000000002e-10,0.0,0.0,0.0,1.0,2
2025/04/01 17:52:26.460073670,1743522746,459850655,mA1/gps,0,1,63.43441707622464,10.39248911215398,0.0,1.4400000000000002e-10,0.0,0.0,0.0,1.4400000000000002e-10,0.0,0.0,0.0,1.0,2
2025/04/01 17:52:26.512681049,1743522746,512296637,mA1/gps,0,1,63.43441707766097,10.39248912556147,0.0,1.4400000000000002e-10,0.0,0.0,0.0,1.4400000000000002e-10,0.0,0.0,0.0,1.0,2
2025/04/01 17:52:26.554331555,1743522746,552585983,mA1/gps,0,1,63.43441707926807,10.39248913035352,0.0,1.4400000000000002e-10,0.0,0.0,0.0,1.4400000000000002e-10,0.0,0.0,0.0,1.0,2
2025/04/01 17:52:26.605834456,1743522746,604400483,mA1/gps,0,1,63.43441707956189,10.392489125281521,0.0,1.4400000000000002e-10,0.0,0.0,0.0,1.4400000000000002e-10,0.0,0.0,0.0,1.0,2
2025/04/01 17:52:26.654594569,1743522746,654372242,mA1/gps,0,1,63.4344170825851,10.392489111366476,0.0,1.4400000000000002e-10,0.0,0.0,0.0,1.4400000000000002e-10,0.0,0.0,0.0,1.0,2
2025/04/01 17:52:26.707372365,1743522746,706141705,mA1/gps,0,1,63.434417082131276,10.39248908873504,0.0,1.4400000000000002e-10,0.0,0.0,0.0,1.4400000000000002e-10,0.0,0.0,0.0,1.0,2
2025/04/01 17:52:26.756382554,1743522746,755932484,mA1/gps,0,1,63.43441708187479,10.392489059740077,0.0,1.4400000000000002e-10,0.0,0.0,0.0,1.4400000000000002e-10,0.0,0.0,0.0,1.0,2
2025/04/01 17:52:26.807558786,1743522746,807219002,mA1/gps,0,1,63.43441708476617,10.392489027413324,0.0,1.4400000000000002e-10,0.0,0.0,0.0,1.4400000000000002e-10,0.0,0.0,0.0,1.0,2
2025/04/01 17:52:26.858756724,1743522746,858249962,mA1/gps,0,1,63.43441708452678,10.392488995120765,0.0,1.4400000000000002e-10,0.0,0.0,0.0,1.4400000000000002e-10,0.0,0.0,0.0,1.0,2
2025/04/01 17:52:26.911959293,1743522746,909022398,mA1/gps,0,1,63.43441708655976,10.392488965271578,0.0,1.4400000000000002e-10,0.0,0.0,0.0,1.4400000000000002e-10,0.0,0.0,0.0,1.0,2
2025/04/01 17:52:26.959981418,1743522746,959690507,mA1/gps,0,1,63.43441708712584,10.392488939261456,0.0,1.4400000000000002e-10,0.0,0.0,0.0,1.4400000000000002e-10,0.0,0.0,0.0,1.0,2
2025/04/01 17:52:27.17206202,1743522747,13523929,mA1/gps,0,1,63.434417084758,10.392488917715164,0.0,1.4400000000000002e-10,0.0,0.0,0.0,1.4400000000000002e-10,0.0,0.0,0.0,1.0,2
2025/04/01 17:52:27.53490797,1743522747,53043564,mA1/gps,0,1,63.434417086677975,10.392488902625505,0.0,1.4400000000000002e-10,0.0,0.0,0.0,1.4400000000000002e-10,0.0,0.0,0.0,1.0,2
2025/04/01 17:52:27.105789455,1743522747,105189258,mA1/gps,0,1,63.434417086346535,10.392488894720952,0.0,1.4400000000000002e-10,0.0,0.0,0.0,1.4400000000000002e-10,0.0,0.0,0.0,1.0,2
2025/04/01 17:52:27.155958639,1743522747,155212231,mA1/gps,0,1,63.43441708596131,10.392488893285863,0.0,1.4400000000000002e-10,0.0,0.0,0.0,1.4400000000000002e-10,0.0,0.0,0.0,1.0,2
2025/04/01 17:52:27.206985351,1743522747,206341302,mA1/gps,0,1,63.434417087114774,10.392488898303856,0.0,1.4400000000000002e-10,0.0,0.0,0.0,1.4400000000000002e-10,0.0,0.0,0.0,1.0,2
2025/04/01 17:52:27.256340845,1743522747,256163966,mA1/gps,0,1,63.4344170852386,10.392488908263362,0.0,1.4400000000000002e-10,0.0,0.0,0.0,1.4400000000000002e-10,0.0,0.0,0.0,1.0,2
2025/04/01 17:52:27.312229228,1743522747,310316664,mA1/gps,0,1,63.43441708553225,10.392488923092595,0.0,1.4400000000000002e-10,0.0,0.0,0.0,1.4400000000000002e-10,0.0,0.0,0.0,1.0,2
2025/04/01 17:52:27.360817103,1743522747,360356443,mA1/gps,0,1,63.4344170841611,10.39248894167359,0.0,1.4400000000000002e-10,0.0,0.0,0.0,1.4400000000000002e-10,0.0,0.0,0.0,1.0,2
2025/04/01 17:52:27.411899449,1743522747,411617345,mA1/gps,0,1,63.434417081343895,10.392488961515799,0.0,1.4400000000000002e-10,0.0,0.0,0.0,1.4400000000000002e-10,0.0,0.0,0.0,1.0,2
2025/04/01 17:52:27.453129721,1743522747,451719610,mA1/gps,0,1,63.434417082062716,10.392488983062107,0.0,1.4400000000000002e-10,0.0,0.0,0.0,1.4400000000000002e-10,0.0,0.0,0.0,1.0,2
2025/04/01 17:52:27.506243816,1743522747,505380391,mA1/gps,0,1,63.43441707998657,10.392489005436126,0.0,1.4400000000000002e-10,0.0,0.0,0.0,1.4400000000000002e-10,0.0,0.0,0.0,1.0,2
2025/04/01 17:52:27.555837862,1743522747,555514929,mA1/gps,0,1,63.43441707780758,10.392489023989734,0.0,1.4400000000000002e-10,0.0,0.0,0.0,1.4400000000000002e-10,0.0,0.0,0.0,1.0,2
2025/04/01 17:52:27.607834710,1743522747,607029859,mA1/gps,0,1,63.434417078056725,10.39248903875341,0.0,1.4400000000000002e-10,0.0,0.0,0.0,1.4400000000000002e-10,0.0,0.0,0.0,1.0,2
2025/04/01 17:52:27.658113990,1743522747,656887337,mA1/gps,0,1,63.43441707508344,10.392489048201595,0.0,1.4400000000000002e-10,0.0,0.0,0.0,1.4400000000000002e-10,0.0,0.0,0.0,1.0,2
2025/04/01 17:52:27.708858171,1743522747,707822642,mA1/gps,0,1,63.43441707493638,10.392489050509107,0.0,1.4400000000000002e-10,0.0,0.0,0.0,1.4400000000000002e-10,0.0,0.0,0.0,1.0,2
2025/04/01 17:52:27.759022728,1743522747,757501179,mA1/gps,0,1,63.434417073491076,10.3924890464936,0.0,1.4400000000000002e-10,0.0,0.0,0.0,1.4400000000000002e-10,0.0,0.0,0.0,1.0,2
2025/04/01 17:52:27.809893996,1743522747,809566354,mA1/gps,0,1,63.43441707128331,10.3924890361795,0.0,1.4400000000000002e-10,0.0,0.0,0.0,1.4400000000000002e-10,0.0,0.0,0.0,1.0,2
2025/04/01 17:52:27.859784661,1743522747,859293191,mA1/gps,0,1,63.434417072533684,10.392489020280022,0.0,1.4400000000000002e-10,0.0,0.0,0.0,1.4400000000000002e-10,0.0,0.0,0.0,1.0,2
2025/04/01 17:52:27.913508476,1743522747,910761303,mA1/gps,0,1,63.43441707006173,10.392488998529029,0.0,1.4400000000000002e-10,0.0,0.0,0.0,1.4400000000000002e-10,0.0,0.0,0.0,1.0,2
2025/04/01 17:52:27.960403257,1743522747,959782789,mA1/gps,0,1,63.43441706854852,10.392488973813107,0.0,1.4400000000000002e-10,0.0,0.0,0.0,1.4400000000000002e-10,0.0,0.0,0.0,1.0,2
2025/04/01 17:52:28.11310754,1743522748,10972887,mA1/gps,0,1,63.434417070567235,10.392488946412897,0.0,1.4400000000000002e-10,0.0,0.0,0.0,1.4400000000000002e-10,0.0,0.0,0.0,1.0,2
2025/04/01 17:52:28.52951733,1743522748,51975838,mA1/gps,0,1,63.43441706854707,10.392488918321723,0.0,1.4400000000000002e-10,0.0,0.0,0.0,1.4400000000000002e-10,0.0,0.0,0.0,1.0,2
2025/04/01 17:52:28.104795100,1743522748,104462296,mA1/gps,0,1,63.43441706930632,10.392488891061925,0.0,1.4400000000000002e-10,0.0,0.0,0.0,1.4400000000000002e-10,0.0,0.0,0.0,1.0,2
2025/04/01 17:52:28.154890633,1743522748,154050655,mA1/gps,0,1,63.43441706968123,10.392488866472375,0.0,1.4400000000000002e-10,0.0,0.0,0.0,1.4400000000000002e-10,0.0,0.0,0.0,1.0,2
2025/04/01 17:52:28.208015038,1743522748,205876434,mA1/gps,0,1,63.43441706829389,10.392488846183644,0.0,1.4400000000000002e-10,0.0,0.0,0.0,1.4400000000000002e-10,0.0,0.0,0.0,1.0,2
2025/04/01 17:52:28.256469577,1743522748,255675998,mA1/gps,0,1,63.43441707023626,10.392488832016992,0.0,1.4400000000000002e-10,0.0,0.0,0.0,1.4400000000000002e-10,0.0,0.0,0.0,1.0,2
2025/04/01 17:52:28.313711387,1743522748,311660157,mA1/gps,0,1,63.43441707038268,10.392488823421502,0.0,1.4400000000000002e-10,0.0,0.0,0.0,1.4400000000000002e-10,0.0,0.0,0.0,1.0,2
2025/04/01 17:52:28.353910157,1743522748,352388254,mA1/gps,0,1,63.434417070017076,10.392488820091497,0.0,1.4400000000000002e-10,0.0,0.0,0.0,1.4400000000000002e-10,0.0,0.0,0.0,1.0,2
2025/04/01 17:52:28.404289037,1743522748,403964825,mA1/gps,0,1,63.43441707136608,10.39248882162049,0.0,1.4400000000000002e-10,0.0,0.0,0.0,1.4400000000000002e-10,0.0,0.0,0.0,1.0,2
2025/04/01 17:52:28.456200487,1743522748,455656572,mA1/gps,0,1,63.43441707030958,10.39248882748084,0.0,1.4400000000000002e-10,0.0,0.0,0.0,1.4400000000000002e-10,0.0,0.0,0.0,1.0,2
2025/04/01 17:52:28.507495557,1743522748,507020714,mA1/gps,0,1,63.434417071041715,10.39248883771375,0.0,1.4400000000000002e-10,0.0,0.0,0.0,1.4400000000000002e-10,0.0,0.0,0.0,1.0,2
2025/04/01 17:52:28.557386105,1743522748,556711158,mA1/gps,0,1,63.43441707302394,10.392488851995466,0.0,1.4400000000000002e-10,0.0,0.0,0.0,1.4400000000000002e-10,0.0,0.0,0.0,1.0,2
2025/04/01 17:52:28.608309840,1743522748,607704100,mA1/gps,0,1,63.43441707172215,10.392488868809933,0.0,1.4400000000000002e-10,0.0,0.0,0.0,1.4400000000000002e-10,0.0,0.0,0.0,1.0,2
2025/04/01 17:52:28.659708857,1743522748,658524242,mA1/gps,0,1,63.43441707363574,10.39248888968398,0.0,1.4400000000000002e-10,0.0,0.0,0.0,1.4400000000000002e-10,0.0,0.0,0.0,1.0,2
2025/04/01 17:52:28.713098602,1743522748,712435397,mA1/gps,0,1,63.43441707215344,10.39248891068113,0.0,1.4400000000000002e-10,0.0,0.0,0.0,1.4400000000000002e-10,0.0,0.0,0.0,1.0,2
2025/04/01 17:52:28.776544931,1743522748,763422618,mA1/gps,0,1,63.43441707150037,10.39248893418044,0.0,1.4400000000000002e-10,0.0,0.0,0.0,1.4400000000000002e-10,0.0,0.0,0.0,1.0,2
2025/04/01 17:52:28.808429074,1743522748,807430888,mA1/gps,0,1,63.43441707306135,10.392488957571299,0.0,1.4400000000000002e-10,0.0,0.0,0.0,1.4400000000000002e-10,0.0,0.0,0.0,1.0,2
2025/04/01 17:52:28.859012597,1743522748,858557128,mA1/gps,0,1,63.43441707181252,10.392488980544957,0.0,1.4400000000000002e-10,0.0,0.0,0.0,1.4400000000000002e-10,0.0,0.0,0.0,1.0,2
2025/04/01 17:52:28.912999642,1743522748,910554028,mA1/gps,0,1,63.43441707264682,10.392489003529889,0.0,1.4400000000000002e-10,0.0,0.0,0.0,1.4400000000000002e-10,0.0,0.0,0.0,1.0,2
2025/04/01 17:52:28.956108004,1743522748,955336004,mA1/gps,0,1,63.434417072080365,10.392489024335953,0.0,1.4400000000000002e-10,0.0,0.0,0.0,1.4400000000000002e-10,0.0,0.0,0.0,1.0,2
2025/04/01 17:52:29.8086855,1743522749,7407823,mA1/gps,0,1,63.43441706982971,10.392489043023973,0.0,1.4400000000000002e-10,0.0,0.0,0.0,1.4400000000000002e-10,0.0,0.0,0.0,1.0,2
2025/04/01 17:52:29.58812104,1743522749,57982845,mA1/gps,0,1,63.43441707164829,10.392489060725877,0.0,1.4400000000000002e-10,0.0,0.0,0.0,1.4400000000000002e-10,0.0,0.0,0.0,1.0,2
2025/04/01 17:52:29.109630028,1743522749,108687697,mA1/gps,0,1,63.43441707004399,10.392489075341093,0.0,1.4400000000000002e-10,0.0,0.0,0.0,1.4400000000000002e-10,0.0,0.0,0.0,1.0,2
2025/04/01 17:52:29.159265358,1743522749,158888907,mA1/gps,0,1,63.43441706857575,10.39248908799637,0.0,1.4400000000000002e-10,0.0,0.0,0.0,1.4400000000000002e-10,0.0,0.0,0.0,1.0,2
2025/04/01 17:52:29.213353643,1743522749,210764582,mA1/gps,0,1,63.434417069690426,10.39248909886447,0.0,1.4400000000000002e-10,0.0,0.0,0.0,1.4400000000000002e-10,0.0,0.0,0.0,1.0,2
2025/04/01 17:52:29.260228854,1743522749,259797164,mA1/gps,0,1,63.43441706776498,10.39248910708635,0.0,1.4400000000000002e-10,0.0,0.0,0.0,1.4400000000000002e-10,0.0,0.0,0.0,1.0,2
2025/04/01 17:52:29.312211290,1743522749,311769844,mA1/gps,0,1,63.43441706848659,10.392489113090532,0.0,1.4400000000000002e-10,0.0,0.0,0.0,1.4400000000000002e-10,0.0,0.0,0.0,1.0,2
2025/04/01 17:52:29.353063591,1743522749,352523975,mA1/gps,0,1,63.43441706814674,10.392489117953367,0.0,1.4400000000000002e-10,0.0,0.0,0.0,1.4400000000000002e-10,0.0,0.0,0.0,1.0,2
2025/04/01 17:52:29.405741878,1743522749,404687652,mA1/gps,0,1,63.434417066089516,10.392489122088923,0.0,1.4400000000000002e-10,0.0,0.0,0.0,1.4400000000000002e-10,0.0,0.0,0.0,1.0,2
2025/04/01 17:52:29.456171941,1743522749,454157550,mA1/gps,0,1,63.43441706842284,10.39248912560638,0.0,1.4400000000000002e-10,0.0,0.0,0.0,1.4400000000000002e-10,0.0,0.0,0.0,1.0,2
2025/04/01 17:52:29.505987267,1743522749,505527635,mA1/gps,0,1,63.4344170671189,10.392489130137024,0.0,1.4400000000000002e-10,0.0,0.0,0.0,1.4400000000000002e-10,0.0,0.0,0.0,1.0,2
2025/04/01 17:52:29.557420624,1743522749,556183433,mA1/gps,0,1,63.434417066325864,10.392489136311461,0.0,1.4400000000000002e-10,0.0,0.0,0.0,1.4400000000000002e-10,0.0,0.0,0.0,1.0,2
2025/04/01 17:52:29.607841446,1743522749,607447384,mA1/gps,0,1,63.43441706798294,10.392489143936896,0.0,1.4400000000000002e-10,0.0,0.0,0.0,1.4400000000000002e-10,0.0,0.0,0.0,1.0,2
2025/04/01 17:52:29.659489678,1743522749,658366343,mA1/gps,0,1,63.43441706695981,10.392489154399001,0.0,1.4400000000000002e-10,0.0,0.0,0.0,1.4400000000000002e-10,0.0,0.0,0.0,1.0,2
2025/04/01 17:52:29.711227661,1743522749,710710450,mA1/gps,0,1,63.434417068154474,10.392489166666513,0.0,1.4400000000000002e-10,0.0,0.0,0.0,1.4400000000000002e-10,0.0,0.0,0.0,1.0,2
2025/04/01 17:52:29.761212534,1743522749,760241312,mA1/gps,0,1,63.434417068403526,10.392489182275702,0.0,1.4400000000000002e-10,0.0,0.0,0.0,1.4400000000000002e-10,0.0,0.0,0.0,1.0,2
2025/04/01 17:52:29.813516027,1743522749,812327229,mA1/gps,0,1,63.434417066778344,10.392489200671287,0.0,1.4400000000000002e-10,0.0,0.0,0.0,1.4400000000000002e-10,0.0,0.0,0.0,1.0,2
2025/04/01 17:52:29.857857746,1743522749,854081881,mA1/gps,0,1,63.4344170696212,10.392489222354628,0.0,1.4400000000000002e-10,0.0,0.0,0.0,1.4400000000000002e-10,0.0,0.0,0.0,1.0,2
2025/04/01 17:52:29.908264270,1743522749,907811705,mA1/gps,0,1,63.43441706869894,10.392489248024187,0.0,1.4400000000000002e-10,0.0,0.0,0.0,1.4400000000000002e-10,0.0,0.0,0.0,1.0,2
2025/04/01 17:52:29.956594401,1743522749,956455638,mA1/gps,0,1,63.434417067727416,10.392489275106072,0.0,1.4400000000000002e-10,0.0,0.0,0.0,1.4400000000000002e-10,0.0,0.0,0.0,1.0,2
2025/04/01 17:52:30.12750657,1743522750,10104445,mA1/gps,0,1,63.4344170693027,10.392489304101248,0.0,1.4400000000000002e-10,0.0,0.0,0.0,1.4400000000000002e-10,0.0,0.0,0.0,1.0,2
2025/04/01 17:52:30.54975907,1743522750,53392235,mA1/gps,0,1,63.434417067905486,10.392489332608683,0.0,1.4400000000000002e-10,0.0,0.0,0.0,1.4400000000000002e-10,0.0,0.0,0.0,1.0,2
2025/04/01 17:52:30.105040878,1743522750,104210486,mA1/gps,0,1,63.43441706921261,10.392489360527348,0.0,1.4400000000000002e-10,0.0,0.0,0.0,1.4400000000000002e-10,0.0,0.0,0.0,1.0,2
2025/04/01 17:52:30.157362893,1743522750,156517765,mA1/gps,0,1,63.434417068988935,10.392489383638276,0.0,1.4400000000000002e-10,0.0,0.0,0.0,1.4400000000000002e-10,0.0,0.0,0.0,1.0,2
2025/04/01 17:52:30.209545719,1743522750,208707495,mA1/gps,0,1,63.43441706718707,10.392489401739123,0.0,1.4400000000000002e-10,0.0,0.0,0.0,1.4400000000000002e-10,0.0,0.0,0.0,1.0,2
2025/04/01 17:52:30.260551767,1743522750,258764728,mA1/gps,0,1,63.43441706896301,10.392489414664352,0.0,1.4400000000000002e-10,0.0,0.0,0.0,1.4400000000000002e-10,0.0,0.0,0.0,1.0,2
2025/04/01 17:52:30.313838866,1743522750,310684301,mA1/gps,0,1,63.43441706755594,10.392489421308653,0.0,1.4400000000000002e-10,0.0,0.0,0.0,1.4400000000000002e-10,0.0,0.0,0.0,1.0,2
2025/04/01 17:52:30.361327226,1743522750,360295806,mA1/gps,0,1,63.434417066478424,10.392489421255044,0.0,1.4400000000000002e-10,0.0,0.0,0.0,1.4400000000000002e-10,0.0,0.0,0.0,1.0,2
2025/04/01 17:52:30.411567689,1743522750,411159780,mA1/gps,0,1,63.43441706779694,10.392489414441506,0.0,1.4400000000000002e-10,0.0,0.0,0.0,1.4400000000000002e-10,0.0,0.0,0.0,1.0,2
2025/04/01 17:52:30.453465107,1743522750,451580184,mA1/gps,0,1,63.434417066129264,10.392489403162415,0.0,1.4400000000000002e-10,0.0,0.0,0.0,1.4400000000000002e-10,0.0,0.0,0.0,1.0,2
2025/04/01 17:52:30.505545861,1743522750,504918509,mA1/gps,0,1,63.434417066877955,10.392489388239902,0.0,1.4400000000000002e-10,0.0,0.0,0.0,1.4400000000000002e-10,0.0,0.0,0.0,1.0,2
2025/04/01 17:52:30.554950003,1743522750,554698200,mA1/gps,0,1,63.43441706671993,10.392489372882915,0.0,1.4400000000000002e-10,0.0,0.0,0.0,1.4400000000000002e-10,0.0,0.0,0.0,1.0,2
2025/04/01 17:52:30.605970435,1743522750,605583632,mA1/gps,0,1,63.43441706481578,10.392489357784662,0.0,1.4400000000000002e-10,0.0,0.0,0.0,1.4400000000000002e-10,0.0,0.0,0.0,1.0,2
2025/04/01 17:52:30.656204745,1743522750,655619827,mA1/gps,0,1,63.4344170672573,10.392489347159987,0.0,1.4400000000000002e-10,0.0,0.0,0.0,1.4400000000000002e-10,0.0,0.0,0.0,1.0,2
2025/04/01 17:52:30.707114095,1743522750,706568733,mA1/gps,0,1,63.434417066839025,10.392489340940974,0.0,1.4400000000000002e-10,0.0,0.0,0.0,1.4400000000000002e-10,0.0,0.0,0.0,1.0,2
2025/04/01 17:52:30.760337289,1743522750,759513427,mA1/gps,0,1,63.434417065761664,10.392489340641688,0.0,1.4400000000000002e-10,0.0,0.0,0.0,1.4400000000000002e-10,0.0,0.0,0.0,1.0,2
2025/04/01 17:52:30.810846432,1743522750,810608975,mA1/gps,0,1,63.434417067556396,10.392489347268741,0.0,1.4400000000000002e-10,0.0,0.0,0.0,1.4400000000000002e-10,0.0,0.0,0.0,1.0,2
2025/04/01 17:52:30.861141652,1743522750,860406218,mA1/gps,0,1,63.43441706668978,10.39248936107781,0.0,1.4400000000000002e-10,0.0,0.0,0.0,1.4400000000000002e-10,0.0,0.0,0.0,1.0,2
2025/04/01 17:52:30.907703781,1743522750,902786835,mA1/gps,0,1,63.43441706859004,10.392489382280248,0.0,1.4400000000000002e-10,0.0,0.0,0.0,1.4400000000000002e-10,0.0,0.0,0.0,1.0,2
2025/04/01 17:52:30.953918727,1743522750,953395682,mA1/gps,0,1,63.43441706970516,10.39248941248486,0.0,1.4400000000000002e-10,0.0,0.0,0.0,1.4400000000000002e-10,0.0,0.0,0.0,1.0,2
2025/04/01 17:52:31.6545918,1743522751,5151972,mA1/gps,0,1,63.43441706915926,10.392489450984224,0.0,1.4400000000000002e-10,0.0,0.0,0.0,1.4400000000000002e-10,0.0,0.0,0.0,1.0,2
2025/04/01 17:52:31.56759868,1743522751,54480820,mA1/gps,0,1,63.43441707173565,10.392489496957092,0.0,1.4400000000000002e-10,0.0,0.0,0.0,1.4400000000000002e-10,0.0,0.0,0.0,1.0,2
2025/04/01 17:52:31.107524573,1743522751,106567994,mA1/gps,0,1,63.43441707227556,10.392489549612465,0.0,1.4400000000000002e-10,0.0,0.0,0.0,1.4400000000000002e-10,0.0,0.0,0.0,1.0,2
2025/04/01 17:52:31.156462482,1743522751,156033204,mA1/gps,0,1,63.43441707354824,10.39248960529958,0.0,1.4400000000000002e-10,0.0,0.0,0.0,1.4400000000000002e-10,0.0,0.0,0.0,1.0,2
2025/04/01 17:52:31.211297418,1743522751,209375295,mA1/gps,0,1,63.43441707636639,10.39248966166096,0.0,1.4400000000000002e-10,0.0,0.0,0.0,1.4400000000000002e-10,0.0,0.0,0.0,1.0,2
2025/04/01 17:52:31.262313432,1743522751,259433656,mA1/gps,0,1,63.43441707628431,10.392489714877525,0.0,1.4400000000000002e-10,0.0,0.0,0.0,1.4400000000000002e-10,0.0,0.0,0.0,1.0,2
2025/04/01 17:52:31.313153511,1743522751,311629086,mA1/gps,0,1,63.434417078177376,10.392489762243681,0.0,1.4400000000000002e-10,0.0,0.0,0.0,1.4400000000000002e-10,0.0,0.0,0.0,1.0,2
2025/04/01 17:52:31.363705888,1743522751,361381387,mA1/gps,0,1,63.43441707929761,10.392489799679506,0.0,1.4400000000000002e-10,0.0,0.0,0.0,1.4400000000000002e-10,0.0,0.0,0.0,1.0,2
2025/04/01 17:52:31.404379974,1743522751,403958839,mA1/gps,0,1,63.43441707856345,10.39248982669198,0.0,1.4400000000000002e-10,0.0,0.0,0.0,1.4400000000000002e-10,0.0,0.0,0.0,1.0,2
2025/04/01 17:52:31.454703676,1743522751,453911177,mA1/gps,0,1,63.43441708099707,10.392489841886663,0.0,1.4400000000000002e-10,0.0,0.0,0.0,1.4400000000000002e-10,0.0,0.0,0.0,1.0,2
2025/04/01 17:52:31.505418559,1743522751,504945533,mA1/gps,0,1,63.43441708269398,10.392489844434246,0.0,1.4400000000000002e-10,0.0,0.0,0.0,1.4400000000000002e-10,0.0,0.0,0.0,1.0,2
2025/04/01 17:52:31.557925644,1743522751,557413924,mA1/gps,0,1,63.43441708127704,10.392489837410832,0.0,1.4400000000000002e-10,0.0,0.0,0.0,1.4400000000000002e-10,0.0,0.0,0.0,1.0,2
2025/04/01 17:52:31.609979627,1743522751,609825373,mA1/gps,0,1,63.43441708221314,10.392489820398394,0.0,1.4400000000000002e-10,0.0,0.0,0.0,1.4400000000000002e-10,0.0,0.0,0.0,1.0,2
2025/04/01 17:52:31.658755879,1743522751,658544265,mA1/gps,0,1,63.434417083868695,10.39248979610203,0.0,1.4400000000000002e-10,0.0,0.0,0.0,1.4400000000000002e-10,0.0,0.0,0.0,1.0,2
2025/04/01 17:52:31.711000366,1743522751,710200722,mA1/gps,0,1,63.43441708458326,10.392489766581965,0.0,1.4400000000000002e-10,0.0,0.0,0.0,1.4400000000000002e-10,0.0,0.0,0.0,1.0,2
2025/04/01 17:52:31.761268037,1743522751,759396249,mA1/gps,0,1,63.4344170841575,10.392489734252656,0.0,1.4400000000000002e-10,0.0,0.0,0.0,1.4400000000000002e-10,0.0,0.0,0.0,1.0,2
2025/04/01 17:52:31.812023847,1743522751,811467826,mA1/gps,0,1,63.434417083116756,10.392489702857796,0.0,1.4400000000000002e-10,0.0,0.0,0.0,1.4400000000000002e-10,0.0,0.0,0.0,1.0,2
2025/04/01 17:52:31.863848689,1743522751,861213189,mA1/gps,0,1,63.4344170834204,10.39248967381807,0.0,1.4400000000000002e-10,0.0,0.0,0.0,1.4400000000000002e-10,0.0,0.0,0.0,1.0,2
2025/04/01 17:52:31.905006159,1743522751,902683834,mA1/gps,0,1,63.4344170824509,10.392489651214365,0.0,1.4400000000000002e-10,0.0,0.0,0.0,1.4400000000000002e-10,0.0,0.0,0.0,1.0,2
2025/04/01 17:52:31.952610905,1743522751,952271897,mA1/gps,0,1,63.434417083544034,10.392489634670905,0.0,1.4400000000000002e-10,0.0,0.0,0.0,1.4400000000000002e-10,0.0,0.0,0.0,1.0,2
2025/04/01 17:52:32.8299889,1743522752,7237708,mA1/gps,0,1,63.43441708346964,10.3924896268871,0.0,1.4400000000000002e-10,0.0,0.0,0.0,1.4400000000000002e-10,0.0,0.0,0.0,1.0,2
2025/04/01 17:52:32.58622754,1743522752,57065998,mA1/gps,0,1,63.4344170829684,10.39248962771599,0.0,1.4400000000000002e-10,0.0,0.0,0.0,1.4400000000000002e-10,0.0,0.0,0.0,1.0,2
2025/04/01 17:52:32.108712374,1743522752,108005365,mA1/gps,0,1,63.43441708326448,10.39248963905139,0.0,1.4400000000000002e-10,0.0,0.0,0.0,1.4400000000000002e-10,0.0,0.0,0.0,1.0,2
2025/04/01 17:52:32.160618897,1743522752,158132199,mA1/gps,0,1,63.43441708423028,10.392489661522308,0.0,1.4400000000000002e-10,0.0,0.0,0.0,1.4400000000000002e-10,0.0,0.0,0.0,1.0,2
2025/04/01 17:52:32.210974610,1743522752,209654281,mA1/gps,0,1,63.434417084254754,10.392489694344125,0.0,1.4400000000000002e-10,0.0,0.0,0.0,1.4400000000000002e-10,0.0,0.0,0.0,1.0,2
2025/04/01 17:52:32.260892761,1743522752,259416438,mA1/gps,0,1,63.43441708492638,10.392489736317355,0.0,1.4400000000000002e-10,0.0,0.0,0.0,1.4400000000000002e-10,0.0,0.0,0.0,1.0,2
2025/04/01 17:52:32.314068340,1743522752,312788129,mA1/gps,0,1,63.43441708604096,10.39248978716977,0.0,1.4400000000000002e-10,0.0,0.0,0.0,1.4400000000000002e-10,0.0,0.0,0.0,1.0,2
2025/04/01 17:52:32.356183613,1743522752,354726347,mA1/gps,0,1,63.434417087058,10.392489843965592,0.0,1.4400000000000002e-10,0.0,0.0,0.0,1.4400000000000002e-10,0.0,0.0,0.0,1.0,2
2025/04/01 17:52:32.405214222,1743522752,404499883,mA1/gps,0,1,63.43441708817225,10.392489903954038,0.0,1.4400000000000002e-10,0.0,0.0,0.0,1.4400000000000002e-10,0.0,0.0,0.0,1.0,2
2025/04/01 17:52:32.456927955,1743522752,454824490,mA1/gps,0,1,63.434417088616485,10.392489965315118,0.0,1.4400000000000002e-10,0.0,0.0,0.0,1.4400000000000002e-10,0.0,0.0,0.0,1.0,2
2025/04/01 17:52:32.514793958,1743522752,508308117,mA1/gps,0,1,63.43441708991143,10.392490024740205,0.0,1.4400000000000002e-10,0.0,0.0,0.0,1.4400000000000002e-10,0.0,0.0,0.0,1.0,2
2025/04/01 17:52:32.557918972,1743522752,557423675,mA1/gps,0,1,63.43441709157001,10.392490082168596,0.0,1.4400000000000002e-10,0.0,0.0,0.0,1.4400000000000002e-10,0.0,0.0,0.0,1.0,2
2025/04/01 17:52:32.609688443,1743522752,608925402,mA1/gps,0,1,63.43441709380613,10.392490132637901,0.0,1.4400000000000002e-10,0.0,0.0,0.0,1.4400000000000002e-10,0.0,0.0,0.0,1.0,2
2025/04/01 17:52:32.660287985,1743522752,659722278,mA1/gps,0,1,63.434417096004665,10.392490176173531,0.0,1.4400000000000002e-10,0.0,0.0,0.0,1.4400000000000002e-10,0.0,0.0,0.0,1.0,2
2025/04/01 17:52:32.710978052,1743522752,710412761,mA1/gps,0,1,63.434417097134315,10.392490210822135,0.0,1.4400000000000002e-10,0.0,0.0,0.0,1.4400000000000002e-10,0.0,0.0,0.0,1.0,2
2025/04/01 17:52:32.760640140,1743522752,760145017,mA1/gps,0,1,63.43441709688032,10.39249023507874,0.0,1.4400000000000002e-10,0.0,0.0,0.0,1.4400000000000002e-10,0.0,0.0,0.0,1.0,2
2025/04/01 17:52:32.814614621,1743522752,814231744,mA1/gps,0,1,63.43441709807395,10.392490250272369,0.0,1.4400000000000002e-10,0.0,0.0,0.0,1.4400000000000002e-10,0.0,0.0,0.0,1.0,2
2025/04/01 17:52:32.854668876,1743522752,853902986,mA1/gps,0,1,63.43441709879488,10.392490255950124,0.0,1.4400000000000002e-10,0.0,0.0,0.0,1.4400000000000002e-10,0.0,0.0,0.0,1.0,2
2025/04/01 17:52:32.905499449,1743522752,905240437,mA1/gps,0,1,63.43441710087363,10.392490253022395,0.0,1.4400000000000002e-10,0.0,0.0,0.0,1.4400000000000002e-10,0.0,0.0,0.0,1.0,2
2025/04/01 17:52:32.958529905,1743522752,957709995,mA1/gps,0,1,63.43441710220142,10.392490242071089,0.0,1.4400000000000002e-10,0.0,0.0,0.0,1.4400000000000002e-10,0.0,0.0,0.0,1.0,2
2025/04/01 17:52:33.9750992,1743522753,9382985,mA1/gps,0,1,63.434417102953546,10.392490226325048,0.0,1.4400000000000002e-10,0.0,0.0,0.0,1.4400000000000002e-10,0.0,0.0,0.0,1.0,2
2025/04/01 17:52:33.60739966,1743522753,58985924,mA1/gps,0,1,63.434417103085444,10.392490206542485,0.0,1.4400000000000002e-10,0.0,0.0,0.0,1.4400000000000002e-10,0.0,0.0,0.0,1.0,2
2025/04/01 17:52:33.105090697,1743522753,104278601,mA1/gps,0,1,63.434417103461314,10.392490184850683,0.0,1.4400000000000002e-10,0.0,0.0,0.0,1.4400000000000002e-10,0.0,0.0,0.0,1.0,2
2025/04/01 17:52:33.154147569,1743522753,152201785,mA1/gps,0,1,63.4344171043628,10.392490165779702,0.0,1.4400000000000002e-10,0.0,0.0,0.0,1.4400000000000002e-10,0.0,0.0,0.0,1.0,2
2025/04/01 17:52:33.206728182,1743522753,203777487,mA1/gps,0,1,63.43441710456011,10.392490151202926,0.0,1.4400000000000002e-10,0.0,0.0,0.0,1.4400000000000002e-10,0.0,0.0,0.0,1.0,2
2025/04/01 17:52:33.254708426,1743522753,254169480,mA1/gps,0,1,63.43441710464289,10.392490142022327,0.0,1.4400000000000002e-10,0.0,0.0,0.0,1.4400000000000002e-10,0.0,0.0,0.0,1.0,2
2025/04/01 17:52:33.307105682,1743522753,306662032,mA1/gps,0,1,63.43441710391309,10.39249014038139,0.0,1.4400000000000002e-10,0.0,0.0,0.0,1.4400000000000002e-10,0.0,0.0,0.0,1.0,2
2025/04/01 17:52:33.355471421,1743522753,355133285,mA1/gps,0,1,63.43441710419995,10.392490145099217,0.0,1.4400000000000002e-10,0.0,0.0,0.0,1.4400000000000002e-10,0.0,0.0,0.0,1.0,2
2025/04/01 17:52:33.407634404,1743522753,406838072,mA1/gps,0,1,63.43441710393085,10.39249015592667,0.0,1.4400000000000002e-10,0.0,0.0,0.0,1.4400000000000002e-10,0.0,0.0,0.0,1.0,2
2025/04/01 17:52:33.458794314,1743522753,457386535,mA1/gps,0,1,63.43441710331603,10.392490172961649,0.0,1.4400000000000002e-10,0.0,0.0,0.0,1.4400000000000002e-10,0.0,0.0,0.0,1.0,2
2025/04/01 17:52:33.509657894,1743522753,509465664,mA1/gps,0,1,63.4344171036478,10.392490193625347,0.0,1.4400000000000002e-10,0.0,0.0,0.0,1.4400000000000002e-10,0.0,0.0,0.0,1.0,2
2025/04/01 17:52:33.570072135,1743522753,561000328,mA1/gps,0,1,63.43441710401531,10.392490220869899,0.0,1.4400000000000002e-10,0.0,0.0,0.0,1.4400000000000002e-10,0.0,0.0,0.0,1.0,2
2025/04/01 17:52:33.613401741,1743522753,612305047,mA1/gps,0,1,63.43441710397513,10.392490250792905,0.0,1.4400000000000002e-10,0.0,0.0,0.0,1.4400000000000002e-10,0.0,0.0,0.0,1.0,2
2025/04/01 17:52:33.652203974,1743522753,651715366,mA1/gps,0,1,63.43441710374053,10.392490281881482,0.0,1.4400000000000002e-10,0.0,0.0,0.0,1.4400000000000002e-10,0.0,0.0,0.0,1.0,2
2025/04/01 17:52:33.706057841,1743522753,705426287,mA1/gps,0,1,63.434417104917436,10.392490312662014,0.0,1.4400000000000002e-10,0.0,0.0,0.0,1.4400000000000002e-10,0.0,0.0,0.0,1.0,2
2025/04/01 17:52:33.755844239,1743522753,755127592,mA1/gps,0,1,63.434417106159955,10.392490342839208,0.0,1.4400000000000002e-10,0.0,0.0,0.0,1.4400000000000002e-10,0.0,0.0,0.0,1.0,2
2025/04/01 17:52:33.811956127,1743522753,807325703,mA1/gps,0,1,63.43441710637575,10.392490369087724,0.0,1.4400000000000002e-10,0.0,0.0,0.0,1.4400000000000002e-10,0.0,0.0,0.0,1.0,2
2025/04/01 17:52:33.858051418,1743522753,857902858,mA1/gps,0,1,63.43441710702711,10.39249038907853,0.0,1.4400000000000002e-10,0.0,0.0,0.0,1.4400000000000002e-10,0.0,0.0,0.0,1.0,2
2025/04/01 17:52:33.904353881,1743522753,903781662,mA1/gps,0,1,63.43441710874696,10.392490401920767,0.0,1.4400000000000002e-10,0.0,0.0,0.0,1.4400000000000002e-10,0.0,0.0,0.0,1.0,2
2025/04/01 17:52:33.954337303,1743522753,953741356,mA1/gps,0,1,63.43441711051136,10.392490405645688,0.0,1.4400000000000002e-10,0.0,0.0,0.0,1.4400000000000002e-10,0.0,0.0,0.0,1.0,2
2025/04/01 17:52:34.3546248,1743522754,3340116,mA1/gps,0,1,63.43441711127698,10.392490400173356,0.0,1.4400000000000002e-10,0.0,0.0,0.0,1.4400000000000002e-10,0.0,0.0,0.0,1.0,2
2025/04/01 17:52:34.55803654,1743522754,55143974,mA1/gps,0,1,63.43441711220489,10.392490401834818,0.0,1.4400000000000002e-10,0.0,0.0,0.0,1.4400000000000002e-10,0.0,0.0,0.0,1.0,2
2025/04/01 17:52:34.106426782,1743522754,105835508,mA1/gps,0,1,63.43441711456675,10.392490417892793,0.0,1.4400000000000002e-10,0.0,0.0,0.0,1.4400000000000002e-10,0.0,0.0,0.0,1.0,2
2025/04/01 17:52:34.160614714,1743522754,155638429,mA1/gps,0,1,63.43441711648086,10.392490442721648,0.0,1.4400000000000002e-10,0.0,0.0,0.0,1.4400000000000002e-10,0.0,0.0,0.0,1.0,2
2025/04/01 17:52:34.210442701,1743522754,207720075,mA1/gps,0,1,63.43441711737367,10.392490474087964,0.0,1.4400000000000002e-10,0.0,0.0,0.0,1.4400000000000002e-10,0.0,0.0,0.0,1.0,2
2025/04/01 17:52:34.257668047,1743522754,257236715,mA1/gps,0,1,63.43441711854152,10.392490506598827,0.0,1.4400000000000002e-10,0.0,0.0,0.0,1.4400000000000002e-10,0.0,0.0,0.0,1.0,2
2025/04/01 17:52:34.309409183,1743522754,309014401,mA1/gps,0,1,63.434417120782946,10.392490535206015,0.0,1.4400000000000002e-10,0.0,0.0,0.0,1.4400000000000002e-10,0.0,0.0,0.0,1.0,2
2025/04/01 17:52:34.360733910,1743522754,359913964,mA1/gps,0,1,63.43441712248012,10.392490555338364,0.0,1.4400000000000002e-10,0.0,0.0,0.0,1.4400000000000002e-10,0.0,0.0,0.0,1.0,2
2025/04/01 17:52:34.411160654,1743522754,410723935,mA1/gps,0,1,63.43441712354263,10.392490559389724,0.0,1.4400000000000002e-10,0.0,0.0,0.0,1.4400000000000002e-10,0.0,0.0,0.0,1.0,2
2025/04/01 17:52:34.461264731,1743522754,460922316,mA1/gps,0,1,63.43441712437055,10.392490544565636,0.0,1.4400000000000002e-10,0.0,0.0,0.0,1.4400000000000002e-10,0.0,0.0,0.0,1.0,2
2025/04/01 17:52:34.505511772,1743522754,503012555,mA1/gps,0,1,63.43441712623995,10.392490504252969,0.0,1.4400000000000002e-10,0.0,0.0,0.0,1.4400000000000002e-10,0.0,0.0,0.0,1.0,2
2025/04/01 17:52:34.553800214,1743522754,552411726,mA1/gps,0,1,63.43441712775224,10.392490435712448,0.0,1.4400000000000002e-10,0.0,0.0,0.0,1.4400000000000002e-10,0.0,0.0,0.0,1.0,2
2025/04/01 17:52:34.606693383,1743522754,605190451,mA1/gps,0,1,63.434417128025444,10.392490337304766,0.0,1.4400000000000002e-10,0.0,0.0,0.0,1.4400000000000002e-10,0.0,0.0,0.0,1.0,2
2025/04/01 17:52:34.657070949,1743522754,656483684,mA1/gps,0,1,63.43441712833132,10.392490207106858,0.0,1.4400000000000002e-10,0.0,0.0,0.0,1.4400000000000002e-10,0.0,0.0,0.0,1.0,2
2025/04/01 17:52:34.708071139,1743522754,707508507,mA1/gps,0,1,63.43441712956242,10.392490046188682,0.0,1.4400000000000002e-10,0.0,0.0,0.0,1.4400000000000002e-10,0.0,0.0,0.0,1.0,2
2025/04/01 17:52:34.756417089,1743522754,756012577,mA1/gps,0,1,63.434417130669445,10.392489854911373,0.0,1.4400000000000002e-10,0.0,0.0,0.0,1.4400000000000002e-10,0.0,0.0,0.0,1.0,2
2025/04/01 17:52:34.808455670,1743522754,807289494,mA1/gps,0,1,63.43441713058431,10.392489636551765,0.0,1.4400000000000002e-10,0.0,0.0,0.0,1.4400000000000002e-10,0.0,0.0,0.0,1.0,2
2025/04/01 17:52:34.857488841,1743522754,857355465,mA1/gps,0,1,63.43441713062227,10.392489394704388,0.0,1.4400000000000002e-10,0.0,0.0,0.0,1.4400000000000002e-10,0.0,0.0,0.0,1.0,2
2025/04/01 17:52:34.909851650,1743522754,909312309,mA1/gps,0,1,63.434417131306525,10.392489133138099,0.0,1.4400000000000002e-10,0.0,0.0,0.0,1.4400000000000002e-10,0.0,0.0,0.0,1.0,2
2025/04/01 17:52:34.961630657,1743522754,958756351,mA1/gps,0,1,63.4344171322785,10.39248885837212,0.0,1.4400000000000002e-10,0.0,0.0,0.0,1.4400000000000002e-10,0.0,0.0,0.0,1.0,2
2025/04/01 17:52:35.11088908,1743522755,10015230,mA1/gps,0,1,63.4344171320421,10.392488576043771,0.0,1.4400000000000002e-10,0.0,0.0,0.0,1.4400000000000002e-10,0.0,0.0,0.0,1.0,2
2025/04/01 17:52:35.60141181,1743522755,59784015,mA1/gps,0,1,63.43441713194045,10.392488290185327,0.0,1.4400000000000002e-10,0.0,0.0,0.0,1.4400000000000002e-10,0.0,0.0,0.0,1.0,2
2025/04/01 17:52:35.103375067,1743522755,102763747,mA1/gps,0,1,63.43441713321328,10.392488006641246,0.0,1.4400000000000002e-10,0.0,0.0,0.0,1.4400000000000002e-10,0.0,0.0,0.0,1.0,2
2025/04/01 17:52:35.153226225,1743522755,152394500,mA1/gps,0,1,63.434417134174836,10.39248772982883,0.0,1.4400000000000002e-10,0.0,0.0,0.0,1.4400000000000002e-10,0.0,0.0,0.0,1.0,2
2025/04/01 17:52:35.205003494,1743522755,203975446,mA1/gps,0,1,63.43441713458343,10.39248746222672,0.0,1.4400000000000002e-10,0.0,0.0,0.0,1.4400000000000002e-10,0.0,0.0,0.0,1.0,2
2025/04/01 17:52:35.255176401,1743522755,254608095,mA1/gps,0,1,63.43441713493569,10.392487206022263,0.0,1.4400000000000002e-10,0.0,0.0,0.0,1.4400000000000002e-10,0.0,0.0,0.0,1.0,2
2025/04/01 17:52:35.305713326,1743522755,305363380,mA1/gps,0,1,63.43441713641581,10.39248696373592,0.0,1.4400000000000002e-10,0.0,0.0,0.0,1.4400000000000002e-10,0.0,0.0,0.0,1.0,2
2025/04/01 17:52:35.355959049,1743522755,355148747,mA1/gps,0,1,63.434417138037865,10.392486733676826,0.0,1.4400000000000002e-10,0.0,0.0,0.0,1.4400000000000002e-10,0.0,0.0,0.0,1.0,2
2025/04/01 17:52:35.409027294,1743522755,408577854,mA1/gps,0,1,63.43441713860499,10.3924865156004,0.0,1.4400000000000002e-10,0.0,0.0,0.0,1.4400000000000002e-10,0.0,0.0,0.0,1.0,2
2025/04/01 17:52:35.459360126,1743522755,458571882,mA1/gps,0,1,63.43441713943456,10.39248630507212,0.0,1.4400000000000002e-10,0.0,0.0,0.0,1.4400000000000002e-10,0.0,0.0,0.0,1.0,2
2025/04/01 17:52:35.510329548,1743522755,510074810,mA1/gps,0,1,63.43441714190162,10.392486100044598,0.0,1.4400000000000002e-10,0.0,0.0,0.0,1.4400000000000002e-10,0.0,0.0,0.0,1.0,2
2025/04/01 17:52:35.561759529,1743522755,560841913,mA1/gps,0,1,63.43441714416609,10.392485895985574,0.0,1.4400000000000002e-10,0.0,0.0,0.0,1.4400000000000002e-10,0.0,0.0,0.0,1.0,2
2025/04/01 17:52:35.612157238,1743522755,611848111,mA1/gps,0,1,63.43441714511729,10.392485686652272,0.0,1.4400000000000002e-10,0.0,0.0,0.0,1.4400000000000002e-10,0.0,0.0,0.0,1.0,2
2025/04/01 17:52:35.653955704,1743522755,651556152,mA1/gps,0,1,63.43441714663855,10.392485469157828,0.0,1.4400000000000002e-10,0.0,0.0,0.0,1.4400000000000002e-10,0.0,0.0,0.0,1.0,2
2025/04/01 17:52:35.706401240,1743522755,702488677,mA1/gps,0,1,63.4344171486704,10.392485238397233,0.0,1.4400000000000002e-10,0.0,0.0,0.0,1.4400000000000002e-10,0.0,0.0,0.0,1.0,2
2025/04/01 17:52:35.756671861,1743522755,754984955,mA1/gps,0,1,63.43441715081895,10.39248499043063,0.0,1.4400000000000002e-10,0.0,0.0,0.0,1.4400000000000002e-10,0.0,0.0,0.0,1.0,2
2025/04/01 17:52:35.806060605,1743522755,805683713,mA1/gps,0,1,63.434417151900384,10.392484721705586,0.0,1.4400000000000002e-10,0.0,0.0,0.0,1.4400000000000002e-10,0.0,0.0,0.0,1.0,2
2025/04/01 17:52:35.859653277,1743522755,857865451,mA1/gps,0,1,63.43441715295923,10.392484429218387,0.0,1.4400000000000002e-10,0.0,0.0,0.0,1.4400000000000002e-10,0.0,0.0,0.0,1.0,2
2025/04/01 17:52:35.916638765,1743522755,912813860,mA1/gps,0,1,63.43441715534276,10.392484111581915,0.0,1.4400000000000002e-10,0.0,0.0,0.0,1.4400000000000002e-10,0.0,0.0,0.0,1.0,2
2025/04/01 17:52:35.952819850,1743522755,951770968,mA1/gps,0,1,63.434417157051676,10.392483767785496,0.0,1.4400000000000002e-10,0.0,0.0,0.0,1.4400000000000002e-10,0.0,0.0,0.0,1.0,2
2025/04/01 17:52:36.3096928,1743522756,2736891,mA1/gps,0,1,63.43441715765512,10.392483398379909,0.0,1.4400000000000002e-10,0.0,0.0,0.0,1.4400000000000002e-10,0.0,0.0,0.0,1.0,2
2025/04/01 17:52:36.55523431,1743522756,54334183,mA1/gps,0,1,63.434417158346186,10.392483004992398,0.0,1.4400000000000002e-10,0.0,0.0,0.0,1.4400000000000002e-10,0.0,0.0,0.0,1.0,2
2025/04/01 17:52:36.105526591,1743522756,104992327,mA1/gps,0,1,63.434417159811,10.392482589473042,0.0,1.4400000000000002e-10,0.0,0.0,0.0,1.4400000000000002e-10,0.0,0.0,0.0,1.0,2
2025/04/01 17:52:36.156002201,1743522756,155246035,mA1/gps,0,1,63.43441716114717,10.392482156005233,0.0,1.4400000000000002e-10,0.0,0.0,0.0,1.4400000000000002e-10,0.0,0.0,0.0,1.0,2
2025/04/01 17:52:36.208700390,1743522756,206929507,mA1/gps,0,1,63.434417161331886,10.392481707905533,0.0,1.4400000000000002e-10,0.0,0.0,0.0,1.4400000000000002e-10,0.0,0.0,0.0,1.0,2
2025/04/01 17:52:36.257707480,1743522756,256795730,mA1/gps,0,1,63.434417161701596,10.392481249953075,0.0,1.4400000000000002e-10,0.0,0.0,0.0,1.4400000000000002e-10,0.0,0.0,0.0,1.0,2
2025/04/01 17:52:36.309595791,1743522756,308910079,mA1/gps,0,1,63.43441716298029,10.392480785570125,0.0,1.4400000000000002e-10,0.0,0.0,0.0,1.4400000000000002e-10,0.0,0.0,0.0,1.0,2
2025/04/01 17:52:36.362875203,1743522756,359812661,mA1/gps,0,1,63.43441716413623,10.39248032084028,0.0,1.4400000000000002e-10,0.0,0.0,0.0,1.4400000000000002e-10,0.0,0.0,0.0,1.0,2
2025/04/01 17:52:36.412464631,1743522756,410771571,mA1/gps,0,1,63.43441716409482,10.392479859013479,0.0,1.4400000000000002e-10,0.0,0.0,0.0,1.4400000000000002e-10,0.0,0.0,0.0,1.0,2
2025/04/01 17:52:36.462067142,1743522756,461558873,mA1/gps,0,1,63.4344171641782,10.39247940312546,0.0,1.4400000000000002e-10,0.0,0.0,0.0,1.4400000000000002e-10,0.0,0.0,0.0,1.0,2
2025/04/01 17:52:36.506763314,1743522756,502970715,mA1/gps,0,1,63.43441716539556,10.392478957423611,0.0,1.4400000000000002e-10,0.0,0.0,0.0,1.4400000000000002e-10,0.0,0.0,0.0,1.0,2
2025/04/01 17:52:36.553189432,1743522756,552402450,mA1/gps,0,1,63.43441716670093,10.392478522886034,0.0,1.4400000000000002e-10,0.0,0.0,0.0,1.4400000000000002e-10,0.0,0.0,0.0,1.0,2
2025/04/01 17:52:36.604440907,1743522756,603531670,mA1/gps,0,1,63.43441716679374,10.392478099472758,0.0,1.4400000000000002e-10,0.0,0.0,0.0,1.4400000000000002e-10,0.0,0.0,0.0,1.0,2
2025/04/01 17:52:36.655837867,1743522756,653651829,mA1/gps,0,1,63.43441716711421,10.392477687697982,0.0,1.4400000000000002e-10,0.0,0.0,0.0,1.4400000000000002e-10,0.0,0.0,0.0,1.0,2
2025/04/01 17:52:36.706176452,1743522756,705278207,mA1/gps,0,1,63.43441716887836,10.39247728586123,0.0,1.4400000000000002e-10,0.0,0.0,0.0,1.4400000000000002e-10,0.0,0.0,0.0,1.0,2
2025/04/01 17:52:36.756360839,1743522756,754952985,mA1/gps,0,1,63.43441717041126,10.39247689196296,0.0,1.4400000000000002e-10,0.0,0.0,0.0,1.4400000000000002e-10,0.0,0.0,0.0,1.0,2
2025/04/01 17:52:36.809412126,1743522756,807845358,mA1/gps,0,1,63.434417171031,10.392476502249325,0.0,1.4400000000000002e-10,0.0,0.0,0.0,1.4400000000000002e-10,0.0,0.0,0.0,1.0,2
2025/04/01 17:52:36.858461488,1743522756,858034539,mA1/gps,0,1,63.434417171884775,10.392476113537816,0.0,1.4400000000000002e-10,0.0,0.0,0.0,1.4400000000000002e-10,0.0,0.0,0.0,1.0,2
2025/04/01 17:52:36.909527859,1743522756,909232751,mA1/gps,0,1,63.434417173736996,10.392475720231367,0.0,1.4400000000000002e-10,0.0,0.0,0.0,1.4400000000000002e-10,0.0,0.0,0.0,1.0,2
2025/04/01 17:52:36.954299192,1743522756,952733834,mA1/gps,0,1,63.43441717558216,10.392475319998958,0.0,1.4400000000000002e-10,0.0,0.0,0.0,1.4400000000000002e-10,0.0,0.0,0.0,1.0,2
2025/04/01 17:52:37.5627706,1743522757,4217900,mA1/gps,0,1,63.43441717659914,10.39247490832384,0.0,1.4400000000000002e-10,0.0,0.0,0.0,1.4400000000000002e-10,0.0,0.0,0.0,1.0,2
2025/04/01 17:52:37.54970666,1743522757,54263045,mA1/gps,0,1,63.43441717762444,10.39247448130315,0.0,1.4400000000000002e-10,0.0,0.0,0.0,1.4400000000000002e-10,0.0,0.0,0.0,1.0,2
2025/04/01 17:52:37.108655080,1743522757,106539576,mA1/gps,0,1,63.434417179812804,10.39247403699364,0.0,1.4400000000000002e-10,0.0,0.0,0.0,1.4400000000000002e-10,0.0,0.0,0.0,1.0,2
2025/04/01 17:52:37.157680589,1743522757,156737842,mA1/gps,0,1,63.434417181754746,10.392473572949218,0.0,1.4400000000000002e-10,0.0,0.0,0.0,1.4400000000000002e-10,0.0,0.0,0.0,1.0,2
2025/04/01 17:52:37.209572661,1743522757,208233119,mA1/gps,0,1,63.434417183002644,10.392473087254334,0.0,1.4400000000000002e-10,0.0,0.0,0.0,1.4400000000000002e-10,0.0,0.0,0.0,1.0,2
2025/04/01 17:52:37.260212793,1743522757,258989337,mA1/gps,0,1,63.43441718418086,10.392472580833712,0.0,1.4400000000000002e-10,0.0,0.0,0.0,1.4400000000000002e-10,0.0,0.0,0.0,1.0,2
2025/04/01 17:52:37.310696628,1743522757,310423726,mA1/gps,0,1,63.43441718638017,10.392472053329017,0.0,1.4400000000000002e-10,0.0,0.0,0.0,1.4400000000000002e-10,0.0,0.0,0.0,1.0,2
2025/04/01 17:52:37.361690884,1743522757,360219766,mA1/gps,0,1,63.43441718841456,10.392471507026583,0.0,1.4400000000000002e-10,0.0,0.0,0.0,1.4400000000000002e-10,0.0,0.0,0.0,1.0,2
2025/04/01 17:52:37.411911894,1743522757,411398788,mA1/gps,0,1,63.43441718921554,10.392470945582973,0.0,1.4400000000000002e-10,0.0,0.0,0.0,1.4400000000000002e-10,0.0,0.0,0.0,1.0,2
2025/04/01 17:52:37.453115284,1743522757,452129454,mA1/gps,0,1,63.43441719004275,10.392470370299657,0.0,1.4400000000000002e-10,0.0,0.0,0.0,1.4400000000000002e-10,0.0,0.0,0.0,1.0,2
2025/04/01 17:52:37.506966082,1743522757,505089298,mA1/gps,0,1,63.434417192130745,10.392469786457065,0.0,1.4400000000000002e-10,0.0,0.0,0.0,1.4400000000000002e-10,0.0,0.0,0.0,1.0,2
2025/04/01 17:52:37.555205173,1743522757,553368547,mA1/gps,0,1,63.434417194240545,10.392469196277364,0.0,1.4400000000000002e-10,0.0,0.0,0.0,1.4400000000000002e-10,0.0,0.0,0.0,1.0,2
2025/04/01 17:52:37.606163806,1743522757,605979907,mA1/gps,0,1,63.4344171950007,10.392468605567636,0.0,1.4400000000000002e-10,0.0,0.0,0.0,1.4400000000000002e-10,0.0,0.0,0.0,1.0,2
2025/04/01 17:52:37.656154360,1743522757,655831463,mA1/gps,0,1,63.43441719594254,10.392468017855421,0.0,1.4400000000000002e-10,0.0,0.0,0.0,1.4400000000000002e-10,0.0,0.0,0.0,1.0,2
2025/04/01 17:52:37.708783545,1743522757,706731998,mA1/gps,0,1,63.434417197813865,10.392467434935684,0.0,1.4400000000000002e-10,0.0,0.0,0.0,1.4400000000000002e-10,0.0,0.0,0.0,1.0,2
2025/04/01 17:52:37.757337207,1743522757,756634792,mA1/gps,0,1,63.434417199675416,10.392466860861987,0.0,1.4400000000000002e-10,0.0,0.0,0.0,1.4400000000000002e-10,0.0,0.0,0.0,1.0,2
2025/04/01 17:52:37.809342860,1743522757,808863215,mA1/gps,0,1,63.434417200722834,10.392466297150536,0.0,1.4400000000000002e-10,0.0,0.0,0.0,1.4400000000000002e-10,0.0,0.0,0.0,1.0,2
2025/04/01 17:52:37.859352586,1743522757,858996671,mA1/gps,0,1,63.43441720145353,10.392465745064229,0.0,1.4400000000000002e-10,0.0,0.0,0.0,1.4400000000000002e-10,0.0,0.0,0.0,1.0,2
2025/04/01 17:52:37.911332861,1743522757,910492655,mA1/gps,0,1,63.43441720355976,10.392465203887188,0.0,1.4400000000000002e-10,0.0,0.0,0.0,1.4400000000000002e-10,0.0,0.0,0.0,1.0,2
2025/04/01 17:52:37.964371709,1743522757,961686602,mA1/gps,0,1,63.4344172056853,10.392464672449375,0.0,1.4400000000000002e-10,0.0,0.0,0.0,1.4400000000000002e-10,0.0,0.0,0.0,1.0,2
2025/04/01 17:52:38.2657721,1743522758,2137804,mA1/gps,0,1,63.43441720681223,10.392464150648726,0.0,1.4400000000000002e-10,0.0,0.0,0.0,1.4400000000000002e-10,0.0,0.0,0.0,1.0,2
2025/04/01 17:52:38.52716684,1743522758,52039855,mA1/gps,0,1,63.43441720805406,10.39246363568667,0.0,1.4400000000000002e-10,0.0,0.0,0.0,1.4400000000000002e-10,0.0,0.0,0.0,1.0,2
2025/04/01 17:52:38.106741721,1743522758,103827921,mA1/gps,0,1,63.43441721039531,10.392463124710194,0.0,1.4400000000000002e-10,0.0,0.0,0.0,1.4400000000000002e-10,0.0,0.0,0.0,1.0,2
2025/04/01 17:52:38.153963773,1743522758,153647909,mA1/gps,0,1,63.43441721245206,10.392462613609947,0.0,1.4400000000000002e-10,0.0,0.0,0.0,1.4400000000000002e-10,0.0,0.0,0.0,1.0,2
2025/04/01 17:52:38.207705904,1743522758,206388630,mA1/gps,0,1,63.43441721362523,10.392462100313015,0.0,1.4400000000000002e-10,0.0,0.0,0.0,1.4400000000000002e-10,0.0,0.0,0.0,1.0,2
2025/04/01 17:52:38.256470574,1743522758,255872131,mA1/gps,0,1,63.434417214983014,10.392461579236471,0.0,1.4400000000000002e-10,0.0,0.0,0.0,1.4400000000000002e-10,0.0,0.0,0.0,1.0,2
2025/04/01 17:52:38.308050812,1743522758,306809795,mA1/gps,0,1,63.43441721703645,10.392461048579984,0.0,1.4400000000000002e-10,0.0,0.0,0.0,1.4400000000000002e-10,0.0,0.0,0.0,1.0,2
2025/04/01 17:52:38.357496897,1743522758,356897842,mA1/gps,0,1,63.434417219070944,10.392460504739354,0.0,1.4400000000000002e-10,0.0,0.0,0.0,1.4400000000000002e-10,0.0,0.0,0.0,1.0,2
2025/04/01 17:52:38.410274617,1743522758,410027917,mA1/gps,0,1,63.434417220137966,10.392459944505056,0.0,1.4400000000000002e-10,0.0,0.0,0.0,1.4400000000000002e-10,0.0,0.0,0.0,1.0,2
2025/04/01 17:52:38.460721636,1743522758,459636856,mA1/gps,0,1,63.43441722102437,10.3924593668686,0.0,1.4400000000000002e-10,0.0,0.0,0.0,1.4400000000000002e-10,0.0,0.0,0.0,1.0,2
2025/04/01 17:52:38.512516173,1743522758,511815883,mA1/gps,0,1,63.43441722278881,10.392458771862156,0.0,1.4400000000000002e-10,0.0,0.0,0.0,1.4400000000000002e-10,0.0,0.0,0.0,1.0,2
2025/04/01 17:52:38.555190723,1743522758,552176348,mA1/gps,0,1,63.43441722447994,10.392458158126326,0.0,1.4400000000000002e-10,0.0,0.0,0.0,1.4400000000000002e-10,0.0,0.0,0.0,1.0,2
2025/04/01 17:52:38.606103452,1743522758,605852824,mA1/gps,0,1,63.434417225170804,10.392457526558458,0.0,1.4400000000000002e-10,0.0,0.0,0.0,1.4400000000000002e-10,0.0,0.0,0.0,1.0,2
2025/04/01 17:52:38.656509577,1743522758,656034676,mA1/gps,0,1,63.4344172257764,10.392456880557935,0.0,1.4400000000000002e-10,0.0,0.0,0.0,1.4400000000000002e-10,0.0,0.0,0.0,1.0,2
2025/04/01 17:52:38.711370601,1743522758,705064643,mA1/gps,0,1,63.434417227085476,10.392456220933347,0.0,1.4400000000000002e-10,0.0,0.0,0.0,1.4400000000000002e-10,0.0,0.0,0.0,1.0,2
2025/04/01 17:52:38.756941198,1743522758,756143809,mA1/gps,0,1,63.434417228269446,10.392455551936402,0.0,1.4400000000000002e-10,0.0,0.0,0.0,1.4400000000000002e-10,0.0,0.0,0.0,1.0,2
2025/04/01 17:52:38.807418573,1743522758,807076332,mA1/gps,0,1,63.43441722847961,10.392454876764834,0.0,1.4400000000000002e-10,0.0,0.0,0.0,1.4400000000000002e-10,0.0,0.0,0.0,1.0,2
2025/04/01 17:52:38.861550164,1743522758,859457762,mA1/gps,0,1,63.434417228585204,10.392454198447254,0.0,1.4400000000000002e-10,0.0,0.0,0.0,1.4400000000000002e-10,0.0,0.0,0.0,1.0,2
2025/04/01 17:52:38.913322395,1743522758,911407714,mA1/gps,0,1,63.43441722972062,10.392453521333167,0.0,1.4400000000000002e-10,0.0,0.0,0.0,1.4400000000000002e-10,0.0,0.0,0.0,1.0,2
2025/04/01 17:52:38.962172519,1743522758,961300599,mA1/gps,0,1,63.43441723076523,10.392452846999854,0.0,1.4400000000000002e-10,0.0,0.0,0.0,1.4400000000000002e-10,0.0,0.0,0.0,1.0,2
2025/04/01 17:52:39.3134214,1743522759,2179558,mA1/gps,0,1,63.43441723052013,10.392452179788116,0.0,1.4400000000000002e-10,0.0,0.0,0.0,1.4400000000000002e-10,0.0,0.0,0.0,1.0,2
2025/04/01 17:52:39.54754759,1743522759,54176418,mA1/gps,0,1,63.434417230541726,10.392451522023348,0.0,1.4400000000000002e-10,0.0,0.0,0.0,1.4400000000000002e-10,0.0,0.0,0.0,1.0,2
2025/04/01 17:52:39.105558508,1743522759,105211020,mA1/gps,0,1,63.434417231579566,10.392450874569468,0.0,1.4400000000000002e-10,0.0,0.0,0.0,1.4400000000000002e-10,0.0,0.0,0.0,1.0,2
2025/04/01 17:52:39.156116903,1743522759,154890719,mA1/gps,0,1,63.434417232481735,10.392450238611575,0.0,1.4400000000000002e-10,0.0,0.0,0.0,1.4400000000000002e-10,0.0,0.0,0.0,1.0,2
2025/04/01 17:52:39.207592330,1743522759,206943391,mA1/gps,0,1,63.43441723254543,10.39244961338144,0.0,1.4400000000000002e-10,0.0,0.0,0.0,1.4400000000000002e-10,0.0,0.0,0.0,1.0,2
2025/04/01 17:52:39.257805430,1743522759,256757303,mA1/gps,0,1,63.43441723250325,10.392448998894796,0.0,1.4400000000000002e-10,0.0,0.0,0.0,1.4400000000000002e-10,0.0,0.0,0.0,1.0,2
2025/04/01 17:52:39.308283139,1743522759,307807430,mA1/gps,0,1,63.43441723345631,10.392448392648427,0.0,1.4400000000000002e-10,0.0,0.0,0.0,1.4400000000000002e-10,0.0,0.0,0.0,1.0,2
2025/04/01 17:52:39.358142546,1743522759,357660990,mA1/gps,0,1,63.43441723471798,10.392447793697304,0.0,1.4400000000000002e-10,0.0,0.0,0.0,1.4400000000000002e-10,0.0,0.0,0.0,1.0,2
2025/04/01 17:52:39.409837661,1743522759,408950099,mA1/gps,0,1,63.434417234633344,10.392447197935011,0.0,1.4400000000000002e-10,0.0,0.0,0.0,1.4400000000000002e-10,0.0,0.0,0.0,1.0,2
2025/04/01 17:52:39.461513024,1743522759,459325123,mA1/gps,0,1,63.43441723497803,10.39244660353585,0.0,1.4400000000000002e-10,0.0,0.0,0.0,1.4400000000000002e-10,0.0,0.0,0.0,1.0,2
2025/04/01 17:52:39.511982570,1743522759,511354621,mA1/gps,0,1,63.43441723605205,10.392446006295712,0.0,1.4400000000000002e-10,0.0,0.0,0.0,1.4400000000000002e-10,0.0,0.0,0.0,1.0,2
2025/04/01 17:52:39.561654503,1743522759,561116992,mA1/gps,0,1,63.43441723714631,10.392445404466882,0.0,1.4400000000000002e-10,0.0,0.0,0.0,1.4400000000000002e-10,0.0,0.0,0.0,1.0,2
2025/04/01 17:52:39.606129970,1743522759,603051842,mA1/gps,0,1,63.43441723695438,10.392444793334759,0.0,1.4400000000000002e-10,0.0,0.0,0.0,1.4400000000000002e-10,0.0,0.0,0.0,1.0,2
2025/04/01 17:52:39.653565702,1743522759,652925229,mA1/gps,0,1,63.43441723681007,10.392444171996983,0.0,1.4400000000000002e-10,0.0,0.0,0.0,1.4400000000000002e-10,0.0,0.0,0.0,1.0,2
2025/04/01 17:52:39.704631496,1743522759,703916556,mA1/gps,0,1,63.43441723790791,10.39244353753705,0.0,1.4400000000000002e-10,0.0,0.0,0.0,1.4400000000000002e-10,0.0,0.0,0.0,1.0,2
2025/04/01 17:52:39.756741559,1743522759,753621675,mA1/gps,0,1,63.43441723904577,10.39244288876195,0.0,1.4400000000000002e-10,0.0,0.0,0.0,1.4400000000000002e-10,0.0,0.0,0.0,1.0,2
2025/04/01 17:52:39.807676592,1743522759,807505933,mA1/gps,0,1,63.43441723868733,10.39244222526631,0.0,1.4400000000000002e-10,0.0,0.0,0.0,1.4400000000000002e-10,0.0,0.0,0.0,1.0,2
2025/04/01 17:52:39.858253948,1743522759,857801720,mA1/gps,0,1,63.4344172384514,10.392441548003994,0.0,1.4400000000000002e-10,0.0,0.0,0.0,1.4400000000000002e-10,0.0,0.0,0.0,1.0,2
2025/04/01 17:52:39.911553997,1743522759,911023721,mA1/gps,0,1,63.43441723941206,10.392440857051515,0.0,1.4400000000000002e-10,0.0,0.0,0.0,1.4400000000000002e-10,0.0,0.0,0.0,1.0,2
2025/04/01 17:52:39.954961200,1743522759,953567915,mA1/gps,0,1,63.43441723979291,10.39244015370784,0.0,1.4400000000000002e-10,0.0,0.0,0.0,1.4400000000000002e-10,0.0,0.0,0.0,1.0,2
2025/04/01 17:52:40.4825249,1743522760,2928971,mA1/gps,0,1,63.43441723913023,10.39243944079872,0.0,1.4400000000000002e-10,0.0,0.0,0.0,1.4400000000000002e-10,0.0,0.0,0.0,1.0,2
2025/04/01 17:52:40.53662503,1743522760,52459348,mA1/gps,0,1,63.43441723877335,10.392438721388494,0.0,1.4400000000000002e-10,0.0,0.0,0.0,1.4400000000000002e-10,0.0,0.0,0.0,1.0,2
2025/04/01 17:52:40.107893368,1743522760,106699010,mA1/gps,0,1,63.43441723955723,10.392437998279894,0.0,1.4400000000000002e-10,0.0,0.0,0.0,1.4400000000000002e-10,0.0,0.0,0.0,1.0,2
2025/04/01 17:52:40.160796089,1743522760,159957580,mA1/gps,0,1,63.43441723980019,10.392437273766495,0.0,1.4400000000000002e-10,0.0,0.0,0.0,1.4400000000000002e-10,0.0,0.0,0.0,1.0,2
2025/04/01 17:52:40.204868538,1743522760,203807037,mA1/gps,0,1,63.43441723915703,10.39243655135537,0.0,1.4400000000000002e-10,0.0,0.0,0.0,1.4400000000000002e-10,0.0,0.0,0.0,1.0,2
