time,header_stamp_secs,header_stamp_nsecs,header_frame_id,child_frame_id,pose_pose_position_x,pose_pose_position_y,pose_pose_position_z,pose_pose_orientation_x,pose_pose_orientation_y,pose_pose_orientation_z,pose_pose_orientation_w,pose_covariance_0,pose_covariance_1,pose_covariance_2,pose_covariance_3,pose_covariance_4,pose_covariance_5,pose_covariance_6,pose_covariance_7,pose_covariance_8,pose_covariance_9,pose_covariance_10,pose_covariance_11,pose_covariance_12,pose_covariance_13,pose_covariance_14,pose_covariance_15,pose_covariance_16,pose_covariance_17,pose_covariance_18,pose_covariance_19,pose_covariance_20,pose_covariance_21,pose_covariance_22,pose_covariance_23,pose_covariance_24,pose_covariance_25,pose_covariance_26,pose_covariance_27,pose_covariance_28,pose_covariance_29,pose_covariance_30,pose_covariance_31,pose_covariance_32,pose_covariance_33,pose_covariance_34,pose_covariance_35,twist_twist_linear_x,twist_twist_linear_y,twist_twist_linear_z,twist_twist_angular_x,twist_twist_angular_y,twist_twist_angular_z,twist_covariance_0,twist_covariance_1,twist_covariance_2,twist_covariance_3,twist_covariance_4,twist_covariance_5,twist_covariance_6,twist_covariance_7,twist_covariance_8,twist_covariance_9,twist_covariance_10,twist_covariance_11,twist_covariance_12,twist_covariance_13,twist_covariance_14,twist_covariance_15,twist_covariance_16,twist_covariance_17,twist_covariance_18,twist_covariance_19,twist_covariance_20,twist_covariance_21,twist_covariance_22,twist_covariance_23,twist_covariance_24,twist_covariance_25,twist_covariance_26,twist_covariance_27,twist_covariance_28,twist_covariance_29,twist_covariance_30,twist_covariance_31,twist_covariance_32,twist_covariance_33,twist_covariance_34,twist_covariance_35
2025/04/01 17:52:23.763440502,1743522743,762765793,world_ned,mA1/odom,-18.224001672394436,-18.68653403297409,0.4336815558281121,0.001915137255592331,-4.582051006787726e-05,-0.0007657791440807528,0.9999978718637733,0.0,0.0,0.0,0.0,0.0,0.0,0.0,0.0,0.0,0.0,0.0,0.0,0.0,0.0,0.0,0.0,0.0,0.0,0.0,0.0,0.0,0.0,0.0,0.0,0.0,0.0,0.0,0.0,0.0,0.0,0.0,0.0,0.0,0.0,0.0,0.0,-0.0040406428118893506,-0.012572852460854383,4.9210507130357745e-05,0.0256593344759156,0.0002834753009492109,0.0010145857191187452,0.0,0.0,0.0,0.0,0.0,0.0,0.0,0.0,0.0,0.0,0.0,0.0,0.0,0.0,0.0,0.0,0.0,0.0,0.0,0.0,0.0,0.0,0.0,0.0,0.0,0.0,0.0,0.0,0.0,0.0,0.0,0.0,0.0,0.0,0.0,0.0
2025/04/01 17:52:23.869371378,1743522743,867742970,world_ned,mA1/odom,-18.22410403930124,-18.68744493543949,0.4336804667369145,0.0028714821477516146,-7.361514511695935e-05,-0.000713051021499641,0.9999956203550725,0.0,0.0,0.0,0.0,0.0,0.0,0.0,0.0,0.0,0.0,0.0,0.0,0.0,0.0,0.0,0.0,0.0,0.0,0.0,0.0,0.0,0.0,0.0,0.0,0.0,0.0,0.0,0.0,0.0,0.0,0.0,0.0,0.0,0.0,0.0,0.0,0.0009149539600780128,-0.005898875069279197,1.403952867881201e-05,0.013092461140488934,-0.0010416182703701757,0.0010855875091690715,0.0,0.0,0.0,0.0,0.0,0.0,0.0,0.0,0.0,0.0,0.0,0.0,0.0,0.0,0.0,0.0,0.0,0.0,0.0,0.0,0.0,0.0,0.0,0.0,0.0,0.0,0.0,0.0,0.0,0.0,0.0,0.0,0.0,0.0,0.0,0.0
2025/04/01 17:52:23.973637734,1743522743,970616542,world_ned,mA1/odom,-18.224332305913425,-18.687596982734576,0.43367827884431587,0.0031107348258449094,-7.751131151889165e-05,-0.0006572934154964795,0.9999949426303144,0.0,0.0,0.0,0.0,0.0,0.0,0.0,0.0,0.0,0.0,0.0,0.0,0.0,0.0,0.0,0.0,0.0,0.0,0.0,0.0,0.0,0.0,0.0,0.0,0.0,0.0,0.0,0.0,0.0,0.0,0.0,0.0,0.0,0.0,0.0,0.0,-0.004428044514300903,0.002060938061431439,-3.249263361770275e-05,-0.0021091673227312644,0.0006044669432825406,0.0011354072533320226,0.0,0.0,0.0,0.0,0.0,0.0,0.0,0.0,0.0,0.0,0.0,0.0,0.0,0.0,0.0,0.0,0.0,0.0,0.0,0.0,0.0,0.0,0.0,0.0,0.0,0.0,0.0,0.0,0.0,0.0,0.0,0.0,0.0,0.0,0.0,0.0
2025/04/01 17:52:24.77671887,1743522744,67060702,world_ned,mA1/odom,-18.224462746464603,-18.687017397603213,0.4336765529885655,0.002615926731658036,-8.469528563043543e-05,-0.0006047897340284444,0.9999963919852015,0.0,0.0,0.0,0.0,0.0,0.0,0.0,0.0,0.0,0.0,0.0,0.0,0.0,0.0,0.0,0.0,0.0,0.0,0.0,0.0,0.0,0.0,0.0,0.0,0.0,0.0,0.0,0.0,0.0,0.0,0.0,0.0,0.0,0.0,0.0,0.0,0.000730811463325583,0.008417607990366512,-6.34785995440149e-05,-0.015762526103340842,-0.0005977305013348944,0.000921823131784309,0.0,0.0,0.0,0.0,0.0,0.0,0.0,0.0,0.0,0.0,0.0,0.0,0.0,0.0,0.0,0.0,0.0,0.0,0.0,0.0,0.0,0.0,0.0,0.0,0.0,0.0,0.0,0.0,0.0,0.0,0.0,0.0,0.0,0.0,0.0,0.0
2025/04/01 17:52:24.172520447,1743522744,170522482,world_ned,mA1/odom,-18.224703068959546,-18.685907207827658,0.4336746484275682,0.001529325430371073,-6.306430855452928e-05,-0.0005584639786737528,0.9999986726514218,0.0,0.0,0.0,0.0,0.0,0.0,0.0,0.0,0.0,0.0,0.0,0.0,0.0,0.0,0.0,0.0,0.0,0.0,0.0,0.0,0.0,0.0,0.0,0.0,0.0,0.0,0.0,0.0,0.0,0.0,0.0,0.0,0.0,0.0,0.0,0.0,-0.004426346474027624,0.012913041036641412,-6.524705025259535e-05,-0.02588722608156697,0.0010898561603224285,0.0009711909851829288,0.0,0.0,0.0,0.0,0.0,0.0,0.0,0.0,0.0,0.0,0.0,0.0,0.0,0.0,0.0,0.0,0.0,0.0,0.0,0.0,0.0,0.0,0.0,0.0,0.0,0.0,0.0,0.0,0.0,0.0,0.0,0.0,0.0,0.0,0.0,0.0
2025/04/01 17:52:24.286664136,1743522744,268392798,world_ned,mA1/odom,-18.22484043711717,-18.68456443290719,0.4336718716506671,0.00010448992809215282,-4.8583997079598274e-05,-0.0005073062429588549,0.9999998646809038,0.0,0.0,0.0,0.0,0.0,0.0,0.0,0.0,0.0,0.0,0.0,0.0,0.0,0.0,0.0,0.0,0.0,0.0,0.0,0.0,0.0,0.0,0.0,0.0,0.0,0.0,0.0,0.0,0.0,0.0,0.0,0.0,0.0,0.0,0.0,0.0,0.0004899901499082146,0.013201869600994882,-3.051807182191598e-05,-0.02957144729527882,-0.00024993302306909143,0.0010589622725037386,0.0,0.0,0.0,0.0,0.0,0.0,0.0,0.0,0.0,0.0,0.0,0.0,0.0,0.0,0.0,0.0,0.0,0.0,0.0,0.0,0.0,0.0,0.0,0.0,0.0,0.0,0.0,0.0,0.0,0.0,0.0,0.0,0.0,0.0,0.0,0.0
2025/04/01 17:52:24.371030716,1743522744,370171528,world_ned,mA1/odom,-18.22511479837617,-18.68339426292494,0.4336686014384994,-0.001323125598045826,-1.574197184460348e-05,-0.00045213107403032043,0.9999990223336891,0.0,0.0,0.0,0.0,0.0,0.0,0.0,0.0,0.0,0.0,0.0,0.0,0.0,0.0,0.0,0.0,0.0,0.0,0.0,0.0,0.0,0.0,0.0,0.0,0.0,0.0,0.0,0.0,0.0,0.0,0.0,0.0,0.0,0.0,0.0,0.0,-0.004819584803803723,0.00987057655850529,-7.312709315387629e-06,-0.02667636553456637,0.0012013060336106861,0.0011420381444491607,0.0,0.0,0.0,0.0,0.0,0.0,0.0,0.0,0.0,0.0,0.0,0.0,0.0,0.0,0.0,0.0,0.0,0.0,0.0,0.0,0.0,0.0,0.0,0.0,0.0,0.0,0.0,0.0,0.0,0.0,0.0,0.0,0.0,0.0,0.0,0.0
2025/04/01 17:52:24.469446071,1743522744,466913660,world_ned,mA1/odom,-18.225302369362534,-18.68275637826442,0.43366689036980177,-0.0024324403959036785,4.954158651296282e-07,-0.00039292799643287973,0.9999969644159249,0.0,0.0,0.0,0.0,0.0,0.0,0.0,0.0,0.0,0.0,0.0,0.0,0.0,0.0,0.0,0.0,0.0,0.0,0.0,0.0,0.0,0.0,0.0,0.0,0.0,0.0,0.0,0.0,0.0,0.0,0.0,0.0,0.0,0.0,0.0,0.0,-1.8389139919369263e-05,0.0030799326940454215,1.1759706560233543e-05,-0.0177176742825186,-0.00027450916392964247,0.0012181641421374156,0.0,0.0,0.0,0.0,0.0,0.0,0.0,0.0,0.0,0.0,0.0,0.0,0.0,0.0,0.0,0.0,0.0,0.0,0.0,0.0,0.0,0.0,0.0,0.0,0.0,0.0,0.0,0.0,0.0,0.0,0.0,0.0,0.0,0.0,0.0,0.0
2025/04/01 17:52:24.576917752,1743522744,568649613,world_ned,mA1/odom,-18.225639702788573,-18.68291969500293,0.4336694031514383,-0.002978599367349219,2.8864612478073118e-05,-0.00033043573807606263,0.9999955089523482,0.0,0.0,0.0,0.0,0.0,0.0,0.0,0.0,0.0,0.0,0.0,0.0,0.0,0.0,0.0,0.0,0.0,0.0,0.0,0.0,0.0,0.0,0.0,0.0,0.0,0.0,0.0,0.0,0.0,0.0,0.0,0.0,0.0,0.0,0.0,0.0,-0.005547293362399976,-0.005633946451949594,1.6894592594294312e-05,-0.00504120346921203,0.0010775080259918582,0.0012749700518950686,0.0,0.0,0.0,0.0,0.0,0.0,0.0,0.0,0.0,0.0,0.0,0.0,0.0,0.0,0.0,0.0,0.0,0.0,0.0,0.0,0.0,0.0,0.0,0.0,0.0,0.0,0.0,0.0,0.0,0.0,0.0,0.0,0.0,0.0,0.0,0.0
2025/04/01 17:52:24.671813183,1743522744,669865412,world_ned,mA1/odom,-18.225896315968754,-18.683964807479974,0.43367749648884163,-0.002866447895128581,3.408541875457276e-05,-0.0002652423142542063,0.9999958559719953,0.0,0.0,0.0,0.0,0.0,0.0,0.0,0.0,0.0,0.0,0.0,0.0,0.0,0.0,0.0,0.0,0.0,0.0,0.0,0.0,0.0,0.0,0.0,0.0,0.0,0.0,0.0,0.0,0.0,0.0,0.0,0.0,0.0,0.0,0.0,0.0,-0.0006829894647328768,-0.0142468109531296,1.7680504738866703e-05,0.008039680544113852,-0.0005468637664232496,0.0013310848493056043,0.0,0.0,0.0,0.0,0.0,0.0,0.0,0.0,0.0,0.0,0.0,0.0,0.0,0.0,0.0,0.0,0.0,0.0,0.0,0.0,0.0,0.0,0.0,0.0,0.0,0.0,0.0,0.0,0.0,0.0,0.0,0.0,0.0,0.0,0.0,0.0
2025/04/01 17:52:24.807496213,1743522744,764432487,world_ned,mA1/odom,-18.22629565016422,-18.685818339018645,0.4336880401319753,-0.0021440055358435913,4.587351354849903e-05,-0.00019712660594441178,0.9999976811358036,0.0,0.0,0.0,0.0,0.0,0.0,0.0,0.0,0.0,0.0,0.0,0.0,0.0,0.0,0.0,0.0,0.0,0.0,0.0,0.0,0.0,0.0,0.0,0.0,0.0,0.0,0.0,0.0,0.0,0.0,0.0,0.0,0.0,0.0,0.0,0.0,-0.00602560325405249,-0.02206711089670334,2.1848516547437756e-06,0.019404972413235473,0.0007224214119701221,0.0013793614153011946,0.0,0.0,0.0,0.0,0.0,0.0,0.0,0.0,0.0,0.0,0.0,0.0,0.0,0.0,0.0,0.0,0.0,0.0,0.0,0.0,0.0,0.0,0.0,0.0,0.0,0.0,0.0,0.0,0.0,0.0,0.0,0.0,0.0,0.0,0.0,0.0
2025/04/01 17:52:24.876562063,1743522744,865729399,world_ned,mA1/odom,-18.22659162514502,-18.68837661099494,0.4336970170265151,-0.0009473419669079566,3.36686353428872e-05,-0.0001261870046873662,0.9999995427431257,0.0,0.0,0.0,0.0,0.0,0.0,0.0,0.0,0.0,0.0,0.0,0.0,0.0,0.0,0.0,0.0,0.0,0.0,0.0,0.0,0.0,0.0,0.0,0.0,0.0,0.0,0.0,0.0,0.0,0.0,0.0,0.0,0.0,0.0,0.0,0.0,-0.0009469738652020848,-0.027755476907433622,2.1404243501185023e-05,0.0266446414530325,-0.0008644143850499338,0.001463866509496501,0.0,0.0,0.0,0.0,0.0,0.0,0.0,0.0,0.0,0.0,0.0,0.0,0.0,0.0,0.0,0.0,0.0,0.0,0.0,0.0,0.0,0.0,0.0,0.0,0.0,0.0,0.0,0.0,0.0,0.0,0.0,0.0,0.0,0.0,0.0,0.0
2025/04/01 17:52:24.966150847,1743522744,964827839,world_ned,mA1/odom,-18.227011889987264,-18.691289601612436,0.43370026391625516,0.0004380866093212751,3.107886099680537e-05,-5.0473757262403015e-05,0.9999999022833087,0.0,0.0,0.0,0.0,0.0,0.0,0.0,0.0,0.0,0.0,0.0,0.0,0.0,0.0,0.0,0.0,0.0,0.0,0.0,0.0,0.0,0.0,0.0,0.0,0.0,0.0,0.0,0.0,0.0,0.0,0.0,0.0,0.0,0.0,0.0,0.0,-0.006289968532616079,-0.029636594134127107,2.058970872118432e-05,0.027550491256301816,0.0004674907981488019,0.0015557843994529208,0.0,0.0,0.0,0.0,0.0,0.0,0.0,0.0,0.0,0.0,0.0,0.0,0.0,0.0,0.0,0.0,0.0,0.0,0.0,0.0,0.0,0.0,0.0,0.0,0.0,0.0,0.0,0.0,0.0,0.0,0.0,0.0,0.0,0.0,0.0,0.0
2025/04/01 17:52:25.68951040,1743522745,68480862,world_ned,mA1/odom,-18.227327289871507,-18.69419391615695,0.4336959149802427,0.0016956772820891962,7.857931885943894e-06,2.922850243620477e-05,0.9999985618802172,0.0,0.0,0.0,0.0,0.0,0.0,0.0,0.0,0.0,0.0,0.0,0.0,0.0,0.0,0.0,0.0,0.0,0.0,0.0,0.0,0.0,0.0,0.0,0.0,0.0,0.0,0.0,0.0,0.0,0.0,0.0,0.0,0.0,0.0,0.0,0.0,-0.0010710991707563713,-0.028295539106192077,2.4235528090960448e-05,0.022469166547269187,-0.001039628267255756,0.0016086070077572475,0.0,0.0,0.0,0.0,0.0,0.0,0.0,0.0,0.0,0.0,0.0,0.0,0.0,0.0,0.0,0.0,0.0,0.0,0.0,0.0,0.0,0.0,0.0,0.0,0.0,0.0,0.0,0.0,0.0,0.0,0.0,0.0,0.0,0.0,0.0,0.0
2025/04/01 17:52:25.170816410,1743522745,168432950,world_ned,mA1/odom,-18.227745189602103,-18.696852667522233,0.43368477356546514,0.002571366517597385,2.6322788362566004e-07,0.00011091568072435785,0.9999966878804523,0.0,0.0,0.0,0.0,0.0,0.0,0.0,0.0,0.0,0.0,0.0,0.0,0.0,0.0,0.0,0.0,0.0,0.0,0.0,0.0,0.0,0.0,0.0,0.0,0.0,0.0,0.0,0.0,0.0,0.0,0.0,0.0,0.0,0.0,0.0,0.0,-0.006113859254667007,-0.02468988383397792,-1.047382322018483e-05,0.012733757800480352,0.00044024155132569567,0.0016391512144093303,0.0,0.0,0.0,0.0,0.0,0.0,0.0,0.0,0.0,0.0,0.0,0.0,0.0,0.0,0.0,0.0,0.0,0.0,0.0,0.0,0.0,0.0,0.0,0.0,0.0,0.0,0.0,0.0,0.0,0.0,0.0,0.0,0.0,0.0,0.0,0.0
2025/04/01 17:52:25.275406302,1743522745,272170204,world_ned,mA1/odom,-18.228031877318717,-18.699054693214492,0.43367102238772987,0.00287324958822719,-2.033188022391801e-05,0.00019385099250373983,0.9999958532140076,0.0,0.0,0.0,0.0,0.0,0.0,0.0,0.0,0.0,0.0,0.0,0.0,0.0,0.0,0.0,0.0,0.0,0.0,0.0,0.0,0.0,0.0,0.0,0.0,0.0,0.0,0.0,0.0,0.0,0.0,0.0,0.0,0.0,0.0,0.0,0.0,-0.0008061709488485939,-0.019794759248196417,-2.6704340115721293e-05,0.0003810657868740098,-0.0009432137975109919,0.0016827484465713085,0.0,0.0,0.0,0.0,0.0,0.0,0.0,0.0,0.0,0.0,0.0,0.0,0.0,0.0,0.0,0.0,0.0,0.0,0.0,0.0,0.0,0.0,0.0,0.0,0.0,0.0,0.0,0.0,0.0,0.0,0.0,0.0,0.0,0.0,0.0,0.0
2025/04/01 17:52:25.370018951,1743522745,369543722,world_ned,mA1/odom,-18.22842092209007,-18.700748039403685,0.43365788561572244,0.0025421598469185644,-2.0546218155514557e-05,0.00027925675009842876,0.9999967295030685,0.0,0.0,0.0,0.0,0.0,0.0,0.0,0.0,0.0,0.0,0.0,0.0,0.0,0.0,0.0,0.0,0.0,0.0,0.0,0.0,0.0,0.0,0.0,0.0,0.0,0.0,0.0,0.0,0.0,0.0,0.0,0.0,0.0,0.0,0.0,0.0,-0.005854754726310701,-0.01424065560172119,-4.4903039128417995e-05,-0.012459619866661144,0.0006272954489046973,0.0017398176541630363,0.0,0.0,0.0,0.0,0.0,0.0,0.0,0.0,0.0,0.0,0.0,0.0,0.0,0.0,0.0,0.0,0.0,0.0,0.0,0.0,0.0,0.0,0.0,0.0,0.0,0.0,0.0,0.0,0.0,0.0,0.0,0.0,0.0,0.0,0.0,0.0
2025/04/01 17:52:25.464754974,1743522745,464325757,world_ned,mA1/odom,-18.228671173315096,-18.70186090062786,0.4336501936538146,0.0016047928330024722,-2.9481669783976218e-05,0.0003667895313744745,0.9999986446171985,0.0,0.0,0.0,0.0,0.0,0.0,0.0,0.0,0.0,0.0,0.0,0.0,0.0,0.0,0.0,0.0,0.0,0.0,0.0,0.0,0.0,0.0,0.0,0.0,0.0,0.0,0.0,0.0,0.0,0.0,0.0,0.0,0.0,0.0,0.0,0.0,-0.00034618109947632034,-0.009084702587386898,-2.9546915591632552e-05,-0.023119559880571437,-0.0006676053860633591,0.0017610061108760675,0.0,0.0,0.0,0.0,0.0,0.0,0.0,0.0,0.0,0.0,0.0,0.0,0.0,0.0,0.0,0.0,0.0,0.0,0.0,0.0,0.0,0.0,0.0,0.0,0.0,0.0,0.0,0.0,0.0,0.0,0.0,0.0,0.0,0.0,0.0,0.0
2025/04/01 17:52:25.571002912,1743522745,570334778,world_ned,mA1/odom,-18.22900459892189,-18.702652558708607,0.43364711150189517,0.0002886130927123925,-1.4963067956969044e-05,0.0004553334953710976,0.9999998545749881,0.0,0.0,0.0,0.0,0.0,0.0,0.0,0.0,0.0,0.0,0.0,0.0,0.0,0.0,0.0,0.0,0.0,0.0,0.0,0.0,0.0,0.0,0.0,0.0,0.0,0.0,0.0,0.0,0.0,0.0,0.0,0.0,0.0,0.0,0.0,0.0,-0.005174049461249338,-0.007430167085997088,-3.6190964413152376e-06,-0.02803876361352724,0.0009480156329548864,0.001766797294463315,0.0,0.0,0.0,0.0,0.0,0.0,0.0,0.0,0.0,0.0,0.0,0.0,0.0,0.0,0.0,0.0,0.0,0.0,0.0,0.0,0.0,0.0,0.0,0.0,0.0,0.0,0.0,0.0,0.0,0.0,0.0,0.0,0.0,0.0,0.0,0.0
2025/04/01 17:52:25.663877923,1743522745,662631457,world_ned,mA1/odom,-18.2291805227156,-18.70347877163536,0.43365055296502963,-0.00109867007824041,-8.539831499887624e-06,0.0005401930907976726,0.9999992505209967,0.0,0.0,0.0,0.0,0.0,0.0,0.0,0.0,0.0,0.0,0.0,0.0,0.0,0.0,0.0,0.0,0.0,0.0,0.0,0.0,0.0,0.0,0.0,0.0,0.0,0.0,0.0,0.0,0.0,0.0,0.0,0.0,0.0,0.0,0.0,0.0,0.0005095926051064356,-0.009344395614475505,4.1504744859349006e-05,-0.026617678249280553,-0.0003584751414903762,0.0016415035227367,0.0,0.0,0.0,0.0,0.0,0.0,0.0,0.0,0.0,0.0,0.0,0.0,0.0,0.0,0.0,0.0,0.0,0.0,0.0,0.0,0.0,0.0,0.0,0.0,0.0,0.0,0.0,0.0,0.0,0.0,0.0,0.0,0.0,0.0,0.0,0.0
2025/04/01 17:52:25.767060873,1743522745,766295753,world_ned,mA1/odom,-18.22941503254266,-18.70465988753692,0.4336601369591609,-0.002256403077008219,2.0502227857763993e-05,0.0006193616996344488,0.9999972623042014,0.0,0.0,0.0,0.0,0.0,0.0,0.0,0.0,0.0,0.0,0.0,0.0,0.0,0.0,0.0,0.0,0.0,0.0,0.0,0.0,0.0,0.0,0.0,0.0,0.0,0.0,0.0,0.0,0.0,0.0,0.0,0.0,0.0,0.0,0.0,0.0,-0.004214627437383526,-0.014276339057089867,5.71420847196014e-05,-0.019523906891086087,0.001189527766693306,0.0015695720938831747,0.0,0.0,0.0,0.0,0.0,0.0,0.0,0.0,0.0,0.0,0.0,0.0,0.0,0.0,0.0,0.0,0.0,0.0,0.0,0.0,0.0,0.0,0.0,0.0,0.0,0.0,0.0,0.0,0.0,0.0,0.0,0.0,0.0,0.0,0.0,0.0
2025/04/01 17:52:25.876242141,1743522745,872340792,world_ned,mA1/odom,-18.22950153020384,-18.70644546539095,0.4336754457994685,-0.00294711051011235,3.503177929775148e-05,0.0006968906911695007,0.9999954138173736,0.0,0.0,0.0,0.0,0.0,0.0,0.0,0.0,0.0,0.0,0.0,0.0,0.0,0.0,0.0,0.0,0.0,0.0,0.0,0.0,0.0,0.0,0.0,0.0,0.0,0.0,0.0,0.0,0.0,0.0,0.0,0.0,0.0,0.0,0.0,0.0,0.0012652686568343182,-0.020719990374328586,5.475262583910093e-05,-0.00890638833565232,-0.00028758328387800194,0.0015155846997240712,0.0,0.0,0.0,0.0,0.0,0.0,0.0,0.0,0.0,0.0,0.0,0.0,0.0,0.0,0.0,0.0,0.0,0.0,0.0,0.0,0.0,0.0,0.0,0.0,0.0,0.0,0.0,0.0,0.0,0.0,0.0,0.0,0.0,0.0,0.0,0.0
2025/04/01 17:52:25.967559769,1743522745,964849695,world_ned,mA1/odom,-18.229669342888517,-18.708855860778616,0.43369316339606956,-0.0030765751147091066,6.293656249389523e-05,0.0007701179120414234,0.9999949688088207,0.0,0.0,0.0,0.0,0.0,0.0,0.0,0.0,0.0,0.0,0.0,0.0,0.0,0.0,0.0,0.0,0.0,0.0,0.0,0.0,0.0,0.0,0.0,0.0,0.0,0.0,0.0,0.0,0.0,0.0,0.0,0.0,0.0,0.0,0.0,0.0,-0.0035758517749809007,-0.026673285657250224,5.162242728476793e-06,0.002520567212476364,0.001080769782509758,0.0014623956730346291,0.0,0.0,0.0,0.0,0.0,0.0,0.0,0.0,0.0,0.0,0.0,0.0,0.0,0.0,0.0,0.0,0.0,0.0,0.0,0.0,0.0,0.0,0.0,0.0,0.0,0.0,0.0,0.0,0.0,0.0,0.0,0.0,0.0,0.0,0.0,0.0
2025/04/01 17:52:26.67031508,1743522746,66053575,world_ned,mA1/odom,-18.229705811058437,-18.71172671284312,0.43370787807016276,-0.0026838986469503124,7.195501039288407e-05,0.0008410250715098632,0.9999960420858467,0.0,0.0,0.0,0.0,0.0,0.0,0.0,0.0,0.0,0.0,0.0,0.0,0.0,0.0,0.0,0.0,0.0,0.0,0.0,0.0,0.0,0.0,0.0,0.0,0.0,0.0,0.0,0.0,0.0,0.0,0.0,0.0,0.0,0.0,0.0,0.0,0.001762010762548583,-0.02915788673817054,-4.3048769050439784e-05,0.011208029102341954,-0.00043321277602201947,0.001315088658481521,0.0,0.0,0.0,0.0,0.0,0.0,0.0,0.0,0.0,0.0,0.0,0.0,0.0,0.0,0.0,0.0,0.0,0.0,0.0,0.0,0.0,0.0,0.0,0.0,0.0,0.0,0.0,0.0,0.0,0.0,0.0,0.0,0.0,0.0,0.0,0.0
2025/04/01 17:52:26.167843418,1743522746,167521202,world_ned,mA1/odom,-18.229784377853612,-18.714619632160495,0.4337143434684664,-0.0019742965560394362,8.43994081428851e-05,0.0009017603916461998,0.9999976409262398,0.0,0.0,0.0,0.0,0.0,0.0,0.0,0.0,0.0,0.0,0.0,0.0,0.0,0.0,0.0,0.0,0.0,0.0,0.0,0.0,0.0,0.0,0.0,0.0,0.0,0.0,0.0,0.0,0.0,0.0,0.0,0.0,0.0,0.0,0.0,0.0,-0.0008226252243828355,-0.028287283359363022,-9.34282555105874e-05,0.016021783730376053,0.00017285802758285014,0.0011794736828086838,0.0,0.0,0.0,0.0,0.0,0.0,0.0,0.0,0.0,0.0,0.0,0.0,0.0,0.0,0.0,0.0,0.0,0.0,0.0,0.0,0.0,0.0,0.0,0.0,0.0,0.0,0.0,0.0,0.0,0.0,0.0,0.0,0.0,0.0,0.0,0.0
2025/04/01 17:52:26.272213412,1743522746,271390884,world_ned,mA1/odom,-18.229782431993307,-18.717306091795013,0.433709724712745,-0.0011246764326653584,7.67614386544169e-05,0.0009593451791893252,0.9999989044331151,0.0,0.0,0.0,0.0,0.0,0.0,0.0,0.0,0.0,0.0,0.0,0.0,0.0,0.0,0.0,0.0,0.0,0.0,0.0,0.0,0.0,0.0,0.0,0.0,0.0,0.0,0.0,0.0,0.0,0.0,0.0,0.0,0.0,0.0,0.0,0.0,-0.0008517977838577751,-0.025296388160853552,-0.0001588420501821841,0.017133372675728797,-4.658560762389889e-05,0.0011195308885841868,0.0,0.0,0.0,0.0,0.0,0.0,0.0,0.0,0.0,0.0,0.0,0.0,0.0,0.0,0.0,0.0,0.0,0.0,0.0,0.0,0.0,0.0,0.0,0.0,0.0,0.0,0.0,0.0,0.0,0.0,0.0,0.0,0.0,0.0,0.0,0.0
2025/04/01 17:52:26.364357749,1743522746,363883585,world_ned,mA1/odom,-18.229888044529844,-18.719574020687997,0.43369707952736875,-0.00032522821430751395,7.555126585159814e-05,0.001012996647314633,0.9999994311780419,0.0,0.0,0.0,0.0,0.0,0.0,0.0,0.0,0.0,0.0,0.0,0.0,0.0,0.0,0.0,0.0,0.0,0.0,0.0,0.0,0.0,0.0,0.0,0.0,0.0,0.0,0.0,0.0,0.0,0.0,0.0,0.0,0.0,0.0,0.0,0.0,-0.004524099254168681,-0.020254268122940827,-0.0001655863401447734,0.014503753242755053,0.000872135829463594,0.0010366491822314042,0.0,0.0,0.0,0.0,0.0,0.0,0.0,0.0,0.0,0.0,0.0,0.0,0.0,0.0,0.0,0.0,0.0,0.0,0.0,0.0,0.0,0.0,0.0,0.0,0.0,0.0,0.0,0.0,0.0,0.0,0.0,0.0,0.0,0.0,0.0,0.0
2025/04/01 17:52:26.471018956,1743522746,470404278,world_ned,mA1/odom,-18.22981154741142,-18.721247491717346,0.4336811623357027,0.0002542161984656584,4.2724148200669726e-05,0.001063704150911604,0.9999994010409461,0.0,0.0,0.0,0.0,0.0,0.0,0.0,0.0,0.0,0.0,0.0,0.0,0.0,0.0,0.0,0.0,0.0,0.0,0.0,0.0,0.0,0.0,0.0,0.0,0.0,0.0,0.0,0.0,0.0,0.0,0.0,0.0,0.0,0.0,0.0,0.0,0.006384845894140795,-0.013694536204144535,-0.0001348299410407007,0.00883670014182639,-0.002292008259054106,0.0010120897201767978,0.0,0.0,0.0,0.0,0.0,0.0,0.0,0.0,0.0,0.0,0.0,0.0,0.0,0.0,0.0,0.0,0.0,0.0,0.0,0.0,0.0,0.0,0.0,0.0,0.0,0.0,0.0,0.0,0.0,0.0,0.0,0.0,0.0,0.0,0.0,0.0
2025/04/01 17:52:26.562831634,1743522746,562633159,world_ned,mA1/odom,-18.229774715209697,-18.722223397034206,0.43366639909532667,0.0004986120345487403,1.2737292187621383e-05,0.0011129697149568948,0.9999992562608304,0.0,0.0,0.0,0.0,0.0,0.0,0.0,0.0,0.0,0.0,0.0,0.0,0.0,0.0,0.0,0.0,0.0,0.0,0.0,0.0,0.0,0.0,0.0,0.0,0.0,0.0,0.0,0.0,0.0,0.0,0.0,0.0,0.0,0.0,0.0,0.0,0.0015302615327615382,-0.006578300651360832,-0.00013071528615973206,0.0015774678380828429,-0.0009204160861078623,0.0009463107542418411,0.0,0.0,0.0,0.0,0.0,0.0,0.0,0.0,0.0,0.0,0.0,0.0,0.0,0.0,0.0,0.0,0.0,0.0,0.0,0.0,0.0,0.0,0.0,0.0,0.0,0.0,0.0,0.0,0.0,0.0,0.0,0.0,0.0,0.0,0.0,0.0
2025/04/01 17:52:26.665404946,1743522746,665105252,world_ned,mA1/odom,-18.22972146841917,-18.722482260155548,0.43365526050983694,0.00037105238846981006,-1.3558356332209392e-05,0.0011624196160715055,0.9999992554581889,0.0,0.0,0.0,0.0,0.0,0.0,0.0,0.0,0.0,0.0,0.0,0.0,0.0,0.0,0.0,0.0,0.0,0.0,0.0,0.0,0.0,0.0,0.0,0.0,0.0,0.0,0.0,0.0,0.0,0.0,0.0,0.0,0.0,0.0,0.0,0.0,-0.00491396476874632,0.0006611963419376774,-0.00010013952371293726,-0.005851826392238729,0.0011193322733282413,0.0010642017764898098,0.0,0.0,0.0,0.0,0.0,0.0,0.0,0.0,0.0,0.0,0.0,0.0,0.0,0.0,0.0,0.0,0.0,0.0,0.0,0.0,0.0,0.0,0.0,0.0,0.0,0.0,0.0,0.0,0.0,0.0,0.0,0.0,0.0,0.0,0.0,0.0
2025/04/01 17:52:26.767223995,1743522746,766915218,world_ned,mA1/odom,-18.229728584178908,-18.72216455015925,0.43364894318505515,-5.685639019874853e-05,-2.3571759095974957e-05,0.0012142289185691373,0.9999992609296551,0.0,0.0,0.0,0.0,0.0,0.0,0.0,0.0,0.0,0.0,0.0,0.0,0.0,0.0,0.0,0.0,0.0,0.0,0.0,0.0,0.0,0.0,0.0,0.0,0.0,0.0,0.0,0.0,0.0,0.0,0.0,0.0,0.0,0.0,0.0,0.0,0.002746645627582084,0.004663725259582023,-4.231389049582733e-05,-0.010201221259574665,-0.001002075552122999,0.0010392087802230604,0.0,0.0,0.0,0.0,0.0,0.0,0.0,0.0,0.0,0.0,0.0,0.0,0.0,0.0,0.0,0.0,0.0,0.0,0.0,0.0,0.0,0.0,0.0,0.0,0.0,0.0,0.0,0.0,0.0,0.0,0.0,0.0,0.0,0.0,0.0,0.0
2025/04/01 17:52:26.869617454,1743522746,868384568,world_ned,mA1/odom,-18.229669562258533,-18.721663774053393,0.43365153007362944,-0.0005899192926354955,-4.609136933040727e-05,0.0012651954614762415,0.9999990245751533,0.0,0.0,0.0,0.0,0.0,0.0,0.0,0.0,0.0,0.0,0.0,0.0,0.0,0.0,0.0,0.0,0.0,0.0,0.0,0.0,0.0,0.0,0.0,0.0,0.0,0.0,0.0,0.0,0.0,0.0,0.0,0.0,0.0,0.0,0.0,0.0,-0.0005409616886596219,0.004332173145294344,0.00010691292942672322,-0.010131815242582292,-0.0001047060305826564,0.0009798992513793384,0.0,0.0,0.0,0.0,0.0,0.0,0.0,0.0,0.0,0.0,0.0,0.0,0.0,0.0,0.0,0.0,0.0,0.0,0.0,0.0,0.0,0.0,0.0,0.0,0.0,0.0,0.0,0.0,0.0,0.0,0.0,0.0,0.0,0.0,0.0,0.0
2025/04/01 17:52:26.970928853,1743522746,970278008,world_ned,mA1/odom,-18.22952909675045,-18.7213588453231,0.4336644966878695,-0.001023645434049746,-7.798125963033806e-05,0.0013109676922868588,0.9999986137153682,0.0,0.0,0.0,0.0,0.0,0.0,0.0,0.0,0.0,0.0,0.0,0.0,0.0,0.0,0.0,0.0,0.0,0.0,0.0,0.0,0.0,0.0,0.0,0.0,0.0,0.0,0.0,0.0,0.0,0.0,0.0,0.0,0.0,0.0,0.0,0.0,0.0029069801656617803,0.001831256457734485,0.00016074301226299834,-0.007183912398185836,-0.001017765146619617,0.0008625820904080416,0.0,0.0,0.0,0.0,0.0,0.0,0.0,0.0,0.0,0.0,0.0,0.0,0.0,0.0,0.0,0.0,0.0,0.0,0.0,0.0,0.0,0.0,0.0,0.0,0.0,0.0,0.0,0.0,0.0,0.0,0.0,0.0,0.0,0.0,0.0,0.0
2025/04/01 17:52:27.63945633,1743522747,63447187,world_ned,mA1/odom,-18.229637872796623,-18.72135511397511,0.43368368757339487,-0.0012639734821333758,-7.171587041151961e-05,0.0013513422247114634,0.9999982855495614,0.0,0.0,0.0,0.0,0.0,0.0,0.0,0.0,0.0,0.0,0.0,0.0,0.0,0.0,0.0,0.0,0.0,0.0,0.0,0.0,0.0,0.0,0.0,0.0,0.0,0.0,0.0,0.0,0.0,0.0,0.0,0.0,0.0,0.0,0.0,0.0,-0.0018587129361639476,-0.0015077408596947154,0.00019154982239448322,-0.0027092293547366425,0.0003508345889514847,0.0007572333397576354,0.0,0.0,0.0,0.0,0.0,0.0,0.0,0.0,0.0,0.0,0.0,0.0,0.0,0.0,0.0,0.0,0.0,0.0,0.0,0.0,0.0,0.0,0.0,0.0,0.0,0.0,0.0,0.0,0.0,0.0,0.0,0.0,0.0,0.0,0.0,0.0
2025/04/01 17:52:27.168700379,1743522747,165815894,world_ned,mA1/odom,-18.22971748623356,-18.721696079327305,0.4337045879797364,-0.0012660970480908456,-6.696349990503921e-05,0.0013860779059892913,0.99999823564954,0.0,0.0,0.0,0.0,0.0,0.0,0.0,0.0,0.0,0.0,0.0,0.0,0.0,0.0,0.0,0.0,0.0,0.0,0.0,0.0,0.0,0.0,0.0,0.0,0.0,0.0,0.0,0.0,0.0,0.0,0.0,0.0,0.0,0.0,0.0,0.0,-0.0034091884128945238,-0.0049137801140064176,0.00018857856877044696,0.0020926026768582737,0.0008551956118742338,0.0006458728196508346,0.0,0.0,0.0,0.0,0.0,0.0,0.0,0.0,0.0,0.0,0.0,0.0,0.0,0.0,0.0,0.0,0.0,0.0,0.0,0.0,0.0,0.0,0.0,0.0,0.0,0.0,0.0,0.0,0.0,0.0,0.0,0.0,0.0,0.0,0.0,0.0
2025/04/01 17:52:27.268516482,1743522747,268202432,world_ned,mA1/odom,-18.229732849791656,-18.722333580366644,0.4337224098933044,-0.0010497536013464373,-6.756424059873923e-05,0.0014159606450847636,0.9999984442527405,0.0,0.0,0.0,0.0,0.0,0.0,0.0,0.0,0.0,0.0,0.0,0.0,0.0,0.0,0.0,0.0,0.0,0.0,0.0,0.0,0.0,0.0,0.0,0.0,0.0,0.0,0.0,0.0,0.0,0.0,0.0,0.0,0.0,0.0,0.0,0.0,0.0009511530248547744,-0.007343782634596824,0.0001562361224757286,0.00591429829588841,-0.00029289047818984457,0.0005631377017089503,0.0,0.0,0.0,0.0,0.0,0.0,0.0,0.0,0.0,0.0,0.0,0.0,0.0,0.0,0.0,0.0,0.0,0.0,0.0,0.0,0.0,0.0,0.0,0.0,0.0,0.0,0.0,0.0,0.0,0.0,0.0,0.0,0.0,0.0,0.0,0.0
2025/04/01 17:52:27.371102699,1743522747,370867984,world_ned,mA1/odom,-18.22975357385003,-18.72313566913085,0.43373126763439,-0.0006901946305585067,-6.526746411529601e-05,0.001443837530407584,0.9999987173515353,0.0,0.0,0.0,0.0,0.0,0.0,0.0,0.0,0.0,0.0,0.0,0.0,0.0,0.0,0.0,0.0,0.0,0.0,0.0,0.0,0.0,0.0,0.0,0.0,0.0,0.0,0.0,0.0,0.0,0.0,0.0,0.0,0.0,0.0,0.0,0.0,0.004019570633033938,-0.008375416657230371,1.3541469540270319e-05,0.007948384890389874,-0.0011814409263138932,0.0005713958723806196,0.0,0.0,0.0,0.0,0.0,0.0,0.0,0.0,0.0,0.0,0.0,0.0,0.0,0.0,0.0,0.0,0.0,0.0,0.0,0.0,0.0,0.0,0.0,0.0,0.0,0.0,0.0,0.0,0.0,0.0,0.0,0.0,0.0,0.0,0.0,0.0
2025/04/01 17:52:27.464884337,1743522747,462212256,world_ned,mA1/odom,-18.22993697936203,-18.724028590969986,0.43373033312946013,-0.00026115355125185506,-3.7483280649092575e-05,0.001469453910971829,0.9999988855488939,0.0,0.0,0.0,0.0,0.0,0.0,0.0,0.0,0.0,0.0,0.0,0.0,0.0,0.0,0.0,0.0,0.0,0.0,0.0,0.0,0.0,0.0,0.0,0.0,0.0,0.0,0.0,0.0,0.0,0.0,0.0,0.0,0.0,0.0,0.0,0.0,-0.0029432134251903266,-0.00948435417070432,-6.946942151218203e-05,0.008984267022351394,0.000904362179078336,0.00044701889427813097,0.0,0.0,0.0,0.0,0.0,0.0,0.0,0.0,0.0,0.0,0.0,0.0,0.0,0.0,0.0,0.0,0.0,0.0,0.0,0.0,0.0,0.0,0.0,0.0,0.0,0.0,0.0,0.0,0.0,0.0,0.0,0.0,0.0,0.0,0.0,0.0
2025/04/01 17:52:27.568792344,1743522747,566109507,world_ned,mA1/odom,-18.230130468357782,-18.724938445692214,0.4337187044923595,0.00015323010413331956,-8.900098349648473e-07,0.0014893090406135822,0.9999988792385343,0.0,0.0,0.0,0.0,0.0,0.0,0.0,0.0,0.0,0.0,0.0,0.0,0.0,0.0,0.0,0.0,0.0,0.0,0.0,0.0,0.0,0.0,0.0,0.0,0.0,0.0,0.0,0.0,0.0,0.0,0.0,0.0,0.0,0.0,0.0,0.0,-0.001886359077373944,-0.008045995449583865,-0.00016391119787162873,0.007031045332173785,0.0007708491286898265,0.00035985876408583866,0.0,0.0,0.0,0.0,0.0,0.0,0.0,0.0,0.0,0.0,0.0,0.0,0.0,0.0,0.0,0.0,0.0,0.0,0.0,0.0,0.0,0.0,0.0,0.0,0.0,0.0,0.0,0.0,0.0,0.0,0.0,0.0,0.0,0.0,0.0,0.0
2025/04/01 17:52:27.668228113,1743522747,667442864,world_ned,mA1/odom,-18.23020551362016,-18.72557602124958,0.43369864060124974,0.0003968640903101678,2.316112254574206e-05,0.001505119007468501,0.9999987882888807,0.0,0.0,0.0,0.0,0.0,0.0,0.0,0.0,0.0,0.0,0.0,0.0,0.0,0.0,0.0,0.0,0.0,0.0,0.0,0.0,0.0,0.0,0.0,0.0,0.0,0.0,0.0,0.0,0.0,0.0,0.0,0.0,0.0,0.0,0.0,0.0,0.0016999447909002458,-0.004925540034970455,-0.00019862289992882308,0.0029417329003359805,-0.0002302762609972137,0.0002802620368880544,0.0,0.0,0.0,0.0,0.0,0.0,0.0,0.0,0.0,0.0,0.0,0.0,0.0,0.0,0.0,0.0,0.0,0.0,0.0,0.0,0.0,0.0,0.0,0.0,0.0,0.0,0.0,0.0,0.0,0.0,0.0,0.0,0.0,0.0,0.0,0.0
2025/04/01 17:52:27.768620215,1743522747,768190291,world_ned,mA1/odom,-18.2302239783817,-18.72587288752033,0.4336756426289999,0.00041230905242772305,3.642387342626648e-05,0.0015170138731745127,0.9999987636709634,0.0,0.0,0.0,0.0,0.0,0.0,0.0,0.0,0.0,0.0,0.0,0.0,0.0,0.0,0.0,0.0,0.0,0.0,0.0,0.0,0.0,0.0,0.0,0.0,0.0,0.0,0.0,0.0,0.0,0.0,0.0,0.0,0.0,0.0,0.0,0.0,0.0038538057263118584,-0.0013282684226477005,-0.00023247656638579828,-0.0018733443494713933,-0.0008955655196835185,0.0002034918913968447,0.0,0.0,0.0,0.0,0.0,0.0,0.0,0.0,0.0,0.0,0.0,0.0,0.0,0.0,0.0,0.0,0.0,0.0,0.0,0.0,0.0,0.0,0.0,0.0,0.0,0.0,0.0,0.0,0.0,0.0,0.0,0.0,0.0,0.0,0.0,0.0
2025/04/01 17:52:27.870271902,1743522747,869938718,world_ned,mA1/odom,-18.230387216977142,-18.725827684251165,0.433655456231623,0.0001983807818058955,6.428818358346252e-05,0.0015254794641012146,0.9999988147115473,0.0,0.0,0.0,0.0,0.0,0.0,0.0,0.0,0.0,0.0,0.0,0.0,0.0,0.0,0.0,0.0,0.0,0.0,0.0,0.0,0.0,0.0,0.0,0.0,0.0,0.0,0.0,0.0,0.0,0.0,0.0,0.0,0.0,0.0,0.0,0.0,-0.0072499598935838435,0.0018037422471310926,-0.00017974663575384174,-0.006080192519841939,0.0020494014919089716,0.0001374768304229928,0.0,0.0,0.0,0.0,0.0,0.0,0.0,0.0,0.0,0.0,0.0,0.0,0.0,0.0,0.0,0.0,0.0,0.0,0.0,0.0,0.0,0.0,0.0,0.0,0.0,0.0,0.0,0.0,0.0,0.0,0.0,0.0,0.0,0.0,0.0,0.0
2025/04/01 17:52:27.973735349,1743522747,970693787,world_ned,mA1/odom,-18.230553390469893,-18.725525667476564,0.43364405352880026,-0.00018474811619994315,8.132971966872422e-05,0.0015325918197543616,0.9999988052072484,0.0,0.0,0.0,0.0,0.0,0.0,0.0,0.0,0.0,0.0,0.0,0.0,0.0,0.0,0.0,0.0,0.0,0.0,0.0,0.0,0.0,0.0,0.0,0.0,0.0,0.0,0.0,0.0,0.0,0.0,0.0,0.0,0.0,0.0,0.0,0.0,-0.0005199569571638626,0.0038377334633282055,-6.45381029419703e-05,-0.008667006320977368,-9.427195816004311e-05,0.00016612534500707124,0.0,0.0,0.0,0.0,0.0,0.0,0.0,0.0,0.0,0.0,0.0,0.0,0.0,0.0,0.0,0.0,0.0,0.0,0.0,0.0,0.0,0.0,0.0,0.0,0.0,0.0,0.0,0.0,0.0,0.0,0.0,0.0,0.0,0.0,0.0,0.0
2025/04/01 17:52:28.63675436,1743522748,62606173,world_ned,mA1/odom,-18.230589108081908,-18.72508184881162,0.4336445499139795,-0.0006442886821496283,6.455893643362266e-05,0.0015425864399236135,0.9999986005746774,0.0,0.0,0.0,0.0,0.0,0.0,0.0,0.0,0.0,0.0,0.0,0.0,0.0,0.0,0.0,0.0,0.0,0.0,0.0,0.0,0.0,0.0,0.0,0.0,0.0,0.0,0.0,0.0,0.0,0.0,0.0,0.0,0.0,0.0,0.0,0.0,0.004121194932940238,0.004767689335704998,7.494651298749662e-05,-0.009298106934836143,-0.0016922781996480823,0.00022680562922977772,0.0,0.0,0.0,0.0,0.0,0.0,0.0,0.0,0.0,0.0,0.0,0.0,0.0,0.0,0.0,0.0,0.0,0.0,0.0,0.0,0.0,0.0,0.0,0.0,0.0,0.0,0.0,0.0,0.0,0.0,0.0,0.0,0.0,0.0,0.0,0.0
2025/04/01 17:52:28.164817870,1743522748,164296705,world_ned,mA1/odom,-18.230674287528586,-18.72462980213235,0.433655529308046,-0.0010711940141426431,4.343560055893394e-05,0.001555153370523012,0.9999982160757722,0.0,0.0,0.0,0.0,0.0,0.0,0.0,0.0,0.0,0.0,0.0,0.0,0.0,0.0,0.0,0.0,0.0,0.0,0.0,0.0,0.0,0.0,0.0,0.0,0.0,0.0,0.0,0.0,0.0,0.0,0.0,0.0,0.0,0.0,0.0,0.0,0.001189924826530648,0.0039190666674261115,0.00014601190025277224,-0.007430528090832491,-0.000996243910668585,0.0002579380587834703,0.0,0.0,0.0,0.0,0.0,0.0,0.0,0.0,0.0,0.0,0.0,0.0,0.0,0.0,0.0,0.0,0.0,0.0,0.0,0.0,0.0,0.0,0.0,0.0,0.0,0.0,0.0,0.0,0.0,0.0,0.0,0.0,0.0,0.0,0.0,0.0
2025/04/01 17:52:28.268028093,1743522748,267669586,world_ned,mA1/odom,-18.23083115258646,-18.7243624444977,0.43367323646010897,-0.0013398314973464148,3.125483700758639e-05,0.001565754269163727,0.9999978761418759,0.0,0.0,0.0,0.0,0.0,0.0,0.0,0.0,0.0,0.0,0.0,0.0,0.0,0.0,0.0,0.0,0.0,0.0,0.0,0.0,0.0,0.0,0.0,0.0,0.0,0.0,0.0,0.0,0.0,0.0,0.0,0.0,0.0,0.0,0.0,0.0,-0.007202133790481665,0.0015760713314603154,0.00019384451604558344,-0.0035180773299847905,0.0013299596143121798,0.000173959444525305,0.0,0.0,0.0,0.0,0.0,0.0,0.0,0.0,0.0,0.0,0.0,0.0,0.0,0.0,0.0,0.0,0.0,0.0,0.0,0.0,0.0,0.0,0.0,0.0,0.0,0.0,0.0,0.0,0.0,0.0,0.0,0.0,0.0,0.0,0.0,0.0
2025/04/01 17:52:28.363779502,1743522748,362950588,world_ned,mA1/odom,-18.230920467680445,-18.724258646199278,0.4336930824247467,-0.001422176626668172,1.0681120104304325e-05,0.0015716966245071552,0.9999977535321151,0.0,0.0,0.0,0.0,0.0,0.0,0.0,0.0,0.0,0.0,0.0,0.0,0.0,0.0,0.0,0.0,0.0,0.0,0.0,0.0,0.0,0.0,0.0,0.0,0.0,0.0,0.0,0.0,0.0,0.0,0.0,0.0,0.0,0.0,0.0,0.0,-0.001850484144403167,0.0011759266317032484,0.00018502637887786222,-0.0004951519176710594,-0.0001138436944171574,5.259252650587131e-05,0.0,0.0,0.0,0.0,0.0,0.0,0.0,0.0,0.0,0.0,0.0,0.0,0.0,0.0,0.0,0.0,0.0,0.0,0.0,0.0,0.0,0.0,0.0,0.0,0.0,0.0,0.0,0.0,0.0,0.0,0.0,0.0,0.0,0.0,0.0,0.0
2025/04/01 17:52:28.466637288,1743522748,466206386,world_ned,mA1/odom,-18.23093105293549,-18.724121307927167,0.43371032282840966,-0.001376616700776093,-1.8639338383243872e-05,0.0015723591835770888,0.9999978161304314,0.0,0.0,0.0,0.0,0.0,0.0,0.0,0.0,0.0,0.0,0.0,0.0,0.0,0.0,0.0,0.0,0.0,0.0,0.0,0.0,0.0,0.0,0.0,0.0,0.0,0.0,0.0,0.0,0.0,0.0,0.0,0.0,0.0,0.0,0.0,0.0,0.006440941927574098,0.0016329367277251412,0.0001697397983437899,0.001985439454062305,-0.002374818496402358,-1.1481755143407624e-05,0.0,0.0,0.0,0.0,0.0,0.0,0.0,0.0,0.0,0.0,0.0,0.0,0.0,0.0,0.0,0.0,0.0,0.0,0.0,0.0,0.0,0.0,0.0,0.0,0.0,0.0,0.0,0.0,0.0,0.0,0.0,0.0,0.0,0.0,0.0,0.0
2025/04/01 17:52:28.568027249,1743522748,567330611,world_ned,mA1/odom,-18.230947370995572,-18.72391339577279,0.43372007106300386,-0.00122211403370684,-4.010556444579065e-05,0.0015701218137440685,0.9999980197712005,0.0,0.0,0.0,0.0,0.0,0.0,0.0,0.0,0.0,0.0,0.0,0.0,0.0,0.0,0.0,0.0,0.0,0.0,0.0,0.0,0.0,0.0,0.0,0.0,0.0,0.0,0.0,0.0,0.0,0.0,0.0,0.0,0.0,0.0,0.0,0.0,-0.0028583435685095204,0.0025033351173597055,5.994002853442134e-05,0.0038857755638953754,0.000406717656179638,-7.30170597517839e-05,0.0,0.0,0.0,0.0,0.0,0.0,0.0,0.0,0.0,0.0,0.0,0.0,0.0,0.0,0.0,0.0,0.0,0.0,0.0,0.0,0.0,0.0,0.0,0.0,0.0,0.0,0.0,0.0,0.0,0.0,0.0,0.0,0.0,0.0,0.0,0.0
2025/04/01 17:52:28.668899519,1743522748,668321625,world_ned,mA1/odom,-18.230957409670655,-18.723594107916835,0.4337199670747354,-0.0009948991590587805,-5.3744738218273145e-05,0.0015668516266326468,0.9999982761300874,0.0,0.0,0.0,0.0,0.0,0.0,0.0,0.0,0.0,0.0,0.0,0.0,0.0,0.0,0.0,0.0,0.0,0.0,0.0,0.0,0.0,0.0,0.0,0.0,0.0,0.0,0.0,0.0,0.0,0.0,0.0,0.0,0.0,0.0,0.0,0.0,-0.0027021777327947668,0.0038586108590488656,-4.497682590653958e-05,0.0049018370311882335,0.00048199996111356936,-3.280704255999692e-05,0.0,0.0,0.0,0.0,0.0,0.0,0.0,0.0,0.0,0.0,0.0,0.0,0.0,0.0,0.0,0.0,0.0,0.0,0.0,0.0,0.0,0.0,0.0,0.0,0.0,0.0,0.0,0.0,0.0,0.0,0.0,0.0,0.0,0.0,0.0,0.0
2025/04/01 17:52:28.776539520,1743522748,764709181,world_ned,mA1/odom,-18.231095869491366,-18.723125663309972,0.43371206789221456,-0.0007399814859179836,-4.031543619907442e-05,0.0015659460993959866,0.9999984993063139,0.0,0.0,0.0,0.0,0.0,0.0,0.0,0.0,0.0,0.0,0.0,0.0,0.0,0.0,0.0,0.0,0.0,0.0,0.0,0.0,0.0,0.0,0.0,0.0,0.0,0.0,0.0,0.0,0.0,0.0,0.0,0.0,0.0,0.0,0.0,0.0,-9.817316841573955e-05,0.0054115023724734795,-0.00010154604502071832,0.0051150154393557225,5.6545956411711663e-05,-2.351195174506468e-05,0.0,0.0,0.0,0.0,0.0,0.0,0.0,0.0,0.0,0.0,0.0,0.0,0.0,0.0,0.0,0.0,0.0,0.0,0.0,0.0,0.0,0.0,0.0,0.0,0.0,0.0,0.0,0.0,0.0,0.0,0.0,0.0,0.0,0.0,0.0,0.0
2025/04/01 17:52:28.869476542,1743522748,869147225,world_ned,mA1/odom,-18.23105329586504,-18.722493101298475,0.4336988677788315,-0.0004973140952259595,-3.868571176563905e-05,0.00156384852927595,0.9999986527790344,0.0,0.0,0.0,0.0,0.0,0.0,0.0,0.0,0.0,0.0,0.0,0.0,0.0,0.0,0.0,0.0,0.0,0.0,0.0,0.0,0.0,0.0,0.0,0.0,0.0,0.0,0.0,0.0,0.0,0.0,0.0,0.0,0.0,0.0,0.0,0.0,-0.0006085757948965931,0.007083645527432122,-0.0001254650614462766,0.004535041003440773,0.0004246862614952362,-4.5386003068010915e-05,0.0,0.0,0.0,0.0,0.0,0.0,0.0,0.0,0.0,0.0,0.0,0.0,0.0,0.0,0.0,0.0,0.0,0.0,0.0,0.0,0.0,0.0,0.0,0.0,0.0,0.0,0.0,0.0,0.0,0.0,0.0,0.0,0.0,0.0,0.0,0.0
2025/04/01 17:52:28.971902462,1743522748,966016220,world_ned,mA1/odom,-18.230953419927786,-18.721675145056086,0.43368243584924016,-0.00030744994343984204,-3.556205505347532e-05,0.0015601382755397511,0.9999987350884169,0.0,0.0,0.0,0.0,0.0,0.0,0.0,0.0,0.0,0.0,0.0,0.0,0.0,0.0,0.0,0.0,0.0,0.0,0.0,0.0,0.0,0.0,0.0,0.0,0.0,0.0,0.0,0.0,0.0,0.0,0.0,0.0,0.0,0.0,0.0,0.0,0.002498638053151095,0.009153073816317912,-0.00016792400288581736,0.0030583152306116208,-0.00027671635087430914,-0.00010413537055374057,0.0,0.0,0.0,0.0,0.0,0.0,0.0,0.0,0.0,0.0,0.0,0.0,0.0,0.0,0.0,0.0,0.0,0.0,0.0,0.0,0.0,0.0,0.0,0.0,0.0,0.0,0.0,0.0,0.0,0.0,0.0,0.0,0.0,0.0,0.0,0.0
2025/04/01 17:52:29.69696329,1743522749,69174759,world_ned,mA1/odom,-18.230948555154445,-18.72066193765765,0.4336666281396743,-0.0002001765952052201,-1.343339432520394e-05,0.0015527395832586068,0.9999987743735795,0.0,0.0,0.0,0.0,0.0,0.0,0.0,0.0,0.0,0.0,0.0,0.0,0.0,0.0,0.0,0.0,0.0,0.0,0.0,0.0,0.0,0.0,0.0,0.0,0.0,0.0,0.0,0.0,0.0,0.0,0.0,0.0,0.0,0.0,0.0,0.0,-0.0035180844570189946,0.010752769850533635,-0.0001546518082084306,0.0014605989419498259,0.0014141126479523436,-0.00018584405072938652,0.0,0.0,0.0,0.0,0.0,0.0,0.0,0.0,0.0,0.0,0.0,0.0,0.0,0.0,0.0,0.0,0.0,0.0,0.0,0.0,0.0,0.0,0.0,0.0,0.0,0.0,0.0,0.0,0.0,0.0,0.0,0.0,0.0,0.0,0.0,0.0
2025/04/01 17:52:29.169607923,1743522749,169267863,world_ned,mA1/odom,-18.231034699529815,-18.719495007387174,0.43365564013187596,-0.00017575819672452912,2.052093791027817e-05,0.0015419490699948057,0.9999987955397811,0.0,0.0,0.0,0.0,0.0,0.0,0.0,0.0,0.0,0.0,0.0,0.0,0.0,0.0,0.0,0.0,0.0,0.0,0.0,0.0,0.0,0.0,0.0,0.0,0.0,0.0,0.0,0.0,0.0,0.0,0.0,0.0,0.0,0.0,0.0,0.0,-0.0015744593181387064,0.012428132960355002,-7.167435848400438e-05,-0.0003231350005492587,0.0008856785654023414,-0.00023987809207737308,0.0,0.0,0.0,0.0,0.0,0.0,0.0,0.0,0.0,0.0,0.0,0.0,0.0,0.0,0.0,0.0,0.0,0.0,0.0,0.0,0.0,0.0,0.0,0.0,0.0,0.0,0.0,0.0,0.0,0.0,0.0,0.0,0.0,0.0,0.0,0.0
2025/04/01 17:52:29.272165841,1743522749,270409377,world_ned,mA1/odom,-18.230956251657872,-18.718165692194663,0.4336536315053844,-0.00023855242123035312,2.784255645494636e-05,0.0015288287447637894,0.9999988024993848,0.0,0.0,0.0,0.0,0.0,0.0,0.0,0.0,0.0,0.0,0.0,0.0,0.0,0.0,0.0,0.0,0.0,0.0,0.0,0.0,0.0,0.0,0.0,0.0,0.0,0.0,0.0,0.0,0.0,0.0,0.0,0.0,0.0,0.0,0.0,0.0,0.003289374337747093,0.01396633318285005,4.3866354625479335e-05,-0.0019659952460225933,-0.000590951661674254,-0.00028419813997557355,0.0,0.0,0.0,0.0,0.0,0.0,0.0,0.0,0.0,0.0,0.0,0.0,0.0,0.0,0.0,0.0,0.0,0.0,0.0,0.0,0.0,0.0,0.0,0.0,0.0,0.0,0.0,0.0,0.0,0.0,0.0,0.0,0.0,0.0,0.0,0.0
2025/04/01 17:52:29.362867045,1743522749,362580525,world_ned,mA1/odom,-18.230914465719426,-18.716696270144002,0.43366034087104105,-0.000372530208112554,3.180307259408823e-05,0.0015137316221790138,0.9999987844124535,0.0,0.0,0.0,0.0,0.0,0.0,0.0,0.0,0.0,0.0,0.0,0.0,0.0,0.0,0.0,0.0,0.0,0.0,0.0,0.0,0.0,0.0,0.0,0.0,0.0,0.0,0.0,0.0,0.0,0.0,0.0,0.0,0.0,0.0,0.0,0.0,0.0021445933300296887,0.01520354891114612,0.00010685198664597422,-0.003143560429072191,-0.0004775083660030125,-0.0003225418376651558,0.0,0.0,0.0,0.0,0.0,0.0,0.0,0.0,0.0,0.0,0.0,0.0,0.0,0.0,0.0,0.0,0.0,0.0,0.0,0.0,0.0,0.0,0.0,0.0,0.0,0.0,0.0,0.0,0.0,0.0,0.0,0.0,0.0,0.0,0.0,0.0
2025/04/01 17:52:29.465040912,1743522749,464731688,world_ned,mA1/odom,-18.23095629163655,-18.715150351310736,0.4336736408603548,-0.0005372745705983894,3.722825220535947e-05,0.001496181164183495,0.9999987356952093,0.0,0.0,0.0,0.0,0.0,0.0,0.0,0.0,0.0,0.0,0.0,0.0,0.0,0.0,0.0,0.0,0.0,0.0,0.0,0.0,0.0,0.0,0.0,0.0,0.0,0.0,0.0,0.0,0.0,0.0,0.0,0.0,0.0,0.0,0.0,0.0,-0.003987212574558192,0.015475550593988936,0.00016140506733688373,-0.0032187836349001947,0.0010081748445257023,-0.00037505017685782367,0.0,0.0,0.0,0.0,0.0,0.0,0.0,0.0,0.0,0.0,0.0,0.0,0.0,0.0,0.0,0.0,0.0,0.0,0.0,0.0,0.0,0.0,0.0,0.0,0.0,0.0,0.0,0.0,0.0,0.0,0.0,0.0,0.0,0.0,0.0,0.0
2025/04/01 17:52:29.568146406,1743522749,566817835,world_ned,mA1/odom,-18.23109833007077,-18.713623356562117,0.43369051990025204,-0.0006770964554068032,4.608321880466977e-05,0.001476024395078185,0.9999986803834854,0.0,0.0,0.0,0.0,0.0,0.0,0.0,0.0,0.0,0.0,0.0,0.0,0.0,0.0,0.0,0.0,0.0,0.0,0.0,0.0,0.0,0.0,0.0,0.0,0.0,0.0,0.0,0.0,0.0,0.0,0.0,0.0,0.0,0.0,0.0,0.0,-0.0021788206580231734,0.015060709395094017,0.00019024255402138888,-0.0023585376934598485,0.0003283528817652872,-0.00042589163973503775,0.0,0.0,0.0,0.0,0.0,0.0,0.0,0.0,0.0,0.0,0.0,0.0,0.0,0.0,0.0,0.0,0.0,0.0,0.0,0.0,0.0,0.0,0.0,0.0,0.0,0.0,0.0,0.0,0.0,0.0,0.0,0.0,0.0,0.0,0.0,0.0
2025/04/01 17:52:29.678446565,1743522749,669112731,world_ned,mA1/odom,-18.231080982367818,-18.712175905154393,0.4337068283808069,-0.0007512343091233593,2.4029600195250494e-05,0.0014532505840422667,0.9999986615652698,0.0,0.0,0.0,0.0,0.0,0.0,0.0,0.0,0.0,0.0,0.0,0.0,0.0,0.0,0.0,0.0,0.0,0.0,0.0,0.0,0.0,0.0,0.0,0.0,0.0,0.0,0.0,0.0,0.0,0.0,0.0,0.0,0.0,0.0,0.0,0.0,0.0026967710520057575,0.013873143175040055,0.0001824508206315371,-0.0006424547084610834,-0.0011825996753411067,-0.00048075520328422217,0.0,0.0,0.0,0.0,0.0,0.0,0.0,0.0,0.0,0.0,0.0,0.0,0.0,0.0,0.0,0.0,0.0,0.0,0.0,0.0,0.0,0.0,0.0,0.0,0.0,0.0,0.0,0.0,0.0,0.0,0.0,0.0,0.0,0.0,0.0,0.0
2025/04/01 17:52:29.771073553,1743522749,770844963,world_ned,mA1/odom,-18.231102215333653,-18.710863254067245,0.4337193993722735,-0.0007300354938586404,1.2787274152883225e-07,0.00143159566522618,0.9999987087901727,0.0,0.0,0.0,0.0,0.0,0.0,0.0,0.0,0.0,0.0,0.0,0.0,0.0,0.0,0.0,0.0,0.0,0.0,0.0,0.0,0.0,0.0,0.0,0.0,0.0,0.0,0.0,0.0,0.0,0.0,0.0,0.0,0.0,0.0,0.0,0.0,0.0013985764228287214,0.012514899095151848,0.00012223947655325279,0.0012965995458996008,-0.0010112075346660105,-0.0003476264269640806,0.0,0.0,0.0,0.0,0.0,0.0,0.0,0.0,0.0,0.0,0.0,0.0,0.0,0.0,0.0,0.0,0.0,0.0,0.0,0.0,0.0,0.0,0.0,0.0,0.0,0.0,0.0,0.0,0.0,0.0,0.0,0.0,0.0,0.0,0.0,0.0
2025/04/01 17:52:29.865056430,1743522749,864669685,world_ned,mA1/odom,-18.231199255991893,-18.70975791708258,0.4337279992237452,-0.0005903956126022483,-1.514995908564676e-05,0.0014099220424743917,0.9999988316609842,0.0,0.0,0.0,0.0,0.0,0.0,0.0,0.0,0.0,0.0,0.0,0.0,0.0,0.0,0.0,0.0,0.0,0.0,0.0,0.0,0.0,0.0,0.0,0.0,0.0,0.0,0.0,0.0,0.0,0.0,0.0,0.0,0.0,0.0,0.0,0.0,-0.004366614649288717,0.009591853401551803,5.774584675506072e-05,0.0041328650808658066,0.0006922667284575867,-0.0005213317397459507,0.0,0.0,0.0,0.0,0.0,0.0,0.0,0.0,0.0,0.0,0.0,0.0,0.0,0.0,0.0,0.0,0.0,0.0,0.0,0.0,0.0,0.0,0.0,0.0,0.0,0.0,0.0,0.0,0.0,0.0,0.0,0.0,0.0,0.0,0.0,0.0
2025/04/01 17:52:29.969712868,1743522749,968444981,world_ned,mA1/odom,-18.231361428023476,-18.7089459992819,0.4337276912685816,-0.0003232042672604295,-1.4684555478329392e-05,0.0013825265580602172,0.9999989919713328,0.0,0.0,0.0,0.0,0.0,0.0,0.0,0.0,0.0,0.0,0.0,0.0,0.0,0.0,0.0,0.0,0.0,0.0,0.0,0.0,0.0,0.0,0.0,0.0,0.0,0.0,0.0,0.0,0.0,0.0,0.0,0.0,0.0,0.0,0.0,0.0,-0.002258466243816674,0.007141319182094752,-5.04473383111883e-05,0.0060634548959534835,0.00026800212332909237,-0.0005677702109035961,0.0,0.0,0.0,0.0,0.0,0.0,0.0,0.0,0.0,0.0,0.0,0.0,0.0,0.0,0.0,0.0,0.0,0.0,0.0,0.0,0.0,0.0,0.0,0.0,0.0,0.0,0.0,0.0,0.0,0.0,0.0,0.0,0.0,0.0,0.0,0.0
2025/04/01 17:52:30.64160446,1743522750,63657810,world_ned,mA1/odom,-18.231334497300573,-18.708314701670098,0.4337171270486111,-4.5315079821442e-06,-3.209530756762244e-05,0.001353099547758214,0.9999990840350658,0.0,0.0,0.0,0.0,0.0,0.0,0.0,0.0,0.0,0.0,0.0,0.0,0.0,0.0,0.0,0.0,0.0,0.0,0.0,0.0,0.0,0.0,0.0,0.0,0.0,0.0,0.0,0.0,0.0,0.0,0.0,0.0,0.0,0.0,0.0,0.0,0.002878716366643195,0.005789476767603135,-0.000132673131754887,0.006383967323147271,-0.000988873481110241,-0.0006056637484721961,0.0,0.0,0.0,0.0,0.0,0.0,0.0,0.0,0.0,0.0,0.0,0.0,0.0,0.0,0.0,0.0,0.0,0.0,0.0,0.0,0.0,0.0,0.0,0.0,0.0,0.0,0.0,0.0,0.0,0.0,0.0,0.0,0.0,0.0,0.0,0.0
2025/04/01 17:52:30.168155291,1743522750,167519951,world_ned,mA1/odom,-18.231309667629645,-18.70767555391291,0.43369834195647705,0.0002557979717884742,-3.944208792588577e-05,0.001322068631298654,0.999999092572715,0.0,0.0,0.0,0.0,0.0,0.0,0.0,0.0,0.0,0.0,0.0,0.0,0.0,0.0,0.0,0.0,0.0,0.0,0.0,0.0,0.0,0.0,0.0,0.0,0.0,0.0,0.0,0.0,0.0,0.0,0.0,0.0,0.0,0.0,0.0,0.0,0.002132088725293947,0.007581085297097511,-0.0002216991217783794,0.003651297133218635,-0.0005738149148844923,-0.000631132387960709,0.0,0.0,0.0,0.0,0.0,0.0,0.0,0.0,0.0,0.0,0.0,0.0,0.0,0.0,0.0,0.0,0.0,0.0,0.0,0.0,0.0,0.0,0.0,0.0,0.0,0.0,0.0,0.0,0.0,0.0,0.0,0.0,0.0,0.0,0.0,0.0
2025/04/01 17:52:30.269940757,1743522750,269318048,world_ned,mA1/odom,-18.231327226628085,-18.706750777163563,0.43367649270891123,0.00032795090264239033,-2.95498937704076e-05,0.0012898294159864852,0.9999991139571509,0.0,0.0,0.0,0.0,0.0,0.0,0.0,0.0,0.0,0.0,0.0,0.0,0.0,0.0,0.0,0.0,0.0,0.0,0.0,0.0,0.0,0.0,0.0,0.0,0.0,0.0,0.0,0.0,0.0,0.0,0.0,0.0,0.0,0.0,0.0,0.0,-0.003575424271335159,0.010623225561001055,-0.00022945723874909457,-0.0004105187585409158,0.0012338257211739216,-0.0006571565257588669,0.0,0.0,0.0,0.0,0.0,0.0,0.0,0.0,0.0,0.0,0.0,0.0,0.0,0.0,0.0,0.0,0.0,0.0,0.0,0.0,0.0,0.0,0.0,0.0,0.0,0.0,0.0,0.0,0.0,0.0,0.0,0.0,0.0,0.0,0.0,0.0
2025/04/01 17:52:30.371386173,1743522750,370776358,world_ned,mA1/odom,-18.231396912696166,-18.7054489035968,0.43365674233421253,0.0001713653256993291,-8.255021702027964e-07,0.001256059103905524,0.9999991964740628,0.0,0.0,0.0,0.0,0.0,0.0,0.0,0.0,0.0,0.0,0.0,0.0,0.0,0.0,0.0,0.0,0.0,0.0,0.0,0.0,0.0,0.0,0.0,0.0,0.0,0.0,0.0,0.0,0.0,0.0,0.0,0.0,0.0,0.0,0.0,0.0,-0.0011882004066926114,0.015457072598656352,-0.00019076800756122293,-0.005631878232524909,0.0008603017941506702,-0.0006916566150981747,0.0,0.0,0.0,0.0,0.0,0.0,0.0,0.0,0.0,0.0,0.0,0.0,0.0,0.0,0.0,0.0,0.0,0.0,0.0,0.0,0.0,0.0,0.0,0.0,0.0,0.0,0.0,0.0,0.0,0.0,0.0,0.0,0.0,0.0,0.0,0.0
2025/04/01 17:52:30.462317002,1743522750,462114374,world_ned,mA1/odom,-18.231262276139987,-18.703665809042977,0.4336421340992758,-0.00022753212656763267,1.1270536126201428e-05,0.0012217645034162672,0.9999992276965041,0.0,0.0,0.0,0.0,0.0,0.0,0.0,0.0,0.0,0.0,0.0,0.0,0.0,0.0,0.0,0.0,0.0,0.0,0.0,0.0,0.0,0.0,0.0,0.0,0.0,0.0,0.0,0.0,0.0,0.0,0.0,0.0,0.0,0.0,0.0,0.0,0.00413415200552353,0.01929444027700325,-8.241491855590605e-05,-0.00939287418334747,-0.0004184576572361913,-0.0006913784365119414,0.0,0.0,0.0,0.0,0.0,0.0,0.0,0.0,0.0,0.0,0.0,0.0,0.0,0.0,0.0,0.0,0.0,0.0,0.0,0.0,0.0,0.0,0.0,0.0,0.0,0.0,0.0,0.0,0.0,0.0,0.0,0.0,0.0,0.0,0.0,0.0
2025/04/01 17:52:30.565946380,1743522750,565262213,world_ned,mA1/odom,-18.23110506303281,-18.701623230732697,0.43363798441226065,-0.0007375817364811492,2.7227077714151075e-05,0.0011863921275492239,0.9999990238523175,0.0,0.0,0.0,0.0,0.0,0.0,0.0,0.0,0.0,0.0,0.0,0.0,0.0,0.0,0.0,0.0,0.0,0.0,0.0,0.0,0.0,0.0,0.0,0.0,0.0,0.0,0.0,0.0,0.0,0.0,0.0,0.0,0.0,0.0,0.0,0.0,0.003523628114905191,0.02108601706373759,3.833869195300686e-05,-0.010458217385224837,-0.0001741589925817569,-0.0007205676689098288,0.0,0.0,0.0,0.0,0.0,0.0,0.0,0.0,0.0,0.0,0.0,0.0,0.0,0.0,0.0,0.0,0.0,0.0,0.0,0.0,0.0,0.0,0.0,0.0,0.0,0.0,0.0,0.0,0.0,0.0,0.0,0.0,0.0,0.0,0.0,0.0
2025/04/01 17:52:30.668750078,1743522750,666199339,world_ned,mA1/odom,-18.23099923528384,-18.699565730778502,0.4336437464471969,-0.0012050721722011142,5.090952856627568e-05,0.0011447947256709478,0.999998617326202,0.0,0.0,0.0,0.0,0.0,0.0,0.0,0.0,0.0,0.0,0.0,0.0,0.0,0.0,0.0,0.0,0.0,0.0,0.0,0.0,0.0,0.0,0.0,0.0,0.0,0.0,0.0,0.0,0.0,0.0,0.0,0.0,0.0,0.0,0.0,0.0,-0.002801401341495557,0.019847161266977966,0.00011300526520306816,-0.008045331909670033,0.0014693180182007374,-0.0008483493084970148,0.0,0.0,0.0,0.0,0.0,0.0,0.0,0.0,0.0,0.0,0.0,0.0,0.0,0.0,0.0,0.0,0.0,0.0,0.0,0.0,0.0,0.0,0.0,0.0,0.0,0.0,0.0,0.0,0.0,0.0,0.0,0.0,0.0,0.0,0.0,0.0
2025/04/01 17:52:30.770642674,1743522750,770215121,world_ned,mA1/odom,-18.230911579088772,-18.69767376710146,0.4336569411368301,-0.0015037325611076324,6.957057261221475e-05,0.0011026790283134265,0.9999982590221248,0.0,0.0,0.0,0.0,0.0,0.0,0.0,0.0,0.0,0.0,0.0,0.0,0.0,0.0,0.0,0.0,0.0,0.0,0.0,0.0,0.0,0.0,0.0,0.0,0.0,0.0,0.0,0.0,0.0,0.0,0.0,0.0,0.0,0.0,0.0,0.0,0.003624313049463448,0.018074309405591474,0.00022125954787869965,-0.00409050225740941,-0.00041945796777891807,-0.0008302099768369043,0.0,0.0,0.0,0.0,0.0,0.0,0.0,0.0,0.0,0.0,0.0,0.0,0.0,0.0,0.0,0.0,0.0,0.0,0.0,0.0,0.0,0.0,0.0,0.0,0.0,0.0,0.0,0.0,0.0,0.0,0.0,0.0,0.0,0.0,0.0,0.0
2025/04/01 17:52:30.871544476,1743522750,870987722,world_ned,mA1/odom,-18.230750894836053,-18.695987383743777,0.43367724798813034,-0.001577242254410681,6.92385504565986e-05,0.0010630358361082995,0.9999981887322122,0.0,0.0,0.0,0.0,0.0,0.0,0.0,0.0,0.0,0.0,0.0,0.0,0.0,0.0,0.0,0.0,0.0,0.0,0.0,0.0,0.0,0.0,0.0,0.0,0.0,0.0,0.0,0.0,0.0,0.0,0.0,0.0,0.0,0.0,0.0,0.0,0.005894584425334953,0.01583835754597252,0.0002872878964304466,0.0007333494571633008,-0.0013161237464623954,-0.0007420868279671035,0.0,0.0,0.0,0.0,0.0,0.0,0.0,0.0,0.0,0.0,0.0,0.0,0.0,0.0,0.0,0.0,0.0,0.0,0.0,0.0,0.0,0.0,0.0,0.0,0.0,0.0,0.0,0.0,0.0,0.0,0.0,0.0,0.0,0.0,0.0,0.0
2025/04/01 17:52:30.964133011,1743522750,963898749,world_ned,mA1/odom,-18.23058139628905,-18.69459627309829,0.43370071331964244,-0.0013850507425390115,5.3163785181325325e-05,0.0010298684746845798,0.9999985090883773,0.0,0.0,0.0,0.0,0.0,0.0,0.0,0.0,0.0,0.0,0.0,0.0,0.0,0.0,0.0,0.0,0.0,0.0,0.0,0.0,0.0,0.0,0.0,0.0,0.0,0.0,0.0,0.0,0.0,0.0,0.0,0.0,0.0,0.0,0.0,0.0,0.003727014823324411,0.01190619578442475,0.00027130175351688024,0.006606560149423242,-0.0010381600491715707,-0.0005904270992936106,0.0,0.0,0.0,0.0,0.0,0.0,0.0,0.0,0.0,0.0,0.0,0.0,0.0,0.0,0.0,0.0,0.0,0.0,0.0,0.0,0.0,0.0,0.0,0.0,0.0,0.0,0.0,0.0,0.0,0.0,0.0,0.0,0.0,0.0,0.0,0.0
2025/04/01 17:52:31.65652413,1743522751,65062110,world_ned,mA1/odom,-18.230504899002405,-18.69368932711177,0.4337223685481226,-0.0008917964828039275,3.604033701621243e-05,0.0009945108964350465,0.9999991071737035,0.0,0.0,0.0,0.0,0.0,0.0,0.0,0.0,0.0,0.0,0.0,0.0,0.0,0.0,0.0,0.0,0.0,0.0,0.0,0.0,0.0,0.0,0.0,0.0,0.0,0.0,0.0,0.0,0.0,0.0,0.0,0.0,0.0,0.0,0.0,0.0,0.0004787010802305917,0.006490248996820992,0.00018259890123366695,0.012475788094682605,-0.0003938602500642035,-0.000853710559679561,0.0,0.0,0.0,0.0,0.0,0.0,0.0,0.0,0.0,0.0,0.0,0.0,0.0,0.0,0.0,0.0,0.0,0.0,0.0,0.0,0.0,0.0,0.0,0.0,0.0,0.0,0.0,0.0,0.0,0.0,0.0,0.0,0.0,0.0,0.0,0.0
2025/04/01 17:52:31.168218401,1743522751,167935683,world_ned,mA1/odom,-18.230506253476936,-18.693261369974774,0.4337346900874699,-0.00017226825862363368,1.950989922878885e-05,0.0009508763083076165,0.9999995328885195,0.0,0.0,0.0,0.0,0.0,0.0,0.0,0.0,0.0,0.0,0.0,0.0,0.0,0.0,0.0,0.0,0.0,0.0,0.0,0.0,0.0,0.0,0.0,0.0,0.0,0.0,0.0,0.0,0.0,0.0,0.0,0.0,0.0,0.0,0.0,0.0,-0.003780128122096739,0.002847504978917723,6.709507132516277e-05,0.01537183048740105,0.0006647650842083428,-0.0008881170855229283,0.0,0.0,0.0,0.0,0.0,0.0,0.0,0.0,0.0,0.0,0.0,0.0,0.0,0.0,0.0,0.0,0.0,0.0,0.0,0.0,0.0,0.0,0.0,0.0,0.0,0.0,0.0,0.0,0.0,0.0,0.0,0.0,0.0,0.0,0.0,0.0
2025/04/01 17:52:31.272109893,1743522751,270144824,world_ned,mA1/odom,-18.230346689564293,-18.692994334954808,0.4337333924361444,0.0005635701556164657,-2.2222252437429716e-05,0.0009069101748105262,0.9999994297042304,0.0,0.0,0.0,0.0,0.0,0.0,0.0,0.0,0.0,0.0,0.0,0.0,0.0,0.0,0.0,0.0,0.0,0.0,0.0,0.0,0.0,0.0,0.0,0.0,0.0,0.0,0.0,0.0,0.0,0.0,0.0,0.0,0.0,0.0,0.0,0.0,0.002722131274954306,0.003330194145925925,-7.011377063848023e-05,0.01330211236139422,-0.001116521957964776,-0.0008541060854099904,0.0,0.0,0.0,0.0,0.0,0.0,0.0,0.0,0.0,0.0,0.0,0.0,0.0,0.0,0.0,0.0,0.0,0.0,0.0,0.0,0.0,0.0,0.0,0.0,0.0,0.0,0.0,0.0,0.0,0.0,0.0,0.0,0.0,0.0,0.0,0.0
2025/04/01 17:52:31.363699940,1743522751,362151514,world_ned,mA1/odom,-18.230220947079165,-18.692445144550064,0.43371792462638303,0.0010630416403312052,-5.347110753039301e-05,0.0008642116801482552,0.9999990601103,0.0,0.0,0.0,0.0,0.0,0.0,0.0,0.0,0.0,0.0,0.0,0.0,0.0,0.0,0.0,0.0,0.0,0.0,0.0,0.0,0.0,0.0,0.0,0.0,0.0,0.0,0.0,0.0,0.0,0.0,0.0,0.0,0.0,0.0,0.0,0.0,0.0028400593275719824,0.007909755256977489,-0.00022579296576228538,0.006622707387049143,-0.0009935241648617943,-0.0008531643813022832,0.0,0.0,0.0,0.0,0.0,0.0,0.0,0.0,0.0,0.0,0.0,0.0,0.0,0.0,0.0,0.0,0.0,0.0,0.0,0.0,0.0,0.0,0.0,0.0,0.0,0.0,0.0,0.0,0.0,0.0,0.0,0.0,0.0,0.0,0.0,0.0
2025/04/01 17:52:31.464801929,1743522751,464505016,world_ned,mA1/odom,-18.230209867009894,-18.691336326352324,0.43369398105946716,0.0011674035205732406,-5.830863489824815e-05,0.0008220451390852837,0.9999989790049351,0.0,0.0,0.0,0.0,0.0,0.0,0.0,0.0,0.0,0.0,0.0,0.0,0.0,0.0,0.0,0.0,0.0,0.0,0.0,0.0,0.0,0.0,0.0,0.0,0.0,0.0,0.0,0.0,0.0,0.0,0.0,0.0,0.0,0.0,0.0,0.0,-0.0038859291254636635,0.013663700330276678,-0.0003054800804550298,-0.0016582482980801888,0.001135168323667489,-0.0008406339319863817,0.0,0.0,0.0,0.0,0.0,0.0,0.0,0.0,0.0,0.0,0.0,0.0,0.0,0.0,0.0,0.0,0.0,0.0,0.0,0.0,0.0,0.0,0.0,0.0,0.0,0.0,0.0,0.0,0.0,0.0,0.0,0.0,0.0,0.0,0.0,0.0
2025/04/01 17:52:31.568918422,1743522751,568364548,world_ned,mA1/odom,-18.230052676302364,-18.689687988289716,0.433669314162125,0.0008726713077632669,-6.799571286466002e-05,0.000779741802288719,0.9999993129118107,0.0,0.0,0.0,0.0,0.0,0.0,0.0,0.0,0.0,0.0,0.0,0.0,0.0,0.0,0.0,0.0,0.0,0.0,0.0,0.0,0.0,0.0,0.0,0.0,0.0,0.0,0.0,0.0,0.0,0.0,0.0,0.0,0.0,0.0,0.0,0.0,0.00684483529271392,0.018552150211641003,-0.0002696964953889995,-0.009078611734226425,-0.001468564865086556,-0.0008490093904188786,0.0,0.0,0.0,0.0,0.0,0.0,0.0,0.0,0.0,0.0,0.0,0.0,0.0,0.0,0.0,0.0,0.0,0.0,0.0,0.0,0.0,0.0,0.0,0.0,0.0,0.0,0.0,0.0,0.0,0.0,0.0,0.0,0.0,0.0,0.0,0.0
2025/04/01 17:52:31.669969940,1743522751,669102151,world_ned,mA1/odom,-18.229895083016494,-18.687634378340658,0.4336471554099515,0.00026575226308123357,-5.8830302300600314e-05,0.0007369251237364714,0.9999996914279985,0.0,0.0,0.0,0.0,0.0,0.0,0.0,0.0,0.0,0.0,0.0,0.0,0.0,0.0,0.0,0.0,0.0,0.0,0.0,0.0,0.0,0.0,0.0,0.0,0.0,0.0,0.0,0.0,0.0,0.0,0.0,0.0,0.0,0.0,0.0,0.0,-0.002638660422302338,0.0218611220218518,-0.0002066968805188271,-0.014174927034407382,0.001540886512274654,-0.0008612013386266708,0.0,0.0,0.0,0.0,0.0,0.0,0.0,0.0,0.0,0.0,0.0,0.0,0.0,0.0,0.0,0.0,0.0,0.0,0.0,0.0,0.0,0.0,0.0,0.0,0.0,0.0,0.0,0.0,0.0,0.0,0.0,0.0,0.0,0.0,0.0,0.0
2025/04/01 17:52:31.770404147,1743522751,769963246,world_ned,mA1/odom,-18.22967824577592,-18.685365254041944,0.4336334245475065,-0.0005043449853000322,-4.3076271165003557e-05,0.0006952886740027343,0.9999996301770468,0.0,0.0,0.0,0.0,0.0,0.0,0.0,0.0,0.0,0.0,0.0,0.0,0.0,0.0,0.0,0.0,0.0,0.0,0.0,0.0,0.0,0.0,0.0,0.0,0.0,0.0,0.0,0.0,0.0,0.0,0.0,0.0,0.0,0.0,0.0,0.0,0.0029884755807409688,0.023004916637169973,-7.215679769386381e-05,-0.015825282170461627,0.0001798806608140841,-0.0007835707367605738,0.0,0.0,0.0,0.0,0.0,0.0,0.0,0.0,0.0,0.0,0.0,0.0,0.0,0.0,0.0,0.0,0.0,0.0,0.0,0.0,0.0,0.0,0.0,0.0,0.0,0.0,0.0,0.0,0.0,0.0,0.0,0.0,0.0,0.0,0.0,0.0
2025/04/01 17:52:31.872189321,1743522751,871818526,world_ned,mA1/odom,-18.229499002286506,-18.68313355906902,0.4336307775952596,-0.001244724698861425,-1.3683717336673149e-05,0.0006568860980399537,0.9999990094864265,0.0,0.0,0.0,0.0,0.0,0.0,0.0,0.0,0.0,0.0,0.0,0.0,0.0,0.0,0.0,0.0,0.0,0.0,0.0,0.0,0.0,0.0,0.0,0.0,0.0,0.0,0.0,0.0,0.0,0.0,0.0,0.0,0.0,0.0,0.0,0.0,0.004276597192935333,0.02130653746562347,9.007398361252409e-05,-0.013348501647681515,-2.5976742184528245e-05,-0.0007725510961575018,0.0,0.0,0.0,0.0,0.0,0.0,0.0,0.0,0.0,0.0,0.0,0.0,0.0,0.0,0.0,0.0,0.0,0.0,0.0,0.0,0.0,0.0,0.0,0.0,0.0,0.0,0.0,0.0,0.0,0.0,0.0,0.0,0.0,0.0,0.0,0.0
2025/04/01 17:52:31.963158080,1743522751,962871472,world_ned,mA1/odom,-18.22934065543219,-18.68111738775163,0.4336406807408753,-0.0017925841013480303,2.27492114730931e-05,0.0006181136850125744,0.9999982020284763,0.0,0.0,0.0,0.0,0.0,0.0,0.0,0.0,0.0,0.0,0.0,0.0,0.0,0.0,0.0,0.0,0.0,0.0,0.0,0.0,0.0,0.0,0.0,0.0,0.0,0.0,0.0,0.0,0.0,0.0,0.0,0.0,0.0,0.0,0.0,0.0,-4.924688639282699e-05,0.019538614873058368,0.00020216549934595632,-0.008984295068263098,0.0011854146465182338,-0.0007863887245099766,0.0,0.0,0.0,0.0,0.0,0.0,0.0,0.0,0.0,0.0,0.0,0.0,0.0,0.0,0.0,0.0,0.0,0.0,0.0,0.0,0.0,0.0,0.0,0.0,0.0,0.0,0.0,0.0,0.0,0.0,0.0,0.0,0.0,0.0,0.0,0.0
2025/04/01 17:52:32.68580587,1743522752,67619770,world_ned,mA1/odom,-18.229124205924002,-18.679306040490502,0.4336592934497589,-0.0020761938209158236,4.613970150604388e-05,0.0005794652293813841,0.9999976757524959,0.0,0.0,0.0,0.0,0.0,0.0,0.0,0.0,0.0,0.0,0.0,0.0,0.0,0.0,0.0,0.0,0.0,0.0,0.0,0.0,0.0,0.0,0.0,0.0,0.0,0.0,0.0,0.0,0.0,0.0,0.0,0.0,0.0,0.0,0.0,0.0,0.005314367506092126,0.016757000200927217,0.0002987617999664654,-0.002699197179925306,-0.0004776402339574607,-0.0007495003451257006,0.0,0.0,0.0,0.0,0.0,0.0,0.0,0.0,0.0,0.0,0.0,0.0,0.0,0.0,0.0,0.0,0.0,0.0,0.0,0.0,0.0,0.0,0.0,0.0,0.0,0.0,0.0,0.0,0.0,0.0,0.0,0.0,0.0,0.0,0.0,0.0
2025/04/01 17:52:32.171855951,1743522752,168641308,world_ned,mA1/odom,-18.22895555832833,-18.677816500985923,0.4336831922779468,-0.0020164166441382927,6.654782540936926e-05,0.0005430054934009868,0.9999978173877873,0.0,0.0,0.0,0.0,0.0,0.0,0.0,0.0,0.0,0.0,0.0,0.0,0.0,0.0,0.0,0.0,0.0,0.0,0.0,0.0,0.0,0.0,0.0,0.0,0.0,0.0,0.0,0.0,0.0,0.0,0.0,0.0,0.0,0.0,0.0,0.0,0.0001616908340484245,0.013322997162256668,0.000293260134956746,0.004377981897318783,0.0006870549084590163,-0.0007150668612842198,0.0,0.0,0.0,0.0,0.0,0.0,0.0,0.0,0.0,0.0,0.0,0.0,0.0,0.0,0.0,0.0,0.0,0.0,0.0,0.0,0.0,0.0,0.0,0.0,0.0,0.0,0.0,0.0,0.0,0.0,0.0,0.0,0.0,0.0,0.0,0.0
2025/04/01 17:52:32.270240797,1743522752,269984721,world_ned,mA1/odom,-18.228794489650237,-18.67666056328816,0.43370696423672944,-0.0016193389140471328,7.127130511152371e-05,0.000507250390847754,0.9999985576784216,0.0,0.0,0.0,0.0,0.0,0.0,0.0,0.0,0.0,0.0,0.0,0.0,0.0,0.0,0.0,0.0,0.0,0.0,0.0,0.0,0.0,0.0,0.0,0.0,0.0,0.0,0.0,0.0,0.0,0.0,0.0,0.0,0.0,0.0,0.0,0.0,0.0022490691968784717,0.01012930382031554,0.00025870478657964393,0.010677846257755069,-0.0002275619428572368,-0.000712224554414087,0.0,0.0,0.0,0.0,0.0,0.0,0.0,0.0,0.0,0.0,0.0,0.0,0.0,0.0,0.0,0.0,0.0,0.0,0.0,0.0,0.0,0.0,0.0,0.0,0.0,0.0,0.0,0.0,0.0,0.0,0.0,0.0,0.0,0.0,0.0,0.0
2025/04/01 17:52:32.365337856,1743522752,364155504,world_ned,mA1/odom,-18.228629990369893,-18.67575949187444,0.43372641324821043,-0.0009678270228858486,5.978929285575988e-05,0.00047238932966465704,0.9999994182920385,0.0,0.0,0.0,0.0,0.0,0.0,0.0,0.0,0.0,0.0,0.0,0.0,0.0,0.0,0.0,0.0,0.0,0.0,0.0,0.0,0.0,0.0,0.0,0.0,0.0,0.0,0.0,0.0,0.0,0.0,0.0,0.0,0.0,0.0,0.0,0.0,0.0010061396304201365,0.008419722323324578,0.00016643094090483212,0.014434732563967774,-0.00018723662670061815,-0.0006910577045323815,0.0,0.0,0.0,0.0,0.0,0.0,0.0,0.0,0.0,0.0,0.0,0.0,0.0,0.0,0.0,0.0,0.0,0.0,0.0,0.0,0.0,0.0,0.0,0.0,0.0,0.0,0.0,0.0,0.0,0.0,0.0,0.0,0.0,0.0,0.0,0.0
2025/04/01 17:52:32.465746937,1743522752,465421831,world_ned,mA1/odom,-18.228478489129873,-18.674930076062644,0.43373620352962117,-0.00021721418056050277,3.6925008522900555e-05,0.00043794749959936296,0.9999998798282583,0.0,0.0,0.0,0.0,0.0,0.0,0.0,0.0,0.0,0.0,0.0,0.0,0.0,0.0,0.0,0.0,0.0,0.0,0.0,0.0,0.0,0.0,0.0,0.0,0.0,0.0,0.0,0.0,0.0,0.0,0.0,0.0,0.0,0.0,0.0,0.0,0.006971711217575932,0.008384194960077857,5.450190726792657e-05,0.015017656925008914,-0.0021020611970259686,-0.0006849271877127134,0.0,0.0,0.0,0.0,0.0,0.0,0.0,0.0,0.0,0.0,0.0,0.0,0.0,0.0,0.0,0.0,0.0,0.0,0.0,0.0,0.0,0.0,0.0,0.0,0.0,0.0,0.0,0.0,0.0,0.0,0.0,0.0,0.0,0.0,0.0,0.0
2025/04/01 17:52:32.568370472,1743522752,568108236,world_ned,mA1/odom,-18.22841888762024,-18.674007548812796,0.43373311030105655,0.0004720503716220494,1.7757616411312543e-05,0.0004038717756306345,0.9999998068703326,0.0,0.0,0.0,0.0,0.0,0.0,0.0,0.0,0.0,0.0,0.0,0.0,0.0,0.0,0.0,0.0,0.0,0.0,0.0,0.0,0.0,0.0,0.0,0.0,0.0,0.0,0.0,0.0,0.0,0.0,0.0,0.0,0.0,0.0,0.0,0.0,0.0007298335922962171,0.010198555556457541,-9.611625239003444e-05,0.012288924311123686,-0.0004654108516087362,-0.0006777260044818155,0.0,0.0,0.0,0.0,0.0,0.0,0.0,0.0,0.0,0.0,0.0,0.0,0.0,0.0,0.0,0.0,0.0,0.0,0.0,0.0,0.0,0.0,0.0,0.0,0.0,0.0,0.0,0.0,0.0,0.0,0.0,0.0,0.0,0.0,0.0,0.0
2025/04/01 17:52:32.672454332,1743522752,669308265,world_ned,mA1/odom,-18.22824253883555,-18.672833078045386,0.433719002803706,0.0009533045832730459,-2.028934207327994e-05,0.0003700456208979662,0.9999994769323395,0.0,0.0,0.0,0.0,0.0,0.0,0.0,0.0,0.0,0.0,0.0,0.0,0.0,0.0,0.0,0.0,0.0,0.0,0.0,0.0,0.0,0.0,0.0,0.0,0.0,0.0,0.0,0.0,0.0,0.0,0.0,0.0,0.0,0.0,0.0,0.0,-0.002931600142334494,0.013111585590108686,-0.00020903986377055142,0.0071538409739624,0.0005638412261459632,-0.0006760318425924109,0.0,0.0,0.0,0.0,0.0,0.0,0.0,0.0,0.0,0.0,0.0,0.0,0.0,0.0,0.0,0.0,0.0,0.0,0.0,0.0,0.0,0.0,0.0,0.0,0.0,0.0,0.0,0.0,0.0,0.0,0.0,0.0,0.0,0.0,0.0,0.0
2025/04/01 17:52:32.773701086,1743522752,770728429,world_ned,mA1/odom,-18.228111989146843,-18.671330551606143,0.43369724299952656,0.0011358197272745532,-4.647920972605517e-05,0.0003360880936753515,0.9999992973987649,0.0,0.0,0.0,0.0,0.0,0.0,0.0,0.0,0.0,0.0,0.0,0.0,0.0,0.0,0.0,0.0,0.0,0.0,0.0,0.0,0.0,0.0,0.0,0.0,0.0,0.0,0.0,0.0,0.0,0.0,0.0,0.0,0.0,0.0,0.0,0.0,0.009709171556446225,0.01663677483263917,-0.0002667224273010041,0.0006643853809641714,-0.0027948667005036967,-0.000681573269063468,0.0,0.0,0.0,0.0,0.0,0.0,0.0,0.0,0.0,0.0,0.0,0.0,0.0,0.0,0.0,0.0,0.0,0.0,0.0,0.0,0.0,0.0,0.0,0.0,0.0,0.0,0.0,0.0,0.0,0.0,0.0,0.0,0.0,0.0,0.0,0.0
